{"data": {"bikes": [{"fusion_lat": 0.0, "name": "13fa18e3fecc75e1f152d626921b27eb", "is_disabled": 0, "rental_uris": {"android": "https://dc.lft.to/lastmile_qr_scan", "ios": "https://dc.lft.to/lastmile_qr_scan"}, "fusion_lon": 0.0, "lat": 38.937746833333335, "bike_id": "13fa18e3fecc75e1f152d626921b27eb", "type": "electric_scooter", "is_reserved": 0, "lon": -77.03261}, {"fusion_lat": 0.0, "name": "5b9e8a84768a0d09d116e0e044fb1776", "is_disabled": 0, "rental_uris": {"android": "https://dc.lft.to/lastmile_qr_scan", "ios": "https://dc.lft.to/lastmile_qr_scan"}, "fusion_lon": 0.0, "lat": 38.8839035, "bike_id": "5b9e8a84768a0d09d116e0e044fb1776", "type": "electric_scooter", "is_reserved": 0, "lon": -76.98586566666667}, {"fusion_lat": 0.0, "name": "5e4d7e5fd8ad71449d83841da89ff6ae", "is_disabled": 0, "rental_uris": {"android": "https://dc.lft.to/lastmile_qr_scan", "ios": "https://dc.lft.to/lastmile_qr_scan"}, "fusion_lon": 0.0, "lat": 38.900624666666666, "bike_id": "5e4d7e5fd8ad71449d83841da89ff6ae", "type": "electric_scooter", "is_reserved": 0, "lon": -76.93389133333334}, {"fusion_lat": 0.0, "name": "a63c2d7bd73ddb8b0cd21a66f3c90db1", "is_disabled": 0, "rental_uris": {"android": "https://dc.lft.to/lastmile_qr_scan", "ios": "https://dc.lft.to/lastmile_qr_scan"}, "fusion_lon": 0.0, "lat": 38.93257, "bike_id": "a63c2d7bd73ddb8b0cd21a66f3c90db1", "type": "electric_scooter", "is_reserved": 0, "lon": -77.03452133333333}, {"fusion_lat": 0.0, "name": "efcc9a9a3d7a1d63af5e7f78b1812b43", "is_disabled": 0, "rental_uris": {"android": "https://dc.lft.to/lastmile_qr_scan", "ios": "https://dc.lft.to/lastmile_qr_scan"}, "fusion_lon": 0.0, "lat": 38.94858966666666, "bike_id": "efcc9a9a3d7a1d63af5e7f78b1812b43", "type": "electric_scooter", "is_reserved": 0, "lon": -77.02568483333333}, {"fusion_lat": 0.0, "name": "a6206d194bc73d07e34a21b92a3a09f3", "is_disabled": 0, "rental_uris": {"android": "https://dc.lft.to/lastmile_qr_scan", "ios": "https://dc.lft.to/lastmile_qr_scan"}, "fusion_lon": 0.0, "lat": 38.91111866666667, "bike_id": "a6206d194bc73d07e34a21b92a3a09f3", "type": "electric_scooter", "is_reserved": 0, "lon": -77.04505183333333}, {"fusion_lat": 0.0, "name": "5233f15cad33f7bb15d175c2f621ceef", "is_disabled": 0, "rental_uris": {"android": "https://dc.lft.to/lastmile_qr_scan", "ios": "https://dc.lft.to/lastmile_qr_scan"}, "fusion_lon": 0.0, "lat": 38.91560616666666, "bike_id": "5233f15cad33f7bb15d175c2f621ceef", "type": "electric_scooter", "is_reserved": 0, "lon": -77.01133583333333}, {"fusion_lat": 0.0, "name": "a1bfa968ebc33cc8fc41f9338a55c21d", "is_disabled": 0, "rental_uris": {"android": "https://dc.lft.to/lastmile_qr_scan", "ios": "https://dc.lft.to/lastmile_qr_scan"}, "fusion_lon": 0.0, "lat": 38.900435, "bike_id": "a1bfa968ebc33cc8fc41f9338a55c21d", "type": "electric_scooter", "is_reserved": 0, "lon": -77.00201233333334}, {"fusion_lat": 0.0, "name": "fe915b2669767e34074d629497943802", "is_disabled": 0, "rental_uris": {"android": "https://dc.lft.to/lastmile_qr_scan", "ios": "https://dc.lft.to/lastmile_qr_scan"}, "fusion_lon": 0.0, "lat": 38.90366366666667, "bike_id": "fe915b2669767e34074d629497943802", "type": "electric_scooter", "is_reserved": 0, "lon": -77.05489416666667}, {"fusion_lat": 0.0, "name": "cb6c6aa5327ce3c411958e12c05b7f75", "is_disabled": 0, "rental_uris": {"android": "https://dc.lft.to/lastmile_qr_scan", "ios": "https://dc.lft.to/lastmile_qr_scan"}, "fusion_lon": 0.0, "lat": 38.878774666666665, "bike_id": "cb6c6aa5327ce3c411958e12c05b7f75", "type": "electric_bike", "is_reserved": 0, "lon": -77.005956}, {"fusion_lat": 0.0, "name": "828673d427d8fc4c32c3f0fb72489537", "is_disabled": 0, "rental_uris": {"android": "https://dc.lft.to/lastmile_qr_scan", "ios": "https://dc.lft.to/lastmile_qr_scan"}, "fusion_lon": 0.0, "lat": 38.940074333333335, "bike_id": "828673d427d8fc4c32c3f0fb72489537", "type": "electric_scooter", "is_reserved": 0, "lon": -77.08421566666667}, {"fusion_lat": 0.0, "name": "e63f026ad9e23d2a1024188bb8aa2ba8", "is_disabled": 0, "rental_uris": {"android": "https://dc.lft.to/lastmile_qr_scan", "ios": "https://dc.lft.to/lastmile_qr_scan"}, "fusion_lon": 0.0, "lat": 38.88677783333333, "bike_id": "e63f026ad9e23d2a1024188bb8aa2ba8", "type": "electric_scooter", "is_reserved": 0, "lon": -77.01370016666667}, {"fusion_lat": 0.0, "name": "d2aedbf2eb4ef99f103b0064bc03bc1e", "is_disabled": 0, "rental_uris": {"android": "https://dc.lft.to/lastmile_qr_scan", "ios": "https://dc.lft.to/lastmile_qr_scan"}, "fusion_lon": 0.0, "lat": 38.835085666666664, "bike_id": "d2aedbf2eb4ef99f103b0064bc03bc1e", "type": "electric_bike", "is_reserved": 0, "lon": -76.98674683333333}, {"fusion_lat": 0.0, "name": "5d2ec686c45880e443dc6eb943f6e291", "is_disabled": 0, "rental_uris": {"android": "https://dc.lft.to/lastmile_qr_scan", "ios": "https://dc.lft.to/lastmile_qr_scan"}, "fusion_lon": 0.0, "lat": 38.89669466666667, "bike_id": "5d2ec686c45880e443dc6eb943f6e291", "type": "electric_scooter", "is_reserved": 0, "lon": -77.03351933333333}, {"fusion_lat": 0.0, "name": "20902f9a0c38d82714104be0b2d9faa0", "is_disabled": 0, "rental_uris": {"android": "https://dc.lft.to/lastmile_qr_scan", "ios": "https://dc.lft.to/lastmile_qr_scan"}, "fusion_lon": 0.0, "lat": 38.93179683333334, "bike_id": "20902f9a0c38d82714104be0b2d9faa0", "type": "electric_bike", "is_reserved": 0, "lon": -77.0353535}, {"fusion_lat": 0.0, "name": "1ee60eaba283b4083f3f6ac792157f55", "is_disabled": 0, "rental_uris": {"android": "https://dc.lft.to/lastmile_qr_scan", "ios": "https://dc.lft.to/lastmile_qr_scan"}, "fusion_lon": 0.0, "lat": 38.90771516666667, "bike_id": "1ee60eaba283b4083f3f6ac792157f55", "type": "electric_scooter", "is_reserved": 0, "lon": -77.0559385}, {"fusion_lat": 0.0, "name": "874cfaf78abee1a4628854994b6511ca", "is_disabled": 0, "rental_uris": {"android": "https://dc.lft.to/lastmile_qr_scan", "ios": "https://dc.lft.to/lastmile_qr_scan"}, "fusion_lon": 0.0, "lat": 38.900245166666664, "bike_id": "874cfaf78abee1a4628854994b6511ca", "type": "electric_scooter", "is_reserved": 0, "lon": -76.99477366666666}, {"fusion_lat": 0.0, "name": "48ae84929d5eaafcfb047116abdb79ca", "is_disabled": 0, "rental_uris": {"android": "https://dc.lft.to/lastmile_qr_scan", "ios": "https://dc.lft.to/lastmile_qr_scan"}, "fusion_lon": 0.0, "lat": 38.90643633333333, "bike_id": "48ae84929d5eaafcfb047116abdb79ca", "type": "electric_scooter", "is_reserved": 0, "lon": -77.02955116666666}, {"fusion_lat": 0.0, "name": "f3b8e7e9a9f5d29e4f6fc47477821834", "is_disabled": 0, "rental_uris": {"android": "https://dc.lft.to/lastmile_qr_scan", "ios": "https://dc.lft.to/lastmile_qr_scan"}, "fusion_lon": 0.0, "lat": 38.895149333333336, "bike_id": "f3b8e7e9a9f5d29e4f6fc47477821834", "type": "electric_scooter", "is_reserved": 0, "lon": -76.98083183333334}, {"fusion_lat": 0.0, "name": "dedaf061c6da907d375b08a2935c3e31", "is_disabled": 0, "rental_uris": {"android": "https://dc.lft.to/lastmile_qr_scan", "ios": "https://dc.lft.to/lastmile_qr_scan"}, "fusion_lon": 0.0, "lat": 38.9534635, "bike_id": "dedaf061c6da907d375b08a2935c3e31", "type": "electric_scooter", "is_reserved": 0, "lon": -77.07949733333334}, {"fusion_lat": 0.0, "name": "c22537a02358d9088bfd0c69674f195c", "is_disabled": 0, "rental_uris": {"android": "https://dc.lft.to/lastmile_qr_scan", "ios": "https://dc.lft.to/lastmile_qr_scan"}, "fusion_lon": 0.0, "lat": 38.93550533333333, "bike_id": "c22537a02358d9088bfd0c69674f195c", "type": "electric_scooter", "is_reserved": 0, "lon": -77.02225616666666}, {"fusion_lat": 0.0, "name": "796d376004ef8e4f317dff3c96bd87fb", "is_disabled": 0, "rental_uris": {"android": "https://dc.lft.to/lastmile_qr_scan", "ios": "https://dc.lft.to/lastmile_qr_scan"}, "fusion_lon": 0.0, "lat": 38.95924566666667, "bike_id": "796d376004ef8e4f317dff3c96bd87fb", "type": "electric_scooter", "is_reserved": 0, "lon": -77.08481316666666}, {"fusion_lat": 0.0, "name": "c6ec6b36fe1665b3d5ba6f33771b4b7d", "is_disabled": 0, "rental_uris": {"android": "https://dc.lft.to/lastmile_qr_scan", "ios": "https://dc.lft.to/lastmile_qr_scan"}, "fusion_lon": 0.0, "lat": 38.916525166666666, "bike_id": "c6ec6b36fe1665b3d5ba6f33771b4b7d", "type": "electric_bike", "is_reserved": 0, "lon": -76.98227233333333}, {"fusion_lat": 0.0, "name": "f0a66b5d3fee3a9a284da4fbbf75b905", "is_disabled": 0, "rental_uris": {"android": "https://dc.lft.to/lastmile_qr_scan", "ios": "https://dc.lft.to/lastmile_qr_scan"}, "fusion_lon": 0.0, "lat": 38.92681666666667, "bike_id": "f0a66b5d3fee3a9a284da4fbbf75b905", "type": "electric_scooter", "is_reserved": 0, "lon": -77.02254966666666}, {"fusion_lat": 0.0, "name": "9d27a9ad01606bd0a69df343b6a1cdb3", "is_disabled": 0, "rental_uris": {"android": "https://dc.lft.to/lastmile_qr_scan", "ios": "https://dc.lft.to/lastmile_qr_scan"}, "fusion_lon": 0.0, "lat": 38.911172666666666, "bike_id": "9d27a9ad01606bd0a69df343b6a1cdb3", "type": "electric_scooter", "is_reserved": 0, "lon": -76.997693}, {"fusion_lat": 0.0, "name": "1ae904bfe407130a20cb73321f99c8b9", "is_disabled": 0, "rental_uris": {"android": "https://dc.lft.to/lastmile_qr_scan", "ios": "https://dc.lft.to/lastmile_qr_scan"}, "fusion_lon": 0.0, "lat": 38.93054866666667, "bike_id": "1ae904bfe407130a20cb73321f99c8b9", "type": "electric_scooter", "is_reserved": 0, "lon": -77.03950333333333}, {"fusion_lat": 0.0, "name": "e95ebfd99fcd545fadc47cdf0f61d764", "is_disabled": 0, "rental_uris": {"android": "https://dc.lft.to/lastmile_qr_scan", "ios": "https://dc.lft.to/lastmile_qr_scan"}, "fusion_lon": 0.0, "lat": 38.9497505, "bike_id": "e95ebfd99fcd545fadc47cdf0f61d764", "type": "electric_scooter", "is_reserved": 0, "lon": -77.027012}, {"fusion_lat": 0.0, "name": "a0758f5673fe7e561fd664918d26a2cb", "is_disabled": 0, "rental_uris": {"android": "https://dc.lft.to/lastmile_qr_scan", "ios": "https://dc.lft.to/lastmile_qr_scan"}, "fusion_lon": 0.0, "lat": 38.868496, "bike_id": "a0758f5673fe7e561fd664918d26a2cb", "type": "electric_scooter", "is_reserved": 0, "lon": -76.98830433333333}, {"fusion_lat": 0.0, "name": "dff792cba756e7702e77561d8e1506c7", "is_disabled": 0, "rental_uris": {"android": "https://dc.lft.to/lastmile_qr_scan", "ios": "https://dc.lft.to/lastmile_qr_scan"}, "fusion_lon": 0.0, "lat": 38.94976883333333, "bike_id": "dff792cba756e7702e77561d8e1506c7", "type": "electric_scooter", "is_reserved": 0, "lon": -77.02701316666666}, {"fusion_lat": 0.0, "name": "f305638c43c636697b24c7b6715cb769", "is_disabled": 0, "rental_uris": {"android": "https://dc.lft.to/lastmile_qr_scan", "ios": "https://dc.lft.to/lastmile_qr_scan"}, "fusion_lon": 0.0, "lat": 38.945132, "bike_id": "f305638c43c636697b24c7b6715cb769", "type": "electric_bike", "is_reserved": 0, "lon": -77.00678933333333}, {"fusion_lat": 0.0, "name": "080485be0dfcc7f61421e1d56b0834e4", "is_disabled": 0, "rental_uris": {"android": "https://dc.lft.to/lastmile_qr_scan", "ios": "https://dc.lft.to/lastmile_qr_scan"}, "fusion_lon": 0.0, "lat": 38.908047, "bike_id": "080485be0dfcc7f61421e1d56b0834e4", "type": "electric_bike", "is_reserved": 0, "lon": -77.0188735}, {"fusion_lat": 0.0, "name": "4fe45d42cacc45d288fdea1e3e7793da", "is_disabled": 0, "rental_uris": {"android": "https://dc.lft.to/lastmile_qr_scan", "ios": "https://dc.lft.to/lastmile_qr_scan"}, "fusion_lon": 0.0, "lat": 38.92537516666667, "bike_id": "4fe45d42cacc45d288fdea1e3e7793da", "type": "electric_scooter", "is_reserved": 0, "lon": -77.05122766666666}, {"fusion_lat": 0.0, "name": "6877bb3a04a6cca75922d8c5cbfc5896", "is_disabled": 0, "rental_uris": {"android": "https://dc.lft.to/lastmile_qr_scan", "ios": "https://dc.lft.to/lastmile_qr_scan"}, "fusion_lon": 0.0, "lat": 38.892229666666665, "bike_id": "6877bb3a04a6cca75922d8c5cbfc5896", "type": "electric_scooter", "is_reserved": 0, "lon": -77.01499733333333}, {"fusion_lat": 0.0, "name": "576babc1ae31f705867d88e0ee2f8459", "is_disabled": 0, "rental_uris": {"android": "https://dc.lft.to/lastmile_qr_scan", "ios": "https://dc.lft.to/lastmile_qr_scan"}, "fusion_lon": 0.0, "lat": 38.95731383333333, "bike_id": "576babc1ae31f705867d88e0ee2f8459", "type": "electric_scooter", "is_reserved": 0, "lon": -77.02403666666666}, {"fusion_lat": 0.0, "name": "28e637d90e15afeb0dcbf57a857ec63e", "is_disabled": 0, "rental_uris": {"android": "https://dc.lft.to/lastmile_qr_scan", "ios": "https://dc.lft.to/lastmile_qr_scan"}, "fusion_lon": 0.0, "lat": 38.87570933333333, "bike_id": "28e637d90e15afeb0dcbf57a857ec63e", "type": "electric_scooter", "is_reserved": 0, "lon": -77.00738766666667}, {"fusion_lat": 0.0, "name": "194958a3ecc72be05e9bed2152ac417f", "is_disabled": 0, "rental_uris": {"android": "https://dc.lft.to/lastmile_qr_scan", "ios": "https://dc.lft.to/lastmile_qr_scan"}, "fusion_lon": 0.0, "lat": 38.892215, "bike_id": "194958a3ecc72be05e9bed2152ac417f", "type": "electric_scooter", "is_reserved": 0, "lon": -77.04377016666666}, {"fusion_lat": 0.0, "name": "3c4a37a09932489022a39884da99b646", "is_disabled": 0, "rental_uris": {"android": "https://dc.lft.to/lastmile_qr_scan", "ios": "https://dc.lft.to/lastmile_qr_scan"}, "fusion_lon": 0.0, "lat": 38.94021883333333, "bike_id": "3c4a37a09932489022a39884da99b646", "type": "electric_scooter", "is_reserved": 0, "lon": -77.02776816666666}, {"fusion_lat": 0.0, "name": "f0c5fc9285a72e8209e228a98c7e31be", "is_disabled": 0, "rental_uris": {"android": "https://dc.lft.to/lastmile_qr_scan", "ios": "https://dc.lft.to/lastmile_qr_scan"}, "fusion_lon": 0.0, "lat": 38.917181666666664, "bike_id": "f0c5fc9285a72e8209e228a98c7e31be", "type": "electric_scooter", "is_reserved": 0, "lon": -76.96870433333333}, {"fusion_lat": 0.0, "name": "3f42147ce7c0bc5d09abbe4a6ca640cd", "is_disabled": 0, "rental_uris": {"android": "https://dc.lft.to/lastmile_qr_scan", "ios": "https://dc.lft.to/lastmile_qr_scan"}, "fusion_lon": 0.0, "lat": 38.92078866666667, "bike_id": "3f42147ce7c0bc5d09abbe4a6ca640cd", "type": "electric_scooter", "is_reserved": 0, "lon": -77.0230575}, {"fusion_lat": 0.0, "name": "3d83da01d689d4a3470f209ad55d6e7a", "is_disabled": 0, "rental_uris": {"android": "https://dc.lft.to/lastmile_qr_scan", "ios": "https://dc.lft.to/lastmile_qr_scan"}, "fusion_lon": 0.0, "lat": 38.91025283333333, "bike_id": "3d83da01d689d4a3470f209ad55d6e7a", "type": "electric_scooter", "is_reserved": 0, "lon": -77.00760183333334}, {"fusion_lat": 0.0, "name": "87f37c8b5e82f248479a9168efb2cf52", "is_disabled": 0, "rental_uris": {"android": "https://dc.lft.to/lastmile_qr_scan", "ios": "https://dc.lft.to/lastmile_qr_scan"}, "fusion_lon": 0.0, "lat": 38.90960183333333, "bike_id": "87f37c8b5e82f248479a9168efb2cf52", "type": "electric_scooter", "is_reserved": 0, "lon": -77.0445745}, {"fusion_lat": 0.0, "name": "a95f27d4acda814b7327f3fd439abff4", "is_disabled": 0, "rental_uris": {"android": "https://dc.lft.to/lastmile_qr_scan", "ios": "https://dc.lft.to/lastmile_qr_scan"}, "fusion_lon": 0.0, "lat": 38.876296833333335, "bike_id": "a95f27d4acda814b7327f3fd439abff4", "type": "electric_scooter", "is_reserved": 0, "lon": -77.01643933333334}, {"fusion_lat": 0.0, "name": "d19b832062fdb09d337787547d8da66e", "is_disabled": 0, "rental_uris": {"android": "https://dc.lft.to/lastmile_qr_scan", "ios": "https://dc.lft.to/lastmile_qr_scan"}, "fusion_lon": 0.0, "lat": 38.90767183333333, "bike_id": "d19b832062fdb09d337787547d8da66e", "type": "electric_scooter", "is_reserved": 0, "lon": -77.03539183333334}, {"fusion_lat": 0.0, "name": "762306a9bf2a152c411ca0ab5c77e3e0", "is_disabled": 0, "rental_uris": {"android": "https://dc.lft.to/lastmile_qr_scan", "ios": "https://dc.lft.to/lastmile_qr_scan"}, "fusion_lon": 0.0, "lat": 38.922339, "bike_id": "762306a9bf2a152c411ca0ab5c77e3e0", "type": "electric_scooter", "is_reserved": 0, "lon": -77.03524733333333}, {"fusion_lat": 0.0, "name": "7086ea8c233d2c113c4864739c7fdb60", "is_disabled": 0, "rental_uris": {"android": "https://dc.lft.to/lastmile_qr_scan", "ios": "https://dc.lft.to/lastmile_qr_scan"}, "fusion_lon": 0.0, "lat": 38.9260715, "bike_id": "7086ea8c233d2c113c4864739c7fdb60", "type": "electric_scooter", "is_reserved": 0, "lon": -77.022161}, {"fusion_lat": 0.0, "name": "c8e57464a38a9954b7af4f1fba584d50", "is_disabled": 0, "rental_uris": {"android": "https://dc.lft.to/lastmile_qr_scan", "ios": "https://dc.lft.to/lastmile_qr_scan"}, "fusion_lon": 0.0, "lat": 38.91318066666667, "bike_id": "c8e57464a38a9954b7af4f1fba584d50", "type": "electric_scooter", "is_reserved": 0, "lon": -77.047095}, {"fusion_lat": 0.0, "name": "b3e5ee76d85b77b6e81260bbac7d1748", "is_disabled": 0, "rental_uris": {"android": "https://dc.lft.to/lastmile_qr_scan", "ios": "https://dc.lft.to/lastmile_qr_scan"}, "fusion_lon": 0.0, "lat": 38.887561166666664, "bike_id": "b3e5ee76d85b77b6e81260bbac7d1748", "type": "electric_scooter", "is_reserved": 0, "lon": -77.00170466666667}, {"fusion_lat": 0.0, "name": "ea670907779315ec7b398b6c01551a63", "is_disabled": 0, "rental_uris": {"android": "https://dc.lft.to/lastmile_qr_scan", "ios": "https://dc.lft.to/lastmile_qr_scan"}, "fusion_lon": 0.0, "lat": 38.92737616666667, "bike_id": "ea670907779315ec7b398b6c01551a63", "type": "electric_scooter", "is_reserved": 0, "lon": -77.042193}, {"fusion_lat": 0.0, "name": "6a74aa708d624759b4da286d7ce31d7f", "is_disabled": 0, "rental_uris": {"android": "https://dc.lft.to/lastmile_qr_scan", "ios": "https://dc.lft.to/lastmile_qr_scan"}, "fusion_lon": 0.0, "lat": 38.802952833333336, "bike_id": "6a74aa708d624759b4da286d7ce31d7f", "type": "electric_bike", "is_reserved": 0, "lon": -77.05943033333334}, {"fusion_lat": 0.0, "name": "4f5640abeb80e44b10c5610b5ecbf89d", "is_disabled": 0, "rental_uris": {"android": "https://dc.lft.to/lastmile_qr_scan", "ios": "https://dc.lft.to/lastmile_qr_scan"}, "fusion_lon": 0.0, "lat": 38.9612195, "bike_id": "4f5640abeb80e44b10c5610b5ecbf89d", "type": "electric_bike", "is_reserved": 0, "lon": -77.03277666666666}, {"fusion_lat": 0.0, "name": "3bcfd6b8842170e31c9d90fd6a64bd52", "is_disabled": 0, "rental_uris": {"android": "https://dc.lft.to/lastmile_qr_scan", "ios": "https://dc.lft.to/lastmile_qr_scan"}, "fusion_lon": 0.0, "lat": 38.92704916666667, "bike_id": "3bcfd6b8842170e31c9d90fd6a64bd52", "type": "electric_scooter", "is_reserved": 0, "lon": -77.03768016666666}, {"fusion_lat": 0.0, "name": "8d7b6da440027183e7f5144d7d355956", "is_disabled": 0, "rental_uris": {"android": "https://dc.lft.to/lastmile_qr_scan", "ios": "https://dc.lft.to/lastmile_qr_scan"}, "fusion_lon": 0.0, "lat": 38.906037833333336, "bike_id": "8d7b6da440027183e7f5144d7d355956", "type": "electric_scooter", "is_reserved": 0, "lon": -77.00883633333333}, {"fusion_lat": 0.0, "name": "cec024718a471659b3f0d309172a56b2", "is_disabled": 0, "rental_uris": {"android": "https://dc.lft.to/lastmile_qr_scan", "ios": "https://dc.lft.to/lastmile_qr_scan"}, "fusion_lon": 0.0, "lat": 38.92789633333334, "bike_id": "cec024718a471659b3f0d309172a56b2", "type": "electric_scooter", "is_reserved": 0, "lon": -77.02725216666667}, {"fusion_lat": 0.0, "name": "5d186062ccad34f91a0c77573c9e63a6", "is_disabled": 0, "rental_uris": {"android": "https://dc.lft.to/lastmile_qr_scan", "ios": "https://dc.lft.to/lastmile_qr_scan"}, "fusion_lon": 0.0, "lat": 38.90019483333333, "bike_id": "5d186062ccad34f91a0c77573c9e63a6", "type": "electric_scooter", "is_reserved": 0, "lon": -76.98859083333333}, {"fusion_lat": 0.0, "name": "8d5248ca2c42a0544d0d9cb150b8e5dc", "is_disabled": 0, "rental_uris": {"android": "https://dc.lft.to/lastmile_qr_scan", "ios": "https://dc.lft.to/lastmile_qr_scan"}, "fusion_lon": 0.0, "lat": 38.90610433333333, "bike_id": "8d5248ca2c42a0544d0d9cb150b8e5dc", "type": "electric_scooter", "is_reserved": 0, "lon": -77.02411483333333}, {"fusion_lat": 0.0, "name": "25305fede4d2e1dbd233fd071c07eb0d", "is_disabled": 0, "rental_uris": {"android": "https://dc.lft.to/lastmile_qr_scan", "ios": "https://dc.lft.to/lastmile_qr_scan"}, "fusion_lon": 0.0, "lat": 38.9233385, "bike_id": "25305fede4d2e1dbd233fd071c07eb0d", "type": "electric_scooter", "is_reserved": 0, "lon": -77.05625666666667}, {"fusion_lat": 0.0, "name": "793cfdc4ed8eb77a40fb0b92f1f6c680", "is_disabled": 0, "rental_uris": {"android": "https://dc.lft.to/lastmile_qr_scan", "ios": "https://dc.lft.to/lastmile_qr_scan"}, "fusion_lon": 0.0, "lat": 38.884492, "bike_id": "793cfdc4ed8eb77a40fb0b92f1f6c680", "type": "electric_scooter", "is_reserved": 0, "lon": -76.998469}, {"fusion_lat": 0.0, "name": "7a2f76f280b21df3985b2f1fc1a732be", "is_disabled": 0, "rental_uris": {"android": "https://dc.lft.to/lastmile_qr_scan", "ios": "https://dc.lft.to/lastmile_qr_scan"}, "fusion_lon": 0.0, "lat": 38.90030333333333, "bike_id": "7a2f76f280b21df3985b2f1fc1a732be", "type": "electric_scooter", "is_reserved": 0, "lon": -77.01208133333333}, {"fusion_lat": 0.0, "name": "014218e2c64bde0a1771ccf020c3b2a9", "is_disabled": 0, "rental_uris": {"android": "https://dc.lft.to/lastmile_qr_scan", "ios": "https://dc.lft.to/lastmile_qr_scan"}, "fusion_lon": 0.0, "lat": 38.91115, "bike_id": "014218e2c64bde0a1771ccf020c3b2a9", "type": "electric_scooter", "is_reserved": 0, "lon": -77.04222733333333}, {"fusion_lat": 0.0, "name": "353cdf81b883f9ef5ccf535ca6f820cc", "is_disabled": 0, "rental_uris": {"android": "https://dc.lft.to/lastmile_qr_scan", "ios": "https://dc.lft.to/lastmile_qr_scan"}, "fusion_lon": 0.0, "lat": 38.904097666666665, "bike_id": "353cdf81b883f9ef5ccf535ca6f820cc", "type": "electric_scooter", "is_reserved": 0, "lon": -77.0502405}, {"fusion_lat": 0.0, "name": "f5012b9d7121703a101af2c4a86c7c02", "is_disabled": 0, "rental_uris": {"android": "https://dc.lft.to/lastmile_qr_scan", "ios": "https://dc.lft.to/lastmile_qr_scan"}, "fusion_lon": 0.0, "lat": 38.939284, "bike_id": "f5012b9d7121703a101af2c4a86c7c02", "type": "electric_scooter", "is_reserved": 0, "lon": -77.07478416666666}, {"fusion_lat": 0.0, "name": "c21759f3e2ec9d333d268afed44e910d", "is_disabled": 0, "rental_uris": {"android": "https://dc.lft.to/lastmile_qr_scan", "ios": "https://dc.lft.to/lastmile_qr_scan"}, "fusion_lon": 0.0, "lat": 38.896852833333334, "bike_id": "c21759f3e2ec9d333d268afed44e910d", "type": "electric_scooter", "is_reserved": 0, "lon": -76.93714583333333}, {"fusion_lat": 0.0, "name": "f249ba94f3ab1e83465907efcc051159", "is_disabled": 0, "rental_uris": {"android": "https://dc.lft.to/lastmile_qr_scan", "ios": "https://dc.lft.to/lastmile_qr_scan"}, "fusion_lon": 0.0, "lat": 38.966249, "bike_id": "f249ba94f3ab1e83465907efcc051159", "type": "electric_scooter", "is_reserved": 0, "lon": -77.0199945}, {"fusion_lat": 0.0, "name": "4e4093aa56771057d514d800bd69b563", "is_disabled": 0, "rental_uris": {"android": "https://dc.lft.to/lastmile_qr_scan", "ios": "https://dc.lft.to/lastmile_qr_scan"}, "fusion_lon": 0.0, "lat": 38.89687716666667, "bike_id": "4e4093aa56771057d514d800bd69b563", "type": "electric_scooter", "is_reserved": 0, "lon": -77.04338066666666}, {"fusion_lat": 0.0, "name": "354fee19980ff027e4f714f8adb8a532", "is_disabled": 0, "rental_uris": {"android": "https://dc.lft.to/lastmile_qr_scan", "ios": "https://dc.lft.to/lastmile_qr_scan"}, "fusion_lon": 0.0, "lat": 38.881165833333334, "bike_id": "354fee19980ff027e4f714f8adb8a532", "type": "electric_scooter", "is_reserved": 0, "lon": -77.016559}, {"fusion_lat": 0.0, "name": "ad1fc74154ec62e89ed4ee3f5bd11f60", "is_disabled": 0, "rental_uris": {"android": "https://dc.lft.to/lastmile_qr_scan", "ios": "https://dc.lft.to/lastmile_qr_scan"}, "fusion_lon": 0.0, "lat": 38.8784895, "bike_id": "ad1fc74154ec62e89ed4ee3f5bd11f60", "type": "electric_bike", "is_reserved": 0, "lon": -77.03018633333333}, {"fusion_lat": 0.0, "name": "4486dd6aae7a36e3a4801cb4f29c6a7d", "is_disabled": 0, "rental_uris": {"android": "https://dc.lft.to/lastmile_qr_scan", "ios": "https://dc.lft.to/lastmile_qr_scan"}, "fusion_lon": 0.0, "lat": 38.90025816666667, "bike_id": "4486dd6aae7a36e3a4801cb4f29c6a7d", "type": "electric_scooter", "is_reserved": 0, "lon": -76.9885895}, {"fusion_lat": 0.0, "name": "56b3579cb59fca0018679180139875ed", "is_disabled": 0, "rental_uris": {"android": "https://dc.lft.to/lastmile_qr_scan", "ios": "https://dc.lft.to/lastmile_qr_scan"}, "fusion_lon": 0.0, "lat": 38.9207605, "bike_id": "56b3579cb59fca0018679180139875ed", "type": "electric_scooter", "is_reserved": 0, "lon": -77.00446616666666}, {"fusion_lat": 0.0, "name": "8d8e800d512b227ca2ea40f42a1febfa", "is_disabled": 0, "rental_uris": {"android": "https://dc.lft.to/lastmile_qr_scan", "ios": "https://dc.lft.to/lastmile_qr_scan"}, "fusion_lon": 0.0, "lat": 38.9364225, "bike_id": "8d8e800d512b227ca2ea40f42a1febfa", "type": "electric_scooter", "is_reserved": 0, "lon": -77.03682483333333}, {"fusion_lat": 0.0, "name": "1c349c876941de77e0928cd5d8a2b069", "is_disabled": 0, "rental_uris": {"android": "https://dc.lft.to/lastmile_qr_scan", "ios": "https://dc.lft.to/lastmile_qr_scan"}, "fusion_lon": 0.0, "lat": 38.93383166666667, "bike_id": "1c349c876941de77e0928cd5d8a2b069", "type": "electric_scooter", "is_reserved": 0, "lon": -77.03884433333333}, {"fusion_lat": 0.0, "name": "b51543629663e9297898b4b81b2730ac", "is_disabled": 0, "rental_uris": {"android": "https://dc.lft.to/lastmile_qr_scan", "ios": "https://dc.lft.to/lastmile_qr_scan"}, "fusion_lon": 0.0, "lat": 38.916155333333336, "bike_id": "b51543629663e9297898b4b81b2730ac", "type": "electric_scooter", "is_reserved": 0, "lon": -77.03646033333334}, {"fusion_lat": 0.0, "name": "1ffd0c74b92f6d6845d860c279a9a023", "is_disabled": 0, "rental_uris": {"android": "https://dc.lft.to/lastmile_qr_scan", "ios": "https://dc.lft.to/lastmile_qr_scan"}, "fusion_lon": 0.0, "lat": 38.90503433333333, "bike_id": "1ffd0c74b92f6d6845d860c279a9a023", "type": "electric_scooter", "is_reserved": 0, "lon": -77.0410395}, {"fusion_lat": 0.0, "name": "1173f1742d1e7d6a7f7dff6869dc2ffd", "is_disabled": 0, "rental_uris": {"android": "https://dc.lft.to/lastmile_qr_scan", "ios": "https://dc.lft.to/lastmile_qr_scan"}, "fusion_lon": 0.0, "lat": 38.874733166666665, "bike_id": "1173f1742d1e7d6a7f7dff6869dc2ffd", "type": "electric_scooter", "is_reserved": 0, "lon": -77.00048666666666}, {"fusion_lat": 0.0, "name": "35e922406c04a415c35e9f1e5369e6bd", "is_disabled": 0, "rental_uris": {"android": "https://dc.lft.to/lastmile_qr_scan", "ios": "https://dc.lft.to/lastmile_qr_scan"}, "fusion_lon": 0.0, "lat": 38.903855, "bike_id": "35e922406c04a415c35e9f1e5369e6bd", "type": "electric_scooter", "is_reserved": 0, "lon": -77.0462775}, {"fusion_lat": 0.0, "name": "a83baee69e6b93d115cbb39e8c95455c", "is_disabled": 0, "rental_uris": {"android": "https://dc.lft.to/lastmile_qr_scan", "ios": "https://dc.lft.to/lastmile_qr_scan"}, "fusion_lon": 0.0, "lat": 38.9126645, "bike_id": "a83baee69e6b93d115cbb39e8c95455c", "type": "electric_scooter", "is_reserved": 0, "lon": -77.033841}, {"fusion_lat": 0.0, "name": "5641c1e75856bf1a4c85ee5991d71364", "is_disabled": 0, "rental_uris": {"android": "https://dc.lft.to/lastmile_qr_scan", "ios": "https://dc.lft.to/lastmile_qr_scan"}, "fusion_lon": 0.0, "lat": 38.905817166666665, "bike_id": "5641c1e75856bf1a4c85ee5991d71364", "type": "electric_scooter", "is_reserved": 0, "lon": -77.02987}, {"fusion_lat": 0.0, "name": "2fbf8c7a0ebe73ddcf58afb962e8a905", "is_disabled": 0, "rental_uris": {"android": "https://dc.lft.to/lastmile_qr_scan", "ios": "https://dc.lft.to/lastmile_qr_scan"}, "fusion_lon": 0.0, "lat": 38.913546, "bike_id": "2fbf8c7a0ebe73ddcf58afb962e8a905", "type": "electric_scooter", "is_reserved": 0, "lon": -77.048782}, {"fusion_lat": 0.0, "name": "9a25c07974cc77c72551a7d2f1385887", "is_disabled": 0, "rental_uris": {"android": "https://dc.lft.to/lastmile_qr_scan", "ios": "https://dc.lft.to/lastmile_qr_scan"}, "fusion_lon": 0.0, "lat": 38.912609833333335, "bike_id": "9a25c07974cc77c72551a7d2f1385887", "type": "electric_scooter", "is_reserved": 0, "lon": -77.04928083333333}, {"fusion_lat": 0.0, "name": "ca0d5e70b502e5b7b6b78bd3960bc8e1", "is_disabled": 0, "rental_uris": {"android": "https://dc.lft.to/lastmile_qr_scan", "ios": "https://dc.lft.to/lastmile_qr_scan"}, "fusion_lon": 0.0, "lat": 38.899358666666664, "bike_id": "ca0d5e70b502e5b7b6b78bd3960bc8e1", "type": "electric_scooter", "is_reserved": 0, "lon": -77.04860233333333}, {"fusion_lat": 0.0, "name": "b54a500fa4bbae0618900edf3f350e3f", "is_disabled": 0, "rental_uris": {"android": "https://dc.lft.to/lastmile_qr_scan", "ios": "https://dc.lft.to/lastmile_qr_scan"}, "fusion_lon": 0.0, "lat": 38.923039833333334, "bike_id": "b54a500fa4bbae0618900edf3f350e3f", "type": "electric_scooter", "is_reserved": 0, "lon": -77.04264616666667}, {"fusion_lat": 0.0, "name": "dfc4df0e2eecc9aed82001603d12670f", "is_disabled": 0, "rental_uris": {"android": "https://dc.lft.to/lastmile_qr_scan", "ios": "https://dc.lft.to/lastmile_qr_scan"}, "fusion_lon": 0.0, "lat": 38.90026833333334, "bike_id": "dfc4df0e2eecc9aed82001603d12670f", "type": "electric_scooter", "is_reserved": 0, "lon": -76.98858783333333}, {"fusion_lat": 0.0, "name": "506ff9e50112ba5cdbad76e3b9734ef0", "is_disabled": 0, "rental_uris": {"android": "https://dc.lft.to/lastmile_qr_scan", "ios": "https://dc.lft.to/lastmile_qr_scan"}, "fusion_lon": 0.0, "lat": 38.87624133333333, "bike_id": "506ff9e50112ba5cdbad76e3b9734ef0", "type": "electric_scooter", "is_reserved": 0, "lon": -77.00731533333334}, {"fusion_lat": 0.0, "name": "5b1757631ce41bedb410e1a4b871ab51", "is_disabled": 0, "rental_uris": {"android": "https://dc.lft.to/lastmile_qr_scan", "ios": "https://dc.lft.to/lastmile_qr_scan"}, "fusion_lon": 0.0, "lat": 38.904494666666665, "bike_id": "5b1757631ce41bedb410e1a4b871ab51", "type": "electric_scooter", "is_reserved": 0, "lon": -77.03335916666667}, {"fusion_lat": 0.0, "name": "ec2c3dbe9ca3b891531e5fb6e4f0bdf6", "is_disabled": 0, "rental_uris": {"android": "https://dc.lft.to/lastmile_qr_scan", "ios": "https://dc.lft.to/lastmile_qr_scan"}, "fusion_lon": 0.0, "lat": 38.9236855, "bike_id": "ec2c3dbe9ca3b891531e5fb6e4f0bdf6", "type": "electric_scooter", "is_reserved": 0, "lon": -77.02064816666666}, {"fusion_lat": 0.0, "name": "974094f089fc61d75510a044af3b26ff", "is_disabled": 0, "rental_uris": {"android": "https://dc.lft.to/lastmile_qr_scan", "ios": "https://dc.lft.to/lastmile_qr_scan"}, "fusion_lon": 0.0, "lat": 38.931120166666666, "bike_id": "974094f089fc61d75510a044af3b26ff", "type": "electric_scooter", "is_reserved": 0, "lon": -77.021347}, {"fusion_lat": 0.0, "name": "039d266fde6bc17f0a45449aa58f81fe", "is_disabled": 0, "rental_uris": {"android": "https://dc.lft.to/lastmile_qr_scan", "ios": "https://dc.lft.to/lastmile_qr_scan"}, "fusion_lon": 0.0, "lat": 38.902351, "bike_id": "039d266fde6bc17f0a45449aa58f81fe", "type": "electric_scooter", "is_reserved": 0, "lon": -77.051346}, {"fusion_lat": 0.0, "name": "feb1cab7f09e69f575bf57c93e6388c5", "is_disabled": 0, "rental_uris": {"android": "https://dc.lft.to/lastmile_qr_scan", "ios": "https://dc.lft.to/lastmile_qr_scan"}, "fusion_lon": 0.0, "lat": 38.9326195, "bike_id": "feb1cab7f09e69f575bf57c93e6388c5", "type": "electric_scooter", "is_reserved": 0, "lon": -77.03895516666667}, {"fusion_lat": 0.0, "name": "f95b47c4ce6e04eaa5db86c07af89f90", "is_disabled": 0, "rental_uris": {"android": "https://dc.lft.to/lastmile_qr_scan", "ios": "https://dc.lft.to/lastmile_qr_scan"}, "fusion_lon": 0.0, "lat": 38.87650333333333, "bike_id": "f95b47c4ce6e04eaa5db86c07af89f90", "type": "electric_scooter", "is_reserved": 0, "lon": -77.00916883333333}, {"fusion_lat": 0.0, "name": "aed3616744774bf7abd7cde18187ab45", "is_disabled": 0, "rental_uris": {"android": "https://dc.lft.to/lastmile_qr_scan", "ios": "https://dc.lft.to/lastmile_qr_scan"}, "fusion_lon": 0.0, "lat": 38.887491833333335, "bike_id": "aed3616744774bf7abd7cde18187ab45", "type": "electric_scooter", "is_reserved": 0, "lon": -77.0315785}, {"fusion_lat": 0.0, "name": "c88867adf4be72ff72edda63d915f269", "is_disabled": 0, "rental_uris": {"android": "https://dc.lft.to/lastmile_qr_scan", "ios": "https://dc.lft.to/lastmile_qr_scan"}, "fusion_lon": 0.0, "lat": 38.911727666666664, "bike_id": "c88867adf4be72ff72edda63d915f269", "type": "electric_scooter", "is_reserved": 0, "lon": -77.03829583333334}, {"fusion_lat": 0.0, "name": "91542a6bdbbce97ccac09ac8b76486eb", "is_disabled": 0, "rental_uris": {"android": "https://dc.lft.to/lastmile_qr_scan", "ios": "https://dc.lft.to/lastmile_qr_scan"}, "fusion_lon": 0.0, "lat": 38.92788066666667, "bike_id": "91542a6bdbbce97ccac09ac8b76486eb", "type": "electric_scooter", "is_reserved": 0, "lon": -77.027245}, {"fusion_lat": 0.0, "name": "39734fa3652a51415a14cf5007595143", "is_disabled": 0, "rental_uris": {"android": "https://dc.lft.to/lastmile_qr_scan", "ios": "https://dc.lft.to/lastmile_qr_scan"}, "fusion_lon": 0.0, "lat": 38.9225945, "bike_id": "39734fa3652a51415a14cf5007595143", "type": "electric_scooter", "is_reserved": 0, "lon": -77.03668266666666}, {"fusion_lat": 0.0, "name": "687baa59f2ddff353ed99b3a5abaefc2", "is_disabled": 0, "rental_uris": {"android": "https://dc.lft.to/lastmile_qr_scan", "ios": "https://dc.lft.to/lastmile_qr_scan"}, "fusion_lon": 0.0, "lat": 38.92397016666666, "bike_id": "687baa59f2ddff353ed99b3a5abaefc2", "type": "electric_scooter", "is_reserved": 0, "lon": -77.05254416666666}, {"fusion_lat": 0.0, "name": "26738f41685f2afa16f4ca4ab2ed8757", "is_disabled": 0, "rental_uris": {"android": "https://dc.lft.to/lastmile_qr_scan", "ios": "https://dc.lft.to/lastmile_qr_scan"}, "fusion_lon": 0.0, "lat": 38.91337733333334, "bike_id": "26738f41685f2afa16f4ca4ab2ed8757", "type": "electric_scooter", "is_reserved": 0, "lon": -77.042881}, {"fusion_lat": 0.0, "name": "b539fc07739136b24c251f77a5bff0a6", "is_disabled": 0, "rental_uris": {"android": "https://dc.lft.to/lastmile_qr_scan", "ios": "https://dc.lft.to/lastmile_qr_scan"}, "fusion_lon": 0.0, "lat": 38.90778483333333, "bike_id": "b539fc07739136b24c251f77a5bff0a6", "type": "electric_scooter", "is_reserved": 0, "lon": -77.01862533333333}, {"fusion_lat": 0.0, "name": "2fd23a29c9dee84062e7d6e5d73c2bca", "is_disabled": 0, "rental_uris": {"android": "https://dc.lft.to/lastmile_qr_scan", "ios": "https://dc.lft.to/lastmile_qr_scan"}, "fusion_lon": 0.0, "lat": 38.923703833333335, "bike_id": "2fd23a29c9dee84062e7d6e5d73c2bca", "type": "electric_scooter", "is_reserved": 0, "lon": -77.03633966666666}, {"fusion_lat": 0.0, "name": "c1a6439dd02e65664573390344b65ac5", "is_disabled": 0, "rental_uris": {"android": "https://dc.lft.to/lastmile_qr_scan", "ios": "https://dc.lft.to/lastmile_qr_scan"}, "fusion_lon": 0.0, "lat": 38.95880666666667, "bike_id": "c1a6439dd02e65664573390344b65ac5", "type": "electric_scooter", "is_reserved": 0, "lon": -77.0117275}, {"fusion_lat": 0.0, "name": "d8ac90585c225b5e35f1a12afea85976", "is_disabled": 0, "rental_uris": {"android": "https://dc.lft.to/lastmile_qr_scan", "ios": "https://dc.lft.to/lastmile_qr_scan"}, "fusion_lon": 0.0, "lat": 38.91716483333333, "bike_id": "d8ac90585c225b5e35f1a12afea85976", "type": "electric_scooter", "is_reserved": 0, "lon": -77.03049766666666}, {"fusion_lat": 0.0, "name": "b5819023282c582686df05a714dbffb2", "is_disabled": 0, "rental_uris": {"android": "https://dc.lft.to/lastmile_qr_scan", "ios": "https://dc.lft.to/lastmile_qr_scan"}, "fusion_lon": 0.0, "lat": 38.901369833333334, "bike_id": "b5819023282c582686df05a714dbffb2", "type": "electric_scooter", "is_reserved": 0, "lon": -76.98646983333333}, {"fusion_lat": 0.0, "name": "dc0295380960e1eb5470e54e75e6ed25", "is_disabled": 0, "rental_uris": {"android": "https://dc.lft.to/lastmile_qr_scan", "ios": "https://dc.lft.to/lastmile_qr_scan"}, "fusion_lon": 0.0, "lat": 38.9788215, "bike_id": "dc0295380960e1eb5470e54e75e6ed25", "type": "electric_bike", "is_reserved": 0, "lon": -77.060311}, {"fusion_lat": 0.0, "name": "8210cd5ebf5b807efdd6bacd7b9af256", "is_disabled": 0, "rental_uris": {"android": "https://dc.lft.to/lastmile_qr_scan", "ios": "https://dc.lft.to/lastmile_qr_scan"}, "fusion_lon": 0.0, "lat": 38.874705666666664, "bike_id": "8210cd5ebf5b807efdd6bacd7b9af256", "type": "electric_scooter", "is_reserved": 0, "lon": -77.00029566666667}, {"fusion_lat": 0.0, "name": "a6cd0d324614c2322ea5d717ead6f4a9", "is_disabled": 0, "rental_uris": {"android": "https://dc.lft.to/lastmile_qr_scan", "ios": "https://dc.lft.to/lastmile_qr_scan"}, "fusion_lon": 0.0, "lat": 38.9533205, "bike_id": "a6cd0d324614c2322ea5d717ead6f4a9", "type": "electric_bike", "is_reserved": 0, "lon": -76.9826205}, {"fusion_lat": 0.0, "name": "6ed2e671729c5c434d0cde1f21ec4a88", "is_disabled": 0, "rental_uris": {"android": "https://dc.lft.to/lastmile_qr_scan", "ios": "https://dc.lft.to/lastmile_qr_scan"}, "fusion_lon": 0.0, "lat": 38.9262255, "bike_id": "6ed2e671729c5c434d0cde1f21ec4a88", "type": "electric_scooter", "is_reserved": 0, "lon": -77.04327}, {"fusion_lat": 0.0, "name": "0dadc3ddb1e11a41cb0b8cfea00f193e", "is_disabled": 0, "rental_uris": {"android": "https://dc.lft.to/lastmile_qr_scan", "ios": "https://dc.lft.to/lastmile_qr_scan"}, "fusion_lon": 0.0, "lat": 38.895144333333334, "bike_id": "0dadc3ddb1e11a41cb0b8cfea00f193e", "type": "electric_scooter", "is_reserved": 0, "lon": -76.99957133333334}, {"fusion_lat": 0.0, "name": "b53405b9abd2f4f5864b5c614f2f4990", "is_disabled": 0, "rental_uris": {"android": "https://dc.lft.to/lastmile_qr_scan", "ios": "https://dc.lft.to/lastmile_qr_scan"}, "fusion_lon": 0.0, "lat": 38.94202516666667, "bike_id": "b53405b9abd2f4f5864b5c614f2f4990", "type": "electric_scooter", "is_reserved": 0, "lon": -77.0259235}, {"fusion_lat": 0.0, "name": "3299b722b14320afb5b352ba485f460c", "is_disabled": 0, "rental_uris": {"android": "https://dc.lft.to/lastmile_qr_scan", "ios": "https://dc.lft.to/lastmile_qr_scan"}, "fusion_lon": 0.0, "lat": 38.9071355, "bike_id": "3299b722b14320afb5b352ba485f460c", "type": "electric_scooter", "is_reserved": 0, "lon": -77.04356366666667}, {"fusion_lat": 0.0, "name": "b9d921b028c8c3b5dfcc2d6534b73b4a", "is_disabled": 0, "rental_uris": {"android": "https://dc.lft.to/lastmile_qr_scan", "ios": "https://dc.lft.to/lastmile_qr_scan"}, "fusion_lon": 0.0, "lat": 38.9180095, "bike_id": "b9d921b028c8c3b5dfcc2d6534b73b4a", "type": "electric_scooter", "is_reserved": 0, "lon": -77.02711733333334}, {"fusion_lat": 0.0, "name": "6d6b35234b82714dda49cd1d5e4ba42b", "is_disabled": 0, "rental_uris": {"android": "https://dc.lft.to/lastmile_qr_scan", "ios": "https://dc.lft.to/lastmile_qr_scan"}, "fusion_lon": 0.0, "lat": 38.90673483333333, "bike_id": "6d6b35234b82714dda49cd1d5e4ba42b", "type": "electric_scooter", "is_reserved": 0, "lon": -77.03761416666667}, {"fusion_lat": 0.0, "name": "0960d2ad16de75e96b7429a2d0a5a4c0", "is_disabled": 0, "rental_uris": {"android": "https://dc.lft.to/lastmile_qr_scan", "ios": "https://dc.lft.to/lastmile_qr_scan"}, "fusion_lon": 0.0, "lat": 38.9106695, "bike_id": "0960d2ad16de75e96b7429a2d0a5a4c0", "type": "electric_scooter", "is_reserved": 0, "lon": -77.03663566666667}, {"fusion_lat": 0.0, "name": "206a8253d3342060df9e1a2651a2775a", "is_disabled": 0, "rental_uris": {"android": "https://dc.lft.to/lastmile_qr_scan", "ios": "https://dc.lft.to/lastmile_qr_scan"}, "fusion_lon": 0.0, "lat": 38.83931283333333, "bike_id": "206a8253d3342060df9e1a2651a2775a", "type": "electric_bike", "is_reserved": 0, "lon": -77.07904116666667}, {"fusion_lat": 0.0, "name": "95a327101e913cd411455dd8b43ccfa4", "is_disabled": 0, "rental_uris": {"android": "https://dc.lft.to/lastmile_qr_scan", "ios": "https://dc.lft.to/lastmile_qr_scan"}, "fusion_lon": 0.0, "lat": 38.92746116666667, "bike_id": "95a327101e913cd411455dd8b43ccfa4", "type": "electric_scooter", "is_reserved": 0, "lon": -77.036354}, {"fusion_lat": 0.0, "name": "27562b5cecdb134ed7dfbe7e686a949c", "is_disabled": 0, "rental_uris": {"android": "https://dc.lft.to/lastmile_qr_scan", "ios": "https://dc.lft.to/lastmile_qr_scan"}, "fusion_lon": 0.0, "lat": 38.911536, "bike_id": "27562b5cecdb134ed7dfbe7e686a949c", "type": "electric_scooter", "is_reserved": 0, "lon": -76.98723716666666}, {"fusion_lat": 0.0, "name": "5210405c931257aa365c16587b363786", "is_disabled": 0, "rental_uris": {"android": "https://dc.lft.to/lastmile_qr_scan", "ios": "https://dc.lft.to/lastmile_qr_scan"}, "fusion_lon": 0.0, "lat": 38.924078333333334, "bike_id": "5210405c931257aa365c16587b363786", "type": "electric_scooter", "is_reserved": 0, "lon": -77.02542333333334}, {"fusion_lat": 0.0, "name": "02308e3f8bae1ad952974c53cc78f71f", "is_disabled": 0, "rental_uris": {"android": "https://dc.lft.to/lastmile_qr_scan", "ios": "https://dc.lft.to/lastmile_qr_scan"}, "fusion_lon": 0.0, "lat": 38.873724833333334, "bike_id": "02308e3f8bae1ad952974c53cc78f71f", "type": "electric_scooter", "is_reserved": 0, "lon": -77.00127083333334}, {"fusion_lat": 0.0, "name": "01bfa190967c787111e7c2b9e06b93a4", "is_disabled": 0, "rental_uris": {"android": "https://dc.lft.to/lastmile_qr_scan", "ios": "https://dc.lft.to/lastmile_qr_scan"}, "fusion_lon": 0.0, "lat": 38.911314, "bike_id": "01bfa190967c787111e7c2b9e06b93a4", "type": "electric_scooter", "is_reserved": 0, "lon": -77.0152975}, {"fusion_lat": 0.0, "name": "fcc58f7fdf3808c99bf42fc39c81e744", "is_disabled": 0, "rental_uris": {"android": "https://dc.lft.to/lastmile_qr_scan", "ios": "https://dc.lft.to/lastmile_qr_scan"}, "fusion_lon": 0.0, "lat": 38.902151333333336, "bike_id": "fcc58f7fdf3808c99bf42fc39c81e744", "type": "electric_scooter", "is_reserved": 0, "lon": -77.02216933333334}, {"fusion_lat": 0.0, "name": "bcf90a40377d0039a44c3eb5b9562ebd", "is_disabled": 0, "rental_uris": {"android": "https://dc.lft.to/lastmile_qr_scan", "ios": "https://dc.lft.to/lastmile_qr_scan"}, "fusion_lon": 0.0, "lat": 38.86762516666667, "bike_id": "bcf90a40377d0039a44c3eb5b9562ebd", "type": "electric_scooter", "is_reserved": 0, "lon": -76.982748}, {"fusion_lat": 0.0, "name": "68be8c1c3917c47da1759668af7026e8", "is_disabled": 0, "rental_uris": {"android": "https://dc.lft.to/lastmile_qr_scan", "ios": "https://dc.lft.to/lastmile_qr_scan"}, "fusion_lon": 0.0, "lat": 38.896320333333335, "bike_id": "68be8c1c3917c47da1759668af7026e8", "type": "electric_scooter", "is_reserved": 0, "lon": -77.0266225}, {"fusion_lat": 0.0, "name": "a72d61c35366a44fc77069af9931f559", "is_disabled": 0, "rental_uris": {"android": "https://dc.lft.to/lastmile_qr_scan", "ios": "https://dc.lft.to/lastmile_qr_scan"}, "fusion_lon": 0.0, "lat": 38.91490833333334, "bike_id": "a72d61c35366a44fc77069af9931f559", "type": "electric_scooter", "is_reserved": 0, "lon": -77.01417733333334}, {"fusion_lat": 0.0, "name": "851c62b644767682b56dd7d4aeedcf31", "is_disabled": 0, "rental_uris": {"android": "https://dc.lft.to/lastmile_qr_scan", "ios": "https://dc.lft.to/lastmile_qr_scan"}, "fusion_lon": 0.0, "lat": 38.926621, "bike_id": "851c62b644767682b56dd7d4aeedcf31", "type": "electric_scooter", "is_reserved": 0, "lon": -77.051568}, {"fusion_lat": 0.0, "name": "2d4eb9faac0ae45500fbf99ae7f305ae", "is_disabled": 0, "rental_uris": {"android": "https://dc.lft.to/lastmile_qr_scan", "ios": "https://dc.lft.to/lastmile_qr_scan"}, "fusion_lon": 0.0, "lat": 38.913375333333335, "bike_id": "2d4eb9faac0ae45500fbf99ae7f305ae", "type": "electric_scooter", "is_reserved": 0, "lon": -77.04274716666667}, {"fusion_lat": 0.0, "name": "f4df7e9dfceb5e07679b0283712590a8", "is_disabled": 0, "rental_uris": {"android": "https://dc.lft.to/lastmile_qr_scan", "ios": "https://dc.lft.to/lastmile_qr_scan"}, "fusion_lon": 0.0, "lat": 38.9026015, "bike_id": "f4df7e9dfceb5e07679b0283712590a8", "type": "electric_scooter", "is_reserved": 0, "lon": -77.02972916666667}, {"fusion_lat": 0.0, "name": "00a40e1306936ea8dc96fb05b179668b", "is_disabled": 0, "rental_uris": {"android": "https://dc.lft.to/lastmile_qr_scan", "ios": "https://dc.lft.to/lastmile_qr_scan"}, "fusion_lon": 0.0, "lat": 38.915631833333336, "bike_id": "00a40e1306936ea8dc96fb05b179668b", "type": "electric_scooter", "is_reserved": 0, "lon": -77.03073616666667}, {"fusion_lat": 0.0, "name": "2773197b1fd3886b35b41e39305c9f18", "is_disabled": 0, "rental_uris": {"android": "https://dc.lft.to/lastmile_qr_scan", "ios": "https://dc.lft.to/lastmile_qr_scan"}, "fusion_lon": 0.0, "lat": 38.89881716666667, "bike_id": "2773197b1fd3886b35b41e39305c9f18", "type": "electric_scooter", "is_reserved": 0, "lon": -77.0330335}, {"fusion_lat": 0.0, "name": "f8fc9984d2e22d3af56f9d5e862e61b9", "is_disabled": 0, "rental_uris": {"android": "https://dc.lft.to/lastmile_qr_scan", "ios": "https://dc.lft.to/lastmile_qr_scan"}, "fusion_lon": 0.0, "lat": 38.93341616666667, "bike_id": "f8fc9984d2e22d3af56f9d5e862e61b9", "type": "electric_scooter", "is_reserved": 0, "lon": -77.036385}, {"fusion_lat": 0.0, "name": "9e8e88854bed5d46da38d9ed2021de1e", "is_disabled": 0, "rental_uris": {"android": "https://dc.lft.to/lastmile_qr_scan", "ios": "https://dc.lft.to/lastmile_qr_scan"}, "fusion_lon": 0.0, "lat": 38.90792866666666, "bike_id": "9e8e88854bed5d46da38d9ed2021de1e", "type": "electric_scooter", "is_reserved": 0, "lon": -77.0097025}, {"fusion_lat": 0.0, "name": "e255d909a2e634107bf7dc451da68c9b", "is_disabled": 0, "rental_uris": {"android": "https://dc.lft.to/lastmile_qr_scan", "ios": "https://dc.lft.to/lastmile_qr_scan"}, "fusion_lon": 0.0, "lat": 38.920842, "bike_id": "e255d909a2e634107bf7dc451da68c9b", "type": "electric_scooter", "is_reserved": 0, "lon": -77.01484866666667}, {"fusion_lat": 0.0, "name": "574cc991709c81e2648164e66a19e272", "is_disabled": 0, "rental_uris": {"android": "https://dc.lft.to/lastmile_qr_scan", "ios": "https://dc.lft.to/lastmile_qr_scan"}, "fusion_lon": 0.0, "lat": 38.94634033333333, "bike_id": "574cc991709c81e2648164e66a19e272", "type": "electric_scooter", "is_reserved": 0, "lon": -77.09543283333333}, {"fusion_lat": 0.0, "name": "b5303724e9ac5d4fba78fe6ca11f0321", "is_disabled": 0, "rental_uris": {"android": "https://dc.lft.to/lastmile_qr_scan", "ios": "https://dc.lft.to/lastmile_qr_scan"}, "fusion_lon": 0.0, "lat": 38.90150883333333, "bike_id": "b5303724e9ac5d4fba78fe6ca11f0321", "type": "electric_scooter", "is_reserved": 0, "lon": -77.02002466666667}, {"fusion_lat": 0.0, "name": "980006fefc479ec0e68c6713f1c13686", "is_disabled": 0, "rental_uris": {"android": "https://dc.lft.to/lastmile_qr_scan", "ios": "https://dc.lft.to/lastmile_qr_scan"}, "fusion_lon": 0.0, "lat": 38.96126566666667, "bike_id": "980006fefc479ec0e68c6713f1c13686", "type": "electric_bike", "is_reserved": 0, "lon": -77.03277}, {"fusion_lat": 0.0, "name": "a22af93fd9654b16c12e227cbbb05d7e", "is_disabled": 0, "rental_uris": {"android": "https://dc.lft.to/lastmile_qr_scan", "ios": "https://dc.lft.to/lastmile_qr_scan"}, "fusion_lon": 0.0, "lat": 38.961311, "bike_id": "a22af93fd9654b16c12e227cbbb05d7e", "type": "electric_scooter", "is_reserved": 0, "lon": -77.02789783333333}, {"fusion_lat": 0.0, "name": "bc18d0c847dbb1ae463dca54e704dc1e", "is_disabled": 0, "rental_uris": {"android": "https://dc.lft.to/lastmile_qr_scan", "ios": "https://dc.lft.to/lastmile_qr_scan"}, "fusion_lon": 0.0, "lat": 38.898983, "bike_id": "bc18d0c847dbb1ae463dca54e704dc1e", "type": "electric_scooter", "is_reserved": 0, "lon": -77.01512116666666}, {"fusion_lat": 0.0, "name": "ff78b43c6f1799a24c425fc83dfe1ece", "is_disabled": 0, "rental_uris": {"android": "https://dc.lft.to/lastmile_qr_scan", "ios": "https://dc.lft.to/lastmile_qr_scan"}, "fusion_lon": 0.0, "lat": 38.938747166666666, "bike_id": "ff78b43c6f1799a24c425fc83dfe1ece", "type": "electric_scooter", "is_reserved": 0, "lon": -77.02467533333333}, {"fusion_lat": 0.0, "name": "af48d33aec22a3c1db4150eaec7b6cb8", "is_disabled": 0, "rental_uris": {"android": "https://dc.lft.to/lastmile_qr_scan", "ios": "https://dc.lft.to/lastmile_qr_scan"}, "fusion_lon": 0.0, "lat": 38.89791433333333, "bike_id": "af48d33aec22a3c1db4150eaec7b6cb8", "type": "electric_scooter", "is_reserved": 0, "lon": -77.011947}, {"fusion_lat": 0.0, "name": "cba4f09755ca8453c161b59a7a052e2e", "is_disabled": 0, "rental_uris": {"android": "https://dc.lft.to/lastmile_qr_scan", "ios": "https://dc.lft.to/lastmile_qr_scan"}, "fusion_lon": 0.0, "lat": 38.925435666666665, "bike_id": "cba4f09755ca8453c161b59a7a052e2e", "type": "electric_scooter", "is_reserved": 0, "lon": -77.03828533333333}, {"fusion_lat": 0.0, "name": "c768541572994f5ebbfe189973abf385", "is_disabled": 0, "rental_uris": {"android": "https://dc.lft.to/lastmile_qr_scan", "ios": "https://dc.lft.to/lastmile_qr_scan"}, "fusion_lon": 0.0, "lat": 38.952818666666666, "bike_id": "c768541572994f5ebbfe189973abf385", "type": "electric_scooter", "is_reserved": 0, "lon": -77.06862183333334}, {"fusion_lat": 0.0, "name": "bc7f7b25e86dd10f677d4acc0770d34e", "is_disabled": 0, "rental_uris": {"android": "https://dc.lft.to/lastmile_qr_scan", "ios": "https://dc.lft.to/lastmile_qr_scan"}, "fusion_lon": 0.0, "lat": 38.90092933333333, "bike_id": "bc7f7b25e86dd10f677d4acc0770d34e", "type": "electric_scooter", "is_reserved": 0, "lon": -76.98330016666667}, {"fusion_lat": 0.0, "name": "0a6b6060651f3c479acc02460c5ad2b6", "is_disabled": 0, "rental_uris": {"android": "https://dc.lft.to/lastmile_qr_scan", "ios": "https://dc.lft.to/lastmile_qr_scan"}, "fusion_lon": 0.0, "lat": 38.9103545, "bike_id": "0a6b6060651f3c479acc02460c5ad2b6", "type": "electric_scooter", "is_reserved": 0, "lon": -77.00828933333334}, {"fusion_lat": 0.0, "name": "1c9672bb377a9e85b14142fa8910345d", "is_disabled": 0, "rental_uris": {"android": "https://dc.lft.to/lastmile_qr_scan", "ios": "https://dc.lft.to/lastmile_qr_scan"}, "fusion_lon": 0.0, "lat": 38.928944333333334, "bike_id": "1c9672bb377a9e85b14142fa8910345d", "type": "electric_bike", "is_reserved": 0, "lon": -77.23181183333334}, {"fusion_lat": 0.0, "name": "aa3021612c5b98b6a201e78dc846d273", "is_disabled": 0, "rental_uris": {"android": "https://dc.lft.to/lastmile_qr_scan", "ios": "https://dc.lft.to/lastmile_qr_scan"}, "fusion_lon": 0.0, "lat": 38.91566183333333, "bike_id": "aa3021612c5b98b6a201e78dc846d273", "type": "electric_scooter", "is_reserved": 0, "lon": -77.0385755}, {"fusion_lat": 0.0, "name": "64846db5ca76b06b1020c6410df71ac5", "is_disabled": 0, "rental_uris": {"android": "https://dc.lft.to/lastmile_qr_scan", "ios": "https://dc.lft.to/lastmile_qr_scan"}, "fusion_lon": 0.0, "lat": 38.93772283333333, "bike_id": "64846db5ca76b06b1020c6410df71ac5", "type": "electric_scooter", "is_reserved": 0, "lon": -77.03262033333333}, {"fusion_lat": 0.0, "name": "a0733b8d0da341e49e4c15a63a671f49", "is_disabled": 0, "rental_uris": {"android": "https://dc.lft.to/lastmile_qr_scan", "ios": "https://dc.lft.to/lastmile_qr_scan"}, "fusion_lon": 0.0, "lat": 38.91483616666667, "bike_id": "a0733b8d0da341e49e4c15a63a671f49", "type": "electric_scooter", "is_reserved": 0, "lon": -77.040199}, {"fusion_lat": 0.0, "name": "aee9a9bf596d447fc1dbb25156f0f476", "is_disabled": 0, "rental_uris": {"android": "https://dc.lft.to/lastmile_qr_scan", "ios": "https://dc.lft.to/lastmile_qr_scan"}, "fusion_lon": 0.0, "lat": 38.897087166666665, "bike_id": "aee9a9bf596d447fc1dbb25156f0f476", "type": "electric_scooter", "is_reserved": 0, "lon": -77.0228665}, {"fusion_lat": 0.0, "name": "dbbc524c8aae860686cb574e2ce7eda5", "is_disabled": 0, "rental_uris": {"android": "https://dc.lft.to/lastmile_qr_scan", "ios": "https://dc.lft.to/lastmile_qr_scan"}, "fusion_lon": 0.0, "lat": 38.827958333333335, "bike_id": "dbbc524c8aae860686cb574e2ce7eda5", "type": "electric_bike", "is_reserved": 0, "lon": -77.12483483333334}, {"fusion_lat": 0.0, "name": "f11d73db3e0a626688d9e387870a4755", "is_disabled": 0, "rental_uris": {"android": "https://dc.lft.to/lastmile_qr_scan", "ios": "https://dc.lft.to/lastmile_qr_scan"}, "fusion_lon": 0.0, "lat": 38.92823216666667, "bike_id": "f11d73db3e0a626688d9e387870a4755", "type": "electric_scooter", "is_reserved": 0, "lon": -77.02256216666666}, {"fusion_lat": 0.0, "name": "dee2c5f4689283059ea181fe7bc6958e", "is_disabled": 0, "rental_uris": {"android": "https://dc.lft.to/lastmile_qr_scan", "ios": "https://dc.lft.to/lastmile_qr_scan"}, "fusion_lon": 0.0, "lat": 38.892373166666665, "bike_id": "dee2c5f4689283059ea181fe7bc6958e", "type": "electric_scooter", "is_reserved": 0, "lon": -77.00292583333334}, {"fusion_lat": 0.0, "name": "ba74fba4f5aa88f31ca4620524ccbf39", "is_disabled": 0, "rental_uris": {"android": "https://dc.lft.to/lastmile_qr_scan", "ios": "https://dc.lft.to/lastmile_qr_scan"}, "fusion_lon": 0.0, "lat": 38.902303833333335, "bike_id": "ba74fba4f5aa88f31ca4620524ccbf39", "type": "electric_scooter", "is_reserved": 0, "lon": -77.0344585}, {"fusion_lat": 0.0, "name": "088b6aa9dbe26460efea9323b974c51f", "is_disabled": 0, "rental_uris": {"android": "https://dc.lft.to/lastmile_qr_scan", "ios": "https://dc.lft.to/lastmile_qr_scan"}, "fusion_lon": 0.0, "lat": 38.91631133333333, "bike_id": "088b6aa9dbe26460efea9323b974c51f", "type": "electric_scooter", "is_reserved": 0, "lon": -77.00102166666667}, {"fusion_lat": 0.0, "name": "4c0030357aac918104b0334d0b040adf", "is_disabled": 0, "rental_uris": {"android": "https://dc.lft.to/lastmile_qr_scan", "ios": "https://dc.lft.to/lastmile_qr_scan"}, "fusion_lon": 0.0, "lat": 38.907641, "bike_id": "4c0030357aac918104b0334d0b040adf", "type": "electric_scooter", "is_reserved": 0, "lon": -77.0565355}, {"fusion_lat": 0.0, "name": "1bb7d29c674df66c4b24bf5522d194b7", "is_disabled": 0, "rental_uris": {"android": "https://dc.lft.to/lastmile_qr_scan", "ios": "https://dc.lft.to/lastmile_qr_scan"}, "fusion_lon": 0.0, "lat": 38.930757666666665, "bike_id": "1bb7d29c674df66c4b24bf5522d194b7", "type": "electric_scooter", "is_reserved": 0, "lon": -77.021815}, {"fusion_lat": 0.0, "name": "730aa3f628a4cb23b8340422fa9056bd", "is_disabled": 0, "rental_uris": {"android": "https://dc.lft.to/lastmile_qr_scan", "ios": "https://dc.lft.to/lastmile_qr_scan"}, "fusion_lon": 0.0, "lat": 38.9222475, "bike_id": "730aa3f628a4cb23b8340422fa9056bd", "type": "electric_scooter", "is_reserved": 0, "lon": -77.023673}, {"fusion_lat": 0.0, "name": "29220bc7c83980ca01229b9927ed669f", "is_disabled": 0, "rental_uris": {"android": "https://dc.lft.to/lastmile_qr_scan", "ios": "https://dc.lft.to/lastmile_qr_scan"}, "fusion_lon": 0.0, "lat": 38.93962616666666, "bike_id": "29220bc7c83980ca01229b9927ed669f", "type": "electric_scooter", "is_reserved": 0, "lon": -77.03285566666666}, {"fusion_lat": 0.0, "name": "eb6e0440395d3c45d84ec8af14e0415d", "is_disabled": 0, "rental_uris": {"android": "https://dc.lft.to/lastmile_qr_scan", "ios": "https://dc.lft.to/lastmile_qr_scan"}, "fusion_lon": 0.0, "lat": 38.897260333333335, "bike_id": "eb6e0440395d3c45d84ec8af14e0415d", "type": "electric_scooter", "is_reserved": 0, "lon": -77.046357}, {"fusion_lat": 0.0, "name": "0350b851654d9d0fe3f1d3fd3507605a", "is_disabled": 0, "rental_uris": {"android": "https://dc.lft.to/lastmile_qr_scan", "ios": "https://dc.lft.to/lastmile_qr_scan"}, "fusion_lon": 0.0, "lat": 38.883275166666664, "bike_id": "0350b851654d9d0fe3f1d3fd3507605a", "type": "electric_bike", "is_reserved": 0, "lon": -76.96058333333333}, {"fusion_lat": 0.0, "name": "db65cda489afeede4b285bb9fed97c74", "is_disabled": 0, "rental_uris": {"android": "https://dc.lft.to/lastmile_qr_scan", "ios": "https://dc.lft.to/lastmile_qr_scan"}, "fusion_lon": 0.0, "lat": 38.911121, "bike_id": "db65cda489afeede4b285bb9fed97c74", "type": "electric_scooter", "is_reserved": 0, "lon": -77.08127833333333}, {"fusion_lat": 0.0, "name": "4098a257d721a34775dcd910b90f1785", "is_disabled": 0, "rental_uris": {"android": "https://dc.lft.to/lastmile_qr_scan", "ios": "https://dc.lft.to/lastmile_qr_scan"}, "fusion_lon": 0.0, "lat": 38.9217035, "bike_id": "4098a257d721a34775dcd910b90f1785", "type": "electric_scooter", "is_reserved": 0, "lon": -77.03375416666667}, {"fusion_lat": 0.0, "name": "20ccecc73ceb84337cc74355338a04cd", "is_disabled": 0, "rental_uris": {"android": "https://dc.lft.to/lastmile_qr_scan", "ios": "https://dc.lft.to/lastmile_qr_scan"}, "fusion_lon": 0.0, "lat": 38.905653, "bike_id": "20ccecc73ceb84337cc74355338a04cd", "type": "electric_scooter", "is_reserved": 0, "lon": -77.041678}, {"fusion_lat": 0.0, "name": "34be38457cd8d2a1ade4003439fe78f4", "is_disabled": 0, "rental_uris": {"android": "https://dc.lft.to/lastmile_qr_scan", "ios": "https://dc.lft.to/lastmile_qr_scan"}, "fusion_lon": 0.0, "lat": 38.957050333333335, "bike_id": "34be38457cd8d2a1ade4003439fe78f4", "type": "electric_scooter", "is_reserved": 0, "lon": -77.02397966666666}, {"fusion_lat": 0.0, "name": "2565a9d14d8191f99ba75319811e2fe0", "is_disabled": 0, "rental_uris": {"android": "https://dc.lft.to/lastmile_qr_scan", "ios": "https://dc.lft.to/lastmile_qr_scan"}, "fusion_lon": 0.0, "lat": 38.9002415, "bike_id": "2565a9d14d8191f99ba75319811e2fe0", "type": "electric_scooter", "is_reserved": 0, "lon": -76.99136933333334}, {"fusion_lat": 0.0, "name": "9bd7a1057d2c5cec0c4211b978aa2ba4", "is_disabled": 0, "rental_uris": {"android": "https://dc.lft.to/lastmile_qr_scan", "ios": "https://dc.lft.to/lastmile_qr_scan"}, "fusion_lon": 0.0, "lat": 38.920514833333336, "bike_id": "9bd7a1057d2c5cec0c4211b978aa2ba4", "type": "electric_scooter", "is_reserved": 0, "lon": -77.03197383333334}, {"fusion_lat": 0.0, "name": "9be3a628f0e747764a77c55288deaff6", "is_disabled": 0, "rental_uris": {"android": "https://dc.lft.to/lastmile_qr_scan", "ios": "https://dc.lft.to/lastmile_qr_scan"}, "fusion_lon": 0.0, "lat": 38.884587333333336, "bike_id": "9be3a628f0e747764a77c55288deaff6", "type": "electric_scooter", "is_reserved": 0, "lon": -76.99837466666666}, {"fusion_lat": 0.0, "name": "01f304d7910143a6d6c59b5266768ecb", "is_disabled": 0, "rental_uris": {"android": "https://dc.lft.to/lastmile_qr_scan", "ios": "https://dc.lft.to/lastmile_qr_scan"}, "fusion_lon": 0.0, "lat": 38.884753833333335, "bike_id": "01f304d7910143a6d6c59b5266768ecb", "type": "electric_scooter", "is_reserved": 0, "lon": -76.92973466666666}, {"fusion_lat": 0.0, "name": "1ed1ff509ca50cf56cec906783afa83f", "is_disabled": 0, "rental_uris": {"android": "https://dc.lft.to/lastmile_qr_scan", "ios": "https://dc.lft.to/lastmile_qr_scan"}, "fusion_lon": 0.0, "lat": 38.92988183333333, "bike_id": "1ed1ff509ca50cf56cec906783afa83f", "type": "electric_scooter", "is_reserved": 0, "lon": -77.03235283333333}, {"fusion_lat": 0.0, "name": "9c60c6fe01ca4babdc8fc5bc987bff6c", "is_disabled": 0, "rental_uris": {"android": "https://dc.lft.to/lastmile_qr_scan", "ios": "https://dc.lft.to/lastmile_qr_scan"}, "fusion_lon": 0.0, "lat": 38.94702433333333, "bike_id": "9c60c6fe01ca4babdc8fc5bc987bff6c", "type": "electric_scooter", "is_reserved": 0, "lon": -77.0194095}, {"fusion_lat": 0.0, "name": "c66642cf34dd92f24cba41858563f028", "is_disabled": 0, "rental_uris": {"android": "https://dc.lft.to/lastmile_qr_scan", "ios": "https://dc.lft.to/lastmile_qr_scan"}, "fusion_lon": 0.0, "lat": 38.92442483333333, "bike_id": "c66642cf34dd92f24cba41858563f028", "type": "electric_scooter", "is_reserved": 0, "lon": -77.03362216666666}, {"fusion_lat": 0.0, "name": "a4455a5ae251cb419c629f4bd32a2820", "is_disabled": 0, "rental_uris": {"android": "https://dc.lft.to/lastmile_qr_scan", "ios": "https://dc.lft.to/lastmile_qr_scan"}, "fusion_lon": 0.0, "lat": 38.93580216666667, "bike_id": "a4455a5ae251cb419c629f4bd32a2820", "type": "electric_scooter", "is_reserved": 0, "lon": -77.02361516666667}, {"fusion_lat": 0.0, "name": "50cae13576f89dbfafcb0dbd5a8fe358", "is_disabled": 0, "rental_uris": {"android": "https://dc.lft.to/lastmile_qr_scan", "ios": "https://dc.lft.to/lastmile_qr_scan"}, "fusion_lon": 0.0, "lat": 38.94676333333334, "bike_id": "50cae13576f89dbfafcb0dbd5a8fe358", "type": "electric_scooter", "is_reserved": 0, "lon": -77.03095833333333}, {"fusion_lat": 0.0, "name": "ec0ec1b41844a07e22020f043dcd9102", "is_disabled": 0, "rental_uris": {"android": "https://dc.lft.to/lastmile_qr_scan", "ios": "https://dc.lft.to/lastmile_qr_scan"}, "fusion_lon": 0.0, "lat": 38.9038585, "bike_id": "ec0ec1b41844a07e22020f043dcd9102", "type": "electric_scooter", "is_reserved": 0, "lon": -77.03221216666667}, {"fusion_lat": 0.0, "name": "2b354b84ffb867d3a2c9778213f16956", "is_disabled": 0, "rental_uris": {"android": "https://dc.lft.to/lastmile_qr_scan", "ios": "https://dc.lft.to/lastmile_qr_scan"}, "fusion_lon": 0.0, "lat": 38.930979666666666, "bike_id": "2b354b84ffb867d3a2c9778213f16956", "type": "electric_scooter", "is_reserved": 0, "lon": -77.02662816666667}, {"fusion_lat": 0.0, "name": "11bfe70abb91b0a4a0b758131e4a4d25", "is_disabled": 0, "rental_uris": {"android": "https://dc.lft.to/lastmile_qr_scan", "ios": "https://dc.lft.to/lastmile_qr_scan"}, "fusion_lon": 0.0, "lat": 38.9484085, "bike_id": "11bfe70abb91b0a4a0b758131e4a4d25", "type": "electric_scooter", "is_reserved": 0, "lon": -77.02571283333333}, {"fusion_lat": 0.0, "name": "46efe017e75b4e66c4fa9ea5e58d6cce", "is_disabled": 0, "rental_uris": {"android": "https://dc.lft.to/lastmile_qr_scan", "ios": "https://dc.lft.to/lastmile_qr_scan"}, "fusion_lon": 0.0, "lat": 38.907936666666664, "bike_id": "46efe017e75b4e66c4fa9ea5e58d6cce", "type": "electric_scooter", "is_reserved": 0, "lon": -77.04322716666667}, {"fusion_lat": 0.0, "name": "3a46f19134fe9c408537fb7af01e3136", "is_disabled": 0, "rental_uris": {"android": "https://dc.lft.to/lastmile_qr_scan", "ios": "https://dc.lft.to/lastmile_qr_scan"}, "fusion_lon": 0.0, "lat": 38.931836833333335, "bike_id": "3a46f19134fe9c408537fb7af01e3136", "type": "electric_scooter", "is_reserved": 0, "lon": -77.04305266666667}, {"fusion_lat": 0.0, "name": "8a1fe2eb753876caf418770505161dec", "is_disabled": 0, "rental_uris": {"android": "https://dc.lft.to/lastmile_qr_scan", "ios": "https://dc.lft.to/lastmile_qr_scan"}, "fusion_lon": 0.0, "lat": 38.91111883333333, "bike_id": "8a1fe2eb753876caf418770505161dec", "type": "electric_scooter", "is_reserved": 0, "lon": -77.01145283333334}, {"fusion_lat": 0.0, "name": "aa128de3d634e13202dd735c4baf4717", "is_disabled": 0, "rental_uris": {"android": "https://dc.lft.to/lastmile_qr_scan", "ios": "https://dc.lft.to/lastmile_qr_scan"}, "fusion_lon": 0.0, "lat": 38.887232833333336, "bike_id": "aa128de3d634e13202dd735c4baf4717", "type": "electric_scooter", "is_reserved": 0, "lon": -76.98355966666666}, {"fusion_lat": 0.0, "name": "d515746491cc6499ba903928bf06a374", "is_disabled": 0, "rental_uris": {"android": "https://dc.lft.to/lastmile_qr_scan", "ios": "https://dc.lft.to/lastmile_qr_scan"}, "fusion_lon": 0.0, "lat": 38.899655333333335, "bike_id": "d515746491cc6499ba903928bf06a374", "type": "electric_scooter", "is_reserved": 0, "lon": -76.98712566666667}, {"fusion_lat": 0.0, "name": "1fc48dac71dc7344c6be73278e504e60", "is_disabled": 0, "rental_uris": {"android": "https://dc.lft.to/lastmile_qr_scan", "ios": "https://dc.lft.to/lastmile_qr_scan"}, "fusion_lon": 0.0, "lat": 38.927916833333335, "bike_id": "1fc48dac71dc7344c6be73278e504e60", "type": "electric_scooter", "is_reserved": 0, "lon": -77.02722216666666}, {"fusion_lat": 0.0, "name": "deece335e7d2debdeddd397b628b73ca", "is_disabled": 0, "rental_uris": {"android": "https://dc.lft.to/lastmile_qr_scan", "ios": "https://dc.lft.to/lastmile_qr_scan"}, "fusion_lon": 0.0, "lat": 38.90013233333333, "bike_id": "deece335e7d2debdeddd397b628b73ca", "type": "electric_scooter", "is_reserved": 0, "lon": -77.0124695}, {"fusion_lat": 0.0, "name": "241c2b49a5108581a98a24500ba9842e", "is_disabled": 0, "rental_uris": {"android": "https://dc.lft.to/lastmile_qr_scan", "ios": "https://dc.lft.to/lastmile_qr_scan"}, "fusion_lon": 0.0, "lat": 38.9364755, "bike_id": "241c2b49a5108581a98a24500ba9842e", "type": "electric_scooter", "is_reserved": 0, "lon": -77.03055483333333}, {"fusion_lat": 0.0, "name": "fed7c01e03409be5303a3f35e42b13a1", "is_disabled": 0, "rental_uris": {"android": "https://dc.lft.to/lastmile_qr_scan", "ios": "https://dc.lft.to/lastmile_qr_scan"}, "fusion_lon": 0.0, "lat": 38.94230533333333, "bike_id": "fed7c01e03409be5303a3f35e42b13a1", "type": "electric_scooter", "is_reserved": 0, "lon": -77.01387716666666}, {"fusion_lat": 0.0, "name": "bb3fa030218826a9f191e36858162c05", "is_disabled": 0, "rental_uris": {"android": "https://dc.lft.to/lastmile_qr_scan", "ios": "https://dc.lft.to/lastmile_qr_scan"}, "fusion_lon": 0.0, "lat": 38.89734416666667, "bike_id": "bb3fa030218826a9f191e36858162c05", "type": "electric_scooter", "is_reserved": 0, "lon": -77.033488}, {"fusion_lat": 0.0, "name": "560d59e4379ce806b9f473440928c8bf", "is_disabled": 0, "rental_uris": {"android": "https://dc.lft.to/lastmile_qr_scan", "ios": "https://dc.lft.to/lastmile_qr_scan"}, "fusion_lon": 0.0, "lat": 38.916709, "bike_id": "560d59e4379ce806b9f473440928c8bf", "type": "electric_scooter", "is_reserved": 0, "lon": -77.029595}, {"fusion_lat": 0.0, "name": "1c613be005ca4052f72a750ff72e7526", "is_disabled": 0, "rental_uris": {"android": "https://dc.lft.to/lastmile_qr_scan", "ios": "https://dc.lft.to/lastmile_qr_scan"}, "fusion_lon": 0.0, "lat": 38.8932885, "bike_id": "1c613be005ca4052f72a750ff72e7526", "type": "electric_scooter", "is_reserved": 0, "lon": -77.022478}, {"fusion_lat": 0.0, "name": "8ba57deb68578b7c8cc2049658e47b19", "is_disabled": 0, "rental_uris": {"android": "https://dc.lft.to/lastmile_qr_scan", "ios": "https://dc.lft.to/lastmile_qr_scan"}, "fusion_lon": 0.0, "lat": 38.92077366666667, "bike_id": "8ba57deb68578b7c8cc2049658e47b19", "type": "electric_bike", "is_reserved": 0, "lon": -76.98946783333334}, {"fusion_lat": 0.0, "name": "06bf0478f80b965de5796894e1575327", "is_disabled": 0, "rental_uris": {"android": "https://dc.lft.to/lastmile_qr_scan", "ios": "https://dc.lft.to/lastmile_qr_scan"}, "fusion_lon": 0.0, "lat": 38.88523516666667, "bike_id": "06bf0478f80b965de5796894e1575327", "type": "electric_scooter", "is_reserved": 0, "lon": -77.01510216666667}, {"fusion_lat": 0.0, "name": "d42f55485a8311e18450f72ce9fc139e", "is_disabled": 0, "rental_uris": {"android": "https://dc.lft.to/lastmile_qr_scan", "ios": "https://dc.lft.to/lastmile_qr_scan"}, "fusion_lon": 0.0, "lat": 38.917676, "bike_id": "d42f55485a8311e18450f72ce9fc139e", "type": "electric_scooter", "is_reserved": 0, "lon": -77.01499716666666}, {"fusion_lat": 0.0, "name": "bc2a909a849da1426df60066a1d823be", "is_disabled": 0, "rental_uris": {"android": "https://dc.lft.to/lastmile_qr_scan", "ios": "https://dc.lft.to/lastmile_qr_scan"}, "fusion_lon": 0.0, "lat": 38.9236955, "bike_id": "bc2a909a849da1426df60066a1d823be", "type": "electric_scooter", "is_reserved": 0, "lon": -77.08148183333333}, {"fusion_lat": 0.0, "name": "4fe43ce1b0304de242f99607a412f340", "is_disabled": 0, "rental_uris": {"android": "https://dc.lft.to/lastmile_qr_scan", "ios": "https://dc.lft.to/lastmile_qr_scan"}, "fusion_lon": 0.0, "lat": 38.916708166666666, "bike_id": "4fe43ce1b0304de242f99607a412f340", "type": "electric_scooter", "is_reserved": 0, "lon": -77.02287783333334}, {"fusion_lat": 0.0, "name": "3406511e0b066bb66d7f0f08b2fae7fa", "is_disabled": 0, "rental_uris": {"android": "https://dc.lft.to/lastmile_qr_scan", "ios": "https://dc.lft.to/lastmile_qr_scan"}, "fusion_lon": 0.0, "lat": 38.9612845, "bike_id": "3406511e0b066bb66d7f0f08b2fae7fa", "type": "electric_scooter", "is_reserved": 0, "lon": -77.027939}, {"fusion_lat": 0.0, "name": "85716fe7856f89693e1e41606004da09", "is_disabled": 0, "rental_uris": {"android": "https://dc.lft.to/lastmile_qr_scan", "ios": "https://dc.lft.to/lastmile_qr_scan"}, "fusion_lon": 0.0, "lat": 38.911236, "bike_id": "85716fe7856f89693e1e41606004da09", "type": "electric_scooter", "is_reserved": 0, "lon": -77.02193816666667}, {"fusion_lat": 0.0, "name": "ec4c47c3c149582f19b22a7c9c461e88", "is_disabled": 0, "rental_uris": {"android": "https://dc.lft.to/lastmile_qr_scan", "ios": "https://dc.lft.to/lastmile_qr_scan"}, "fusion_lon": 0.0, "lat": 38.90032383333333, "bike_id": "ec4c47c3c149582f19b22a7c9c461e88", "type": "electric_scooter", "is_reserved": 0, "lon": -76.9913735}, {"fusion_lat": 0.0, "name": "feb2fa340c81d48f4a7eaf8199211672", "is_disabled": 0, "rental_uris": {"android": "https://dc.lft.to/lastmile_qr_scan", "ios": "https://dc.lft.to/lastmile_qr_scan"}, "fusion_lon": 0.0, "lat": 38.9227405, "bike_id": "feb2fa340c81d48f4a7eaf8199211672", "type": "electric_scooter", "is_reserved": 0, "lon": -76.99430966666667}, {"fusion_lat": 0.0, "name": "5efcb8d31fba8af4ea78320c5febabe1", "is_disabled": 0, "rental_uris": {"android": "https://dc.lft.to/lastmile_qr_scan", "ios": "https://dc.lft.to/lastmile_qr_scan"}, "fusion_lon": 0.0, "lat": 38.889632166666665, "bike_id": "5efcb8d31fba8af4ea78320c5febabe1", "type": "electric_scooter", "is_reserved": 0, "lon": -77.015056}, {"fusion_lat": 0.0, "name": "13c53056aed7fe7e3f6a4a8bc45eb6dc", "is_disabled": 0, "rental_uris": {"android": "https://dc.lft.to/lastmile_qr_scan", "ios": "https://dc.lft.to/lastmile_qr_scan"}, "fusion_lon": 0.0, "lat": 38.89007983333333, "bike_id": "13c53056aed7fe7e3f6a4a8bc45eb6dc", "type": "electric_scooter", "is_reserved": 0, "lon": -76.93739966666666}, {"fusion_lat": 0.0, "name": "25e1288b09d134010c1d2293997d8af7", "is_disabled": 0, "rental_uris": {"android": "https://dc.lft.to/lastmile_qr_scan", "ios": "https://dc.lft.to/lastmile_qr_scan"}, "fusion_lon": 0.0, "lat": 38.91555, "bike_id": "25e1288b09d134010c1d2293997d8af7", "type": "electric_scooter", "is_reserved": 0, "lon": -77.032415}, {"fusion_lat": 0.0, "name": "ce0babb1d67f49a2c0fc7ddae9d03ec6", "is_disabled": 0, "rental_uris": {"android": "https://dc.lft.to/lastmile_qr_scan", "ios": "https://dc.lft.to/lastmile_qr_scan"}, "fusion_lon": 0.0, "lat": 38.87683716666667, "bike_id": "ce0babb1d67f49a2c0fc7ddae9d03ec6", "type": "electric_scooter", "is_reserved": 0, "lon": -77.01759983333334}, {"fusion_lat": 0.0, "name": "ae66a132dab0fc9c1f7bb08ac91be526", "is_disabled": 0, "rental_uris": {"android": "https://dc.lft.to/lastmile_qr_scan", "ios": "https://dc.lft.to/lastmile_qr_scan"}, "fusion_lon": 0.0, "lat": 38.884835833333334, "bike_id": "ae66a132dab0fc9c1f7bb08ac91be526", "type": "electric_scooter", "is_reserved": 0, "lon": -77.0243585}, {"fusion_lat": 0.0, "name": "fc3102d59ce859ea347507129297ae27", "is_disabled": 0, "rental_uris": {"android": "https://dc.lft.to/lastmile_qr_scan", "ios": "https://dc.lft.to/lastmile_qr_scan"}, "fusion_lon": 0.0, "lat": 38.91341716666667, "bike_id": "fc3102d59ce859ea347507129297ae27", "type": "electric_scooter", "is_reserved": 0, "lon": -77.00344816666667}, {"fusion_lat": 0.0, "name": "955a2d38744fe33cf2675013f3893625", "is_disabled": 0, "rental_uris": {"android": "https://dc.lft.to/lastmile_qr_scan", "ios": "https://dc.lft.to/lastmile_qr_scan"}, "fusion_lon": 0.0, "lat": 38.924521666666664, "bike_id": "955a2d38744fe33cf2675013f3893625", "type": "electric_scooter", "is_reserved": 0, "lon": -77.02411516666666}, {"fusion_lat": 0.0, "name": "ea07ba1a96459a5ca2caa148576564f5", "is_disabled": 0, "rental_uris": {"android": "https://dc.lft.to/lastmile_qr_scan", "ios": "https://dc.lft.to/lastmile_qr_scan"}, "fusion_lon": 0.0, "lat": 38.90381816666667, "bike_id": "ea07ba1a96459a5ca2caa148576564f5", "type": "electric_scooter", "is_reserved": 0, "lon": -76.98483033333333}, {"fusion_lat": 0.0, "name": "c7c9235b10dc10dc9d629ad3ee21a106", "is_disabled": 0, "rental_uris": {"android": "https://dc.lft.to/lastmile_qr_scan", "ios": "https://dc.lft.to/lastmile_qr_scan"}, "fusion_lon": 0.0, "lat": 38.911167166666665, "bike_id": "c7c9235b10dc10dc9d629ad3ee21a106", "type": "electric_scooter", "is_reserved": 0, "lon": -77.0422125}, {"fusion_lat": 0.0, "name": "43956e7d4aabfa7ffd6dc3c6b0c750cc", "is_disabled": 0, "rental_uris": {"android": "https://dc.lft.to/lastmile_qr_scan", "ios": "https://dc.lft.to/lastmile_qr_scan"}, "fusion_lon": 0.0, "lat": 38.929938666666665, "bike_id": "43956e7d4aabfa7ffd6dc3c6b0c750cc", "type": "electric_scooter", "is_reserved": 0, "lon": -77.03231166666667}, {"fusion_lat": 0.0, "name": "104c51e1f967038017869115fff3011c", "is_disabled": 0, "rental_uris": {"android": "https://dc.lft.to/lastmile_qr_scan", "ios": "https://dc.lft.to/lastmile_qr_scan"}, "fusion_lon": 0.0, "lat": 38.9077355, "bike_id": "104c51e1f967038017869115fff3011c", "type": "electric_scooter", "is_reserved": 0, "lon": -77.03185233333333}, {"fusion_lat": 0.0, "name": "8276485183349f5d98fea85961b5cb0b", "is_disabled": 0, "rental_uris": {"android": "https://dc.lft.to/lastmile_qr_scan", "ios": "https://dc.lft.to/lastmile_qr_scan"}, "fusion_lon": 0.0, "lat": 38.920640666666664, "bike_id": "8276485183349f5d98fea85961b5cb0b", "type": "electric_scooter", "is_reserved": 0, "lon": -77.02711983333333}, {"fusion_lat": 0.0, "name": "787f6e672ed16cd53b888ed7c317215d", "is_disabled": 0, "rental_uris": {"android": "https://dc.lft.to/lastmile_qr_scan", "ios": "https://dc.lft.to/lastmile_qr_scan"}, "fusion_lon": 0.0, "lat": 38.92583283333333, "bike_id": "787f6e672ed16cd53b888ed7c317215d", "type": "electric_scooter", "is_reserved": 0, "lon": -77.0273255}, {"fusion_lat": 0.0, "name": "4024271c39811a8057938d196d3b85d7", "is_disabled": 0, "rental_uris": {"android": "https://dc.lft.to/lastmile_qr_scan", "ios": "https://dc.lft.to/lastmile_qr_scan"}, "fusion_lon": 0.0, "lat": 38.901754833333335, "bike_id": "4024271c39811a8057938d196d3b85d7", "type": "electric_scooter", "is_reserved": 0, "lon": -77.059195}, {"fusion_lat": 0.0, "name": "56a3e673fc05db42b1f67cc511cba6f8", "is_disabled": 0, "rental_uris": {"android": "https://dc.lft.to/lastmile_qr_scan", "ios": "https://dc.lft.to/lastmile_qr_scan"}, "fusion_lon": 0.0, "lat": 38.93514166666667, "bike_id": "56a3e673fc05db42b1f67cc511cba6f8", "type": "electric_scooter", "is_reserved": 0, "lon": -77.0334495}, {"fusion_lat": 0.0, "name": "7c003696c3c9f6752ca481364de3ea34", "is_disabled": 0, "rental_uris": {"android": "https://dc.lft.to/lastmile_qr_scan", "ios": "https://dc.lft.to/lastmile_qr_scan"}, "fusion_lon": 0.0, "lat": 38.91974, "bike_id": "7c003696c3c9f6752ca481364de3ea34", "type": "electric_scooter", "is_reserved": 0, "lon": -77.07094316666667}, {"fusion_lat": 0.0, "name": "06ccfa4da4b6380abb85496600f857dd", "is_disabled": 0, "rental_uris": {"android": "https://dc.lft.to/lastmile_qr_scan", "ios": "https://dc.lft.to/lastmile_qr_scan"}, "fusion_lon": 0.0, "lat": 38.904032, "bike_id": "06ccfa4da4b6380abb85496600f857dd", "type": "electric_scooter", "is_reserved": 0, "lon": -77.05020166666667}, {"fusion_lat": 0.0, "name": "9d50c752156daa3a334b38aff6e0e27d", "is_disabled": 0, "rental_uris": {"android": "https://dc.lft.to/lastmile_qr_scan", "ios": "https://dc.lft.to/lastmile_qr_scan"}, "fusion_lon": 0.0, "lat": 38.918255, "bike_id": "9d50c752156daa3a334b38aff6e0e27d", "type": "electric_scooter", "is_reserved": 0, "lon": -77.0452795}, {"fusion_lat": 0.0, "name": "03c041a4ff7c6ae61167e7a71996bc7d", "is_disabled": 0, "rental_uris": {"android": "https://dc.lft.to/lastmile_qr_scan", "ios": "https://dc.lft.to/lastmile_qr_scan"}, "fusion_lon": 0.0, "lat": 38.9370495, "bike_id": "03c041a4ff7c6ae61167e7a71996bc7d", "type": "electric_scooter", "is_reserved": 0, "lon": -77.06104333333333}, {"fusion_lat": 0.0, "name": "a84537b6dc8ed9e7393d51716bed5868", "is_disabled": 0, "rental_uris": {"android": "https://dc.lft.to/lastmile_qr_scan", "ios": "https://dc.lft.to/lastmile_qr_scan"}, "fusion_lon": 0.0, "lat": 38.91709766666666, "bike_id": "a84537b6dc8ed9e7393d51716bed5868", "type": "electric_scooter", "is_reserved": 0, "lon": -77.032228}, {"fusion_lat": 0.0, "name": "bd0483fb0470b78bd0f5fad9affa29cd", "is_disabled": 0, "rental_uris": {"android": "https://dc.lft.to/lastmile_qr_scan", "ios": "https://dc.lft.to/lastmile_qr_scan"}, "fusion_lon": 0.0, "lat": 38.915225166666666, "bike_id": "bd0483fb0470b78bd0f5fad9affa29cd", "type": "electric_scooter", "is_reserved": 0, "lon": -77.01330516666667}, {"fusion_lat": 0.0, "name": "d3437366890df8eb6a24d36419bc51ab", "is_disabled": 0, "rental_uris": {"android": "https://dc.lft.to/lastmile_qr_scan", "ios": "https://dc.lft.to/lastmile_qr_scan"}, "fusion_lon": 0.0, "lat": 38.885052, "bike_id": "d3437366890df8eb6a24d36419bc51ab", "type": "electric_scooter", "is_reserved": 0, "lon": -77.00064016666667}, {"fusion_lat": 0.0, "name": "97e021d0943570aeedfceab69d3bcbd7", "is_disabled": 0, "rental_uris": {"android": "https://dc.lft.to/lastmile_qr_scan", "ios": "https://dc.lft.to/lastmile_qr_scan"}, "fusion_lon": 0.0, "lat": 38.93531183333333, "bike_id": "97e021d0943570aeedfceab69d3bcbd7", "type": "electric_scooter", "is_reserved": 0, "lon": -77.02355816666666}, {"fusion_lat": 0.0, "name": "96fb1b36681fe2ea1be818debbec839e", "is_disabled": 0, "rental_uris": {"android": "https://dc.lft.to/lastmile_qr_scan", "ios": "https://dc.lft.to/lastmile_qr_scan"}, "fusion_lon": 0.0, "lat": 38.921153, "bike_id": "96fb1b36681fe2ea1be818debbec839e", "type": "electric_scooter", "is_reserved": 0, "lon": -77.020813}, {"fusion_lat": 0.0, "name": "b8def00a588ad8219ca7a3c93bd96e8f", "is_disabled": 0, "rental_uris": {"android": "https://dc.lft.to/lastmile_qr_scan", "ios": "https://dc.lft.to/lastmile_qr_scan"}, "fusion_lon": 0.0, "lat": 38.85507233333333, "bike_id": "b8def00a588ad8219ca7a3c93bd96e8f", "type": "electric_scooter", "is_reserved": 0, "lon": -76.96535683333333}, {"fusion_lat": 0.0, "name": "63fb84c57df42e32e53e37f04799fb69", "is_disabled": 0, "rental_uris": {"android": "https://dc.lft.to/lastmile_qr_scan", "ios": "https://dc.lft.to/lastmile_qr_scan"}, "fusion_lon": 0.0, "lat": 38.92739433333333, "bike_id": "63fb84c57df42e32e53e37f04799fb69", "type": "electric_bike", "is_reserved": 0, "lon": -77.025001}, {"fusion_lat": 0.0, "name": "6efafd08d44595b6d5f20f18a052727b", "is_disabled": 0, "rental_uris": {"android": "https://dc.lft.to/lastmile_qr_scan", "ios": "https://dc.lft.to/lastmile_qr_scan"}, "fusion_lon": 0.0, "lat": 38.92413783333333, "bike_id": "6efafd08d44595b6d5f20f18a052727b", "type": "electric_bike", "is_reserved": 0, "lon": -77.05039516666666}, {"fusion_lat": 0.0, "name": "1120d4fab7df907850040d58ecde3935", "is_disabled": 0, "rental_uris": {"android": "https://dc.lft.to/lastmile_qr_scan", "ios": "https://dc.lft.to/lastmile_qr_scan"}, "fusion_lon": 0.0, "lat": 38.953131, "bike_id": "1120d4fab7df907850040d58ecde3935", "type": "electric_scooter", "is_reserved": 0, "lon": -77.0225125}, {"fusion_lat": 0.0, "name": "3fb81982780f09f5f7bdb1b891ad267f", "is_disabled": 0, "rental_uris": {"android": "https://dc.lft.to/lastmile_qr_scan", "ios": "https://dc.lft.to/lastmile_qr_scan"}, "fusion_lon": 0.0, "lat": 38.90956933333333, "bike_id": "3fb81982780f09f5f7bdb1b891ad267f", "type": "electric_scooter", "is_reserved": 0, "lon": -77.04869066666667}, {"fusion_lat": 0.0, "name": "41d2b8cb79e8a79c57eabbdf5f9e5764", "is_disabled": 0, "rental_uris": {"android": "https://dc.lft.to/lastmile_qr_scan", "ios": "https://dc.lft.to/lastmile_qr_scan"}, "fusion_lon": 0.0, "lat": 38.930228166666666, "bike_id": "41d2b8cb79e8a79c57eabbdf5f9e5764", "type": "electric_scooter", "is_reserved": 0, "lon": -77.03783316666667}, {"fusion_lat": 0.0, "name": "0c7efc56c118e6d57d4cf96045a487a3", "is_disabled": 0, "rental_uris": {"android": "https://dc.lft.to/lastmile_qr_scan", "ios": "https://dc.lft.to/lastmile_qr_scan"}, "fusion_lon": 0.0, "lat": 38.99226316666667, "bike_id": "0c7efc56c118e6d57d4cf96045a487a3", "type": "electric_bike", "is_reserved": 0, "lon": -76.94402166666667}, {"fusion_lat": 0.0, "name": "a396732a18c7d0adc217fae35018eeff", "is_disabled": 0, "rental_uris": {"android": "https://dc.lft.to/lastmile_qr_scan", "ios": "https://dc.lft.to/lastmile_qr_scan"}, "fusion_lon": 0.0, "lat": 38.882191, "bike_id": "a396732a18c7d0adc217fae35018eeff", "type": "electric_scooter", "is_reserved": 0, "lon": -77.02936266666667}, {"fusion_lat": 0.0, "name": "715fe9fca8b24205b66888bc0d84dca6", "is_disabled": 0, "rental_uris": {"android": "https://dc.lft.to/lastmile_qr_scan", "ios": "https://dc.lft.to/lastmile_qr_scan"}, "fusion_lon": 0.0, "lat": 38.948565, "bike_id": "715fe9fca8b24205b66888bc0d84dca6", "type": "electric_scooter", "is_reserved": 0, "lon": -77.025711}, {"fusion_lat": 0.0, "name": "fd84fdf3073e368f9566cce7c3f6d560", "is_disabled": 0, "rental_uris": {"android": "https://dc.lft.to/lastmile_qr_scan", "ios": "https://dc.lft.to/lastmile_qr_scan"}, "fusion_lon": 0.0, "lat": 38.920035, "bike_id": "fd84fdf3073e368f9566cce7c3f6d560", "type": "electric_scooter", "is_reserved": 0, "lon": -77.07199033333333}, {"fusion_lat": 0.0, "name": "28c82650d180a603593203f33ec7a4c9", "is_disabled": 0, "rental_uris": {"android": "https://dc.lft.to/lastmile_qr_scan", "ios": "https://dc.lft.to/lastmile_qr_scan"}, "fusion_lon": 0.0, "lat": 38.883022, "bike_id": "28c82650d180a603593203f33ec7a4c9", "type": "electric_scooter", "is_reserved": 0, "lon": -76.94857883333333}, {"fusion_lat": 0.0, "name": "7b20dd58487149e65b59215404b4ab7d", "is_disabled": 0, "rental_uris": {"android": "https://dc.lft.to/lastmile_qr_scan", "ios": "https://dc.lft.to/lastmile_qr_scan"}, "fusion_lon": 0.0, "lat": 38.912624666666666, "bike_id": "7b20dd58487149e65b59215404b4ab7d", "type": "electric_scooter", "is_reserved": 0, "lon": -77.00631116666666}, {"fusion_lat": 0.0, "name": "1d32c0097607ccbca43f1d96cfc4cfcf", "is_disabled": 0, "rental_uris": {"android": "https://dc.lft.to/lastmile_qr_scan", "ios": "https://dc.lft.to/lastmile_qr_scan"}, "fusion_lon": 0.0, "lat": 38.924209166666664, "bike_id": "1d32c0097607ccbca43f1d96cfc4cfcf", "type": "electric_scooter", "is_reserved": 0, "lon": -77.0254535}, {"fusion_lat": 0.0, "name": "989daffb71f147c33d30b37425fa7a5b", "is_disabled": 0, "rental_uris": {"android": "https://dc.lft.to/lastmile_qr_scan", "ios": "https://dc.lft.to/lastmile_qr_scan"}, "fusion_lon": 0.0, "lat": 38.935799833333334, "bike_id": "989daffb71f147c33d30b37425fa7a5b", "type": "electric_scooter", "is_reserved": 0, "lon": -77.02851133333333}, {"fusion_lat": 0.0, "name": "8b317f81c42ef6db20014ea0dbbb7abc", "is_disabled": 0, "rental_uris": {"android": "https://dc.lft.to/lastmile_qr_scan", "ios": "https://dc.lft.to/lastmile_qr_scan"}, "fusion_lon": 0.0, "lat": 38.952211, "bike_id": "8b317f81c42ef6db20014ea0dbbb7abc", "type": "electric_scooter", "is_reserved": 0, "lon": -77.08220433333334}, {"fusion_lat": 0.0, "name": "4b42d810747b58cdeae4481060d8da19", "is_disabled": 0, "rental_uris": {"android": "https://dc.lft.to/lastmile_qr_scan", "ios": "https://dc.lft.to/lastmile_qr_scan"}, "fusion_lon": 0.0, "lat": 38.92083266666667, "bike_id": "4b42d810747b58cdeae4481060d8da19", "type": "electric_scooter", "is_reserved": 0, "lon": -76.9944785}, {"fusion_lat": 0.0, "name": "34de50efb471cad4b4494d234541cff7", "is_disabled": 0, "rental_uris": {"android": "https://dc.lft.to/lastmile_qr_scan", "ios": "https://dc.lft.to/lastmile_qr_scan"}, "fusion_lon": 0.0, "lat": 38.854138666666664, "bike_id": "34de50efb471cad4b4494d234541cff7", "type": "electric_bike", "is_reserved": 0, "lon": -77.12078866666667}, {"fusion_lat": 0.0, "name": "84d00d9359d7430e2ace4f10b6e2608c", "is_disabled": 0, "rental_uris": {"android": "https://dc.lft.to/lastmile_qr_scan", "ios": "https://dc.lft.to/lastmile_qr_scan"}, "fusion_lon": 0.0, "lat": 38.9314955, "bike_id": "84d00d9359d7430e2ace4f10b6e2608c", "type": "electric_scooter", "is_reserved": 0, "lon": -77.03959}, {"fusion_lat": 0.0, "name": "a71cc035aa371799e278aa00b95df023", "is_disabled": 0, "rental_uris": {"android": "https://dc.lft.to/lastmile_qr_scan", "ios": "https://dc.lft.to/lastmile_qr_scan"}, "fusion_lon": 0.0, "lat": 38.90083033333333, "bike_id": "a71cc035aa371799e278aa00b95df023", "type": "electric_scooter", "is_reserved": 0, "lon": -77.04965266666666}, {"fusion_lat": 0.0, "name": "a43044651b3dd3d0a6f0112073866a7a", "is_disabled": 0, "rental_uris": {"android": "https://dc.lft.to/lastmile_qr_scan", "ios": "https://dc.lft.to/lastmile_qr_scan"}, "fusion_lon": 0.0, "lat": 38.892230166666664, "bike_id": "a43044651b3dd3d0a6f0112073866a7a", "type": "electric_scooter", "is_reserved": 0, "lon": -77.032234}, {"fusion_lat": 0.0, "name": "44dcabec73a8d14d046c1e8fab49a08e", "is_disabled": 0, "rental_uris": {"android": "https://dc.lft.to/lastmile_qr_scan", "ios": "https://dc.lft.to/lastmile_qr_scan"}, "fusion_lon": 0.0, "lat": 38.924710833333336, "bike_id": "44dcabec73a8d14d046c1e8fab49a08e", "type": "electric_scooter", "is_reserved": 0, "lon": -77.02074466666667}, {"fusion_lat": 0.0, "name": "277dc461ca079caa63e268ec7da31ed1", "is_disabled": 0, "rental_uris": {"android": "https://dc.lft.to/lastmile_qr_scan", "ios": "https://dc.lft.to/lastmile_qr_scan"}, "fusion_lon": 0.0, "lat": 38.9207365, "bike_id": "277dc461ca079caa63e268ec7da31ed1", "type": "electric_scooter", "is_reserved": 0, "lon": -77.02411766666667}, {"fusion_lat": 0.0, "name": "b97b6c2de5335ba5a027a9e6cf7ea918", "is_disabled": 0, "rental_uris": {"android": "https://dc.lft.to/lastmile_qr_scan", "ios": "https://dc.lft.to/lastmile_qr_scan"}, "fusion_lon": 0.0, "lat": 38.89875333333333, "bike_id": "b97b6c2de5335ba5a027a9e6cf7ea918", "type": "electric_scooter", "is_reserved": 0, "lon": -76.93185533333333}, {"fusion_lat": 0.0, "name": "3bad389100a73e3cf0df86baadf38ece", "is_disabled": 0, "rental_uris": {"android": "https://dc.lft.to/lastmile_qr_scan", "ios": "https://dc.lft.to/lastmile_qr_scan"}, "fusion_lon": 0.0, "lat": 38.935228333333335, "bike_id": "3bad389100a73e3cf0df86baadf38ece", "type": "electric_scooter", "is_reserved": 0, "lon": -77.02847516666667}, {"fusion_lat": 0.0, "name": "b6dba5df263f0c204df218760e2c836c", "is_disabled": 0, "rental_uris": {"android": "https://dc.lft.to/lastmile_qr_scan", "ios": "https://dc.lft.to/lastmile_qr_scan"}, "fusion_lon": 0.0, "lat": 38.90721583333333, "bike_id": "b6dba5df263f0c204df218760e2c836c", "type": "electric_scooter", "is_reserved": 0, "lon": -77.04764783333333}, {"fusion_lat": 0.0, "name": "93829981fa257ad4d1b6d9468f816345", "is_disabled": 0, "rental_uris": {"android": "https://dc.lft.to/lastmile_qr_scan", "ios": "https://dc.lft.to/lastmile_qr_scan"}, "fusion_lon": 0.0, "lat": 38.8920075, "bike_id": "93829981fa257ad4d1b6d9468f816345", "type": "electric_scooter", "is_reserved": 0, "lon": -77.02235466666667}, {"fusion_lat": 0.0, "name": "7e80c124d473fbbffd64a3ae036903b1", "is_disabled": 0, "rental_uris": {"android": "https://dc.lft.to/lastmile_qr_scan", "ios": "https://dc.lft.to/lastmile_qr_scan"}, "fusion_lon": 0.0, "lat": 38.906809833333334, "bike_id": "7e80c124d473fbbffd64a3ae036903b1", "type": "electric_scooter", "is_reserved": 0, "lon": -77.0217915}, {"fusion_lat": 0.0, "name": "d878cca0f0011b664e332519e3b29603", "is_disabled": 0, "rental_uris": {"android": "https://dc.lft.to/lastmile_qr_scan", "ios": "https://dc.lft.to/lastmile_qr_scan"}, "fusion_lon": 0.0, "lat": 38.928579, "bike_id": "d878cca0f0011b664e332519e3b29603", "type": "electric_scooter", "is_reserved": 0, "lon": -77.03504466666666}, {"fusion_lat": 0.0, "name": "ab73d8b8947c0c5e5e18f1c9ee36e9f1", "is_disabled": 0, "rental_uris": {"android": "https://dc.lft.to/lastmile_qr_scan", "ios": "https://dc.lft.to/lastmile_qr_scan"}, "fusion_lon": 0.0, "lat": 38.90565083333333, "bike_id": "ab73d8b8947c0c5e5e18f1c9ee36e9f1", "type": "electric_scooter", "is_reserved": 0, "lon": -77.00507116666667}, {"fusion_lat": 0.0, "name": "f207b859e712f0e5a5e3e2db99ac9d8b", "is_disabled": 0, "rental_uris": {"android": "https://dc.lft.to/lastmile_qr_scan", "ios": "https://dc.lft.to/lastmile_qr_scan"}, "fusion_lon": 0.0, "lat": 38.88634233333333, "bike_id": "f207b859e712f0e5a5e3e2db99ac9d8b", "type": "electric_scooter", "is_reserved": 0, "lon": -77.018192}, {"fusion_lat": 0.0, "name": "0f11c41b983163dcad9eec9fd062a6bf", "is_disabled": 0, "rental_uris": {"android": "https://dc.lft.to/lastmile_qr_scan", "ios": "https://dc.lft.to/lastmile_qr_scan"}, "fusion_lon": 0.0, "lat": 38.938975, "bike_id": "0f11c41b983163dcad9eec9fd062a6bf", "type": "electric_scooter", "is_reserved": 0, "lon": -77.032658}, {"fusion_lat": 0.0, "name": "521da02b628c5d02714731b0bce0ea40", "is_disabled": 0, "rental_uris": {"android": "https://dc.lft.to/lastmile_qr_scan", "ios": "https://dc.lft.to/lastmile_qr_scan"}, "fusion_lon": 0.0, "lat": 38.92857133333333, "bike_id": "521da02b628c5d02714731b0bce0ea40", "type": "electric_scooter", "is_reserved": 0, "lon": -77.03638283333333}, {"fusion_lat": 0.0, "name": "ce6c72eac9217ed15eafd931b05b68e6", "is_disabled": 0, "rental_uris": {"android": "https://dc.lft.to/lastmile_qr_scan", "ios": "https://dc.lft.to/lastmile_qr_scan"}, "fusion_lon": 0.0, "lat": 38.87683583333333, "bike_id": "ce6c72eac9217ed15eafd931b05b68e6", "type": "electric_scooter", "is_reserved": 0, "lon": -77.0175815}, {"fusion_lat": 0.0, "name": "8c7f468dac2c54d4db51ba6dc7538817", "is_disabled": 0, "rental_uris": {"android": "https://dc.lft.to/lastmile_qr_scan", "ios": "https://dc.lft.to/lastmile_qr_scan"}, "fusion_lon": 0.0, "lat": 38.9336435, "bike_id": "8c7f468dac2c54d4db51ba6dc7538817", "type": "electric_scooter", "is_reserved": 0, "lon": -77.03259583333333}, {"fusion_lat": 0.0, "name": "34b293d425a9ce2c446eafdfdb95e9bc", "is_disabled": 0, "rental_uris": {"android": "https://dc.lft.to/lastmile_qr_scan", "ios": "https://dc.lft.to/lastmile_qr_scan"}, "fusion_lon": 0.0, "lat": 38.9265275, "bike_id": "34b293d425a9ce2c446eafdfdb95e9bc", "type": "electric_scooter", "is_reserved": 0, "lon": -77.03712133333333}, {"fusion_lat": 0.0, "name": "692bc3eead7f044fffa378f95ea1b9a2", "is_disabled": 0, "rental_uris": {"android": "https://dc.lft.to/lastmile_qr_scan", "ios": "https://dc.lft.to/lastmile_qr_scan"}, "fusion_lon": 0.0, "lat": 38.923690666666666, "bike_id": "692bc3eead7f044fffa378f95ea1b9a2", "type": "electric_scooter", "is_reserved": 0, "lon": -77.02538433333334}, {"fusion_lat": 0.0, "name": "6f4ba53a37b3f59ea12df668db889478", "is_disabled": 0, "rental_uris": {"android": "https://dc.lft.to/lastmile_qr_scan", "ios": "https://dc.lft.to/lastmile_qr_scan"}, "fusion_lon": 0.0, "lat": 38.90356883333333, "bike_id": "6f4ba53a37b3f59ea12df668db889478", "type": "electric_scooter", "is_reserved": 0, "lon": -77.062668}, {"fusion_lat": 0.0, "name": "41889a4d1f943cb038a23080b68930be", "is_disabled": 0, "rental_uris": {"android": "https://dc.lft.to/lastmile_qr_scan", "ios": "https://dc.lft.to/lastmile_qr_scan"}, "fusion_lon": 0.0, "lat": 38.92871816666667, "bike_id": "41889a4d1f943cb038a23080b68930be", "type": "electric_scooter", "is_reserved": 0, "lon": -77.03485633333334}, {"fusion_lat": 0.0, "name": "99da400125858dbb204425ed5df599ec", "is_disabled": 0, "rental_uris": {"android": "https://dc.lft.to/lastmile_qr_scan", "ios": "https://dc.lft.to/lastmile_qr_scan"}, "fusion_lon": 0.0, "lat": 38.91413166666667, "bike_id": "99da400125858dbb204425ed5df599ec", "type": "electric_scooter", "is_reserved": 0, "lon": -77.03147783333333}, {"fusion_lat": 0.0, "name": "86d1406537d8be1b8579114c14821368", "is_disabled": 0, "rental_uris": {"android": "https://dc.lft.to/lastmile_qr_scan", "ios": "https://dc.lft.to/lastmile_qr_scan"}, "fusion_lon": 0.0, "lat": 38.938786666666665, "bike_id": "86d1406537d8be1b8579114c14821368", "type": "electric_scooter", "is_reserved": 0, "lon": -77.0247545}, {"fusion_lat": 0.0, "name": "953cd132025034eab5baa9bb9efeadb4", "is_disabled": 0, "rental_uris": {"android": "https://dc.lft.to/lastmile_qr_scan", "ios": "https://dc.lft.to/lastmile_qr_scan"}, "fusion_lon": 0.0, "lat": 38.849130833333334, "bike_id": "953cd132025034eab5baa9bb9efeadb4", "type": "electric_bike", "is_reserved": 0, "lon": -77.09976566666667}, {"fusion_lat": 0.0, "name": "d0f7566199d52c3f1da09e391f991bc1", "is_disabled": 0, "rental_uris": {"android": "https://dc.lft.to/lastmile_qr_scan", "ios": "https://dc.lft.to/lastmile_qr_scan"}, "fusion_lon": 0.0, "lat": 38.8934255, "bike_id": "d0f7566199d52c3f1da09e391f991bc1", "type": "electric_scooter", "is_reserved": 0, "lon": -76.99382733333333}, {"fusion_lat": 0.0, "name": "7ffc1b07a2f36394ca96b7b842dcd71a", "is_disabled": 0, "rental_uris": {"android": "https://dc.lft.to/lastmile_qr_scan", "ios": "https://dc.lft.to/lastmile_qr_scan"}, "fusion_lon": 0.0, "lat": 38.914191833333334, "bike_id": "7ffc1b07a2f36394ca96b7b842dcd71a", "type": "electric_scooter", "is_reserved": 0, "lon": -77.02736666666667}, {"fusion_lat": 0.0, "name": "293e7ee31d5c2cf0e4e17656f52600dc", "is_disabled": 0, "rental_uris": {"android": "https://dc.lft.to/lastmile_qr_scan", "ios": "https://dc.lft.to/lastmile_qr_scan"}, "fusion_lon": 0.0, "lat": 38.8651895, "bike_id": "293e7ee31d5c2cf0e4e17656f52600dc", "type": "electric_bike", "is_reserved": 0, "lon": -76.97333216666667}, {"fusion_lat": 0.0, "name": "e438c30d0e6f69e95cebd756801f578b", "is_disabled": 0, "rental_uris": {"android": "https://dc.lft.to/lastmile_qr_scan", "ios": "https://dc.lft.to/lastmile_qr_scan"}, "fusion_lon": 0.0, "lat": 38.90937733333333, "bike_id": "e438c30d0e6f69e95cebd756801f578b", "type": "electric_scooter", "is_reserved": 0, "lon": -77.02182283333333}, {"fusion_lat": 0.0, "name": "5a2fd023db3e91d9db6fdf495a26954d", "is_disabled": 0, "rental_uris": {"android": "https://dc.lft.to/lastmile_qr_scan", "ios": "https://dc.lft.to/lastmile_qr_scan"}, "fusion_lon": 0.0, "lat": 38.91467733333333, "bike_id": "5a2fd023db3e91d9db6fdf495a26954d", "type": "electric_scooter", "is_reserved": 0, "lon": -77.0389975}, {"fusion_lat": 0.0, "name": "55a0272293f55b1b56dd350029573888", "is_disabled": 0, "rental_uris": {"android": "https://dc.lft.to/lastmile_qr_scan", "ios": "https://dc.lft.to/lastmile_qr_scan"}, "fusion_lon": 0.0, "lat": 38.91507083333333, "bike_id": "55a0272293f55b1b56dd350029573888", "type": "electric_scooter", "is_reserved": 0, "lon": -77.00921783333334}, {"fusion_lat": 0.0, "name": "42f29e6d36e51e4253d35a39ff636a46", "is_disabled": 0, "rental_uris": {"android": "https://dc.lft.to/lastmile_qr_scan", "ios": "https://dc.lft.to/lastmile_qr_scan"}, "fusion_lon": 0.0, "lat": 38.9210465, "bike_id": "42f29e6d36e51e4253d35a39ff636a46", "type": "electric_scooter", "is_reserved": 0, "lon": -77.07479733333334}, {"fusion_lat": 0.0, "name": "27880b78fe7e575f997b5b68449aec50", "is_disabled": 0, "rental_uris": {"android": "https://dc.lft.to/lastmile_qr_scan", "ios": "https://dc.lft.to/lastmile_qr_scan"}, "fusion_lon": 0.0, "lat": 38.9191615, "bike_id": "27880b78fe7e575f997b5b68449aec50", "type": "electric_scooter", "is_reserved": 0, "lon": -77.03263033333333}, {"fusion_lat": 0.0, "name": "af8f68bc5bf4abec2a566cbde168e716", "is_disabled": 0, "rental_uris": {"android": "https://dc.lft.to/lastmile_qr_scan", "ios": "https://dc.lft.to/lastmile_qr_scan"}, "fusion_lon": 0.0, "lat": 38.919291333333334, "bike_id": "af8f68bc5bf4abec2a566cbde168e716", "type": "electric_scooter", "is_reserved": 0, "lon": -77.03190883333333}, {"fusion_lat": 0.0, "name": "44fe40c3a9af5d8dbe45b5f5700a4534", "is_disabled": 0, "rental_uris": {"android": "https://dc.lft.to/lastmile_qr_scan", "ios": "https://dc.lft.to/lastmile_qr_scan"}, "fusion_lon": 0.0, "lat": 38.898587, "bike_id": "44fe40c3a9af5d8dbe45b5f5700a4534", "type": "electric_scooter", "is_reserved": 0, "lon": -77.0204425}, {"fusion_lat": 0.0, "name": "5b6d56c16386c850f0e525cb86e25362", "is_disabled": 0, "rental_uris": {"android": "https://dc.lft.to/lastmile_qr_scan", "ios": "https://dc.lft.to/lastmile_qr_scan"}, "fusion_lon": 0.0, "lat": 38.9385595, "bike_id": "5b6d56c16386c850f0e525cb86e25362", "type": "electric_scooter", "is_reserved": 0, "lon": -77.02458766666666}, {"fusion_lat": 0.0, "name": "ce0a2914759e9db46ae4f844d5888280", "is_disabled": 0, "rental_uris": {"android": "https://dc.lft.to/lastmile_qr_scan", "ios": "https://dc.lft.to/lastmile_qr_scan"}, "fusion_lon": 0.0, "lat": 38.919333, "bike_id": "ce0a2914759e9db46ae4f844d5888280", "type": "electric_scooter", "is_reserved": 0, "lon": -77.04500966666667}, {"fusion_lat": 0.0, "name": "45337d6cc122c81c9c1a8c28fbf18823", "is_disabled": 0, "rental_uris": {"android": "https://dc.lft.to/lastmile_qr_scan", "ios": "https://dc.lft.to/lastmile_qr_scan"}, "fusion_lon": 0.0, "lat": 38.906728, "bike_id": "45337d6cc122c81c9c1a8c28fbf18823", "type": "electric_scooter", "is_reserved": 0, "lon": -77.02715833333333}, {"fusion_lat": 0.0, "name": "91c83bad071773b5bb8fba739b218440", "is_disabled": 0, "rental_uris": {"android": "https://dc.lft.to/lastmile_qr_scan", "ios": "https://dc.lft.to/lastmile_qr_scan"}, "fusion_lon": 0.0, "lat": 38.928702, "bike_id": "91c83bad071773b5bb8fba739b218440", "type": "electric_scooter", "is_reserved": 0, "lon": -77.03477083333334}, {"fusion_lat": 0.0, "name": "2cd8a36196d93fd62ae84766e28e19d6", "is_disabled": 0, "rental_uris": {"android": "https://dc.lft.to/lastmile_qr_scan", "ios": "https://dc.lft.to/lastmile_qr_scan"}, "fusion_lon": 0.0, "lat": 38.873878500000004, "bike_id": "2cd8a36196d93fd62ae84766e28e19d6", "type": "electric_scooter", "is_reserved": 0, "lon": -77.00176783333333}, {"fusion_lat": 0.0, "name": "ee323e66e559380809bcfbe4e7d12e93", "is_disabled": 0, "rental_uris": {"android": "https://dc.lft.to/lastmile_qr_scan", "ios": "https://dc.lft.to/lastmile_qr_scan"}, "fusion_lon": 0.0, "lat": 38.900224333333334, "bike_id": "ee323e66e559380809bcfbe4e7d12e93", "type": "electric_scooter", "is_reserved": 0, "lon": -77.0038665}, {"fusion_lat": 0.0, "name": "2357426881e86c2138a09e6c9cbb7746", "is_disabled": 0, "rental_uris": {"android": "https://dc.lft.to/lastmile_qr_scan", "ios": "https://dc.lft.to/lastmile_qr_scan"}, "fusion_lon": 0.0, "lat": 38.895413166666664, "bike_id": "2357426881e86c2138a09e6c9cbb7746", "type": "electric_scooter", "is_reserved": 0, "lon": -77.01087833333334}, {"fusion_lat": 0.0, "name": "4b71dc13aa9df6bb4d28897b232b025e", "is_disabled": 0, "rental_uris": {"android": "https://dc.lft.to/lastmile_qr_scan", "ios": "https://dc.lft.to/lastmile_qr_scan"}, "fusion_lon": 0.0, "lat": 38.9054625, "bike_id": "4b71dc13aa9df6bb4d28897b232b025e", "type": "electric_scooter", "is_reserved": 0, "lon": -77.03451983333333}, {"fusion_lat": 0.0, "name": "b3f4807db006cd18c8079eb00b8dbc74", "is_disabled": 0, "rental_uris": {"android": "https://dc.lft.to/lastmile_qr_scan", "ios": "https://dc.lft.to/lastmile_qr_scan"}, "fusion_lon": 0.0, "lat": 38.94084, "bike_id": "b3f4807db006cd18c8079eb00b8dbc74", "type": "electric_scooter", "is_reserved": 0, "lon": -77.06184666666667}, {"fusion_lat": 0.0, "name": "796ae20ed75d2fe5d08f8c007c56e341", "is_disabled": 0, "rental_uris": {"android": "https://dc.lft.to/lastmile_qr_scan", "ios": "https://dc.lft.to/lastmile_qr_scan"}, "fusion_lon": 0.0, "lat": 38.90951033333333, "bike_id": "796ae20ed75d2fe5d08f8c007c56e341", "type": "electric_scooter", "is_reserved": 0, "lon": -77.02715416666666}, {"fusion_lat": 0.0, "name": "3c272fa4030256868a0f78d5770bc5f0", "is_disabled": 0, "rental_uris": {"android": "https://dc.lft.to/lastmile_qr_scan", "ios": "https://dc.lft.to/lastmile_qr_scan"}, "fusion_lon": 0.0, "lat": 38.9111305, "bike_id": "3c272fa4030256868a0f78d5770bc5f0", "type": "electric_scooter", "is_reserved": 0, "lon": -77.03741033333333}, {"fusion_lat": 0.0, "name": "d0282d2429aaf0e2fe41d1de2cb4c8b7", "is_disabled": 0, "rental_uris": {"android": "https://dc.lft.to/lastmile_qr_scan", "ios": "https://dc.lft.to/lastmile_qr_scan"}, "fusion_lon": 0.0, "lat": 38.9177395, "bike_id": "d0282d2429aaf0e2fe41d1de2cb4c8b7", "type": "electric_scooter", "is_reserved": 0, "lon": -77.02314216666667}, {"fusion_lat": 0.0, "name": "c588a2a2b7bc33ac6d96b1bab28ffe47", "is_disabled": 0, "rental_uris": {"android": "https://dc.lft.to/lastmile_qr_scan", "ios": "https://dc.lft.to/lastmile_qr_scan"}, "fusion_lon": 0.0, "lat": 38.883882166666666, "bike_id": "c588a2a2b7bc33ac6d96b1bab28ffe47", "type": "electric_scooter", "is_reserved": 0, "lon": -76.93046916666667}, {"fusion_lat": 0.0, "name": "038d7aa9e3435ec39c8338b6a09e6cba", "is_disabled": 0, "rental_uris": {"android": "https://dc.lft.to/lastmile_qr_scan", "ios": "https://dc.lft.to/lastmile_qr_scan"}, "fusion_lon": 0.0, "lat": 38.89810583333333, "bike_id": "038d7aa9e3435ec39c8338b6a09e6cba", "type": "electric_scooter", "is_reserved": 0, "lon": -77.027025}, {"fusion_lat": 0.0, "name": "0ff75ef62c1214b41af1c09d8e580835", "is_disabled": 0, "rental_uris": {"android": "https://dc.lft.to/lastmile_qr_scan", "ios": "https://dc.lft.to/lastmile_qr_scan"}, "fusion_lon": 0.0, "lat": 38.857657833333334, "bike_id": "0ff75ef62c1214b41af1c09d8e580835", "type": "electric_bike", "is_reserved": 0, "lon": -76.987688}, {"fusion_lat": 0.0, "name": "ad23bf49a4523bea530dd69f572f7ef1", "is_disabled": 0, "rental_uris": {"android": "https://dc.lft.to/lastmile_qr_scan", "ios": "https://dc.lft.to/lastmile_qr_scan"}, "fusion_lon": 0.0, "lat": 38.93823, "bike_id": "ad23bf49a4523bea530dd69f572f7ef1", "type": "electric_scooter", "is_reserved": 0, "lon": -77.061595},