{"data": {"bikes": [{"is_disabled": 0, "fusion_lat": 0.0, "lat": 38.855131166666666, "type": "electric_bike", "lon": -77.12007883333334, "is_reserved": 0, "fusion_lon": 0.0, "bike_id": "edf5612e91c57c153c5ecd7893f617b5", "name": "edf5612e91c57c153c5ecd7893f617b5", "rental_uris": {"ios": "https://dc.lft.to/lastmile_qr_scan", "android": "https://dc.lft.to/lastmile_qr_scan"}}, {"is_disabled": 0, "fusion_lat": 0.0, "lat": 38.9028, "type": "electric_scooter", "lon": -77.04138983333333, "is_reserved": 0, "fusion_lon": 0.0, "bike_id": "d961d80953831a31fa09b74a1e1b8ab5", "name": "d961d80953831a31fa09b74a1e1b8ab5", "rental_uris": {"ios": "https://dc.lft.to/lastmile_qr_scan", "android": "https://dc.lft.to/lastmile_qr_scan"}}, {"is_disabled": 0, "fusion_lat": 0.0, "lat": 38.909742333333334, "type": "electric_scooter", "lon": -77.03978983333333, "is_reserved": 0, "fusion_lon": 0.0, "bike_id": "bee12dffd57135b5d33a0e64a7439f70", "name": "bee12dffd57135b5d33a0e64a7439f70", "rental_uris": {"ios": "https://dc.lft.to/lastmile_qr_scan", "android": "https://dc.lft.to/lastmile_qr_scan"}}, {"is_disabled": 0, "fusion_lat": 0.0, "lat": 38.999388, "type": "electric_bike", "lon": -77.01768583333333, "is_reserved": 0, "fusion_lon": 0.0, "bike_id": "1a22f2c250162f65e808fed0d905cb8b", "name": "1a22f2c250162f65e808fed0d905cb8b", "rental_uris": {"ios": "https://dc.lft.to/lastmile_qr_scan", "android": "https://dc.lft.to/lastmile_qr_scan"}}, {"is_disabled": 0, "fusion_lat": 0.0, "lat": 38.916327833333334, "type": "electric_scooter", "lon": -77.048073, "is_reserved": 0, "fusion_lon": 0.0, "bike_id": "8ce5b02700212fc928f66af5ba4fdc53", "name": "8ce5b02700212fc928f66af5ba4fdc53", "rental_uris": {"ios": "https://dc.lft.to/lastmile_qr_scan", "android": "https://dc.lft.to/lastmile_qr_scan"}}, {"is_disabled": 0, "fusion_lat": 0.0, "lat": 38.90580716666667, "type": "electric_scooter", "lon": -77.03449816666667, "is_reserved": 0, "fusion_lon": 0.0, "bike_id": "193911fb0aa15bfb467487ef8dcce60a", "name": "193911fb0aa15bfb467487ef8dcce60a", "rental_uris": {"ios": "https://dc.lft.to/lastmile_qr_scan", "android": "https://dc.lft.to/lastmile_qr_scan"}}, {"is_disabled": 0, "fusion_lat": 0.0, "lat": 38.9352785, "type": "electric_scooter", "lon": -77.032649, "is_reserved": 0, "fusion_lon": 0.0, "bike_id": "960a62a43d9f7a1a9cdacb91754a6c74", "name": "960a62a43d9f7a1a9cdacb91754a6c74", "rental_uris": {"ios": "https://dc.lft.to/lastmile_qr_scan", "android": "https://dc.lft.to/lastmile_qr_scan"}}, {"is_disabled": 0, "fusion_lat": 0.0, "lat": 38.902581166666664, "type": "electric_scooter", "lon": -76.986861, "is_reserved": 0, "fusion_lon": 0.0, "bike_id": "9078b151f6e91c03b04455472dcd3767", "name": "9078b151f6e91c03b04455472dcd3767", "rental_uris": {"ios": "https://dc.lft.to/lastmile_qr_scan", "android": "https://dc.lft.to/lastmile_qr_scan"}}, {"is_disabled": 0, "fusion_lat": 0.0, "lat": 38.91400616666667, "type": "electric_scooter", "lon": -77.03927083333333, "is_reserved": 0, "fusion_lon": 0.0, "bike_id": "a15851d02eabd3f4d835959c36cb9632", "name": "a15851d02eabd3f4d835959c36cb9632", "rental_uris": {"ios": "https://dc.lft.to/lastmile_qr_scan", "android": "https://dc.lft.to/lastmile_qr_scan"}}, {"is_disabled": 0, "fusion_lat": 0.0, "lat": 38.872472, "type": "electric_scooter", "lon": -76.97724516666666, "is_reserved": 0, "fusion_lon": 0.0, "bike_id": "26697dd48e2230815544dd0b14b463d3", "name": "26697dd48e2230815544dd0b14b463d3", "rental_uris": {"ios": "https://dc.lft.to/lastmile_qr_scan", "android": "https://dc.lft.to/lastmile_qr_scan"}}, {"is_disabled": 0, "fusion_lat": 0.0, "lat": 38.92133883333333, "type": "electric_scooter", "lon": -77.01782833333333, "is_reserved": 0, "fusion_lon": 0.0, "bike_id": "c4283ba8fea895b8e0e9e793bd19de16", "name": "c4283ba8fea895b8e0e9e793bd19de16", "rental_uris": {"ios": "https://dc.lft.to/lastmile_qr_scan", "android": "https://dc.lft.to/lastmile_qr_scan"}}, {"is_disabled": 0, "fusion_lat": 0.0, "lat": 38.90170966666667, "type": "electric_scooter", "lon": -76.98081383333333, "is_reserved": 0, "fusion_lon": 0.0, "bike_id": "ed4357894ac40a58e508c4b8963eadd0", "name": "ed4357894ac40a58e508c4b8963eadd0", "rental_uris": {"ios": "https://dc.lft.to/lastmile_qr_scan", "android": "https://dc.lft.to/lastmile_qr_scan"}}, {"is_disabled": 0, "fusion_lat": 0.0, "lat": 38.895413, "type": "electric_scooter", "lon": -76.94888483333334, "is_reserved": 0, "fusion_lon": 0.0, "bike_id": "fea1ba413a9f1a6218a2a5ddf79ab611", "name": "fea1ba413a9f1a6218a2a5ddf79ab611", "rental_uris": {"ios": "https://dc.lft.to/lastmile_qr_scan", "android": "https://dc.lft.to/lastmile_qr_scan"}}, {"is_disabled": 0, "fusion_lat": 0.0, "lat": 38.85529616666667, "type": "electric_scooter", "lon": -76.96919733333333, "is_reserved": 0, "fusion_lon": 0.0, "bike_id": "9d432c4eb6a350c2d7cda1c936c7f101", "name": "9d432c4eb6a350c2d7cda1c936c7f101", "rental_uris": {"ios": "https://dc.lft.to/lastmile_qr_scan", "android": "https://dc.lft.to/lastmile_qr_scan"}}, {"is_disabled": 0, "fusion_lat": 0.0, "lat": 38.892321, "type": "electric_scooter", "lon": -77.044467, "is_reserved": 0, "fusion_lon": 0.0, "bike_id": "bc22b721adfa0e98ff600937537c8c63", "name": "bc22b721adfa0e98ff600937537c8c63", "rental_uris": {"ios": "https://dc.lft.to/lastmile_qr_scan", "android": "https://dc.lft.to/lastmile_qr_scan"}}, {"is_disabled": 0, "fusion_lat": 0.0, "lat": 38.914357833333334, "type": "electric_scooter", "lon": -77.031967, "is_reserved": 0, "fusion_lon": 0.0, "bike_id": "4504ddae14ccc5128cb69154f673bf0b", "name": "4504ddae14ccc5128cb69154f673bf0b", "rental_uris": {"ios": "https://dc.lft.to/lastmile_qr_scan", "android": "https://dc.lft.to/lastmile_qr_scan"}}, {"is_disabled": 0, "fusion_lat": 0.0, "lat": 38.92364116666667, "type": "electric_scooter", "lon": -77.051303, "is_reserved": 0, "fusion_lon": 0.0, "bike_id": "c9faffbdf36c310e96f43abbc3028c4e", "name": "c9faffbdf36c310e96f43abbc3028c4e", "rental_uris": {"ios": "https://dc.lft.to/lastmile_qr_scan", "android": "https://dc.lft.to/lastmile_qr_scan"}}, {"is_disabled": 0, "fusion_lat": 0.0, "lat": 38.91764333333333, "type": "electric_scooter", "lon": -77.00405016666667, "is_reserved": 0, "fusion_lon": 0.0, "bike_id": "504cc5c1f5bc1e4d341555fcee1ad8b3", "name": "504cc5c1f5bc1e4d341555fcee1ad8b3", "rental_uris": {"ios": "https://dc.lft.to/lastmile_qr_scan", "android": "https://dc.lft.to/lastmile_qr_scan"}}, {"is_disabled": 0, "fusion_lat": 0.0, "lat": 38.907878833333335, "type": "electric_scooter", "lon": -77.0386015, "is_reserved": 0, "fusion_lon": 0.0, "bike_id": "83eb009dc5ec7ea8982320da0bd256a4", "name": "83eb009dc5ec7ea8982320da0bd256a4", "rental_uris": {"ios": "https://dc.lft.to/lastmile_qr_scan", "android": "https://dc.lft.to/lastmile_qr_scan"}}, {"is_disabled": 0, "fusion_lat": 0.0, "lat": 38.928155333333336, "type": "electric_scooter", "lon": -77.0371515, "is_reserved": 0, "fusion_lon": 0.0, "bike_id": "f0b95f2c1fcdeea56c2a0d0a39e337ec", "name": "f0b95f2c1fcdeea56c2a0d0a39e337ec", "rental_uris": {"ios": "https://dc.lft.to/lastmile_qr_scan", "android": "https://dc.lft.to/lastmile_qr_scan"}}, {"is_disabled": 0, "fusion_lat": 0.0, "lat": 38.93475166666666, "type": "electric_scooter", "lon": -77.019251, "is_reserved": 0, "fusion_lon": 0.0, "bike_id": "712cd421bce8ecf7bafccc69a7f4e2ee", "name": "712cd421bce8ecf7bafccc69a7f4e2ee", "rental_uris": {"ios": "https://dc.lft.to/lastmile_qr_scan", "android": "https://dc.lft.to/lastmile_qr_scan"}}, {"is_disabled": 0, "fusion_lat": 0.0, "lat": 38.90266366666667, "type": "electric_scooter", "lon": -77.038615, "is_reserved": 0, "fusion_lon": 0.0, "bike_id": "5fc5db314ade4a9a02ae8b7542b89b17", "name": "5fc5db314ade4a9a02ae8b7542b89b17", "rental_uris": {"ios": "https://dc.lft.to/lastmile_qr_scan", "android": "https://dc.lft.to/lastmile_qr_scan"}}, {"is_disabled": 0, "fusion_lat": 0.0, "lat": 38.965611333333335, "type": "electric_bike", "lon": -77.02295716666667, "is_reserved": 0, "fusion_lon": 0.0, "bike_id": "6d765bea9c6e142afbb7db9c49b6ac0a", "name": "6d765bea9c6e142afbb7db9c49b6ac0a", "rental_uris": {"ios": "https://dc.lft.to/lastmile_qr_scan", "android": "https://dc.lft.to/lastmile_qr_scan"}}, {"is_disabled": 0, "fusion_lat": 0.0, "lat": 38.88506783333333, "type": "electric_scooter", "lon": -77.00564316666667, "is_reserved": 0, "fusion_lon": 0.0, "bike_id": "667f3f9d28104b5fc6f1f5a852b1c085", "name": "667f3f9d28104b5fc6f1f5a852b1c085", "rental_uris": {"ios": "https://dc.lft.to/lastmile_qr_scan", "android": "https://dc.lft.to/lastmile_qr_scan"}}, {"is_disabled": 0, "fusion_lat": 0.0, "lat": 38.8737915, "type": "electric_bike", "lon": -77.1180175, "is_reserved": 0, "fusion_lon": 0.0, "bike_id": "214cb5e6c3fa706bb705e30fa7b3c737", "name": "214cb5e6c3fa706bb705e30fa7b3c737", "rental_uris": {"ios": "https://dc.lft.to/lastmile_qr_scan", "android": "https://dc.lft.to/lastmile_qr_scan"}}, {"is_disabled": 0, "fusion_lat": 0.0, "lat": 38.881293, "type": "electric_scooter", "lon": -77.00094716666666, "is_reserved": 0, "fusion_lon": 0.0, "bike_id": "b6c3cd51272a3abc98c2e7389dc279ce", "name": "b6c3cd51272a3abc98c2e7389dc279ce", "rental_uris": {"ios": "https://dc.lft.to/lastmile_qr_scan", "android": "https://dc.lft.to/lastmile_qr_scan"}}, {"is_disabled": 0, "fusion_lat": 0.0, "lat": 38.8934985, "type": "electric_scooter", "lon": -76.94936283333334, "is_reserved": 0, "fusion_lon": 0.0, "bike_id": "3baeb332a27af2f5258faf9adf1f546d", "name": "3baeb332a27af2f5258faf9adf1f546d", "rental_uris": {"ios": "https://dc.lft.to/lastmile_qr_scan", "android": "https://dc.lft.to/lastmile_qr_scan"}}, {"is_disabled": 0, "fusion_lat": 0.0, "lat": 38.917330166666666, "type": "electric_scooter", "lon": -77.007906, "is_reserved": 0, "fusion_lon": 0.0, "bike_id": "dee57b8a4af2d61b56b116d5bd0f1e62", "name": "dee57b8a4af2d61b56b116d5bd0f1e62", "rental_uris": {"ios": "https://dc.lft.to/lastmile_qr_scan", "android": "https://dc.lft.to/lastmile_qr_scan"}}, {"is_disabled": 0, "fusion_lat": 0.0, "lat": 38.91949616666667, "type": "electric_scooter", "lon": -77.04149833333334, "is_reserved": 0, "fusion_lon": 0.0, "bike_id": "27e5b587ab5fb7eb0e409e57d50325e6", "name": "27e5b587ab5fb7eb0e409e57d50325e6", "rental_uris": {"ios": "https://dc.lft.to/lastmile_qr_scan", "android": "https://dc.lft.to/lastmile_qr_scan"}}, {"is_disabled": 0, "fusion_lat": 0.0, "lat": 38.927231666666664, "type": "electric_scooter", "lon": -77.039799, "is_reserved": 0, "fusion_lon": 0.0, "bike_id": "3414c45ac66a8e97fa7ed6957e4bac72", "name": "3414c45ac66a8e97fa7ed6957e4bac72", "rental_uris": {"ios": "https://dc.lft.to/lastmile_qr_scan", "android": "https://dc.lft.to/lastmile_qr_scan"}}, {"is_disabled": 0, "fusion_lat": 0.0, "lat": 38.87866116666667, "type": "electric_scooter", "lon": -76.98983583333333, "is_reserved": 0, "fusion_lon": 0.0, "bike_id": "f1119fac39889b15927a4280de97a8aa", "name": "f1119fac39889b15927a4280de97a8aa", "rental_uris": {"ios": "https://dc.lft.to/lastmile_qr_scan", "android": "https://dc.lft.to/lastmile_qr_scan"}}, {"is_disabled": 0, "fusion_lat": 0.0, "lat": 38.9058715, "type": "electric_scooter", "lon": -77.0410375, "is_reserved": 0, "fusion_lon": 0.0, "bike_id": "017f70ad0ef78bd34d4778120c5c3cb2", "name": "017f70ad0ef78bd34d4778120c5c3cb2", "rental_uris": {"ios": "https://dc.lft.to/lastmile_qr_scan", "android": "https://dc.lft.to/lastmile_qr_scan"}}, {"is_disabled": 0, "fusion_lat": 0.0, "lat": 38.94445566666667, "type": "electric_scooter", "lon": -76.9920225, "is_reserved": 0, "fusion_lon": 0.0, "bike_id": "ead16b59f920ddca170c65173d0520f7", "name": "ead16b59f920ddca170c65173d0520f7", "rental_uris": {"ios": "https://dc.lft.to/lastmile_qr_scan", "android": "https://dc.lft.to/lastmile_qr_scan"}}, {"is_disabled": 0, "fusion_lat": 0.0, "lat": 38.92105216666667, "type": "electric_scooter", "lon": -77.043808, "is_reserved": 0, "fusion_lon": 0.0, "bike_id": "a13d70efed85bf734a626ac4c16ddd20", "name": "a13d70efed85bf734a626ac4c16ddd20", "rental_uris": {"ios": "https://dc.lft.to/lastmile_qr_scan", "android": "https://dc.lft.to/lastmile_qr_scan"}}, {"is_disabled": 0, "fusion_lat": 0.0, "lat": 38.9221695, "type": "electric_scooter", "lon": -77.03656183333334, "is_reserved": 0, "fusion_lon": 0.0, "bike_id": "3244b7d46c7937d01c7a01f37320131e", "name": "3244b7d46c7937d01c7a01f37320131e", "rental_uris": {"ios": "https://dc.lft.to/lastmile_qr_scan", "android": "https://dc.lft.to/lastmile_qr_scan"}}, {"is_disabled": 0, "fusion_lat": 0.0, "lat": 38.872024, "type": "electric_scooter", "lon": -77.00607583333333, "is_reserved": 0, "fusion_lon": 0.0, "bike_id": "8580edeb4e66124b691b05198249aae7", "name": "8580edeb4e66124b691b05198249aae7", "rental_uris": {"ios": "https://dc.lft.to/lastmile_qr_scan", "android": "https://dc.lft.to/lastmile_qr_scan"}}, {"is_disabled": 0, "fusion_lat": 0.0, "lat": 38.90134366666667, "type": "electric_scooter", "lon": -77.02540616666667, "is_reserved": 0, "fusion_lon": 0.0, "bike_id": "174bf2bae6d2e9ccf7e8dcfc5bc9ad98", "name": "174bf2bae6d2e9ccf7e8dcfc5bc9ad98", "rental_uris": {"ios": "https://dc.lft.to/lastmile_qr_scan", "android": "https://dc.lft.to/lastmile_qr_scan"}}, {"is_disabled": 0, "fusion_lat": 0.0, "lat": 38.89536916666667, "type": "electric_scooter", "lon": -76.94890533333333, "is_reserved": 0, "fusion_lon": 0.0, "bike_id": "5799399afb1fa2aac49de812481656aa", "name": "5799399afb1fa2aac49de812481656aa", "rental_uris": {"ios": "https://dc.lft.to/lastmile_qr_scan", "android": "https://dc.lft.to/lastmile_qr_scan"}}, {"is_disabled": 0, "fusion_lat": 0.0, "lat": 38.89827066666667, "type": "electric_scooter", "lon": -77.0332475, "is_reserved": 0, "fusion_lon": 0.0, "bike_id": "a1320adebc3a5352fade4ca8364d94ae", "name": "a1320adebc3a5352fade4ca8364d94ae", "rental_uris": {"ios": "https://dc.lft.to/lastmile_qr_scan", "android": "https://dc.lft.to/lastmile_qr_scan"}}, {"is_disabled": 0, "fusion_lat": 0.0, "lat": 38.917331, "type": "electric_scooter", "lon": -77.036631, "is_reserved": 0, "fusion_lon": 0.0, "bike_id": "45fe51af80c4a75659de74e1b9f6058e", "name": "45fe51af80c4a75659de74e1b9f6058e", "rental_uris": {"ios": "https://dc.lft.to/lastmile_qr_scan", "android": "https://dc.lft.to/lastmile_qr_scan"}}, {"is_disabled": 0, "fusion_lat": 0.0, "lat": 38.93431183333333, "type": "electric_scooter", "lon": -76.9650655, "is_reserved": 0, "fusion_lon": 0.0, "bike_id": "0a87f10f77258896b6fbeb39d659a1ac", "name": "0a87f10f77258896b6fbeb39d659a1ac", "rental_uris": {"ios": "https://dc.lft.to/lastmile_qr_scan", "android": "https://dc.lft.to/lastmile_qr_scan"}}, {"is_disabled": 0, "fusion_lat": 0.0, "lat": 38.88012116666667, "type": "electric_bike", "lon": -77.11059266666666, "is_reserved": 0, "fusion_lon": 0.0, "bike_id": "1f9b36a787428297d22885a3782b4eaa", "name": "1f9b36a787428297d22885a3782b4eaa", "rental_uris": {"ios": "https://dc.lft.to/lastmile_qr_scan", "android": "https://dc.lft.to/lastmile_qr_scan"}}, {"is_disabled": 0, "fusion_lat": 0.0, "lat": 38.918270166666666, "type": "electric_scooter", "lon": -77.02704516666667, "is_reserved": 0, "fusion_lon": 0.0, "bike_id": "cc6bd5dc438fb3573c2c5c82ddf4e898", "name": "cc6bd5dc438fb3573c2c5c82ddf4e898", "rental_uris": {"ios": "https://dc.lft.to/lastmile_qr_scan", "android": "https://dc.lft.to/lastmile_qr_scan"}}, {"is_disabled": 0, "fusion_lat": 0.0, "lat": 38.998291, "type": "electric_bike", "lon": -77.02899366666666, "is_reserved": 0, "fusion_lon": 0.0, "bike_id": "9ddc77ae2d16d751f175f530ba0513e2", "name": "9ddc77ae2d16d751f175f530ba0513e2", "rental_uris": {"ios": "https://dc.lft.to/lastmile_qr_scan", "android": "https://dc.lft.to/lastmile_qr_scan"}}, {"is_disabled": 0, "fusion_lat": 0.0, "lat": 38.885497666666666, "type": "electric_bike", "lon": -77.11785733333333, "is_reserved": 0, "fusion_lon": 0.0, "bike_id": "b77a065f1c7e1f9ff57dc36a2bd045d3", "name": "b77a065f1c7e1f9ff57dc36a2bd045d3", "rental_uris": {"ios": "https://dc.lft.to/lastmile_qr_scan", "android": "https://dc.lft.to/lastmile_qr_scan"}}, {"is_disabled": 0, "fusion_lat": 0.0, "lat": 38.92048283333333, "type": "electric_scooter", "lon": -77.02202416666667, "is_reserved": 0, "fusion_lon": 0.0, "bike_id": "2c1c19a72aa020e1942b90ac09de5251", "name": "2c1c19a72aa020e1942b90ac09de5251", "rental_uris": {"ios": "https://dc.lft.to/lastmile_qr_scan", "android": "https://dc.lft.to/lastmile_qr_scan"}}, {"is_disabled": 0, "fusion_lat": 0.0, "lat": 38.89200733333333, "type": "electric_scooter", "lon": -77.02380083333334, "is_reserved": 0, "fusion_lon": 0.0, "bike_id": "91d6b4e4d7cfb3d4cb6a73edae49b12b", "name": "91d6b4e4d7cfb3d4cb6a73edae49b12b", "rental_uris": {"ios": "https://dc.lft.to/lastmile_qr_scan", "android": "https://dc.lft.to/lastmile_qr_scan"}}, {"is_disabled": 0, "fusion_lat": 0.0, "lat": 38.92242933333333, "type": "electric_scooter", "lon": -77.033463, "is_reserved": 0, "fusion_lon": 0.0, "bike_id": "0e9e32f9b1328fdfc0ac23676e20f4c4", "name": "0e9e32f9b1328fdfc0ac23676e20f4c4", "rental_uris": {"ios": "https://dc.lft.to/lastmile_qr_scan", "android": "https://dc.lft.to/lastmile_qr_scan"}}, {"is_disabled": 0, "fusion_lat": 0.0, "lat": 38.929739833333336, "type": "electric_scooter", "lon": -77.02826016666667, "is_reserved": 0, "fusion_lon": 0.0, "bike_id": "6454d136a1d2a7f8d34f687dc9389976", "name": "6454d136a1d2a7f8d34f687dc9389976", "rental_uris": {"ios": "https://dc.lft.to/lastmile_qr_scan", "android": "https://dc.lft.to/lastmile_qr_scan"}}, {"is_disabled": 0, "fusion_lat": 0.0, "lat": 38.907182, "type": "electric_scooter", "lon": -77.0435385, "is_reserved": 0, "fusion_lon": 0.0, "bike_id": "eec0b619438082ab15bbd6159abd1d1a", "name": "eec0b619438082ab15bbd6159abd1d1a", "rental_uris": {"ios": "https://dc.lft.to/lastmile_qr_scan", "android": "https://dc.lft.to/lastmile_qr_scan"}}, {"is_disabled": 0, "fusion_lat": 0.0, "lat": 38.905676, "type": "electric_scooter", "lon": -77.03827716666666, "is_reserved": 0, "fusion_lon": 0.0, "bike_id": "9b81261aca169515f96a7b1897d02a31", "name": "9b81261aca169515f96a7b1897d02a31", "rental_uris": {"ios": "https://dc.lft.to/lastmile_qr_scan", "android": "https://dc.lft.to/lastmile_qr_scan"}}, {"is_disabled": 0, "fusion_lat": 0.0, "lat": 38.91492783333333, "type": "electric_bike", "lon": -76.98353983333334, "is_reserved": 0, "fusion_lon": 0.0, "bike_id": "c33d93a62eaf2efc032dc966056d1844", "name": "c33d93a62eaf2efc032dc966056d1844", "rental_uris": {"ios": "https://dc.lft.to/lastmile_qr_scan", "android": "https://dc.lft.to/lastmile_qr_scan"}}, {"is_disabled": 0, "fusion_lat": 0.0, "lat": 38.94633816666666, "type": "electric_scooter", "lon": -77.02519966666667, "is_reserved": 0, "fusion_lon": 0.0, "bike_id": "1ff517ce7ec55ddcb68650b1132a27ba", "name": "1ff517ce7ec55ddcb68650b1132a27ba", "rental_uris": {"ios": "https://dc.lft.to/lastmile_qr_scan", "android": "https://dc.lft.to/lastmile_qr_scan"}}, {"is_disabled": 0, "fusion_lat": 0.0, "lat": 38.88203333333333, "type": "electric_scooter", "lon": -77.005982, "is_reserved": 0, "fusion_lon": 0.0, "bike_id": "4d8c698eeefe3ea17abe976fd10e2b40", "name": "4d8c698eeefe3ea17abe976fd10e2b40", "rental_uris": {"ios": "https://dc.lft.to/lastmile_qr_scan", "android": "https://dc.lft.to/lastmile_qr_scan"}}, {"is_disabled": 0, "fusion_lat": 0.0, "lat": 38.899562, "type": "electric_scooter", "lon": -77.0477615, "is_reserved": 0, "fusion_lon": 0.0, "bike_id": "4269196133ca45520e727b2ae4b24a2b", "name": "4269196133ca45520e727b2ae4b24a2b", "rental_uris": {"ios": "https://dc.lft.to/lastmile_qr_scan", "android": "https://dc.lft.to/lastmile_qr_scan"}}, {"is_disabled": 0, "fusion_lat": 0.0, "lat": 38.94334933333333, "type": "electric_scooter", "lon": -77.0325875, "is_reserved": 0, "fusion_lon": 0.0, "bike_id": "51b191ff03cdb6dccbd7ddc65e8d6f67", "name": "51b191ff03cdb6dccbd7ddc65e8d6f67", "rental_uris": {"ios": "https://dc.lft.to/lastmile_qr_scan", "android": "https://dc.lft.to/lastmile_qr_scan"}}, {"is_disabled": 0, "fusion_lat": 0.0, "lat": 38.892373166666665, "type": "electric_scooter", "lon": -77.022027, "is_reserved": 0, "fusion_lon": 0.0, "bike_id": "7d3a62324ec6bbfb1ce3b18716478b75", "name": "7d3a62324ec6bbfb1ce3b18716478b75", "rental_uris": {"ios": "https://dc.lft.to/lastmile_qr_scan", "android": "https://dc.lft.to/lastmile_qr_scan"}}, {"is_disabled": 0, "fusion_lat": 0.0, "lat": 38.92686966666667, "type": "electric_scooter", "lon": -77.095685, "is_reserved": 0, "fusion_lon": 0.0, "bike_id": "3cde4ef5425ad87c6cd2551b9f4547ca", "name": "3cde4ef5425ad87c6cd2551b9f4547ca", "rental_uris": {"ios": "https://dc.lft.to/lastmile_qr_scan", "android": "https://dc.lft.to/lastmile_qr_scan"}}, {"is_disabled": 0, "fusion_lat": 0.0, "lat": 38.936245, "type": "electric_scooter", "lon": -77.05714116666667, "is_reserved": 0, "fusion_lon": 0.0, "bike_id": "68f9e5758190779ef88baa6ca773e6cb", "name": "68f9e5758190779ef88baa6ca773e6cb", "rental_uris": {"ios": "https://dc.lft.to/lastmile_qr_scan", "android": "https://dc.lft.to/lastmile_qr_scan"}}, {"is_disabled": 0, "fusion_lat": 0.0, "lat": 38.913466, "type": "electric_scooter", "lon": -77.0105405, "is_reserved": 0, "fusion_lon": 0.0, "bike_id": "71d1739cb150df01b9a52c06d7871851", "name": "71d1739cb150df01b9a52c06d7871851", "rental_uris": {"ios": "https://dc.lft.to/lastmile_qr_scan", "android": "https://dc.lft.to/lastmile_qr_scan"}}, {"is_disabled": 0, "fusion_lat": 0.0, "lat": 38.920854, "type": "electric_scooter", "lon": -77.04212083333333, "is_reserved": 0, "fusion_lon": 0.0, "bike_id": "0bef69201d89bded2d74f46d3edae2ca", "name": "0bef69201d89bded2d74f46d3edae2ca", "rental_uris": {"ios": "https://dc.lft.to/lastmile_qr_scan", "android": "https://dc.lft.to/lastmile_qr_scan"}}, {"is_disabled": 0, "fusion_lat": 0.0, "lat": 38.88743683333333, "type": "electric_scooter", "lon": -77.0152995, "is_reserved": 0, "fusion_lon": 0.0, "bike_id": "a3db20e8763b5af515094ce6bd218974", "name": "a3db20e8763b5af515094ce6bd218974", "rental_uris": {"ios": "https://dc.lft.to/lastmile_qr_scan", "android": "https://dc.lft.to/lastmile_qr_scan"}}, {"is_disabled": 0, "fusion_lat": 0.0, "lat": 38.92025116666667, "type": "electric_scooter", "lon": -77.02801783333334, "is_reserved": 0, "fusion_lon": 0.0, "bike_id": "26f9cd82da9aa5cb28ded2e9236e1839", "name": "26f9cd82da9aa5cb28ded2e9236e1839", "rental_uris": {"ios": "https://dc.lft.to/lastmile_qr_scan", "android": "https://dc.lft.to/lastmile_qr_scan"}}, {"is_disabled": 0, "fusion_lat": 0.0, "lat": 38.916896333333334, "type": "electric_scooter", "lon": -77.01222616666666, "is_reserved": 0, "fusion_lon": 0.0, "bike_id": "1c3eb92272a4b97a60e4b52c5445c751", "name": "1c3eb92272a4b97a60e4b52c5445c751", "rental_uris": {"ios": "https://dc.lft.to/lastmile_qr_scan", "android": "https://dc.lft.to/lastmile_qr_scan"}}, {"is_disabled": 0, "fusion_lat": 0.0, "lat": 38.88118133333333, "type": "electric_scooter", "lon": -77.01652916666667, "is_reserved": 0, "fusion_lon": 0.0, "bike_id": "580c930acfe5db34e95761ca7d758dd4", "name": "580c930acfe5db34e95761ca7d758dd4", "rental_uris": {"ios": "https://dc.lft.to/lastmile_qr_scan", "android": "https://dc.lft.to/lastmile_qr_scan"}}, {"is_disabled": 0, "fusion_lat": 0.0, "lat": 38.91420333333333, "type": "electric_scooter", "lon": -77.03997616666666, "is_reserved": 0, "fusion_lon": 0.0, "bike_id": "3951b9f1be277dfa8f4913b5c85019cb", "name": "3951b9f1be277dfa8f4913b5c85019cb", "rental_uris": {"ios": "https://dc.lft.to/lastmile_qr_scan", "android": "https://dc.lft.to/lastmile_qr_scan"}}, {"is_disabled": 0, "fusion_lat": 0.0, "lat": 38.90589383333333, "type": "electric_scooter", "lon": -76.98623083333334, "is_reserved": 0, "fusion_lon": 0.0, "bike_id": "c0cd1f975f63e78cbff386343c2716a9", "name": "c0cd1f975f63e78cbff386343c2716a9", "rental_uris": {"ios": "https://dc.lft.to/lastmile_qr_scan", "android": "https://dc.lft.to/lastmile_qr_scan"}}, {"is_disabled": 0, "fusion_lat": 0.0, "lat": 38.892249166666666, "type": "electric_bike", "lon": -77.107807, "is_reserved": 0, "fusion_lon": 0.0, "bike_id": "68e4ad677ba550dcf1dfc8f16eb868fe", "name": "68e4ad677ba550dcf1dfc8f16eb868fe", "rental_uris": {"ios": "https://dc.lft.to/lastmile_qr_scan", "android": "https://dc.lft.to/lastmile_qr_scan"}}, {"is_disabled": 0, "fusion_lat": 0.0, "lat": 38.90859616666667, "type": "electric_scooter", "lon": -77.0284965, "is_reserved": 0, "fusion_lon": 0.0, "bike_id": "c7cd38c80af0c0e9a71fe8fcf5dff9c7", "name": "c7cd38c80af0c0e9a71fe8fcf5dff9c7", "rental_uris": {"ios": "https://dc.lft.to/lastmile_qr_scan", "android": "https://dc.lft.to/lastmile_qr_scan"}}, {"is_disabled": 0, "fusion_lat": 0.0, "lat": 38.897361833333335, "type": "electric_scooter", "lon": -77.04888266666667, "is_reserved": 0, "fusion_lon": 0.0, "bike_id": "51383cbd2ac3df4e960fe54704f1b8b5", "name": "51383cbd2ac3df4e960fe54704f1b8b5", "rental_uris": {"ios": "https://dc.lft.to/lastmile_qr_scan", "android": "https://dc.lft.to/lastmile_qr_scan"}}, {"is_disabled": 0, "fusion_lat": 0.0, "lat": 38.909238333333334, "type": "electric_scooter", "lon": -77.080014, "is_reserved": 0, "fusion_lon": 0.0, "bike_id": "38f4783501f4a82b52f99dcee4b97f5e", "name": "38f4783501f4a82b52f99dcee4b97f5e", "rental_uris": {"ios": "https://dc.lft.to/lastmile_qr_scan", "android": "https://dc.lft.to/lastmile_qr_scan"}}, {"is_disabled": 0, "fusion_lat": 0.0, "lat": 38.911126833333334, "type": "electric_scooter", "lon": -77.0450155, "is_reserved": 0, "fusion_lon": 0.0, "bike_id": "078de10db91592c8894e91d87c4c7598", "name": "078de10db91592c8894e91d87c4c7598", "rental_uris": {"ios": "https://dc.lft.to/lastmile_qr_scan", "android": "https://dc.lft.to/lastmile_qr_scan"}}, {"is_disabled": 0, "fusion_lat": 0.0, "lat": 38.86662583333333, "type": "electric_scooter", "lon": -76.98880333333334, "is_reserved": 0, "fusion_lon": 0.0, "bike_id": "6c4ced2634620684bf78f6cbc9762f72", "name": "6c4ced2634620684bf78f6cbc9762f72", "rental_uris": {"ios": "https://dc.lft.to/lastmile_qr_scan", "android": "https://dc.lft.to/lastmile_qr_scan"}}, {"is_disabled": 0, "fusion_lat": 0.0, "lat": 38.86538766666666, "type": "electric_scooter", "lon": -76.9870605, "is_reserved": 0, "fusion_lon": 0.0, "bike_id": "3acebcb7291205245b3d9895f01abeea", "name": "3acebcb7291205245b3d9895f01abeea", "rental_uris": {"ios": "https://dc.lft.to/lastmile_qr_scan", "android": "https://dc.lft.to/lastmile_qr_scan"}}, {"is_disabled": 0, "fusion_lat": 0.0, "lat": 38.92723683333333, "type": "electric_scooter", "lon": -77.0419985, "is_reserved": 0, "fusion_lon": 0.0, "bike_id": "bce34bd69572302b6fe5cae03af06ed9", "name": "bce34bd69572302b6fe5cae03af06ed9", "rental_uris": {"ios": "https://dc.lft.to/lastmile_qr_scan", "android": "https://dc.lft.to/lastmile_qr_scan"}}, {"is_disabled": 0, "fusion_lat": 0.0, "lat": 38.954913833333336, "type": "electric_scooter", "lon": -77.0656315, "is_reserved": 0, "fusion_lon": 0.0, "bike_id": "485d94c9cd040f13c300b438d9ee6b09", "name": "485d94c9cd040f13c300b438d9ee6b09", "rental_uris": {"ios": "https://dc.lft.to/lastmile_qr_scan", "android": "https://dc.lft.to/lastmile_qr_scan"}}, {"is_disabled": 0, "fusion_lat": 0.0, "lat": 38.92233816666667, "type": "electric_scooter", "lon": -77.04397166666666, "is_reserved": 0, "fusion_lon": 0.0, "bike_id": "75b0f96ad0925a7bc255a78daea39fbd", "name": "75b0f96ad0925a7bc255a78daea39fbd", "rental_uris": {"ios": "https://dc.lft.to/lastmile_qr_scan", "android": "https://dc.lft.to/lastmile_qr_scan"}}, {"is_disabled": 0, "fusion_lat": 0.0, "lat": 38.902747833333336, "type": "electric_scooter", "lon": -77.01734316666666, "is_reserved": 0, "fusion_lon": 0.0, "bike_id": "af1d59ce4203831427090c0491552b04", "name": "af1d59ce4203831427090c0491552b04", "rental_uris": {"ios": "https://dc.lft.to/lastmile_qr_scan", "android": "https://dc.lft.to/lastmile_qr_scan"}}, {"is_disabled": 0, "fusion_lat": 0.0, "lat": 38.8961085, "type": "electric_bike", "lon": -76.97793983333334, "is_reserved": 0, "fusion_lon": 0.0, "bike_id": "627015e561b5315ecebcd0fcd1acf69a", "name": "627015e561b5315ecebcd0fcd1acf69a", "rental_uris": {"ios": "https://dc.lft.to/lastmile_qr_scan", "android": "https://dc.lft.to/lastmile_qr_scan"}}, {"is_disabled": 0, "fusion_lat": 0.0, "lat": 38.8725285, "type": "electric_scooter", "lon": -77.0162975, "is_reserved": 0, "fusion_lon": 0.0, "bike_id": "528672fdf2b4a12216baa7aba9651ac2", "name": "528672fdf2b4a12216baa7aba9651ac2", "rental_uris": {"ios": "https://dc.lft.to/lastmile_qr_scan", "android": "https://dc.lft.to/lastmile_qr_scan"}}, {"is_disabled": 0, "fusion_lat": 0.0, "lat": 38.93401266666667, "type": "electric_scooter", "lon": -77.04120533333334, "is_reserved": 0, "fusion_lon": 0.0, "bike_id": "9ed62e2bfec9516b0ac8eb3be5523ef8", "name": "9ed62e2bfec9516b0ac8eb3be5523ef8", "rental_uris": {"ios": "https://dc.lft.to/lastmile_qr_scan", "android": "https://dc.lft.to/lastmile_qr_scan"}}, {"is_disabled": 0, "fusion_lat": 0.0, "lat": 38.86522683333333, "type": "electric_scooter", "lon": -76.9903695, "is_reserved": 0, "fusion_lon": 0.0, "bike_id": "b85a9c47484e2d118fee5569e8fa7e9a", "name": "b85a9c47484e2d118fee5569e8fa7e9a", "rental_uris": {"ios": "https://dc.lft.to/lastmile_qr_scan", "android": "https://dc.lft.to/lastmile_qr_scan"}}, {"is_disabled": 0, "fusion_lat": 0.0, "lat": 38.93984666666667, "type": "electric_scooter", "lon": -77.0314395, "is_reserved": 0, "fusion_lon": 0.0, "bike_id": "5287d7ca8f6a7b653020e8c7850cbb0d", "name": "5287d7ca8f6a7b653020e8c7850cbb0d", "rental_uris": {"ios": "https://dc.lft.to/lastmile_qr_scan", "android": "https://dc.lft.to/lastmile_qr_scan"}}, {"is_disabled": 0, "fusion_lat": 0.0, "lat": 38.91389683333333, "type": "electric_scooter", "lon": -76.984186, "is_reserved": 0, "fusion_lon": 0.0, "bike_id": "c3a7aaf20e5f0be8ce9f804114652141", "name": "c3a7aaf20e5f0be8ce9f804114652141", "rental_uris": {"ios": "https://dc.lft.to/lastmile_qr_scan", "android": "https://dc.lft.to/lastmile_qr_scan"}}, {"is_disabled": 0, "fusion_lat": 0.0, "lat": 38.902171333333335, "type": "electric_scooter", "lon": -77.0237255, "is_reserved": 0, "fusion_lon": 0.0, "bike_id": "d4642bb6369cbe6bd5f0ad70baddba53", "name": "d4642bb6369cbe6bd5f0ad70baddba53", "rental_uris": {"ios": "https://dc.lft.to/lastmile_qr_scan", "android": "https://dc.lft.to/lastmile_qr_scan"}}, {"is_disabled": 0, "fusion_lat": 0.0, "lat": 38.914197333333334, "type": "electric_scooter", "lon": -77.01961916666667, "is_reserved": 0, "fusion_lon": 0.0, "bike_id": "8fe424be315f4fe47130b05e5151882f", "name": "8fe424be315f4fe47130b05e5151882f", "rental_uris": {"ios": "https://dc.lft.to/lastmile_qr_scan", "android": "https://dc.lft.to/lastmile_qr_scan"}}, {"is_disabled": 0, "fusion_lat": 0.0, "lat": 38.8579, "type": "electric_bike", "lon": -77.09962766666666, "is_reserved": 0, "fusion_lon": 0.0, "bike_id": "548ad441321c09f36a2b6375f8e63545", "name": "548ad441321c09f36a2b6375f8e63545", "rental_uris": {"ios": "https://dc.lft.to/lastmile_qr_scan", "android": "https://dc.lft.to/lastmile_qr_scan"}}, {"is_disabled": 0, "fusion_lat": 0.0, "lat": 38.95277183333334, "type": "electric_bike", "lon": -77.06965416666667, "is_reserved": 0, "fusion_lon": 0.0, "bike_id": "5191bb59cfe1d1ad273fecc7cc3dd03a", "name": "5191bb59cfe1d1ad273fecc7cc3dd03a", "rental_uris": {"ios": "https://dc.lft.to/lastmile_qr_scan", "android": "https://dc.lft.to/lastmile_qr_scan"}}, {"is_disabled": 0, "fusion_lat": 0.0, "lat": 38.900346166666665, "type": "electric_scooter", "lon": -76.99836633333334, "is_reserved": 0, "fusion_lon": 0.0, "bike_id": "d7bf4c5a9eff01f7d1085d1479d1a2ce", "name": "d7bf4c5a9eff01f7d1085d1479d1a2ce", "rental_uris": {"ios": "https://dc.lft.to/lastmile_qr_scan", "android": "https://dc.lft.to/lastmile_qr_scan"}}, {"is_disabled": 0, "fusion_lat": 0.0, "lat": 38.87669016666667, "type": "electric_scooter", "lon": -77.0041185, "is_reserved": 0, "fusion_lon": 0.0, "bike_id": "215aaf28a8335232dc63bcca4a5a4777", "name": "215aaf28a8335232dc63bcca4a5a4777", "rental_uris": {"ios": "https://dc.lft.to/lastmile_qr_scan", "android": "https://dc.lft.to/lastmile_qr_scan"}}, {"is_disabled": 0, "fusion_lat": 0.0, "lat": 38.91906983333333, "type": "electric_scooter", "lon": -77.0462665, "is_reserved": 0, "fusion_lon": 0.0, "bike_id": "0ee273d847a4e448de7f777f2dcea584", "name": "0ee273d847a4e448de7f777f2dcea584", "rental_uris": {"ios": "https://dc.lft.to/lastmile_qr_scan", "android": "https://dc.lft.to/lastmile_qr_scan"}}, {"is_disabled": 0, "fusion_lat": 0.0, "lat": 38.917166, "type": "electric_scooter", "lon": -77.00884316666667, "is_reserved": 0, "fusion_lon": 0.0, "bike_id": "79d9587bd556c304d39b731502af879a", "name": "79d9587bd556c304d39b731502af879a", "rental_uris": {"ios": "https://dc.lft.to/lastmile_qr_scan", "android": "https://dc.lft.to/lastmile_qr_scan"}}, {"is_disabled": 0, "fusion_lat": 0.0, "lat": 38.935917833333335, "type": "electric_scooter", "lon": -77.03510416666667, "is_reserved": 0, "fusion_lon": 0.0, "bike_id": "f127e7a35e89d8fdfebd9fdd05d0ce56", "name": "f127e7a35e89d8fdfebd9fdd05d0ce56", "rental_uris": {"ios": "https://dc.lft.to/lastmile_qr_scan", "android": "https://dc.lft.to/lastmile_qr_scan"}}, {"is_disabled": 0, "fusion_lat": 0.0, "lat": 38.863763166666665, "type": "electric_scooter", "lon": -76.99058133333334, "is_reserved": 0, "fusion_lon": 0.0, "bike_id": "5cacbed0dac3f1242773c2aa11821f22", "name": "5cacbed0dac3f1242773c2aa11821f22", "rental_uris": {"ios": "https://dc.lft.to/lastmile_qr_scan", "android": "https://dc.lft.to/lastmile_qr_scan"}}, {"is_disabled": 0, "fusion_lat": 0.0, "lat": 38.93915166666667, "type": "electric_scooter", "lon": -77.06039283333334, "is_reserved": 0, "fusion_lon": 0.0, "bike_id": "c79bebcc15ba12e21552e33dd344d3d8", "name": "c79bebcc15ba12e21552e33dd344d3d8", "rental_uris": {"ios": "https://dc.lft.to/lastmile_qr_scan", "android": "https://dc.lft.to/lastmile_qr_scan"}}, {"is_disabled": 0, "fusion_lat": 0.0, "lat": 38.912166666666664, "type": "electric_scooter", "lon": -77.03842433333334, "is_reserved": 0, "fusion_lon": 0.0, "bike_id": "c55aba8491e0df3c4508474071a0cd71", "name": "c55aba8491e0df3c4508474071a0cd71", "rental_uris": {"ios": "https://dc.lft.to/lastmile_qr_scan", "android": "https://dc.lft.to/lastmile_qr_scan"}}, {"is_disabled": 0, "fusion_lat": 0.0, "lat": 38.918325, "type": "electric_scooter", "lon": -77.03635666666666, "is_reserved": 0, "fusion_lon": 0.0, "bike_id": "efd2c4dde787017f8382c6fe3bc59d18", "name": "efd2c4dde787017f8382c6fe3bc59d18", "rental_uris": {"ios": "https://dc.lft.to/lastmile_qr_scan", "android": "https://dc.lft.to/lastmile_qr_scan"}}, {"is_disabled": 0, "fusion_lat": 0.0, "lat": 38.89628716666667, "type": "electric_scooter", "lon": -77.00901716666667, "is_reserved": 0, "fusion_lon": 0.0, "bike_id": "04fde61f09372527b552440095b93bdb", "name": "04fde61f09372527b552440095b93bdb", "rental_uris": {"ios": "https://dc.lft.to/lastmile_qr_scan", "android": "https://dc.lft.to/lastmile_qr_scan"}}, {"is_disabled": 0, "fusion_lat": 0.0, "lat": 38.9021915, "type": "electric_scooter", "lon": -76.94585583333334, "is_reserved": 0, "fusion_lon": 0.0, "bike_id": "4982f1213e44fc0de70a53a1e425c977", "name": "4982f1213e44fc0de70a53a1e425c977", "rental_uris": {"ios": "https://dc.lft.to/lastmile_qr_scan", "android": "https://dc.lft.to/lastmile_qr_scan"}}, {"is_disabled": 0, "fusion_lat": 0.0, "lat": 38.9097665, "type": "electric_scooter", "lon": -77.0359025, "is_reserved": 0, "fusion_lon": 0.0, "bike_id": "56c41750b81c761438fdbc6a03bfaa77", "name": "56c41750b81c761438fdbc6a03bfaa77", "rental_uris": {"ios": "https://dc.lft.to/lastmile_qr_scan", "android": "https://dc.lft.to/lastmile_qr_scan"}}, {"is_disabled": 0, "fusion_lat": 0.0, "lat": 38.949442166666664, "type": "electric_scooter", "lon": -77.01623283333333, "is_reserved": 0, "fusion_lon": 0.0, "bike_id": "7b59f106f6c2b13f51af82f32c90a472", "name": "7b59f106f6c2b13f51af82f32c90a472", "rental_uris": {"ios": "https://dc.lft.to/lastmile_qr_scan", "android": "https://dc.lft.to/lastmile_qr_scan"}}, {"is_disabled": 0, "fusion_lat": 0.0, "lat": 38.9588375, "type": "electric_bike", "lon": -77.0103515, "is_reserved": 0, "fusion_lon": 0.0, "bike_id": "c53439a9fb2ef3ceecd5f02a0c9d16e5", "name": "c53439a9fb2ef3ceecd5f02a0c9d16e5", "rental_uris": {"ios": "https://dc.lft.to/lastmile_qr_scan", "android": "https://dc.lft.to/lastmile_qr_scan"}}, {"is_disabled": 0, "fusion_lat": 0.0, "lat": 38.9617615, "type": "electric_bike", "lon": -76.9958785, "is_reserved": 0, "fusion_lon": 0.0, "bike_id": "2545a8545b7fc66d1e1d8e1318aa69db", "name": "2545a8545b7fc66d1e1d8e1318aa69db", "rental_uris": {"ios": "https://dc.lft.to/lastmile_qr_scan", "android": "https://dc.lft.to/lastmile_qr_scan"}}, {"is_disabled": 0, "fusion_lat": 0.0, "lat": 38.91577516666667, "type": "electric_scooter", "lon": -77.046828, "is_reserved": 0, "fusion_lon": 0.0, "bike_id": "1dbdba50106d35361f82ab2c9f48bcb8", "name": "1dbdba50106d35361f82ab2c9f48bcb8", "rental_uris": {"ios": "https://dc.lft.to/lastmile_qr_scan", "android": "https://dc.lft.to/lastmile_qr_scan"}}, {"is_disabled": 0, "fusion_lat": 0.0, "lat": 38.928976, "type": "electric_scooter", "lon": -77.03246866666667, "is_reserved": 0, "fusion_lon": 0.0, "bike_id": "c46dfd0154268cb6476348176ecdea47", "name": "c46dfd0154268cb6476348176ecdea47", "rental_uris": {"ios": "https://dc.lft.to/lastmile_qr_scan", "android": "https://dc.lft.to/lastmile_qr_scan"}}, {"is_disabled": 0, "fusion_lat": 0.0, "lat": 38.924226166666664, "type": "electric_bike", "lon": -77.04565716666667, "is_reserved": 0, "fusion_lon": 0.0, "bike_id": "2552806b6171cf6e42db4e09575847cf", "name": "2552806b6171cf6e42db4e09575847cf", "rental_uris": {"ios": "https://dc.lft.to/lastmile_qr_scan", "android": "https://dc.lft.to/lastmile_qr_scan"}}, {"is_disabled": 0, "fusion_lat": 0.0, "lat": 38.919642333333336, "type": "electric_bike", "lon": -76.97264533333333, "is_reserved": 0, "fusion_lon": 0.0, "bike_id": "bda4b43807355e11712aac142944671f", "name": "bda4b43807355e11712aac142944671f", "rental_uris": {"ios": "https://dc.lft.to/lastmile_qr_scan", "android": "https://dc.lft.to/lastmile_qr_scan"}}, {"is_disabled": 0, "fusion_lat": 0.0, "lat": 38.8609645, "type": "electric_scooter", "lon": -76.98373566666666, "is_reserved": 0, "fusion_lon": 0.0, "bike_id": "ce6c3ae53d989d3fed3af20647941326", "name": "ce6c3ae53d989d3fed3af20647941326", "rental_uris": {"ios": "https://dc.lft.to/lastmile_qr_scan", "android": "https://dc.lft.to/lastmile_qr_scan"}}, {"is_disabled": 0, "fusion_lat": 0.0, "lat": 38.924796666666666, "type": "electric_scooter", "lon": -77.039162, "is_reserved": 0, "fusion_lon": 0.0, "bike_id": "478b9cd57df9ff33db2741e1566e0a11", "name": "478b9cd57df9ff33db2741e1566e0a11", "rental_uris": {"ios": "https://dc.lft.to/lastmile_qr_scan", "android": "https://dc.lft.to/lastmile_qr_scan"}}, {"is_disabled": 0, "fusion_lat": 0.0, "lat": 38.86120733333333, "type": "electric_scooter", "lon": -76.967761, "is_reserved": 0, "fusion_lon": 0.0, "bike_id": "7add063b7fcff180fbf1e7d6e39e8c8a", "name": "7add063b7fcff180fbf1e7d6e39e8c8a", "rental_uris": {"ios": "https://dc.lft.to/lastmile_qr_scan", "android": "https://dc.lft.to/lastmile_qr_scan"}}, {"is_disabled": 0, "fusion_lat": 0.0, "lat": 38.9077495, "type": "electric_scooter", "lon": -77.043425, "is_reserved": 0, "fusion_lon": 0.0, "bike_id": "86628b8d9f4d0e7b5641756f7029e526", "name": "86628b8d9f4d0e7b5641756f7029e526", "rental_uris": {"ios": "https://dc.lft.to/lastmile_qr_scan", "android": "https://dc.lft.to/lastmile_qr_scan"}}, {"is_disabled": 0, "fusion_lat": 0.0, "lat": 38.897823833333334, "type": "electric_scooter", "lon": -77.031657, "is_reserved": 0, "fusion_lon": 0.0, "bike_id": "259e648a4fb2287146dc840b11112bbe", "name": "259e648a4fb2287146dc840b11112bbe", "rental_uris": {"ios": "https://dc.lft.to/lastmile_qr_scan", "android": "https://dc.lft.to/lastmile_qr_scan"}}, {"is_disabled": 0, "fusion_lat": 0.0, "lat": 38.86108733333333, "type": "electric_scooter", "lon": -76.98364116666667, "is_reserved": 0, "fusion_lon": 0.0, "bike_id": "37ca9b3394fcdd369b3201f945355796", "name": "37ca9b3394fcdd369b3201f945355796", "rental_uris": {"ios": "https://dc.lft.to/lastmile_qr_scan", "android": "https://dc.lft.to/lastmile_qr_scan"}}, {"is_disabled": 0, "fusion_lat": 0.0, "lat": 38.8908355, "type": "electric_scooter", "lon": -76.98356116666666, "is_reserved": 0, "fusion_lon": 0.0, "bike_id": "9d2f60f18fefb62ccd82440f0a97d536", "name": "9d2f60f18fefb62ccd82440f0a97d536", "rental_uris": {"ios": "https://dc.lft.to/lastmile_qr_scan", "android": "https://dc.lft.to/lastmile_qr_scan"}}, {"is_disabled": 0, "fusion_lat": 0.0, "lat": 38.90570066666667, "type": "electric_scooter", "lon": -77.02491016666667, "is_reserved": 0, "fusion_lon": 0.0, "bike_id": "32f7f1d7992ebda418003078ea0d57ac", "name": "32f7f1d7992ebda418003078ea0d57ac", "rental_uris": {"ios": "https://dc.lft.to/lastmile_qr_scan", "android": "https://dc.lft.to/lastmile_qr_scan"}}, {"is_disabled": 0, "fusion_lat": 0.0, "lat": 38.936896, "type": "electric_scooter", "lon": -77.03625916666667, "is_reserved": 0, "fusion_lon": 0.0, "bike_id": "69b7337c8343207952bf17081e056c0b", "name": "69b7337c8343207952bf17081e056c0b", "rental_uris": {"ios": "https://dc.lft.to/lastmile_qr_scan", "android": "https://dc.lft.to/lastmile_qr_scan"}}, {"is_disabled": 0, "fusion_lat": 0.0, "lat": 38.89905433333333, "type": "electric_scooter", "lon": -77.04080616666667, "is_reserved": 0, "fusion_lon": 0.0, "bike_id": "2dbdfbabd25bd748174efc25ff274662", "name": "2dbdfbabd25bd748174efc25ff274662", "rental_uris": {"ios": "https://dc.lft.to/lastmile_qr_scan", "android": "https://dc.lft.to/lastmile_qr_scan"}}, {"is_disabled": 0, "fusion_lat": 0.0, "lat": 38.918783, "type": "electric_scooter", "lon": -77.041773, "is_reserved": 0, "fusion_lon": 0.0, "bike_id": "4dd4b88741aa638aaa8cfb1ef263a157", "name": "4dd4b88741aa638aaa8cfb1ef263a157", "rental_uris": {"ios": "https://dc.lft.to/lastmile_qr_scan", "android": "https://dc.lft.to/lastmile_qr_scan"}}, {"is_disabled": 0, "fusion_lat": 0.0, "lat": 38.92347633333333, "type": "electric_scooter", "lon": -77.01906166666667, "is_reserved": 0, "fusion_lon": 0.0, "bike_id": "136ae385f5efb1f8062025860f891d8f", "name": "136ae385f5efb1f8062025860f891d8f", "rental_uris": {"ios": "https://dc.lft.to/lastmile_qr_scan", "android": "https://dc.lft.to/lastmile_qr_scan"}}, {"is_disabled": 0, "fusion_lat": 0.0, "lat": 38.91016066666667, "type": "electric_scooter", "lon": -76.99387766666666, "is_reserved": 0, "fusion_lon": 0.0, "bike_id": "607574b0c7e2466eddc10934bcd1d09f", "name": "607574b0c7e2466eddc10934bcd1d09f", "rental_uris": {"ios": "https://dc.lft.to/lastmile_qr_scan", "android": "https://dc.lft.to/lastmile_qr_scan"}}, {"is_disabled": 0, "fusion_lat": 0.0, "lat": 38.88339933333334, "type": "electric_scooter", "lon": -77.031454, "is_reserved": 0, "fusion_lon": 0.0, "bike_id": "7626d01a5817183a8efef8dff6977a0c", "name": "7626d01a5817183a8efef8dff6977a0c", "rental_uris": {"ios": "https://dc.lft.to/lastmile_qr_scan", "android": "https://dc.lft.to/lastmile_qr_scan"}}, {"is_disabled": 0, "fusion_lat": 0.0, "lat": 38.87096833333333, "type": "electric_scooter", "lon": -77.01204566666667, "is_reserved": 0, "fusion_lon": 0.0, "bike_id": "f9fba966e9dc299f60795382cbd4fcad", "name": "f9fba966e9dc299f60795382cbd4fcad", "rental_uris": {"ios": "https://dc.lft.to/lastmile_qr_scan", "android": "https://dc.lft.to/lastmile_qr_scan"}}, {"is_disabled": 0, "fusion_lat": 0.0, "lat": 38.91342433333333, "type": "electric_scooter", "lon": -77.0022595, "is_reserved": 0, "fusion_lon": 0.0, "bike_id": "305df46d6241c2b15def869788322274", "name": "305df46d6241c2b15def869788322274", "rental_uris": {"ios": "https://dc.lft.to/lastmile_qr_scan", "android": "https://dc.lft.to/lastmile_qr_scan"}}, {"is_disabled": 0, "fusion_lat": 0.0, "lat": 38.908142, "type": "electric_scooter", "lon": -77.04347966666667, "is_reserved": 0, "fusion_lon": 0.0, "bike_id": "7bdd8bddd77d13ca4d3977f974d21518", "name": "7bdd8bddd77d13ca4d3977f974d21518", "rental_uris": {"ios": "https://dc.lft.to/lastmile_qr_scan", "android": "https://dc.lft.to/lastmile_qr_scan"}}, {"is_disabled": 0, "fusion_lat": 0.0, "lat": 38.905937333333334, "type": "electric_scooter", "lon": -77.0651395, "is_reserved": 0, "fusion_lon": 0.0, "bike_id": "2da02c77dc6b9922322a20fa928b99c0", "name": "2da02c77dc6b9922322a20fa928b99c0", "rental_uris": {"ios": "https://dc.lft.to/lastmile_qr_scan", "android": "https://dc.lft.to/lastmile_qr_scan"}}, {"is_disabled": 0, "fusion_lat": 0.0, "lat": 38.919814, "type": "electric_scooter", "lon": -77.04169033333334, "is_reserved": 0, "fusion_lon": 0.0, "bike_id": "d2e37f91e550dbd76125979a4204bac1", "name": "d2e37f91e550dbd76125979a4204bac1", "rental_uris": {"ios": "https://dc.lft.to/lastmile_qr_scan", "android": "https://dc.lft.to/lastmile_qr_scan"}}, {"is_disabled": 0, "fusion_lat": 0.0, "lat": 38.902331833333335, "type": "electric_scooter", "lon": -77.0174185, "is_reserved": 0, "fusion_lon": 0.0, "bike_id": "861ecae0205ce3b175f043fce781aa1c", "name": "861ecae0205ce3b175f043fce781aa1c", "rental_uris": {"ios": "https://dc.lft.to/lastmile_qr_scan", "android": "https://dc.lft.to/lastmile_qr_scan"}}, {"is_disabled": 0, "fusion_lat": 0.0, "lat": 38.916706, "type": "electric_scooter", "lon": -77.00655916666666, "is_reserved": 0, "fusion_lon": 0.0, "bike_id": "fa29b303c490a8f713bce5cd2183e467", "name": "fa29b303c490a8f713bce5cd2183e467", "rental_uris": {"ios": "https://dc.lft.to/lastmile_qr_scan", "android": "https://dc.lft.to/lastmile_qr_scan"}}, {"is_disabled": 0, "fusion_lat": 0.0, "lat": 38.901407, "type": "electric_scooter", "lon": -77.03861883333333, "is_reserved": 0, "fusion_lon": 0.0, "bike_id": "36acfa8ba5a228a27ef0966ea3b09d72", "name": "36acfa8ba5a228a27ef0966ea3b09d72", "rental_uris": {"ios": "https://dc.lft.to/lastmile_qr_scan", "android": "https://dc.lft.to/lastmile_qr_scan"}}, {"is_disabled": 0, "fusion_lat": 0.0, "lat": 38.87637516666667, "type": "electric_scooter", "lon": -77.01644283333333, "is_reserved": 0, "fusion_lon": 0.0, "bike_id": "5fb91cd1a0e33dc533322adb53ea2bc8", "name": "5fb91cd1a0e33dc533322adb53ea2bc8", "rental_uris": {"ios": "https://dc.lft.to/lastmile_qr_scan", "android": "https://dc.lft.to/lastmile_qr_scan"}}, {"is_disabled": 0, "fusion_lat": 0.0, "lat": 38.940501, "type": "electric_scooter", "lon": -77.09268083333333, "is_reserved": 0, "fusion_lon": 0.0, "bike_id": "4a456399519cdbb050ab9975c7688190", "name": "4a456399519cdbb050ab9975c7688190", "rental_uris": {"ios": "https://dc.lft.to/lastmile_qr_scan", "android": "https://dc.lft.to/lastmile_qr_scan"}}, {"is_disabled": 0, "fusion_lat": 0.0, "lat": 38.90143283333333, "type": "electric_scooter", "lon": -77.0181355, "is_reserved": 0, "fusion_lon": 0.0, "bike_id": "9949d72d8b0862f6a91ae549ebffc6f7", "name": "9949d72d8b0862f6a91ae549ebffc6f7", "rental_uris": {"ios": "https://dc.lft.to/lastmile_qr_scan", "android": "https://dc.lft.to/lastmile_qr_scan"}}, {"is_disabled": 0, "fusion_lat": 0.0, "lat": 38.9050505, "type": "electric_scooter", "lon": -77.02947233333333, "is_reserved": 0, "fusion_lon": 0.0, "bike_id": "f54f53868afac8ecde2460a56891fa9b", "name": "f54f53868afac8ecde2460a56891fa9b", "rental_uris": {"ios": "https://dc.lft.to/lastmile_qr_scan", "android": "https://dc.lft.to/lastmile_qr_scan"}}, {"is_disabled": 0, "fusion_lat": 0.0, "lat": 38.8429205, "type": "electric_scooter", "lon": -76.99945816666667, "is_reserved": 0, "fusion_lon": 0.0, "bike_id": "1313ea2e79b4b3b10652369ff2393f64", "name": "1313ea2e79b4b3b10652369ff2393f64", "rental_uris": {"ios": "https://dc.lft.to/lastmile_qr_scan", "android": "https://dc.lft.to/lastmile_qr_scan"}}, {"is_disabled": 0, "fusion_lat": 0.0, "lat": 38.91476983333333, "type": "electric_scooter", "lon": -77.038365, "is_reserved": 0, "fusion_lon": 0.0, "bike_id": "aad5245ce7c49953fdf9c543fdf0e6a5", "name": "aad5245ce7c49953fdf9c543fdf0e6a5", "rental_uris": {"ios": "https://dc.lft.to/lastmile_qr_scan", "android": "https://dc.lft.to/lastmile_qr_scan"}}, {"is_disabled": 0, "fusion_lat": 0.0, "lat": 38.97372, "type": "electric_scooter", "lon": -77.01861566666666, "is_reserved": 0, "fusion_lon": 0.0, "bike_id": "5056f17cd27da56b2153fb93a432bd1d", "name": "5056f17cd27da56b2153fb93a432bd1d", "rental_uris": {"ios": "https://dc.lft.to/lastmile_qr_scan", "android": "https://dc.lft.to/lastmile_qr_scan"}}, {"is_disabled": 0, "fusion_lat": 0.0, "lat": 38.867269, "type": "electric_scooter", "lon": -76.987871, "is_reserved": 0, "fusion_lon": 0.0, "bike_id": "e8d3f193c569d800eea7a65d8d533742", "name": "e8d3f193c569d800eea7a65d8d533742", "rental_uris": {"ios": "https://dc.lft.to/lastmile_qr_scan", "android": "https://dc.lft.to/lastmile_qr_scan"}}, {"is_disabled": 0, "fusion_lat": 0.0, "lat": 38.91925766666667, "type": "electric_scooter", "lon": -77.04631166666667, "is_reserved": 0, "fusion_lon": 0.0, "bike_id": "74b55b4954ee86b25fe18372a66cdd56", "name": "74b55b4954ee86b25fe18372a66cdd56", "rental_uris": {"ios": "https://dc.lft.to/lastmile_qr_scan", "android": "https://dc.lft.to/lastmile_qr_scan"}}, {"is_disabled": 0, "fusion_lat": 0.0, "lat": 38.90872316666667, "type": "electric_scooter", "lon": -76.99802133333333, "is_reserved": 0, "fusion_lon": 0.0, "bike_id": "2cb72758be6c999b035dc638ea59cc18", "name": "2cb72758be6c999b035dc638ea59cc18", "rental_uris": {"ios": "https://dc.lft.to/lastmile_qr_scan", "android": "https://dc.lft.to/lastmile_qr_scan"}}, {"is_disabled": 0, "fusion_lat": 0.0, "lat": 38.923729, "type": "electric_scooter", "lon": -77.01912816666666, "is_reserved": 0, "fusion_lon": 0.0, "bike_id": "05859f420bd4e80c9f778ec0f44b89fc", "name": "05859f420bd4e80c9f778ec0f44b89fc", "rental_uris": {"ios": "https://dc.lft.to/lastmile_qr_scan", "android": "https://dc.lft.to/lastmile_qr_scan"}}, {"is_disabled": 0, "fusion_lat": 0.0, "lat": 38.88043533333333, "type": "electric_scooter", "lon": -77.00566066666667, "is_reserved": 0, "fusion_lon": 0.0, "bike_id": "b630ab0bfead373d086e061a23ff93fd", "name": "b630ab0bfead373d086e061a23ff93fd", "rental_uris": {"ios": "https://dc.lft.to/lastmile_qr_scan", "android": "https://dc.lft.to/lastmile_qr_scan"}}, {"is_disabled": 0, "fusion_lat": 0.0, "lat": 38.915264, "type": "electric_scooter", "lon": -77.02001483333333, "is_reserved": 0, "fusion_lon": 0.0, "bike_id": "e558f8a8d2896f4d5628ae86f0ce8a14", "name": "e558f8a8d2896f4d5628ae86f0ce8a14", "rental_uris": {"ios": "https://dc.lft.to/lastmile_qr_scan", "android": "https://dc.lft.to/lastmile_qr_scan"}}, {"is_disabled": 0, "fusion_lat": 0.0, "lat": 38.92465, "type": "electric_scooter", "lon": -77.05758133333333, "is_reserved": 0, "fusion_lon": 0.0, "bike_id": "2686c44a0336e21deef7b11962b9832e", "name": "2686c44a0336e21deef7b11962b9832e", "rental_uris": {"ios": "https://dc.lft.to/lastmile_qr_scan", "android": "https://dc.lft.to/lastmile_qr_scan"}}, {"is_disabled": 0, "fusion_lat": 0.0, "lat": 38.88485166666667, "type": "electric_scooter", "lon": -76.94595083333333, "is_reserved": 0, "fusion_lon": 0.0, "bike_id": "a103d36fec011e27139231008f2dfbf0", "name": "a103d36fec011e27139231008f2dfbf0", "rental_uris": {"ios": "https://dc.lft.to/lastmile_qr_scan", "android": "https://dc.lft.to/lastmile_qr_scan"}}, {"is_disabled": 0, "fusion_lat": 0.0, "lat": 38.921192833333336, "type": "electric_scooter", "lon": -77.04116466666666, "is_reserved": 0, "fusion_lon": 0.0, "bike_id": "81bbf0907e623497eea24e505ee98dde", "name": "81bbf0907e623497eea24e505ee98dde", "rental_uris": {"ios": "https://dc.lft.to/lastmile_qr_scan", "android": "https://dc.lft.to/lastmile_qr_scan"}}, {"is_disabled": 0, "fusion_lat": 0.0, "lat": 38.92479433333333, "type": "electric_scooter", "lon": -77.03374366666667, "is_reserved": 0, "fusion_lon": 0.0, "bike_id": "e3492857b5830e44929144538f9382d1", "name": "e3492857b5830e44929144538f9382d1", "rental_uris": {"ios": "https://dc.lft.to/lastmile_qr_scan", "android": "https://dc.lft.to/lastmile_qr_scan"}}, {"is_disabled": 0, "fusion_lat": 0.0, "lat": 38.89600383333333, "type": "electric_scooter", "lon": -76.95520633333334, "is_reserved": 0, "fusion_lon": 0.0, "bike_id": "72b1463be0ede47b92b370d3e7aba67a", "name": "72b1463be0ede47b92b370d3e7aba67a", "rental_uris": {"ios": "https://dc.lft.to/lastmile_qr_scan", "android": "https://dc.lft.to/lastmile_qr_scan"}}, {"is_disabled": 0, "fusion_lat": 0.0, "lat": 38.890348, "type": "electric_scooter", "lon": -76.93727433333333, "is_reserved": 0, "fusion_lon": 0.0, "bike_id": "8f1e3e941c2e248e8cca05217f2bf5f2", "name": "8f1e3e941c2e248e8cca05217f2bf5f2", "rental_uris": {"ios": "https://dc.lft.to/lastmile_qr_scan", "android": "https://dc.lft.to/lastmile_qr_scan"}}, {"is_disabled": 0, "fusion_lat": 0.0, "lat": 38.888872666666664, "type": "electric_scooter", "lon": -76.93153083333333, "is_reserved": 0, "fusion_lon": 0.0, "bike_id": "1c2210acf616a32d4c7e2fa81d953b31", "name": "1c2210acf616a32d4c7e2fa81d953b31", "rental_uris": {"ios": "https://dc.lft.to/lastmile_qr_scan", "android": "https://dc.lft.to/lastmile_qr_scan"}}, {"is_disabled": 0, "fusion_lat": 0.0, "lat": 38.921138666666664, "type": "electric_scooter", "lon": -77.04219233333333, "is_reserved": 0, "fusion_lon": 0.0, "bike_id": "8cf9f5b4f2bdc47aed544815d4bb22a7", "name": "8cf9f5b4f2bdc47aed544815d4bb22a7", "rental_uris": {"ios": "https://dc.lft.to/lastmile_qr_scan", "android": "https://dc.lft.to/lastmile_qr_scan"}}, {"is_disabled": 0, "fusion_lat": 0.0, "lat": 38.916985, "type": "electric_scooter", "lon": -77.03479533333334, "is_reserved": 0, "fusion_lon": 0.0, "bike_id": "385c37bb83315a8a9fd86b8fa59b6a97", "name": "385c37bb83315a8a9fd86b8fa59b6a97", "rental_uris": {"ios": "https://dc.lft.to/lastmile_qr_scan", "android": "https://dc.lft.to/lastmile_qr_scan"}}, {"is_disabled": 0, "fusion_lat": 0.0, "lat": 39.05816683333333, "type": "electric_bike", "lon": -77.12625183333333, "is_reserved": 0, "fusion_lon": 0.0, "bike_id": "ebc491c7fbd7d21254a523b2af28a4e9", "name": "ebc491c7fbd7d21254a523b2af28a4e9", "rental_uris": {"ios": "https://dc.lft.to/lastmile_qr_scan", "android": "https://dc.lft.to/lastmile_qr_scan"}}, {"is_disabled": 0, "fusion_lat": 0.0, "lat": 38.903697666666666, "type": "electric_scooter", "lon": -77.03867933333333, "is_reserved": 0, "fusion_lon": 0.0, "bike_id": "f4f57aa965f11765077dd9d02d32dc52", "name": "f4f57aa965f11765077dd9d02d32dc52", "rental_uris": {"ios": "https://dc.lft.to/lastmile_qr_scan", "android": "https://dc.lft.to/lastmile_qr_scan"}}, {"is_disabled": 0, "fusion_lat": 0.0, "lat": 38.909274333333336, "type": "electric_scooter", "lon": -76.999593, "is_reserved": 0, "fusion_lon": 0.0, "bike_id": "6d232cfa70524006658fba8e1ba1436b", "name": "6d232cfa70524006658fba8e1ba1436b", "rental_uris": {"ios": "https://dc.lft.to/lastmile_qr_scan", "android": "https://dc.lft.to/lastmile_qr_scan"}}, {"is_disabled": 0, "fusion_lat": 0.0, "lat": 38.90777933333333, "type": "electric_scooter", "lon": -77.03468383333333, "is_reserved": 0, "fusion_lon": 0.0, "bike_id": "91b9a2b5dcb6139da1cac6a98289a848", "name": "91b9a2b5dcb6139da1cac6a98289a848", "rental_uris": {"ios": "https://dc.lft.to/lastmile_qr_scan", "android": "https://dc.lft.to/lastmile_qr_scan"}}, {"is_disabled": 0, "fusion_lat": 0.0, "lat": 38.91200716666667, "type": "electric_scooter", "lon": -77.00425933333334, "is_reserved": 0, "fusion_lon": 0.0, "bike_id": "e56c5cd68c8c3ab0f877cb88573c954c", "name": "e56c5cd68c8c3ab0f877cb88573c954c", "rental_uris": {"ios": "https://dc.lft.to/lastmile_qr_scan", "android": "https://dc.lft.to/lastmile_qr_scan"}}, {"is_disabled": 0, "fusion_lat": 0.0, "lat": 38.9536065, "type": "electric_bike", "lon": -76.98091366666667, "is_reserved": 0, "fusion_lon": 0.0, "bike_id": "c28fc25550678c092076d825b7882dc7", "name": "c28fc25550678c092076d825b7882dc7", "rental_uris": {"ios": "https://dc.lft.to/lastmile_qr_scan", "android": "https://dc.lft.to/lastmile_qr_scan"}}, {"is_disabled": 0, "fusion_lat": 0.0, "lat": 38.8461475, "type": "electric_bike", "lon": -76.96907816666666, "is_reserved": 0, "fusion_lon": 0.0, "bike_id": "008bc874026d60babbde65339d6cbcfb", "name": "008bc874026d60babbde65339d6cbcfb", "rental_uris": {"ios": "https://dc.lft.to/lastmile_qr_scan", "android": "https://dc.lft.to/lastmile_qr_scan"}}, {"is_disabled": 0, "fusion_lat": 0.0, "lat": 38.89556866666667, "type": "electric_scooter", "lon": -76.93040783333333, "is_reserved": 0, "fusion_lon": 0.0, "bike_id": "72599ea870c8f4474b874bfe4456b8dd", "name": "72599ea870c8f4474b874bfe4456b8dd", "rental_uris": {"ios": "https://dc.lft.to/lastmile_qr_scan", "android": "https://dc.lft.to/lastmile_qr_scan"}}, {"is_disabled": 0, "fusion_lat": 0.0, "lat": 38.84622483333333, "type": "electric_bike", "lon": -76.9781945, "is_reserved": 0, "fusion_lon": 0.0, "bike_id": "186cd0acbc896691edc6185d3f297672", "name": "186cd0acbc896691edc6185d3f297672", "rental_uris": {"ios": "https://dc.lft.to/lastmile_qr_scan", "android": "https://dc.lft.to/lastmile_qr_scan"}}, {"is_disabled": 0, "fusion_lat": 0.0, "lat": 38.896221, "type": "electric_scooter", "lon": -77.04049083333334, "is_reserved": 0, "fusion_lon": 0.0, "bike_id": "b221358280bda49a727f56d18812cd4e", "name": "b221358280bda49a727f56d18812cd4e", "rental_uris": {"ios": "https://dc.lft.to/lastmile_qr_scan", "android": "https://dc.lft.to/lastmile_qr_scan"}}, {"is_disabled": 0, "fusion_lat": 0.0, "lat": 38.91276116666667, "type": "electric_scooter", "lon": -77.02241, "is_reserved": 0, "fusion_lon": 0.0, "bike_id": "5119db95e4666473f3ce9f0c5afa49af", "name": "5119db95e4666473f3ce9f0c5afa49af", "rental_uris": {"ios": "https://dc.lft.to/lastmile_qr_scan", "android": "https://dc.lft.to/lastmile_qr_scan"}}, {"is_disabled": 0, "fusion_lat": 0.0, "lat": 38.89750333333333, "type": "electric_scooter", "lon": -77.0316445, "is_reserved": 0, "fusion_lon": 0.0, "bike_id": "c9ec036459d73453b4a1fb253019614e", "name": "c9ec036459d73453b4a1fb253019614e", "rental_uris": {"ios": "https://dc.lft.to/lastmile_qr_scan", "android": "https://dc.lft.to/lastmile_qr_scan"}}, {"is_disabled": 0, "fusion_lat": 0.0, "lat": 38.92498233333333, "type": "electric_scooter", "lon": -77.02150266666666, "is_reserved": 0, "fusion_lon": 0.0, "bike_id": "d0b50df087d1c9fccf9eadf777a64963", "name": "d0b50df087d1c9fccf9eadf777a64963", "rental_uris": {"ios": "https://dc.lft.to/lastmile_qr_scan", "android": "https://dc.lft.to/lastmile_qr_scan"}}, {"is_disabled": 0, "fusion_lat": 0.0, "lat": 38.876573, "type": "electric_scooter", "lon": -77.01583266666667, "is_reserved": 0, "fusion_lon": 0.0, "bike_id": "52b486719813cb8def6329665fae5887", "name": "52b486719813cb8def6329665fae5887", "rental_uris": {"ios": "https://dc.lft.to/lastmile_qr_scan", "android": "https://dc.lft.to/lastmile_qr_scan"}}, {"is_disabled": 0, "fusion_lat": 0.0, "lat": 38.905204166666664, "type": "electric_scooter", "lon": -77.06659533333334, "is_reserved": 0, "fusion_lon": 0.0, "bike_id": "f42a05b9640991d1039d455b93453c0a", "name": "f42a05b9640991d1039d455b93453c0a", "rental_uris": {"ios": "https://dc.lft.to/lastmile_qr_scan", "android": "https://dc.lft.to/lastmile_qr_scan"}}, {"is_disabled": 0, "fusion_lat": 0.0, "lat": 38.874869833333335, "type": "electric_scooter", "lon": -77.00116716666666, "is_reserved": 0, "fusion_lon": 0.0, "bike_id": "5034143b6cb16983acefe9d9707abe29", "name": "5034143b6cb16983acefe9d9707abe29", "rental_uris": {"ios": "https://dc.lft.to/lastmile_qr_scan", "android": "https://dc.lft.to/lastmile_qr_scan"}}, {"is_disabled": 0, "fusion_lat": 0.0, "lat": 38.956378, "type": "electric_scooter", "lon": -77.0330085, "is_reserved": 0, "fusion_lon": 0.0, "bike_id": "acae1a15fb651b657818b988d35492e4", "name": "acae1a15fb651b657818b988d35492e4", "rental_uris": {"ios": "https://dc.lft.to/lastmile_qr_scan", "android": "https://dc.lft.to/lastmile_qr_scan"}}, {"is_disabled": 0, "fusion_lat": 0.0, "lat": 38.900799, "type": "electric_scooter", "lon": -77.05021566666667, "is_reserved": 0, "fusion_lon": 0.0, "bike_id": "9c318d2e549d66dbb9d106a8dd64859c", "name": "9c318d2e549d66dbb9d106a8dd64859c", "rental_uris": {"ios": "https://dc.lft.to/lastmile_qr_scan", "android": "https://dc.lft.to/lastmile_qr_scan"}}, {"is_disabled": 0, "fusion_lat": 0.0, "lat": 38.872008, "type": "electric_scooter", "lon": -77.006089, "is_reserved": 0, "fusion_lon": 0.0, "bike_id": "de135b20adbb49ddbe15c809ac666f35", "name": "de135b20adbb49ddbe15c809ac666f35", "rental_uris": {"ios": "https://dc.lft.to/lastmile_qr_scan", "android": "https://dc.lft.to/lastmile_qr_scan"}}, {"is_disabled": 0, "fusion_lat": 0.0, "lat": 38.892219833333336, "type": "electric_scooter", "lon": -77.04645133333334, "is_reserved": 0, "fusion_lon": 0.0, "bike_id": "dc51b4748b05f510f6a5579b53b80f72", "name": "dc51b4748b05f510f6a5579b53b80f72", "rental_uris": {"ios": "https://dc.lft.to/lastmile_qr_scan", "android": "https://dc.lft.to/lastmile_qr_scan"}}, {"is_disabled": 0, "fusion_lat": 0.0, "lat": 38.909570333333335, "type": "electric_scooter", "lon": -77.0464865, "is_reserved": 0, "fusion_lon": 0.0, "bike_id": "fee75e2eebd79a66f01c2cd1160071ae", "name": "fee75e2eebd79a66f01c2cd1160071ae", "rental_uris": {"ios": "https://dc.lft.to/lastmile_qr_scan", "android": "https://dc.lft.to/lastmile_qr_scan"}}, {"is_disabled": 0, "fusion_lat": 0.0, "lat": 38.91829666666667, "type": "electric_scooter", "lon": -77.03841466666667, "is_reserved": 0, "fusion_lon": 0.0, "bike_id": "3a6e1bcea4583f475d1efe38edbcb43e", "name": "3a6e1bcea4583f475d1efe38edbcb43e", "rental_uris": {"ios": "https://dc.lft.to/lastmile_qr_scan", "android": "https://dc.lft.to/lastmile_qr_scan"}}, {"is_disabled": 0, "fusion_lat": 0.0, "lat": 38.90491183333334, "type": "electric_scooter", "lon": -77.0678855, "is_reserved": 0, "fusion_lon": 0.0, "bike_id": "b76f969e0c2d5068971a5a6f6b130299", "name": "b76f969e0c2d5068971a5a6f6b130299", "rental_uris": {"ios": "https://dc.lft.to/lastmile_qr_scan", "android": "https://dc.lft.to/lastmile_qr_scan"}}, {"is_disabled": 0, "fusion_lat": 0.0, "lat": 38.905113, "type": "electric_scooter", "lon": -77.05912033333334, "is_reserved": 0, "fusion_lon": 0.0, "bike_id": "bfb6a9d3fd120b6450feeb13ed9bdd1e", "name": "bfb6a9d3fd120b6450feeb13ed9bdd1e", "rental_uris": {"ios": "https://dc.lft.to/lastmile_qr_scan", "android": "https://dc.lft.to/lastmile_qr_scan"}}, {"is_disabled": 0, "fusion_lat": 0.0, "lat": 38.91054666666667, "type": "electric_scooter", "lon": -77.01521833333334, "is_reserved": 0, "fusion_lon": 0.0, "bike_id": "7ddc32458710a82acb610478fa366fdf", "name": "7ddc32458710a82acb610478fa366fdf", "rental_uris": {"ios": "https://dc.lft.to/lastmile_qr_scan", "android": "https://dc.lft.to/lastmile_qr_scan"}}, {"is_disabled": 0, "fusion_lat": 0.0, "lat": 38.90259433333333, "type": "electric_scooter", "lon": -77.04907833333333, "is_reserved": 0, "fusion_lon": 0.0, "bike_id": "3709f053c829a3fb1b93728d51514ed1", "name": "3709f053c829a3fb1b93728d51514ed1", "rental_uris": {"ios": "https://dc.lft.to/lastmile_qr_scan", "android": "https://dc.lft.to/lastmile_qr_scan"}}, {"is_disabled": 0, "fusion_lat": 0.0, "lat": 38.93361816666667, "type": "electric_scooter", "lon": -77.05717383333334, "is_reserved": 0, "fusion_lon": 0.0, "bike_id": "c60db26d41190293c10478d1e1fac6f5", "name": "c60db26d41190293c10478d1e1fac6f5", "rental_uris": {"ios": "https://dc.lft.to/lastmile_qr_scan", "android": "https://dc.lft.to/lastmile_qr_scan"}}, {"is_disabled": 0, "fusion_lat": 0.0, "lat": 38.92559266666667, "type": "electric_scooter", "lon": -77.03791983333333, "is_reserved": 0, "fusion_lon": 0.0, "bike_id": "d6ee3cdec3cbbe2195f423f9e68e46f4", "name": "d6ee3cdec3cbbe2195f423f9e68e46f4", "rental_uris": {"ios": "https://dc.lft.to/lastmile_qr_scan", "android": "https://dc.lft.to/lastmile_qr_scan"}}, {"is_disabled": 0, "fusion_lat": 0.0, "lat": 38.907154, "type": "electric_scooter", "lon": -77.03317033333333, "is_reserved": 0, "fusion_lon": 0.0, "bike_id": "998e5509c00ed54555b937d5bd449482", "name": "998e5509c00ed54555b937d5bd449482", "rental_uris": {"ios": "https://dc.lft.to/lastmile_qr_scan", "android": "https://dc.lft.to/lastmile_qr_scan"}}, {"is_disabled": 0, "fusion_lat": 0.0, "lat": 38.892503, "type": "electric_bike", "lon": -76.98539116666667, "is_reserved": 0, "fusion_lon": 0.0, "bike_id": "4fc7e1becbd7941ead3f9a9a94fcda13", "name": "4fc7e1becbd7941ead3f9a9a94fcda13", "rental_uris": {"ios": "https://dc.lft.to/lastmile_qr_scan", "android": "https://dc.lft.to/lastmile_qr_scan"}}, {"is_disabled": 0, "fusion_lat": 0.0, "lat": 38.905046166666665, "type": "electric_scooter", "lon": -77.0628525, "is_reserved": 0, "fusion_lon": 0.0, "bike_id": "2e3fa6b4a2c525be27cd129fb701209a", "name": "2e3fa6b4a2c525be27cd129fb701209a", "rental_uris": {"ios": "https://dc.lft.to/lastmile_qr_scan", "android": "https://dc.lft.to/lastmile_qr_scan"}}, {"is_disabled": 0, "fusion_lat": 0.0, "lat": 38.89777483333334, "type": "electric_scooter", "lon": -76.97724883333333, "is_reserved": 0, "fusion_lon": 0.0, "bike_id": "43cd490e56a087e26b9daad089766f83", "name": "43cd490e56a087e26b9daad089766f83", "rental_uris": {"ios": "https://dc.lft.to/lastmile_qr_scan", "android": "https://dc.lft.to/lastmile_qr_scan"}}, {"is_disabled": 0, "fusion_lat": 0.0, "lat": 38.91779966666667, "type": "electric_scooter", "lon": -76.9734765, "is_reserved": 0, "fusion_lon": 0.0, "bike_id": "9979dbaf255c71467322c90d0753707e", "name": "9979dbaf255c71467322c90d0753707e", "rental_uris": {"ios": "https://dc.lft.to/lastmile_qr_scan", "android": "https://dc.lft.to/lastmile_qr_scan"}}, {"is_disabled": 0, "fusion_lat": 0.0, "lat": 38.8870795, "type": "electric_scooter", "lon": -77.00151366666667, "is_reserved": 0, "fusion_lon": 0.0, "bike_id": "01219e6bbe84e0c25f670e67f498270a", "name": "01219e6bbe84e0c25f670e67f498270a", "rental_uris": {"ios": "https://dc.lft.to/lastmile_qr_scan", "android": "https://dc.lft.to/lastmile_qr_scan"}}, {"is_disabled": 0, "fusion_lat": 0.0, "lat": 38.921827666666665, "type": "electric_scooter", "lon": -77.0422925, "is_reserved": 0, "fusion_lon": 0.0, "bike_id": "c2f75330e02de24284898b6324d6018b", "name": "c2f75330e02de24284898b6324d6018b", "rental_uris": {"ios": "https://dc.lft.to/lastmile_qr_scan", "android": "https://dc.lft.to/lastmile_qr_scan"}}, {"is_disabled": 0, "fusion_lat": 0.0, "lat": 38.917088166666666, "type": "electric_scooter", "lon": -77.02891483333333, "is_reserved": 0, "fusion_lon": 0.0, "bike_id": "0b314f3e5ecae7653a655591bed34933", "name": "0b314f3e5ecae7653a655591bed34933", "rental_uris": {"ios": "https://dc.lft.to/lastmile_qr_scan", "android": "https://dc.lft.to/lastmile_qr_scan"}}, {"is_disabled": 0, "fusion_lat": 0.0, "lat": 38.9233265, "type": "electric_scooter", "lon": -77.03898383333333, "is_reserved": 0, "fusion_lon": 0.0, "bike_id": "c0ce072a7238be7608be4f7225ad2e78", "name": "c0ce072a7238be7608be4f7225ad2e78", "rental_uris": {"ios": "https://dc.lft.to/lastmile_qr_scan", "android": "https://dc.lft.to/lastmile_qr_scan"}}, {"is_disabled": 0, "fusion_lat": 0.0, "lat": 38.894702833333334, "type": "electric_scooter", "lon": -76.99384466666666, "is_reserved": 0, "fusion_lon": 0.0, "bike_id": "685940746303748c78bd0bf4555a6852", "name": "685940746303748c78bd0bf4555a6852", "rental_uris": {"ios": "https://dc.lft.to/lastmile_qr_scan", "android": "https://dc.lft.to/lastmile_qr_scan"}}, {"is_disabled": 0, "fusion_lat": 0.0, "lat": 38.9231845, "type": "electric_scooter", "lon": -77.02115233333333, "is_reserved": 0, "fusion_lon": 0.0, "bike_id": "12756f41a8998ace9be6f8980cb7accb", "name": "12756f41a8998ace9be6f8980cb7accb", "rental_uris": {"ios": "https://dc.lft.to/lastmile_qr_scan", "android": "https://dc.lft.to/lastmile_qr_scan"}}, {"is_disabled": 0, "fusion_lat": 0.0, "lat": 38.915550333333336, "type": "electric_scooter", "lon": -77.03512433333333, "is_reserved": 0, "fusion_lon": 0.0, "bike_id": "57dd97c6a65f821b5090b3ff3800a9f9", "name": "57dd97c6a65f821b5090b3ff3800a9f9", "rental_uris": {"ios": "https://dc.lft.to/lastmile_qr_scan", "android": "https://dc.lft.to/lastmile_qr_scan"}}, {"is_disabled": 0, "fusion_lat": 0.0, "lat": 39.0305255, "type": "electric_bike", "lon": -77.09481733333334, "is_reserved": 0, "fusion_lon": 0.0, "bike_id": "cf2c65aade630fb667241ef1609316d4", "name": "cf2c65aade630fb667241ef1609316d4", "rental_uris": {"ios": "https://dc.lft.to/lastmile_qr_scan", "android": "https://dc.lft.to/lastmile_qr_scan"}}, {"is_disabled": 0, "fusion_lat": 0.0, "lat": 38.876319333333335, "type": "electric_scooter", "lon": -76.96525816666667, "is_reserved": 0, "fusion_lon": 0.0, "bike_id": "ab49eb4b8efad3879d794171edab96b6", "name": "ab49eb4b8efad3879d794171edab96b6", "rental_uris": {"ios": "https://dc.lft.to/lastmile_qr_scan", "android": "https://dc.lft.to/lastmile_qr_scan"}}, {"is_disabled": 0, "fusion_lat": 0.0, "lat": 38.910177166666664, "type": "electric_scooter", "lon": -77.02915166666666, "is_reserved": 0, "fusion_lon": 0.0, "bike_id": "bbd9a1a5992cde24454b58839251e3e8", "name": "bbd9a1a5992cde24454b58839251e3e8", "rental_uris": {"ios": "https://dc.lft.to/lastmile_qr_scan", "android": "https://dc.lft.to/lastmile_qr_scan"}}, {"is_disabled": 0, "fusion_lat": 0.0, "lat": 38.92185766666667, "type": "electric_scooter", "lon": -77.03214166666666, "is_reserved": 0, "fusion_lon": 0.0, "bike_id": "6c520760ef9808795bb4bc062df4b9a7", "name": "6c520760ef9808795bb4bc062df4b9a7", "rental_uris": {"ios": "https://dc.lft.to/lastmile_qr_scan", "android": "https://dc.lft.to/lastmile_qr_scan"}}, {"is_disabled": 0, "fusion_lat": 0.0, "lat": 38.89332866666667, "type": "electric_scooter", "lon": -76.92986833333333, "is_reserved": 0, "fusion_lon": 0.0, "bike_id": "b18f52ff38c57683cf18f6bca345d339", "name": "b18f52ff38c57683cf18f6bca345d339", "rental_uris": {"ios": "https://dc.lft.to/lastmile_qr_scan", "android": "https://dc.lft.to/lastmile_qr_scan"}}, {"is_disabled": 0, "fusion_lat": 0.0, "lat": 38.90517783333333, "type": "electric_scooter", "lon": -76.98836116666666, "is_reserved": 0, "fusion_lon": 0.0, "bike_id": "4fc7bd5a8351ba4fa997146d1f0fc056", "name": "4fc7bd5a8351ba4fa997146d1f0fc056", "rental_uris": {"ios": "https://dc.lft.to/lastmile_qr_scan", "android": "https://dc.lft.to/lastmile_qr_scan"}}, {"is_disabled": 0, "fusion_lat": 0.0, "lat": 38.90515083333333, "type": "electric_scooter", "lon": -77.05131633333333, "is_reserved": 0, "fusion_lon": 0.0, "bike_id": "10f52e756c1348cb2792e0a13537d57e", "name": "10f52e756c1348cb2792e0a13537d57e", "rental_uris": {"ios": "https://dc.lft.to/lastmile_qr_scan", "android": "https://dc.lft.to/lastmile_qr_scan"}}, {"is_disabled": 0, "fusion_lat": 0.0, "lat": 38.9267125, "type": "electric_scooter", "lon": -76.99539916666667, "is_reserved": 0, "fusion_lon": 0.0, "bike_id": "92ffd07c7442f8c459ede5a15725110f", "name": "92ffd07c7442f8c459ede5a15725110f", "rental_uris": {"ios": "https://dc.lft.to/lastmile_qr_scan", "android": "https://dc.lft.to/lastmile_qr_scan"}}, {"is_disabled": 0, "fusion_lat": 0.0, "lat": 38.87381233333333, "type": "electric_scooter", "lon": -77.00090133333333, "is_reserved": 0, "fusion_lon": 0.0, "bike_id": "df9152c170321bcfbf2acce315936d50", "name": "df9152c170321bcfbf2acce315936d50", "rental_uris": {"ios": "https://dc.lft.to/lastmile_qr_scan", "android": "https://dc.lft.to/lastmile_qr_scan"}}, {"is_disabled": 0, "fusion_lat": 0.0, "lat": 38.90309933333333, "type": "electric_scooter", "lon": -77.05189016666667, "is_reserved": 0, "fusion_lon": 0.0, "bike_id": "e0d6405a04e2fa3034791982294d10f6", "name": "e0d6405a04e2fa3034791982294d10f6", "rental_uris": {"ios": "https://dc.lft.to/lastmile_qr_scan", "android": "https://dc.lft.to/lastmile_qr_scan"}}, {"is_disabled": 0, "fusion_lat": 0.0, "lat": 38.904224, "type": "electric_scooter", "lon": -77.0320745, "is_reserved": 0, "fusion_lon": 0.0, "bike_id": "64931a477a844b18e7908cb4a305dc4a", "name": "64931a477a844b18e7908cb4a305dc4a", "rental_uris": {"ios": "https://dc.lft.to/lastmile_qr_scan", "android": "https://dc.lft.to/lastmile_qr_scan"}}, {"is_disabled": 0, "fusion_lat": 0.0, "lat": 38.916799, "type": "electric_scooter", "lon": -77.0368115, "is_reserved": 0, "fusion_lon": 0.0, "bike_id": "c7a1010e9e99ef401cc42893b163f4c6", "name": "c7a1010e9e99ef401cc42893b163f4c6", "rental_uris": {"ios": "https://dc.lft.to/lastmile_qr_scan", "android": "https://dc.lft.to/lastmile_qr_scan"}}, {"is_disabled": 0, "fusion_lat": 0.0, "lat": 38.905251, "type": "electric_scooter", "lon": -77.047765, "is_reserved": 0, "fusion_lon": 0.0, "bike_id": "2e975da18eec4b9c89d8961bdbf11fdd", "name": "2e975da18eec4b9c89d8961bdbf11fdd", "rental_uris": {"ios": "https://dc.lft.to/lastmile_qr_scan", "android": "https://dc.lft.to/lastmile_qr_scan"}}, {"is_disabled": 0, "fusion_lat": 0.0, "lat": 38.91410333333334, "type": "electric_scooter", "lon": -77.01838683333334, "is_reserved": 0, "fusion_lon": 0.0, "bike_id": "dfcad55ec19898c02c32ce377a571ee8", "name": "dfcad55ec19898c02c32ce377a571ee8", "rental_uris": {"ios": "https://dc.lft.to/lastmile_qr_scan", "android": "https://dc.lft.to/lastmile_qr_scan"}}, {"is_disabled": 0, "fusion_lat": 0.0, "lat": 38.90624783333333, "type": "electric_scooter", "lon": -77.03958183333333, "is_reserved": 0, "fusion_lon": 0.0, "bike_id": "4cfc0858b61d9ae023b4ae2ac0232ee3", "name": "4cfc0858b61d9ae023b4ae2ac0232ee3", "rental_uris": {"ios": "https://dc.lft.to/lastmile_qr_scan", "android": "https://dc.lft.to/lastmile_qr_scan"}}, {"is_disabled": 0, "fusion_lat": 0.0, "lat": 38.907298, "type": "electric_scooter", "lon": -77.03211366666666, "is_reserved": 0, "fusion_lon": 0.0, "bike_id": "c266ce45443a237ffde2c50d522cad1c", "name": "c266ce45443a237ffde2c50d522cad1c", "rental_uris": {"ios": "https://dc.lft.to/lastmile_qr_scan", "android": "https://dc.lft.to/lastmile_qr_scan"}}, {"is_disabled": 0, "fusion_lat": 0.0, "lat": 38.90271333333333, "type": "electric_scooter", "lon": -77.03855166666666, "is_reserved": 0, "fusion_lon": 0.0, "bike_id": "2197d6a623ff384a9fbdb59e71dd42ab", "name": "2197d6a623ff384a9fbdb59e71dd42ab", "rental_uris": {"ios": "https://dc.lft.to/lastmile_qr_scan", "android": "https://dc.lft.to/lastmile_qr_scan"}}, {"is_disabled": 0, "fusion_lat": 0.0, "lat": 38.901983, "type": "electric_scooter", "lon": -77.02193833333334, "is_reserved": 0, "fusion_lon": 0.0, "bike_id": "3d64354aee18869e1f65340449fec2b1", "name": "3d64354aee18869e1f65340449fec2b1", "rental_uris": {"ios": "https://dc.lft.to/lastmile_qr_scan", "android": "https://dc.lft.to/lastmile_qr_scan"}}, {"is_disabled": 0, "fusion_lat": 0.0, "lat": 38.911069833333336, "type": "electric_scooter", "lon": -77.0420305, "is_reserved": 0, "fusion_lon": 0.0, "bike_id": "efd1b2cdc196b4262e63938561bd662a", "name": "efd1b2cdc196b4262e63938561bd662a", "rental_uris": {"ios": "https://dc.lft.to/lastmile_qr_scan", "android": "https://dc.lft.to/lastmile_qr_scan"}}, {"is_disabled": 0, "fusion_lat": 0.0, "lat": 38.9155145, "type": "electric_scooter", "lon": -77.03842333333333, "is_reserved": 0, "fusion_lon": 0.0, "bike_id": "0ee2250cc7b00b6fa4338763e4547190", "name": "0ee2250cc7b00b6fa4338763e4547190", "rental_uris": {"ios": "https://dc.lft.to/lastmile_qr_scan", "android": "https://dc.lft.to/lastmile_qr_scan"}}, {"is_disabled": 0, "fusion_lat": 0.0, "lat": 38.92168133333333, "type": "electric_scooter", "lon": -77.03542033333333, "is_reserved": 0, "fusion_lon": 0.0, "bike_id": "0080dcbdf4937d3a26707c8325d6751e", "name": "0080dcbdf4937d3a26707c8325d6751e", "rental_uris": {"ios": "https://dc.lft.to/lastmile_qr_scan", "android": "https://dc.lft.to/lastmile_qr_scan"}}, {"is_disabled": 0, "fusion_lat": 0.0, "lat": 38.90334766666667, "type": "electric_scooter", "lon": -77.0377105, "is_reserved": 0, "fusion_lon": 0.0, "bike_id": "bd0788931fb28a12cf02df4c99aeb2c6", "name": "bd0788931fb28a12cf02df4c99aeb2c6", "rental_uris": {"ios": "https://dc.lft.to/lastmile_qr_scan", "android": "https://dc.lft.to/lastmile_qr_scan"}}, {"is_disabled": 0, "fusion_lat": 0.0, "lat": 38.92041716666667, "type": "electric_scooter", "lon": -76.97908583333333, "is_reserved": 0, "fusion_lon": 0.0, "bike_id": "70d29c2fb75aa45ffa1a567af952f9df", "name": "70d29c2fb75aa45ffa1a567af952f9df", "rental_uris": {"ios": "https://dc.lft.to/lastmile_qr_scan", "android": "https://dc.lft.to/lastmile_qr_scan"}}, {"is_disabled": 0, "fusion_lat": 0.0, "lat": 38.93773133333333, "type": "electric_scooter", "lon": -77.03137633333333, "is_reserved": 0, "fusion_lon": 0.0, "bike_id": "4bca2491c4f9df0e70f0e19a286c7a20", "name": "4bca2491c4f9df0e70f0e19a286c7a20", "rental_uris": {"ios": "https://dc.lft.to/lastmile_qr_scan", "android": "https://dc.lft.to/lastmile_qr_scan"}}, {"is_disabled": 0, "fusion_lat": 0.0, "lat": 38.80748883333333, "type": "electric_bike", "lon": -77.094233, "is_reserved": 0, "fusion_lon": 0.0, "bike_id": "12bd9d46ee52692bd68bb014de01b20a", "name": "12bd9d46ee52692bd68bb014de01b20a", "rental_uris": {"ios": "https://dc.lft.to/lastmile_qr_scan", "android": "https://dc.lft.to/lastmile_qr_scan"}}, {"is_disabled": 0, "fusion_lat": 0.0, "lat": 38.908665, "type": "electric_scooter", "lon": -77.03472433333333, "is_reserved": 0, "fusion_lon": 0.0, "bike_id": "bc402633eeb691e14a38b45001e0417e", "name": "bc402633eeb691e14a38b45001e0417e", "rental_uris": {"ios": "https://dc.lft.to/lastmile_qr_scan", "android": "https://dc.lft.to/lastmile_qr_scan"}}, {"is_disabled": 0, "fusion_lat": 0.0, "lat": 38.92913866666667, "type": "electric_bike", "lon": -77.0238275, "is_reserved": 0, "fusion_lon": 0.0, "bike_id": "6147609013e2470f03abaea293734810", "name": "6147609013e2470f03abaea293734810", "rental_uris": {"ios": "https://dc.lft.to/lastmile_qr_scan", "android": "https://dc.lft.to/lastmile_qr_scan"}}, {"is_disabled": 0, "fusion_lat": 0.0, "lat": 38.9188055, "type": "electric_scooter", "lon": -77.03506083333333, "is_reserved": 0, "fusion_lon": 0.0, "bike_id": "91a93cfc3806fa237521c93acee0932e", "name": "91a93cfc3806fa237521c93acee0932e", "rental_uris": {"ios": "https://dc.lft.to/lastmile_qr_scan", "android": "https://dc.lft.to/lastmile_qr_scan"}}, {"is_disabled": 0, "fusion_lat": 0.0, "lat": 38.925410166666666, "type": "electric_scooter", "lon": -77.04082533333333, "is_reserved": 0, "fusion_lon": 0.0, "bike_id": "62d0fed4e4e2caa313f55aa16c88b096", "name": "62d0fed4e4e2caa313f55aa16c88b096", "rental_uris": {"ios": "https://dc.lft.to/lastmile_qr_scan", "android": "https://dc.lft.to/lastmile_qr_scan"}}, {"is_disabled": 0, "fusion_lat": 0.0, "lat": 38.90616816666667, "type": "electric_scooter", "lon": -77.06514083333333, "is_reserved": 0, "fusion_lon": 0.0, "bike_id": "c943fb81237d12b79e2d40ceb06a6fb1", "name": "c943fb81237d12b79e2d40ceb06a6fb1", "rental_uris": {"ios": "https://dc.lft.to/lastmile_qr_scan", "android": "https://dc.lft.to/lastmile_qr_scan"}}, {"is_disabled": 0, "fusion_lat": 0.0, "lat": 38.887283, "type": "electric_scooter", "lon": -77.03220466666667, "is_reserved": 0, "fusion_lon": 0.0, "bike_id": "c995ad53f884af180dee4a46ae61ac86", "name": "c995ad53f884af180dee4a46ae61ac86", "rental_uris": {"ios": "https://dc.lft.to/lastmile_qr_scan", "android": "https://dc.lft.to/lastmile_qr_scan"}}, {"is_disabled": 0, "fusion_lat": 0.0, "lat": 38.924579666666666, "type": "electric_scooter", "lon": -77.032726, "is_reserved": 0, "fusion_lon": 0.0, "bike_id": "47f382324d88493597e49dbb34b555d1", "name": "47f382324d88493597e49dbb34b555d1", "rental_uris": {"ios": "https://dc.lft.to/lastmile_qr_scan", "android": "https://dc.lft.to/lastmile_qr_scan"}}, {"is_disabled": 0, "fusion_lat": 0.0, "lat": 38.93005566666667, "type": "electric_scooter", "lon": -77.04435116666667, "is_reserved": 0, "fusion_lon": 0.0, "bike_id": "9502755c9be796ae9041567b0226c9ad", "name": "9502755c9be796ae9041567b0226c9ad", "rental_uris": {"ios": "https://dc.lft.to/lastmile_qr_scan", "android": "https://dc.lft.to/lastmile_qr_scan"}}, {"is_disabled": 0, "fusion_lat": 0.0, "lat": 38.948315666666666, "type": "electric_scooter", "lon": -77.02423266666666, "is_reserved": 0, "fusion_lon": 0.0, "bike_id": "24bd59933e9faca10ad1ee1bb75dfc96", "name": "24bd59933e9faca10ad1ee1bb75dfc96", "rental_uris": {"ios": "https://dc.lft.to/lastmile_qr_scan", "android": "https://dc.lft.to/lastmile_qr_scan"}}, {"is_disabled": 0, "fusion_lat": 0.0, "lat": 38.910647, "type": "electric_scooter", "lon": -77.04580716666666, "is_reserved": 0, "fusion_lon": 0.0, "bike_id": "2dc6f5ec18d4b682f15eacb15679811d", "name": "2dc6f5ec18d4b682f15eacb15679811d", "rental_uris": {"ios": "https://dc.lft.to/lastmile_qr_scan", "android": "https://dc.lft.to/lastmile_qr_scan"}}, {"is_disabled": 0, "fusion_lat": 0.0, "lat": 38.92854416666667, "type": "electric_bike", "lon": -77.10678533333333, "is_reserved": 0, "fusion_lon": 0.0, "bike_id": "66caa261da67178dcc07aacf9bfeaf14", "name": "66caa261da67178dcc07aacf9bfeaf14", "rental_uris": {"ios": "https://dc.lft.to/lastmile_qr_scan", "android": "https://dc.lft.to/lastmile_qr_scan"}}, {"is_disabled": 0, "fusion_lat": 0.0, "lat": 38.91965316666667, "type": "electric_scooter", "lon": -77.04151083333333, "is_reserved": 0, "fusion_lon": 0.0, "bike_id": "281abe81a00f7930b2af61c3a859efc9", "name": "281abe81a00f7930b2af61c3a859efc9", "rental_uris": {"ios": "https://dc.lft.to/lastmile_qr_scan", "android": "https://dc.lft.to/lastmile_qr_scan"}}, {"is_disabled": 0, "fusion_lat": 0.0, "lat": 38.89880983333333, "type": "electric_scooter", "lon": -76.93157083333334, "is_reserved": 0, "fusion_lon": 0.0, "bike_id": "f9f8834b9ef6c6d293958c8db3babbf2", "name": "f9f8834b9ef6c6d293958c8db3babbf2", "rental_uris": {"ios": "https://dc.lft.to/lastmile_qr_scan", "android": "https://dc.lft.to/lastmile_qr_scan"}}, {"is_disabled": 0, "fusion_lat": 0.0, "lat": 38.93157216666667, "type": "electric_scooter", "lon": -77.0309335, "is_reserved": 0, "fusion_lon": 0.0, "bike_id": "d24d9ee310ee65b4517fbaa7562aacb5", "name": "d24d9ee310ee65b4517fbaa7562aacb5", "rental_uris": {"ios": "https://dc.lft.to/lastmile_qr_scan", "android": "https://dc.lft.to/lastmile_qr_scan"}}, {"is_disabled": 0, "fusion_lat": 0.0, "lat": 38.93422133333333, "type": "electric_scooter", "lon": -77.04405066666666, "is_reserved": 0, "fusion_lon": 0.0, "bike_id": "b46bc42d8cf0d4ecd76f82a361aeab2b", "name": "b46bc42d8cf0d4ecd76f82a361aeab2b", "rental_uris": {"ios": "https://dc.lft.to/lastmile_qr_scan", "android": "https://dc.lft.to/lastmile_qr_scan"}}, {"is_disabled": 0, "fusion_lat": 0.0, "lat": 38.917119, "type": "electric_scooter", "lon": -77.03408783333333, "is_reserved": 0, "fusion_lon": 0.0, "bike_id": "c393fa713739db101da47289cb43936b", "name": "c393fa713739db101da47289cb43936b", "rental_uris": {"ios": "https://dc.lft.to/lastmile_qr_scan", "android": "https://dc.lft.to/lastmile_qr_scan"}}, {"is_disabled": 0, "fusion_lat": 0.0, "lat": 38.920811, "type": "electric_scooter", "lon": -77.02389916666667, "is_reserved": 0, "fusion_lon": 0.0, "bike_id": "c2c8b8b00ab8328c9cf8ef24a6f00336", "name": "c2c8b8b00ab8328c9cf8ef24a6f00336", "rental_uris": {"ios": "https://dc.lft.to/lastmile_qr_scan", "android": "https://dc.lft.to/lastmile_qr_scan"}}, {"is_disabled": 0, "fusion_lat": 0.0, "lat": 38.91854583333333, "type": "electric_scooter", "lon": -77.03222766666667, "is_reserved": 0, "fusion_lon": 0.0, "bike_id": "9fb3d8a6287f0733d8eba84a8be47bfd", "name": "9fb3d8a6287f0733d8eba84a8be47bfd", "rental_uris": {"ios": "https://dc.lft.to/lastmile_qr_scan", "android": "https://dc.lft.to/lastmile_qr_scan"}}, {"is_disabled": 0, "fusion_lat": 0.0, "lat": 38.9416755, "type": "electric_scooter", "lon": -77.02531766666667, "is_reserved": 0, "fusion_lon": 0.0, "bike_id": "d892a6f67dfd2f044be8dd25bd1075f1", "name": "d892a6f67dfd2f044be8dd25bd1075f1", "rental_uris": {"ios": "https://dc.lft.to/lastmile_qr_scan", "android": "https://dc.lft.to/lastmile_qr_scan"}}, {"is_disabled": 0, "fusion_lat": 0.0, "lat": 38.904843166666666, "type": "electric_scooter", "lon": -77.02517766666666, "is_reserved": 0, "fusion_lon": 0.0, "bike_id": "6a236d0f792dcaf743dfdcece3911119", "name": "6a236d0f792dcaf743dfdcece3911119", "rental_uris": {"ios": "https://dc.lft.to/lastmile_qr_scan", "android": "https://dc.lft.to/lastmile_qr_scan"}}, {"is_disabled": 0, "fusion_lat": 0.0, "lat": 38.907173, "type": "electric_scooter", "lon": -76.99796266666667, "is_reserved": 0, "fusion_lon": 0.0, "bike_id": "1c30bcb25f49bf60b8451f61a5cd10a4", "name": "1c30bcb25f49bf60b8451f61a5cd10a4", "rental_uris": {"ios": "https://dc.lft.to/lastmile_qr_scan", "android": "https://dc.lft.to/lastmile_qr_scan"}}, {"is_disabled": 0, "fusion_lat": 0.0, "lat": 38.90293883333333, "type": "electric_scooter", "lon": -77.04115166666666, "is_reserved": 0, "fusion_lon": 0.0, "bike_id": "63caa0b83dd3c0ba8bf2db2b8ed93d18", "name": "63caa0b83dd3c0ba8bf2db2b8ed93d18", "rental_uris": {"ios": "https://dc.lft.to/lastmile_qr_scan", "android": "https://dc.lft.to/lastmile_qr_scan"}}, {"is_disabled": 0, "fusion_lat": 0.0, "lat": 38.86620966666667, "type": "electric_bike", "lon": -76.9456905, "is_reserved": 0, "fusion_lon": 0.0, "bike_id": "50f6c76fef47fbb63abf4026f2dc16f0", "name": "50f6c76fef47fbb63abf4026f2dc16f0", "rental_uris": {"ios": "https://dc.lft.to/lastmile_qr_scan", "android": "https://dc.lft.to/lastmile_qr_scan"}}, {"is_disabled": 0, "fusion_lat": 0.0, "lat": 38.915659833333336, "type": "electric_scooter", "lon": -77.03167533333334, "is_reserved": 0, "fusion_lon": 0.0, "bike_id": "88990456540f21ea313d421ccb634bbd", "name": "88990456540f21ea313d421ccb634bbd", "rental_uris": {"ios": "https://dc.lft.to/lastmile_qr_scan", "android": "https://dc.lft.to/lastmile_qr_scan"}}, {"is_disabled": 0, "fusion_lat": 0.0, "lat": 38.92436133333333, "type": "electric_scooter", "lon": -77.04250033333334, "is_reserved": 0, "fusion_lon": 0.0, "bike_id": "874cc4f432b35c4ea849f529a20162ad", "name": "874cc4f432b35c4ea849f529a20162ad", "rental_uris": {"ios": "https://dc.lft.to/lastmile_qr_scan", "android": "https://dc.lft.to/lastmile_qr_scan"}}, {"is_disabled": 0, "fusion_lat": 0.0, "lat": 38.9125985, "type": "electric_scooter", "lon": -77.03274116666667, "is_reserved": 0, "fusion_lon": 0.0, "bike_id": "bb177445c87c06caff771d7567fb8792", "name": "bb177445c87c06caff771d7567fb8792", "rental_uris": {"ios": "https://dc.lft.to/lastmile_qr_scan", "android": "https://dc.lft.to/lastmile_qr_scan"}}, {"is_disabled": 0, "fusion_lat": 0.0, "lat": 38.93601783333333, "type": "electric_scooter", "lon": -77.02327883333334, "is_reserved": 0, "fusion_lon": 0.0, "bike_id": "bf0b1b72d46dbac19bb6fcaf2ad4de9e", "name": "bf0b1b72d46dbac19bb6fcaf2ad4de9e", "rental_uris": {"ios": "https://dc.lft.to/lastmile_qr_scan", "android": "https://dc.lft.to/lastmile_qr_scan"}}, {"is_disabled": 0, "fusion_lat": 0.0, "lat": 38.9247665, "type": "electric_bike", "lon": -77.2083235, "is_reserved": 0, "fusion_lon": 0.0, "bike_id": "7529e000dfcaa633427e5656f9649489", "name": "7529e000dfcaa633427e5656f9649489", "rental_uris": {"ios": "https://dc.lft.to/lastmile_qr_scan", "android": "https://dc.lft.to/lastmile_qr_scan"}}, {"is_disabled": 0, "fusion_lat": 0.0, "lat": 38.897449333333334, "type": "electric_bike", "lon": -76.992206, "is_reserved": 0, "fusion_lon": 0.0, "bike_id": "c37dcd8500bb1b6ef91a99b36d4a225e", "name": "c37dcd8500bb1b6ef91a99b36d4a225e", "rental_uris": {"ios": "https://dc.lft.to/lastmile_qr_scan", "android": "https://dc.lft.to/lastmile_qr_scan"}}, {"is_disabled": 0, "fusion_lat": 0.0, "lat": 38.910225, "type": "electric_scooter", "lon": -77.0546595, "is_reserved": 0, "fusion_lon": 0.0, "bike_id": "ad7328e43a71ec465f3163f79cb2f070", "name": "ad7328e43a71ec465f3163f79cb2f070", "rental_uris": {"ios": "https://dc.lft.to/lastmile_qr_scan", "android": "https://dc.lft.to/lastmile_qr_scan"}}, {"is_disabled": 0, "fusion_lat": 0.0, "lat": 38.913067166666664, "type": "electric_scooter", "lon": -77.0435205, "is_reserved": 0, "fusion_lon": 0.0, "bike_id": "a093b18cb4f3b3cdde82e1b737bb9672", "name": "a093b18cb4f3b3cdde82e1b737bb9672", "rental_uris": {"ios": "https://dc.lft.to/lastmile_qr_scan", "android": "https://dc.lft.to/lastmile_qr_scan"}}, {"is_disabled": 0, "fusion_lat": 0.0, "lat": 38.89191783333333, "type": "electric_bike", "lon": -77.1225705, "is_reserved": 0, "fusion_lon": 0.0, "bike_id": "1bd993bdc1113f124e07610ea3108620", "name": "1bd993bdc1113f124e07610ea3108620", "rental_uris": {"ios": "https://dc.lft.to/lastmile_qr_scan", "android": "https://dc.lft.to/lastmile_qr_scan"}}, {"is_disabled": 0, "fusion_lat": 0.0, "lat": 38.89063933333333, "type": "electric_scooter", "lon": -76.94328516666667, "is_reserved": 0, "fusion_lon": 0.0, "bike_id": "9b75aa26af5c1e4e19204e68973ef567", "name": "9b75aa26af5c1e4e19204e68973ef567", "rental_uris": {"ios": "https://dc.lft.to/lastmile_qr_scan", "android": "https://dc.lft.to/lastmile_qr_scan"}}, {"is_disabled": 0, "fusion_lat": 0.0, "lat": 38.85808083333333, "type": "electric_scooter", "lon": -76.98650583333334, "is_reserved": 0, "fusion_lon": 0.0, "bike_id": "2c362113ea043fb46ecac3438b42fa8f", "name": "2c362113ea043fb46ecac3438b42fa8f", "rental_uris": {"ios": "https://dc.lft.to/lastmile_qr_scan", "android": "https://dc.lft.to/lastmile_qr_scan"}}, {"is_disabled": 0, "fusion_lat": 0.0, "lat": 38.8829395, "type": "electric_scooter", "lon": -76.99138666666667, "is_reserved": 0, "fusion_lon": 0.0, "bike_id": "be09d0a6419daee1b0429efd584d81f2", "name": "be09d0a6419daee1b0429efd584d81f2", "rental_uris": {"ios": "https://dc.lft.to/lastmile_qr_scan", "android": "https://dc.lft.to/lastmile_qr_scan"}}, {"is_disabled": 0, "fusion_lat": 0.0, "lat": 38.959274666666666, "type": "electric_scooter", "lon": -77.03326333333334, "is_reserved": 0, "fusion_lon": 0.0, "bike_id": "6926c3f8c92ed131feaf402b2b5cfba6", "name": "6926c3f8c92ed131feaf402b2b5cfba6", "rental_uris": {"ios": "https://dc.lft.to/lastmile_qr_scan", "android": "https://dc.lft.to/lastmile_qr_scan"}}, {"is_disabled": 0, "fusion_lat": 0.0, "lat": 38.91753933333333, "type": "electric_scooter", "lon": -77.03206566666667, "is_reserved": 0, "fusion_lon": 0.0, "bike_id": "0c2b33fecc442e7646813c75d469b7b1", "name": "0c2b33fecc442e7646813c75d469b7b1", "rental_uris": {"ios": "https://dc.lft.to/lastmile_qr_scan", "android": "https://dc.lft.to/lastmile_qr_scan"}}, {"is_disabled": 0, "fusion_lat": 0.0, "lat": 38.9080135, "type": "electric_scooter", "lon": -77.01863383333334, "is_reserved": 0, "fusion_lon": 0.0, "bike_id": "34dd349d6ed1854ca84eb47d8b6a6143", "name": "34dd349d6ed1854ca84eb47d8b6a6143", "rental_uris": {"ios": "https://dc.lft.to/lastmile_qr_scan", "android": "https://dc.lft.to/lastmile_qr_scan"}}, {"is_disabled": 0, "fusion_lat": 0.0, "lat": 38.948365833333334, "type": "electric_scooter", "lon": -77.025593, "is_reserved": 0, "fusion_lon": 0.0, "bike_id": "c93aa87631325db8965055cd54604942", "name": "c93aa87631325db8965055cd54604942", "rental_uris": {"ios": "https://dc.lft.to/lastmile_qr_scan", "android": "https://dc.lft.to/lastmile_qr_scan"}}, {"is_disabled": 0, "fusion_lat": 0.0, "lat": 38.8656475, "type": "electric_scooter", "lon": -76.98950566666667, "is_reserved": 0, "fusion_lon": 0.0, "bike_id": "5149e3d0947d48db01e8f431e5f8e537", "name": "5149e3d0947d48db01e8f431e5f8e537", "rental_uris": {"ios": "https://dc.lft.to/lastmile_qr_scan", "android": "https://dc.lft.to/lastmile_qr_scan"}}, {"is_disabled": 0, "fusion_lat": 0.0, "lat": 38.90054766666667, "type": "electric_scooter", "lon": -77.002147, "is_reserved": 0, "fusion_lon": 0.0, "bike_id": "9f6ba4bd6b1a527feddbe5aa3d19609b", "name": "9f6ba4bd6b1a527feddbe5aa3d19609b", "rental_uris": {"ios": "https://dc.lft.to/lastmile_qr_scan", "android": "https://dc.lft.to/lastmile_qr_scan"}}, {"is_disabled": 0, "fusion_lat": 0.0, "lat": 38.902187833333336, "type": "electric_scooter", "lon": -77.04348016666667, "is_reserved": 0, "fusion_lon": 0.0, "bike_id": "c06f8495e3342ce42c284eb8e8a502b9", "name": "c06f8495e3342ce42c284eb8e8a502b9", "rental_uris": {"ios": "https://dc.lft.to/lastmile_qr_scan", "android": "https://dc.lft.to/lastmile_qr_scan"}}, {"is_disabled": 0, "fusion_lat": 0.0, "lat": 38.90743766666667, "type": "electric_scooter", "lon": -77.04280866666667, "is_reserved": 0, "fusion_lon": 0.0, "bike_id": "d5610b9ea64377f8cb2cd5ba2cafa227", "name": "d5610b9ea64377f8cb2cd5ba2cafa227", "rental_uris": {"ios": "https://dc.lft.to/lastmile_qr_scan", "android": "https://dc.lft.to/lastmile_qr_scan"}}, {"is_disabled": 0, "fusion_lat": 0.0, "lat": 38.958817, "type": "electric_bike", "lon": -76.97047966666666, "is_reserved": 0, "fusion_lon": 0.0, "bike_id": "f380a04d9ebab8b2c0d478781d96e5d6", "name": "f380a04d9ebab8b2c0d478781d96e5d6", "rental_uris": {"ios": "https://dc.lft.to/lastmile_qr_scan", "android": "https://dc.lft.to/lastmile_qr_scan"}}, {"is_disabled": 0, "fusion_lat": 0.0, "lat": 38.906049333333335, "type": "electric_scooter", "lon": -77.05866, "is_reserved": 0, "fusion_lon": 0.0, "bike_id": "fe13f8d26e571cfcc1dc08bd2cd42608", "name": "fe13f8d26e571cfcc1dc08bd2cd42608", "rental_uris": {"ios": "https://dc.lft.to/lastmile_qr_scan", "android": "https://dc.lft.to/lastmile_qr_scan"}}, {"is_disabled": 0, "fusion_lat": 0.0, "lat": 38.9211755, "type": "electric_scooter", "lon": -77.01829216666667, "is_reserved": 0, "fusion_lon": 0.0, "bike_id": "84e728324d73d647e989d8c89e92a62d", "name": "84e728324d73d647e989d8c89e92a62d", "rental_uris": {"ios": "https://dc.lft.to/lastmile_qr_scan", "android": "https://dc.lft.to/lastmile_qr_scan"}}, {"is_disabled": 0, "fusion_lat": 0.0, "lat": 38.90707733333333, "type": "electric_scooter", "lon": -77.043916, "is_reserved": 0, "fusion_lon": 0.0, "bike_id": "1275019aff8b84e3010c302d0347be07", "name": "1275019aff8b84e3010c302d0347be07", "rental_uris": {"ios": "https://dc.lft.to/lastmile_qr_scan", "android": "https://dc.lft.to/lastmile_qr_scan"}}, {"is_disabled": 0, "fusion_lat": 0.0, "lat": 38.884292, "type": "electric_bike", "lon": -76.98087083333333, "is_reserved": 0, "fusion_lon": 0.0, "bike_id": "9879eaeac34be7cd664523053239b117", "name": "9879eaeac34be7cd664523053239b117", "rental_uris": {"ios": "https://dc.lft.to/lastmile_qr_scan", "android": "https://dc.lft.to/lastmile_qr_scan"}}, {"is_disabled": 0, "fusion_lat": 0.0, "lat": 38.880103166666665, "type": "electric_bike", "lon": -76.91591516666666, "is_reserved": 0, "fusion_lon": 0.0, "bike_id": "0ac45cc80837aed187bfb3dc2a730557", "name": "0ac45cc80837aed187bfb3dc2a730557", "rental_uris": {"ios": "https://dc.lft.to/lastmile_qr_scan", "android": "https://dc.lft.to/lastmile_qr_scan"}}, {"is_disabled": 0, "fusion_lat": 0.0, "lat": 38.9177305, "type": "electric_scooter", "lon": -77.04173516666667, "is_reserved": 0, "fusion_lon": 0.0, "bike_id": "6e76d0e5f643d00312d0aea2a542f34b", "name": "6e76d0e5f643d00312d0aea2a542f34b", "rental_uris": {"ios": "https://dc.lft.to/lastmile_qr_scan", "android": "https://dc.lft.to/lastmile_qr_scan"}}, {"is_disabled": 0, "fusion_lat": 0.0, "lat": 38.90901483333333, "type": "electric_scooter", "lon": -77.086152, "is_reserved": 0, "fusion_lon": 0.0, "bike_id": "9b37f600667ff76ff5478dc6eb77460a", "name": "9b37f600667ff76ff5478dc6eb77460a", "rental_uris": {"ios": "https://dc.lft.to/lastmile_qr_scan", "android": "https://dc.lft.to/lastmile_qr_scan"}}, {"is_disabled": 0, "fusion_lat": 0.0, "lat": 38.917483, "type": "electric_scooter", "lon": -77.01096, "is_reserved": 0, "fusion_lon": 0.0, "bike_id": "7d7531408b9e05cd8f33627504b05aaa", "name": "7d7531408b9e05cd8f33627504b05aaa", "rental_uris": {"ios": "https://dc.lft.to/lastmile_qr_scan", "android": "https://dc.lft.to/lastmile_qr_scan"}}, {"is_disabled": 0, "fusion_lat": 0.0, "lat": 38.89740033333333, "type": "electric_scooter", "lon": -77.00765433333333, "is_reserved": 0, "fusion_lon": 0.0, "bike_id": "c9d5be74dc3b8800c038e0c9fd9dbc52", "name": "c9d5be74dc3b8800c038e0c9fd9dbc52", "rental_uris": {"ios": "https://dc.lft.to/lastmile_qr_scan", "android": "https://dc.lft.to/lastmile_qr_scan"}}, {"is_disabled": 0, "fusion_lat": 0.0, "lat": 38.892495333333336, "type": "electric_scooter", "lon": -77.03191516666666, "is_reserved": 0, "fusion_lon": 0.0, "bike_id": "24a214f22e4819e621f77a3f2ee24ab2", "name": "24a214f22e4819e621f77a3f2ee24ab2", "rental_uris": {"ios": "https://dc.lft.to/lastmile_qr_scan", "android": "https://dc.lft.to/lastmile_qr_scan"}}, {"is_disabled": 0, "fusion_lat": 0.0, "lat": 38.91449383333333, "type": "electric_scooter", "lon": -77.038403, "is_reserved": 0, "fusion_lon": 0.0, "bike_id": "8268b2006f02e856762b1fcbf622b6ff", "name": "8268b2006f02e856762b1fcbf622b6ff", "rental_uris": {"ios": "https://dc.lft.to/lastmile_qr_scan", "android": "https://dc.lft.to/lastmile_qr_scan"}}, {"is_disabled": 0, "fusion_lat": 0.0, "lat": 38.8852155, "type": "electric_scooter", "lon": -77.033524, "is_reserved": 0, "fusion_lon": 0.0, "bike_id": "95fd02fa70fae0b2e00051d12bfb12a3", "name": "95fd02fa70fae0b2e00051d12bfb12a3", "rental_uris": {"ios": "https://dc.lft.to/lastmile_qr_scan", "android": "https://dc.lft.to/lastmile_qr_scan"}}, {"is_disabled": 0, "fusion_lat": 0.0, "lat": 38.85813816666667, "type": "electric_scooter", "lon": -76.98991866666667, "is_reserved": 0, "fusion_lon": 0.0, "bike_id": "9a5ab7e487bb5e39ae8163aab3b421e0", "name": "9a5ab7e487bb5e39ae8163aab3b421e0", "rental_uris": {"ios": "https://dc.lft.to/lastmile_qr_scan", "android": "https://dc.lft.to/lastmile_qr_scan"}}, {"is_disabled": 0, "fusion_lat": 0.0, "lat": 38.9401725, "type": "electric_scooter", "lon": -77.071748, "is_reserved": 0, "fusion_lon": 0.0, "bike_id": "56725130597c2e51250300cd061c980c", "name": "56725130597c2e51250300cd061c980c", "rental_uris": {"ios": "https://dc.lft.to/lastmile_qr_scan", "android": "https://dc.lft.to/lastmile_qr_scan"}}, {"is_disabled": 0, "fusion_lat": 0.0, "lat": 38.9049595, "type": "electric_scooter", "lon": -77.06026016666667, "is_reserved": 0, "fusion_lon": 0.0, "bike_id": "790888bf55a1ae1b36b2ed7a4f2c5968", "name": "790888bf55a1ae1b36b2ed7a4f2c5968", "rental_uris": {"ios": "https://dc.lft.to/lastmile_qr_scan", "android": "https://dc.lft.to/lastmile_qr_scan"}}, {"is_disabled": 0, "fusion_lat": 0.0, "lat": 38.89017483333333, "type": "electric_scooter", "lon": -76.9374535, "is_reserved": 0, "fusion_lon": 0.0, "bike_id": "3e38bbbe352df66fe026a7ee9528ec3f", "name": "3e38bbbe352df66fe026a7ee9528ec3f", "rental_uris": {"ios": "https://dc.lft.to/lastmile_qr_scan", "android": "https://dc.lft.to/lastmile_qr_scan"}}, {"is_disabled": 0, "fusion_lat": 0.0, "lat": 38.8549675, "type": "electric_bike", "lon": -77.116143, "is_reserved": 0, "fusion_lon": 0.0, "bike_id": "869f97f834245e2d7ca6c44145d7bbc0", "name": "869f97f834245e2d7ca6c44145d7bbc0", "rental_uris": {"ios": "https://dc.lft.to/lastmile_qr_scan", "android": "https://dc.lft.to/lastmile_qr_scan"}}, {"is_disabled": 0, "fusion_lat": 0.0, "lat": 38.899085666666664, "type": "electric_scooter", "lon": -76.93353583333334, "is_reserved": 0, "fusion_lon": 0.0, "bike_id": "be8dcf95a4ebe77093e58871d24fb5b0", "name": "be8dcf95a4ebe77093e58871d24fb5b0", "rental_uris": {"ios": "https://dc.lft.to/lastmile_qr_scan", "android": "https://dc.lft.to/lastmile_qr_scan"}}, {"is_disabled": 0, "fusion_lat": 0.0, "lat": 38.874993, "type": "electric_scooter", "lon": -76.99799216666666, "is_reserved": 0, "fusion_lon": 0.0, "bike_id": "3363cd72c9ea35993aca7fae16abeefb", "name": "3363cd72c9ea35993aca7fae16abeefb", "rental_uris": {"ios": "https://dc.lft.to/lastmile_qr_scan", "android": "https://dc.lft.to/lastmile_qr_scan"}}, {"is_disabled": 0, "fusion_lat": 0.0, "lat": 38.892007, "type": "electric_scooter", "lon": -77.02380233333334, "is_reserved": 0, "fusion_lon": 0.0, "bike_id": "b49012135d2dc2f64937cf2883b4e416", "name": "b49012135d2dc2f64937cf2883b4e416", "rental_uris": {"ios": "https://dc.lft.to/lastmile_qr_scan", "android": "https://dc.lft.to/lastmile_qr_scan"}}, {"is_disabled": 0, "fusion_lat": 0.0, "lat": 38.9241905, "type": "electric_scooter", "lon": -77.02238583333333, "is_reserved": 0, "fusion_lon": 0.0, "bike_id": "c647199ca413c7f28dd14dd750217c0f", "name": "c647199ca413c7f28dd14dd750217c0f", "rental_uris": {"ios": "https://dc.lft.to/lastmile_qr_scan", "android": "https://dc.lft.to/lastmile_qr_scan"}}, {"is_disabled": 0, "fusion_lat": 0.0, "lat": 38.9041325, "type": "electric_scooter", "lon": -77.020796, "is_reserved": 0, "fusion_lon": 0.0, "bike_id": "b540a892a63a194e4a1a6a0c6cd499cc", "name": "b540a892a63a194e4a1a6a0c6cd499cc", "rental_uris": {"ios": "https://dc.lft.to/lastmile_qr_scan", "android": "https://dc.lft.to/lastmile_qr_scan"}},