{"data": {"bikes": [{"type": "electric_scooter", "rental_uris": {"ios": "https://dc.lft.to/lastmile_qr_scan", "android": "https://dc.lft.to/lastmile_qr_scan"}, "lon": -77.01228333333333, "fusion_lon": 0.0, "is_disabled": 0, "lat": 38.91500083333333, "bike_id": "f183baba29c8335be84153a38c100ab2", "name": "f183baba29c8335be84153a38c100ab2", "is_reserved": 0, "fusion_lat": 0.0}, {"type": "electric_scooter", "rental_uris": {"ios": "https://dc.lft.to/lastmile_qr_scan", "android": "https://dc.lft.to/lastmile_qr_scan"}, "lon": -77.0547475, "fusion_lon": 0.0, "is_disabled": 0, "lat": 38.8960865, "bike_id": "9080938dbbed7a4d322b7429f88ba053", "name": "9080938dbbed7a4d322b7429f88ba053", "is_reserved": 0, "fusion_lat": 0.0}, {"type": "electric_scooter", "rental_uris": {"ios": "https://dc.lft.to/lastmile_qr_scan", "android": "https://dc.lft.to/lastmile_qr_scan"}, "lon": -77.0490085, "fusion_lon": 0.0, "is_disabled": 0, "lat": 38.8922175, "bike_id": "b9fce4538a66b0def4bd951b321bc5fd", "name": "b9fce4538a66b0def4bd951b321bc5fd", "is_reserved": 0, "fusion_lat": 0.0}, {"type": "electric_scooter", "rental_uris": {"ios": "https://dc.lft.to/lastmile_qr_scan", "android": "https://dc.lft.to/lastmile_qr_scan"}, "lon": -77.02282866666667, "fusion_lon": 0.0, "is_disabled": 0, "lat": 38.9241485, "bike_id": "87c7bedb8ff706085d6011a86fb0c5f3", "name": "87c7bedb8ff706085d6011a86fb0c5f3", "is_reserved": 0, "fusion_lat": 0.0}, {"type": "electric_scooter", "rental_uris": {"ios": "https://dc.lft.to/lastmile_qr_scan", "android": "https://dc.lft.to/lastmile_qr_scan"}, "lon": -76.99496933333333, "fusion_lon": 0.0, "is_disabled": 0, "lat": 38.862427333333336, "bike_id": "c78fd23b5a11a45b4abf805381fde1e3", "name": "c78fd23b5a11a45b4abf805381fde1e3", "is_reserved": 0, "fusion_lat": 0.0}, {"type": "electric_scooter", "rental_uris": {"ios": "https://dc.lft.to/lastmile_qr_scan", "android": "https://dc.lft.to/lastmile_qr_scan"}, "lon": -77.0576625, "fusion_lon": 0.0, "is_disabled": 0, "lat": 38.92465466666667, "bike_id": "d19719385b092cc95ffc949805b5dc1b", "name": "d19719385b092cc95ffc949805b5dc1b", "is_reserved": 0, "fusion_lat": 0.0}, {"type": "electric_scooter", "rental_uris": {"ios": "https://dc.lft.to/lastmile_qr_scan", "android": "https://dc.lft.to/lastmile_qr_scan"}, "lon": -77.03638716666667, "fusion_lon": 0.0, "is_disabled": 0, "lat": 38.916821666666664, "bike_id": "8a8c5c6d7f25d4ed7a62024310bb5803", "name": "8a8c5c6d7f25d4ed7a62024310bb5803", "is_reserved": 0, "fusion_lat": 0.0}, {"type": "electric_scooter", "rental_uris": {"ios": "https://dc.lft.to/lastmile_qr_scan", "android": "https://dc.lft.to/lastmile_qr_scan"}, "lon": -76.9958175, "fusion_lon": 0.0, "is_disabled": 0, "lat": 38.851768666666665, "bike_id": "64b8b3c534d58ba552ecee9241aa922d", "name": "64b8b3c534d58ba552ecee9241aa922d", "is_reserved": 0, "fusion_lat": 0.0}, {"type": "electric_scooter", "rental_uris": {"ios": "https://dc.lft.to/lastmile_qr_scan", "android": "https://dc.lft.to/lastmile_qr_scan"}, "lon": -77.03872783333334, "fusion_lon": 0.0, "is_disabled": 0, "lat": 38.91039833333333, "bike_id": "048ad0c6267f63f923eb0b4235eba329", "name": "048ad0c6267f63f923eb0b4235eba329", "is_reserved": 0, "fusion_lat": 0.0}, {"type": "electric_scooter", "rental_uris": {"ios": "https://dc.lft.to/lastmile_qr_scan", "android": "https://dc.lft.to/lastmile_qr_scan"}, "lon": -77.0339525, "fusion_lon": 0.0, "is_disabled": 0, "lat": 38.9191755, "bike_id": "bf1f53c0d61be4884cd580f415939178", "name": "bf1f53c0d61be4884cd580f415939178", "is_reserved": 0, "fusion_lat": 0.0}, {"type": "electric_scooter", "rental_uris": {"ios": "https://dc.lft.to/lastmile_qr_scan", "android": "https://dc.lft.to/lastmile_qr_scan"}, "lon": -77.02979383333333, "fusion_lon": 0.0, "is_disabled": 0, "lat": 38.904931833333336, "bike_id": "d1183d2439cbcdbb8cd5761935c2cb72", "name": "d1183d2439cbcdbb8cd5761935c2cb72", "is_reserved": 0, "fusion_lat": 0.0}, {"type": "electric_scooter", "rental_uris": {"ios": "https://dc.lft.to/lastmile_qr_scan", "android": "https://dc.lft.to/lastmile_qr_scan"}, "lon": -77.05024616666667, "fusion_lon": 0.0, "is_disabled": 0, "lat": 38.906719333333335, "bike_id": "8df7296a79871a0b4d559ca587c19e34", "name": "8df7296a79871a0b4d559ca587c19e34", "is_reserved": 0, "fusion_lat": 0.0}, {"type": "electric_scooter", "rental_uris": {"ios": "https://dc.lft.to/lastmile_qr_scan", "android": "https://dc.lft.to/lastmile_qr_scan"}, "lon": -77.01767533333333, "fusion_lon": 0.0, "is_disabled": 0, "lat": 38.8813795, "bike_id": "7a812ebc7926c7c176fe12ed231c82c6", "name": "7a812ebc7926c7c176fe12ed231c82c6", "is_reserved": 0, "fusion_lat": 0.0}, {"type": "electric_scooter", "rental_uris": {"ios": "https://dc.lft.to/lastmile_qr_scan", "android": "https://dc.lft.to/lastmile_qr_scan"}, "lon": -77.02825866666667, "fusion_lon": 0.0, "is_disabled": 0, "lat": 38.88740583333333, "bike_id": "1c2f041214fb697d942afb3b535298f8", "name": "1c2f041214fb697d942afb3b535298f8", "is_reserved": 0, "fusion_lat": 0.0}, {"type": "electric_scooter", "rental_uris": {"ios": "https://dc.lft.to/lastmile_qr_scan", "android": "https://dc.lft.to/lastmile_qr_scan"}, "lon": -76.98518333333334, "fusion_lon": 0.0, "is_disabled": 0, "lat": 38.915505333333336, "bike_id": "5f837391e29e96aee08f8f19ccc662c1", "name": "5f837391e29e96aee08f8f19ccc662c1", "is_reserved": 0, "fusion_lat": 0.0}, {"type": "electric_scooter", "rental_uris": {"ios": "https://dc.lft.to/lastmile_qr_scan", "android": "https://dc.lft.to/lastmile_qr_scan"}, "lon": -77.024949, "fusion_lon": 0.0, "is_disabled": 0, "lat": 38.919472166666665, "bike_id": "681f203969be8fb843adeebefa2f2d69", "name": "681f203969be8fb843adeebefa2f2d69", "is_reserved": 0, "fusion_lat": 0.0}, {"type": "electric_scooter", "rental_uris": {"ios": "https://dc.lft.to/lastmile_qr_scan", "android": "https://dc.lft.to/lastmile_qr_scan"}, "lon": -77.03858916666667, "fusion_lon": 0.0, "is_disabled": 0, "lat": 38.9118205, "bike_id": "b01402a236de457202a96842a7384063", "name": "b01402a236de457202a96842a7384063", "is_reserved": 0, "fusion_lat": 0.0}, {"type": "electric_scooter", "rental_uris": {"ios": "https://dc.lft.to/lastmile_qr_scan", "android": "https://dc.lft.to/lastmile_qr_scan"}, "lon": -77.04646733333334, "fusion_lon": 0.0, "is_disabled": 0, "lat": 38.89226583333333, "bike_id": "5e5eb67741f4a8c1a527d967644ee316", "name": "5e5eb67741f4a8c1a527d967644ee316", "is_reserved": 0, "fusion_lat": 0.0}, {"type": "electric_scooter", "rental_uris": {"ios": "https://dc.lft.to/lastmile_qr_scan", "android": "https://dc.lft.to/lastmile_qr_scan"}, "lon": -77.0256535, "fusion_lon": 0.0, "is_disabled": 0, "lat": 38.92428866666667, "bike_id": "7b114128b5c0d59ab57e5d87208701c6", "name": "7b114128b5c0d59ab57e5d87208701c6", "is_reserved": 0, "fusion_lat": 0.0}, {"type": "electric_scooter", "rental_uris": {"ios": "https://dc.lft.to/lastmile_qr_scan", "android": "https://dc.lft.to/lastmile_qr_scan"}, "lon": -77.03267583333333, "fusion_lon": 0.0, "is_disabled": 0, "lat": 38.90450666666667, "bike_id": "f6714f1accb2fc61676df3e08b55ce23", "name": "f6714f1accb2fc61676df3e08b55ce23", "is_reserved": 0, "fusion_lat": 0.0}, {"type": "electric_bike", "rental_uris": {"ios": "https://dc.lft.to/lastmile_qr_scan", "android": "https://dc.lft.to/lastmile_qr_scan"}, "lon": -76.97584916666666, "fusion_lon": 0.0, "is_disabled": 0, "lat": 38.8402415, "bike_id": "a8d979b71d44ae696635376be6a041bf", "name": "a8d979b71d44ae696635376be6a041bf", "is_reserved": 0, "fusion_lat": 0.0}, {"type": "electric_scooter", "rental_uris": {"ios": "https://dc.lft.to/lastmile_qr_scan", "android": "https://dc.lft.to/lastmile_qr_scan"}, "lon": -76.989621, "fusion_lon": 0.0, "is_disabled": 0, "lat": 38.909447166666666, "bike_id": "07fc48ba6c913b3db687a50886b9cf6e", "name": "07fc48ba6c913b3db687a50886b9cf6e", "is_reserved": 0, "fusion_lat": 0.0}, {"type": "electric_scooter", "rental_uris": {"ios": "https://dc.lft.to/lastmile_qr_scan", "android": "https://dc.lft.to/lastmile_qr_scan"}, "lon": -77.0271755, "fusion_lon": 0.0, "is_disabled": 0, "lat": 38.901447166666664, "bike_id": "c3ff1d6d76b5807b5793726e249b83b4", "name": "c3ff1d6d76b5807b5793726e249b83b4", "is_reserved": 0, "fusion_lat": 0.0}, {"type": "electric_scooter", "rental_uris": {"ios": "https://dc.lft.to/lastmile_qr_scan", "android": "https://dc.lft.to/lastmile_qr_scan"}, "lon": -77.07303016666667, "fusion_lon": 0.0, "is_disabled": 0, "lat": 38.935372666666666, "bike_id": "df2bca1806815a61d62fbd979187fe1e", "name": "df2bca1806815a61d62fbd979187fe1e", "is_reserved": 0, "fusion_lat": 0.0}, {"type": "electric_scooter", "rental_uris": {"ios": "https://dc.lft.to/lastmile_qr_scan", "android": "https://dc.lft.to/lastmile_qr_scan"}, "lon": -77.0110395, "fusion_lon": 0.0, "is_disabled": 0, "lat": 38.90353733333333, "bike_id": "b015930177c4c8015494744cc08e8e02", "name": "b015930177c4c8015494744cc08e8e02", "is_reserved": 0, "fusion_lat": 0.0}, {"type": "electric_scooter", "rental_uris": {"ios": "https://dc.lft.to/lastmile_qr_scan", "android": "https://dc.lft.to/lastmile_qr_scan"}, "lon": -77.03448166666666, "fusion_lon": 0.0, "is_disabled": 0, "lat": 38.90739116666666, "bike_id": "5afb83362e33145db998609f66e6e229", "name": "5afb83362e33145db998609f66e6e229", "is_reserved": 0, "fusion_lat": 0.0}, {"type": "electric_scooter", "rental_uris": {"ios": "https://dc.lft.to/lastmile_qr_scan", "android": "https://dc.lft.to/lastmile_qr_scan"}, "lon": -77.003076, "fusion_lon": 0.0, "is_disabled": 0, "lat": 38.89195766666667, "bike_id": "639d64cfc823fb5c0ebdf68a1c63cb56", "name": "639d64cfc823fb5c0ebdf68a1c63cb56", "is_reserved": 0, "fusion_lat": 0.0}, {"type": "electric_scooter", "rental_uris": {"ios": "https://dc.lft.to/lastmile_qr_scan", "android": "https://dc.lft.to/lastmile_qr_scan"}, "lon": -77.0255915, "fusion_lon": 0.0, "is_disabled": 0, "lat": 38.92386283333333, "bike_id": "ff8e448024a8f8d76ff3001a902e84d8", "name": "ff8e448024a8f8d76ff3001a902e84d8", "is_reserved": 0, "fusion_lat": 0.0}, {"type": "electric_scooter", "rental_uris": {"ios": "https://dc.lft.to/lastmile_qr_scan", "android": "https://dc.lft.to/lastmile_qr_scan"}, "lon": -77.05813033333334, "fusion_lon": 0.0, "is_disabled": 0, "lat": 38.90276683333333, "bike_id": "c3d7b38b129373e6c821d1f3b84fb593", "name": "c3d7b38b129373e6c821d1f3b84fb593", "is_reserved": 0, "fusion_lat": 0.0}, {"type": "electric_scooter", "rental_uris": {"ios": "https://dc.lft.to/lastmile_qr_scan", "android": "https://dc.lft.to/lastmile_qr_scan"}, "lon": -76.98102766666666, "fusion_lon": 0.0, "is_disabled": 0, "lat": 38.903998, "bike_id": "2191483b48d07ca6ec961e51fe51b3ff", "name": "2191483b48d07ca6ec961e51fe51b3ff", "is_reserved": 0, "fusion_lat": 0.0}, {"type": "electric_scooter", "rental_uris": {"ios": "https://dc.lft.to/lastmile_qr_scan", "android": "https://dc.lft.to/lastmile_qr_scan"}, "lon": -76.93759216666666, "fusion_lon": 0.0, "is_disabled": 0, "lat": 38.89044616666666, "bike_id": "9eb1cf77372ba15a6741435e95c66639", "name": "9eb1cf77372ba15a6741435e95c66639", "is_reserved": 0, "fusion_lat": 0.0}, {"type": "electric_scooter", "rental_uris": {"ios": "https://dc.lft.to/lastmile_qr_scan", "android": "https://dc.lft.to/lastmile_qr_scan"}, "lon": -77.04032016666666, "fusion_lon": 0.0, "is_disabled": 0, "lat": 38.924427, "bike_id": "b897d9ba773df1fe44eae0377d3e5799", "name": "b897d9ba773df1fe44eae0377d3e5799", "is_reserved": 0, "fusion_lat": 0.0}, {"type": "electric_scooter", "rental_uris": {"ios": "https://dc.lft.to/lastmile_qr_scan", "android": "https://dc.lft.to/lastmile_qr_scan"}, "lon": -76.99766633333333, "fusion_lon": 0.0, "is_disabled": 0, "lat": 38.90028366666667, "bike_id": "cf885774a98c9159c13f0a9f615b7b6b", "name": "cf885774a98c9159c13f0a9f615b7b6b", "is_reserved": 0, "fusion_lat": 0.0}, {"type": "electric_scooter", "rental_uris": {"ios": "https://dc.lft.to/lastmile_qr_scan", "android": "https://dc.lft.to/lastmile_qr_scan"}, "lon": -77.04407, "fusion_lon": 0.0, "is_disabled": 0, "lat": 38.9014495, "bike_id": "7b14e6120d2ebf436d8767c5ead7b9c4", "name": "7b14e6120d2ebf436d8767c5ead7b9c4", "is_reserved": 0, "fusion_lat": 0.0}, {"type": "electric_scooter", "rental_uris": {"ios": "https://dc.lft.to/lastmile_qr_scan", "android": "https://dc.lft.to/lastmile_qr_scan"}, "lon": -77.02141816666666, "fusion_lon": 0.0, "is_disabled": 0, "lat": 38.925915, "bike_id": "cd06aebb011e418899fd7c9eddc1df6f", "name": "cd06aebb011e418899fd7c9eddc1df6f", "is_reserved": 0, "fusion_lat": 0.0}, {"type": "electric_bike", "rental_uris": {"ios": "https://dc.lft.to/lastmile_qr_scan", "android": "https://dc.lft.to/lastmile_qr_scan"}, "lon": -77.00824583333333, "fusion_lon": 0.0, "is_disabled": 0, "lat": 38.8776175, "bike_id": "0a09a7f8591dfb997973b221ab6001b8", "name": "0a09a7f8591dfb997973b221ab6001b8", "is_reserved": 0, "fusion_lat": 0.0}, {"type": "electric_scooter", "rental_uris": {"ios": "https://dc.lft.to/lastmile_qr_scan", "android": "https://dc.lft.to/lastmile_qr_scan"}, "lon": -77.04033516666667, "fusion_lon": 0.0, "is_disabled": 0, "lat": 38.900198333333336, "bike_id": "fedf2032ee28b8e6e0a1ab34fbe305e9", "name": "fedf2032ee28b8e6e0a1ab34fbe305e9", "is_reserved": 0, "fusion_lat": 0.0}, {"type": "electric_scooter", "rental_uris": {"ios": "https://dc.lft.to/lastmile_qr_scan", "android": "https://dc.lft.to/lastmile_qr_scan"}, "lon": -77.024749, "fusion_lon": 0.0, "is_disabled": 0, "lat": 38.93309083333333, "bike_id": "134d3cf86cf1326ac7879bf2d8593582", "name": "134d3cf86cf1326ac7879bf2d8593582", "is_reserved": 0, "fusion_lat": 0.0}, {"type": "electric_bike", "rental_uris": {"ios": "https://dc.lft.to/lastmile_qr_scan", "android": "https://dc.lft.to/lastmile_qr_scan"}, "lon": -77.04481416666667, "fusion_lon": 0.0, "is_disabled": 0, "lat": 38.84291316666667, "bike_id": "8f878170f84e77d1521574614dd54a82", "name": "8f878170f84e77d1521574614dd54a82", "is_reserved": 0, "fusion_lat": 0.0}, {"type": "electric_scooter", "rental_uris": {"ios": "https://dc.lft.to/lastmile_qr_scan", "android": "https://dc.lft.to/lastmile_qr_scan"}, "lon": -77.039421, "fusion_lon": 0.0, "is_disabled": 0, "lat": 38.92614066666667, "bike_id": "746067581b8f160ec5473a1f66dc9144", "name": "746067581b8f160ec5473a1f66dc9144", "is_reserved": 0, "fusion_lat": 0.0}, {"type": "electric_scooter", "rental_uris": {"ios": "https://dc.lft.to/lastmile_qr_scan", "android": "https://dc.lft.to/lastmile_qr_scan"}, "lon": -77.04013133333333, "fusion_lon": 0.0, "is_disabled": 0, "lat": 38.90999716666666, "bike_id": "d05169cdc4cea5462c6376647ae8fcfc", "name": "d05169cdc4cea5462c6376647ae8fcfc", "is_reserved": 0, "fusion_lat": 0.0}, {"type": "electric_scooter", "rental_uris": {"ios": "https://dc.lft.to/lastmile_qr_scan", "android": "https://dc.lft.to/lastmile_qr_scan"}, "lon": -77.04434866666666, "fusion_lon": 0.0, "is_disabled": 0, "lat": 38.912714, "bike_id": "7fb1c5e22ec3aa8c3e49ec15722d251f", "name": "7fb1c5e22ec3aa8c3e49ec15722d251f", "is_reserved": 0, "fusion_lat": 0.0}, {"type": "electric_scooter", "rental_uris": {"ios": "https://dc.lft.to/lastmile_qr_scan", "android": "https://dc.lft.to/lastmile_qr_scan"}, "lon": -77.03107883333334, "fusion_lon": 0.0, "is_disabled": 0, "lat": 38.950805, "bike_id": "61476af02caddfec277b575db71fb253", "name": "61476af02caddfec277b575db71fb253", "is_reserved": 0, "fusion_lat": 0.0}, {"type": "electric_scooter", "rental_uris": {"ios": "https://dc.lft.to/lastmile_qr_scan", "android": "https://dc.lft.to/lastmile_qr_scan"}, "lon": -77.03966266666667, "fusion_lon": 0.0, "is_disabled": 0, "lat": 38.89915, "bike_id": "b48b96346a31c389e2ae53d9bccf7ba2", "name": "b48b96346a31c389e2ae53d9bccf7ba2", "is_reserved": 0, "fusion_lat": 0.0}, {"type": "electric_scooter", "rental_uris": {"ios": "https://dc.lft.to/lastmile_qr_scan", "android": "https://dc.lft.to/lastmile_qr_scan"}, "lon": -77.0222055, "fusion_lon": 0.0, "is_disabled": 0, "lat": 38.892231, "bike_id": "36865f26e63dba6781dc9f3794e00ae5", "name": "36865f26e63dba6781dc9f3794e00ae5", "is_reserved": 0, "fusion_lat": 0.0}, {"type": "electric_scooter", "rental_uris": {"ios": "https://dc.lft.to/lastmile_qr_scan", "android": "https://dc.lft.to/lastmile_qr_scan"}, "lon": -77.07278966666667, "fusion_lon": 0.0, "is_disabled": 0, "lat": 38.93486016666667, "bike_id": "c3014d10fe81c1c39d85c4b0c18f2be1", "name": "c3014d10fe81c1c39d85c4b0c18f2be1", "is_reserved": 0, "fusion_lat": 0.0}, {"type": "electric_scooter", "rental_uris": {"ios": "https://dc.lft.to/lastmile_qr_scan", "android": "https://dc.lft.to/lastmile_qr_scan"}, "lon": -77.04323466666666, "fusion_lon": 0.0, "is_disabled": 0, "lat": 38.909220833333336, "bike_id": "f148959a7ecb65d846bbc6909b515599", "name": "f148959a7ecb65d846bbc6909b515599", "is_reserved": 0, "fusion_lat": 0.0}, {"type": "electric_scooter", "rental_uris": {"ios": "https://dc.lft.to/lastmile_qr_scan", "android": "https://dc.lft.to/lastmile_qr_scan"}, "lon": -77.021703, "fusion_lon": 0.0, "is_disabled": 0, "lat": 38.942926166666666, "bike_id": "a75568d4e4b265b7449d6cae5b237e6d", "name": "a75568d4e4b265b7449d6cae5b237e6d", "is_reserved": 0, "fusion_lat": 0.0}, {"type": "electric_bike", "rental_uris": {"ios": "https://dc.lft.to/lastmile_qr_scan", "android": "https://dc.lft.to/lastmile_qr_scan"}, "lon": -77.13146133333333, "fusion_lon": 0.0, "is_disabled": 0, "lat": 38.861691666666665, "bike_id": "c859c8f454191156f3848f199318678d", "name": "c859c8f454191156f3848f199318678d", "is_reserved": 0, "fusion_lat": 0.0}, {"type": "electric_scooter", "rental_uris": {"ios": "https://dc.lft.to/lastmile_qr_scan", "android": "https://dc.lft.to/lastmile_qr_scan"}, "lon": -77.02693583333334, "fusion_lon": 0.0, "is_disabled": 0, "lat": 38.90682733333333, "bike_id": "9ca8263052f780167c34eb62296b2cbb", "name": "9ca8263052f780167c34eb62296b2cbb", "is_reserved": 0, "fusion_lat": 0.0}, {"type": "electric_scooter", "rental_uris": {"ios": "https://dc.lft.to/lastmile_qr_scan", "android": "https://dc.lft.to/lastmile_qr_scan"}, "lon": -77.02492483333333, "fusion_lon": 0.0, "is_disabled": 0, "lat": 38.9418525, "bike_id": "29a4d7fa108ef7dafc8dd2047478fb20", "name": "29a4d7fa108ef7dafc8dd2047478fb20", "is_reserved": 0, "fusion_lat": 0.0}, {"type": "electric_scooter", "rental_uris": {"ios": "https://dc.lft.to/lastmile_qr_scan", "android": "https://dc.lft.to/lastmile_qr_scan"}, "lon": -77.02626483333333, "fusion_lon": 0.0, "is_disabled": 0, "lat": 38.88745683333333, "bike_id": "7b037f1c8d4d0ea883880fced2be5fcc", "name": "7b037f1c8d4d0ea883880fced2be5fcc", "is_reserved": 0, "fusion_lat": 0.0}, {"type": "electric_scooter", "rental_uris": {"ios": "https://dc.lft.to/lastmile_qr_scan", "android": "https://dc.lft.to/lastmile_qr_scan"}, "lon": -76.9871025, "fusion_lon": 0.0, "is_disabled": 0, "lat": 38.865421166666664, "bike_id": "cc6134d2b2b948c187426208586818ab", "name": "cc6134d2b2b948c187426208586818ab", "is_reserved": 0, "fusion_lat": 0.0}, {"type": "electric_scooter", "rental_uris": {"ios": "https://dc.lft.to/lastmile_qr_scan", "android": "https://dc.lft.to/lastmile_qr_scan"}, "lon": -77.05033616666667, "fusion_lon": 0.0, "is_disabled": 0, "lat": 38.9051115, "bike_id": "2e4fa8e95292c739a370653d6f786774", "name": "2e4fa8e95292c739a370653d6f786774", "is_reserved": 0, "fusion_lat": 0.0}, {"type": "electric_bike", "rental_uris": {"ios": "https://dc.lft.to/lastmile_qr_scan", "android": "https://dc.lft.to/lastmile_qr_scan"}, "lon": -76.97184333333334, "fusion_lon": 0.0, "is_disabled": 0, "lat": 38.91791883333333, "bike_id": "7a29896f7cf896846e52e445d316f5b2", "name": "7a29896f7cf896846e52e445d316f5b2", "is_reserved": 0, "fusion_lat": 0.0}, {"type": "electric_scooter", "rental_uris": {"ios": "https://dc.lft.to/lastmile_qr_scan", "android": "https://dc.lft.to/lastmile_qr_scan"}, "lon": -77.01135033333334, "fusion_lon": 0.0, "is_disabled": 0, "lat": 38.88525033333333, "bike_id": "fc6f5797723dd9a93a4bb728f54d3de7", "name": "fc6f5797723dd9a93a4bb728f54d3de7", "is_reserved": 0, "fusion_lat": 0.0}, {"type": "electric_scooter", "rental_uris": {"ios": "https://dc.lft.to/lastmile_qr_scan", "android": "https://dc.lft.to/lastmile_qr_scan"}, "lon": -77.04157516666666, "fusion_lon": 0.0, "is_disabled": 0, "lat": 38.91616166666667, "bike_id": "59faa1ed2d782fae6450c987c1a3d227", "name": "59faa1ed2d782fae6450c987c1a3d227", "is_reserved": 0, "fusion_lat": 0.0}, {"type": "electric_scooter", "rental_uris": {"ios": "https://dc.lft.to/lastmile_qr_scan", "android": "https://dc.lft.to/lastmile_qr_scan"}, "lon": -77.03510183333333, "fusion_lon": 0.0, "is_disabled": 0, "lat": 38.921551666666666, "bike_id": "b05dcdb2d04a12be122ebda7e9e32956", "name": "b05dcdb2d04a12be122ebda7e9e32956", "is_reserved": 0, "fusion_lat": 0.0}, {"type": "electric_scooter", "rental_uris": {"ios": "https://dc.lft.to/lastmile_qr_scan", "android": "https://dc.lft.to/lastmile_qr_scan"}, "lon": -77.0177535, "fusion_lon": 0.0, "is_disabled": 0, "lat": 38.90568183333333, "bike_id": "d3d4714a17b09e02dd841e4b0bc98842", "name": "d3d4714a17b09e02dd841e4b0bc98842", "is_reserved": 0, "fusion_lat": 0.0}, {"type": "electric_scooter", "rental_uris": {"ios": "https://dc.lft.to/lastmile_qr_scan", "android": "https://dc.lft.to/lastmile_qr_scan"}, "lon": -77.05507616666667, "fusion_lon": 0.0, "is_disabled": 0, "lat": 38.9366575, "bike_id": "99ef0408a133aeccdb1cf2efcb995bab", "name": "99ef0408a133aeccdb1cf2efcb995bab", "is_reserved": 0, "fusion_lat": 0.0}, {"type": "electric_scooter", "rental_uris": {"ios": "https://dc.lft.to/lastmile_qr_scan", "android": "https://dc.lft.to/lastmile_qr_scan"}, "lon": -77.02413216666666, "fusion_lon": 0.0, "is_disabled": 0, "lat": 38.89195316666667, "bike_id": "516622cbdc42e6714a8cb1de23cad5ba", "name": "516622cbdc42e6714a8cb1de23cad5ba", "is_reserved": 0, "fusion_lat": 0.0}, {"type": "electric_scooter", "rental_uris": {"ios": "https://dc.lft.to/lastmile_qr_scan", "android": "https://dc.lft.to/lastmile_qr_scan"}, "lon": -77.0261855, "fusion_lon": 0.0, "is_disabled": 0, "lat": 38.94829166666667, "bike_id": "5b6da9925dc3a7e560e16d995965d2b8", "name": "5b6da9925dc3a7e560e16d995965d2b8", "is_reserved": 0, "fusion_lat": 0.0}, {"type": "electric_bike", "rental_uris": {"ios": "https://dc.lft.to/lastmile_qr_scan", "android": "https://dc.lft.to/lastmile_qr_scan"}, "lon": -76.95201166666666, "fusion_lon": 0.0, "is_disabled": 0, "lat": 38.93674516666667, "bike_id": "c2ba49f0f6672502ca3c5548f7dd745d", "name": "c2ba49f0f6672502ca3c5548f7dd745d", "is_reserved": 0, "fusion_lat": 0.0}, {"type": "electric_scooter", "rental_uris": {"ios": "https://dc.lft.to/lastmile_qr_scan", "android": "https://dc.lft.to/lastmile_qr_scan"}, "lon": -77.02982966666667, "fusion_lon": 0.0, "is_disabled": 0, "lat": 38.907243, "bike_id": "55ec9ebce7c09a72e9bdb6947dc70897", "name": "55ec9ebce7c09a72e9bdb6947dc70897", "is_reserved": 0, "fusion_lat": 0.0}, {"type": "electric_bike", "rental_uris": {"ios": "https://dc.lft.to/lastmile_qr_scan", "android": "https://dc.lft.to/lastmile_qr_scan"}, "lon": -76.9726625, "fusion_lon": 0.0, "is_disabled": 0, "lat": 38.919620333333334, "bike_id": "8ecbabcd261b50b31a44a4a2aa353926", "name": "8ecbabcd261b50b31a44a4a2aa353926", "is_reserved": 0, "fusion_lat": 0.0}, {"type": "electric_scooter", "rental_uris": {"ios": "https://dc.lft.to/lastmile_qr_scan", "android": "https://dc.lft.to/lastmile_qr_scan"}, "lon": -77.00986666666667, "fusion_lon": 0.0, "is_disabled": 0, "lat": 38.87292433333333, "bike_id": "d8310f9aaeaa79a32688e8c547b1dca8", "name": "d8310f9aaeaa79a32688e8c547b1dca8", "is_reserved": 0, "fusion_lat": 0.0}, {"type": "electric_scooter", "rental_uris": {"ios": "https://dc.lft.to/lastmile_qr_scan", "android": "https://dc.lft.to/lastmile_qr_scan"}, "lon": -77.0397095, "fusion_lon": 0.0, "is_disabled": 0, "lat": 38.8988635, "bike_id": "d28a8a8ba896d06bff58cd0cecb08737", "name": "d28a8a8ba896d06bff58cd0cecb08737", "is_reserved": 0, "fusion_lat": 0.0}, {"type": "electric_scooter", "rental_uris": {"ios": "https://dc.lft.to/lastmile_qr_scan", "android": "https://dc.lft.to/lastmile_qr_scan"}, "lon": -77.01943916666667, "fusion_lon": 0.0, "is_disabled": 0, "lat": 38.948537333333334, "bike_id": "5ba9616f83a99baa0fd0da3af06f38dd", "name": "5ba9616f83a99baa0fd0da3af06f38dd", "is_reserved": 0, "fusion_lat": 0.0}, {"type": "electric_scooter", "rental_uris": {"ios": "https://dc.lft.to/lastmile_qr_scan", "android": "https://dc.lft.to/lastmile_qr_scan"}, "lon": -77.02435666666666, "fusion_lon": 0.0, "is_disabled": 0, "lat": 38.918453166666666, "bike_id": "cfef12f04ba4609c8e1c252027ef5c61", "name": "cfef12f04ba4609c8e1c252027ef5c61", "is_reserved": 0, "fusion_lat": 0.0}, {"type": "electric_scooter", "rental_uris": {"ios": "https://dc.lft.to/lastmile_qr_scan", "android": "https://dc.lft.to/lastmile_qr_scan"}, "lon": -77.021599, "fusion_lon": 0.0, "is_disabled": 0, "lat": 38.92496916666666, "bike_id": "f2d236fbfeb72ba029884670fc213382", "name": "f2d236fbfeb72ba029884670fc213382", "is_reserved": 0, "fusion_lat": 0.0}, {"type": "electric_bike", "rental_uris": {"ios": "https://dc.lft.to/lastmile_qr_scan", "android": "https://dc.lft.to/lastmile_qr_scan"}, "lon": -77.03149883333333, "fusion_lon": 0.0, "is_disabled": 0, "lat": 38.99437116666667, "bike_id": "4b3ed3fc7c4425c364276542c4f21a58", "name": "4b3ed3fc7c4425c364276542c4f21a58", "is_reserved": 0, "fusion_lat": 0.0}, {"type": "electric_bike", "rental_uris": {"ios": "https://dc.lft.to/lastmile_qr_scan", "android": "https://dc.lft.to/lastmile_qr_scan"}, "lon": -77.21647683333333, "fusion_lon": 0.0, "is_disabled": 0, "lat": 38.93010133333333, "bike_id": "4650f020690716e95e2b831519ec66a8", "name": "4650f020690716e95e2b831519ec66a8", "is_reserved": 0, "fusion_lat": 0.0}, {"type": "electric_scooter", "rental_uris": {"ios": "https://dc.lft.to/lastmile_qr_scan", "android": "https://dc.lft.to/lastmile_qr_scan"}, "lon": -77.03628633333334, "fusion_lon": 0.0, "is_disabled": 0, "lat": 38.903049, "bike_id": "7f7d181719facefa504c73d13a222ddd", "name": "7f7d181719facefa504c73d13a222ddd", "is_reserved": 0, "fusion_lat": 0.0}, {"type": "electric_scooter", "rental_uris": {"ios": "https://dc.lft.to/lastmile_qr_scan", "android": "https://dc.lft.to/lastmile_qr_scan"}, "lon": -77.01865133333334, "fusion_lon": 0.0, "is_disabled": 0, "lat": 38.97358916666666, "bike_id": "6c0bd1957eeedc48911eab955b08c9e8", "name": "6c0bd1957eeedc48911eab955b08c9e8", "is_reserved": 0, "fusion_lat": 0.0}, {"type": "electric_bike", "rental_uris": {"ios": "https://dc.lft.to/lastmile_qr_scan", "android": "https://dc.lft.to/lastmile_qr_scan"}, "lon": -76.9605835, "fusion_lon": 0.0, "is_disabled": 0, "lat": 38.884068166666665, "bike_id": "b40121e758a132bac2a67b85cb204cbb", "name": "b40121e758a132bac2a67b85cb204cbb", "is_reserved": 0, "fusion_lat": 0.0}, {"type": "electric_bike", "rental_uris": {"ios": "https://dc.lft.to/lastmile_qr_scan", "android": "https://dc.lft.to/lastmile_qr_scan"}, "lon": -77.0587305, "fusion_lon": 0.0, "is_disabled": 0, "lat": 38.958957166666664, "bike_id": "a8d996a8f9294ff392e26477991cc884", "name": "a8d996a8f9294ff392e26477991cc884", "is_reserved": 0, "fusion_lat": 0.0}, {"type": "electric_scooter", "rental_uris": {"ios": "https://dc.lft.to/lastmile_qr_scan", "android": "https://dc.lft.to/lastmile_qr_scan"}, "lon": -77.00071966666667, "fusion_lon": 0.0, "is_disabled": 0, "lat": 38.9255655, "bike_id": "de274dcd8e9a3fe799b9f8149373d56d", "name": "de274dcd8e9a3fe799b9f8149373d56d", "is_reserved": 0, "fusion_lat": 0.0}, {"type": "electric_scooter", "rental_uris": {"ios": "https://dc.lft.to/lastmile_qr_scan", "android": "https://dc.lft.to/lastmile_qr_scan"}, "lon": -77.04116533333334, "fusion_lon": 0.0, "is_disabled": 0, "lat": 38.899155, "bike_id": "efb47874d4f04a6bb092b7e59e839e78", "name": "efb47874d4f04a6bb092b7e59e839e78", "is_reserved": 0, "fusion_lat": 0.0}, {"type": "electric_scooter", "rental_uris": {"ios": "https://dc.lft.to/lastmile_qr_scan", "android": "https://dc.lft.to/lastmile_qr_scan"}, "lon": -77.03221933333333, "fusion_lon": 0.0, "is_disabled": 0, "lat": 38.9200085, "bike_id": "470b8b836ac119a95b6591aa184d7b0d", "name": "470b8b836ac119a95b6591aa184d7b0d", "is_reserved": 0, "fusion_lat": 0.0}, {"type": "electric_scooter", "rental_uris": {"ios": "https://dc.lft.to/lastmile_qr_scan", "android": "https://dc.lft.to/lastmile_qr_scan"}, "lon": -77.015898, "fusion_lon": 0.0, "is_disabled": 0, "lat": 38.92843416666667, "bike_id": "6ff5d348bb6919b908a4886550be6f6d", "name": "6ff5d348bb6919b908a4886550be6f6d", "is_reserved": 0, "fusion_lat": 0.0}, {"type": "electric_scooter", "rental_uris": {"ios": "https://dc.lft.to/lastmile_qr_scan", "android": "https://dc.lft.to/lastmile_qr_scan"}, "lon": -77.02587633333333, "fusion_lon": 0.0, "is_disabled": 0, "lat": 38.90409533333333, "bike_id": "76a898fe548478a228993a72adc296d5", "name": "76a898fe548478a228993a72adc296d5", "is_reserved": 0, "fusion_lat": 0.0}, {"type": "electric_scooter", "rental_uris": {"ios": "https://dc.lft.to/lastmile_qr_scan", "android": "https://dc.lft.to/lastmile_qr_scan"}, "lon": -77.04607483333334, "fusion_lon": 0.0, "is_disabled": 0, "lat": 38.902510166666666, "bike_id": "09c318219d8bf14884dbfba5884998f3", "name": "09c318219d8bf14884dbfba5884998f3", "is_reserved": 0, "fusion_lat": 0.0}, {"type": "electric_scooter", "rental_uris": {"ios": "https://dc.lft.to/lastmile_qr_scan", "android": "https://dc.lft.to/lastmile_qr_scan"}, "lon": -77.07253333333334, "fusion_lon": 0.0, "is_disabled": 0, "lat": 38.912663, "bike_id": "7b3c46caf081cdd2372b1952658bc4af", "name": "7b3c46caf081cdd2372b1952658bc4af", "is_reserved": 0, "fusion_lat": 0.0}, {"type": "electric_scooter", "rental_uris": {"ios": "https://dc.lft.to/lastmile_qr_scan", "android": "https://dc.lft.to/lastmile_qr_scan"}, "lon": -77.03264883333334, "fusion_lon": 0.0, "is_disabled": 0, "lat": 38.935219333333336, "bike_id": "74425cad127a77a10051d70e8a396090", "name": "74425cad127a77a10051d70e8a396090", "is_reserved": 0, "fusion_lat": 0.0}, {"type": "electric_scooter", "rental_uris": {"ios": "https://dc.lft.to/lastmile_qr_scan", "android": "https://dc.lft.to/lastmile_qr_scan"}, "lon": -77.02182733333333, "fusion_lon": 0.0, "is_disabled": 0, "lat": 38.892998666666664, "bike_id": "ff241761e80f28d763cc9a6f9d31bb3d", "name": "ff241761e80f28d763cc9a6f9d31bb3d", "is_reserved": 0, "fusion_lat": 0.0}, {"type": "electric_scooter", "rental_uris": {"ios": "https://dc.lft.to/lastmile_qr_scan", "android": "https://dc.lft.to/lastmile_qr_scan"}, "lon": -77.05756983333333, "fusion_lon": 0.0, "is_disabled": 0, "lat": 38.925771166666664, "bike_id": "fab02c7e927553e5141b546068972d89", "name": "fab02c7e927553e5141b546068972d89", "is_reserved": 0, "fusion_lat": 0.0}, {"type": "electric_bike", "rental_uris": {"ios": "https://dc.lft.to/lastmile_qr_scan", "android": "https://dc.lft.to/lastmile_qr_scan"}, "lon": -76.98557216666667, "fusion_lon": 0.0, "is_disabled": 0, "lat": 38.8520875, "bike_id": "cf0aa5f5d02fdb488c5c393206bbcf47", "name": "cf0aa5f5d02fdb488c5c393206bbcf47", "is_reserved": 0, "fusion_lat": 0.0}, {"type": "electric_scooter", "rental_uris": {"ios": "https://dc.lft.to/lastmile_qr_scan", "android": "https://dc.lft.to/lastmile_qr_scan"}, "lon": -77.00043316666667, "fusion_lon": 0.0, "is_disabled": 0, "lat": 38.874731, "bike_id": "9e0eaf442c9fd097f75b21cb556daf37", "name": "9e0eaf442c9fd097f75b21cb556daf37", "is_reserved": 0, "fusion_lat": 0.0}, {"type": "electric_scooter", "rental_uris": {"ios": "https://dc.lft.to/lastmile_qr_scan", "android": "https://dc.lft.to/lastmile_qr_scan"}, "lon": -77.0315725, "fusion_lon": 0.0, "is_disabled": 0, "lat": 38.89223883333333, "bike_id": "5d9022f4f964a1ab91b460fae026a23f", "name": "5d9022f4f964a1ab91b460fae026a23f", "is_reserved": 0, "fusion_lat": 0.0}, {"type": "electric_scooter", "rental_uris": {"ios": "https://dc.lft.to/lastmile_qr_scan", "android": "https://dc.lft.to/lastmile_qr_scan"}, "lon": -77.0222065, "fusion_lon": 0.0, "is_disabled": 0, "lat": 38.892208833333335, "bike_id": "f6082f81c4df3519d1f8330b0edd754c", "name": "f6082f81c4df3519d1f8330b0edd754c", "is_reserved": 0, "fusion_lat": 0.0}, {"type": "electric_scooter", "rental_uris": {"ios": "https://dc.lft.to/lastmile_qr_scan", "android": "https://dc.lft.to/lastmile_qr_scan"}, "lon": -77.02480883333334, "fusion_lon": 0.0, "is_disabled": 0, "lat": 38.919452666666665, "bike_id": "b0b0ea80b6ac5a6f27db5ec5f5620e2c", "name": "b0b0ea80b6ac5a6f27db5ec5f5620e2c", "is_reserved": 0, "fusion_lat": 0.0}, {"type": "electric_scooter", "rental_uris": {"ios": "https://dc.lft.to/lastmile_qr_scan", "android": "https://dc.lft.to/lastmile_qr_scan"}, "lon": -77.02436916666667, "fusion_lon": 0.0, "is_disabled": 0, "lat": 38.90248316666667, "bike_id": "d80be7e655f57ac3d7221a2acca5927f", "name": "d80be7e655f57ac3d7221a2acca5927f", "is_reserved": 0, "fusion_lat": 0.0}, {"type": "electric_scooter", "rental_uris": {"ios": "https://dc.lft.to/lastmile_qr_scan", "android": "https://dc.lft.to/lastmile_qr_scan"}, "lon": -76.99410683333333, "fusion_lon": 0.0, "is_disabled": 0, "lat": 38.87788616666667, "bike_id": "96db0f5ae63795d5d7654fd333b9d1ac", "name": "96db0f5ae63795d5d7654fd333b9d1ac", "is_reserved": 0, "fusion_lat": 0.0}, {"type": "electric_scooter", "rental_uris": {"ios": "https://dc.lft.to/lastmile_qr_scan", "android": "https://dc.lft.to/lastmile_qr_scan"}, "lon": -77.02416816666667, "fusion_lon": 0.0, "is_disabled": 0, "lat": 38.93362916666667, "bike_id": "96ada0f0db7a40e57f885443b3c42926", "name": "96ada0f0db7a40e57f885443b3c42926", "is_reserved": 0, "fusion_lat": 0.0}, {"type": "electric_scooter", "rental_uris": {"ios": "https://dc.lft.to/lastmile_qr_scan", "android": "https://dc.lft.to/lastmile_qr_scan"}, "lon": -77.01716016666667, "fusion_lon": 0.0, "is_disabled": 0, "lat": 38.911194333333334, "bike_id": "33573c6de8310ac4429cf713b420a71b", "name": "33573c6de8310ac4429cf713b420a71b", "is_reserved": 0, "fusion_lat": 0.0}, {"type": "electric_scooter", "rental_uris": {"ios": "https://dc.lft.to/lastmile_qr_scan", "android": "https://dc.lft.to/lastmile_qr_scan"}, "lon": -76.99611816666666, "fusion_lon": 0.0, "is_disabled": 0, "lat": 38.88720683333333, "bike_id": "9762cfff1a68cb05dc2101ef30ce5aab", "name": "9762cfff1a68cb05dc2101ef30ce5aab", "is_reserved": 0, "fusion_lat": 0.0}, {"type": "electric_scooter", "rental_uris": {"ios": "https://dc.lft.to/lastmile_qr_scan", "android": "https://dc.lft.to/lastmile_qr_scan"}, "lon": -77.03254233333334, "fusion_lon": 0.0, "is_disabled": 0, "lat": 38.918157666666666, "bike_id": "2b9e1c549079d272b2ec11c316f75d4d", "name": "2b9e1c549079d272b2ec11c316f75d4d", "is_reserved": 0, "fusion_lat": 0.0}, {"type": "electric_scooter", "rental_uris": {"ios": "https://dc.lft.to/lastmile_qr_scan", "android": "https://dc.lft.to/lastmile_qr_scan"}, "lon": -77.01175533333333, "fusion_lon": 0.0, "is_disabled": 0, "lat": 38.915718166666665, "bike_id": "86a7b51a5ac7620a76e33ba609ab66d0", "name": "86a7b51a5ac7620a76e33ba609ab66d0", "is_reserved": 0, "fusion_lat": 0.0}, {"type": "electric_scooter", "rental_uris": {"ios": "https://dc.lft.to/lastmile_qr_scan", "android": "https://dc.lft.to/lastmile_qr_scan"}, "lon": -76.99094183333334, "fusion_lon": 0.0, "is_disabled": 0, "lat": 38.929532333333334, "bike_id": "ebd0b6f8be173a3fa543847edb50977c", "name": "ebd0b6f8be173a3fa543847edb50977c", "is_reserved": 0, "fusion_lat": 0.0}, {"type": "electric_scooter", "rental_uris": {"ios": "https://dc.lft.to/lastmile_qr_scan", "android": "https://dc.lft.to/lastmile_qr_scan"}, "lon": -76.946352, "fusion_lon": 0.0, "is_disabled": 0, "lat": 38.8984645, "bike_id": "e7692fafa943764fb34b00da74a70f36", "name": "e7692fafa943764fb34b00da74a70f36", "is_reserved": 0, "fusion_lat": 0.0}, {"type": "electric_scooter", "rental_uris": {"ios": "https://dc.lft.to/lastmile_qr_scan", "android": "https://dc.lft.to/lastmile_qr_scan"}, "lon": -77.04193766666667, "fusion_lon": 0.0, "is_disabled": 0, "lat": 38.92058683333333, "bike_id": "f86130008bedf10969018d705c8c2913", "name": "f86130008bedf10969018d705c8c2913", "is_reserved": 0, "fusion_lat": 0.0}, {"type": "electric_scooter", "rental_uris": {"ios": "https://dc.lft.to/lastmile_qr_scan", "android": "https://dc.lft.to/lastmile_qr_scan"}, "lon": -76.99606283333334, "fusion_lon": 0.0, "is_disabled": 0, "lat": 38.909665833333335, "bike_id": "8d53b61eb736a427469d50e0f460ec14", "name": "8d53b61eb736a427469d50e0f460ec14", "is_reserved": 0, "fusion_lat": 0.0}, {"type": "electric_scooter", "rental_uris": {"ios": "https://dc.lft.to/lastmile_qr_scan", "android": "https://dc.lft.to/lastmile_qr_scan"}, "lon": -77.026344, "fusion_lon": 0.0, "is_disabled": 0, "lat": 38.901200333333335, "bike_id": "c0a45fa6571a99e087e3460d49de08af", "name": "c0a45fa6571a99e087e3460d49de08af", "is_reserved": 0, "fusion_lat": 0.0}, {"type": "electric_scooter", "rental_uris": {"ios": "https://dc.lft.to/lastmile_qr_scan", "android": "https://dc.lft.to/lastmile_qr_scan"}, "lon": -77.04127866666667, "fusion_lon": 0.0, "is_disabled": 0, "lat": 38.91709216666667, "bike_id": "64f5e61ad72f195419f3979ed7455c1f", "name": "64f5e61ad72f195419f3979ed7455c1f", "is_reserved": 0, "fusion_lat": 0.0}, {"type": "electric_scooter", "rental_uris": {"ios": "https://dc.lft.to/lastmile_qr_scan", "android": "https://dc.lft.to/lastmile_qr_scan"}, "lon": -76.99520233333334, "fusion_lon": 0.0, "is_disabled": 0, "lat": 38.86262883333333, "bike_id": "9418e21f5c64327ebf428a4b76dd0bf1", "name": "9418e21f5c64327ebf428a4b76dd0bf1", "is_reserved": 0, "fusion_lat": 0.0}, {"type": "electric_scooter", "rental_uris": {"ios": "https://dc.lft.to/lastmile_qr_scan", "android": "https://dc.lft.to/lastmile_qr_scan"}, "lon": -77.026586, "fusion_lon": 0.0, "is_disabled": 0, "lat": 38.902396833333334, "bike_id": "3aa27dfd3e88f10b3288a0b48ec37d80", "name": "3aa27dfd3e88f10b3288a0b48ec37d80", "is_reserved": 0, "fusion_lat": 0.0}, {"type": "electric_scooter", "rental_uris": {"ios": "https://dc.lft.to/lastmile_qr_scan", "android": "https://dc.lft.to/lastmile_qr_scan"}, "lon": -77.061947, "fusion_lon": 0.0, "is_disabled": 0, "lat": 38.910629166666666, "bike_id": "78cf1ff6b05c24b48d12779c0e7a59f7", "name": "78cf1ff6b05c24b48d12779c0e7a59f7", "is_reserved": 0, "fusion_lat": 0.0}, {"type": "electric_scooter", "rental_uris": {"ios": "https://dc.lft.to/lastmile_qr_scan", "android": "https://dc.lft.to/lastmile_qr_scan"}, "lon": -77.04222816666666, "fusion_lon": 0.0, "is_disabled": 0, "lat": 38.903426333333336, "bike_id": "d74c481c69b83a9a7b71838f9bfbcfe6", "name": "d74c481c69b83a9a7b71838f9bfbcfe6", "is_reserved": 0, "fusion_lat": 0.0}, {"type": "electric_scooter", "rental_uris": {"ios": "https://dc.lft.to/lastmile_qr_scan", "android": "https://dc.lft.to/lastmile_qr_scan"}, "lon": -77.0276395, "fusion_lon": 0.0, "is_disabled": 0, "lat": 38.954244833333334, "bike_id": "85da980bcda8ce6e01555c014e57639b", "name": "85da980bcda8ce6e01555c014e57639b", "is_reserved": 0, "fusion_lat": 0.0}, {"type": "electric_scooter", "rental_uris": {"ios": "https://dc.lft.to/lastmile_qr_scan", "android": "https://dc.lft.to/lastmile_qr_scan"}, "lon": -77.038228, "fusion_lon": 0.0, "is_disabled": 0, "lat": 38.90331416666667, "bike_id": "ac9f31b7746271faa643cd861f8adc11", "name": "ac9f31b7746271faa643cd861f8adc11", "is_reserved": 0, "fusion_lat": 0.0}, {"type": "electric_scooter", "rental_uris": {"ios": "https://dc.lft.to/lastmile_qr_scan", "android": "https://dc.lft.to/lastmile_qr_scan"}, "lon": -77.03181766666667, "fusion_lon": 0.0, "is_disabled": 0, "lat": 38.89227616666667, "bike_id": "36d110ae9e94205ac4ae5e6e2cad1f38", "name": "36d110ae9e94205ac4ae5e6e2cad1f38", "is_reserved": 0, "fusion_lat": 0.0}, {"type": "electric_scooter", "rental_uris": {"ios": "https://dc.lft.to/lastmile_qr_scan", "android": "https://dc.lft.to/lastmile_qr_scan"}, "lon": -77.03857133333334, "fusion_lon": 0.0, "is_disabled": 0, "lat": 38.91551233333333, "bike_id": "221d8b0c23a8928d6604ec661ec78f5a", "name": "221d8b0c23a8928d6604ec661ec78f5a", "is_reserved": 0, "fusion_lat": 0.0}, {"type": "electric_scooter", "rental_uris": {"ios": "https://dc.lft.to/lastmile_qr_scan", "android": "https://dc.lft.to/lastmile_qr_scan"}, "lon": -77.04564066666667, "fusion_lon": 0.0, "is_disabled": 0, "lat": 38.905511, "bike_id": "898b6c2e4e346783390b87334b5b96c9", "name": "898b6c2e4e346783390b87334b5b96c9", "is_reserved": 0, "fusion_lat": 0.0}, {"type": "electric_scooter", "rental_uris": {"ios": "https://dc.lft.to/lastmile_qr_scan", "android": "https://dc.lft.to/lastmile_qr_scan"}, "lon": -77.03161883333334, "fusion_lon": 0.0, "is_disabled": 0, "lat": 38.89225666666667, "bike_id": "ae0f4aae6764503365fd2c121074efda", "name": "ae0f4aae6764503365fd2c121074efda", "is_reserved": 0, "fusion_lat": 0.0}, {"type": "electric_scooter", "rental_uris": {"ios": "https://dc.lft.to/lastmile_qr_scan", "android": "https://dc.lft.to/lastmile_qr_scan"}, "lon": -76.9949665, "fusion_lon": 0.0, "is_disabled": 0, "lat": 38.8624285, "bike_id": "519963f47f7a85f75c0f87e91b8866c6", "name": "519963f47f7a85f75c0f87e91b8866c6", "is_reserved": 0, "fusion_lat": 0.0}, {"type": "electric_scooter", "rental_uris": {"ios": "https://dc.lft.to/lastmile_qr_scan", "android": "https://dc.lft.to/lastmile_qr_scan"}, "lon": -77.051309, "fusion_lon": 0.0, "is_disabled": 0, "lat": 38.923601166666664, "bike_id": "c2e1088536225da0ccba8d9f8c12737e", "name": "c2e1088536225da0ccba8d9f8c12737e", "is_reserved": 0, "fusion_lat": 0.0}, {"type": "electric_scooter", "rental_uris": {"ios": "https://dc.lft.to/lastmile_qr_scan", "android": "https://dc.lft.to/lastmile_qr_scan"}, "lon": -77.042146, "fusion_lon": 0.0, "is_disabled": 0, "lat": 38.911216, "bike_id": "c3d1dd7c7b19267cb8528c1d03eaa470", "name": "c3d1dd7c7b19267cb8528c1d03eaa470", "is_reserved": 0, "fusion_lat": 0.0}, {"type": "electric_scooter", "rental_uris": {"ios": "https://dc.lft.to/lastmile_qr_scan", "android": "https://dc.lft.to/lastmile_qr_scan"}, "lon": -77.02803366666667, "fusion_lon": 0.0, "is_disabled": 0, "lat": 38.892286666666664, "bike_id": "4fbaa07c932e7e140bcf1bd3a25b2671", "name": "4fbaa07c932e7e140bcf1bd3a25b2671", "is_reserved": 0, "fusion_lat": 0.0}, {"type": "electric_scooter", "rental_uris": {"ios": "https://dc.lft.to/lastmile_qr_scan", "android": "https://dc.lft.to/lastmile_qr_scan"}, "lon": -77.033834, "fusion_lon": 0.0, "is_disabled": 0, "lat": 38.909957166666665, "bike_id": "09d3a52c25e90cad23c8616ff01158e7", "name": "09d3a52c25e90cad23c8616ff01158e7", "is_reserved": 0, "fusion_lat": 0.0}, {"type": "electric_bike", "rental_uris": {"ios": "https://dc.lft.to/lastmile_qr_scan", "android": "https://dc.lft.to/lastmile_qr_scan"}, "lon": -77.076436, "fusion_lon": 0.0, "is_disabled": 0, "lat": 38.90610483333333, "bike_id": "4545115843adab8fac65d2177d467230", "name": "4545115843adab8fac65d2177d467230", "is_reserved": 0, "fusion_lat": 0.0}, {"type": "electric_scooter", "rental_uris": {"ios": "https://dc.lft.to/lastmile_qr_scan", "android": "https://dc.lft.to/lastmile_qr_scan"}, "lon": -77.02007766666667, "fusion_lon": 0.0, "is_disabled": 0, "lat": 38.91565883333333, "bike_id": "23debf7525ab50fb2dd465ffc428eb87", "name": "23debf7525ab50fb2dd465ffc428eb87", "is_reserved": 0, "fusion_lat": 0.0}, {"type": "electric_scooter", "rental_uris": {"ios": "https://dc.lft.to/lastmile_qr_scan", "android": "https://dc.lft.to/lastmile_qr_scan"}, "lon": -76.91168566666667, "fusion_lon": 0.0, "is_disabled": 0, "lat": 38.893973, "bike_id": "9411ca2dac5950c3352af67943d5f1f8", "name": "9411ca2dac5950c3352af67943d5f1f8", "is_reserved": 0, "fusion_lat": 0.0}, {"type": "electric_scooter", "rental_uris": {"ios": "https://dc.lft.to/lastmile_qr_scan", "android": "https://dc.lft.to/lastmile_qr_scan"}, "lon": -76.99947616666667, "fusion_lon": 0.0, "is_disabled": 0, "lat": 38.842984333333334, "bike_id": "6c0d2fde55c9e32ccabc57c037f70894", "name": "6c0d2fde55c9e32ccabc57c037f70894", "is_reserved": 0, "fusion_lat": 0.0}, {"type": "electric_scooter", "rental_uris": {"ios": "https://dc.lft.to/lastmile_qr_scan", "android": "https://dc.lft.to/lastmile_qr_scan"}, "lon": -77.045052, "fusion_lon": 0.0, "is_disabled": 0, "lat": 38.9036195, "bike_id": "6dd07930d76f3c3edcdec018689c974e", "name": "6dd07930d76f3c3edcdec018689c974e", "is_reserved": 0, "fusion_lat": 0.0}, {"type": "electric_scooter", "rental_uris": {"ios": "https://dc.lft.to/lastmile_qr_scan", "android": "https://dc.lft.to/lastmile_qr_scan"}, "lon": -77.05131133333333, "fusion_lon": 0.0, "is_disabled": 0, "lat": 38.923638, "bike_id": "e902cfa2adffe9bd4488377d31351854", "name": "e902cfa2adffe9bd4488377d31351854", "is_reserved": 0, "fusion_lat": 0.0}, {"type": "electric_scooter", "rental_uris": {"ios": "https://dc.lft.to/lastmile_qr_scan", "android": "https://dc.lft.to/lastmile_qr_scan"}, "lon": -77.0425335, "fusion_lon": 0.0, "is_disabled": 0, "lat": 38.9219675, "bike_id": "e220dd24a843af6fbdfd4554c294bc6f", "name": "e220dd24a843af6fbdfd4554c294bc6f", "is_reserved": 0, "fusion_lat": 0.0}, {"type": "electric_scooter", "rental_uris": {"ios": "https://dc.lft.to/lastmile_qr_scan", "android": "https://dc.lft.to/lastmile_qr_scan"}, "lon": -77.04654216666667, "fusion_lon": 0.0, "is_disabled": 0, "lat": 38.90552133333333, "bike_id": "f9c9e888b1b6409ffc47aea74caf4a90", "name": "f9c9e888b1b6409ffc47aea74caf4a90", "is_reserved": 0, "fusion_lat": 0.0}, {"type": "electric_scooter", "rental_uris": {"ios": "https://dc.lft.to/lastmile_qr_scan", "android": "https://dc.lft.to/lastmile_qr_scan"}, "lon": -77.03343866666667, "fusion_lon": 0.0, "is_disabled": 0, "lat": 38.90253416666667, "bike_id": "389ac8f6f964921d8803a864b8b5716e", "name": "389ac8f6f964921d8803a864b8b5716e", "is_reserved": 0, "fusion_lat": 0.0}, {"type": "electric_scooter", "rental_uris": {"ios": "https://dc.lft.to/lastmile_qr_scan", "android": "https://dc.lft.to/lastmile_qr_scan"}, "lon": -77.04035433333334, "fusion_lon": 0.0, "is_disabled": 0, "lat": 38.91804616666667, "bike_id": "7de29a302ce157e48f446179682b67b4", "name": "7de29a302ce157e48f446179682b67b4", "is_reserved": 0, "fusion_lat": 0.0}, {"type": "electric_scooter", "rental_uris": {"ios": "https://dc.lft.to/lastmile_qr_scan", "android": "https://dc.lft.to/lastmile_qr_scan"}, "lon": -77.05511783333333, "fusion_lon": 0.0, "is_disabled": 0, "lat": 38.944136666666665, "bike_id": "97fe124770f7ae9c43affe36d70df36f", "name": "97fe124770f7ae9c43affe36d70df36f", "is_reserved": 0, "fusion_lat": 0.0}, {"type": "electric_scooter", "rental_uris": {"ios": "https://dc.lft.to/lastmile_qr_scan", "android": "https://dc.lft.to/lastmile_qr_scan"}, "lon": -77.04472583333333, "fusion_lon": 0.0, "is_disabled": 0, "lat": 38.911065, "bike_id": "f8e77c8acb2b35bcf6fce83efe7a51a9", "name": "f8e77c8acb2b35bcf6fce83efe7a51a9", "is_reserved": 0, "fusion_lat": 0.0}, {"type": "electric_scooter", "rental_uris": {"ios": "https://dc.lft.to/lastmile_qr_scan", "android": "https://dc.lft.to/lastmile_qr_scan"}, "lon": -77.0315085, "fusion_lon": 0.0, "is_disabled": 0, "lat": 38.911137333333336, "bike_id": "819a3c7150898e57ad90f2210aea438e", "name": "819a3c7150898e57ad90f2210aea438e", "is_reserved": 0, "fusion_lat": 0.0}, {"type": "electric_scooter", "rental_uris": {"ios": "https://dc.lft.to/lastmile_qr_scan", "android": "https://dc.lft.to/lastmile_qr_scan"}, "lon": -77.02175883333334, "fusion_lon": 0.0, "is_disabled": 0, "lat": 38.906195333333336, "bike_id": "24c4aac71cb5772153f5f872e8777b3a", "name": "24c4aac71cb5772153f5f872e8777b3a", "is_reserved": 0, "fusion_lat": 0.0}, {"type": "electric_scooter", "rental_uris": {"ios": "https://dc.lft.to/lastmile_qr_scan", "android": "https://dc.lft.to/lastmile_qr_scan"}, "lon": -76.98505983333334, "fusion_lon": 0.0, "is_disabled": 0, "lat": 38.8947925, "bike_id": "ad0eb7f503e68b1d3b63bdbc7e546ece", "name": "ad0eb7f503e68b1d3b63bdbc7e546ece", "is_reserved": 0, "fusion_lat": 0.0}, {"type": "electric_scooter", "rental_uris": {"ios": "https://dc.lft.to/lastmile_qr_scan", "android": "https://dc.lft.to/lastmile_qr_scan"}, "lon": -77.04850533333334, "fusion_lon": 0.0, "is_disabled": 0, "lat": 38.911851, "bike_id": "6ad55a7e6507cae8ccfc2aefd722f585", "name": "6ad55a7e6507cae8ccfc2aefd722f585", "is_reserved": 0, "fusion_lat": 0.0}, {"type": "electric_bike", "rental_uris": {"ios": "https://dc.lft.to/lastmile_qr_scan", "android": "https://dc.lft.to/lastmile_qr_scan"}, "lon": -77.0413105, "fusion_lon": 0.0, "is_disabled": 0, "lat": 38.8049535, "bike_id": "3678221594b59f837c9dd7123715cb37", "name": "3678221594b59f837c9dd7123715cb37", "is_reserved": 0, "fusion_lat": 0.0}, {"type": "electric_scooter", "rental_uris": {"ios": "https://dc.lft.to/lastmile_qr_scan", "android": "https://dc.lft.to/lastmile_qr_scan"}, "lon": -77.0436455, "fusion_lon": 0.0, "is_disabled": 0, "lat": 38.89221933333334, "bike_id": "67c202da1ba486879b3a928344fa4f12", "name": "67c202da1ba486879b3a928344fa4f12", "is_reserved": 0, "fusion_lat": 0.0}, {"type": "electric_scooter", "rental_uris": {"ios": "https://dc.lft.to/lastmile_qr_scan", "android": "https://dc.lft.to/lastmile_qr_scan"}, "lon": -77.0269445, "fusion_lon": 0.0, "is_disabled": 0, "lat": 38.9060055, "bike_id": "ffec5e78b69b301e3d8f8d2defb6c0b2", "name": "ffec5e78b69b301e3d8f8d2defb6c0b2", "is_reserved": 0, "fusion_lat": 0.0}, {"type": "electric_scooter", "rental_uris": {"ios": "https://dc.lft.to/lastmile_qr_scan", "android": "https://dc.lft.to/lastmile_qr_scan"}, "lon": -77.03442983333333, "fusion_lon": 0.0, "is_disabled": 0, "lat": 38.90969966666667, "bike_id": "e3f63fd47f47887a7bb2a20db362cede", "name": "e3f63fd47f47887a7bb2a20db362cede", "is_reserved": 0, "fusion_lat": 0.0}, {"type": "electric_scooter", "rental_uris": {"ios": "https://dc.lft.to/lastmile_qr_scan", "android": "https://dc.lft.to/lastmile_qr_scan"}, "lon": -77.0421835, "fusion_lon": 0.0, "is_disabled": 0, "lat": 38.91123366666667, "bike_id": "b47e36925897d4ebc1a4f536806f3330", "name": "b47e36925897d4ebc1a4f536806f3330", "is_reserved": 0, "fusion_lat": 0.0}, {"type": "electric_scooter", "rental_uris": {"ios": "https://dc.lft.to/lastmile_qr_scan", "android": "https://dc.lft.to/lastmile_qr_scan"}, "lon": -77.040113, "fusion_lon": 0.0, "is_disabled": 0, "lat": 38.92432383333333, "bike_id": "b1afa9048e4fa987d8768d128303de87", "name": "b1afa9048e4fa987d8768d128303de87", "is_reserved": 0, "fusion_lat": 0.0}, {"type": "electric_scooter", "rental_uris": {"ios": "https://dc.lft.to/lastmile_qr_scan", "android": "https://dc.lft.to/lastmile_qr_scan"}, "lon": -77.04301866666667, "fusion_lon": 0.0, "is_disabled": 0, "lat": 38.9226645, "bike_id": "d39be89f9563a2c0a8ad672ceb70b928", "name": "d39be89f9563a2c0a8ad672ceb70b928", "is_reserved": 0, "fusion_lat": 0.0}, {"type": "electric_scooter", "rental_uris": {"ios": "https://dc.lft.to/lastmile_qr_scan", "android": "https://dc.lft.to/lastmile_qr_scan"}, "lon": -77.04751016666667, "fusion_lon": 0.0, "is_disabled": 0, "lat": 38.905389166666666, "bike_id": "efc703f53b3fad598dde2f815d1753b3", "name": "efc703f53b3fad598dde2f815d1753b3", "is_reserved": 0, "fusion_lat": 0.0}, {"type": "electric_scooter", "rental_uris": {"ios": "https://dc.lft.to/lastmile_qr_scan", "android": "https://dc.lft.to/lastmile_qr_scan"}, "lon": -77.02616783333333, "fusion_lon": 0.0, "is_disabled": 0, "lat": 38.906239166666666, "bike_id": "85241739832b2c03d478e6295afc9ea5", "name": "85241739832b2c03d478e6295afc9ea5", "is_reserved": 0, "fusion_lat": 0.0}, {"type": "electric_scooter", "rental_uris": {"ios": "https://dc.lft.to/lastmile_qr_scan", "android": "https://dc.lft.to/lastmile_qr_scan"}, "lon": -76.9488195, "fusion_lon": 0.0, "is_disabled": 0, "lat": 38.8949865, "bike_id": "f9f78dc344f3d81307d74077c5afd08b", "name": "f9f78dc344f3d81307d74077c5afd08b", "is_reserved": 0, "fusion_lat": 0.0}, {"type": "electric_scooter", "rental_uris": {"ios": "https://dc.lft.to/lastmile_qr_scan", "android": "https://dc.lft.to/lastmile_qr_scan"}, "lon": -77.03183833333334, "fusion_lon": 0.0, "is_disabled": 0, "lat": 38.91768016666666, "bike_id": "95178207df39e29d1b83befe76cf58d0", "name": "95178207df39e29d1b83befe76cf58d0", "is_reserved": 0, "fusion_lat": 0.0}, {"type": "electric_scooter", "rental_uris": {"ios": "https://dc.lft.to/lastmile_qr_scan", "android": "https://dc.lft.to/lastmile_qr_scan"}, "lon": -76.99507866666667, "fusion_lon": 0.0, "is_disabled": 0, "lat": 38.9064375, "bike_id": "871480e01df2c8caf2ce306227e7947a", "name": "871480e01df2c8caf2ce306227e7947a", "is_reserved": 0, "fusion_lat": 0.0}, {"type": "electric_scooter", "rental_uris": {"ios": "https://dc.lft.to/lastmile_qr_scan", "android": "https://dc.lft.to/lastmile_qr_scan"}, "lon": -77.042457, "fusion_lon": 0.0, "is_disabled": 0, "lat": 38.92209733333333, "bike_id": "bdb0fc07c69b44ae03183e49123f5357", "name": "bdb0fc07c69b44ae03183e49123f5357", "is_reserved": 0, "fusion_lat": 0.0}, {"type": "electric_scooter", "rental_uris": {"ios": "https://dc.lft.to/lastmile_qr_scan", "android": "https://dc.lft.to/lastmile_qr_scan"}, "lon": -76.99830466666667, "fusion_lon": 0.0, "is_disabled": 0, "lat": 38.900232833333334, "bike_id": "9207d74acbb2e41ead1d8841033e6bfe", "name": "9207d74acbb2e41ead1d8841033e6bfe", "is_reserved": 0, "fusion_lat": 0.0}, {"type": "electric_scooter", "rental_uris": {"ios": "https://dc.lft.to/lastmile_qr_scan", "android": "https://dc.lft.to/lastmile_qr_scan"}, "lon": -77.02404, "fusion_lon": 0.0, "is_disabled": 0, "lat": 38.917480166666664, "bike_id": "b1b99a6d9342f06dbb31cb4d629b8121", "name": "b1b99a6d9342f06dbb31cb4d629b8121", "is_reserved": 0, "fusion_lat": 0.0}, {"type": "electric_bike", "rental_uris": {"ios": "https://dc.lft.to/lastmile_qr_scan", "android": "https://dc.lft.to/lastmile_qr_scan"}, "lon": -77.00204816666667, "fusion_lon": 0.0, "is_disabled": 0, "lat": 38.819364666666665, "bike_id": "43ba620ec2168eb99dfaeef5bfcd8229", "name": "43ba620ec2168eb99dfaeef5bfcd8229", "is_reserved": 0, "fusion_lat": 0.0}, {"type": "electric_scooter", "rental_uris": {"ios": "https://dc.lft.to/lastmile_qr_scan", "android": "https://dc.lft.to/lastmile_qr_scan"}, "lon": -77.0249085, "fusion_lon": 0.0, "is_disabled": 0, "lat": 38.941824833333335, "bike_id": "9a194e00f57e42ce28f0fda4795dd080", "name": "9a194e00f57e42ce28f0fda4795dd080", "is_reserved": 0, "fusion_lat": 0.0}, {"type": "electric_scooter", "rental_uris": {"ios": "https://dc.lft.to/lastmile_qr_scan", "android": "https://dc.lft.to/lastmile_qr_scan"}, "lon": -77.03214333333334, "fusion_lon": 0.0, "is_disabled": 0, "lat": 38.91203766666667, "bike_id": "547b95531cd5277a32f21da10745f652", "name": "547b95531cd5277a32f21da10745f652", "is_reserved": 0, "fusion_lat": 0.0}, {"type": "electric_scooter", "rental_uris": {"ios": "https://dc.lft.to/lastmile_qr_scan", "android": "https://dc.lft.to/lastmile_qr_scan"}, "lon": -77.058584, "fusion_lon": 0.0, "is_disabled": 0, "lat": 38.93555883333333, "bike_id": "db94f963989a7716b6ebd90d0d0a4983", "name": "db94f963989a7716b6ebd90d0d0a4983", "is_reserved": 0, "fusion_lat": 0.0}, {"type": "electric_scooter", "rental_uris": {"ios": "https://dc.lft.to/lastmile_qr_scan", "android": "https://dc.lft.to/lastmile_qr_scan"}, "lon": -77.0347345, "fusion_lon": 0.0, "is_disabled": 0, "lat": 38.904606333333334, "bike_id": "a3532ca9da95a8185cfc2c36eaadc29b", "name": "a3532ca9da95a8185cfc2c36eaadc29b", "is_reserved": 0, "fusion_lat": 0.0}, {"type": "electric_scooter", "rental_uris": {"ios": "https://dc.lft.to/lastmile_qr_scan", "android": "https://dc.lft.to/lastmile_qr_scan"}, "lon": -77.04861766666667, "fusion_lon": 0.0, "is_disabled": 0, "lat": 38.9046065, "bike_id": "0d7ba404292e80cec72d4d58c6be9818", "name": "0d7ba404292e80cec72d4d58c6be9818", "is_reserved": 0, "fusion_lat": 0.0}, {"type": "electric_scooter", "rental_uris": {"ios": "https://dc.lft.to/lastmile_qr_scan", "android": "https://dc.lft.to/lastmile_qr_scan"}, "lon": -77.03263883333334, "fusion_lon": 0.0, "is_disabled": 0, "lat": 38.91565583333333, "bike_id": "cd0c66ff69b8cc2cefed40a2a6891bdd", "name": "cd0c66ff69b8cc2cefed40a2a6891bdd", "is_reserved": 0, "fusion_lat": 0.0}, {"type": "electric_scooter", "rental_uris": {"ios": "https://dc.lft.to/lastmile_qr_scan", "android": "https://dc.lft.to/lastmile_qr_scan"}, "lon": -77.02693266666667, "fusion_lon": 0.0, "is_disabled": 0, "lat": 38.902387, "bike_id": "49207905d3fee75bf98a1ae345b2ccc3", "name": "49207905d3fee75bf98a1ae345b2ccc3", "is_reserved": 0, "fusion_lat": 0.0}, {"type": "electric_scooter", "rental_uris": {"ios": "https://dc.lft.to/lastmile_qr_scan", "android": "https://dc.lft.to/lastmile_qr_scan"}, "lon": -77.00615666666667, "fusion_lon": 0.0, "is_disabled": 0, "lat": 38.871788, "bike_id": "262701cf47c6d8c234b77fbd7261ec15", "name": "262701cf47c6d8c234b77fbd7261ec15", "is_reserved": 0, "fusion_lat": 0.0}, {"type": "electric_scooter", "rental_uris": {"ios": "https://dc.lft.to/lastmile_qr_scan", "android": "https://dc.lft.to/lastmile_qr_scan"}, "lon": -77.031546, "fusion_lon": 0.0, "is_disabled": 0, "lat": 38.91560783333333, "bike_id": "634bdffe0a40e9202f68a2236a85ee9d", "name": "634bdffe0a40e9202f68a2236a85ee9d", "is_reserved": 0, "fusion_lat": 0.0}, {"type": "electric_scooter", "rental_uris": {"ios": "https://dc.lft.to/lastmile_qr_scan", "android": "https://dc.lft.to/lastmile_qr_scan"}, "lon": -76.95134683333333, "fusion_lon": 0.0, "is_disabled": 0, "lat": 38.865488, "bike_id": "a824d84836e4a11b46a10a6ca73d6206", "name": "a824d84836e4a11b46a10a6ca73d6206", "is_reserved": 0, "fusion_lat": 0.0}, {"type": "electric_scooter", "rental_uris": {"ios": "https://dc.lft.to/lastmile_qr_scan", "android": "https://dc.lft.to/lastmile_qr_scan"}, "lon": -77.00446466666666, "fusion_lon": 0.0, "is_disabled": 0, "lat": 38.89730083333333, "bike_id": "53c460cccbeac4b6c237dcbcc8f9157a", "name": "53c460cccbeac4b6c237dcbcc8f9157a", "is_reserved": 0, "fusion_lat": 0.0}, {"type": "electric_scooter", "rental_uris": {"ios": "https://dc.lft.to/lastmile_qr_scan", "android": "https://dc.lft.to/lastmile_qr_scan"}, "lon": -77.03663833333333, "fusion_lon": 0.0, "is_disabled": 0, "lat": 38.917239333333335, "bike_id": "e09bc9fb442111b7cea0c253fdf53c98", "name": "e09bc9fb442111b7cea0c253fdf53c98", "is_reserved": 0, "fusion_lat": 0.0}, {"type": "electric_scooter", "rental_uris": {"ios": "https://dc.lft.to/lastmile_qr_scan", "android": "https://dc.lft.to/lastmile_qr_scan"}, "lon": -77.00160616666666, "fusion_lon": 0.0, "is_disabled": 0, "lat": 38.90136116666667, "bike_id": "b8ffae191a972ebaffc5bc63a758ad2c", "name": "b8ffae191a972ebaffc5bc63a758ad2c", "is_reserved": 0, "fusion_lat": 0.0}, {"type": "electric_scooter", "rental_uris": {"ios": "https://dc.lft.to/lastmile_qr_scan", "android": "https://dc.lft.to/lastmile_qr_scan"}, "lon": -77.04337383333333, "fusion_lon": 0.0, "is_disabled": 0, "lat": 38.89225916666667, "bike_id": "be62eb180bb4bdb82e6e47068e9e4ed3", "name": "be62eb180bb4bdb82e6e47068e9e4ed3", "is_reserved": 0, "fusion_lat": 0.0}, {"type": "electric_scooter", "rental_uris": {"ios": "https://dc.lft.to/lastmile_qr_scan", "android": "https://dc.lft.to/lastmile_qr_scan"}, "lon": -77.03175183333333, "fusion_lon": 0.0, "is_disabled": 0, "lat": 38.914204166666664, "bike_id": "dedda4a115c2306d3e25f55e25b6ae69", "name": "dedda4a115c2306d3e25f55e25b6ae69", "is_reserved": 0, "fusion_lat": 0.0}, {"type": "electric_scooter", "rental_uris": {"ios": "https://dc.lft.to/lastmile_qr_scan", "android": "https://dc.lft.to/lastmile_qr_scan"}, "lon": -76.9916385, "fusion_lon": 0.0, "is_disabled": 0, "lat": 38.859438833333336, "bike_id": "ddc17961515a24ff2003e04e97cde9d4", "name": "ddc17961515a24ff2003e04e97cde9d4", "is_reserved": 0, "fusion_lat": 0.0}, {"type": "electric_scooter", "rental_uris": {"ios": "https://dc.lft.to/lastmile_qr_scan", "android": "https://dc.lft.to/lastmile_qr_scan"}, "lon": -77.0057965, "fusion_lon": 0.0, "is_disabled": 0, "lat": 38.906437, "bike_id": "79cd3d6b9cc4c52bd828c6292f332377", "name": "79cd3d6b9cc4c52bd828c6292f332377", "is_reserved": 0, "fusion_lat": 0.0}, {"type": "electric_scooter", "rental_uris": {"ios": "https://dc.lft.to/lastmile_qr_scan", "android": "https://dc.lft.to/lastmile_qr_scan"}, "lon": -77.02173383333333, "fusion_lon": 0.0, "is_disabled": 0, "lat": 38.942918166666665, "bike_id": "7325f4f87b351bb13903741325437c73", "name": "7325f4f87b351bb13903741325437c73", "is_reserved": 0, "fusion_lat": 0.0}, {"type": "electric_scooter", "rental_uris": {"ios": "https://dc.lft.to/lastmile_qr_scan", "android": "https://dc.lft.to/lastmile_qr_scan"}, "lon": -76.93143966666666, "fusion_lon": 0.0, "is_disabled": 0, "lat": 38.893429166666664, "bike_id": "32ccfa1698182c8f019d19f35c4749c5", "name": "32ccfa1698182c8f019d19f35c4749c5", "is_reserved": 0, "fusion_lat": 0.0}, {"type": "electric_scooter", "rental_uris": {"ios": "https://dc.lft.to/lastmile_qr_scan", "android": "https://dc.lft.to/lastmile_qr_scan"}, "lon": -77.03187116666666, "fusion_lon": 0.0, "is_disabled": 0, "lat": 38.911729, "bike_id": "ecaca7d47ceb0d8cf0937c80b60ddd39", "name": "ecaca7d47ceb0d8cf0937c80b60ddd39", "is_reserved": 0, "fusion_lat": 0.0}, {"type": "electric_scooter", "rental_uris": {"ios": "https://dc.lft.to/lastmile_qr_scan", "android": "https://dc.lft.to/lastmile_qr_scan"}, "lon": -77.0057575, "fusion_lon": 0.0, "is_disabled": 0, "lat": 38.90882666666667, "bike_id": "78a8033b6f8b6e43931f86d927ac7f3a", "name": "78a8033b6f8b6e43931f86d927ac7f3a", "is_reserved": 0, "fusion_lat": 0.0}, {"type": "electric_scooter", "rental_uris": {"ios": "https://dc.lft.to/lastmile_qr_scan", "android": "https://dc.lft.to/lastmile_qr_scan"}, "lon": -76.9858095, "fusion_lon": 0.0, "is_disabled": 0, "lat": 38.8545035, "bike_id": "7474d1474f1ede46ed72f8da2bb5e33c", "name": "7474d1474f1ede46ed72f8da2bb5e33c", "is_reserved": 0, "fusion_lat": 0.0}, {"type": "electric_bike", "rental_uris": {"ios": "https://dc.lft.to/lastmile_qr_scan", "android": "https://dc.lft.to/lastmile_qr_scan"}, "lon": -77.03347283333333, "fusion_lon": 0.0, "is_disabled": 0, "lat": 38.96934316666667, "bike_id": "938374f5cb5eac9ee8507bfa2de35beb", "name": "938374f5cb5eac9ee8507bfa2de35beb", "is_reserved": 0, "fusion_lat": 0.0}, {"type": "electric_scooter", "rental_uris": {"ios": "https://dc.lft.to/lastmile_qr_scan", "android": "https://dc.lft.to/lastmile_qr_scan"}, "lon": -77.02325116666667, "fusion_lon": 0.0, "is_disabled": 0, "lat": 38.9020255, "bike_id": "dd6adf8427bc923c8c90aa023ac6898f", "name": "dd6adf8427bc923c8c90aa023ac6898f", "is_reserved": 0, "fusion_lat": 0.0}, {"type": "electric_scooter", "rental_uris": {"ios": "https://dc.lft.to/lastmile_qr_scan", "android": "https://dc.lft.to/lastmile_qr_scan"}, "lon": -77.05754033333334, "fusion_lon": 0.0, "is_disabled": 0, "lat": 38.92375966666667, "bike_id": "3dcbf6fa8ec148ea6f1431cf1173cd33", "name": "3dcbf6fa8ec148ea6f1431cf1173cd33", "is_reserved": 0, "fusion_lat": 0.0}, {"type": "electric_scooter", "rental_uris": {"ios": "https://dc.lft.to/lastmile_qr_scan", "android": "https://dc.lft.to/lastmile_qr_scan"}, "lon": -77.03672466666667, "fusion_lon": 0.0, "is_disabled": 0, "lat": 38.922430166666665, "bike_id": "4f480a753a73ab5de242d05abdcf10a0", "name": "4f480a753a73ab5de242d05abdcf10a0", "is_reserved": 0, "fusion_lat": 0.0}, {"type": "electric_bike", "rental_uris": {"ios": "https://dc.lft.to/lastmile_qr_scan", "android": "https://dc.lft.to/lastmile_qr_scan"}, "lon": -77.02628316666667, "fusion_lon": 0.0, "is_disabled": 0, "lat": 38.96226516666667, "bike_id": "5c9c3e8b35e70f325022200f0382b735", "name": "5c9c3e8b35e70f325022200f0382b735", "is_reserved": 0, "fusion_lat": 0.0}, {"type": "electric_scooter", "rental_uris": {"ios": "https://dc.lft.to/lastmile_qr_scan", "android": "https://dc.lft.to/lastmile_qr_scan"}, "lon": -77.01389883333333, "fusion_lon": 0.0, "is_disabled": 0, "lat": 38.8865925, "bike_id": "e445bf87b1380dae92ba2b2e64adfbfb", "name": "e445bf87b1380dae92ba2b2e64adfbfb", "is_reserved": 0, "fusion_lat": 0.0}, {"type": "electric_scooter", "rental_uris": {"ios": "https://dc.lft.to/lastmile_qr_scan", "android": "https://dc.lft.to/lastmile_qr_scan"}, "lon": -77.02003866666666, "fusion_lon": 0.0, "is_disabled": 0, "lat": 38.924034666666664, "bike_id": "64d83d2626827e430324e6906b7fa400", "name": "64d83d2626827e430324e6906b7fa400", "is_reserved": 0, "fusion_lat": 0.0}, {"type": "electric_scooter", "rental_uris": {"ios": "https://dc.lft.to/lastmile_qr_scan", "android": "https://dc.lft.to/lastmile_qr_scan"}, "lon": -77.02761583333333, "fusion_lon": 0.0, "is_disabled": 0, "lat": 38.95426633333334, "bike_id": "952b53e41c8a94911e82ccd4919f642d", "name": "952b53e41c8a94911e82ccd4919f642d", "is_reserved": 0, "fusion_lat": 0.0}, {"type": "electric_scooter", "rental_uris": {"ios": "https://dc.lft.to/lastmile_qr_scan", "android": "https://dc.lft.to/lastmile_qr_scan"}, "lon": -77.04782216666666, "fusion_lon": 0.0, "is_disabled": 0, "lat": 38.893753333333336, "bike_id": "2be96142cbfc52c7e38b1eb102ec2a89", "name": "2be96142cbfc52c7e38b1eb102ec2a89", "is_reserved": 0, "fusion_lat": 0.0}, {"type": "electric_scooter", "rental_uris": {"ios": "https://dc.lft.to/lastmile_qr_scan", "android": "https://dc.lft.to/lastmile_qr_scan"}, "lon": -76.96531466666667, "fusion_lon": 0.0, "is_disabled": 0, "lat": 38.876285333333335, "bike_id": "1d02ec910628bbf3bc909c21ee736b44", "name": "1d02ec910628bbf3bc909c21ee736b44", "is_reserved": 0, "fusion_lat": 0.0}, {"type": "electric_bike", "rental_uris": {"ios": "https://dc.lft.to/lastmile_qr_scan", "android": "https://dc.lft.to/lastmile_qr_scan"}, "lon": -77.107804, "fusion_lon": 0.0, "is_disabled": 0, "lat": 38.89220233333333, "bike_id": "2c84ce1c457b266bd63cf464868e7516", "name": "2c84ce1c457b266bd63cf464868e7516", "is_reserved": 0, "fusion_lat": 0.0}, {"type": "electric_scooter", "rental_uris": {"ios": "https://dc.lft.to/lastmile_qr_scan", "android": "https://dc.lft.to/lastmile_qr_scan"}, "lon": -77.00461216666666, "fusion_lon": 0.0, "is_disabled": 0, "lat": 38.9113105, "bike_id": "16763919e89211fc4cf67397d8e9b38e", "name": "16763919e89211fc4cf67397d8e9b38e", "is_reserved": 0, "fusion_lat": 0.0}, {"type": "electric_scooter", "rental_uris": {"ios": "https://dc.lft.to/lastmile_qr_scan", "android": "https://dc.lft.to/lastmile_qr_scan"}, "lon": -77.038484, "fusion_lon": 0.0, "is_disabled": 0, "lat": 38.910133333333334, "bike_id": "cba5027ff22bba26d5ebabe81e9cb13f", "name": "cba5027ff22bba26d5ebabe81e9cb13f", "is_reserved": 0, "fusion_lat": 0.0}, {"type": "electric_scooter", "rental_uris": {"ios": "https://dc.lft.to/lastmile_qr_scan", "android": "https://dc.lft.to/lastmile_qr_scan"}, "lon": -77.021988, "fusion_lon": 0.0, "is_disabled": 0, "lat": 38.9329725, "bike_id": "3a2a70d44f28c2c568331872d3240795", "name": "3a2a70d44f28c2c568331872d3240795", "is_reserved": 0, "fusion_lat": 0.0}, {"type": "electric_scooter", "rental_uris": {"ios": "https://dc.lft.to/lastmile_qr_scan", "android": "https://dc.lft.to/lastmile_qr_scan"}, "lon": -77.01370066666667, "fusion_lon": 0.0, "is_disabled": 0, "lat": 38.892317166666665, "bike_id": "0d382323729a6167d09257a30867f379", "name": "0d382323729a6167d09257a30867f379", "is_reserved": 0, "fusion_lat": 0.0}, {"type": "electric_scooter", "rental_uris": {"ios": "https://dc.lft.to/lastmile_qr_scan", "android": "https://dc.lft.to/lastmile_qr_scan"}, "lon": -77.0560915, "fusion_lon": 0.0, "is_disabled": 0, "lat": 38.9316425, "bike_id": "9540a7e9aabab69b685acdcc00d4c08b", "name": "9540a7e9aabab69b685acdcc00d4c08b", "is_reserved": 0, "fusion_lat": 0.0}, {"type": "electric_scooter", "rental_uris": {"ios": "https://dc.lft.to/lastmile_qr_scan", "android": "https://dc.lft.to/lastmile_qr_scan"}, "lon": -77.024228, "fusion_lon": 0.0, "is_disabled": 0, "lat": 38.895131666666664, "bike_id": "69d79b1466a10f9d50b1b5aa61f81baa", "name": "69d79b1466a10f9d50b1b5aa61f81baa", "is_reserved": 0, "fusion_lat": 0.0}, {"type": "electric_scooter", "rental_uris": {"ios": "https://dc.lft.to/lastmile_qr_scan", "android": "https://dc.lft.to/lastmile_qr_scan"}, "lon": -77.03704933333333, "fusion_lon": 0.0, "is_disabled": 0, "lat": 38.92834633333333, "bike_id": "337a633573e7088fc4163fed24823bb3", "name": "337a633573e7088fc4163fed24823bb3", "is_reserved": 0, "fusion_lat": 0.0}, {"type": "electric_scooter", "rental_uris": {"ios": "https://dc.lft.to/lastmile_qr_scan", "android": "https://dc.lft.to/lastmile_qr_scan"}, "lon": -77.04537916666666, "fusion_lon": 0.0, "is_disabled": 0, "lat": 38.9132785, "bike_id": "c55b67dd351dc137c7acc3bd215ab14e", "name": "c55b67dd351dc137c7acc3bd215ab14e", "is_reserved": 0, "fusion_lat": 0.0}, {"type": "electric_scooter", "rental_uris": {"ios": "https://dc.lft.to/lastmile_qr_scan", "android": "https://dc.lft.to/lastmile_qr_scan"}, "lon": -76.9898615, "fusion_lon": 0.0, "is_disabled": 0, "lat": 38.8649755, "bike_id": "6fa38dd326e71a25fe6091610b2bbd7c", "name": "6fa38dd326e71a25fe6091610b2bbd7c", "is_reserved": 0, "fusion_lat": 0.0}, {"type": "electric_scooter", "rental_uris": {"ios": "https://dc.lft.to/lastmile_qr_scan", "android": "https://dc.lft.to/lastmile_qr_scan"}, "lon": -77.02523333333333, "fusion_lon": 0.0, "is_disabled": 0, "lat": 38.923678333333335, "bike_id": "25f341b373273cb4ef9885e6d3d80627", "name": "25f341b373273cb4ef9885e6d3d80627", "is_reserved": 0, "fusion_lat": 0.0}, {"type": "electric_scooter", "rental_uris": {"ios": "https://dc.lft.to/lastmile_qr_scan", "android": "https://dc.lft.to/lastmile_qr_scan"}, "lon": -77.03965566666666, "fusion_lon": 0.0, "is_disabled": 0, "lat": 38.90612383333333, "bike_id": "e4db5c9ba8f2267c2431daa046bf72b5", "name": "e4db5c9ba8f2267c2431daa046bf72b5", "is_reserved": 0, "fusion_lat": 0.0}, {"type": "electric_scooter", "rental_uris": {"ios": "https://dc.lft.to/lastmile_qr_scan", "android": "https://dc.lft.to/lastmile_qr_scan"}, "lon": -77.04184883333333, "fusion_lon": 0.0, "is_disabled": 0, "lat": 38.91767983333333, "bike_id": "8761e0ff8783041c4c952c4d128e9db0", "name": "8761e0ff8783041c4c952c4d128e9db0", "is_reserved": 0, "fusion_lat": 0.0}, {"type": "electric_scooter", "rental_uris": {"ios": "https://dc.lft.to/lastmile_qr_scan", "android": "https://dc.lft.to/lastmile_qr_scan"}, "lon": -77.03210616666667, "fusion_lon": 0.0, "is_disabled": 0, "lat": 38.91690583333333, "bike_id": "2c03bfc90a874f75e1ee527979202ee8", "name": "2c03bfc90a874f75e1ee527979202ee8", "is_reserved": 0, "fusion_lat": 0.0}, {"type": "electric_scooter", "rental_uris": {"ios": "https://dc.lft.to/lastmile_qr_scan", "android": "https://dc.lft.to/lastmile_qr_scan"}, "lon": -77.00196183333334, "fusion_lon": 0.0, "is_disabled": 0, "lat": 38.900382, "bike_id": "84bdab4151b949fdde8c1a6843622882", "name": "84bdab4151b949fdde8c1a6843622882", "is_reserved": 0, "fusion_lat": 0.0}, {"type": "electric_bike", "rental_uris": {"ios": "https://dc.lft.to/lastmile_qr_scan", "android": "https://dc.lft.to/lastmile_qr_scan"}, "lon": -77.04923183333334, "fusion_lon": 0.0, "is_disabled": 0, "lat": 38.813544666666665, "bike_id": "8841371f2cb5ce8cb7a12d8077098d05", "name": "8841371f2cb5ce8cb7a12d8077098d05", "is_reserved": 0, "fusion_lat": 0.0}, {"type": "electric_scooter", "rental_uris": {"ios": "https://dc.lft.to/lastmile_qr_scan", "android": "https://dc.lft.to/lastmile_qr_scan"}, "lon": -77.02602333333333, "fusion_lon": 0.0, "is_disabled": 0, "lat": 38.9016345, "bike_id": "6198e6ccde19c549fd932969c4062e44", "name": "6198e6ccde19c549fd932969c4062e44", "is_reserved": 0, "fusion_lat": 0.0}, {"type": "electric_scooter", "rental_uris": {"ios": "https://dc.lft.to/lastmile_qr_scan", "android": "https://dc.lft.to/lastmile_qr_scan"}, "lon": -77.00214183333334, "fusion_lon": 0.0, "is_disabled": 0, "lat": 38.904336, "bike_id": "6b21c7222ffc4b34c79da95fe9c71b56", "name": "6b21c7222ffc4b34c79da95fe9c71b56", "is_reserved": 0, "fusion_lat": 0.0}, {"type": "electric_scooter", "rental_uris": {"ios": "https://dc.lft.to/lastmile_qr_scan", "android": "https://dc.lft.to/lastmile_qr_scan"}, "lon": -77.03551816666666, "fusion_lon": 0.0, "is_disabled": 0, "lat": 38.908280166666664, "bike_id": "14268bf35697ee73e513526d8e266414", "name": "14268bf35697ee73e513526d8e266414", "is_reserved": 0, "fusion_lat": 0.0}, {"type": "electric_bike", "rental_uris": {"ios": "https://dc.lft.to/lastmile_qr_scan", "android": "https://dc.lft.to/lastmile_qr_scan"}, "lon": -76.98357516666667, "fusion_lon": 0.0, "is_disabled": 0, "lat": 38.89442616666667, "bike_id": "489690211ea60911440f730a898b782d", "name": "489690211ea60911440f730a898b782d", "is_reserved": 0, "fusion_lat": 0.0}, {"type": "electric_scooter", "rental_uris": {"ios": "https://dc.lft.to/lastmile_qr_scan", "android": "https://dc.lft.to/lastmile_qr_scan"}, "lon": -77.003388, "fusion_lon": 0.0, "is_disabled": 0, "lat": 38.89572483333333, "bike_id": "7613a9d3b931f1a6129be667ab958acc", "name": "7613a9d3b931f1a6129be667ab958acc", "is_reserved": 0, "fusion_lat": 0.0}, {"type": "electric_scooter", "rental_uris": {"ios": "https://dc.lft.to/lastmile_qr_scan", "android": "https://dc.lft.to/lastmile_qr_scan"}, "lon": -77.02402733333334, "fusion_lon": 0.0, "is_disabled": 0, "lat": 38.91752266666667, "bike_id": "cf728e7b22ff97386db7f09163b0d281", "name": "cf728e7b22ff97386db7f09163b0d281", "is_reserved": 0, "fusion_lat": 0.0}, {"type": "electric_scooter", "rental_uris": {"ios": "https://dc.lft.to/lastmile_qr_scan", "android": "https://dc.lft.to/lastmile_qr_scan"}, "lon": -77.03964883333333, "fusion_lon": 0.0, "is_disabled": 0, "lat": 38.89888783333333, "bike_id": "f25708ae3a746cf20473bdf87dcd881b", "name": "f25708ae3a746cf20473bdf87dcd881b", "is_reserved": 0, "fusion_lat": 0.0}, {"type": "electric_scooter", "rental_uris": {"ios": "https://dc.lft.to/lastmile_qr_scan", "android": "https://dc.lft.to/lastmile_qr_scan"}, "lon": -77.029998, "fusion_lon": 0.0, "is_disabled": 0, "lat": 38.92969883333333, "bike_id": "e4959ddd5160cbf5e988eb0c2c7efaeb", "name": "e4959ddd5160cbf5e988eb0c2c7efaeb", "is_reserved": 0, "fusion_lat": 0.0}, {"type": "electric_bike", "rental_uris": {"ios": "https://dc.lft.to/lastmile_qr_scan", "android": "https://dc.lft.to/lastmile_qr_scan"}, "lon": -77.035129, "fusion_lon": 0.0, "is_disabled": 0, "lat": 38.9620595, "bike_id": "78545b7d3ea0005a57e38f895e1bf471", "name": "78545b7d3ea0005a57e38f895e1bf471", "is_reserved": 0, "fusion_lat": 0.0}, {"type": "electric_scooter", "rental_uris": {"ios": "https://dc.lft.to/lastmile_qr_scan", "android": "https://dc.lft.to/lastmile_qr_scan"}, "lon": -77.04060183333333, "fusion_lon": 0.0, "is_disabled": 0, "lat": 38.89897083333334, "bike_id": "5b3e1df63667eb86331a735bd0a2322b", "name": "5b3e1df63667eb86331a735bd0a2322b", "is_reserved": 0, "fusion_lat": 0.0}, {"type": "electric_bike", "rental_uris": {"ios": "https://dc.lft.to/lastmile_qr_scan", "android": "https://dc.lft.to/lastmile_qr_scan"}, "lon": -76.90976033333334, "fusion_lon": 0.0, "is_disabled": 0, "lat": 38.85427466666667, "bike_id": "fe49d20c03fdbe40ca915a16bc14202c", "name": "fe49d20c03fdbe40ca915a16bc14202c", "is_reserved": 0, "fusion_lat": 0.0}, {"type": "electric_scooter", "rental_uris": {"ios": "https://dc.lft.to/lastmile_qr_scan", "android": "https://dc.lft.to/lastmile_qr_scan"}, "lon": -77.052388, "fusion_lon": 0.0, "is_disabled": 0, "lat": 38.92472883333333, "bike_id": "0da72d67070e2fc11f9e2d8090a5ec99", "name": "0da72d67070e2fc11f9e2d8090a5ec99", "is_reserved": 0, "fusion_lat": 0.0}, {"type": "electric_scooter", "rental_uris": {"ios": "https://dc.lft.to/lastmile_qr_scan", "android": "https://dc.lft.to/lastmile_qr_scan"}, "lon": -77.051287, "fusion_lon": 0.0, "is_disabled": 0, "lat": 38.92363616666667, "bike_id": "e622f5978b1b4d4abf7547908693d5c6", "name": "e622f5978b1b4d4abf7547908693d5c6", "is_reserved": 0, "fusion_lat": 0.0}, {"type": "electric_scooter", "rental_uris": {"ios": "https://dc.lft.to/lastmile_qr_scan", "android": "https://dc.lft.to/lastmile_qr_scan"}, "lon": -77.03222516666666, "fusion_lon": 0.0, "is_disabled": 0, "lat": 38.8922515, "bike_id": "cd64ec95d0fa4535ea8601753aeaef85", "name": "cd64ec95d0fa4535ea8601753aeaef85", "is_reserved": 0, "fusion_lat": 0.0}, {"type": "electric_scooter", "rental_uris": {"ios": "https://dc.lft.to/lastmile_qr_scan", "android": "https://dc.lft.to/lastmile_qr_scan"}, "lon": -77.0151225, "fusion_lon": 0.0, "is_disabled": 0, "lat": 38.943326, "bike_id": "a1cfe13e18d5852d35a71c78fe9def9f", "name": "a1cfe13e18d5852d35a71c78fe9def9f", "is_reserved": 0, "fusion_lat": 0.0}, {"type": "electric_scooter", "rental_uris": {"ios": "https://dc.lft.to/lastmile_qr_scan", "android": "https://dc.lft.to/lastmile_qr_scan"}, "lon": -77.02760516666666, "fusion_lon": 0.0, "is_disabled": 0, "lat": 38.95427633333333, "bike_id": "1844868ffc5ad6bdf3dc24c0cd228c07", "name": "1844868ffc5ad6bdf3dc24c0cd228c07", "is_reserved": 0, "fusion_lat": 0.0}, {"type": "electric_scooter", "rental_uris": {"ios": "https://dc.lft.to/lastmile_qr_scan", "android": "https://dc.lft.to/lastmile_qr_scan"}, "lon": -77.021723, "fusion_lon": 0.0, "is_disabled": 0, "lat": 38.897228, "bike_id": "53164102756f75e5c2f772932124e7c6", "name": "53164102756f75e5c2f772932124e7c6", "is_reserved": 0, "fusion_lat": 0.0}, {"type": "electric_scooter", "rental_uris": {"ios": "https://dc.lft.to/lastmile_qr_scan", "android": "https://dc.lft.to/lastmile_qr_scan"}, "lon": -77.02848, "fusion_lon": 0.0, "is_disabled": 0, "lat": 38.927642666666664, "bike_id": "288a5889becc9b5de94731e477ac2b9a", "name": "288a5889becc9b5de94731e477ac2b9a", "is_reserved": 0, "fusion_lat": 0.0}, {"type": "electric_scooter", "rental_uris": {"ios": "https://dc.lft.to/lastmile_qr_scan", "android": "https://dc.lft.to/lastmile_qr_scan"}, "lon": -77.0433205, "fusion_lon": 0.0, "is_disabled": 0, "lat": 38.8922255, "bike_id": "41df40ebfb1560c49d77dc08551541b7", "name": "41df40ebfb1560c49d77dc08551541b7", "is_reserved": 0, "fusion_lat": 0.0}, {"type": "electric_scooter", "rental_uris": {"ios": "https://dc.lft.to/lastmile_qr_scan", "android": "https://dc.lft.to/lastmile_qr_scan"}, "lon": -76.995539, "fusion_lon": 0.0, "is_disabled": 0, "lat": 38.90028566666667, "bike_id": "7dfe8f8fafb4bc596741bf8750723388", "name": "7dfe8f8fafb4bc596741bf8750723388", "is_reserved": 0, "fusion_lat": 0.0}, {"type": "electric_scooter", "rental_uris": {"ios": "https://dc.lft.to/lastmile_qr_scan", "android": "https://dc.lft.to/lastmile_qr_scan"}, "lon": -76.9652355, "fusion_lon": 0.0, "is_disabled": 0, "lat": 38.87627416666667, "bike_id": "d00bfca01dcb13c77a12cae88c058989", "name": "d00bfca01dcb13c77a12cae88c058989", "is_reserved": 0, "fusion_lat": 0.0}, {"type": "electric_bike", "rental_uris": {"ios": "https://dc.lft.to/lastmile_qr_scan", "android": "https://dc.lft.to/lastmile_qr_scan"}, "lon": -76.9724025, "fusion_lon": 0.0, "is_disabled": 0, "lat": 38.94905133333334, "bike_id": "85a16a2e93ab78163887e7084700e5b1", "name": "85a16a2e93ab78163887e7084700e5b1", "is_reserved": 0, "fusion_lat": 0.0}, {"type": "electric_scooter", "rental_uris": {"ios": "https://dc.lft.to/lastmile_qr_scan", "android": "https://dc.lft.to/lastmile_qr_scan"}, "lon": -77.03189483333334, "fusion_lon": 0.0, "is_disabled": 0, "lat": 38.913243333333334, "bike_id": "d5608b241f2f9c6a74c52eb79221d765", "name": "d5608b241f2f9c6a74c52eb79221d765", "is_reserved": 0, "fusion_lat": 0.0}, {"type": "electric_scooter", "rental_uris": {"ios": "https://dc.lft.to/lastmile_qr_scan", "android": "https://dc.lft.to/lastmile_qr_scan"}, "lon": -77.02832616666667, "fusion_lon": 0.0, "is_disabled": 0, "lat": 38.93185916666667, "bike_id": "1ccaec6d36811a0e4363b41a50ab715f", "name": "1ccaec6d36811a0e4363b41a50ab715f", "is_reserved": 0, "fusion_lat": 0.0}, {"type": "electric_scooter", "rental_uris": {"ios": "https://dc.lft.to/lastmile_qr_scan", "android": "https://dc.lft.to/lastmile_qr_scan"}, "lon": -77.032886, "fusion_lon": 0.0, "is_disabled": 0, "lat": 38.89859833333333, "bike_id": "3ebd409fd948a5006612e64fc40032cb", "name": "3ebd409fd948a5006612e64fc40032cb", "is_reserved": 0, "fusion_lat": 0.0}, {"type": "electric_scooter", "rental_uris": {"ios": "https://dc.lft.to/lastmile_qr_scan", "android": "https://dc.lft.to/lastmile_qr_scan"}, "lon": -77.03190716666667, "fusion_lon": 0.0, "is_disabled": 0, "lat": 38.917908, "bike_id": "f6e91903a0ab7a8bcc0f2cecdbc453c8", "name": "f6e91903a0ab7a8bcc0f2cecdbc453c8", "is_reserved": 0, "fusion_lat": 0.0}, {"type": "electric_scooter", "rental_uris": {"ios": "https://dc.lft.to/lastmile_qr_scan", "android": "https://dc.lft.to/lastmile_qr_scan"}, "lon": -77.0347555, "fusion_lon": 0.0, "is_disabled": 0, "lat": 38.929134166666664, "bike_id": "d4be032260c820421e9309e6b9c2a31b", "name": "d4be032260c820421e9309e6b9c2a31b", "is_reserved": 0, "fusion_lat": 0.0}, {"type": "electric_bike", "rental_uris": {"ios": "https://dc.lft.to/lastmile_qr_scan", "android": "https://dc.lft.to/lastmile_qr_scan"}, "lon": -77.04017833333333, "fusion_lon": 0.0, "is_disabled": 0, "lat": 38.793308, "bike_id": "869f69949b0473907c051464921e2322", "name": "869f69949b0473907c051464921e2322", "is_reserved": 0, "fusion_lat": 0.0}, {"type": "electric_scooter", "rental_uris": {"ios": "https://dc.lft.to/lastmile_qr_scan", "android": "https://dc.lft.to/lastmile_qr_scan"}, "lon": -77.00933683333334, "fusion_lon": 0.0, "is_disabled": 0, "lat": 38.883360833333334, "bike_id": "70790529861248db0dbafd8e8c36ad63", "name": "70790529861248db0dbafd8e8c36ad63", "is_reserved": 0, "fusion_lat": 0.0}, {"type": "electric_scooter", "rental_uris": {"ios": "https://dc.lft.to/lastmile_qr_scan", "android": "https://dc.lft.to/lastmile_qr_scan"}, "lon": -77.03188033333333, "fusion_lon": 0.0, "is_disabled": 0, "lat": 38.914160833333334, "bike_id": "93167f728483908d769bcb1c085fdda7", "name": "93167f728483908d769bcb1c085fdda7", "is_reserved": 0, "fusion_lat": 0.0}, {"type": "electric_scooter", "rental_uris": {"ios": "https://dc.lft.to/lastmile_qr_scan", "android": "https://dc.lft.to/lastmile_qr_scan"}, "lon": -77.02692916666666, "fusion_lon": 0.0, "is_disabled": 0, "lat": 38.90687333333333, "bike_id": "819d06f973ec00dc569d1f653cbe2a7e", "name": "819d06f973ec00dc569d1f653cbe2a7e", "is_reserved": 0, "fusion_lat": 0.0}, {"type": "electric_scooter", "rental_uris": {"ios": "https://dc.lft.to/lastmile_qr_scan", "android": "https://dc.lft.to/lastmile_qr_scan"}, "lon": -77.02632533333333, "fusion_lon": 0.0, "is_disabled": 0, "lat": 38.89223483333333, "bike_id": "58a1099172803682eafa0bb334ab711b", "name": "58a1099172803682eafa0bb334ab711b", "is_reserved": 0, "fusion_lat": 0.0}, {"type": "electric_scooter", "rental_uris": {"ios": "https://dc.lft.to/lastmile_qr_scan", "android": "https://dc.lft.to/lastmile_qr_scan"}, "lon": -77.02112166666667, "fusion_lon": 0.0, "is_disabled": 0, "lat": 38.94099083333333, "bike_id": "bda0f6aaf24437b1102eefefb9864da2", "name": "bda0f6aaf24437b1102eefefb9864da2", "is_reserved": 0, "fusion_lat": 0.0}, {"type": "electric_bike", "rental_uris": {"ios": "https://dc.lft.to/lastmile_qr_scan", "android": "https://dc.lft.to/lastmile_qr_scan"}, "lon": -77.1180765, "fusion_lon": 0.0, "is_disabled": 0, "lat": 38.873760833333336, "bike_id": "26b4a83d15efce0e4a51492dad03055e", "name": "26b4a83d15efce0e4a51492dad03055e", "is_reserved": 0, "fusion_lat": 0.0}, {"type": "electric_scooter", "rental_uris": {"ios": "https://dc.lft.to/lastmile_qr_scan", "android": "https://dc.lft.to/lastmile_qr_scan"}, "lon": -77.000538, "fusion_lon": 0.0, "is_disabled": 0, "lat": 38.890965666666666, "bike_id": "257c3ae7d9df8289f93de24da91782ed", "name": "257c3ae7d9df8289f93de24da91782ed", "is_reserved": 0, "fusion_lat": 0.0}, {"type": "electric_scooter", "rental_uris": {"ios": "https://dc.lft.to/lastmile_qr_scan", "android": "https://dc.lft.to/lastmile_qr_scan"}, "lon": -77.01948833333333, "fusion_lon": 0.0, "is_disabled": 0, "lat": 38.924213, "bike_id": "5950faa7f34b5211957fe28b82035c6c", "name": "5950faa7f34b5211957fe28b82035c6c", "is_reserved": 0, "fusion_lat": 0.0}, {"type": "electric_scooter", "rental_uris": {"ios": "https://dc.lft.to/lastmile_qr_scan", "android": "https://dc.lft.to/lastmile_qr_scan"}, "lon": -77.036633, "fusion_lon": 0.0, "is_disabled": 0, "lat": 38.92238783333333, "bike_id": "93017f18cae738f3a26a1cb0e0c4d7bf", "name": "93017f18cae738f3a26a1cb0e0c4d7bf", "is_reserved": 0, "fusion_lat": 0.0}, {"type": "electric_scooter", "rental_uris": {"ios": "https://dc.lft.to/lastmile_qr_scan", "android": "https://dc.lft.to/lastmile_qr_scan"}, "lon": -77.02006066666667, "fusion_lon": 0.0, "is_disabled": 0, "lat": 38.915645166666664, "bike_id": "d9943e825bb824b37c30733fd7e9c4fa", "name": "d9943e825bb824b37c30733fd7e9c4fa", "is_reserved": 0, "fusion_lat": 0.0}, {"type": "electric_bike", "rental_uris": {"ios": "https://dc.lft.to/lastmile_qr_scan", "android": "https://dc.lft.to/lastmile_qr_scan"}, "lon": -77.1265555, "fusion_lon": 0.0, "is_disabled": 0, "lat": 38.815199166666666, "bike_id": "d1be8a82a6bd096b8779e60eb736e190", "name": "d1be8a82a6bd096b8779e60eb736e190", "is_reserved": 0, "fusion_lat": 0.0}, {"type": "electric_scooter", "rental_uris": {"ios": "https://dc.lft.to/lastmile_qr_scan", "android": "https://dc.lft.to/lastmile_qr_scan"}, "lon": -76.99698816666667, "fusion_lon": 0.0, "is_disabled": 0, "lat": 38.90826333333333, "bike_id": "a87e9c9099c2dbc3d096e7b58f6db832", "name": "a87e9c9099c2dbc3d096e7b58f6db832", "is_reserved": 0, "fusion_lat": 0.0}, {"type": "electric_bike", "rental_uris": {"ios": "https://dc.lft.to/lastmile_qr_scan", "android": "https://dc.lft.to/lastmile_qr_scan"}, "lon": -77.11281633333333, "fusion_lon": 0.0, "is_disabled": 0, "lat": 38.831706, "bike_id": "28d86575c190e6b325176b0f77856650", "name": "28d86575c190e6b325176b0f77856650", "is_reserved": 0, "fusion_lat": 0.0}, {"type": "electric_scooter", "rental_uris": {"ios": "https://dc.lft.to/lastmile_qr_scan", "android": "https://dc.lft.to/lastmile_qr_scan"}, "lon": -77.03456483333333, "fusion_lon": 0.0, "is_disabled": 0, "lat": 38.908131166666664, "bike_id": "c81d995df05740f6150c5dc0596fee44", "name": "c81d995df05740f6150c5dc0596fee44", "is_reserved": 0, "fusion_lat": 0.0}, {"type": "electric_scooter", "rental_uris": {"ios": "https://dc.lft.to/lastmile_qr_scan", "android": "https://dc.lft.to/lastmile_qr_scan"}, "lon": -77.04058733333333, "fusion_lon": 0.0, "is_disabled": 0, "lat": 38.912830166666666, "bike_id": "decf29ad01c8e2430d143d6e08e12257", "name": "decf29ad01c8e2430d143d6e08e12257", "is_reserved": 0, "fusion_lat": 0.0}, {"type": "electric_scooter", "rental_uris": {"ios": "https://dc.lft.to/lastmile_qr_scan", "android": "https://dc.lft.to/lastmile_qr_scan"}, "lon": -77.02322366666667, "fusion_lon": 0.0, "is_disabled": 0, "lat": 38.89222383333333, "bike_id": "cc05f0e3854e40d1d84e5fc3ab2e3b47", "name": "cc05f0e3854e40d1d84e5fc3ab2e3b47", "is_reserved": 0, "fusion_lat": 0.0}, {"type": "electric_scooter", "rental_uris": {"ios": "https://dc.lft.to/lastmile_qr_scan", "android": "https://dc.lft.to/lastmile_qr_scan"}, "lon": -77.034702, "fusion_lon": 0.0, "is_disabled": 0, "lat": 38.90273466666667, "bike_id": "462b3db1eecbeb5ea24683e279007062", "name": "462b3db1eecbeb5ea24683e279007062", "is_reserved": 0, "fusion_lat": 0.0}, {"type": "electric_scooter", "rental_uris": {"ios": "https://dc.lft.to/lastmile_qr_scan", "android": "https://dc.lft.to/lastmile_qr_scan"}, "lon": -77.0323595, "fusion_lon": 0.0, "is_disabled": 0, "lat": 38.92164016666667, "bike_id": "e01a0aa33179738fd1480d5ab333b707", "name": "e01a0aa33179738fd1480d5ab333b707", "is_reserved": 0, "fusion_lat": 0.0}, {"type": "electric_scooter", "rental_uris": {"ios": "https://dc.lft.to/lastmile_qr_scan", "android": "https://dc.lft.to/lastmile_qr_scan"}, "lon": -76.99795233333333, "fusion_lon": 0.0, "is_disabled": 0, "lat": 38.87494566666667, "bike_id": "a9c17c39e5e0cfde5716a20dc2cc569e", "name": "a9c17c39e5e0cfde5716a20dc2cc569e", "is_reserved": 0, "fusion_lat": 0.0}, {"type": "electric_scooter", "rental_uris": {"ios": "https://dc.lft.to/lastmile_qr_scan", "android": "https://dc.lft.to/lastmile_qr_scan"}, "lon": -77.02129166666667, "fusion_lon": 0.0, "is_disabled": 0, "lat": 38.8874305, "bike_id": "f80908d9fe5c29f41ff70b86a90624a3", "name": "f80908d9fe5c29f41ff70b86a90624a3", "is_reserved": 0, "fusion_lat": 0.0}, {"type": "electric_bike", "rental_uris": {"ios": "https://dc.lft.to/lastmile_qr_scan", "android": "https://dc.lft.to/lastmile_qr_scan"}, "lon": -77.20840866666667, "fusion_lon": 0.0, "is_disabled": 0, "lat": 38.924629333333336, "bike_id": "9c8be1a37f256063b07cf346ed5afc28", "name": "9c8be1a37f256063b07cf346ed5afc28", "is_reserved": 0, "fusion_lat": 0.0}, {"type": "electric_scooter", "rental_uris": {"ios": "https://dc.lft.to/lastmile_qr_scan", "android": "https://dc.lft.to/lastmile_qr_scan"}, "lon": -77.02208266666666, "fusion_lon": 0.0, "is_disabled": 0, "lat": 38.91090783333333, "bike_id": "1334293b0b122313c756bb921acf51c5", "name": "1334293b0b122313c756bb921acf51c5", "is_reserved": 0, "fusion_lat": 0.0}, {"type": "electric_scooter", "rental_uris": {"ios": "https://dc.lft.to/lastmile_qr_scan", "android": "https://dc.lft.to/lastmile_qr_scan"}, "lon": -77.0400535, "fusion_lon": 0.0, "is_disabled": 0, "lat": 38.915636666666664, "bike_id": "3abd92b273da35022290433270930d5c", "name": "3abd92b273da35022290433270930d5c", "is_reserved": 0, "fusion_lat": 0.0}, {"type": "electric_scooter", "rental_uris": {"ios": "https://dc.lft.to/lastmile_qr_scan", "android": "https://dc.lft.to/lastmile_qr_scan"}, "lon": -77.03898416666667, "fusion_lon": 0.0, "is_disabled": 0, "lat": 38.91716016666667, "bike_id": "0d7f0adf5946993806f89a1238d4131a", "name": "0d7f0adf5946993806f89a1238d4131a", "is_reserved": 0, "fusion_lat": 0.0}, {"type": "electric_scooter", "rental_uris": {"ios": "https://dc.lft.to/lastmile_qr_scan", "android": "https://dc.lft.to/lastmile_qr_scan"}, "lon": -77.032474, "fusion_lon": 0.0, "is_disabled": 0, "lat": 38.917005833333334, "bike_id": "d457b7c553ee80b57e7933344f0fe0c8", "name": "d457b7c553ee80b57e7933344f0fe0c8", "is_reserved": 0, "fusion_lat": 0.0}, {"type": "electric_scooter", "rental_uris": {"ios": "https://dc.lft.to/lastmile_qr_scan", "android": "https://dc.lft.to/lastmile_qr_scan"}, "lon": -77.07302233333333, "fusion_lon": 0.0, "is_disabled": 0, "lat": 38.9288385, "bike_id": "44ba650a8e124d93c663c9aa0dddcf9a", "name": "44ba650a8e124d93c663c9aa0dddcf9a", "is_reserved": 0, "fusion_lat": 0.0}, {"type": "electric_scooter", "rental_uris": {"ios": "https://dc.lft.to/lastmile_qr_scan", "android": "https://dc.lft.to/lastmile_qr_scan"}, "lon": -77.0532375, "fusion_lon": 0.0, "is_disabled": 0, "lat": 38.90511016666667, "bike_id": "8e56b93630061d32161f71f318de9574", "name": "8e56b93630061d32161f71f318de9574", "is_reserved": 0, "fusion_lat": 0.0}, {"type": "electric_scooter", "rental_uris": {"ios": "https://dc.lft.to/lastmile_qr_scan", "android": "https://dc.lft.to/lastmile_qr_scan"}, "lon": -77.02348466666666, "fusion_lon": 0.0, "is_disabled": 0, "lat": 38.917762333333336, "bike_id": "f76ca890a63d542311780b99f298a5b1", "name": "f76ca890a63d542311780b99f298a5b1", "is_reserved": 0, "fusion_lat": 0.0}, {"type": "electric_scooter", "rental_uris": {"ios": "https://dc.lft.to/lastmile_qr_scan", "android": "https://dc.lft.to/lastmile_qr_scan"}, "lon": -77.0318535, "fusion_lon": 0.0, "is_disabled": 0, "lat": 38.91743016666667, "bike_id": "cf5c2021ca59fae08f4a1fd6c43d30e2", "name": "cf5c2021ca59fae08f4a1fd6c43d30e2", "is_reserved": 0, "fusion_lat": 0.0}, {"type": "electric_scooter", "rental_uris": {"ios": "https://dc.lft.to/lastmile_qr_scan", "android": "https://dc.lft.to/lastmile_qr_scan"}, "lon": -77.03749666666667, "fusion_lon": 0.0, "is_disabled": 0, "lat": 38.9125525, "bike_id": "7d88a33a4668f5cd5bf2dabd53e751bd", "name": "7d88a33a4668f5cd5bf2dabd53e751bd", "is_reserved": 0, "fusion_lat": 0.0}, {"type": "electric_scooter", "rental_uris": {"ios": "https://dc.lft.to/lastmile_qr_scan", "android": "https://dc.lft.to/lastmile_qr_scan"}, "lon": -77.02217083333333, "fusion_lon": 0.0, "is_disabled": 0, "lat": 38.915657833333334, "bike_id": "e8ad31b8d2531b5bd29c32e5e260dd89", "name": "e8ad31b8d2531b5bd29c32e5e260dd89", "is_reserved": 0, "fusion_lat": 0.0}, {"type": "electric_scooter", "rental_uris": {"ios": "https://dc.lft.to/lastmile_qr_scan", "android": "https://dc.lft.to/lastmile_qr_scan"}, "lon": -76.98889933333334, "fusion_lon": 0.0, "is_disabled": 0, "lat": 38.86657233333333, "bike_id": "384151bff62c649dbec3bc8917d1b4fb", "name": "384151bff62c649dbec3bc8917d1b4fb", "is_reserved": 0, "fusion_lat": 0.0}, {"type": "electric_scooter", "rental_uris": {"ios": "https://dc.lft.to/lastmile_qr_scan", "android": "https://dc.lft.to/lastmile_qr_scan"}, "lon": -77.04349983333333, "fusion_lon": 0.0, "is_disabled": 0, "lat": 38.91299466666667, "bike_id": "ce5f652b2d38fc0dc5f8ee19dc80e282", "name": "ce5f652b2d38fc0dc5f8ee19dc80e282", "is_reserved": 0, "fusion_lat": 0.0}, {"type": "electric_scooter", "rental_uris": {"ios": "https://dc.lft.to/lastmile_qr_scan", "android": "https://dc.lft.to/lastmile_qr_scan"}, "lon": -77.0059975, "fusion_lon": 0.0, "is_disabled": 0, "lat": 38.90562883333333, "bike_id": "3c6c1a9740b7c72d061cdc222b2bf0ca", "name": "3c6c1a9740b7c72d061cdc222b2bf0ca", "is_reserved": 0, "fusion_lat": 0.0}, {"type": "electric_scooter", "rental_uris": {"ios": "https://dc.lft.to/lastmile_qr_scan", "android": "https://dc.lft.to/lastmile_qr_scan"}, "lon": -76.9335395, "fusion_lon": 0.0, "is_disabled": 0, "lat": 38.8990615, "bike_id": "8a523646cb55ec4be7ef8433a5602432", "name": "8a523646cb55ec4be7ef8433a5602432", "is_reserved": 0, "fusion_lat": 0.0}, {"type": "electric_scooter", "rental_uris": {"ios": "https://dc.lft.to/lastmile_qr_scan", "android": "https://dc.lft.to/lastmile_qr_scan"}, "lon": -77.04451233333333, "fusion_lon": 0.0, "is_disabled": 0, "lat": 38.91186716666667, "bike_id": "7739edff4517fed0c83c41b9082569cc", "name": "7739edff4517fed0c83c41b9082569cc", "is_reserved": 0, "fusion_lat": 0.0}, {"type": "electric_scooter", "rental_uris": {"ios": "https://dc.lft.to/lastmile_qr_scan", "android": "https://dc.lft.to/lastmile_qr_scan"}, "lon": -77.02431483333334, "fusion_lon": 0.0, "is_disabled": 0, "lat": 38.9563, "bike_id": "90364c33eb6a6d7832d4bf6a0e42dac8", "name": "90364c33eb6a6d7832d4bf6a0e42dac8", "is_reserved": 0, "fusion_lat": 0.0}, {"type": "electric_scooter", "rental_uris": {"ios": "https://dc.lft.to/lastmile_qr_scan", "android": "https://dc.lft.to/lastmile_qr_scan"}, "lon": -77.0221485, "fusion_lon": 0.0, "is_disabled": 0, "lat": 38.91552566666667, "bike_id": "29b17b2e9cd22e9c643ac6ffc3211e86", "name": "29b17b2e9cd22e9c643ac6ffc3211e86", "is_reserved": 0, "fusion_lat": 0.0}, {"type": "electric_scooter", "rental_uris": {"ios": "https://dc.lft.to/lastmile_qr_scan", "android": "https://dc.lft.to/lastmile_qr_scan"}, "lon": -77.04337016666666, "fusion_lon": 0.0, "is_disabled": 0, "lat": 38.895228833333334, "bike_id": "a339dc1f7a4a83c9eae04ef9ad6aff41", "name": "a339dc1f7a4a83c9eae04ef9ad6aff41", "is_reserved": 0, "fusion_lat": 0.0}, {"type": "electric_bike", "rental_uris": {"ios": "https://dc.lft.to/lastmile_qr_scan", "android": "https://dc.lft.to/lastmile_qr_scan"}, "lon": -77.01205416666667, "fusion_lon": 0.0, "is_disabled": 0, "lat": 38.87252183333333, "bike_id": "595df359c82e18f567370dd7a812c99a", "name": "595df359c82e18f567370dd7a812c99a", "is_reserved": 0, "fusion_lat": 0.0}, {"type": "electric_bike", "rental_uris": {"ios": "https://dc.lft.to/lastmile_qr_scan", "android": "https://dc.lft.to/lastmile_qr_scan"}, "lon": -77.17839866666667, "fusion_lon": 0.0, "is_disabled": 0, "lat": 39.08864966666667, "bike_id": "bb9a05eedd17be58df0241af865e1628", "name": "bb9a05eedd17be58df0241af865e1628", "is_reserved": 0, "fusion_lat": 0.0}, {"type": "electric_bike", "rental_uris": {"ios": "https://dc.lft.to/lastmile_qr_scan", "android": "https://dc.lft.to/lastmile_qr_scan"}, "lon": -77.222301, "fusion_lon": 0.0, "is_disabled": 0, "lat": 38.92858866666667, "bike_id": "aa1706d944cfd1ff433f9818598eb2fe", "name": "aa1706d944cfd1ff433f9818598eb2fe", "is_reserved": 0, "fusion_lat": 0.0}, {"type": "electric_scooter", "rental_uris": {"ios": "https://dc.lft.to/lastmile_qr_scan", "android": "https://dc.lft.to/lastmile_qr_scan"}, "lon": -76.9399195, "fusion_lon": 0.0, "is_disabled": 0, "lat": 38.89976633333333, "bike_id": "65073be07f4901afb04d458e60487059", "name": "65073be07f4901afb04d458e60487059", "is_reserved": 0, "fusion_lat": 0.0}, {"type": "electric_scooter", "rental_uris": {"ios": "https://dc.lft.to/lastmile_qr_scan", "android": "https://dc.lft.to/lastmile_qr_scan"}, "lon": -77.03286883333334, "fusion_lon": 0.0, "is_disabled": 0, "lat": 38.927491, "bike_id": "cc4fb9ddc21eb55e654858be36620944", "name": "cc4fb9ddc21eb55e654858be36620944", "is_reserved": 0, "fusion_lat": 0.0}, {"type": "electric_scooter", "rental_uris": {"ios": "https://dc.lft.to/lastmile_qr_scan", "android": "https://dc.lft.to/lastmile_qr_scan"}, "lon": -77.05050516666667, "fusion_lon": 0.0, "is_disabled": 0, "lat": 38.89284516666667, "bike_id": "c52e9ce024bb9b634486693017836e40", "name": "c52e9ce024bb9b634486693017836e40", "is_reserved": 0, "fusion_lat": 0.0}, {"type": "electric_scooter", "rental_uris": {"ios": "https://dc.lft.to/lastmile_qr_scan", "android": "https://dc.lft.to/lastmile_qr_scan"}, "lon": -77.02417983333333, "fusion_lon": 0.0, "is_disabled": 0, "lat": 38.915552, "bike_id": "1bf99b86de302feb82fa4c87aa37a0a9", "name": "1bf99b86de302feb82fa4c87aa37a0a9", "is_reserved": 0, "fusion_lat": 0.0}, {"type": "electric_bike", "rental_uris": {"ios": "https://dc.lft.to/lastmile_qr_scan", "android": "https://dc.lft.to/lastmile_qr_scan"}, "lon": -76.96535166666666, "fusion_lon": 0.0, "is_disabled": 0, "lat": 38.87482333333333, "bike_id": "cf36f9f666da39439c2967473d82be07", "name": "cf36f9f666da39439c2967473d82be07", "is_reserved": 0, "fusion_lat": 0.0}, {"type": "electric_scooter", "rental_uris": {"ios": "https://dc.lft.to/lastmile_qr_scan", "android": "https://dc.lft.to/lastmile_qr_scan"}, "lon": -77.02699666666666, "fusion_lon": 0.0, "is_disabled": 0, "lat": 38.906809833333334, "bike_id": "2bb2d04e51532ad6a95cf63fe16609f8", "name": "2bb2d04e51532ad6a95cf63fe16609f8", "is_reserved": 0, "fusion_lat": 0.0}, {"type": "electric_scooter", "rental_uris": {"ios": "https://dc.lft.to/lastmile_qr_scan", "android": "https://dc.lft.to/lastmile_qr_scan"}, "lon": -77.07525216666667, "fusion_lon": 0.0, "is_disabled": 0, "lat": 38.9394665, "bike_id": "ca2db7d29868fa462ff997e1c701d4e4", "name": "ca2db7d29868fa462ff997e1c701d4e4", "is_reserved": 0, "fusion_lat": 0.0}, {"type": "electric_scooter", "rental_uris": {"ios": "https://dc.lft.to/lastmile_qr_scan", "android": "https://dc.lft.to/lastmile_qr_scan"}, "lon": -77.02165016666666, "fusion_lon": 0.0, "is_disabled": 0, "lat": 38.93077433333333, "bike_id": "d46043200bae6a628273047d991c37d8", "name": "d46043200bae6a628273047d991c37d8", "is_reserved": 0, "fusion_lat": 0.0}, {"type": "electric_scooter", "rental_uris": {"ios": "https://dc.lft.to/lastmile_qr_scan", "android": "https://dc.lft.to/lastmile_qr_scan"}, "lon": -77.0091975, "fusion_lon": 0.0, "is_disabled": 0, "lat": 38.89541766666667, "bike_id": "4f1c8bf4959426e2233d07ee60e7c4e3", "name": "4f1c8bf4959426e2233d07ee60e7c4e3", "is_reserved": 0, "fusion_lat": 0.0}, {"type": "electric_scooter", "rental_uris": {"ios": "https://dc.lft.to/lastmile_qr_scan", "android": "https://dc.lft.to/lastmile_qr_scan"}, "lon": -77.02687883333333, "fusion_lon": 0.0, "is_disabled": 0, "lat": 38.92589, "bike_id": "26b91fdfd6ebe8dcae59d095246a70b5", "name": "26b91fdfd6ebe8dcae59d095246a70b5", "is_reserved": 0, "fusion_lat": 0.0}, {"type": "electric_bike", "rental_uris": {"ios": "https://dc.lft.to/lastmile_qr_scan", "android": "https://dc.lft.to/lastmile_qr_scan"}, "lon": -77.05634816666667, "fusion_lon": 0.0, "is_disabled": 0, "lat": 38.98653383333333, "bike_id": "9f0a9a9548b804d1eaad503fb79e4362", "name": "9f0a9a9548b804d1eaad503fb79e4362", "is_reserved": 0, "fusion_lat": 0.0}, {"type": "electric_scooter", "rental_uris": {"ios": "https://dc.lft.to/lastmile_qr_scan", "android": "https://dc.lft.to/lastmile_qr_scan"}, "lon": -77.040154, "fusion_lon": 0.0, "is_disabled": 0, "lat": 38.917969666666664, "bike_id": "b7c2b8971c5a4af7b0fe0ccb55f73458", "name": "b7c2b8971c5a4af7b0fe0ccb55f73458", "is_reserved": 0, "fusion_lat": 0.0}, {"type": "electric_scooter", "rental_uris": {"ios": "https://dc.lft.to/lastmile_qr_scan", "android": "https://dc.lft.to/lastmile_qr_scan"}, "lon": -77.02520416666667, "fusion_lon": 0.0, "is_disabled": 0, "lat": 38.946202666666665, "bike_id": "eda26a9c111abc59d0b183318d45ac26", "name": "eda26a9c111abc59d0b183318d45ac26", "is_reserved": 0, "fusion_lat": 0.0},