{"data": {"bikes": [{"type": "electric_scooter", "name": "be1dd94615ef32666e72564b5b9d13a7", "is_reserved": 0, "fusion_lat": 0.0, "lon": -77.02684083333334, "is_disabled": 0, "rental_uris": {"android": "https://dc.lft.to/lastmile_qr_scan", "ios": "https://dc.lft.to/lastmile_qr_scan"}, "bike_id": "be1dd94615ef32666e72564b5b9d13a7", "fusion_lon": 0.0, "lat": 38.9126815}, {"type": "electric_scooter", "name": "fd76959602e00ecdc6270d0052bef37d", "is_reserved": 0, "fusion_lat": 0.0, "lon": -77.00765933333334, "is_disabled": 0, "rental_uris": {"android": "https://dc.lft.to/lastmile_qr_scan", "ios": "https://dc.lft.to/lastmile_qr_scan"}, "bike_id": "fd76959602e00ecdc6270d0052bef37d", "fusion_lon": 0.0, "lat": 38.826031666666665}, {"type": "electric_bike", "name": "597b7cc510cc8c8b874d29ea6eee0563", "is_reserved": 0, "fusion_lat": 0.0, "lon": -77.124849, "is_disabled": 0, "rental_uris": {"android": "https://dc.lft.to/lastmile_qr_scan", "ios": "https://dc.lft.to/lastmile_qr_scan"}, "bike_id": "597b7cc510cc8c8b874d29ea6eee0563", "fusion_lon": 0.0, "lat": 38.853949}, {"type": "electric_scooter", "name": "cca3a3101590f43d96d607efa44e23b7", "is_reserved": 0, "fusion_lat": 0.0, "lon": -77.0520225, "is_disabled": 0, "rental_uris": {"android": "https://dc.lft.to/lastmile_qr_scan", "ios": "https://dc.lft.to/lastmile_qr_scan"}, "bike_id": "cca3a3101590f43d96d607efa44e23b7", "fusion_lon": 0.0, "lat": 38.924713}, {"type": "electric_scooter", "name": "02dd3b9f7ddfdf8e3b4de705e174705c", "is_reserved": 0, "fusion_lat": 0.0, "lon": -77.005665, "is_disabled": 0, "rental_uris": {"android": "https://dc.lft.to/lastmile_qr_scan", "ios": "https://dc.lft.to/lastmile_qr_scan"}, "bike_id": "02dd3b9f7ddfdf8e3b4de705e174705c", "fusion_lon": 0.0, "lat": 38.88599083333333}, {"type": "electric_bike", "name": "53fab60aeca9cc671b4f5ac12e4d5b1d", "is_reserved": 0, "fusion_lat": 0.0, "lon": -77.04128383333334, "is_disabled": 0, "rental_uris": {"android": "https://dc.lft.to/lastmile_qr_scan", "ios": "https://dc.lft.to/lastmile_qr_scan"}, "bike_id": "53fab60aeca9cc671b4f5ac12e4d5b1d", "fusion_lon": 0.0, "lat": 38.930857}, {"type": "electric_scooter", "name": "a9a944393383b69ef9f23cfe2de0754c", "is_reserved": 0, "fusion_lat": 0.0, "lon": -77.0354645, "is_disabled": 0, "rental_uris": {"android": "https://dc.lft.to/lastmile_qr_scan", "ios": "https://dc.lft.to/lastmile_qr_scan"}, "bike_id": "a9a944393383b69ef9f23cfe2de0754c", "fusion_lon": 0.0, "lat": 38.9231555}, {"type": "electric_scooter", "name": "90457ee922c34e0d1a804dc6c5d504c6", "is_reserved": 0, "fusion_lat": 0.0, "lon": -77.043613, "is_disabled": 0, "rental_uris": {"android": "https://dc.lft.to/lastmile_qr_scan", "ios": "https://dc.lft.to/lastmile_qr_scan"}, "bike_id": "90457ee922c34e0d1a804dc6c5d504c6", "fusion_lon": 0.0, "lat": 38.905216833333334}, {"type": "electric_scooter", "name": "7ca0dcfdee3301e54242456264aa7fd6", "is_reserved": 0, "fusion_lat": 0.0, "lon": -77.02303516666667, "is_disabled": 0, "rental_uris": {"android": "https://dc.lft.to/lastmile_qr_scan", "ios": "https://dc.lft.to/lastmile_qr_scan"}, "bike_id": "7ca0dcfdee3301e54242456264aa7fd6", "fusion_lon": 0.0, "lat": 38.908561}, {"type": "electric_scooter", "name": "4cd8f0159a6adf7cda280aae7ecf4bcd", "is_reserved": 0, "fusion_lat": 0.0, "lon": -76.98720816666666, "is_disabled": 0, "rental_uris": {"android": "https://dc.lft.to/lastmile_qr_scan", "ios": "https://dc.lft.to/lastmile_qr_scan"}, "bike_id": "4cd8f0159a6adf7cda280aae7ecf4bcd", "fusion_lon": 0.0, "lat": 38.86627816666667}, {"type": "electric_bike", "name": "2db6fd28b1303060a021697559914d49", "is_reserved": 0, "fusion_lat": 0.0, "lon": -77.07432583333333, "is_disabled": 0, "rental_uris": {"android": "https://dc.lft.to/lastmile_qr_scan", "ios": "https://dc.lft.to/lastmile_qr_scan"}, "bike_id": "2db6fd28b1303060a021697559914d49", "fusion_lon": 0.0, "lat": 38.999456}, {"type": "electric_scooter", "name": "285699e0fd2ba6e8b05147d197b3bb06", "is_reserved": 0, "fusion_lat": 0.0, "lon": -77.02435733333333, "is_disabled": 0, "rental_uris": {"android": "https://dc.lft.to/lastmile_qr_scan", "ios": "https://dc.lft.to/lastmile_qr_scan"}, "bike_id": "285699e0fd2ba6e8b05147d197b3bb06", "fusion_lon": 0.0, "lat": 38.927284666666665}, {"type": "electric_bike", "name": "ae2e9fdea7cec69458572d7737cec854", "is_reserved": 0, "fusion_lat": 0.0, "lon": -76.9753625, "is_disabled": 0, "rental_uris": {"android": "https://dc.lft.to/lastmile_qr_scan", "ios": "https://dc.lft.to/lastmile_qr_scan"}, "bike_id": "ae2e9fdea7cec69458572d7737cec854", "fusion_lon": 0.0, "lat": 38.840134166666665}, {"type": "electric_scooter", "name": "0cf3cce6a77bb0605a28bce643c861eb", "is_reserved": 0, "fusion_lat": 0.0, "lon": -77.02277316666667, "is_disabled": 0, "rental_uris": {"android": "https://dc.lft.to/lastmile_qr_scan", "ios": "https://dc.lft.to/lastmile_qr_scan"}, "bike_id": "0cf3cce6a77bb0605a28bce643c861eb", "fusion_lon": 0.0, "lat": 38.91680233333334}, {"type": "electric_scooter", "name": "10b58297d0f2eb35b8a5bcff46c9c44c", "is_reserved": 0, "fusion_lat": 0.0, "lon": -77.02086083333333, "is_disabled": 0, "rental_uris": {"android": "https://dc.lft.to/lastmile_qr_scan", "ios": "https://dc.lft.to/lastmile_qr_scan"}, "bike_id": "10b58297d0f2eb35b8a5bcff46c9c44c", "fusion_lon": 0.0, "lat": 38.927150833333336}, {"type": "electric_scooter", "name": "1fa360a636e45e17f22fbfa182010869", "is_reserved": 0, "fusion_lat": 0.0, "lon": -76.983524, "is_disabled": 0, "rental_uris": {"android": "https://dc.lft.to/lastmile_qr_scan", "ios": "https://dc.lft.to/lastmile_qr_scan"}, "bike_id": "1fa360a636e45e17f22fbfa182010869", "fusion_lon": 0.0, "lat": 38.91546366666667}, {"type": "electric_scooter", "name": "d66a18f7f1a0f17380542fa38dcb3cac", "is_reserved": 0, "fusion_lat": 0.0, "lon": -77.04547966666667, "is_disabled": 0, "rental_uris": {"android": "https://dc.lft.to/lastmile_qr_scan", "ios": "https://dc.lft.to/lastmile_qr_scan"}, "bike_id": "d66a18f7f1a0f17380542fa38dcb3cac", "fusion_lon": 0.0, "lat": 38.92062883333333}, {"type": "electric_scooter", "name": "f91fb76577ad79c16e50e3842ea2836e", "is_reserved": 0, "fusion_lat": 0.0, "lon": -77.02795666666667, "is_disabled": 0, "rental_uris": {"android": "https://dc.lft.to/lastmile_qr_scan", "ios": "https://dc.lft.to/lastmile_qr_scan"}, "bike_id": "f91fb76577ad79c16e50e3842ea2836e", "fusion_lon": 0.0, "lat": 38.95397883333333}, {"type": "electric_scooter", "name": "3ce8dde866e552ef799ec31768a484f1", "is_reserved": 0, "fusion_lat": 0.0, "lon": -77.04243483333333, "is_disabled": 0, "rental_uris": {"android": "https://dc.lft.to/lastmile_qr_scan", "ios": "https://dc.lft.to/lastmile_qr_scan"}, "bike_id": "3ce8dde866e552ef799ec31768a484f1", "fusion_lon": 0.0, "lat": 38.922185666666664}, {"type": "electric_scooter", "name": "11669cede26542528d53b0a24cb36a59", "is_reserved": 0, "fusion_lat": 0.0, "lon": -77.043382, "is_disabled": 0, "rental_uris": {"android": "https://dc.lft.to/lastmile_qr_scan", "ios": "https://dc.lft.to/lastmile_qr_scan"}, "bike_id": "11669cede26542528d53b0a24cb36a59", "fusion_lon": 0.0, "lat": 38.9042335}, {"type": "electric_scooter", "name": "1570c4e2e6cd0626e9070081ecca9f8c", "is_reserved": 0, "fusion_lat": 0.0, "lon": -77.02416266666667, "is_disabled": 0, "rental_uris": {"android": "https://dc.lft.to/lastmile_qr_scan", "ios": "https://dc.lft.to/lastmile_qr_scan"}, "bike_id": "1570c4e2e6cd0626e9070081ecca9f8c", "fusion_lon": 0.0, "lat": 38.9380435}, {"type": "electric_scooter", "name": "9985caa6e33293d7cee405a4993c4ce6", "is_reserved": 0, "fusion_lat": 0.0, "lon": -77.0445145, "is_disabled": 0, "rental_uris": {"android": "https://dc.lft.to/lastmile_qr_scan", "ios": "https://dc.lft.to/lastmile_qr_scan"}, "bike_id": "9985caa6e33293d7cee405a4993c4ce6", "fusion_lon": 0.0, "lat": 38.911817}, {"type": "electric_scooter", "name": "0b6745f2e50d2e06a8327608d34645da", "is_reserved": 0, "fusion_lat": 0.0, "lon": -76.9361315, "is_disabled": 0, "rental_uris": {"android": "https://dc.lft.to/lastmile_qr_scan", "ios": "https://dc.lft.to/lastmile_qr_scan"}, "bike_id": "0b6745f2e50d2e06a8327608d34645da", "fusion_lon": 0.0, "lat": 38.8867245}, {"type": "electric_scooter", "name": "a021f18bb3da0adee78ac7a097adbbab", "is_reserved": 0, "fusion_lat": 0.0, "lon": -76.99777233333333, "is_disabled": 0, "rental_uris": {"android": "https://dc.lft.to/lastmile_qr_scan", "ios": "https://dc.lft.to/lastmile_qr_scan"}, "bike_id": "a021f18bb3da0adee78ac7a097adbbab", "fusion_lon": 0.0, "lat": 38.90900533333333}, {"type": "electric_scooter", "name": "6dd7bbef32546023e361fce81efa06e6", "is_reserved": 0, "fusion_lat": 0.0, "lon": -77.0366765, "is_disabled": 0, "rental_uris": {"android": "https://dc.lft.to/lastmile_qr_scan", "ios": "https://dc.lft.to/lastmile_qr_scan"}, "bike_id": "6dd7bbef32546023e361fce81efa06e6", "fusion_lon": 0.0, "lat": 38.927269333333335}, {"type": "electric_scooter", "name": "f2c72bf7c65119aa4f74ed3925be6177", "is_reserved": 0, "fusion_lat": 0.0, "lon": -77.0381325, "is_disabled": 0, "rental_uris": {"android": "https://dc.lft.to/lastmile_qr_scan", "ios": "https://dc.lft.to/lastmile_qr_scan"}, "bike_id": "f2c72bf7c65119aa4f74ed3925be6177", "fusion_lon": 0.0, "lat": 38.925168}, {"type": "electric_scooter", "name": "16f5a6decee03c1ab070f045a3b93c24", "is_reserved": 0, "fusion_lat": 0.0, "lon": -77.03288483333333, "is_disabled": 0, "rental_uris": {"android": "https://dc.lft.to/lastmile_qr_scan", "ios": "https://dc.lft.to/lastmile_qr_scan"}, "bike_id": "16f5a6decee03c1ab070f045a3b93c24", "fusion_lon": 0.0, "lat": 38.9387895}, {"type": "electric_scooter", "name": "fefe1fe4246fcae781e479528e478d06", "is_reserved": 0, "fusion_lat": 0.0, "lon": -77.034099, "is_disabled": 0, "rental_uris": {"android": "https://dc.lft.to/lastmile_qr_scan", "ios": "https://dc.lft.to/lastmile_qr_scan"}, "bike_id": "fefe1fe4246fcae781e479528e478d06", "fusion_lon": 0.0, "lat": 38.903926166666665}, {"type": "electric_scooter", "name": "d34969d8adf8fab2627fd81c49e8f0b3", "is_reserved": 0, "fusion_lat": 0.0, "lon": -77.03124883333334, "is_disabled": 0, "rental_uris": {"android": "https://dc.lft.to/lastmile_qr_scan", "ios": "https://dc.lft.to/lastmile_qr_scan"}, "bike_id": "d34969d8adf8fab2627fd81c49e8f0b3", "fusion_lon": 0.0, "lat": 38.91026766666667}, {"type": "electric_scooter", "name": "a507921d726302f692ea7f130cca83e3", "is_reserved": 0, "fusion_lat": 0.0, "lon": -77.02293183333333, "is_disabled": 0, "rental_uris": {"android": "https://dc.lft.to/lastmile_qr_scan", "ios": "https://dc.lft.to/lastmile_qr_scan"}, "bike_id": "a507921d726302f692ea7f130cca83e3", "fusion_lon": 0.0, "lat": 38.910765166666664}, {"type": "electric_scooter", "name": "630d4d5469f834d098a8e35781c84ce3", "is_reserved": 0, "fusion_lat": 0.0, "lon": -77.026696, "is_disabled": 0, "rental_uris": {"android": "https://dc.lft.to/lastmile_qr_scan", "ios": "https://dc.lft.to/lastmile_qr_scan"}, "bike_id": "630d4d5469f834d098a8e35781c84ce3", "fusion_lon": 0.0, "lat": 38.89713966666667}, {"type": "electric_scooter", "name": "0da9d914bdcae5f130d2a44275df56d7", "is_reserved": 0, "fusion_lat": 0.0, "lon": -77.03322116666666, "is_disabled": 0, "rental_uris": {"android": "https://dc.lft.to/lastmile_qr_scan", "ios": "https://dc.lft.to/lastmile_qr_scan"}, "bike_id": "0da9d914bdcae5f130d2a44275df56d7", "fusion_lon": 0.0, "lat": 38.928889166666664}, {"type": "electric_scooter", "name": "099de68e1e37518ba53848240494ae16", "is_reserved": 0, "fusion_lat": 0.0, "lon": -77.02722733333333, "is_disabled": 0, "rental_uris": {"android": "https://dc.lft.to/lastmile_qr_scan", "ios": "https://dc.lft.to/lastmile_qr_scan"}, "bike_id": "099de68e1e37518ba53848240494ae16", "fusion_lon": 0.0, "lat": 38.94959266666667}, {"type": "electric_scooter", "name": "599f7f84f417e3ecf74a98153ba4c6ba", "is_reserved": 0, "fusion_lat": 0.0, "lon": -77.00888216666667, "is_disabled": 0, "rental_uris": {"android": "https://dc.lft.to/lastmile_qr_scan", "ios": "https://dc.lft.to/lastmile_qr_scan"}, "bike_id": "599f7f84f417e3ecf74a98153ba4c6ba", "fusion_lon": 0.0, "lat": 38.902573}, {"type": "electric_scooter", "name": "a4a069b79a726f5b8193672df197f2d7", "is_reserved": 0, "fusion_lat": 0.0, "lon": -76.98274283333333, "is_disabled": 0, "rental_uris": {"android": "https://dc.lft.to/lastmile_qr_scan", "ios": "https://dc.lft.to/lastmile_qr_scan"}, "bike_id": "a4a069b79a726f5b8193672df197f2d7", "fusion_lon": 0.0, "lat": 38.86305566666667}, {"type": "electric_scooter", "name": "1f91d7dfc8bd8ff57e15f8ac087c94b5", "is_reserved": 0, "fusion_lat": 0.0, "lon": -77.02205333333333, "is_disabled": 0, "rental_uris": {"android": "https://dc.lft.to/lastmile_qr_scan", "ios": "https://dc.lft.to/lastmile_qr_scan"}, "bike_id": "1f91d7dfc8bd8ff57e15f8ac087c94b5", "fusion_lon": 0.0, "lat": 38.921087166666666}, {"type": "electric_scooter", "name": "a3754c7e7b38e93141a0919e69ec0746", "is_reserved": 0, "fusion_lat": 0.0, "lon": -77.04861633333333, "is_disabled": 0, "rental_uris": {"android": "https://dc.lft.to/lastmile_qr_scan", "ios": "https://dc.lft.to/lastmile_qr_scan"}, "bike_id": "a3754c7e7b38e93141a0919e69ec0746", "fusion_lon": 0.0, "lat": 38.9196575}, {"type": "electric_scooter", "name": "5aa11f8ed1147cc1bfa9b6bf78ed48ea", "is_reserved": 0, "fusion_lat": 0.0, "lon": -77.05583683333333, "is_disabled": 0, "rental_uris": {"android": "https://dc.lft.to/lastmile_qr_scan", "ios": "https://dc.lft.to/lastmile_qr_scan"}, "bike_id": "5aa11f8ed1147cc1bfa9b6bf78ed48ea", "fusion_lon": 0.0, "lat": 38.893242666666666}, {"type": "electric_scooter", "name": "9b054fd37343f9a82f0541895d902f50", "is_reserved": 0, "fusion_lat": 0.0, "lon": -77.02530883333333, "is_disabled": 0, "rental_uris": {"android": "https://dc.lft.to/lastmile_qr_scan", "ios": "https://dc.lft.to/lastmile_qr_scan"}, "bike_id": "9b054fd37343f9a82f0541895d902f50", "fusion_lon": 0.0, "lat": 38.94257283333334}, {"type": "electric_scooter", "name": "a207130a058e19eba1be6e1900f43734", "is_reserved": 0, "fusion_lat": 0.0, "lon": -77.005744, "is_disabled": 0, "rental_uris": {"android": "https://dc.lft.to/lastmile_qr_scan", "ios": "https://dc.lft.to/lastmile_qr_scan"}, "bike_id": "a207130a058e19eba1be6e1900f43734", "fusion_lon": 0.0, "lat": 38.87909633333334}, {"type": "electric_scooter", "name": "a6d3aa257290d60658963a5eb3be2668", "is_reserved": 0, "fusion_lat": 0.0, "lon": -77.05171516666667, "is_disabled": 0, "rental_uris": {"android": "https://dc.lft.to/lastmile_qr_scan", "ios": "https://dc.lft.to/lastmile_qr_scan"}, "bike_id": "a6d3aa257290d60658963a5eb3be2668", "fusion_lon": 0.0, "lat": 38.923428666666666}, {"type": "electric_scooter", "name": "3d32a005af297e450b8569b5ddbbf547", "is_reserved": 0, "fusion_lat": 0.0, "lon": -77.02493083333333, "is_disabled": 0, "rental_uris": {"android": "https://dc.lft.to/lastmile_qr_scan", "ios": "https://dc.lft.to/lastmile_qr_scan"}, "bike_id": "3d32a005af297e450b8569b5ddbbf547", "fusion_lon": 0.0, "lat": 38.938640166666666}, {"type": "electric_scooter", "name": "7e2daa74d717e843fd0c0a5c204e705d", "is_reserved": 0, "fusion_lat": 0.0, "lon": -77.03360733333334, "is_disabled": 0, "rental_uris": {"android": "https://dc.lft.to/lastmile_qr_scan", "ios": "https://dc.lft.to/lastmile_qr_scan"}, "bike_id": "7e2daa74d717e843fd0c0a5c204e705d", "fusion_lon": 0.0, "lat": 38.9192395}, {"type": "electric_scooter", "name": "b57bff276b35d3aafb5e7602d3cec96a", "is_reserved": 0, "fusion_lat": 0.0, "lon": -77.041791, "is_disabled": 0, "rental_uris": {"android": "https://dc.lft.to/lastmile_qr_scan", "ios": "https://dc.lft.to/lastmile_qr_scan"}, "bike_id": "b57bff276b35d3aafb5e7602d3cec96a", "fusion_lon": 0.0, "lat": 38.91975683333333}, {"type": "electric_scooter", "name": "de8ca9206a546c86b15f1ac10900c195", "is_reserved": 0, "fusion_lat": 0.0, "lon": -77.029688, "is_disabled": 0, "rental_uris": {"android": "https://dc.lft.to/lastmile_qr_scan", "ios": "https://dc.lft.to/lastmile_qr_scan"}, "bike_id": "de8ca9206a546c86b15f1ac10900c195", "fusion_lon": 0.0, "lat": 38.9071855}, {"type": "electric_scooter", "name": "1b8151cc5345e92cad6c6bf5bbceabcb", "is_reserved": 0, "fusion_lat": 0.0, "lon": -77.007532, "is_disabled": 0, "rental_uris": {"android": "https://dc.lft.to/lastmile_qr_scan", "ios": "https://dc.lft.to/lastmile_qr_scan"}, "bike_id": "1b8151cc5345e92cad6c6bf5bbceabcb", "fusion_lon": 0.0, "lat": 38.898475833333336}, {"type": "electric_scooter", "name": "f2ff685743398e07657064ea3980120d", "is_reserved": 0, "fusion_lat": 0.0, "lon": -77.03780766666667, "is_disabled": 0, "rental_uris": {"android": "https://dc.lft.to/lastmile_qr_scan", "ios": "https://dc.lft.to/lastmile_qr_scan"}, "bike_id": "f2ff685743398e07657064ea3980120d", "fusion_lon": 0.0, "lat": 38.916957833333335}, {"type": "electric_scooter", "name": "375267c4f3189679ea786e45092b684b", "is_reserved": 0, "fusion_lat": 0.0, "lon": -76.9888545, "is_disabled": 0, "rental_uris": {"android": "https://dc.lft.to/lastmile_qr_scan", "ios": "https://dc.lft.to/lastmile_qr_scan"}, "bike_id": "375267c4f3189679ea786e45092b684b", "fusion_lon": 0.0, "lat": 38.866558166666664}, {"type": "electric_scooter", "name": "cdbde4d38bd144365a3356cf715a46c9", "is_reserved": 0, "fusion_lat": 0.0, "lon": -77.0461695, "is_disabled": 0, "rental_uris": {"android": "https://dc.lft.to/lastmile_qr_scan", "ios": "https://dc.lft.to/lastmile_qr_scan"}, "bike_id": "cdbde4d38bd144365a3356cf715a46c9", "fusion_lon": 0.0, "lat": 38.909602666666665}, {"type": "electric_scooter", "name": "36c6e096bfa01356964ad7b598799087", "is_reserved": 0, "fusion_lat": 0.0, "lon": -77.0290265, "is_disabled": 0, "rental_uris": {"android": "https://dc.lft.to/lastmile_qr_scan", "ios": "https://dc.lft.to/lastmile_qr_scan"}, "bike_id": "36c6e096bfa01356964ad7b598799087", "fusion_lon": 0.0, "lat": 38.917176166666664}, {"type": "electric_bike", "name": "b3c4a3133a287ce7dcddd811f19e60d7", "is_reserved": 0, "fusion_lat": 0.0, "lon": -77.11568083333333, "is_disabled": 0, "rental_uris": {"android": "https://dc.lft.to/lastmile_qr_scan", "ios": "https://dc.lft.to/lastmile_qr_scan"}, "bike_id": "b3c4a3133a287ce7dcddd811f19e60d7", "fusion_lon": 0.0, "lat": 38.993295}, {"type": "electric_scooter", "name": "ff0c2d408cb393e4c36697d017b84406", "is_reserved": 0, "fusion_lat": 0.0, "lon": -77.04869683333334, "is_disabled": 0, "rental_uris": {"android": "https://dc.lft.to/lastmile_qr_scan", "ios": "https://dc.lft.to/lastmile_qr_scan"}, "bike_id": "ff0c2d408cb393e4c36697d017b84406", "fusion_lon": 0.0, "lat": 38.8927135}, {"type": "electric_scooter", "name": "8ceae76c72aee1018b77caaff3ecf2b8", "is_reserved": 0, "fusion_lat": 0.0, "lon": -77.02985483333333, "is_disabled": 0, "rental_uris": {"android": "https://dc.lft.to/lastmile_qr_scan", "ios": "https://dc.lft.to/lastmile_qr_scan"}, "bike_id": "8ceae76c72aee1018b77caaff3ecf2b8", "fusion_lon": 0.0, "lat": 38.8973}, {"type": "electric_scooter", "name": "654e858653ac0d01488a287912d454a7", "is_reserved": 0, "fusion_lat": 0.0, "lon": -77.02705066666667, "is_disabled": 0, "rental_uris": {"android": "https://dc.lft.to/lastmile_qr_scan", "ios": "https://dc.lft.to/lastmile_qr_scan"}, "bike_id": "654e858653ac0d01488a287912d454a7", "fusion_lon": 0.0, "lat": 38.918126}, {"type": "electric_scooter", "name": "ec80e1029db1c7661795131801837912", "is_reserved": 0, "fusion_lat": 0.0, "lon": -77.049325, "is_disabled": 0, "rental_uris": {"android": "https://dc.lft.to/lastmile_qr_scan", "ios": "https://dc.lft.to/lastmile_qr_scan"}, "bike_id": "ec80e1029db1c7661795131801837912", "fusion_lon": 0.0, "lat": 38.910005166666664}, {"type": "electric_scooter", "name": "d473297cb6bc69404c4ddf6857d04ad8", "is_reserved": 0, "fusion_lat": 0.0, "lon": -77.01964266666667, "is_disabled": 0, "rental_uris": {"android": "https://dc.lft.to/lastmile_qr_scan", "ios": "https://dc.lft.to/lastmile_qr_scan"}, "bike_id": "d473297cb6bc69404c4ddf6857d04ad8", "fusion_lon": 0.0, "lat": 38.95656683333333}, {"type": "electric_scooter", "name": "4ffd08be0530be42f5e07e4f6cea7399", "is_reserved": 0, "fusion_lat": 0.0, "lon": -77.01692333333334, "is_disabled": 0, "rental_uris": {"android": "https://dc.lft.to/lastmile_qr_scan", "ios": "https://dc.lft.to/lastmile_qr_scan"}, "bike_id": "4ffd08be0530be42f5e07e4f6cea7399", "fusion_lon": 0.0, "lat": 38.97496}, {"type": "electric_scooter", "name": "8d8c47e65ea3ebb6bba7264a2e9f3952", "is_reserved": 0, "fusion_lat": 0.0, "lon": -77.01291083333334, "is_disabled": 0, "rental_uris": {"android": "https://dc.lft.to/lastmile_qr_scan", "ios": "https://dc.lft.to/lastmile_qr_scan"}, "bike_id": "8d8c47e65ea3ebb6bba7264a2e9f3952", "fusion_lon": 0.0, "lat": 38.894703166666666}, {"type": "electric_scooter", "name": "18cfa37ddc45d0d3597464bcaf32e175", "is_reserved": 0, "fusion_lat": 0.0, "lon": -76.988811, "is_disabled": 0, "rental_uris": {"android": "https://dc.lft.to/lastmile_qr_scan", "ios": "https://dc.lft.to/lastmile_qr_scan"}, "bike_id": "18cfa37ddc45d0d3597464bcaf32e175", "fusion_lon": 0.0, "lat": 38.86659066666667}, {"type": "electric_bike", "name": "5a4bd410b54ddc5e0b9164a099930d37", "is_reserved": 0, "fusion_lat": 0.0, "lon": -76.99617033333334, "is_disabled": 0, "rental_uris": {"android": "https://dc.lft.to/lastmile_qr_scan", "ios": "https://dc.lft.to/lastmile_qr_scan"}, "bike_id": "5a4bd410b54ddc5e0b9164a099930d37", "fusion_lon": 0.0, "lat": 38.88491533333333}, {"type": "electric_scooter", "name": "0e62a34a96a7b74bb26c263d7f26a7cd", "is_reserved": 0, "fusion_lat": 0.0, "lon": -77.030012, "is_disabled": 0, "rental_uris": {"android": "https://dc.lft.to/lastmile_qr_scan", "ios": "https://dc.lft.to/lastmile_qr_scan"}, "bike_id": "0e62a34a96a7b74bb26c263d7f26a7cd", "fusion_lon": 0.0, "lat": 38.897183}, {"type": "electric_scooter", "name": "56fd0309bf459809332980e38db64fd0", "is_reserved": 0, "fusion_lat": 0.0, "lon": -77.03216666666667, "is_disabled": 0, "rental_uris": {"android": "https://dc.lft.to/lastmile_qr_scan", "ios": "https://dc.lft.to/lastmile_qr_scan"}, "bike_id": "56fd0309bf459809332980e38db64fd0", "fusion_lon": 0.0, "lat": 38.916458166666665}, {"type": "electric_scooter", "name": "1a20b03c0c958bd149db3371d14232f8", "is_reserved": 0, "fusion_lat": 0.0, "lon": -77.02283033333333, "is_disabled": 0, "rental_uris": {"android": "https://dc.lft.to/lastmile_qr_scan", "ios": "https://dc.lft.to/lastmile_qr_scan"}, "bike_id": "1a20b03c0c958bd149db3371d14232f8", "fusion_lon": 0.0, "lat": 38.902268166666666}, {"type": "electric_scooter", "name": "3fccc30b324b81511f2997e41980ce0a", "is_reserved": 0, "fusion_lat": 0.0, "lon": -77.0461405, "is_disabled": 0, "rental_uris": {"android": "https://dc.lft.to/lastmile_qr_scan", "ios": "https://dc.lft.to/lastmile_qr_scan"}, "bike_id": "3fccc30b324b81511f2997e41980ce0a", "fusion_lon": 0.0, "lat": 38.923283833333336}, {"type": "electric_scooter", "name": "7ddf55131256ba9d665ce8475d5cdf0d", "is_reserved": 0, "fusion_lat": 0.0, "lon": -77.04416833333333, "is_disabled": 0, "rental_uris": {"android": "https://dc.lft.to/lastmile_qr_scan", "ios": "https://dc.lft.to/lastmile_qr_scan"}, "bike_id": "7ddf55131256ba9d665ce8475d5cdf0d", "fusion_lon": 0.0, "lat": 38.9210595}, {"type": "electric_scooter", "name": "42ec5fc55e3cc3c7576e09c4e4ceda8d", "is_reserved": 0, "fusion_lat": 0.0, "lon": -77.041384, "is_disabled": 0, "rental_uris": {"android": "https://dc.lft.to/lastmile_qr_scan", "ios": "https://dc.lft.to/lastmile_qr_scan"}, "bike_id": "42ec5fc55e3cc3c7576e09c4e4ceda8d", "fusion_lon": 0.0, "lat": 38.90594733333333}, {"type": "electric_scooter", "name": "c337f916d0db9cd7d0371bff7901a921", "is_reserved": 0, "fusion_lat": 0.0, "lon": -77.025514, "is_disabled": 0, "rental_uris": {"android": "https://dc.lft.to/lastmile_qr_scan", "ios": "https://dc.lft.to/lastmile_qr_scan"}, "bike_id": "c337f916d0db9cd7d0371bff7901a921", "fusion_lon": 0.0, "lat": 38.924818}, {"type": "electric_bike", "name": "1c1b2a1c380a91651e4f3b5301cf7089", "is_reserved": 0, "fusion_lat": 0.0, "lon": -76.968064, "is_disabled": 0, "rental_uris": {"android": "https://dc.lft.to/lastmile_qr_scan", "ios": "https://dc.lft.to/lastmile_qr_scan"}, "bike_id": "1c1b2a1c380a91651e4f3b5301cf7089", "fusion_lon": 0.0, "lat": 38.955316333333336}, {"type": "electric_scooter", "name": "a033752356cff3e041e755c00d65310a", "is_reserved": 0, "fusion_lat": 0.0, "lon": -77.0328505, "is_disabled": 0, "rental_uris": {"android": "https://dc.lft.to/lastmile_qr_scan", "ios": "https://dc.lft.to/lastmile_qr_scan"}, "bike_id": "a033752356cff3e041e755c00d65310a", "fusion_lon": 0.0, "lat": 38.90239733333333}, {"type": "electric_scooter", "name": "746e75606240dd6dad04473c13735ad3", "is_reserved": 0, "fusion_lat": 0.0, "lon": -77.02491783333333, "is_disabled": 0, "rental_uris": {"android": "https://dc.lft.to/lastmile_qr_scan", "ios": "https://dc.lft.to/lastmile_qr_scan"}, "bike_id": "746e75606240dd6dad04473c13735ad3", "fusion_lon": 0.0, "lat": 38.941871}, {"type": "electric_scooter", "name": "204ca5cdc779e60af36776204be27d25", "is_reserved": 0, "fusion_lat": 0.0, "lon": -76.98306383333333, "is_disabled": 0, "rental_uris": {"android": "https://dc.lft.to/lastmile_qr_scan", "ios": "https://dc.lft.to/lastmile_qr_scan"}, "bike_id": "204ca5cdc779e60af36776204be27d25", "fusion_lon": 0.0, "lat": 38.90524083333333}, {"type": "electric_scooter", "name": "4e52c89d1440317e593792cf376c74fc", "is_reserved": 0, "fusion_lat": 0.0, "lon": -77.0462415, "is_disabled": 0, "rental_uris": {"android": "https://dc.lft.to/lastmile_qr_scan", "ios": "https://dc.lft.to/lastmile_qr_scan"}, "bike_id": "4e52c89d1440317e593792cf376c74fc", "fusion_lon": 0.0, "lat": 38.91929483333333}, {"type": "electric_scooter", "name": "166ba7069c42850a14f2dd5bf5dc21fa", "is_reserved": 0, "fusion_lat": 0.0, "lon": -77.03851033333333, "is_disabled": 0, "rental_uris": {"android": "https://dc.lft.to/lastmile_qr_scan", "ios": "https://dc.lft.to/lastmile_qr_scan"}, "bike_id": "166ba7069c42850a14f2dd5bf5dc21fa", "fusion_lon": 0.0, "lat": 38.925233166666665}, {"type": "electric_scooter", "name": "3709bf4e9b47e42f511475fa43a3ddc0", "is_reserved": 0, "fusion_lat": 0.0, "lon": -77.03594216666667, "is_disabled": 0, "rental_uris": {"android": "https://dc.lft.to/lastmile_qr_scan", "ios": "https://dc.lft.to/lastmile_qr_scan"}, "bike_id": "3709bf4e9b47e42f511475fa43a3ddc0", "fusion_lon": 0.0, "lat": 38.93933966666667}, {"type": "electric_scooter", "name": "475717876b16d107f064f2ddf063da54", "is_reserved": 0, "fusion_lat": 0.0, "lon": -77.04315033333333, "is_disabled": 0, "rental_uris": {"android": "https://dc.lft.to/lastmile_qr_scan", "ios": "https://dc.lft.to/lastmile_qr_scan"}, "bike_id": "475717876b16d107f064f2ddf063da54", "fusion_lon": 0.0, "lat": 38.923207833333336}, {"type": "electric_scooter", "name": "31e2690c73567291fa0ecb51296f6055", "is_reserved": 0, "fusion_lat": 0.0, "lon": -77.01402616666667, "is_disabled": 0, "rental_uris": {"android": "https://dc.lft.to/lastmile_qr_scan", "ios": "https://dc.lft.to/lastmile_qr_scan"}, "bike_id": "31e2690c73567291fa0ecb51296f6055", "fusion_lon": 0.0, "lat": 38.88118}, {"type": "electric_bike", "name": "5a113c95bc513ee1be04f157942c4358", "is_reserved": 0, "fusion_lat": 0.0, "lon": -77.00381016666667, "is_disabled": 0, "rental_uris": {"android": "https://dc.lft.to/lastmile_qr_scan", "ios": "https://dc.lft.to/lastmile_qr_scan"}, "bike_id": "5a113c95bc513ee1be04f157942c4358", "fusion_lon": 0.0, "lat": 38.8360845}, {"type": "electric_scooter", "name": "33eb10f54f45ed0fbf72c4aa894f0ae4", "is_reserved": 0, "fusion_lat": 0.0, "lon": -76.99613416666666, "is_disabled": 0, "rental_uris": {"android": "https://dc.lft.to/lastmile_qr_scan", "ios": "https://dc.lft.to/lastmile_qr_scan"}, "bike_id": "33eb10f54f45ed0fbf72c4aa894f0ae4", "fusion_lon": 0.0, "lat": 38.88627533333333}, {"type": "electric_scooter", "name": "df55eca96396fa0a2df9f57982189ea2", "is_reserved": 0, "fusion_lat": 0.0, "lon": -77.0254145, "is_disabled": 0, "rental_uris": {"android": "https://dc.lft.to/lastmile_qr_scan", "ios": "https://dc.lft.to/lastmile_qr_scan"}, "bike_id": "df55eca96396fa0a2df9f57982189ea2", "fusion_lon": 0.0, "lat": 38.924075}, {"type": "electric_scooter", "name": "0b0b66d708cf1b1729ca158fc45da046", "is_reserved": 0, "fusion_lat": 0.0, "lon": -77.03179616666667, "is_disabled": 0, "rental_uris": {"android": "https://dc.lft.to/lastmile_qr_scan", "ios": "https://dc.lft.to/lastmile_qr_scan"}, "bike_id": "0b0b66d708cf1b1729ca158fc45da046", "fusion_lon": 0.0, "lat": 38.903697333333334}, {"type": "electric_scooter", "name": "29ad4f1c95461ec224984299fbe63614", "is_reserved": 0, "fusion_lat": 0.0, "lon": -77.0385195, "is_disabled": 0, "rental_uris": {"android": "https://dc.lft.to/lastmile_qr_scan", "ios": "https://dc.lft.to/lastmile_qr_scan"}, "bike_id": "29ad4f1c95461ec224984299fbe63614", "fusion_lon": 0.0, "lat": 38.93200683333333}, {"type": "electric_scooter", "name": "2010284ed0a79a483d7e0c1ab2274214", "is_reserved": 0, "fusion_lat": 0.0, "lon": -77.03443433333334, "is_disabled": 0, "rental_uris": {"android": "https://dc.lft.to/lastmile_qr_scan", "ios": "https://dc.lft.to/lastmile_qr_scan"}, "bike_id": "2010284ed0a79a483d7e0c1ab2274214", "fusion_lon": 0.0, "lat": 38.905147166666666}, {"type": "electric_scooter", "name": "d3968a0e47b862b27f8f5dd05f2ec30f", "is_reserved": 0, "fusion_lat": 0.0, "lon": -77.02162416666667, "is_disabled": 0, "rental_uris": {"android": "https://dc.lft.to/lastmile_qr_scan", "ios": "https://dc.lft.to/lastmile_qr_scan"}, "bike_id": "d3968a0e47b862b27f8f5dd05f2ec30f", "fusion_lon": 0.0, "lat": 38.89728016666667}, {"type": "electric_scooter", "name": "751d012e924758a99f1ca7298f01dbf0", "is_reserved": 0, "fusion_lat": 0.0, "lon": -77.02291783333334, "is_disabled": 0, "rental_uris": {"android": "https://dc.lft.to/lastmile_qr_scan", "ios": "https://dc.lft.to/lastmile_qr_scan"}, "bike_id": "751d012e924758a99f1ca7298f01dbf0", "fusion_lon": 0.0, "lat": 38.91681783333333}, {"type": "electric_scooter", "name": "891dc44b27e805e0557248066bad1dfd", "is_reserved": 0, "fusion_lat": 0.0, "lon": -77.00769683333333, "is_disabled": 0, "rental_uris": {"android": "https://dc.lft.to/lastmile_qr_scan", "ios": "https://dc.lft.to/lastmile_qr_scan"}, "bike_id": "891dc44b27e805e0557248066bad1dfd", "fusion_lon": 0.0, "lat": 38.9267405}, {"type": "electric_scooter", "name": "b69a9aced653fa3d72cf30af2af38b14", "is_reserved": 0, "fusion_lat": 0.0, "lon": -77.0232095, "is_disabled": 0, "rental_uris": {"android": "https://dc.lft.to/lastmile_qr_scan", "ios": "https://dc.lft.to/lastmile_qr_scan"}, "bike_id": "b69a9aced653fa3d72cf30af2af38b14", "fusion_lon": 0.0, "lat": 38.9409285}, {"type": "electric_scooter", "name": "241f597d1c222534b1c72a699f17780e", "is_reserved": 0, "fusion_lat": 0.0, "lon": -77.0117445, "is_disabled": 0, "rental_uris": {"android": "https://dc.lft.to/lastmile_qr_scan", "ios": "https://dc.lft.to/lastmile_qr_scan"}, "bike_id": "241f597d1c222534b1c72a699f17780e", "fusion_lon": 0.0, "lat": 38.876627666666664}, {"type": "electric_scooter", "name": "d5292608a373c95a017de478e200721a", "is_reserved": 0, "fusion_lat": 0.0, "lon": -77.02605783333334, "is_disabled": 0, "rental_uris": {"android": "https://dc.lft.to/lastmile_qr_scan", "ios": "https://dc.lft.to/lastmile_qr_scan"}, "bike_id": "d5292608a373c95a017de478e200721a", "fusion_lon": 0.0, "lat": 38.901584}, {"type": "electric_scooter", "name": "a227673108aeceee0000f9cd237aed34", "is_reserved": 0, "fusion_lat": 0.0, "lon": -77.02979866666666, "is_disabled": 0, "rental_uris": {"android": "https://dc.lft.to/lastmile_qr_scan", "ios": "https://dc.lft.to/lastmile_qr_scan"}, "bike_id": "a227673108aeceee0000f9cd237aed34", "fusion_lon": 0.0, "lat": 38.90722233333334}, {"type": "electric_bike", "name": "3ba4caf27672f66977d59dd7b86fa837", "is_reserved": 0, "fusion_lat": 0.0, "lon": -77.187386, "is_disabled": 0, "rental_uris": {"android": "https://dc.lft.to/lastmile_qr_scan", "ios": "https://dc.lft.to/lastmile_qr_scan"}, "bike_id": "3ba4caf27672f66977d59dd7b86fa837", "fusion_lon": 0.0, "lat": 38.893500333333336}, {"type": "electric_scooter", "name": "11eddb494a2cfaaf8674e6e74f769089", "is_reserved": 0, "fusion_lat": 0.0, "lon": -77.02716366666667, "is_disabled": 0, "rental_uris": {"android": "https://dc.lft.to/lastmile_qr_scan", "ios": "https://dc.lft.to/lastmile_qr_scan"}, "bike_id": "11eddb494a2cfaaf8674e6e74f769089", "fusion_lon": 0.0, "lat": 38.93697933333333}, {"type": "electric_bike", "name": "8b8e60a4bcaa62660d6b5a9328d58e02", "is_reserved": 0, "fusion_lat": 0.0, "lon": -77.1072705, "is_disabled": 0, "rental_uris": {"android": "https://dc.lft.to/lastmile_qr_scan", "ios": "https://dc.lft.to/lastmile_qr_scan"}, "bike_id": "8b8e60a4bcaa62660d6b5a9328d58e02", "fusion_lon": 0.0, "lat": 38.855531666666664}, {"type": "electric_scooter", "name": "8318bea1bd4eef75b5a250ea4d46fa95", "is_reserved": 0, "fusion_lat": 0.0, "lon": -77.02734733333334, "is_disabled": 0, "rental_uris": {"android": "https://dc.lft.to/lastmile_qr_scan", "ios": "https://dc.lft.to/lastmile_qr_scan"}, "bike_id": "8318bea1bd4eef75b5a250ea4d46fa95", "fusion_lon": 0.0, "lat": 38.92850583333333}, {"type": "electric_scooter", "name": "fc06052fa63386e7114f728846c0a0d7", "is_reserved": 0, "fusion_lat": 0.0, "lon": -77.03659233333333, "is_disabled": 0, "rental_uris": {"android": "https://dc.lft.to/lastmile_qr_scan", "ios": "https://dc.lft.to/lastmile_qr_scan"}, "bike_id": "fc06052fa63386e7114f728846c0a0d7", "fusion_lon": 0.0, "lat": 38.91542416666667}, {"type": "electric_scooter", "name": "10e943e44a5921650a020b9499b7a3a1", "is_reserved": 0, "fusion_lat": 0.0, "lon": -77.059021, "is_disabled": 0, "rental_uris": {"android": "https://dc.lft.to/lastmile_qr_scan", "ios": "https://dc.lft.to/lastmile_qr_scan"}, "bike_id": "10e943e44a5921650a020b9499b7a3a1", "fusion_lon": 0.0, "lat": 38.902376833333335}, {"type": "electric_scooter", "name": "4513f97e198a713a59b9de29cf378ee7", "is_reserved": 0, "fusion_lat": 0.0, "lon": -77.00091816666666, "is_disabled": 0, "rental_uris": {"android": "https://dc.lft.to/lastmile_qr_scan", "ios": "https://dc.lft.to/lastmile_qr_scan"}, "bike_id": "4513f97e198a713a59b9de29cf378ee7", "fusion_lon": 0.0, "lat": 38.92030666666667}, {"type": "electric_bike", "name": "22b3f542d3bd7eb9a23172ff5c097c24", "is_reserved": 0, "fusion_lat": 0.0, "lon": -77.08458266666666, "is_disabled": 0, "rental_uris": {"android": "https://dc.lft.to/lastmile_qr_scan", "ios": "https://dc.lft.to/lastmile_qr_scan"}, "bike_id": "22b3f542d3bd7eb9a23172ff5c097c24", "fusion_lon": 0.0, "lat": 38.848196}, {"type": "electric_scooter", "name": "6888e86392f7bd6e4205af33d86d6797", "is_reserved": 0, "fusion_lat": 0.0, "lon": -77.06345616666667, "is_disabled": 0, "rental_uris": {"android": "https://dc.lft.to/lastmile_qr_scan", "ios": "https://dc.lft.to/lastmile_qr_scan"}, "bike_id": "6888e86392f7bd6e4205af33d86d6797", "fusion_lon": 0.0, "lat": 38.9074225}, {"type": "electric_scooter", "name": "7d1e5b2c43c8269bc25a6eb33cd06eb8", "is_reserved": 0, "fusion_lat": 0.0, "lon": -76.99016933333333, "is_disabled": 0, "rental_uris": {"android": "https://dc.lft.to/lastmile_qr_scan", "ios": "https://dc.lft.to/lastmile_qr_scan"}, "bike_id": "7d1e5b2c43c8269bc25a6eb33cd06eb8", "fusion_lon": 0.0, "lat": 38.905007166666664}, {"type": "electric_scooter", "name": "a6b1907a0229687098d36b4e535c7d35", "is_reserved": 0, "fusion_lat": 0.0, "lon": -77.01360916666667, "is_disabled": 0, "rental_uris": {"android": "https://dc.lft.to/lastmile_qr_scan", "ios": "https://dc.lft.to/lastmile_qr_scan"}, "bike_id": "a6b1907a0229687098d36b4e535c7d35", "fusion_lon": 0.0, "lat": 38.91928766666667}, {"type": "electric_bike", "name": "1db2921dc8c2f575ce89a742b9c26623", "is_reserved": 0, "fusion_lat": 0.0, "lon": -77.03595783333333, "is_disabled": 0, "rental_uris": {"android": "https://dc.lft.to/lastmile_qr_scan", "ios": "https://dc.lft.to/lastmile_qr_scan"}, "bike_id": "1db2921dc8c2f575ce89a742b9c26623", "fusion_lon": 0.0, "lat": 38.906876833333335}, {"type": "electric_scooter", "name": "2ef8daaaa3f7e72415b8985964a74dc8", "is_reserved": 0, "fusion_lat": 0.0, "lon": -77.05911366666666, "is_disabled": 0, "rental_uris": {"android": "https://dc.lft.to/lastmile_qr_scan", "ios": "https://dc.lft.to/lastmile_qr_scan"}, "bike_id": "2ef8daaaa3f7e72415b8985964a74dc8", "fusion_lon": 0.0, "lat": 38.900953333333334}, {"type": "electric_scooter", "name": "439cca3f8bf0cdc02a24f2d19f233648", "is_reserved": 0, "fusion_lat": 0.0, "lon": -77.047029, "is_disabled": 0, "rental_uris": {"android": "https://dc.lft.to/lastmile_qr_scan", "ios": "https://dc.lft.to/lastmile_qr_scan"}, "bike_id": "439cca3f8bf0cdc02a24f2d19f233648", "fusion_lon": 0.0, "lat": 38.9217215}, {"type": "electric_scooter", "name": "1fbe2743752963882aace577a09195cf", "is_reserved": 0, "fusion_lat": 0.0, "lon": -77.02175666666666, "is_disabled": 0, "rental_uris": {"android": "https://dc.lft.to/lastmile_qr_scan", "ios": "https://dc.lft.to/lastmile_qr_scan"}, "bike_id": "1fbe2743752963882aace577a09195cf", "fusion_lon": 0.0, "lat": 38.911138666666666}, {"type": "electric_scooter", "name": "3d7d9d8cbfdcd15540a77eaf460a0516", "is_reserved": 0, "fusion_lat": 0.0, "lon": -76.99965566666667, "is_disabled": 0, "rental_uris": {"android": "https://dc.lft.to/lastmile_qr_scan", "ios": "https://dc.lft.to/lastmile_qr_scan"}, "bike_id": "3d7d9d8cbfdcd15540a77eaf460a0516", "fusion_lon": 0.0, "lat": 38.908493}, {"type": "electric_scooter", "name": "5982c82f6f299658ac528818449ac1ca", "is_reserved": 0, "fusion_lat": 0.0, "lon": -77.0387975, "is_disabled": 0, "rental_uris": {"android": "https://dc.lft.to/lastmile_qr_scan", "ios": "https://dc.lft.to/lastmile_qr_scan"}, "bike_id": "5982c82f6f299658ac528818449ac1ca", "fusion_lon": 0.0, "lat": 38.906614166666664}, {"type": "electric_scooter", "name": "fbae0bec9556e381dbee3cbe1a7f41d8", "is_reserved": 0, "fusion_lat": 0.0, "lon": -76.9373375, "is_disabled": 0, "rental_uris": {"android": "https://dc.lft.to/lastmile_qr_scan", "ios": "https://dc.lft.to/lastmile_qr_scan"}, "bike_id": "fbae0bec9556e381dbee3cbe1a7f41d8", "fusion_lon": 0.0, "lat": 38.890122}, {"type": "electric_scooter", "name": "0f1edf91b64d34a69e68c248e38a5fa4", "is_reserved": 0, "fusion_lat": 0.0, "lon": -77.02206066666666, "is_disabled": 0, "rental_uris": {"android": "https://dc.lft.to/lastmile_qr_scan", "ios": "https://dc.lft.to/lastmile_qr_scan"}, "bike_id": "0f1edf91b64d34a69e68c248e38a5fa4", "fusion_lon": 0.0, "lat": 38.91056066666667}, {"type": "electric_scooter", "name": "9b5f4edb71469f0c4f25037ff61169f9", "is_reserved": 0, "fusion_lat": 0.0, "lon": -77.01746583333333, "is_disabled": 0, "rental_uris": {"android": "https://dc.lft.to/lastmile_qr_scan", "ios": "https://dc.lft.to/lastmile_qr_scan"}, "bike_id": "9b5f4edb71469f0c4f25037ff61169f9", "fusion_lon": 0.0, "lat": 38.88739866666667}, {"type": "electric_bike", "name": "09ea3426fa4a77294cf20f071c5fde21", "is_reserved": 0, "fusion_lat": 0.0, "lon": -76.936465, "is_disabled": 0, "rental_uris": {"android": "https://dc.lft.to/lastmile_qr_scan", "ios": "https://dc.lft.to/lastmile_qr_scan"}, "bike_id": "09ea3426fa4a77294cf20f071c5fde21", "fusion_lon": 0.0, "lat": 38.87154483333333}, {"type": "electric_scooter", "name": "5de5356c4e83c9b43113ea8da1e53277", "is_reserved": 0, "fusion_lat": 0.0, "lon": -76.98967916666666, "is_disabled": 0, "rental_uris": {"android": "https://dc.lft.to/lastmile_qr_scan", "ios": "https://dc.lft.to/lastmile_qr_scan"}, "bike_id": "5de5356c4e83c9b43113ea8da1e53277", "fusion_lon": 0.0, "lat": 38.86536233333333}, {"type": "electric_scooter", "name": "4158ebcd490abc368cacd59575afe866", "is_reserved": 0, "fusion_lat": 0.0, "lon": -77.01116816666666, "is_disabled": 0, "rental_uris": {"android": "https://dc.lft.to/lastmile_qr_scan", "ios": "https://dc.lft.to/lastmile_qr_scan"}, "bike_id": "4158ebcd490abc368cacd59575afe866", "fusion_lon": 0.0, "lat": 38.92967133333333}, {"type": "electric_scooter", "name": "832724c1e9d2bcc9b4a23c2d47b4a9a5", "is_reserved": 0, "fusion_lat": 0.0, "lon": -77.02714633333333, "is_disabled": 0, "rental_uris": {"android": "https://dc.lft.to/lastmile_qr_scan", "ios": "https://dc.lft.to/lastmile_qr_scan"}, "bike_id": "832724c1e9d2bcc9b4a23c2d47b4a9a5", "fusion_lon": 0.0, "lat": 38.924673166666665}, {"type": "electric_scooter", "name": "4bd4bb94186130993a86fc2eb1459d1d", "is_reserved": 0, "fusion_lat": 0.0, "lon": -77.0346215, "is_disabled": 0, "rental_uris": {"android": "https://dc.lft.to/lastmile_qr_scan", "ios": "https://dc.lft.to/lastmile_qr_scan"}, "bike_id": "4bd4bb94186130993a86fc2eb1459d1d", "fusion_lon": 0.0, "lat": 38.902804833333334}, {"type": "electric_scooter", "name": "141ce0843098810c998ed925cd6ca3ee", "is_reserved": 0, "fusion_lat": 0.0, "lon": -76.968727, "is_disabled": 0, "rental_uris": {"android": "https://dc.lft.to/lastmile_qr_scan", "ios": "https://dc.lft.to/lastmile_qr_scan"}, "bike_id": "141ce0843098810c998ed925cd6ca3ee", "fusion_lon": 0.0, "lat": 38.870901333333336}, {"type": "electric_scooter", "name": "7dabedc38f24d4fd5731f2aadb148e28", "is_reserved": 0, "fusion_lat": 0.0, "lon": -77.03210633333333, "is_disabled": 0, "rental_uris": {"android": "https://dc.lft.to/lastmile_qr_scan", "ios": "https://dc.lft.to/lastmile_qr_scan"}, "bike_id": "7dabedc38f24d4fd5731f2aadb148e28", "fusion_lon": 0.0, "lat": 38.910815666666664}, {"type": "electric_scooter", "name": "d9b0d855a6810a72b867e05a83097cb6", "is_reserved": 0, "fusion_lat": 0.0, "lon": -77.03899583333333, "is_disabled": 0, "rental_uris": {"android": "https://dc.lft.to/lastmile_qr_scan", "ios": "https://dc.lft.to/lastmile_qr_scan"}, "bike_id": "d9b0d855a6810a72b867e05a83097cb6", "fusion_lon": 0.0, "lat": 38.91867366666666}, {"type": "electric_bike", "name": "6582bbea051f80930cc9a3d807e19749", "is_reserved": 0, "fusion_lat": 0.0, "lon": -76.980931, "is_disabled": 0, "rental_uris": {"android": "https://dc.lft.to/lastmile_qr_scan", "ios": "https://dc.lft.to/lastmile_qr_scan"}, "bike_id": "6582bbea051f80930cc9a3d807e19749", "fusion_lon": 0.0, "lat": 38.95353866666667}, {"type": "electric_scooter", "name": "55558644d484c492d22fb66cdc3299e1", "is_reserved": 0, "fusion_lat": 0.0, "lon": -76.94593883333333, "is_disabled": 0, "rental_uris": {"android": "https://dc.lft.to/lastmile_qr_scan", "ios": "https://dc.lft.to/lastmile_qr_scan"}, "bike_id": "55558644d484c492d22fb66cdc3299e1", "fusion_lon": 0.0, "lat": 38.901546}, {"type": "electric_scooter", "name": "2652d03aec6d7171653f99a70a04ce6a", "is_reserved": 0, "fusion_lat": 0.0, "lon": -76.9660545, "is_disabled": 0, "rental_uris": {"android": "https://dc.lft.to/lastmile_qr_scan", "ios": "https://dc.lft.to/lastmile_qr_scan"}, "bike_id": "2652d03aec6d7171653f99a70a04ce6a", "fusion_lon": 0.0, "lat": 38.873924333333335}, {"type": "electric_scooter", "name": "962d24d0e35e0153e9a9127fab218e87", "is_reserved": 0, "fusion_lat": 0.0, "lon": -77.00335366666667, "is_disabled": 0, "rental_uris": {"android": "https://dc.lft.to/lastmile_qr_scan", "ios": "https://dc.lft.to/lastmile_qr_scan"}, "bike_id": "962d24d0e35e0153e9a9127fab218e87", "fusion_lon": 0.0, "lat": 38.8918295}, {"type": "electric_scooter", "name": "e7f9ca7b4c89dc034b8b12a122d333f7", "is_reserved": 0, "fusion_lat": 0.0, "lon": -77.07148833333333, "is_disabled": 0, "rental_uris": {"android": "https://dc.lft.to/lastmile_qr_scan", "ios": "https://dc.lft.to/lastmile_qr_scan"}, "bike_id": "e7f9ca7b4c89dc034b8b12a122d333f7", "fusion_lon": 0.0, "lat": 38.94558683333333}, {"type": "electric_scooter", "name": "b8a2b369be2a5969c65bba50a8939243", "is_reserved": 0, "fusion_lat": 0.0, "lon": -77.02961266666667, "is_disabled": 0, "rental_uris": {"android": "https://dc.lft.to/lastmile_qr_scan", "ios": "https://dc.lft.to/lastmile_qr_scan"}, "bike_id": "b8a2b369be2a5969c65bba50a8939243", "fusion_lon": 0.0, "lat": 38.9102685}, {"type": "electric_bike", "name": "b5435dab3305a0ed936d397a1bba1047", "is_reserved": 0, "fusion_lat": 0.0, "lon": -77.026285, "is_disabled": 0, "rental_uris": {"android": "https://dc.lft.to/lastmile_qr_scan", "ios": "https://dc.lft.to/lastmile_qr_scan"}, "bike_id": "b5435dab3305a0ed936d397a1bba1047", "fusion_lon": 0.0, "lat": 38.962243}, {"type": "electric_scooter", "name": "97c07c942073bee6f824a88e93cfafac", "is_reserved": 0, "fusion_lat": 0.0, "lon": -76.9652935, "is_disabled": 0, "rental_uris": {"android": "https://dc.lft.to/lastmile_qr_scan", "ios": "https://dc.lft.to/lastmile_qr_scan"}, "bike_id": "97c07c942073bee6f824a88e93cfafac", "fusion_lon": 0.0, "lat": 38.87628516666667}, {"type": "electric_scooter", "name": "75416af5ff7695501ff0c469d159e407", "is_reserved": 0, "fusion_lat": 0.0, "lon": -77.03165333333334, "is_disabled": 0, "rental_uris": {"android": "https://dc.lft.to/lastmile_qr_scan", "ios": "https://dc.lft.to/lastmile_qr_scan"}, "bike_id": "75416af5ff7695501ff0c469d159e407", "fusion_lon": 0.0, "lat": 38.90351}, {"type": "electric_scooter", "name": "f83d0a358ed4c1cc19d1b987fa538a54", "is_reserved": 0, "fusion_lat": 0.0, "lon": -77.0435765, "is_disabled": 0, "rental_uris": {"android": "https://dc.lft.to/lastmile_qr_scan", "ios": "https://dc.lft.to/lastmile_qr_scan"}, "bike_id": "f83d0a358ed4c1cc19d1b987fa538a54", "fusion_lon": 0.0, "lat": 38.9052495}, {"type": "electric_scooter", "name": "50096949c488c47279e4165b110c914c", "is_reserved": 0, "fusion_lat": 0.0, "lon": -77.04389333333333, "is_disabled": 0, "rental_uris": {"android": "https://dc.lft.to/lastmile_qr_scan", "ios": "https://dc.lft.to/lastmile_qr_scan"}, "bike_id": "50096949c488c47279e4165b110c914c", "fusion_lon": 0.0, "lat": 38.91408583333333}, {"type": "electric_scooter", "name": "b88e7097895040e2be810fbb405506fd", "is_reserved": 0, "fusion_lat": 0.0, "lon": -77.02770766666667, "is_disabled": 0, "rental_uris": {"android": "https://dc.lft.to/lastmile_qr_scan", "ios": "https://dc.lft.to/lastmile_qr_scan"}, "bike_id": "b88e7097895040e2be810fbb405506fd", "fusion_lon": 0.0, "lat": 38.95424216666667}, {"type": "electric_scooter", "name": "57c2420e901874473409443362f10fce", "is_reserved": 0, "fusion_lat": 0.0, "lon": -77.06520583333334, "is_disabled": 0, "rental_uris": {"android": "https://dc.lft.to/lastmile_qr_scan", "ios": "https://dc.lft.to/lastmile_qr_scan"}, "bike_id": "57c2420e901874473409443362f10fce", "fusion_lon": 0.0, "lat": 38.9053405}, {"type": "electric_scooter", "name": "0f5b9052d9f816464b4c9d221e48f067", "is_reserved": 0, "fusion_lat": 0.0, "lon": -77.034361, "is_disabled": 0, "rental_uris": {"android": "https://dc.lft.to/lastmile_qr_scan", "ios": "https://dc.lft.to/lastmile_qr_scan"}, "bike_id": "0f5b9052d9f816464b4c9d221e48f067", "fusion_lon": 0.0, "lat": 38.91811166666667}, {"type": "electric_scooter", "name": "c363448ea2fb1f2f4495735f829f3ae8", "is_reserved": 0, "fusion_lat": 0.0, "lon": -77.03207233333333, "is_disabled": 0, "rental_uris": {"android": "https://dc.lft.to/lastmile_qr_scan", "ios": "https://dc.lft.to/lastmile_qr_scan"}, "bike_id": "c363448ea2fb1f2f4495735f829f3ae8", "fusion_lon": 0.0, "lat": 38.908962}, {"type": "electric_scooter", "name": "cd0a96c6eae9c748d2f845bd6341c3c9", "is_reserved": 0, "fusion_lat": 0.0, "lon": -77.021745, "is_disabled": 0, "rental_uris": {"android": "https://dc.lft.to/lastmile_qr_scan", "ios": "https://dc.lft.to/lastmile_qr_scan"}, "bike_id": "cd0a96c6eae9c748d2f845bd6341c3c9", "fusion_lon": 0.0, "lat": 38.942927166666664}, {"type": "electric_scooter", "name": "1f1144ac0f5dccd4c70389cadb733a10", "is_reserved": 0, "fusion_lat": 0.0, "lon": -77.03867016666666, "is_disabled": 0, "rental_uris": {"android": "https://dc.lft.to/lastmile_qr_scan", "ios": "https://dc.lft.to/lastmile_qr_scan"}, "bike_id": "1f1144ac0f5dccd4c70389cadb733a10", "fusion_lon": 0.0, "lat": 38.921519833333335}, {"type": "electric_scooter", "name": "4ccb80217c326562c7f06795308fef4e", "is_reserved": 0, "fusion_lat": 0.0, "lon": -77.0293825, "is_disabled": 0, "rental_uris": {"android": "https://dc.lft.to/lastmile_qr_scan", "ios": "https://dc.lft.to/lastmile_qr_scan"}, "bike_id": "4ccb80217c326562c7f06795308fef4e", "fusion_lon": 0.0, "lat": 38.898787166666665}, {"type": "electric_scooter", "name": "8ca66f27aa680d2b781c329029438faa", "is_reserved": 0, "fusion_lat": 0.0, "lon": -77.04369, "is_disabled": 0, "rental_uris": {"android": "https://dc.lft.to/lastmile_qr_scan", "ios": "https://dc.lft.to/lastmile_qr_scan"}, "bike_id": "8ca66f27aa680d2b781c329029438faa", "fusion_lon": 0.0, "lat": 38.9213755}, {"type": "electric_scooter", "name": "90e1c6f4a1f96597a9e9922efd608bd7", "is_reserved": 0, "fusion_lat": 0.0, "lon": -77.04789, "is_disabled": 0, "rental_uris": {"android": "https://dc.lft.to/lastmile_qr_scan", "ios": "https://dc.lft.to/lastmile_qr_scan"}, "bike_id": "90e1c6f4a1f96597a9e9922efd608bd7", "fusion_lon": 0.0, "lat": 38.89380283333333}, {"type": "electric_scooter", "name": "7593ee0e4d99e5ff63995531ead61ed1", "is_reserved": 0, "fusion_lat": 0.0, "lon": -76.991348, "is_disabled": 0, "rental_uris": {"android": "https://dc.lft.to/lastmile_qr_scan", "ios": "https://dc.lft.to/lastmile_qr_scan"}, "bike_id": "7593ee0e4d99e5ff63995531ead61ed1", "fusion_lon": 0.0, "lat": 38.8620295}, {"type": "electric_scooter", "name": "874efb83d01ce5cdd494b3adfb730f2d", "is_reserved": 0, "fusion_lat": 0.0, "lon": -77.028746, "is_disabled": 0, "rental_uris": {"android": "https://dc.lft.to/lastmile_qr_scan", "ios": "https://dc.lft.to/lastmile_qr_scan"}, "bike_id": "874efb83d01ce5cdd494b3adfb730f2d", "fusion_lon": 0.0, "lat": 38.89847316666667}, {"type": "electric_scooter", "name": "d2ae20f781b8b35ca174e27c281cc18c", "is_reserved": 0, "fusion_lat": 0.0, "lon": -77.02492916666667, "is_disabled": 0, "rental_uris": {"android": "https://dc.lft.to/lastmile_qr_scan", "ios": "https://dc.lft.to/lastmile_qr_scan"}, "bike_id": "d2ae20f781b8b35ca174e27c281cc18c", "fusion_lon": 0.0, "lat": 38.94187683333333}, {"type": "electric_scooter", "name": "0d7148328aace84e9df231b2fbeb0fc3", "is_reserved": 0, "fusion_lat": 0.0, "lon": -77.02994683333333, "is_disabled": 0, "rental_uris": {"android": "https://dc.lft.to/lastmile_qr_scan", "ios": "https://dc.lft.to/lastmile_qr_scan"}, "bike_id": "0d7148328aace84e9df231b2fbeb0fc3", "fusion_lon": 0.0, "lat": 38.903967}, {"type": "electric_scooter", "name": "d9b2f90db0d8b583dcfe377b15bf13ac", "is_reserved": 0, "fusion_lat": 0.0, "lon": -77.02297466666667, "is_disabled": 0, "rental_uris": {"android": "https://dc.lft.to/lastmile_qr_scan", "ios": "https://dc.lft.to/lastmile_qr_scan"}, "bike_id": "d9b2f90db0d8b583dcfe377b15bf13ac", "fusion_lon": 0.0, "lat": 38.928037333333336}, {"type": "electric_scooter", "name": "a5af7191488dc9283acfd3ce65fffff1", "is_reserved": 0, "fusion_lat": 0.0, "lon": -77.02727966666667, "is_disabled": 0, "rental_uris": {"android": "https://dc.lft.to/lastmile_qr_scan", "ios": "https://dc.lft.to/lastmile_qr_scan"}, "bike_id": "a5af7191488dc9283acfd3ce65fffff1", "fusion_lon": 0.0, "lat": 38.894981}, {"type": "electric_scooter", "name": "4bbfcbb2926b84a033033b3957698aff", "is_reserved": 0, "fusion_lat": 0.0, "lon": -77.0418655, "is_disabled": 0, "rental_uris": {"android": "https://dc.lft.to/lastmile_qr_scan", "ios": "https://dc.lft.to/lastmile_qr_scan"}, "bike_id": "4bbfcbb2926b84a033033b3957698aff", "fusion_lon": 0.0, "lat": 38.89287983333333}, {"type": "electric_scooter", "name": "4a9aabd19ea37954c503421702eb2daa", "is_reserved": 0, "fusion_lat": 0.0, "lon": -77.026064, "is_disabled": 0, "rental_uris": {"android": "https://dc.lft.to/lastmile_qr_scan", "ios": "https://dc.lft.to/lastmile_qr_scan"}, "bike_id": "4a9aabd19ea37954c503421702eb2daa", "fusion_lon": 0.0, "lat": 38.89230233333333}, {"type": "electric_scooter", "name": "e078ccf9aadbe42914fadfa8c22e0779", "is_reserved": 0, "fusion_lat": 0.0, "lon": -77.04721816666667, "is_disabled": 0, "rental_uris": {"android": "https://dc.lft.to/lastmile_qr_scan", "ios": "https://dc.lft.to/lastmile_qr_scan"}, "bike_id": "e078ccf9aadbe42914fadfa8c22e0779", "fusion_lon": 0.0, "lat": 38.90942183333333}, {"type": "electric_scooter", "name": "5ef4829a1f7a3cad799de37478faf5e5", "is_reserved": 0, "fusion_lat": 0.0, "lon": -77.03996583333333, "is_disabled": 0, "rental_uris": {"android": "https://dc.lft.to/lastmile_qr_scan", "ios": "https://dc.lft.to/lastmile_qr_scan"}, "bike_id": "5ef4829a1f7a3cad799de37478faf5e5", "fusion_lon": 0.0, "lat": 38.9054465}, {"type": "electric_scooter", "name": "6da52f08cb55ec07360ca2fe6230b738", "is_reserved": 0, "fusion_lat": 0.0, "lon": -77.032732, "is_disabled": 0, "rental_uris": {"android": "https://dc.lft.to/lastmile_qr_scan", "ios": "https://dc.lft.to/lastmile_qr_scan"}, "bike_id": "6da52f08cb55ec07360ca2fe6230b738", "fusion_lon": 0.0, "lat": 38.92747033333333}, {"type": "electric_scooter", "name": "264d177df0a32ae4640bee0491f20bff", "is_reserved": 0, "fusion_lat": 0.0, "lon": -77.045176, "is_disabled": 0, "rental_uris": {"android": "https://dc.lft.to/lastmile_qr_scan", "ios": "https://dc.lft.to/lastmile_qr_scan"}, "bike_id": "264d177df0a32ae4640bee0491f20bff", "fusion_lon": 0.0, "lat": 38.903874}, {"type": "electric_scooter", "name": "98a8bbccd9bb36ad1ee656d60ce598fd", "is_reserved": 0, "fusion_lat": 0.0, "lon": -77.02167866666667, "is_disabled": 0, "rental_uris": {"android": "https://dc.lft.to/lastmile_qr_scan", "ios": "https://dc.lft.to/lastmile_qr_scan"}, "bike_id": "98a8bbccd9bb36ad1ee656d60ce598fd", "fusion_lon": 0.0, "lat": 38.91480033333333}, {"type": "electric_scooter", "name": "e44850127ea9a7cddbd868c820dc7cd7", "is_reserved": 0, "fusion_lat": 0.0, "lon": -76.9487675, "is_disabled": 0, "rental_uris": {"android": "https://dc.lft.to/lastmile_qr_scan", "ios": "https://dc.lft.to/lastmile_qr_scan"}, "bike_id": "e44850127ea9a7cddbd868c820dc7cd7", "fusion_lon": 0.0, "lat": 38.895511166666665}, {"type": "electric_scooter", "name": "ad327a7fe4bc93e0a3df7c60e424d242", "is_reserved": 0, "fusion_lat": 0.0, "lon": -76.987112, "is_disabled": 0, "rental_uris": {"android": "https://dc.lft.to/lastmile_qr_scan", "ios": "https://dc.lft.to/lastmile_qr_scan"}, "bike_id": "ad327a7fe4bc93e0a3df7c60e424d242", "fusion_lon": 0.0, "lat": 38.8669945}, {"type": "electric_scooter", "name": "d79787b096c70292c7b307a3af1f9d53", "is_reserved": 0, "fusion_lat": 0.0, "lon": -77.05386483333334, "is_disabled": 0, "rental_uris": {"android": "https://dc.lft.to/lastmile_qr_scan", "ios": "https://dc.lft.to/lastmile_qr_scan"}, "bike_id": "d79787b096c70292c7b307a3af1f9d53", "fusion_lon": 0.0, "lat": 38.92812716666667}, {"type": "electric_scooter", "name": "e25fbd6011ecbb1223ba37200b7344c0", "is_reserved": 0, "fusion_lat": 0.0, "lon": -77.0118665, "is_disabled": 0, "rental_uris": {"android": "https://dc.lft.to/lastmile_qr_scan", "ios": "https://dc.lft.to/lastmile_qr_scan"}, "bike_id": "e25fbd6011ecbb1223ba37200b7344c0", "fusion_lon": 0.0, "lat": 38.91541616666667}, {"type": "electric_scooter", "name": "342d44fe866ce65b8980642675003688", "is_reserved": 0, "fusion_lat": 0.0, "lon": -76.95019366666666, "is_disabled": 0, "rental_uris": {"android": "https://dc.lft.to/lastmile_qr_scan", "ios": "https://dc.lft.to/lastmile_qr_scan"}, "bike_id": "342d44fe866ce65b8980642675003688", "fusion_lon": 0.0, "lat": 38.893898}, {"type": "electric_scooter", "name": "e9c4323ae320122b27efbfc843b27852", "is_reserved": 0, "fusion_lat": 0.0, "lon": -77.02370166666667, "is_disabled": 0, "rental_uris": {"android": "https://dc.lft.to/lastmile_qr_scan", "ios": "https://dc.lft.to/lastmile_qr_scan"}, "bike_id": "e9c4323ae320122b27efbfc843b27852", "fusion_lon": 0.0, "lat": 38.8922195}, {"type": "electric_scooter", "name": "27ed79ad4f432e7f2f6687bc84028016", "is_reserved": 0, "fusion_lat": 0.0, "lon": -77.05433033333334, "is_disabled": 0, "rental_uris": {"android": "https://dc.lft.to/lastmile_qr_scan", "ios": "https://dc.lft.to/lastmile_qr_scan"}, "bike_id": "27ed79ad4f432e7f2f6687bc84028016", "fusion_lon": 0.0, "lat": 38.92830083333333}, {"type": "electric_scooter", "name": "f8fc812d2d0f57a9802260344f3e8103", "is_reserved": 0, "fusion_lat": 0.0, "lon": -77.03867083333333, "is_disabled": 0, "rental_uris": {"android": "https://dc.lft.to/lastmile_qr_scan", "ios": "https://dc.lft.to/lastmile_qr_scan"}, "bike_id": "f8fc812d2d0f57a9802260344f3e8103", "fusion_lon": 0.0, "lat": 38.945022333333334}, {"type": "electric_scooter", "name": "33cfa33c6e8258de29f710b1bbd3e344", "is_reserved": 0, "fusion_lat": 0.0, "lon": -77.005652, "is_disabled": 0, "rental_uris": {"android": "https://dc.lft.to/lastmile_qr_scan", "ios": "https://dc.lft.to/lastmile_qr_scan"}, "bike_id": "33cfa33c6e8258de29f710b1bbd3e344", "fusion_lon": 0.0, "lat": 38.885045833333336}, {"type": "electric_scooter", "name": "4759829e1e82251432041cfa200432ca", "is_reserved": 0, "fusion_lat": 0.0, "lon": -77.03426016666667, "is_disabled": 0, "rental_uris": {"android": "https://dc.lft.to/lastmile_qr_scan", "ios": "https://dc.lft.to/lastmile_qr_scan"}, "bike_id": "4759829e1e82251432041cfa200432ca", "fusion_lon": 0.0, "lat": 38.904174833333336}, {"type": "electric_scooter", "name": "9c950f3130527e02c886d29624d95c66", "is_reserved": 0, "fusion_lat": 0.0, "lon": -76.9906455, "is_disabled": 0, "rental_uris": {"android": "https://dc.lft.to/lastmile_qr_scan", "ios": "https://dc.lft.to/lastmile_qr_scan"}, "bike_id": "9c950f3130527e02c886d29624d95c66", "fusion_lon": 0.0, "lat": 38.86364116666667}, {"type": "electric_scooter", "name": "dbc8310c798be7e9e74043d1afff6838", "is_reserved": 0, "fusion_lat": 0.0, "lon": -76.9971325, "is_disabled": 0, "rental_uris": {"android": "https://dc.lft.to/lastmile_qr_scan", "ios": "https://dc.lft.to/lastmile_qr_scan"}, "bike_id": "dbc8310c798be7e9e74043d1afff6838", "fusion_lon": 0.0, "lat": 38.90778916666667}, {"type": "electric_scooter", "name": "1b18abee6cc6518443ab29188827fa6c", "is_reserved": 0, "fusion_lat": 0.0, "lon": -77.02686316666667, "is_disabled": 0, "rental_uris": {"android": "https://dc.lft.to/lastmile_qr_scan", "ios": "https://dc.lft.to/lastmile_qr_scan"}, "bike_id": "1b18abee6cc6518443ab29188827fa6c", "fusion_lon": 0.0, "lat": 38.89603616666667}, {"type": "electric_scooter", "name": "e43e6bf1280f72affddefd1a7f1fd85e", "is_reserved": 0, "fusion_lat": 0.0, "lon": -77.02227733333334, "is_disabled": 0, "rental_uris": {"android": "https://dc.lft.to/lastmile_qr_scan", "ios": "https://dc.lft.to/lastmile_qr_scan"}, "bike_id": "e43e6bf1280f72affddefd1a7f1fd85e", "fusion_lon": 0.0, "lat": 38.89222}, {"type": "electric_scooter", "name": "8ec66597dacea84915edd31c9edd063d", "is_reserved": 0, "fusion_lat": 0.0, "lon": -77.02620466666667, "is_disabled": 0, "rental_uris": {"android": "https://dc.lft.to/lastmile_qr_scan", "ios": "https://dc.lft.to/lastmile_qr_scan"}, "bike_id": "8ec66597dacea84915edd31c9edd063d", "fusion_lon": 0.0, "lat": 38.88367616666667}, {"type": "electric_scooter", "name": "bcd6c0c79010e12798ba6ff0f5325403", "is_reserved": 0, "fusion_lat": 0.0, "lon": -77.01029783333334, "is_disabled": 0, "rental_uris": {"android": "https://dc.lft.to/lastmile_qr_scan", "ios": "https://dc.lft.to/lastmile_qr_scan"}, "bike_id": "bcd6c0c79010e12798ba6ff0f5325403", "fusion_lon": 0.0, "lat": 38.920245666666666}, {"type": "electric_scooter", "name": "7a3e7a5d07d7f18e9261fa6d8ce31258", "is_reserved": 0, "fusion_lat": 0.0, "lon": -77.05129566666666, "is_disabled": 0, "rental_uris": {"android": "https://dc.lft.to/lastmile_qr_scan", "ios": "https://dc.lft.to/lastmile_qr_scan"}, "bike_id": "7a3e7a5d07d7f18e9261fa6d8ce31258", "fusion_lon": 0.0, "lat": 38.900727833333335}, {"type": "electric_scooter", "name": "710ad0e62145681a2437338c402a8ccb", "is_reserved": 0, "fusion_lat": 0.0, "lon": -77.02708866666667, "is_disabled": 0, "rental_uris": {"android": "https://dc.lft.to/lastmile_qr_scan", "ios": "https://dc.lft.to/lastmile_qr_scan"}, "bike_id": "710ad0e62145681a2437338c402a8ccb", "fusion_lon": 0.0, "lat": 38.90671116666667}, {"type": "electric_scooter", "name": "ad816cd9bb53c65b9a3b5385ac7c6835", "is_reserved": 0, "fusion_lat": 0.0, "lon": -76.99640566666666, "is_disabled": 0, "rental_uris": {"android": "https://dc.lft.to/lastmile_qr_scan", "ios": "https://dc.lft.to/lastmile_qr_scan"}, "bike_id": "ad816cd9bb53c65b9a3b5385ac7c6835", "fusion_lon": 0.0, "lat": 38.90029966666667}, {"type": "electric_scooter", "name": "d334a19b6314ab965b608702946a6b26", "is_reserved": 0, "fusion_lat": 0.0, "lon": -77.00334416666666, "is_disabled": 0, "rental_uris": {"android": "https://dc.lft.to/lastmile_qr_scan", "ios": "https://dc.lft.to/lastmile_qr_scan"}, "bike_id": "d334a19b6314ab965b608702946a6b26", "fusion_lon": 0.0, "lat": 38.8921185}, {"type": "electric_scooter", "name": "ea3c9205e7037862671e7754c417bfff", "is_reserved": 0, "fusion_lat": 0.0, "lon": -77.02252383333334, "is_disabled": 0, "rental_uris": {"android": "https://dc.lft.to/lastmile_qr_scan", "ios": "https://dc.lft.to/lastmile_qr_scan"}, "bike_id": "ea3c9205e7037862671e7754c417bfff", "fusion_lon": 0.0, "lat": 38.927399}, {"type": "electric_scooter", "name": "a75d4d2073b3747f9504ee1bf3ee5d17", "is_reserved": 0, "fusion_lat": 0.0, "lon": -77.045021, "is_disabled": 0, "rental_uris": {"android": "https://dc.lft.to/lastmile_qr_scan", "ios": "https://dc.lft.to/lastmile_qr_scan"}, "bike_id": "a75d4d2073b3747f9504ee1bf3ee5d17", "fusion_lon": 0.0, "lat": 38.90961083333333}, {"type": "electric_scooter", "name": "3c1ac10ad63e6688bb3b4a9b4cd6c208", "is_reserved": 0, "fusion_lat": 0.0, "lon": -76.931974, "is_disabled": 0, "rental_uris": {"android": "https://dc.lft.to/lastmile_qr_scan", "ios": "https://dc.lft.to/lastmile_qr_scan"}, "bike_id": "3c1ac10ad63e6688bb3b4a9b4cd6c208", "fusion_lon": 0.0, "lat": 38.898784666666664}, {"type": "electric_bike", "name": "b42766f90109806ba92551c8be8bb387", "is_reserved": 0, "fusion_lat": 0.0, "lon": -77.12733933333334, "is_disabled": 0, "rental_uris": {"android": "https://dc.lft.to/lastmile_qr_scan", "ios": "https://dc.lft.to/lastmile_qr_scan"}, "bike_id": "b42766f90109806ba92551c8be8bb387", "fusion_lon": 0.0, "lat": 38.895633}, {"type": "electric_scooter", "name": "2a319ce25f96b86f68c947cad1a50436", "is_reserved": 0, "fusion_lat": 0.0, "lon": -77.0293655, "is_disabled": 0, "rental_uris": {"android": "https://dc.lft.to/lastmile_qr_scan", "ios": "https://dc.lft.to/lastmile_qr_scan"}, "bike_id": "2a319ce25f96b86f68c947cad1a50436", "fusion_lon": 0.0, "lat": 38.89937883333333}, {"type": "electric_scooter", "name": "1c5776430d64a620f8a410ccbc78f648", "is_reserved": 0, "fusion_lat": 0.0, "lon": -77.01625083333333, "is_disabled": 0, "rental_uris": {"android": "https://dc.lft.to/lastmile_qr_scan", "ios": "https://dc.lft.to/lastmile_qr_scan"}, "bike_id": "1c5776430d64a620f8a410ccbc78f648", "fusion_lon": 0.0, "lat": 38.90707233333333}, {"type": "electric_scooter", "name": "802fbda0462f72be467a16f25a02a3c9", "is_reserved": 0, "fusion_lat": 0.0, "lon": -76.9990275, "is_disabled": 0, "rental_uris": {"android": "https://dc.lft.to/lastmile_qr_scan", "ios": "https://dc.lft.to/lastmile_qr_scan"}, "bike_id": "802fbda0462f72be467a16f25a02a3c9", "fusion_lon": 0.0, "lat": 38.948171}, {"type": "electric_scooter", "name": "76d3935619ff5e8779792e678e1175cb", "is_reserved": 0, "fusion_lat": 0.0, "lon": -77.037212, "is_disabled": 0, "rental_uris": {"android": "https://dc.lft.to/lastmile_qr_scan", "ios": "https://dc.lft.to/lastmile_qr_scan"}, "bike_id": "76d3935619ff5e8779792e678e1175cb", "fusion_lon": 0.0, "lat": 38.917002833333335}, {"type": "electric_bike", "name": "c4028a31c89e1363bc5266a11e0a8bcd", "is_reserved": 0, "fusion_lat": 0.0, "lon": -77.11252966666666, "is_disabled": 0, "rental_uris": {"android": "https://dc.lft.to/lastmile_qr_scan", "ios": "https://dc.lft.to/lastmile_qr_scan"}, "bike_id": "c4028a31c89e1363bc5266a11e0a8bcd", "fusion_lon": 0.0, "lat": 38.856492333333335}, {"type": "electric_scooter", "name": "4ecc46883ad6864725e951dcf2c6fdca", "is_reserved": 0, "fusion_lat": 0.0, "lon": -76.9887345, "is_disabled": 0, "rental_uris": {"android": "https://dc.lft.to/lastmile_qr_scan", "ios": "https://dc.lft.to/lastmile_qr_scan"}, "bike_id": "4ecc46883ad6864725e951dcf2c6fdca", "fusion_lon": 0.0, "lat": 38.900258666666666}, {"type": "electric_scooter", "name": "44686cf0d766e95cc5b8ab41b6e9951f", "is_reserved": 0, "fusion_lat": 0.0, "lon": -77.042367, "is_disabled": 0, "rental_uris": {"android": "https://dc.lft.to/lastmile_qr_scan", "ios": "https://dc.lft.to/lastmile_qr_scan"}, "bike_id": "44686cf0d766e95cc5b8ab41b6e9951f", "fusion_lon": 0.0, "lat": 38.921960166666665}, {"type": "electric_scooter", "name": "e263778cdd4cec67ebcaacd02007a345", "is_reserved": 0, "fusion_lat": 0.0, "lon": -77.02204866666666, "is_disabled": 0, "rental_uris": {"android": "https://dc.lft.to/lastmile_qr_scan", "ios": "https://dc.lft.to/lastmile_qr_scan"}, "bike_id": "e263778cdd4cec67ebcaacd02007a345", "fusion_lon": 0.0, "lat": 38.878879833333336}, {"type": "electric_scooter", "name": "83472df0d6795d73b39884fb8fcd4082", "is_reserved": 0, "fusion_lat": 0.0, "lon": -77.032614, "is_disabled": 0, "rental_uris": {"android": "https://dc.lft.to/lastmile_qr_scan", "ios": "https://dc.lft.to/lastmile_qr_scan"}, "bike_id": "83472df0d6795d73b39884fb8fcd4082", "fusion_lon": 0.0, "lat": 38.935235166666665}, {"type": "electric_scooter", "name": "d7b6cb6b02d063645a852917c02fad8c", "is_reserved": 0, "fusion_lat": 0.0, "lon": -77.03657183333333, "is_disabled": 0, "rental_uris": {"android": "https://dc.lft.to/lastmile_qr_scan", "ios": "https://dc.lft.to/lastmile_qr_scan"}, "bike_id": "d7b6cb6b02d063645a852917c02fad8c", "fusion_lon": 0.0, "lat": 38.9159845}, {"type": "electric_scooter", "name": "7adb9c4034a00ad45c926f1024bec091", "is_reserved": 0, "fusion_lat": 0.0, "lon": -77.03638316666667, "is_disabled": 0, "rental_uris": {"android": "https://dc.lft.to/lastmile_qr_scan", "ios": "https://dc.lft.to/lastmile_qr_scan"}, "bike_id": "7adb9c4034a00ad45c926f1024bec091", "fusion_lon": 0.0, "lat": 38.92745}, {"type": "electric_scooter", "name": "be9d31acc9a4910fe3019487b655abc2", "is_reserved": 0, "fusion_lat": 0.0, "lon": -77.07025316666666, "is_disabled": 0, "rental_uris": {"android": "https://dc.lft.to/lastmile_qr_scan", "ios": "https://dc.lft.to/lastmile_qr_scan"}, "bike_id": "be9d31acc9a4910fe3019487b655abc2", "fusion_lon": 0.0, "lat": 38.906312666666665}, {"type": "electric_scooter", "name": "11abec049676c6b13b059297c65a8e52", "is_reserved": 0, "fusion_lat": 0.0, "lon": -77.01704383333333, "is_disabled": 0, "rental_uris": {"android": "https://dc.lft.to/lastmile_qr_scan", "ios": "https://dc.lft.to/lastmile_qr_scan"}, "bike_id": "11abec049676c6b13b059297c65a8e52", "fusion_lon": 0.0, "lat": 38.879361333333335}, {"type": "electric_scooter", "name": "6c8c450ae761247bd8902090f141ae95", "is_reserved": 0, "fusion_lat": 0.0, "lon": -76.9498255, "is_disabled": 0, "rental_uris": {"android": "https://dc.lft.to/lastmile_qr_scan", "ios": "https://dc.lft.to/lastmile_qr_scan"}, "bike_id": "6c8c450ae761247bd8902090f141ae95", "fusion_lon": 0.0, "lat": 38.904957}, {"type": "electric_scooter", "name": "ff434df0df4b7f4ad59493623df5bc44", "is_reserved": 0, "fusion_lat": 0.0, "lon": -77.03131866666666, "is_disabled": 0, "rental_uris": {"android": "https://dc.lft.to/lastmile_qr_scan", "ios": "https://dc.lft.to/lastmile_qr_scan"}, "bike_id": "ff434df0df4b7f4ad59493623df5bc44", "fusion_lon": 0.0, "lat": 38.91494766666667}, {"type": "electric_bike", "name": "14f5bf554eb6947d7e979d1cc9705a39", "is_reserved": 0, "fusion_lat": 0.0, "lon": -77.08958983333333, "is_disabled": 0, "rental_uris": {"android": "https://dc.lft.to/lastmile_qr_scan", "ios": "https://dc.lft.to/lastmile_qr_scan"}, "bike_id": "14f5bf554eb6947d7e979d1cc9705a39", "fusion_lon": 0.0, "lat": 38.842952833333335}, {"type": "electric_scooter", "name": "9581e1bb8f2e67f531aae5f6b0c42c4b", "is_reserved": 0, "fusion_lat": 0.0, "lon": -77.038074, "is_disabled": 0, "rental_uris": {"android": "https://dc.lft.to/lastmile_qr_scan", "ios": "https://dc.lft.to/lastmile_qr_scan"}, "bike_id": "9581e1bb8f2e67f531aae5f6b0c42c4b", "fusion_lon": 0.0, "lat": 38.9305485}, {"type": "electric_bike", "name": "f337c29836a67f862f77a934601f5f98", "is_reserved": 0, "fusion_lat": 0.0, "lon": -77.07165433333333, "is_disabled": 0, "rental_uris": {"android": "https://dc.lft.to/lastmile_qr_scan", "ios": "https://dc.lft.to/lastmile_qr_scan"}, "bike_id": "f337c29836a67f862f77a934601f5f98", "fusion_lon": 0.0, "lat": 38.9079245}, {"type": "electric_scooter", "name": "f25ca4d1d8346f37676a85b76b697510", "is_reserved": 0, "fusion_lat": 0.0, "lon": -76.95122616666667, "is_disabled": 0, "rental_uris": {"android": "https://dc.lft.to/lastmile_qr_scan", "ios": "https://dc.lft.to/lastmile_qr_scan"}, "bike_id": "f25ca4d1d8346f37676a85b76b697510", "fusion_lon": 0.0, "lat": 38.88781733333333}, {"type": "electric_scooter", "name": "6f302d5e91ef273af3a9ed082ced3570", "is_reserved": 0, "fusion_lat": 0.0, "lon": -77.05053933333333, "is_disabled": 0, "rental_uris": {"android": "https://dc.lft.to/lastmile_qr_scan", "ios": "https://dc.lft.to/lastmile_qr_scan"}, "bike_id": "6f302d5e91ef273af3a9ed082ced3570", "fusion_lon": 0.0, "lat": 38.92418166666667}, {"type": "electric_scooter", "name": "33625a1030bbffbd74cc053a509cc683", "is_reserved": 0, "fusion_lat": 0.0, "lon": -77.03843733333333, "is_disabled": 0, "rental_uris": {"android": "https://dc.lft.to/lastmile_qr_scan", "ios": "https://dc.lft.to/lastmile_qr_scan"}, "bike_id": "33625a1030bbffbd74cc053a509cc683", "fusion_lon": 0.0, "lat": 38.907222833333336}, {"type": "electric_scooter", "name": "2ab35e4d11a98fa802b9522d39b62990", "is_reserved": 0, "fusion_lat": 0.0, "lon": -77.019702, "is_disabled": 0, "rental_uris": {"android": "https://dc.lft.to/lastmile_qr_scan", "ios": "https://dc.lft.to/lastmile_qr_scan"}, "bike_id": "2ab35e4d11a98fa802b9522d39b62990", "fusion_lon": 0.0, "lat": 38.89560266666667}, {"type": "electric_scooter", "name": "fbd857e29823b37cfeb16594d1b20eb3", "is_reserved": 0, "fusion_lat": 0.0, "lon": -77.05135133333333, "is_disabled": 0, "rental_uris": {"android": "https://dc.lft.to/lastmile_qr_scan", "ios": "https://dc.lft.to/lastmile_qr_scan"}, "bike_id": "fbd857e29823b37cfeb16594d1b20eb3", "fusion_lon": 0.0, "lat": 38.905223166666666}, {"type": "electric_scooter", "name": "959a6371b5ede3ae318648ce425b185b", "is_reserved": 0, "fusion_lat": 0.0, "lon": -77.002223, "is_disabled": 0, "rental_uris": {"android": "https://dc.lft.to/lastmile_qr_scan", "ios": "https://dc.lft.to/lastmile_qr_scan"}, "bike_id": "959a6371b5ede3ae318648ce425b185b", "fusion_lon": 0.0, "lat": 38.9006405}, {"type": "electric_scooter", "name": "19f55d84ae33ecc6d5a11a3cc4b95738", "is_reserved": 0, "fusion_lat": 0.0, "lon": -77.0061515, "is_disabled": 0, "rental_uris": {"android": "https://dc.lft.to/lastmile_qr_scan", "ios": "https://dc.lft.to/lastmile_qr_scan"}, "bike_id": "19f55d84ae33ecc6d5a11a3cc4b95738", "fusion_lon": 0.0, "lat": 38.875484666666665}, {"type": "electric_scooter", "name": "ba368ac80406c5677862d99f657ab521", "is_reserved": 0, "fusion_lat": 0.0, "lon": -76.99811433333333, "is_disabled": 0, "rental_uris": {"android": "https://dc.lft.to/lastmile_qr_scan", "ios": "https://dc.lft.to/lastmile_qr_scan"}, "bike_id": "ba368ac80406c5677862d99f657ab521", "fusion_lon": 0.0, "lat": 38.88558466666667}, {"type": "electric_scooter", "name": "88ab1b6f4f34f43cd31cc1fd873184dc", "is_reserved": 0, "fusion_lat": 0.0, "lon": -77.04810516666667, "is_disabled": 0, "rental_uris": {"android": "https://dc.lft.to/lastmile_qr_scan", "ios": "https://dc.lft.to/lastmile_qr_scan"}, "bike_id": "88ab1b6f4f34f43cd31cc1fd873184dc", "fusion_lon": 0.0, "lat": 38.91032416666667}, {"type": "electric_scooter", "name": "7f22ac7beb3d2f735bc6ad3f2874eba9", "is_reserved": 0, "fusion_lat": 0.0, "lon": -76.9876325, "is_disabled": 0, "rental_uris": {"android": "https://dc.lft.to/lastmile_qr_scan", "ios": "https://dc.lft.to/lastmile_qr_scan"}, "bike_id": "7f22ac7beb3d2f735bc6ad3f2874eba9", "fusion_lon": 0.0, "lat": 38.9002775}, {"type": "electric_scooter", "name": "fb7d13152b790ea1643d586ade2f0ecc", "is_reserved": 0, "fusion_lat": 0.0, "lon": -77.01691, "is_disabled": 0, "rental_uris": {"android": "https://dc.lft.to/lastmile_qr_scan", "ios": "https://dc.lft.to/lastmile_qr_scan"}, "bike_id": "fb7d13152b790ea1643d586ade2f0ecc", "fusion_lon": 0.0, "lat": 38.974965833333336}, {"type": "electric_scooter", "name": "86e259435f1fd561c0d35be3d4248ca1", "is_reserved": 0, "fusion_lat": 0.0, "lon": -77.00467366666666, "is_disabled": 0, "rental_uris": {"android": "https://dc.lft.to/lastmile_qr_scan", "ios": "https://dc.lft.to/lastmile_qr_scan"}, "bike_id": "86e259435f1fd561c0d35be3d4248ca1", "fusion_lon": 0.0, "lat": 38.87661116666666}, {"type": "electric_scooter", "name": "1b786fd96613fd0544c0b0b2ac9ed34d", "is_reserved": 0, "fusion_lat": 0.0, "lon": -77.0086755, "is_disabled": 0, "rental_uris": {"android": "https://dc.lft.to/lastmile_qr_scan", "ios": "https://dc.lft.to/lastmile_qr_scan"}, "bike_id": "1b786fd96613fd0544c0b0b2ac9ed34d", "fusion_lon": 0.0, "lat": 38.897465833333335}, {"type": "electric_scooter", "name": "36e9e009e0f72ea99a414b54232c68eb", "is_reserved": 0, "fusion_lat": 0.0, "lon": -76.99825133333333, "is_disabled": 0, "rental_uris": {"android": "https://dc.lft.to/lastmile_qr_scan", "ios": "https://dc.lft.to/lastmile_qr_scan"}, "bike_id": "36e9e009e0f72ea99a414b54232c68eb", "fusion_lon": 0.0, "lat": 38.901346333333336}, {"type": "electric_bike", "name": "efe47f2e61b80491815ff6d110bdad98", "is_reserved": 0, "fusion_lat": 0.0, "lon": -77.03933616666667, "is_disabled": 0, "rental_uris": {"android": "https://dc.lft.to/lastmile_qr_scan", "ios": "https://dc.lft.to/lastmile_qr_scan"}, "bike_id": "efe47f2e61b80491815ff6d110bdad98", "fusion_lon": 0.0, "lat": 38.89913766666667}, {"type": "electric_scooter", "name": "13f861221b336db0342e075908a15115", "is_reserved": 0, "fusion_lat": 0.0, "lon": -77.01773933333334, "is_disabled": 0, "rental_uris": {"android": "https://dc.lft.to/lastmile_qr_scan", "ios": "https://dc.lft.to/lastmile_qr_scan"}, "bike_id": "13f861221b336db0342e075908a15115", "fusion_lon": 0.0, "lat": 38.9209815}, {"type": "electric_scooter", "name": "bdd74cf807276366f29622f48a38789a", "is_reserved": 0, "fusion_lat": 0.0, "lon": -76.99568816666667, "is_disabled": 0, "rental_uris": {"android": "https://dc.lft.to/lastmile_qr_scan", "ios": "https://dc.lft.to/lastmile_qr_scan"}, "bike_id": "bdd74cf807276366f29622f48a38789a", "fusion_lon": 0.0, "lat": 38.89216116666667}, {"type": "electric_scooter", "name": "3c081e3bf990406834eaf0f44c36f77b", "is_reserved": 0, "fusion_lat": 0.0, "lon": -77.0335425, "is_disabled": 0, "rental_uris": {"android": "https://dc.lft.to/lastmile_qr_scan", "ios": "https://dc.lft.to/lastmile_qr_scan"}, "bike_id": "3c081e3bf990406834eaf0f44c36f77b", "fusion_lon": 0.0, "lat": 38.90735033333333}, {"type": "electric_scooter", "name": "84ac4a8170036f0123d19252918c8ad0", "is_reserved": 0, "fusion_lat": 0.0, "lon": -77.009264, "is_disabled": 0, "rental_uris": {"android": "https://dc.lft.to/lastmile_qr_scan", "ios": "https://dc.lft.to/lastmile_qr_scan"}, "bike_id": "84ac4a8170036f0123d19252918c8ad0", "fusion_lon": 0.0, "lat": 38.89606716666667}, {"type": "electric_scooter", "name": "1894a8c97b880a679bfcdb271c761038", "is_reserved": 0, "fusion_lat": 0.0, "lon": -77.01695966666666, "is_disabled": 0, "rental_uris": {"android": "https://dc.lft.to/lastmile_qr_scan", "ios": "https://dc.lft.to/lastmile_qr_scan"}, "bike_id": "1894a8c97b880a679bfcdb271c761038", "fusion_lon": 0.0, "lat": 38.97502716666666}, {"type": "electric_scooter", "name": "554bb0dbefdaeeb64cd893d293d76ce8", "is_reserved": 0, "fusion_lat": 0.0, "lon": -77.0383995, "is_disabled": 0, "rental_uris": {"android": "https://dc.lft.to/lastmile_qr_scan", "ios": "https://dc.lft.to/lastmile_qr_scan"}, "bike_id": "554bb0dbefdaeeb64cd893d293d76ce8", "fusion_lon": 0.0, "lat": 38.911970833333335}, {"type": "electric_scooter", "name": "a1fc9acf9e503def0a339b7b60fbbec3", "is_reserved": 0, "fusion_lat": 0.0, "lon": -76.99705283333333, "is_disabled": 0, "rental_uris": {"android": "https://dc.lft.to/lastmile_qr_scan", "ios": "https://dc.lft.to/lastmile_qr_scan"}, "bike_id": "a1fc9acf9e503def0a339b7b60fbbec3", "fusion_lon": 0.0, "lat": 38.84429383333333}, {"type": "electric_scooter", "name": "1326cf94d44ab8da3db2b7000ce74cb0", "is_reserved": 0, "fusion_lat": 0.0, "lon": -77.0271005, "is_disabled": 0, "rental_uris": {"android": "https://dc.lft.to/lastmile_qr_scan", "ios": "https://dc.lft.to/lastmile_qr_scan"}, "bike_id": "1326cf94d44ab8da3db2b7000ce74cb0", "fusion_lon": 0.0, "lat": 38.90684366666667}, {"type": "electric_scooter", "name": "2c48f68366d36d9979fbd0ba3c50b2ed", "is_reserved": 0, "fusion_lat": 0.0, "lon": -77.00473116666667, "is_disabled": 0, "rental_uris": {"android": "https://dc.lft.to/lastmile_qr_scan", "ios": "https://dc.lft.to/lastmile_qr_scan"}, "bike_id": "2c48f68366d36d9979fbd0ba3c50b2ed", "fusion_lon": 0.0, "lat": 38.876683166666666}, {"type": "electric_scooter", "name": "d353f1c6ec00ebf951d5f3b0af7b97f2", "is_reserved": 0, "fusion_lat": 0.0, "lon": -76.99821016666667, "is_disabled": 0, "rental_uris": {"android": "https://dc.lft.to/lastmile_qr_scan", "ios": "https://dc.lft.to/lastmile_qr_scan"}, "bike_id": "d353f1c6ec00ebf951d5f3b0af7b97f2", "fusion_lon": 0.0, "lat": 38.90028066666667}, {"type": "electric_scooter", "name": "ff4bc140a01f9632798f56d0c2d93d2c", "is_reserved": 0, "fusion_lat": 0.0, "lon": -77.02364433333334, "is_disabled": 0, "rental_uris": {"android": "https://dc.lft.to/lastmile_qr_scan", "ios": "https://dc.lft.to/lastmile_qr_scan"}, "bike_id": "ff4bc140a01f9632798f56d0c2d93d2c", "fusion_lon": 0.0, "lat": 38.9251065}, {"type": "electric_scooter", "name": "a23002f816b45f98863abe341d083f74", "is_reserved": 0, "fusion_lat": 0.0, "lon": -77.00397816666667, "is_disabled": 0, "rental_uris": {"android": "https://dc.lft.to/lastmile_qr_scan", "ios": "https://dc.lft.to/lastmile_qr_scan"}, "bike_id": "a23002f816b45f98863abe341d083f74", "fusion_lon": 0.0, "lat": 38.907757}, {"type": "electric_scooter", "name": "e364f28552ff684f48603674b6871726", "is_reserved": 0, "fusion_lat": 0.0, "lon": -76.989638, "is_disabled": 0, "rental_uris": {"android": "https://dc.lft.to/lastmile_qr_scan", "ios": "https://dc.lft.to/lastmile_qr_scan"}, "bike_id": "e364f28552ff684f48603674b6871726", "fusion_lon": 0.0, "lat": 38.85692616666667}, {"type": "electric_bike", "name": "e89b77b0383129959282c918d22331e1", "is_reserved": 0, "fusion_lat": 0.0, "lon": -77.07154666666666, "is_disabled": 0, "rental_uris": {"android": "https://dc.lft.to/lastmile_qr_scan", "ios": "https://dc.lft.to/lastmile_qr_scan"}, "bike_id": "e89b77b0383129959282c918d22331e1", "fusion_lon": 0.0, "lat": 38.90785016666667}, {"type": "electric_scooter", "name": "d6aa79cbf09dd4a5705ab74a328ace49", "is_reserved": 0, "fusion_lat": 0.0, "lon": -76.98715266666666, "is_disabled": 0, "rental_uris": {"android": "https://dc.lft.to/lastmile_qr_scan", "ios": "https://dc.lft.to/lastmile_qr_scan"}, "bike_id": "d6aa79cbf09dd4a5705ab74a328ace49", "fusion_lon": 0.0, "lat": 38.86628266666666}, {"type": "electric_scooter", "name": "3389ef8beb394f1a50eff2e8aafde2e3", "is_reserved": 0, "fusion_lat": 0.0, "lon": -76.9827735, "is_disabled": 0, "rental_uris": {"android": "https://dc.lft.to/lastmile_qr_scan", "ios": "https://dc.lft.to/lastmile_qr_scan"}, "bike_id": "3389ef8beb394f1a50eff2e8aafde2e3", "fusion_lon": 0.0, "lat": 38.915614}, {"type": "electric_scooter", "name": "df3045d460d8ce5e803f5009e6bca4ae", "is_reserved": 0, "fusion_lat": 0.0, "lon": -77.00346283333333, "is_disabled": 0, "rental_uris": {"android": "https://dc.lft.to/lastmile_qr_scan", "ios": "https://dc.lft.to/lastmile_qr_scan"}, "bike_id": "df3045d460d8ce5e803f5009e6bca4ae", "fusion_lon": 0.0, "lat": 38.88703}, {"type": "electric_scooter", "name": "3226a0ca169ee95fec9026e58989793e", "is_reserved": 0, "fusion_lat": 0.0, "lon": -77.04667816666667, "is_disabled": 0, "rental_uris": {"android": "https://dc.lft.to/lastmile_qr_scan", "ios": "https://dc.lft.to/lastmile_qr_scan"}, "bike_id": "3226a0ca169ee95fec9026e58989793e", "fusion_lon": 0.0, "lat": 38.90062116666667}, {"type": "electric_scooter", "name": "a731c7bf94021708aaddd0f2b3cfa667", "is_reserved": 0, "fusion_lat": 0.0, "lon": -76.951858, "is_disabled": 0, "rental_uris": {"android": "https://dc.lft.to/lastmile_qr_scan", "ios": "https://dc.lft.to/lastmile_qr_scan"}, "bike_id": "a731c7bf94021708aaddd0f2b3cfa667", "fusion_lon": 0.0, "lat": 38.907373}, {"type": "electric_scooter", "name": "875f31dffa2b3922d6c9f8c50a5eb4b5", "is_reserved": 0, "fusion_lat": 0.0, "lon": -77.0321385, "is_disabled": 0, "rental_uris": {"android": "https://dc.lft.to/lastmile_qr_scan", "ios": "https://dc.lft.to/lastmile_qr_scan"}, "bike_id": "875f31dffa2b3922d6c9f8c50a5eb4b5", "fusion_lon": 0.0, "lat": 38.90783483333333}, {"type": "electric_bike", "name": "a19f21dc7365595ea45347b108333c02", "is_reserved": 0, "fusion_lat": 0.0, "lon": -77.08192316666667, "is_disabled": 0, "rental_uris": {"android": "https://dc.lft.to/lastmile_qr_scan", "ios": "https://dc.lft.to/lastmile_qr_scan"}, "bike_id": "a19f21dc7365595ea45347b108333c02", "fusion_lon": 0.0, "lat": 38.85569383333333}, {"type": "electric_scooter", "name": "f026999821713a191836ba4aa81a6e90", "is_reserved": 0, "fusion_lat": 0.0, "lon": -76.99609183333334, "is_disabled": 0, "rental_uris": {"android": "https://dc.lft.to/lastmile_qr_scan", "ios": "https://dc.lft.to/lastmile_qr_scan"}, "bike_id": "f026999821713a191836ba4aa81a6e90", "fusion_lon": 0.0, "lat": 38.885842333333336}, {"type": "electric_scooter", "name": "8057de0190e2d2b7a69fc83e3271ac81", "is_reserved": 0, "fusion_lat": 0.0, "lon": -77.03294416666667, "is_disabled": 0, "rental_uris": {"android": "https://dc.lft.to/lastmile_qr_scan", "ios": "https://dc.lft.to/lastmile_qr_scan"}, "bike_id": "8057de0190e2d2b7a69fc83e3271ac81", "fusion_lon": 0.0, "lat": 38.9564515}, {"type": "electric_bike", "name": "552ea42fa85122940b86bb1d3dcc3617", "is_reserved": 0, "fusion_lat": 0.0, "lon": -77.109252, "is_disabled": 0, "rental_uris": {"android": "https://dc.lft.to/lastmile_qr_scan", "ios": "https://dc.lft.to/lastmile_qr_scan"}, "bike_id": "552ea42fa85122940b86bb1d3dcc3617", "fusion_lon": 0.0, "lat": 39.05194383333333}, {"type": "electric_scooter", "name": "6be8492d013475f97e5ed5ea58fac54d", "is_reserved": 0, "fusion_lat": 0.0, "lon": -77.04668466666666, "is_disabled": 0, "rental_uris": {"android": "https://dc.lft.to/lastmile_qr_scan", "ios": "https://dc.lft.to/lastmile_qr_scan"}, "bike_id": "6be8492d013475f97e5ed5ea58fac54d", "fusion_lon": 0.0, "lat": 38.90356833333333}, {"type": "electric_scooter", "name": "b30f3518f37925c0c730cf57c5b0838a", "is_reserved": 0, "fusion_lat": 0.0, "lon": -77.03673, "is_disabled": 0, "rental_uris": {"android": "https://dc.lft.to/lastmile_qr_scan", "ios": "https://dc.lft.to/lastmile_qr_scan"}, "bike_id": "b30f3518f37925c0c730cf57c5b0838a", "fusion_lon": 0.0, "lat": 38.931757}, {"type": "electric_scooter", "name": "fb8466d298414ac53c2dedc082683c4c", "is_reserved": 0, "fusion_lat": 0.0, "lon": -77.04755933333334, "is_disabled": 0, "rental_uris": {"android": "https://dc.lft.to/lastmile_qr_scan", "ios": "https://dc.lft.to/lastmile_qr_scan"}, "bike_id": "fb8466d298414ac53c2dedc082683c4c", "fusion_lon": 0.0, "lat": 38.9054185}, {"type": "electric_scooter", "name": "5b07d5ef28c264dc9984c77414cc16a9", "is_reserved": 0, "fusion_lat": 0.0, "lon": -77.03307633333333, "is_disabled": 0, "rental_uris": {"android": "https://dc.lft.to/lastmile_qr_scan", "ios": "https://dc.lft.to/lastmile_qr_scan"}, "bike_id": "5b07d5ef28c264dc9984c77414cc16a9", "fusion_lon": 0.0, "lat": 38.903631}, {"type": "electric_scooter", "name": "04e6d1cbb01db1491ff90df3e2d200e4", "is_reserved": 0, "fusion_lat": 0.0, "lon": -76.972715, "is_disabled": 0, "rental_uris": {"android": "https://dc.lft.to/lastmile_qr_scan", "ios": "https://dc.lft.to/lastmile_qr_scan"}, "bike_id": "04e6d1cbb01db1491ff90df3e2d200e4", "fusion_lon": 0.0, "lat": 38.9032525}, {"type": "electric_bike", "name": "2ee3ab84b6ff730fa9f0391c041e4e3c", "is_reserved": 0, "fusion_lat": 0.0, "lon": -77.00596016666667, "is_disabled": 0, "rental_uris": {"android": "https://dc.lft.to/lastmile_qr_scan", "ios": "https://dc.lft.to/lastmile_qr_scan"}, "bike_id": "2ee3ab84b6ff730fa9f0391c041e4e3c", "fusion_lon": 0.0, "lat": 38.89811233333333}, {"type": "electric_scooter", "name": "f624ace443d424a0e8a9e24ea995cd7a", "is_reserved": 0, "fusion_lat": 0.0, "lon": -77.01401466666667, "is_disabled": 0, "rental_uris": {"android": "https://dc.lft.to/lastmile_qr_scan", "ios": "https://dc.lft.to/lastmile_qr_scan"}, "bike_id": "f624ace443d424a0e8a9e24ea995cd7a", "fusion_lon": 0.0, "lat": 38.928587666666665}, {"type": "electric_scooter", "name": "3d4870f9a77b267d515ee0290d4a40cd", "is_reserved": 0, "fusion_lat": 0.0, "lon": -77.04009283333333, "is_disabled": 0, "rental_uris": {"android": "https://dc.lft.to/lastmile_qr_scan", "ios": "https://dc.lft.to/lastmile_qr_scan"}, "bike_id": "3d4870f9a77b267d515ee0290d4a40cd", "fusion_lon": 0.0, "lat": 38.90571716666667}, {"type": "electric_scooter", "name": "62a6ee6269d9d5112fe8856769e4eceb", "is_reserved": 0, "fusion_lat": 0.0, "lon": -77.02194633333333, "is_disabled": 0, "rental_uris": {"android": "https://dc.lft.to/lastmile_qr_scan", "ios": "https://dc.lft.to/lastmile_qr_scan"}, "bike_id": "62a6ee6269d9d5112fe8856769e4eceb", "fusion_lon": 0.0, "lat": 38.914816}, {"type": "electric_scooter", "name": "d303e7704f2e3da48b32f0941d45e7ab", "is_reserved": 0, "fusion_lat": 0.0, "lon": -77.028381, "is_disabled": 0, "rental_uris": {"android": "https://dc.lft.to/lastmile_qr_scan", "ios": "https://dc.lft.to/lastmile_qr_scan"}, "bike_id": "d303e7704f2e3da48b32f0941d45e7ab", "fusion_lon": 0.0, "lat": 38.931910333333335}, {"type": "electric_scooter", "name": "b4b25d81b85ebea8ffc937792a4d2dfe", "is_reserved": 0, "fusion_lat": 0.0, "lon": -77.04172383333334, "is_disabled": 0, "rental_uris": {"android": "https://dc.lft.to/lastmile_qr_scan", "ios": "https://dc.lft.to/lastmile_qr_scan"}, "bike_id": "b4b25d81b85ebea8ffc937792a4d2dfe", "fusion_lon": 0.0, "lat": 38.91352966666667}, {"type": "electric_scooter", "name": "d8ec66b67b6afbba21ddc994f1d7af13", "is_reserved": 0, "fusion_lat": 0.0, "lon": -77.043495, "is_disabled": 0, "rental_uris": {"android": "https://dc.lft.to/lastmile_qr_scan", "ios": "https://dc.lft.to/lastmile_qr_scan"}, "bike_id": "d8ec66b67b6afbba21ddc994f1d7af13", "fusion_lon": 0.0, "lat": 38.92344933333333}, {"type": "electric_scooter", "name": "040c21db1763645ec90e0be144a69dac", "is_reserved": 0, "fusion_lat": 0.0, "lon": -76.92998616666667, "is_disabled": 0, "rental_uris": {"android": "https://dc.lft.to/lastmile_qr_scan", "ios": "https://dc.lft.to/lastmile_qr_scan"}, "bike_id": "040c21db1763645ec90e0be144a69dac", "fusion_lon": 0.0, "lat": 38.9019015}, {"type": "electric_scooter", "name": "baf65c931a739ea0df4ac54843a4fcc5", "is_reserved": 0, "fusion_lat": 0.0, "lon": -77.05883916666667, "is_disabled": 0, "rental_uris": {"android": "https://dc.lft.to/lastmile_qr_scan", "ios": "https://dc.lft.to/lastmile_qr_scan"}, "bike_id": "baf65c931a739ea0df4ac54843a4fcc5", "fusion_lon": 0.0, "lat": 38.942977166666665}, {"type": "electric_scooter", "name": "36f138fd82f3ff57b1b8aa21e794b532", "is_reserved": 0, "fusion_lat": 0.0, "lon": -77.02769533333333, "is_disabled": 0, "rental_uris": {"android": "https://dc.lft.to/lastmile_qr_scan", "ios": "https://dc.lft.to/lastmile_qr_scan"}, "bike_id": "36f138fd82f3ff57b1b8aa21e794b532", "fusion_lon": 0.0, "lat": 38.95425183333333}, {"type": "electric_scooter", "name": "28e54dbfba42b420ff24d848daddff14", "is_reserved": 0, "fusion_lat": 0.0, "lon": -77.04609383333333, "is_disabled": 0, "rental_uris": {"android": "https://dc.lft.to/lastmile_qr_scan", "ios": "https://dc.lft.to/lastmile_qr_scan"}, "bike_id": "28e54dbfba42b420ff24d848daddff14", "fusion_lon": 0.0, "lat": 38.902333166666665}, {"type": "electric_scooter", "name": "e53ed50fb90053ecdd21394f13f4762a", "is_reserved": 0, "fusion_lat": 0.0, "lon": -77.01997033333333, "is_disabled": 0, "rental_uris": {"android": "https://dc.lft.to/lastmile_qr_scan", "ios": "https://dc.lft.to/lastmile_qr_scan"}, "bike_id": "e53ed50fb90053ecdd21394f13f4762a", "fusion_lon": 0.0, "lat": 38.91572766666667}, {"type": "electric_scooter", "name": "cc86c57bc4a9a25a59c37ee4fa475c62", "is_reserved": 0, "fusion_lat": 0.0, "lon": -77.02636266666667, "is_disabled": 0, "rental_uris": {"android": "https://dc.lft.to/lastmile_qr_scan", "ios": "https://dc.lft.to/lastmile_qr_scan"}, "bike_id": "cc86c57bc4a9a25a59c37ee4fa475c62", "fusion_lon": 0.0, "lat": 38.91710116666667}, {"type": "electric_scooter", "name": "c71eb1633538b7183bd173edaf9cb9fc", "is_reserved": 0, "fusion_lat": 0.0, "lon": -76.93736816666667, "is_disabled": 0, "rental_uris": {"android": "https://dc.lft.to/lastmile_qr_scan", "ios": "https://dc.lft.to/lastmile_qr_scan"}, "bike_id": "c71eb1633538b7183bd173edaf9cb9fc", "fusion_lon": 0.0, "lat": 38.89018983333333}, {"type": "electric_bike", "name": "d1f2fa15dd201e9f38ed6c9b528ee93a", "is_reserved": 0, "fusion_lat": 0.0, "lon": -76.99083716666667, "is_disabled": 0, "rental_uris": {"android": "https://dc.lft.to/lastmile_qr_scan", "ios": "https://dc.lft.to/lastmile_qr_scan"}, "bike_id": "d1f2fa15dd201e9f38ed6c9b528ee93a", "fusion_lon": 0.0, "lat": 38.86242416666666}, {"type": "electric_scooter", "name": "f2b390d70d491af3696825ea0ce6716d", "is_reserved": 0, "fusion_lat": 0.0, "lon": -77.03308383333334, "is_disabled": 0, "rental_uris": {"android": "https://dc.lft.to/lastmile_qr_scan", "ios": "https://dc.lft.to/lastmile_qr_scan"}, "bike_id": "f2b390d70d491af3696825ea0ce6716d", "fusion_lon": 0.0, "lat": 38.9563325}, {"type": "electric_scooter", "name": "3f6200c3f6d076df80efbb47f45d0f7a", "is_reserved": 0, "fusion_lat": 0.0, "lon": -77.02849183333333, "is_disabled": 0, "rental_uris": {"android": "https://dc.lft.to/lastmile_qr_scan", "ios": "https://dc.lft.to/lastmile_qr_scan"}, "bike_id": "3f6200c3f6d076df80efbb47f45d0f7a", "fusion_lon": 0.0, "lat": 38.904381666666666}, {"type": "electric_scooter", "name": "b5705f7c55e8ce0ea5ccb08716687391", "is_reserved": 0, "fusion_lat": 0.0, "lon": -77.0024275, "is_disabled": 0, "rental_uris": {"android": "https://dc.lft.to/lastmile_qr_scan", "ios": "https://dc.lft.to/lastmile_qr_scan"}, "bike_id": "b5705f7c55e8ce0ea5ccb08716687391", "fusion_lon": 0.0, "lat": 38.90267433333333}, {"type": "electric_scooter", "name": "6287e78cc77f910cbbfa6d42c4961fcb", "is_reserved": 0, "fusion_lat": 0.0, "lon": -77.0328105, "is_disabled": 0, "rental_uris": {"android": "https://dc.lft.to/lastmile_qr_scan", "ios": "https://dc.lft.to/lastmile_qr_scan"}, "bike_id": "6287e78cc77f910cbbfa6d42c4961fcb", "fusion_lon": 0.0, "lat": 38.928461666666664}, {"type": "electric_scooter", "name": "6ff593f56d5e13a451f34a3cb9a4c831", "is_reserved": 0, "fusion_lat": 0.0, "lon": -76.92736033333334, "is_disabled": 0, "rental_uris": {"android": "https://dc.lft.to/lastmile_qr_scan", "ios": "https://dc.lft.to/lastmile_qr_scan"}, "bike_id": "6ff593f56d5e13a451f34a3cb9a4c831", "fusion_lon": 0.0, "lat": 38.889647}, {"type": "electric_scooter", "name": "47a2e191d2c5fd6ef73214e94ebf9bf1", "is_reserved": 0, "fusion_lat": 0.0, "lon": -77.04672083333334, "is_disabled": 0, "rental_uris": {"android": "https://dc.lft.to/lastmile_qr_scan", "ios": "https://dc.lft.to/lastmile_qr_scan"}, "bike_id": "47a2e191d2c5fd6ef73214e94ebf9bf1", "fusion_lon": 0.0, "lat": 38.895553666666665}, {"type": "electric_scooter", "name": "d57e72989da32401e5aa2cac262be692", "is_reserved": 0, "fusion_lat": 0.0, "lon": -77.05040416666667, "is_disabled": 0, "rental_uris": {"android": "https://dc.lft.to/lastmile_qr_scan", "ios": "https://dc.lft.to/lastmile_qr_scan"}, "bike_id": "d57e72989da32401e5aa2cac262be692", "fusion_lon": 0.0, "lat": 38.92354783333333}, {"type": "electric_scooter", "name": "9b4de9d0b5136b984a831c9d62d3e033", "is_reserved": 0, "fusion_lat": 0.0, "lon": -77.073658, "is_disabled": 0, "rental_uris": {"android": "https://dc.lft.to/lastmile_qr_scan", "ios": "https://dc.lft.to/lastmile_qr_scan"}, "bike_id": "9b4de9d0b5136b984a831c9d62d3e033", "fusion_lon": 0.0, "lat": 38.9335225}, {"type": "electric_scooter", "name": "4511a68138fd54b2d8085828f8a6ae36", "is_reserved": 0, "fusion_lat": 0.0, "lon": -76.98515483333334, "is_disabled": 0, "rental_uris": {"android": "https://dc.lft.to/lastmile_qr_scan", "ios": "https://dc.lft.to/lastmile_qr_scan"}, "bike_id": "4511a68138fd54b2d8085828f8a6ae36", "fusion_lon": 0.0, "lat": 38.86668733333333}, {"type": "electric_scooter", "name": "5246bb7a595231252d638200f1ecc583", "is_reserved": 0, "fusion_lat": 0.0, "lon": -77.02704866666667, "is_disabled": 0, "rental_uris": {"android": "https://dc.lft.to/lastmile_qr_scan", "ios": "https://dc.lft.to/lastmile_qr_scan"}, "bike_id": "5246bb7a595231252d638200f1ecc583", "fusion_lon": 0.0, "lat": 38.902403166666666}, {"type": "electric_scooter", "name": "9e3c6d52267d1696a7a32007d45a7ef0", "is_reserved": 0, "fusion_lat": 0.0, "lon": -77.02333016666667, "is_disabled": 0, "rental_uris": {"android": "https://dc.lft.to/lastmile_qr_scan", "ios": "https://dc.lft.to/lastmile_qr_scan"}, "bike_id": "9e3c6d52267d1696a7a32007d45a7ef0", "fusion_lon": 0.0, "lat": 38.92886333333333}, {"type": "electric_scooter", "name": "92060b90c12b53e1bca25ef9f5093197", "is_reserved": 0, "fusion_lat": 0.0, "lon": -77.04349666666667, "is_disabled": 0, "rental_uris": {"android": "https://dc.lft.to/lastmile_qr_scan", "ios": "https://dc.lft.to/lastmile_qr_scan"}, "bike_id": "92060b90c12b53e1bca25ef9f5093197", "fusion_lon": 0.0, "lat": 38.9154755}, {"type": "electric_scooter", "name": "bc69356144765650078442dd7a1c5d6f", "is_reserved": 0, "fusion_lat": 0.0, "lon": -77.0090275, "is_disabled": 0, "rental_uris": {"android": "https://dc.lft.to/lastmile_qr_scan", "ios": "https://dc.lft.to/lastmile_qr_scan"}, "bike_id": "bc69356144765650078442dd7a1c5d6f", "fusion_lon": 0.0, "lat": 38.90645116666666}, {"type": "electric_scooter", "name": "4eab68df9deae89054ac7d0f988b7733", "is_reserved": 0, "fusion_lat": 0.0, "lon": -77.0434805, "is_disabled": 0, "rental_uris": {"android": "https://dc.lft.to/lastmile_qr_scan", "ios": "https://dc.lft.to/lastmile_qr_scan"}, "bike_id": "4eab68df9deae89054ac7d0f988b7733", "fusion_lon": 0.0, "lat": 38.90268483333333}, {"type": "electric_scooter", "name": "139ba0fdb3fc0d6abb1faaaf0ea5d828", "is_reserved": 0, "fusion_lat": 0.0, "lon": -76.93160866666666, "is_disabled": 0, "rental_uris": {"android": "https://dc.lft.to/lastmile_qr_scan", "ios": "https://dc.lft.to/lastmile_qr_scan"}, "bike_id": "139ba0fdb3fc0d6abb1faaaf0ea5d828", "fusion_lon": 0.0, "lat": 38.898746833333334}, {"type": "electric_scooter", "name": "f92f19f62cde044e505dfdae31fa7ee4", "is_reserved": 0, "fusion_lat": 0.0, "lon": -77.01937, "is_disabled": 0, "rental_uris": {"android": "https://dc.lft.to/lastmile_qr_scan", "ios": "https://dc.lft.to/lastmile_qr_scan"}, "bike_id": "f92f19f62cde044e505dfdae31fa7ee4", "fusion_lon": 0.0, "lat": 38.94705233333333}, {"type": "electric_scooter", "name": "7199d623280778826af4ea4d6497b6c6", "is_reserved": 0, "fusion_lat": 0.0, "lon": -76.98882516666667, "is_disabled": 0, "rental_uris": {"android": "https://dc.lft.to/lastmile_qr_scan", "ios": "https://dc.lft.to/lastmile_qr_scan"}, "bike_id": "7199d623280778826af4ea4d6497b6c6", "fusion_lon": 0.0, "lat": 38.86657233333333}, {"type": "electric_scooter", "name": "b0651f83cdef863c3d1b1a3c9c1bd5b5", "is_reserved": 0, "fusion_lat": 0.0, "lon": -77.03838066666667, "is_disabled": 0, "rental_uris": {"android": "https://dc.lft.to/lastmile_qr_scan", "ios": "https://dc.lft.to/lastmile_qr_scan"}, "bike_id": "b0651f83cdef863c3d1b1a3c9c1bd5b5", "fusion_lon": 0.0, "lat": 38.90265016666667}, {"type": "electric_scooter", "name": "2b16d1b23ea1ef79047801c2e9934c56", "is_reserved": 0, "fusion_lat": 0.0, "lon": -77.02640616666666, "is_disabled": 0, "rental_uris": {"android": "https://dc.lft.to/lastmile_qr_scan", "ios": "https://dc.lft.to/lastmile_qr_scan"}, "bike_id": "2b16d1b23ea1ef79047801c2e9934c56", "fusion_lon": 0.0, "lat": 38.89221116666667}, {"type": "electric_scooter", "name": "18daca7a7ad2b4d0cd7638794829e31b", "is_reserved": 0, "fusion_lat": 0.0, "lon": -77.06273783333333, "is_disabled": 0, "rental_uris": {"android": "https://dc.lft.to/lastmile_qr_scan", "ios": "https://dc.lft.to/lastmile_qr_scan"}, "bike_id": "18daca7a7ad2b4d0cd7638794829e31b", "fusion_lon": 0.0, "lat": 38.90554083333333}, {"type": "electric_scooter", "name": "016703b9df78456241d3b0b91d497912", "is_reserved": 0, "fusion_lat": 0.0, "lon": -77.021715, "is_disabled": 0, "rental_uris": {"android": "https://dc.lft.to/lastmile_qr_scan", "ios": "https://dc.lft.to/lastmile_qr_scan"}, "bike_id": "016703b9df78456241d3b0b91d497912", "fusion_lon": 0.0, "lat": 38.90561133333333}, {"type": "electric_scooter", "name": "3c9ec48a8a6ce49c84d7b969abc5627e", "is_reserved": 0, "fusion_lat": 0.0, "lon": -77.00264916666667, "is_disabled": 0, "rental_uris": {"android": "https://dc.lft.to/lastmile_qr_scan", "ios": "https://dc.lft.to/lastmile_qr_scan"}, "bike_id": "3c9ec48a8a6ce49c84d7b969abc5627e", "fusion_lon": 0.0, "lat": 38.88755466666667}, {"type": "electric_scooter", "name": "65cce745120a0cbbb3fa1340909a285f", "is_reserved": 0, "fusion_lat": 0.0, "lon": -76.9954875, "is_disabled": 0, "rental_uris": {"android": "https://dc.lft.to/lastmile_qr_scan", "ios": "https://dc.lft.to/lastmile_qr_scan"}, "bike_id": "65cce745120a0cbbb3fa1340909a285f", "fusion_lon": 0.0, "lat": 38.86258}, {"type": "electric_bike", "name": "1bbab30912e3dd8d24cf60f84a242d60", "is_reserved": 0, "fusion_lat": 0.0, "lon": -77.07914866666667, "is_disabled": 0, "rental_uris": {"android": "https://dc.lft.to/lastmile_qr_scan", "ios": "https://dc.lft.to/lastmile_qr_scan"}, "bike_id": "1bbab30912e3dd8d24cf60f84a242d60", "fusion_lon": 0.0, "lat": 38.80227266666667}, {"type": "electric_scooter", "name": "8fd9ffba94322e241f6395db6232b63f", "is_reserved": 0, "fusion_lat": 0.0, "lon": -77.020104, "is_disabled": 0, "rental_uris": {"android": "https://dc.lft.to/lastmile_qr_scan", "ios": "https://dc.lft.to/lastmile_qr_scan"}, "bike_id": "8fd9ffba94322e241f6395db6232b63f", "fusion_lon": 0.0, "lat": 38.9212115}, {"type": "electric_scooter", "name": "f70c6f9513826d80e5bca21fef673d42", "is_reserved": 0, "fusion_lat": 0.0, "lon": -77.02451966666666, "is_disabled": 0, "rental_uris": {"android": "https://dc.lft.to/lastmile_qr_scan", "ios": "https://dc.lft.to/lastmile_qr_scan"}, "bike_id": "f70c6f9513826d80e5bca21fef673d42", "fusion_lon": 0.0, "lat": 38.899793833333334}, {"type": "electric_scooter", "name": "e891c98a0ebdbd2de9607fa7dc64f7e5", "is_reserved": 0, "fusion_lat": 0.0, "lon": -77.05126766666666, "is_disabled": 0, "rental_uris": {"android": "https://dc.lft.to/lastmile_qr_scan", "ios": "https://dc.lft.to/lastmile_qr_scan"}, "bike_id": "e891c98a0ebdbd2de9607fa7dc64f7e5", "fusion_lon": 0.0, "lat": 38.92348333333333}, {"type": "electric_scooter", "name": "59c70e1662d24f458ef5bb6384817a7c", "is_reserved": 0, "fusion_lat": 0.0, "lon": -77.04005716666667, "is_disabled": 0, "rental_uris": {"android": "https://dc.lft.to/lastmile_qr_scan", "ios": "https://dc.lft.to/lastmile_qr_scan"}, "bike_id": "59c70e1662d24f458ef5bb6384817a7c", "fusion_lon": 0.0, "lat": 38.92578483333333}, {"type": "electric_bike", "name": "8608c968ef36c90ee763d25c1f2b033e", "is_reserved": 0, "fusion_lat": 0.0, "lon": -77.16087083333333, "is_disabled": 0, "rental_uris": {"android": "https://dc.lft.to/lastmile_qr_scan", "ios": "https://dc.lft.to/lastmile_qr_scan"}, "bike_id": "8608c968ef36c90ee763d25c1f2b033e", "fusion_lon": 0.0, "lat": 38.88683233333333}, {"type": "electric_scooter", "name": "1f2d95db03e8c6ad03058a899d81beab", "is_reserved": 0, "fusion_lat": 0.0, "lon": -77.03474216666666, "is_disabled": 0, "rental_uris": {"android": "https://dc.lft.to/lastmile_qr_scan", "ios": "https://dc.lft.to/lastmile_qr_scan"}, "bike_id": "1f2d95db03e8c6ad03058a899d81beab", "fusion_lon": 0.0, "lat": 38.91710033333333}, {"type": "electric_scooter", "name": "2677bbd460d8fbe3b4a640b8b79896fb", "is_reserved": 0, "fusion_lat": 0.0, "lon": -76.99902516666667, "is_disabled": 0, "rental_uris": {"android": "https://dc.lft.to/lastmile_qr_scan", "ios": "https://dc.lft.to/lastmile_qr_scan"}, "bike_id": "2677bbd460d8fbe3b4a640b8b79896fb", "fusion_lon": 0.0, "lat": 38.948225},