{"data": {"bikes": [{"bike_id": "8fdc841363d6e25d7f829ca6f6bef688", "fusion_lon": 0.0, "name": "8fdc841363d6e25d7f829ca6f6bef688", "lat": 38.905157, "is_disabled": 0, "is_reserved": 0, "lon": -77.05126133333333, "type": "electric_scooter", "fusion_lat": 0.0, "rental_uris": {"android": "https://dc.lft.to/lastmile_qr_scan", "ios": "https://dc.lft.to/lastmile_qr_scan"}}, {"bike_id": "beca7a7f67e391971b1e5d05c4f5fd2b", "fusion_lon": 0.0, "name": "beca7a7f67e391971b1e5d05c4f5fd2b", "lat": 38.8619885, "is_disabled": 0, "is_reserved": 0, "lon": -77.05989666666666, "type": "electric_bike", "fusion_lat": 0.0, "rental_uris": {"android": "https://dc.lft.to/lastmile_qr_scan", "ios": "https://dc.lft.to/lastmile_qr_scan"}}, {"bike_id": "383ad2f661cdae7d32bf9a0ff7a907f2", "fusion_lon": 0.0, "name": "383ad2f661cdae7d32bf9a0ff7a907f2", "lat": 38.907165, "is_disabled": 0, "is_reserved": 0, "lon": -77.029861, "type": "electric_scooter", "fusion_lat": 0.0, "rental_uris": {"android": "https://dc.lft.to/lastmile_qr_scan", "ios": "https://dc.lft.to/lastmile_qr_scan"}}, {"bike_id": "75a8ed24aa29b47f4a3ea699b3ed4e09", "fusion_lon": 0.0, "name": "75a8ed24aa29b47f4a3ea699b3ed4e09", "lat": 38.90564633333334, "is_disabled": 0, "is_reserved": 0, "lon": -77.02418066666667, "type": "electric_scooter", "fusion_lat": 0.0, "rental_uris": {"android": "https://dc.lft.to/lastmile_qr_scan", "ios": "https://dc.lft.to/lastmile_qr_scan"}}, {"bike_id": "c9b8a3019b45c73ec144f0f0d8ef4fb4", "fusion_lon": 0.0, "name": "c9b8a3019b45c73ec144f0f0d8ef4fb4", "lat": 38.91240766666667, "is_disabled": 0, "is_reserved": 0, "lon": -77.031949, "type": "electric_scooter", "fusion_lat": 0.0, "rental_uris": {"android": "https://dc.lft.to/lastmile_qr_scan", "ios": "https://dc.lft.to/lastmile_qr_scan"}}, {"bike_id": "10f237d3bc68e1e24e44a3a1a0550f97", "fusion_lon": 0.0, "name": "10f237d3bc68e1e24e44a3a1a0550f97", "lat": 38.91116666666667, "is_disabled": 0, "is_reserved": 0, "lon": -77.04235733333333, "type": "electric_scooter", "fusion_lat": 0.0, "rental_uris": {"android": "https://dc.lft.to/lastmile_qr_scan", "ios": "https://dc.lft.to/lastmile_qr_scan"}}, {"bike_id": "ab591f23a5632a90608d6bb91c3ad807", "fusion_lon": 0.0, "name": "ab591f23a5632a90608d6bb91c3ad807", "lat": 38.9267, "is_disabled": 0, "is_reserved": 0, "lon": -77.0151065, "type": "electric_scooter", "fusion_lat": 0.0, "rental_uris": {"android": "https://dc.lft.to/lastmile_qr_scan", "ios": "https://dc.lft.to/lastmile_qr_scan"}}, {"bike_id": "8fc3ec7b100fedd3ccf060a2c3ec9245", "fusion_lon": 0.0, "name": "8fc3ec7b100fedd3ccf060a2c3ec9245", "lat": 38.88686883333333, "is_disabled": 0, "is_reserved": 0, "lon": -76.97641416666667, "type": "electric_scooter", "fusion_lat": 0.0, "rental_uris": {"android": "https://dc.lft.to/lastmile_qr_scan", "ios": "https://dc.lft.to/lastmile_qr_scan"}}, {"bike_id": "776a429b3e8172c5b53b06222de6b31f", "fusion_lon": 0.0, "name": "776a429b3e8172c5b53b06222de6b31f", "lat": 38.92478966666667, "is_disabled": 0, "is_reserved": 0, "lon": -77.02207633333333, "type": "electric_scooter", "fusion_lat": 0.0, "rental_uris": {"android": "https://dc.lft.to/lastmile_qr_scan", "ios": "https://dc.lft.to/lastmile_qr_scan"}}, {"bike_id": "86dfa18e88b4066df8ca895c56fecae0", "fusion_lon": 0.0, "name": "86dfa18e88b4066df8ca895c56fecae0", "lat": 38.857709, "is_disabled": 0, "is_reserved": 0, "lon": -76.9877155, "type": "electric_bike", "fusion_lat": 0.0, "rental_uris": {"android": "https://dc.lft.to/lastmile_qr_scan", "ios": "https://dc.lft.to/lastmile_qr_scan"}}, {"bike_id": "8cff41ce37634fc86687629a1c77c081", "fusion_lon": 0.0, "name": "8cff41ce37634fc86687629a1c77c081", "lat": 38.912326, "is_disabled": 0, "is_reserved": 0, "lon": -77.04880216666666, "type": "electric_scooter", "fusion_lat": 0.0, "rental_uris": {"android": "https://dc.lft.to/lastmile_qr_scan", "ios": "https://dc.lft.to/lastmile_qr_scan"}}, {"bike_id": "264420e9cd998459dbba93dc1e1ee3b1", "fusion_lon": 0.0, "name": "264420e9cd998459dbba93dc1e1ee3b1", "lat": 38.8972205, "is_disabled": 0, "is_reserved": 0, "lon": -77.03974583333333, "type": "electric_scooter", "fusion_lat": 0.0, "rental_uris": {"android": "https://dc.lft.to/lastmile_qr_scan", "ios": "https://dc.lft.to/lastmile_qr_scan"}}, {"bike_id": "641d7a858fb29174b861e4c6187419cf", "fusion_lon": 0.0, "name": "641d7a858fb29174b861e4c6187419cf", "lat": 38.887251666666664, "is_disabled": 0, "is_reserved": 0, "lon": -77.02579433333334, "type": "electric_scooter", "fusion_lat": 0.0, "rental_uris": {"android": "https://dc.lft.to/lastmile_qr_scan", "ios": "https://dc.lft.to/lastmile_qr_scan"}}, {"bike_id": "567211cc33ef1599db26c98d36a2a40b", "fusion_lon": 0.0, "name": "567211cc33ef1599db26c98d36a2a40b", "lat": 38.935218166666665, "is_disabled": 0, "is_reserved": 0, "lon": -77.07658783333333, "type": "electric_scooter", "fusion_lat": 0.0, "rental_uris": {"android": "https://dc.lft.to/lastmile_qr_scan", "ios": "https://dc.lft.to/lastmile_qr_scan"}}, {"bike_id": "dc25266a8347e54652edd467f773d2e2", "fusion_lon": 0.0, "name": "dc25266a8347e54652edd467f773d2e2", "lat": 38.932451, "is_disabled": 0, "is_reserved": 0, "lon": -77.02839133333333, "type": "electric_scooter", "fusion_lat": 0.0, "rental_uris": {"android": "https://dc.lft.to/lastmile_qr_scan", "ios": "https://dc.lft.to/lastmile_qr_scan"}}, {"bike_id": "4a3e728f64114c12563e71f81cf18d93", "fusion_lon": 0.0, "name": "4a3e728f64114c12563e71f81cf18d93", "lat": 38.92682766666667, "is_disabled": 0, "is_reserved": 0, "lon": -77.0229885, "type": "electric_scooter", "fusion_lat": 0.0, "rental_uris": {"android": "https://dc.lft.to/lastmile_qr_scan", "ios": "https://dc.lft.to/lastmile_qr_scan"}}, {"bike_id": "cab2bf0efaa563851778d61f8d5e6318", "fusion_lon": 0.0, "name": "cab2bf0efaa563851778d61f8d5e6318", "lat": 38.8987035, "is_disabled": 0, "is_reserved": 0, "lon": -76.946369, "type": "electric_scooter", "fusion_lat": 0.0, "rental_uris": {"android": "https://dc.lft.to/lastmile_qr_scan", "ios": "https://dc.lft.to/lastmile_qr_scan"}}, {"bike_id": "c8d7c711be2b89a609d87cf9e6f1f973", "fusion_lon": 0.0, "name": "c8d7c711be2b89a609d87cf9e6f1f973", "lat": 38.891838666666665, "is_disabled": 0, "is_reserved": 0, "lon": -76.92811916666666, "type": "electric_bike", "fusion_lat": 0.0, "rental_uris": {"android": "https://dc.lft.to/lastmile_qr_scan", "ios": "https://dc.lft.to/lastmile_qr_scan"}}, {"bike_id": "b243a898cb9bb32e743918a7b9d13a7b", "fusion_lon": 0.0, "name": "b243a898cb9bb32e743918a7b9d13a7b", "lat": 38.90314083333333, "is_disabled": 0, "is_reserved": 0, "lon": -77.049624, "type": "electric_scooter", "fusion_lat": 0.0, "rental_uris": {"android": "https://dc.lft.to/lastmile_qr_scan", "ios": "https://dc.lft.to/lastmile_qr_scan"}}, {"bike_id": "c2ab3c27f0db0ac43dee6e1e6e8c4fa5", "fusion_lon": 0.0, "name": "c2ab3c27f0db0ac43dee6e1e6e8c4fa5", "lat": 38.9118865, "is_disabled": 0, "is_reserved": 0, "lon": -77.00394366666667, "type": "electric_scooter", "fusion_lat": 0.0, "rental_uris": {"android": "https://dc.lft.to/lastmile_qr_scan", "ios": "https://dc.lft.to/lastmile_qr_scan"}}, {"bike_id": "df7f35cd5a494a0bd8f69491820a3b6c", "fusion_lon": 0.0, "name": "df7f35cd5a494a0bd8f69491820a3b6c", "lat": 38.89342533333333, "is_disabled": 0, "is_reserved": 0, "lon": -76.93967383333333, "type": "electric_scooter", "fusion_lat": 0.0, "rental_uris": {"android": "https://dc.lft.to/lastmile_qr_scan", "ios": "https://dc.lft.to/lastmile_qr_scan"}}, {"bike_id": "9aa71e7203eebc60d0923b50e5774cfd", "fusion_lon": 0.0, "name": "9aa71e7203eebc60d0923b50e5774cfd", "lat": 38.794675833333336, "is_disabled": 0, "is_reserved": 0, "lon": -76.9925045, "type": "electric_bike", "fusion_lat": 0.0, "rental_uris": {"android": "https://dc.lft.to/lastmile_qr_scan", "ios": "https://dc.lft.to/lastmile_qr_scan"}}, {"bike_id": "4480ae2442b575b7cc48e0c349818054", "fusion_lon": 0.0, "name": "4480ae2442b575b7cc48e0c349818054", "lat": 38.90582033333333, "is_disabled": 0, "is_reserved": 0, "lon": -77.04120516666667, "type": "electric_scooter", "fusion_lat": 0.0, "rental_uris": {"android": "https://dc.lft.to/lastmile_qr_scan", "ios": "https://dc.lft.to/lastmile_qr_scan"}}, {"bike_id": "4b44330e0708510d3dc36d175059c4d0", "fusion_lon": 0.0, "name": "4b44330e0708510d3dc36d175059c4d0", "lat": 38.919023333333335, "is_disabled": 0, "is_reserved": 0, "lon": -77.02757716666666, "type": "electric_scooter", "fusion_lat": 0.0, "rental_uris": {"android": "https://dc.lft.to/lastmile_qr_scan", "ios": "https://dc.lft.to/lastmile_qr_scan"}}, {"bike_id": "3971088a434248c1824d916a37a4b04b", "fusion_lon": 0.0, "name": "3971088a434248c1824d916a37a4b04b", "lat": 38.9604625, "is_disabled": 0, "is_reserved": 0, "lon": -76.99593166666666, "type": "electric_bike", "fusion_lat": 0.0, "rental_uris": {"android": "https://dc.lft.to/lastmile_qr_scan", "ios": "https://dc.lft.to/lastmile_qr_scan"}}, {"bike_id": "a933353fd68774bc35e2a98288237836", "fusion_lon": 0.0, "name": "a933353fd68774bc35e2a98288237836", "lat": 38.80650716666667, "is_disabled": 0, "is_reserved": 0, "lon": -77.08760116666667, "type": "electric_bike", "fusion_lat": 0.0, "rental_uris": {"android": "https://dc.lft.to/lastmile_qr_scan", "ios": "https://dc.lft.to/lastmile_qr_scan"}}, {"bike_id": "8f1ded22b25f97370949c7d0d2a5f8ea", "fusion_lon": 0.0, "name": "8f1ded22b25f97370949c7d0d2a5f8ea", "lat": 38.90241533333333, "is_disabled": 0, "is_reserved": 0, "lon": -77.04058533333334, "type": "electric_scooter", "fusion_lat": 0.0, "rental_uris": {"android": "https://dc.lft.to/lastmile_qr_scan", "ios": "https://dc.lft.to/lastmile_qr_scan"}}, {"bike_id": "cf84932faeba2c0c4e37d306cd400fca", "fusion_lon": 0.0, "name": "cf84932faeba2c0c4e37d306cd400fca", "lat": 38.922495166666664, "is_disabled": 0, "is_reserved": 0, "lon": -77.0297925, "type": "electric_scooter", "fusion_lat": 0.0, "rental_uris": {"android": "https://dc.lft.to/lastmile_qr_scan", "ios": "https://dc.lft.to/lastmile_qr_scan"}}, {"bike_id": "0276b2cb52fbde0bfa81e12425340e91", "fusion_lon": 0.0, "name": "0276b2cb52fbde0bfa81e12425340e91", "lat": 38.907746333333336, "is_disabled": 0, "is_reserved": 0, "lon": -77.07167316666667, "type": "electric_scooter", "fusion_lat": 0.0, "rental_uris": {"android": "https://dc.lft.to/lastmile_qr_scan", "ios": "https://dc.lft.to/lastmile_qr_scan"}}, {"bike_id": "ca7b149ddb2b35c8a3eff1317ed24904", "fusion_lon": 0.0, "name": "ca7b149ddb2b35c8a3eff1317ed24904", "lat": 38.9003095, "is_disabled": 0, "is_reserved": 0, "lon": -77.05829433333334, "type": "electric_scooter", "fusion_lat": 0.0, "rental_uris": {"android": "https://dc.lft.to/lastmile_qr_scan", "ios": "https://dc.lft.to/lastmile_qr_scan"}}, {"bike_id": "8fdabf2c90618f6890704b12dacc6100", "fusion_lon": 0.0, "name": "8fdabf2c90618f6890704b12dacc6100", "lat": 38.89224333333333, "is_disabled": 0, "is_reserved": 0, "lon": -77.0262745, "type": "electric_scooter", "fusion_lat": 0.0, "rental_uris": {"android": "https://dc.lft.to/lastmile_qr_scan", "ios": "https://dc.lft.to/lastmile_qr_scan"}}, {"bike_id": "a264c1cc1923c6c28437098e3ab39914", "fusion_lon": 0.0, "name": "a264c1cc1923c6c28437098e3ab39914", "lat": 38.949907, "is_disabled": 0, "is_reserved": 0, "lon": -77.0270835, "type": "electric_scooter", "fusion_lat": 0.0, "rental_uris": {"android": "https://dc.lft.to/lastmile_qr_scan", "ios": "https://dc.lft.to/lastmile_qr_scan"}}, {"bike_id": "46d75943ce48f11e43844f1a7c7f0825", "fusion_lon": 0.0, "name": "46d75943ce48f11e43844f1a7c7f0825", "lat": 38.89219166666667, "is_disabled": 0, "is_reserved": 0, "lon": -77.0242635, "type": "electric_scooter", "fusion_lat": 0.0, "rental_uris": {"android": "https://dc.lft.to/lastmile_qr_scan", "ios": "https://dc.lft.to/lastmile_qr_scan"}}, {"bike_id": "af0f23f0de77f0b93d6babd376377c07", "fusion_lon": 0.0, "name": "af0f23f0de77f0b93d6babd376377c07", "lat": 38.910555333333335, "is_disabled": 0, "is_reserved": 0, "lon": -77.02200783333333, "type": "electric_bike", "fusion_lat": 0.0, "rental_uris": {"android": "https://dc.lft.to/lastmile_qr_scan", "ios": "https://dc.lft.to/lastmile_qr_scan"}}, {"bike_id": "4349d436d578bf04c477832b83bd5752", "fusion_lon": 0.0, "name": "4349d436d578bf04c477832b83bd5752", "lat": 38.90570183333333, "is_disabled": 0, "is_reserved": 0, "lon": -77.04356866666667, "type": "electric_scooter", "fusion_lat": 0.0, "rental_uris": {"android": "https://dc.lft.to/lastmile_qr_scan", "ios": "https://dc.lft.to/lastmile_qr_scan"}}, {"bike_id": "791897a46ac1f39385f5fa9bb3701513", "fusion_lon": 0.0, "name": "791897a46ac1f39385f5fa9bb3701513", "lat": 38.90392116666666, "is_disabled": 0, "is_reserved": 0, "lon": -77.04860233333333, "type": "electric_scooter", "fusion_lat": 0.0, "rental_uris": {"android": "https://dc.lft.to/lastmile_qr_scan", "ios": "https://dc.lft.to/lastmile_qr_scan"}}, {"bike_id": "230d5b4eeed353ed4e0b61cd42795825", "fusion_lon": 0.0, "name": "230d5b4eeed353ed4e0b61cd42795825", "lat": 38.9002425, "is_disabled": 0, "is_reserved": 0, "lon": -77.0130535, "type": "electric_scooter", "fusion_lat": 0.0, "rental_uris": {"android": "https://dc.lft.to/lastmile_qr_scan", "ios": "https://dc.lft.to/lastmile_qr_scan"}}, {"bike_id": "15148faf88887795a7e0908cae8905de", "fusion_lon": 0.0, "name": "15148faf88887795a7e0908cae8905de", "lat": 38.87685333333334, "is_disabled": 0, "is_reserved": 0, "lon": -77.00762566666667, "type": "electric_scooter", "fusion_lat": 0.0, "rental_uris": {"android": "https://dc.lft.to/lastmile_qr_scan", "ios": "https://dc.lft.to/lastmile_qr_scan"}}, {"bike_id": "30df1742d6054dac019b76da250e8f09", "fusion_lon": 0.0, "name": "30df1742d6054dac019b76da250e8f09", "lat": 38.8876545, "is_disabled": 0, "is_reserved": 0, "lon": -76.977552, "type": "electric_scooter", "fusion_lat": 0.0, "rental_uris": {"android": "https://dc.lft.to/lastmile_qr_scan", "ios": "https://dc.lft.to/lastmile_qr_scan"}}, {"bike_id": "fd5281a1bb8859421273dc35eae6ce11", "fusion_lon": 0.0, "name": "fd5281a1bb8859421273dc35eae6ce11", "lat": 38.9056985, "is_disabled": 0, "is_reserved": 0, "lon": -77.04360616666666, "type": "electric_scooter", "fusion_lat": 0.0, "rental_uris": {"android": "https://dc.lft.to/lastmile_qr_scan", "ios": "https://dc.lft.to/lastmile_qr_scan"}}, {"bike_id": "f54cda1b2b9baae7d740bc48f95e61d7", "fusion_lon": 0.0, "name": "f54cda1b2b9baae7d740bc48f95e61d7", "lat": 38.8948225, "is_disabled": 0, "is_reserved": 0, "lon": -77.0232205, "type": "electric_bike", "fusion_lat": 0.0, "rental_uris": {"android": "https://dc.lft.to/lastmile_qr_scan", "ios": "https://dc.lft.to/lastmile_qr_scan"}}, {"bike_id": "f7bc4a7b00c458a1db0c22b128e6ad01", "fusion_lon": 0.0, "name": "f7bc4a7b00c458a1db0c22b128e6ad01", "lat": 38.900286666666666, "is_disabled": 0, "is_reserved": 0, "lon": -77.00694083333333, "type": "electric_scooter", "fusion_lat": 0.0, "rental_uris": {"android": "https://dc.lft.to/lastmile_qr_scan", "ios": "https://dc.lft.to/lastmile_qr_scan"}}, {"bike_id": "b9edd47e8b805533707606781ccbfd26", "fusion_lon": 0.0, "name": "b9edd47e8b805533707606781ccbfd26", "lat": 38.914902833333336, "is_disabled": 0, "is_reserved": 0, "lon": -77.048378, "type": "electric_scooter", "fusion_lat": 0.0, "rental_uris": {"android": "https://dc.lft.to/lastmile_qr_scan", "ios": "https://dc.lft.to/lastmile_qr_scan"}}, {"bike_id": "8f502dedff3fe1bc5917f8a02daf5cb4", "fusion_lon": 0.0, "name": "8f502dedff3fe1bc5917f8a02daf5cb4", "lat": 38.949104166666665, "is_disabled": 0, "is_reserved": 0, "lon": -77.06627033333334, "type": "electric_scooter", "fusion_lat": 0.0, "rental_uris": {"android": "https://dc.lft.to/lastmile_qr_scan", "ios": "https://dc.lft.to/lastmile_qr_scan"}}, {"bike_id": "88d80172b8908e58dffca8304e33c81b", "fusion_lon": 0.0, "name": "88d80172b8908e58dffca8304e33c81b", "lat": 38.912682, "is_disabled": 0, "is_reserved": 0, "lon": -77.04838683333334, "type": "electric_scooter", "fusion_lat": 0.0, "rental_uris": {"android": "https://dc.lft.to/lastmile_qr_scan", "ios": "https://dc.lft.to/lastmile_qr_scan"}}, {"bike_id": "113ce5b8d45528f494a96ddc4e9f1d7f", "fusion_lon": 0.0, "name": "113ce5b8d45528f494a96ddc4e9f1d7f", "lat": 38.912889, "is_disabled": 0, "is_reserved": 0, "lon": -76.984775, "type": "electric_scooter", "fusion_lat": 0.0, "rental_uris": {"android": "https://dc.lft.to/lastmile_qr_scan", "ios": "https://dc.lft.to/lastmile_qr_scan"}}, {"bike_id": "e4cc5dc732fca0aa63fec33b0e026c91", "fusion_lon": 0.0, "name": "e4cc5dc732fca0aa63fec33b0e026c91", "lat": 38.893597666666665, "is_disabled": 0, "is_reserved": 0, "lon": -76.92596383333333, "type": "electric_scooter", "fusion_lat": 0.0, "rental_uris": {"android": "https://dc.lft.to/lastmile_qr_scan", "ios": "https://dc.lft.to/lastmile_qr_scan"}}, {"bike_id": "70c015d8e5b754b5579b7520d2243de1", "fusion_lon": 0.0, "name": "70c015d8e5b754b5579b7520d2243de1", "lat": 38.86507433333333, "is_disabled": 0, "is_reserved": 0, "lon": -77.12944683333333, "type": "electric_bike", "fusion_lat": 0.0, "rental_uris": {"android": "https://dc.lft.to/lastmile_qr_scan", "ios": "https://dc.lft.to/lastmile_qr_scan"}}, {"bike_id": "1cf24c25f484a120a97bcdf109217ddb", "fusion_lon": 0.0, "name": "1cf24c25f484a120a97bcdf109217ddb", "lat": 38.923087, "is_disabled": 0, "is_reserved": 0, "lon": -77.041207, "type": "electric_scooter", "fusion_lat": 0.0, "rental_uris": {"android": "https://dc.lft.to/lastmile_qr_scan", "ios": "https://dc.lft.to/lastmile_qr_scan"}}, {"bike_id": "2ff16f0477f8b32b508fb33b6a07564c", "fusion_lon": 0.0, "name": "2ff16f0477f8b32b508fb33b6a07564c", "lat": 38.824522, "is_disabled": 0, "is_reserved": 0, "lon": -77.00794183333333, "type": "electric_bike", "fusion_lat": 0.0, "rental_uris": {"android": "https://dc.lft.to/lastmile_qr_scan", "ios": "https://dc.lft.to/lastmile_qr_scan"}}, {"bike_id": "aa8a45accdffbcc13d86ea2b13fff255", "fusion_lon": 0.0, "name": "aa8a45accdffbcc13d86ea2b13fff255", "lat": 38.9094855, "is_disabled": 0, "is_reserved": 0, "lon": -76.98542733333333, "type": "electric_scooter", "fusion_lat": 0.0, "rental_uris": {"android": "https://dc.lft.to/lastmile_qr_scan", "ios": "https://dc.lft.to/lastmile_qr_scan"}}, {"bike_id": "965cdb78bf55672eb448621e24938c3a", "fusion_lon": 0.0, "name": "965cdb78bf55672eb448621e24938c3a", "lat": 38.90572566666667, "is_disabled": 0, "is_reserved": 0, "lon": -77.0407765, "type": "electric_scooter", "fusion_lat": 0.0, "rental_uris": {"android": "https://dc.lft.to/lastmile_qr_scan", "ios": "https://dc.lft.to/lastmile_qr_scan"}}, {"bike_id": "c372dab660ee0882ca0a941517b24906", "fusion_lon": 0.0, "name": "c372dab660ee0882ca0a941517b24906", "lat": 38.9187465, "is_disabled": 0, "is_reserved": 0, "lon": -77.04313933333333, "type": "electric_scooter", "fusion_lat": 0.0, "rental_uris": {"android": "https://dc.lft.to/lastmile_qr_scan", "ios": "https://dc.lft.to/lastmile_qr_scan"}}, {"bike_id": "f74753bbeee6832a487e4f5f011aae6e", "fusion_lon": 0.0, "name": "f74753bbeee6832a487e4f5f011aae6e", "lat": 38.91704383333333, "is_disabled": 0, "is_reserved": 0, "lon": -77.04215483333333, "type": "electric_scooter", "fusion_lat": 0.0, "rental_uris": {"android": "https://dc.lft.to/lastmile_qr_scan", "ios": "https://dc.lft.to/lastmile_qr_scan"}}, {"bike_id": "140059bbd939e0f867080c5d586dab49", "fusion_lon": 0.0, "name": "140059bbd939e0f867080c5d586dab49", "lat": 38.893278333333335, "is_disabled": 0, "is_reserved": 0, "lon": -77.02257433333334, "type": "electric_scooter", "fusion_lat": 0.0, "rental_uris": {"android": "https://dc.lft.to/lastmile_qr_scan", "ios": "https://dc.lft.to/lastmile_qr_scan"}}, {"bike_id": "69ebaf5e019af6c49ab2ff5296b626bd", "fusion_lon": 0.0, "name": "69ebaf5e019af6c49ab2ff5296b626bd", "lat": 38.89571483333334, "is_disabled": 0, "is_reserved": 0, "lon": -77.0256535, "type": "electric_scooter", "fusion_lat": 0.0, "rental_uris": {"android": "https://dc.lft.to/lastmile_qr_scan", "ios": "https://dc.lft.to/lastmile_qr_scan"}}, {"bike_id": "aa5f763bbbb8e47d52efd15f0a88e636", "fusion_lon": 0.0, "name": "aa5f763bbbb8e47d52efd15f0a88e636", "lat": 38.923619, "is_disabled": 0, "is_reserved": 0, "lon": -77.05054083333333, "type": "electric_scooter", "fusion_lat": 0.0, "rental_uris": {"android": "https://dc.lft.to/lastmile_qr_scan", "ios": "https://dc.lft.to/lastmile_qr_scan"}}, {"bike_id": "b4ffb2669cbbeb7c029bea46e148d163", "fusion_lon": 0.0, "name": "b4ffb2669cbbeb7c029bea46e148d163", "lat": 38.905286833333335, "is_disabled": 0, "is_reserved": 0, "lon": -77.05828216666667, "type": "electric_scooter", "fusion_lat": 0.0, "rental_uris": {"android": "https://dc.lft.to/lastmile_qr_scan", "ios": "https://dc.lft.to/lastmile_qr_scan"}}, {"bike_id": "ae050f32416a000b5feb017f7e9d16ed", "fusion_lon": 0.0, "name": "ae050f32416a000b5feb017f7e9d16ed", "lat": 38.909756333333334, "is_disabled": 0, "is_reserved": 0, "lon": -77.03460116666666, "type": "electric_scooter", "fusion_lat": 0.0, "rental_uris": {"android": "https://dc.lft.to/lastmile_qr_scan", "ios": "https://dc.lft.to/lastmile_qr_scan"}}, {"bike_id": "32ba1280bc15417848a2140d8b59b7a7", "fusion_lon": 0.0, "name": "32ba1280bc15417848a2140d8b59b7a7", "lat": 38.8922, "is_disabled": 0, "is_reserved": 0, "lon": -77.03348266666667, "type": "electric_scooter", "fusion_lat": 0.0, "rental_uris": {"android": "https://dc.lft.to/lastmile_qr_scan", "ios": "https://dc.lft.to/lastmile_qr_scan"}}, {"bike_id": "f97c68d131e5028b0cdb194cc7f62fb3", "fusion_lon": 0.0, "name": "f97c68d131e5028b0cdb194cc7f62fb3", "lat": 38.892096, "is_disabled": 0, "is_reserved": 0, "lon": -76.99717333333334, "type": "electric_scooter", "fusion_lat": 0.0, "rental_uris": {"android": "https://dc.lft.to/lastmile_qr_scan", "ios": "https://dc.lft.to/lastmile_qr_scan"}}, {"bike_id": "de488d7b24e6b227872ae339ff1775ed", "fusion_lon": 0.0, "name": "de488d7b24e6b227872ae339ff1775ed", "lat": 38.9361, "is_disabled": 0, "is_reserved": 0, "lon": -77.05866316666666, "type": "electric_scooter", "fusion_lat": 0.0, "rental_uris": {"android": "https://dc.lft.to/lastmile_qr_scan", "ios": "https://dc.lft.to/lastmile_qr_scan"}}, {"bike_id": "8971e80f47da48e50b08df6932597d13", "fusion_lon": 0.0, "name": "8971e80f47da48e50b08df6932597d13", "lat": 38.902772666666664, "is_disabled": 0, "is_reserved": 0, "lon": -77.0354475, "type": "electric_scooter", "fusion_lat": 0.0, "rental_uris": {"android": "https://dc.lft.to/lastmile_qr_scan", "ios": "https://dc.lft.to/lastmile_qr_scan"}}, {"bike_id": "d175e13886c4f908276e03c5eb6332f8", "fusion_lon": 0.0, "name": "d175e13886c4f908276e03c5eb6332f8", "lat": 38.8650265, "is_disabled": 0, "is_reserved": 0, "lon": -76.9899975, "type": "electric_scooter", "fusion_lat": 0.0, "rental_uris": {"android": "https://dc.lft.to/lastmile_qr_scan", "ios": "https://dc.lft.to/lastmile_qr_scan"}}, {"bike_id": "43e7846731c323f98304c6d8fa518882", "fusion_lon": 0.0, "name": "43e7846731c323f98304c6d8fa518882", "lat": 38.897815666666666, "is_disabled": 0, "is_reserved": 0, "lon": -76.93124883333333, "type": "electric_scooter", "fusion_lat": 0.0, "rental_uris": {"android": "https://dc.lft.to/lastmile_qr_scan", "ios": "https://dc.lft.to/lastmile_qr_scan"}}, {"bike_id": "0add112af09212e2713067642f1b27fe", "fusion_lon": 0.0, "name": "0add112af09212e2713067642f1b27fe", "lat": 38.90785666666667, "is_disabled": 0, "is_reserved": 0, "lon": -77.000236, "type": "electric_scooter", "fusion_lat": 0.0, "rental_uris": {"android": "https://dc.lft.to/lastmile_qr_scan", "ios": "https://dc.lft.to/lastmile_qr_scan"}}, {"bike_id": "3934578a3b9009b89f4f5725838eb3e1", "fusion_lon": 0.0, "name": "3934578a3b9009b89f4f5725838eb3e1", "lat": 38.858943833333335, "is_disabled": 0, "is_reserved": 0, "lon": -77.09554283333334, "type": "electric_bike", "fusion_lat": 0.0, "rental_uris": {"android": "https://dc.lft.to/lastmile_qr_scan", "ios": "https://dc.lft.to/lastmile_qr_scan"}}, {"bike_id": "2bd72fd64e17b09dabd81fc8d70f047f", "fusion_lon": 0.0, "name": "2bd72fd64e17b09dabd81fc8d70f047f", "lat": 38.9133495, "is_disabled": 0, "is_reserved": 0, "lon": -77.0316975, "type": "electric_scooter", "fusion_lat": 0.0, "rental_uris": {"android": "https://dc.lft.to/lastmile_qr_scan", "ios": "https://dc.lft.to/lastmile_qr_scan"}}, {"bike_id": "8f61fe3a75f8ad23e6578a57003d99fe", "fusion_lon": 0.0, "name": "8f61fe3a75f8ad23e6578a57003d99fe", "lat": 38.90161366666667, "is_disabled": 0, "is_reserved": 0, "lon": -77.01328016666666, "type": "electric_scooter", "fusion_lat": 0.0, "rental_uris": {"android": "https://dc.lft.to/lastmile_qr_scan", "ios": "https://dc.lft.to/lastmile_qr_scan"}}, {"bike_id": "c3012f47891715994ef9754ba1dfdb50", "fusion_lon": 0.0, "name": "c3012f47891715994ef9754ba1dfdb50", "lat": 38.89530466666667, "is_disabled": 0, "is_reserved": 0, "lon": -77.00212133333333, "type": "electric_scooter", "fusion_lat": 0.0, "rental_uris": {"android": "https://dc.lft.to/lastmile_qr_scan", "ios": "https://dc.lft.to/lastmile_qr_scan"}}, {"bike_id": "d2207b59e57b4e6e3e862729ccebc918", "fusion_lon": 0.0, "name": "d2207b59e57b4e6e3e862729ccebc918", "lat": 38.90239416666667, "is_disabled": 0, "is_reserved": 0, "lon": -77.021537, "type": "electric_scooter", "fusion_lat": 0.0, "rental_uris": {"android": "https://dc.lft.to/lastmile_qr_scan", "ios": "https://dc.lft.to/lastmile_qr_scan"}}, {"bike_id": "8a06b78377a3f119f8af725c6adc3693", "fusion_lon": 0.0, "name": "8a06b78377a3f119f8af725c6adc3693", "lat": 38.892189, "is_disabled": 0, "is_reserved": 0, "lon": -77.04376583333334, "type": "electric_scooter", "fusion_lat": 0.0, "rental_uris": {"android": "https://dc.lft.to/lastmile_qr_scan", "ios": "https://dc.lft.to/lastmile_qr_scan"}}, {"bike_id": "5309772501d1aac4ee74706bd1132f0d", "fusion_lon": 0.0, "name": "5309772501d1aac4ee74706bd1132f0d", "lat": 38.8967805, "is_disabled": 0, "is_reserved": 0, "lon": -77.0248345, "type": "electric_scooter", "fusion_lat": 0.0, "rental_uris": {"android": "https://dc.lft.to/lastmile_qr_scan", "ios": "https://dc.lft.to/lastmile_qr_scan"}}, {"bike_id": "aabe4da1575cc2e5f265c6f32b2770e9", "fusion_lon": 0.0, "name": "aabe4da1575cc2e5f265c6f32b2770e9", "lat": 38.87248266666667, "is_disabled": 0, "is_reserved": 0, "lon": -76.97726183333333, "type": "electric_scooter", "fusion_lat": 0.0, "rental_uris": {"android": "https://dc.lft.to/lastmile_qr_scan", "ios": "https://dc.lft.to/lastmile_qr_scan"}}, {"bike_id": "83471ff043885e21f7cd67f1be5ea64a", "fusion_lon": 0.0, "name": "83471ff043885e21f7cd67f1be5ea64a", "lat": 38.98765366666667, "is_disabled": 0, "is_reserved": 0, "lon": -77.140551, "type": "electric_bike", "fusion_lat": 0.0, "rental_uris": {"android": "https://dc.lft.to/lastmile_qr_scan", "ios": "https://dc.lft.to/lastmile_qr_scan"}}, {"bike_id": "689ec30355d36b50a0f0ae7943861ab6", "fusion_lon": 0.0, "name": "689ec30355d36b50a0f0ae7943861ab6", "lat": 38.915689, "is_disabled": 0, "is_reserved": 0, "lon": -77.0385405, "type": "electric_scooter", "fusion_lat": 0.0, "rental_uris": {"android": "https://dc.lft.to/lastmile_qr_scan", "ios": "https://dc.lft.to/lastmile_qr_scan"}}, {"bike_id": "8c7b87c6baec8e8afbfa607c17f11aa7", "fusion_lon": 0.0, "name": "8c7b87c6baec8e8afbfa607c17f11aa7", "lat": 38.918228166666665, "is_disabled": 0, "is_reserved": 0, "lon": -77.02967533333333, "type": "electric_bike", "fusion_lat": 0.0, "rental_uris": {"android": "https://dc.lft.to/lastmile_qr_scan", "ios": "https://dc.lft.to/lastmile_qr_scan"}}, {"bike_id": "51796719b377ed95ec9f1a1c3bad7978", "fusion_lon": 0.0, "name": "51796719b377ed95ec9f1a1c3bad7978", "lat": 38.90386933333333, "is_disabled": 0, "is_reserved": 0, "lon": -77.04386216666667, "type": "electric_scooter", "fusion_lat": 0.0, "rental_uris": {"android": "https://dc.lft.to/lastmile_qr_scan", "ios": "https://dc.lft.to/lastmile_qr_scan"}}, {"bike_id": "1abd01908e89f0e768f7d3dba01b11cc", "fusion_lon": 0.0, "name": "1abd01908e89f0e768f7d3dba01b11cc", "lat": 38.903209333333336, "is_disabled": 0, "is_reserved": 0, "lon": -77.0289385, "type": "electric_scooter", "fusion_lat": 0.0, "rental_uris": {"android": "https://dc.lft.to/lastmile_qr_scan", "ios": "https://dc.lft.to/lastmile_qr_scan"}}, {"bike_id": "efc570b1f09c2bf2cae6a9b0ab1688eb", "fusion_lon": 0.0, "name": "efc570b1f09c2bf2cae6a9b0ab1688eb", "lat": 38.916915833333334, "is_disabled": 0, "is_reserved": 0, "lon": -77.03593916666667, "type": "electric_scooter", "fusion_lat": 0.0, "rental_uris": {"android": "https://dc.lft.to/lastmile_qr_scan", "ios": "https://dc.lft.to/lastmile_qr_scan"}}, {"bike_id": "ba827048db8e781af2fb0868a8bde048", "fusion_lon": 0.0, "name": "ba827048db8e781af2fb0868a8bde048", "lat": 38.90523833333334, "is_disabled": 0, "is_reserved": 0, "lon": -77.06311466666666, "type": "electric_scooter", "fusion_lat": 0.0, "rental_uris": {"android": "https://dc.lft.to/lastmile_qr_scan", "ios": "https://dc.lft.to/lastmile_qr_scan"}}, {"bike_id": "84bddf57891b1ee474cacf57058a9b82", "fusion_lon": 0.0, "name": "84bddf57891b1ee474cacf57058a9b82", "lat": 38.9025795, "is_disabled": 0, "is_reserved": 0, "lon": -77.0353215, "type": "electric_scooter", "fusion_lat": 0.0, "rental_uris": {"android": "https://dc.lft.to/lastmile_qr_scan", "ios": "https://dc.lft.to/lastmile_qr_scan"}}, {"bike_id": "127026328654680fcebf07bb74c571fd", "fusion_lon": 0.0, "name": "127026328654680fcebf07bb74c571fd", "lat": 38.845041333333334, "is_disabled": 0, "is_reserved": 0, "lon": -76.993538, "type": "electric_bike", "fusion_lat": 0.0, "rental_uris": {"android": "https://dc.lft.to/lastmile_qr_scan", "ios": "https://dc.lft.to/lastmile_qr_scan"}}, {"bike_id": "936fefb466c7ab94fa55b31ec6652b60", "fusion_lon": 0.0, "name": "936fefb466c7ab94fa55b31ec6652b60", "lat": 38.9038395, "is_disabled": 0, "is_reserved": 0, "lon": -77.036377, "type": "electric_scooter", "fusion_lat": 0.0, "rental_uris": {"android": "https://dc.lft.to/lastmile_qr_scan", "ios": "https://dc.lft.to/lastmile_qr_scan"}}, {"bike_id": "ea16ad7c34e8f9656a282ee936ee6dad", "fusion_lon": 0.0, "name": "ea16ad7c34e8f9656a282ee936ee6dad", "lat": 38.8900605, "is_disabled": 0, "is_reserved": 0, "lon": -76.93745216666667, "type": "electric_scooter", "fusion_lat": 0.0, "rental_uris": {"android": "https://dc.lft.to/lastmile_qr_scan", "ios": "https://dc.lft.to/lastmile_qr_scan"}}, {"bike_id": "1d451593294b29b7c2e0325282d000e8", "fusion_lon": 0.0, "name": "1d451593294b29b7c2e0325282d000e8", "lat": 38.92263466666667, "is_disabled": 0, "is_reserved": 0, "lon": -77.0423815, "type": "electric_scooter", "fusion_lat": 0.0, "rental_uris": {"android": "https://dc.lft.to/lastmile_qr_scan", "ios": "https://dc.lft.to/lastmile_qr_scan"}}, {"bike_id": "200c8633a48ad35325e4dec134a4f61c", "fusion_lon": 0.0, "name": "200c8633a48ad35325e4dec134a4f61c", "lat": 38.9288415, "is_disabled": 0, "is_reserved": 0, "lon": -77.03299983333334, "type": "electric_scooter", "fusion_lat": 0.0, "rental_uris": {"android": "https://dc.lft.to/lastmile_qr_scan", "ios": "https://dc.lft.to/lastmile_qr_scan"}}, {"bike_id": "a8221cf1753b665fdcba4cde6e5803c6", "fusion_lon": 0.0, "name": "a8221cf1753b665fdcba4cde6e5803c6", "lat": 38.8956435, "is_disabled": 0, "is_reserved": 0, "lon": -77.12739666666667, "type": "electric_bike", "fusion_lat": 0.0, "rental_uris": {"android": "https://dc.lft.to/lastmile_qr_scan", "ios": "https://dc.lft.to/lastmile_qr_scan"}}, {"bike_id": "b26e61ab9d0aa9c25676749c1ce16e25", "fusion_lon": 0.0, "name": "b26e61ab9d0aa9c25676749c1ce16e25", "lat": 38.904054333333335, "is_disabled": 0, "is_reserved": 0, "lon": -76.97330866666667, "type": "electric_scooter", "fusion_lat": 0.0, "rental_uris": {"android": "https://dc.lft.to/lastmile_qr_scan", "ios": "https://dc.lft.to/lastmile_qr_scan"}}, {"bike_id": "8aa193eb4b8de829cc50c34edc294963", "fusion_lon": 0.0, "name": "8aa193eb4b8de829cc50c34edc294963", "lat": 38.912857833333334, "is_disabled": 0, "is_reserved": 0, "lon": -77.047426, "type": "electric_scooter", "fusion_lat": 0.0, "rental_uris": {"android": "https://dc.lft.to/lastmile_qr_scan", "ios": "https://dc.lft.to/lastmile_qr_scan"}}, {"bike_id": "a7455854a4d806a0047951f81bde997d", "fusion_lon": 0.0, "name": "a7455854a4d806a0047951f81bde997d", "lat": 38.99403133333333, "is_disabled": 0, "is_reserved": 0, "lon": -77.0310215, "type": "electric_bike", "fusion_lat": 0.0, "rental_uris": {"android": "https://dc.lft.to/lastmile_qr_scan", "ios": "https://dc.lft.to/lastmile_qr_scan"}}, {"bike_id": "9110943770f68253aff299fc0d26916c", "fusion_lon": 0.0, "name": "9110943770f68253aff299fc0d26916c", "lat": 38.89606216666667, "is_disabled": 0, "is_reserved": 0, "lon": -77.044884, "type": "electric_scooter", "fusion_lat": 0.0, "rental_uris": {"android": "https://dc.lft.to/lastmile_qr_scan", "ios": "https://dc.lft.to/lastmile_qr_scan"}}, {"bike_id": "49dc71678326aac0bbd44774a2a4050a", "fusion_lon": 0.0, "name": "49dc71678326aac0bbd44774a2a4050a", "lat": 38.91082166666666, "is_disabled": 0, "is_reserved": 0, "lon": -77.02205333333333, "type": "electric_scooter", "fusion_lat": 0.0, "rental_uris": {"android": "https://dc.lft.to/lastmile_qr_scan", "ios": "https://dc.lft.to/lastmile_qr_scan"}}, {"bike_id": "504b0a4bc71149603e3c88b6de56ddbe", "fusion_lon": 0.0, "name": "504b0a4bc71149603e3c88b6de56ddbe", "lat": 38.90383933333333, "is_disabled": 0, "is_reserved": 0, "lon": -77.06269633333334, "type": "electric_scooter", "fusion_lat": 0.0, "rental_uris": {"android": "https://dc.lft.to/lastmile_qr_scan", "ios": "https://dc.lft.to/lastmile_qr_scan"}}, {"bike_id": "da8eebb5327690a1cc577b6ba9cb673f", "fusion_lon": 0.0, "name": "da8eebb5327690a1cc577b6ba9cb673f", "lat": 38.8960405, "is_disabled": 0, "is_reserved": 0, "lon": -77.04415283333333, "type": "electric_scooter", "fusion_lat": 0.0, "rental_uris": {"android": "https://dc.lft.to/lastmile_qr_scan", "ios": "https://dc.lft.to/lastmile_qr_scan"}}, {"bike_id": "82a58dadf9c885498d25110f3fce3904", "fusion_lon": 0.0, "name": "82a58dadf9c885498d25110f3fce3904", "lat": 38.911848666666664, "is_disabled": 0, "is_reserved": 0, "lon": -77.03967666666667, "type": "electric_scooter", "fusion_lat": 0.0, "rental_uris": {"android": "https://dc.lft.to/lastmile_qr_scan", "ios": "https://dc.lft.to/lastmile_qr_scan"}}, {"bike_id": "b388666f993b92039587d326712d0fcf", "fusion_lon": 0.0, "name": "b388666f993b92039587d326712d0fcf", "lat": 38.896925, "is_disabled": 0, "is_reserved": 0, "lon": -77.046599, "type": "electric_scooter", "fusion_lat": 0.0, "rental_uris": {"android": "https://dc.lft.to/lastmile_qr_scan", "ios": "https://dc.lft.to/lastmile_qr_scan"}}, {"bike_id": "aedc1fcd733e91d9eaa188fa31cc1f5c", "fusion_lon": 0.0, "name": "aedc1fcd733e91d9eaa188fa31cc1f5c", "lat": 38.905566666666665, "is_disabled": 0, "is_reserved": 0, "lon": -77.01314366666666, "type": "electric_scooter", "fusion_lat": 0.0, "rental_uris": {"android": "https://dc.lft.to/lastmile_qr_scan", "ios": "https://dc.lft.to/lastmile_qr_scan"}}, {"bike_id": "dd5a9be554e97c88ccc0db7c4cd72a9c", "fusion_lon": 0.0, "name": "dd5a9be554e97c88ccc0db7c4cd72a9c", "lat": 38.91168666666667, "is_disabled": 0, "is_reserved": 0, "lon": -77.0029365, "type": "electric_bike", "fusion_lat": 0.0, "rental_uris": {"android": "https://dc.lft.to/lastmile_qr_scan", "ios": "https://dc.lft.to/lastmile_qr_scan"}}, {"bike_id": "9b8e7ea9cda0e5d608b6b27604ce1ae2", "fusion_lon": 0.0, "name": "9b8e7ea9cda0e5d608b6b27604ce1ae2", "lat": 38.91685183333333, "is_disabled": 0, "is_reserved": 0, "lon": -77.0376595, "type": "electric_scooter", "fusion_lat": 0.0, "rental_uris": {"android": "https://dc.lft.to/lastmile_qr_scan", "ios": "https://dc.lft.to/lastmile_qr_scan"}}, {"bike_id": "395a6b54812bf5225f5943b59d0645b0", "fusion_lon": 0.0, "name": "395a6b54812bf5225f5943b59d0645b0", "lat": 38.89222433333333, "is_disabled": 0, "is_reserved": 0, "lon": -77.04313133333333, "type": "electric_scooter", "fusion_lat": 0.0, "rental_uris": {"android": "https://dc.lft.to/lastmile_qr_scan", "ios": "https://dc.lft.to/lastmile_qr_scan"}}, {"bike_id": "026f47e74d8bfbf9af15863f3342c88a", "fusion_lon": 0.0, "name": "026f47e74d8bfbf9af15863f3342c88a", "lat": 38.91784083333334, "is_disabled": 0, "is_reserved": 0, "lon": -77.02288933333334, "type": "electric_scooter", "fusion_lat": 0.0, "rental_uris": {"android": "https://dc.lft.to/lastmile_qr_scan", "ios": "https://dc.lft.to/lastmile_qr_scan"}}, {"bike_id": "c30d32f807a9af2a5e9103b7ce6591b2", "fusion_lon": 0.0, "name": "c30d32f807a9af2a5e9103b7ce6591b2", "lat": 38.892260666666665, "is_disabled": 0, "is_reserved": 0, "lon": -77.04330066666667, "type": "electric_scooter", "fusion_lat": 0.0, "rental_uris": {"android": "https://dc.lft.to/lastmile_qr_scan", "ios": "https://dc.lft.to/lastmile_qr_scan"}}, {"bike_id": "a1c986cc16b8a7a0cbba639fd6e24e17", "fusion_lon": 0.0, "name": "a1c986cc16b8a7a0cbba639fd6e24e17", "lat": 38.931849166666666, "is_disabled": 0, "is_reserved": 0, "lon": -77.0430565, "type": "electric_scooter", "fusion_lat": 0.0, "rental_uris": {"android": "https://dc.lft.to/lastmile_qr_scan", "ios": "https://dc.lft.to/lastmile_qr_scan"}}, {"bike_id": "12db80f390bcb83f4a262ebfc3109d5e", "fusion_lon": 0.0, "name": "12db80f390bcb83f4a262ebfc3109d5e", "lat": 38.882993166666665, "is_disabled": 0, "is_reserved": 0, "lon": -77.02477916666666, "type": "electric_scooter", "fusion_lat": 0.0, "rental_uris": {"android": "https://dc.lft.to/lastmile_qr_scan", "ios": "https://dc.lft.to/lastmile_qr_scan"}}, {"bike_id": "c6c550f5533bfeb814867448962443c5", "fusion_lon": 0.0, "name": "c6c550f5533bfeb814867448962443c5", "lat": 38.88378866666667, "is_disabled": 0, "is_reserved": 0, "lon": -77.01999433333333, "type": "electric_scooter", "fusion_lat": 0.0, "rental_uris": {"android": "https://dc.lft.to/lastmile_qr_scan", "ios": "https://dc.lft.to/lastmile_qr_scan"}}, {"bike_id": "7cc197f57057352065e046d126c7ca7f", "fusion_lon": 0.0, "name": "7cc197f57057352065e046d126c7ca7f", "lat": 38.913561, "is_disabled": 0, "is_reserved": 0, "lon": -77.03452333333334, "type": "electric_scooter", "fusion_lat": 0.0, "rental_uris": {"android": "https://dc.lft.to/lastmile_qr_scan", "ios": "https://dc.lft.to/lastmile_qr_scan"}}, {"bike_id": "fdec41c674711a9121ce2b6d7044e3e5", "fusion_lon": 0.0, "name": "fdec41c674711a9121ce2b6d7044e3e5", "lat": 38.917062, "is_disabled": 0, "is_reserved": 0, "lon": -77.04147916666666, "type": "electric_scooter", "fusion_lat": 0.0, "rental_uris": {"android": "https://dc.lft.to/lastmile_qr_scan", "ios": "https://dc.lft.to/lastmile_qr_scan"}}, {"bike_id": "757b76fd738b088bab9b1eab642050dc", "fusion_lon": 0.0, "name": "757b76fd738b088bab9b1eab642050dc", "lat": 38.820431, "is_disabled": 0, "is_reserved": 0, "lon": -77.0536495, "type": "electric_bike", "fusion_lat": 0.0, "rental_uris": {"android": "https://dc.lft.to/lastmile_qr_scan", "ios": "https://dc.lft.to/lastmile_qr_scan"}}, {"bike_id": "df515a9683a62cf787eb85163392047a", "fusion_lon": 0.0, "name": "df515a9683a62cf787eb85163392047a", "lat": 38.90280116666667, "is_disabled": 0, "is_reserved": 0, "lon": -77.02311433333334, "type": "electric_scooter", "fusion_lat": 0.0, "rental_uris": {"android": "https://dc.lft.to/lastmile_qr_scan", "ios": "https://dc.lft.to/lastmile_qr_scan"}}, {"bike_id": "20c7e9cfcf2f19df1dc4a0072dda318e", "fusion_lon": 0.0, "name": "20c7e9cfcf2f19df1dc4a0072dda318e", "lat": 38.920757, "is_disabled": 0, "is_reserved": 0, "lon": -76.99726083333333, "type": "electric_scooter", "fusion_lat": 0.0, "rental_uris": {"android": "https://dc.lft.to/lastmile_qr_scan", "ios": "https://dc.lft.to/lastmile_qr_scan"}}, {"bike_id": "d0a961243259caa626136df15a222b32", "fusion_lon": 0.0, "name": "d0a961243259caa626136df15a222b32", "lat": 38.916780333333335, "is_disabled": 0, "is_reserved": 0, "lon": -77.0368835, "type": "electric_scooter", "fusion_lat": 0.0, "rental_uris": {"android": "https://dc.lft.to/lastmile_qr_scan", "ios": "https://dc.lft.to/lastmile_qr_scan"}}, {"bike_id": "1fb077d995b197270e6abbe12c0a4e35", "fusion_lon": 0.0, "name": "1fb077d995b197270e6abbe12c0a4e35", "lat": 38.93191133333333, "is_disabled": 0, "is_reserved": 0, "lon": -77.22929916666666, "type": "electric_bike", "fusion_lat": 0.0, "rental_uris": {"android": "https://dc.lft.to/lastmile_qr_scan", "ios": "https://dc.lft.to/lastmile_qr_scan"}}, {"bike_id": "f3d947f9290c43649f44bd470392f085", "fusion_lon": 0.0, "name": "f3d947f9290c43649f44bd470392f085", "lat": 38.86459383333333, "is_disabled": 0, "is_reserved": 0, "lon": -76.94535716666667, "type": "electric_bike", "fusion_lat": 0.0, "rental_uris": {"android": "https://dc.lft.to/lastmile_qr_scan", "ios": "https://dc.lft.to/lastmile_qr_scan"}}, {"bike_id": "55c560660995c2f67f920a44cd6d6b5e", "fusion_lon": 0.0, "name": "55c560660995c2f67f920a44cd6d6b5e", "lat": 38.921071833333336, "is_disabled": 0, "is_reserved": 0, "lon": -77.0633325, "type": "electric_bike", "fusion_lat": 0.0, "rental_uris": {"android": "https://dc.lft.to/lastmile_qr_scan", "ios": "https://dc.lft.to/lastmile_qr_scan"}}, {"bike_id": "69db72f27c5359ba271842a8eba58420", "fusion_lon": 0.0, "name": "69db72f27c5359ba271842a8eba58420", "lat": 38.921009166666664, "is_disabled": 0, "is_reserved": 0, "lon": -77.0470905, "type": "electric_scooter", "fusion_lat": 0.0, "rental_uris": {"android": "https://dc.lft.to/lastmile_qr_scan", "ios": "https://dc.lft.to/lastmile_qr_scan"}}, {"bike_id": "788e0343f4f6bd690e09473386d4aeac", "fusion_lon": 0.0, "name": "788e0343f4f6bd690e09473386d4aeac", "lat": 38.89221883333333, "is_disabled": 0, "is_reserved": 0, "lon": -77.0419565, "type": "electric_scooter", "fusion_lat": 0.0, "rental_uris": {"android": "https://dc.lft.to/lastmile_qr_scan", "ios": "https://dc.lft.to/lastmile_qr_scan"}}, {"bike_id": "d6555d51f6c55551245b0743054c7dc5", "fusion_lon": 0.0, "name": "d6555d51f6c55551245b0743054c7dc5", "lat": 38.954926, "is_disabled": 0, "is_reserved": 0, "lon": -77.0172385, "type": "electric_scooter", "fusion_lat": 0.0, "rental_uris": {"android": "https://dc.lft.to/lastmile_qr_scan", "ios": "https://dc.lft.to/lastmile_qr_scan"}}, {"bike_id": "3f3b3ae84f067072cbd1e729692de12c", "fusion_lon": 0.0, "name": "3f3b3ae84f067072cbd1e729692de12c", "lat": 38.90573766666667, "is_disabled": 0, "is_reserved": 0, "lon": -77.04644183333333, "type": "electric_scooter", "fusion_lat": 0.0, "rental_uris": {"android": "https://dc.lft.to/lastmile_qr_scan", "ios": "https://dc.lft.to/lastmile_qr_scan"}}, {"bike_id": "ddbe709b1cbbdcdb5357de2ed3dc812d", "fusion_lon": 0.0, "name": "ddbe709b1cbbdcdb5357de2ed3dc812d", "lat": 38.928431833333335, "is_disabled": 0, "is_reserved": 0, "lon": -77.01407916666666, "type": "electric_scooter", "fusion_lat": 0.0, "rental_uris": {"android": "https://dc.lft.to/lastmile_qr_scan", "ios": "https://dc.lft.to/lastmile_qr_scan"}}, {"bike_id": "2d2c019ae46ec6e56441b7b4f4b2e4a1", "fusion_lon": 0.0, "name": "2d2c019ae46ec6e56441b7b4f4b2e4a1", "lat": 38.8922545, "is_disabled": 0, "is_reserved": 0, "lon": -77.01384933333334, "type": "electric_bike", "fusion_lat": 0.0, "rental_uris": {"android": "https://dc.lft.to/lastmile_qr_scan", "ios": "https://dc.lft.to/lastmile_qr_scan"}}, {"bike_id": "6ed63d7786ceadb5a13fbda85a54bde9", "fusion_lon": 0.0, "name": "6ed63d7786ceadb5a13fbda85a54bde9", "lat": 38.93865866666667, "is_disabled": 0, "is_reserved": 0, "lon": -77.024904, "type": "electric_scooter", "fusion_lat": 0.0, "rental_uris": {"android": "https://dc.lft.to/lastmile_qr_scan", "ios": "https://dc.lft.to/lastmile_qr_scan"}}, {"bike_id": "eea516346a768fda5babf6339848b7fc", "fusion_lon": 0.0, "name": "eea516346a768fda5babf6339848b7fc", "lat": 38.91628733333334, "is_disabled": 0, "is_reserved": 0, "lon": -77.04010733333334, "type": "electric_scooter", "fusion_lat": 0.0, "rental_uris": {"android": "https://dc.lft.to/lastmile_qr_scan", "ios": "https://dc.lft.to/lastmile_qr_scan"}}, {"bike_id": "6c6bd02697129936f689598678777775", "fusion_lon": 0.0, "name": "6c6bd02697129936f689598678777775", "lat": 38.92312733333333, "is_disabled": 0, "is_reserved": 0, "lon": -77.04297116666666, "type": "electric_scooter", "fusion_lat": 0.0, "rental_uris": {"android": "https://dc.lft.to/lastmile_qr_scan", "ios": "https://dc.lft.to/lastmile_qr_scan"}}, {"bike_id": "e9b07218d9348c03cd8b91792c2c166c", "fusion_lon": 0.0, "name": "e9b07218d9348c03cd8b91792c2c166c", "lat": 38.929049666666664, "is_disabled": 0, "is_reserved": 0, "lon": -77.03635233333334, "type": "electric_scooter", "fusion_lat": 0.0, "rental_uris": {"android": "https://dc.lft.to/lastmile_qr_scan", "ios": "https://dc.lft.to/lastmile_qr_scan"}}, {"bike_id": "1a936a91161da56843fcac8c1d244964", "fusion_lon": 0.0, "name": "1a936a91161da56843fcac8c1d244964", "lat": 38.90963333333333, "is_disabled": 0, "is_reserved": 0, "lon": -76.98392916666667, "type": "electric_bike", "fusion_lat": 0.0, "rental_uris": {"android": "https://dc.lft.to/lastmile_qr_scan", "ios": "https://dc.lft.to/lastmile_qr_scan"}}, {"bike_id": "95bfc54f9d59aaf3c9b1baf431582f5e", "fusion_lon": 0.0, "name": "95bfc54f9d59aaf3c9b1baf431582f5e", "lat": 38.90972, "is_disabled": 0, "is_reserved": 0, "lon": -77.0455555, "type": "electric_scooter", "fusion_lat": 0.0, "rental_uris": {"android": "https://dc.lft.to/lastmile_qr_scan", "ios": "https://dc.lft.to/lastmile_qr_scan"}}, {"bike_id": "977636ed4a88e791c146edb363b017a1", "fusion_lon": 0.0, "name": "977636ed4a88e791c146edb363b017a1", "lat": 38.957534833333334, "is_disabled": 0, "is_reserved": 0, "lon": -76.980968, "type": "electric_bike", "fusion_lat": 0.0, "rental_uris": {"android": "https://dc.lft.to/lastmile_qr_scan", "ios": "https://dc.lft.to/lastmile_qr_scan"}}, {"bike_id": "305317cb814515fa6f36f90340c073b9", "fusion_lon": 0.0, "name": "305317cb814515fa6f36f90340c073b9", "lat": 38.900311333333335, "is_disabled": 0, "is_reserved": 0, "lon": -77.04394783333333, "type": "electric_scooter", "fusion_lat": 0.0, "rental_uris": {"android": "https://dc.lft.to/lastmile_qr_scan", "ios": "https://dc.lft.to/lastmile_qr_scan"}}, {"bike_id": "16f0474d87181133bdaaa88ea82882bb", "fusion_lon": 0.0, "name": "16f0474d87181133bdaaa88ea82882bb", "lat": 38.900313, "is_disabled": 0, "is_reserved": 0, "lon": -77.04684066666667, "type": "electric_scooter", "fusion_lat": 0.0, "rental_uris": {"android": "https://dc.lft.to/lastmile_qr_scan", "ios": "https://dc.lft.to/lastmile_qr_scan"}}, {"bike_id": "77d8f8bde04d66b8f99a446933a9fadf", "fusion_lon": 0.0, "name": "77d8f8bde04d66b8f99a446933a9fadf", "lat": 38.95966466666667, "is_disabled": 0, "is_reserved": 0, "lon": -76.98159433333333, "type": "electric_bike", "fusion_lat": 0.0, "rental_uris": {"android": "https://dc.lft.to/lastmile_qr_scan", "ios": "https://dc.lft.to/lastmile_qr_scan"}}, {"bike_id": "daf710a415756876b1571149bb2c0c9a", "fusion_lon": 0.0, "name": "daf710a415756876b1571149bb2c0c9a", "lat": 38.898467333333336, "is_disabled": 0, "is_reserved": 0, "lon": -77.032855, "type": "electric_scooter", "fusion_lat": 0.0, "rental_uris": {"android": "https://dc.lft.to/lastmile_qr_scan", "ios": "https://dc.lft.to/lastmile_qr_scan"}}, {"bike_id": "0cb059d74da2f95485b1912a29b16cbb", "fusion_lon": 0.0, "name": "0cb059d74da2f95485b1912a29b16cbb", "lat": 38.92082766666667, "is_disabled": 0, "is_reserved": 0, "lon": -77.02725616666666, "type": "electric_scooter", "fusion_lat": 0.0, "rental_uris": {"android": "https://dc.lft.to/lastmile_qr_scan", "ios": "https://dc.lft.to/lastmile_qr_scan"}}, {"bike_id": "cbe9d7abdff4da341916d439c38a3ac3", "fusion_lon": 0.0, "name": "cbe9d7abdff4da341916d439c38a3ac3", "lat": 38.93229683333333, "is_disabled": 0, "is_reserved": 0, "lon": -76.99538866666667, "type": "electric_scooter", "fusion_lat": 0.0, "rental_uris": {"android": "https://dc.lft.to/lastmile_qr_scan", "ios": "https://dc.lft.to/lastmile_qr_scan"}}, {"bike_id": "4ad7bb094503bf00e75fadfcb8aae9de", "fusion_lon": 0.0, "name": "4ad7bb094503bf00e75fadfcb8aae9de", "lat": 38.9248655, "is_disabled": 0, "is_reserved": 0, "lon": -77.03183416666667, "type": "electric_scooter", "fusion_lat": 0.0, "rental_uris": {"android": "https://dc.lft.to/lastmile_qr_scan", "ios": "https://dc.lft.to/lastmile_qr_scan"}}, {"bike_id": "82240058770552f31b704f3504f47414", "fusion_lon": 0.0, "name": "82240058770552f31b704f3504f47414", "lat": 38.919347333333334, "is_disabled": 0, "is_reserved": 0, "lon": -77.04495783333333, "type": "electric_scooter", "fusion_lat": 0.0, "rental_uris": {"android": "https://dc.lft.to/lastmile_qr_scan", "ios": "https://dc.lft.to/lastmile_qr_scan"}}, {"bike_id": "e581d3fde3948cd8ec3e333542d5d39c", "fusion_lon": 0.0, "name": "e581d3fde3948cd8ec3e333542d5d39c", "lat": 38.89897716666667, "is_disabled": 0, "is_reserved": 0, "lon": -77.0328425, "type": "electric_scooter", "fusion_lat": 0.0, "rental_uris": {"android": "https://dc.lft.to/lastmile_qr_scan", "ios": "https://dc.lft.to/lastmile_qr_scan"}}, {"bike_id": "6b6c9b639a9f73b685fb879726a35a53", "fusion_lon": 0.0, "name": "6b6c9b639a9f73b685fb879726a35a53", "lat": 38.91328733333334, "is_disabled": 0, "is_reserved": 0, "lon": -77.04874133333334, "type": "electric_scooter", "fusion_lat": 0.0, "rental_uris": {"android": "https://dc.lft.to/lastmile_qr_scan", "ios": "https://dc.lft.to/lastmile_qr_scan"}}, {"bike_id": "55ed1f395e0f5d4b605cb6b3121c6f31", "fusion_lon": 0.0, "name": "55ed1f395e0f5d4b605cb6b3121c6f31", "lat": 38.90139533333333, "is_disabled": 0, "is_reserved": 0, "lon": -77.03570833333333, "type": "electric_scooter", "fusion_lat": 0.0, "rental_uris": {"android": "https://dc.lft.to/lastmile_qr_scan", "ios": "https://dc.lft.to/lastmile_qr_scan"}}, {"bike_id": "33e3ff9793b6c324d79e006911597bb3", "fusion_lon": 0.0, "name": "33e3ff9793b6c324d79e006911597bb3", "lat": 38.90641083333333, "is_disabled": 0, "is_reserved": 0, "lon": -77.02395, "type": "electric_scooter", "fusion_lat": 0.0, "rental_uris": {"android": "https://dc.lft.to/lastmile_qr_scan", "ios": "https://dc.lft.to/lastmile_qr_scan"}}, {"bike_id": "d776b3372cbb91fad4e0cff24a93ca5e", "fusion_lon": 0.0, "name": "d776b3372cbb91fad4e0cff24a93ca5e", "lat": 38.866783166666664, "is_disabled": 0, "is_reserved": 0, "lon": -76.9857575, "type": "electric_scooter", "fusion_lat": 0.0, "rental_uris": {"android": "https://dc.lft.to/lastmile_qr_scan", "ios": "https://dc.lft.to/lastmile_qr_scan"}}, {"bike_id": "f1a592a876cf09eb1b9d5256ccc12f95", "fusion_lon": 0.0, "name": "f1a592a876cf09eb1b9d5256ccc12f95", "lat": 38.911161166666666, "is_disabled": 0, "is_reserved": 0, "lon": -77.0356555, "type": "electric_scooter", "fusion_lat": 0.0, "rental_uris": {"android": "https://dc.lft.to/lastmile_qr_scan", "ios": "https://dc.lft.to/lastmile_qr_scan"}}, {"bike_id": "4c4993c22d7e62718f15e3092b5b847c", "fusion_lon": 0.0, "name": "4c4993c22d7e62718f15e3092b5b847c", "lat": 38.900136, "is_disabled": 0, "is_reserved": 0, "lon": -77.03063466666667, "type": "electric_scooter", "fusion_lat": 0.0, "rental_uris": {"android": "https://dc.lft.to/lastmile_qr_scan", "ios": "https://dc.lft.to/lastmile_qr_scan"}}, {"bike_id": "e79a3f718fab09f4a721f063c463b43e", "fusion_lon": 0.0, "name": "e79a3f718fab09f4a721f063c463b43e", "lat": 38.8972525, "is_disabled": 0, "is_reserved": 0, "lon": -77.002231, "type": "electric_scooter", "fusion_lat": 0.0, "rental_uris": {"android": "https://dc.lft.to/lastmile_qr_scan", "ios": "https://dc.lft.to/lastmile_qr_scan"}}, {"bike_id": "ddf0bd39a97edcd7fcb476aba6fad0e1", "fusion_lon": 0.0, "name": "ddf0bd39a97edcd7fcb476aba6fad0e1", "lat": 38.89793383333333, "is_disabled": 0, "is_reserved": 0, "lon": -77.02414433333334, "type": "electric_scooter", "fusion_lat": 0.0, "rental_uris": {"android": "https://dc.lft.to/lastmile_qr_scan", "ios": "https://dc.lft.to/lastmile_qr_scan"}}, {"bike_id": "9258a54d89cdb7e45744acf34e203b83", "fusion_lon": 0.0, "name": "9258a54d89cdb7e45744acf34e203b83", "lat": 38.9036455, "is_disabled": 0, "is_reserved": 0, "lon": -77.01641183333334, "type": "electric_scooter", "fusion_lat": 0.0, "rental_uris": {"android": "https://dc.lft.to/lastmile_qr_scan", "ios": "https://dc.lft.to/lastmile_qr_scan"}}, {"bike_id": "2b104ebf7bb13303cbc42af4f74daec3", "fusion_lon": 0.0, "name": "2b104ebf7bb13303cbc42af4f74daec3", "lat": 38.94438983333333, "is_disabled": 0, "is_reserved": 0, "lon": -77.06408716666667, "type": "electric_scooter", "fusion_lat": 0.0, "rental_uris": {"android": "https://dc.lft.to/lastmile_qr_scan", "ios": "https://dc.lft.to/lastmile_qr_scan"}}, {"bike_id": "ddcedc8dad6a1c9878dab302570e04aa", "fusion_lon": 0.0, "name": "ddcedc8dad6a1c9878dab302570e04aa", "lat": 38.92324633333333, "is_disabled": 0, "is_reserved": 0, "lon": -77.01957166666666, "type": "electric_scooter", "fusion_lat": 0.0, "rental_uris": {"android": "https://dc.lft.to/lastmile_qr_scan", "ios": "https://dc.lft.to/lastmile_qr_scan"}}, {"bike_id": "888719d83702c74017fe7012ba40c160", "fusion_lon": 0.0, "name": "888719d83702c74017fe7012ba40c160", "lat": 38.8921685, "is_disabled": 0, "is_reserved": 0, "lon": -77.020144, "type": "electric_scooter", "fusion_lat": 0.0, "rental_uris": {"android": "https://dc.lft.to/lastmile_qr_scan", "ios": "https://dc.lft.to/lastmile_qr_scan"}}, {"bike_id": "38d4555ef2eba5ef0207dfe847375039", "fusion_lon": 0.0, "name": "38d4555ef2eba5ef0207dfe847375039", "lat": 38.93189683333333, "is_disabled": 0, "is_reserved": 0, "lon": -77.042989, "type": "electric_scooter", "fusion_lat": 0.0, "rental_uris": {"android": "https://dc.lft.to/lastmile_qr_scan", "ios": "https://dc.lft.to/lastmile_qr_scan"}}, {"bike_id": "357b1cda6b3ee09d4355be94308b3eac", "fusion_lon": 0.0, "name": "357b1cda6b3ee09d4355be94308b3eac", "lat": 38.88546383333333, "is_disabled": 0, "is_reserved": 0, "lon": -76.99778783333333, "type": "electric_scooter", "fusion_lat": 0.0, "rental_uris": {"android": "https://dc.lft.to/lastmile_qr_scan", "ios": "https://dc.lft.to/lastmile_qr_scan"}}, {"bike_id": "1af44e98cf21e4e5780201c73bf94327", "fusion_lon": 0.0, "name": "1af44e98cf21e4e5780201c73bf94327", "lat": 38.88725133333333, "is_disabled": 0, "is_reserved": 0, "lon": -77.02579366666667, "type": "electric_scooter", "fusion_lat": 0.0, "rental_uris": {"android": "https://dc.lft.to/lastmile_qr_scan", "ios": "https://dc.lft.to/lastmile_qr_scan"}}, {"bike_id": "4052df53a627aa8b11a840c910c113a4", "fusion_lon": 0.0, "name": "4052df53a627aa8b11a840c910c113a4", "lat": 38.92755433333333, "is_disabled": 0, "is_reserved": 0, "lon": -77.03302633333334, "type": "electric_scooter", "fusion_lat": 0.0, "rental_uris": {"android": "https://dc.lft.to/lastmile_qr_scan", "ios": "https://dc.lft.to/lastmile_qr_scan"}}, {"bike_id": "56218d309a976a8f81da4e2a6040acfb", "fusion_lon": 0.0, "name": "56218d309a976a8f81da4e2a6040acfb", "lat": 38.90440066666667, "is_disabled": 0, "is_reserved": 0, "lon": -77.02886283333333, "type": "electric_scooter", "fusion_lat": 0.0, "rental_uris": {"android": "https://dc.lft.to/lastmile_qr_scan", "ios": "https://dc.lft.to/lastmile_qr_scan"}}, {"bike_id": "5d9b8ca641e6bf300bae2015451e8ebf", "fusion_lon": 0.0, "name": "5d9b8ca641e6bf300bae2015451e8ebf", "lat": 38.8971175, "is_disabled": 0, "is_reserved": 0, "lon": -77.007997, "type": "electric_scooter", "fusion_lat": 0.0, "rental_uris": {"android": "https://dc.lft.to/lastmile_qr_scan", "ios": "https://dc.lft.to/lastmile_qr_scan"}}, {"bike_id": "d252dace562e227978370f89c45a5fd6", "fusion_lon": 0.0, "name": "d252dace562e227978370f89c45a5fd6", "lat": 38.88469683333334, "is_disabled": 0, "is_reserved": 0, "lon": -77.01539433333333, "type": "electric_scooter", "fusion_lat": 0.0, "rental_uris": {"android": "https://dc.lft.to/lastmile_qr_scan", "ios": "https://dc.lft.to/lastmile_qr_scan"}}, {"bike_id": "a8831e5262b4fb1bcc26e0cf312f2e23", "fusion_lon": 0.0, "name": "a8831e5262b4fb1bcc26e0cf312f2e23", "lat": 38.9096405, "is_disabled": 0, "is_reserved": 0, "lon": -77.03447133333333, "type": "electric_scooter", "fusion_lat": 0.0, "rental_uris": {"android": "https://dc.lft.to/lastmile_qr_scan", "ios": "https://dc.lft.to/lastmile_qr_scan"}}, {"bike_id": "971aefa9ebab017de0ded41c25ea3865", "fusion_lon": 0.0, "name": "971aefa9ebab017de0ded41c25ea3865", "lat": 38.935203333333334, "is_disabled": 0, "is_reserved": 0, "lon": -77.087002, "type": "electric_scooter", "fusion_lat": 0.0, "rental_uris": {"android": "https://dc.lft.to/lastmile_qr_scan", "ios": "https://dc.lft.to/lastmile_qr_scan"}}, {"bike_id": "a944a74a19c18be9a0f04beb7b7b5992", "fusion_lon": 0.0, "name": "a944a74a19c18be9a0f04beb7b7b5992", "lat": 38.88334616666667, "is_disabled": 0, "is_reserved": 0, "lon": -77.016806, "type": "electric_scooter", "fusion_lat": 0.0, "rental_uris": {"android": "https://dc.lft.to/lastmile_qr_scan", "ios": "https://dc.lft.to/lastmile_qr_scan"}}, {"bike_id": "0af1f70368d07254cef92e37611faebb", "fusion_lon": 0.0, "name": "0af1f70368d07254cef92e37611faebb", "lat": 38.92375583333333, "is_disabled": 0, "is_reserved": 0, "lon": -77.0191445, "type": "electric_scooter", "fusion_lat": 0.0, "rental_uris": {"android": "https://dc.lft.to/lastmile_qr_scan", "ios": "https://dc.lft.to/lastmile_qr_scan"}}, {"bike_id": "beef6a3c03117e3ea97ab50fb371cc8a", "fusion_lon": 0.0, "name": "beef6a3c03117e3ea97ab50fb371cc8a", "lat": 38.9051835, "is_disabled": 0, "is_reserved": 0, "lon": -77.04357566666667, "type": "electric_scooter", "fusion_lat": 0.0, "rental_uris": {"android": "https://dc.lft.to/lastmile_qr_scan", "ios": "https://dc.lft.to/lastmile_qr_scan"}}, {"bike_id": "4c40ee56b04b3bbf65f132649c34ca98", "fusion_lon": 0.0, "name": "4c40ee56b04b3bbf65f132649c34ca98", "lat": 38.95637716666667, "is_disabled": 0, "is_reserved": 0, "lon": -77.022905, "type": "electric_scooter", "fusion_lat": 0.0, "rental_uris": {"android": "https://dc.lft.to/lastmile_qr_scan", "ios": "https://dc.lft.to/lastmile_qr_scan"}}, {"bike_id": "85842b61ca38824a55e9dc7f5246573f", "fusion_lon": 0.0, "name": "85842b61ca38824a55e9dc7f5246573f", "lat": 38.924943166666665, "is_disabled": 0, "is_reserved": 0, "lon": -77.02149333333334, "type": "electric_scooter", "fusion_lat": 0.0, "rental_uris": {"android": "https://dc.lft.to/lastmile_qr_scan", "ios": "https://dc.lft.to/lastmile_qr_scan"}}, {"bike_id": "bf6bdeb86aeba6c6002c8c5ac33bd1d5", "fusion_lon": 0.0, "name": "bf6bdeb86aeba6c6002c8c5ac33bd1d5", "lat": 38.884885833333335, "is_disabled": 0, "is_reserved": 0, "lon": -77.01084333333333, "type": "electric_scooter", "fusion_lat": 0.0, "rental_uris": {"android": "https://dc.lft.to/lastmile_qr_scan", "ios": "https://dc.lft.to/lastmile_qr_scan"}}, {"bike_id": "3fa7259215e735e74d60d99684c26ddf", "fusion_lon": 0.0, "name": "3fa7259215e735e74d60d99684c26ddf", "lat": 38.9236195, "is_disabled": 0, "is_reserved": 0, "lon": -77.0503385, "type": "electric_scooter", "fusion_lat": 0.0, "rental_uris": {"android": "https://dc.lft.to/lastmile_qr_scan", "ios": "https://dc.lft.to/lastmile_qr_scan"}}, {"bike_id": "b525f3fba792b98412e96aeba59f0acf", "fusion_lon": 0.0, "name": "b525f3fba792b98412e96aeba59f0acf", "lat": 39.00382583333333, "is_disabled": 0, "is_reserved": 0, "lon": -77.01300283333333, "type": "electric_bike", "fusion_lat": 0.0, "rental_uris": {"android": "https://dc.lft.to/lastmile_qr_scan", "ios": "https://dc.lft.to/lastmile_qr_scan"}}, {"bike_id": "ecb406be45f32084faf22c738495000e", "fusion_lon": 0.0, "name": "ecb406be45f32084faf22c738495000e", "lat": 38.91728033333333, "is_disabled": 0, "is_reserved": 0, "lon": -77.02306383333334, "type": "electric_scooter", "fusion_lat": 0.0, "rental_uris": {"android": "https://dc.lft.to/lastmile_qr_scan", "ios": "https://dc.lft.to/lastmile_qr_scan"}}, {"bike_id": "7fb8e8acb337191b044486fbb48fae12", "fusion_lon": 0.0, "name": "7fb8e8acb337191b044486fbb48fae12", "lat": 38.914254666666665, "is_disabled": 0, "is_reserved": 0, "lon": -77.0392645, "type": "electric_scooter", "fusion_lat": 0.0, "rental_uris": {"android": "https://dc.lft.to/lastmile_qr_scan", "ios": "https://dc.lft.to/lastmile_qr_scan"}}, {"bike_id": "02be2d64ed803d79626f79561e399416", "fusion_lon": 0.0, "name": "02be2d64ed803d79626f79561e399416", "lat": 38.918822666666664, "is_disabled": 0, "is_reserved": 0, "lon": -77.029713, "type": "electric_scooter", "fusion_lat": 0.0, "rental_uris": {"android": "https://dc.lft.to/lastmile_qr_scan", "ios": "https://dc.lft.to/lastmile_qr_scan"}}, {"bike_id": "ecb55e10aca15b6d917639b4114ac1cb", "fusion_lon": 0.0, "name": "ecb55e10aca15b6d917639b4114ac1cb", "lat": 38.91688083333333, "is_disabled": 0, "is_reserved": 0, "lon": -77.0260245, "type": "electric_scooter", "fusion_lat": 0.0, "rental_uris": {"android": "https://dc.lft.to/lastmile_qr_scan", "ios": "https://dc.lft.to/lastmile_qr_scan"}}, {"bike_id": "ca0d92050f2b8a6d710634651a9434de", "fusion_lon": 0.0, "name": "ca0d92050f2b8a6d710634651a9434de", "lat": 38.87488233333333, "is_disabled": 0, "is_reserved": 0, "lon": -77.21127133333333, "type": "electric_bike", "fusion_lat": 0.0, "rental_uris": {"android": "https://dc.lft.to/lastmile_qr_scan", "ios": "https://dc.lft.to/lastmile_qr_scan"}}, {"bike_id": "b3001567b03bdea7fd2140a68a73d74f", "fusion_lon": 0.0, "name": "b3001567b03bdea7fd2140a68a73d74f", "lat": 38.84605666666667, "is_disabled": 0, "is_reserved": 0, "lon": -76.96910516666667, "type": "electric_bike", "fusion_lat": 0.0, "rental_uris": {"android": "https://dc.lft.to/lastmile_qr_scan", "ios": "https://dc.lft.to/lastmile_qr_scan"}}, {"bike_id": "b1ffeb6c43fa9a46059e902d357044c5", "fusion_lon": 0.0, "name": "b1ffeb6c43fa9a46059e902d357044c5", "lat": 38.89610366666667, "is_disabled": 0, "is_reserved": 0, "lon": -76.90739766666667, "type": "electric_bike", "fusion_lat": 0.0, "rental_uris": {"android": "https://dc.lft.to/lastmile_qr_scan", "ios": "https://dc.lft.to/lastmile_qr_scan"}}, {"bike_id": "a6180f738eb0d195b2d8b1203eedd3c8", "fusion_lon": 0.0, "name": "a6180f738eb0d195b2d8b1203eedd3c8", "lat": 38.91541016666667, "is_disabled": 0, "is_reserved": 0, "lon": -77.03451133333333, "type": "electric_scooter", "fusion_lat": 0.0, "rental_uris": {"android": "https://dc.lft.to/lastmile_qr_scan", "ios": "https://dc.lft.to/lastmile_qr_scan"}}, {"bike_id": "2f26d1a3e9e171fe53b1fc4417d17cea", "fusion_lon": 0.0, "name": "2f26d1a3e9e171fe53b1fc4417d17cea", "lat": 38.8922475, "is_disabled": 0, "is_reserved": 0, "lon": -77.04306683333333, "type": "electric_scooter", "fusion_lat": 0.0, "rental_uris": {"android": "https://dc.lft.to/lastmile_qr_scan", "ios": "https://dc.lft.to/lastmile_qr_scan"}}, {"bike_id": "eed58165e76fa6c819c88a02dd5f20b3", "fusion_lon": 0.0, "name": "eed58165e76fa6c819c88a02dd5f20b3", "lat": 38.90567816666667, "is_disabled": 0, "is_reserved": 0, "lon": -77.00565983333334, "type": "electric_scooter", "fusion_lat": 0.0, "rental_uris": {"android": "https://dc.lft.to/lastmile_qr_scan", "ios": "https://dc.lft.to/lastmile_qr_scan"}}, {"bike_id": "1056ef8ca1a8dc6862bb3ac57a69ccc3", "fusion_lon": 0.0, "name": "1056ef8ca1a8dc6862bb3ac57a69ccc3", "lat": 38.89738633333333, "is_disabled": 0, "is_reserved": 0, "lon": -77.04556316666667, "type": "electric_scooter", "fusion_lat": 0.0, "rental_uris": {"android": "https://dc.lft.to/lastmile_qr_scan", "ios": "https://dc.lft.to/lastmile_qr_scan"}}, {"bike_id": "9cae2576d28f2c62d4e5813d5ad10749", "fusion_lon": 0.0, "name": "9cae2576d28f2c62d4e5813d5ad10749", "lat": 38.94222533333333, "is_disabled": 0, "is_reserved": 0, "lon": -77.076851, "type": "electric_scooter", "fusion_lat": 0.0, "rental_uris": {"android": "https://dc.lft.to/lastmile_qr_scan", "ios": "https://dc.lft.to/lastmile_qr_scan"}}, {"bike_id": "71cde4be789f7985f6b123543720cceb", "fusion_lon": 0.0, "name": "71cde4be789f7985f6b123543720cceb", "lat": 38.91283933333333, "is_disabled": 0, "is_reserved": 0, "lon": -77.0230675, "type": "electric_scooter", "fusion_lat": 0.0, "rental_uris": {"android": "https://dc.lft.to/lastmile_qr_scan", "ios": "https://dc.lft.to/lastmile_qr_scan"}}, {"bike_id": "aea5d39900c42910fc122e5977cd3894", "fusion_lon": 0.0, "name": "aea5d39900c42910fc122e5977cd3894", "lat": 38.904045833333335, "is_disabled": 0, "is_reserved": 0, "lon": -77.043471, "type": "electric_scooter", "fusion_lat": 0.0, "rental_uris": {"android": "https://dc.lft.to/lastmile_qr_scan", "ios": "https://dc.lft.to/lastmile_qr_scan"}}, {"bike_id": "7a13fe10659882edd44f805801e8433e", "fusion_lon": 0.0, "name": "7a13fe10659882edd44f805801e8433e", "lat": 38.86625216666667, "is_disabled": 0, "is_reserved": 0, "lon": -76.987171, "type": "electric_scooter", "fusion_lat": 0.0, "rental_uris": {"android": "https://dc.lft.to/lastmile_qr_scan", "ios": "https://dc.lft.to/lastmile_qr_scan"}}, {"bike_id": "de1f4b397eb18acad867d717b3f10280", "fusion_lon": 0.0, "name": "de1f4b397eb18acad867d717b3f10280", "lat": 38.892207, "is_disabled": 0, "is_reserved": 0, "lon": -77.04686916666667, "type": "electric_scooter", "fusion_lat": 0.0, "rental_uris": {"android": "https://dc.lft.to/lastmile_qr_scan", "ios": "https://dc.lft.to/lastmile_qr_scan"}}, {"bike_id": "2d36b235df43b0b0e70a6cd92916b8b0", "fusion_lon": 0.0, "name": "2d36b235df43b0b0e70a6cd92916b8b0", "lat": 38.89231133333333, "is_disabled": 0, "is_reserved": 0, "lon": -77.0335765, "type": "electric_scooter", "fusion_lat": 0.0, "rental_uris": {"android": "https://dc.lft.to/lastmile_qr_scan", "ios": "https://dc.lft.to/lastmile_qr_scan"}}, {"bike_id": "ac4e019b2bdb13b0a011982602c0409b", "fusion_lon": 0.0, "name": "ac4e019b2bdb13b0a011982602c0409b", "lat": 38.90729416666667, "is_disabled": 0, "is_reserved": 0, "lon": -77.02513116666667, "type": "electric_scooter", "fusion_lat": 0.0, "rental_uris": {"android": "https://dc.lft.to/lastmile_qr_scan", "ios": "https://dc.lft.to/lastmile_qr_scan"}}, {"bike_id": "85a067ab54af7b41bf1fee3987435e3d", "fusion_lon": 0.0, "name": "85a067ab54af7b41bf1fee3987435e3d", "lat": 38.885136333333335, "is_disabled": 0, "is_reserved": 0, "lon": -77.020933, "type": "electric_scooter", "fusion_lat": 0.0, "rental_uris": {"android": "https://dc.lft.to/lastmile_qr_scan", "ios": "https://dc.lft.to/lastmile_qr_scan"}}, {"bike_id": "9ba986f348a7062a18a92953cf04145b", "fusion_lon": 0.0, "name": "9ba986f348a7062a18a92953cf04145b", "lat": 38.93161216666667, "is_disabled": 0, "is_reserved": 0, "lon": -77.07845983333333, "type": "electric_scooter", "fusion_lat": 0.0, "rental_uris": {"android": "https://dc.lft.to/lastmile_qr_scan", "ios": "https://dc.lft.to/lastmile_qr_scan"}}, {"bike_id": "71515a09edd02e58329a817e47488617", "fusion_lon": 0.0, "name": "71515a09edd02e58329a817e47488617", "lat": 38.944486833333336, "is_disabled": 0, "is_reserved": 0, "lon": -77.02342533333334, "type": "electric_scooter", "fusion_lat": 0.0, "rental_uris": {"android": "https://dc.lft.to/lastmile_qr_scan", "ios": "https://dc.lft.to/lastmile_qr_scan"}}, {"bike_id": "17cfeb3d2c3b9390d469037c1eb01369", "fusion_lon": 0.0, "name": "17cfeb3d2c3b9390d469037c1eb01369", "lat": 38.898721, "is_disabled": 0, "is_reserved": 0, "lon": -76.931872, "type": "electric_scooter", "fusion_lat": 0.0, "rental_uris": {"android": "https://dc.lft.to/lastmile_qr_scan", "ios": "https://dc.lft.to/lastmile_qr_scan"}}, {"bike_id": "ad634ec2a9f31e5041b6866c73922922", "fusion_lon": 0.0, "name": "ad634ec2a9f31e5041b6866c73922922", "lat": 38.92565466666667, "is_disabled": 0, "is_reserved": 0, "lon": -77.02713183333333, "type": "electric_scooter", "fusion_lat": 0.0, "rental_uris": {"android": "https://dc.lft.to/lastmile_qr_scan", "ios": "https://dc.lft.to/lastmile_qr_scan"}}, {"bike_id": "b4c3f99c3cac79ce51c8afae84ec3b14", "fusion_lon": 0.0, "name": "b4c3f99c3cac79ce51c8afae84ec3b14", "lat": 38.9019955, "is_disabled": 0, "is_reserved": 0, "lon": -77.02377516666667, "type": "electric_scooter", "fusion_lat": 0.0, "rental_uris": {"android": "https://dc.lft.to/lastmile_qr_scan", "ios": "https://dc.lft.to/lastmile_qr_scan"}}, {"bike_id": "a174f63984f2b204ecb3e95fbec224ad", "fusion_lon": 0.0, "name": "a174f63984f2b204ecb3e95fbec224ad", "lat": 38.8849955, "is_disabled": 0, "is_reserved": 0, "lon": -77.0070015, "type": "electric_scooter", "fusion_lat": 0.0, "rental_uris": {"android": "https://dc.lft.to/lastmile_qr_scan", "ios": "https://dc.lft.to/lastmile_qr_scan"}}, {"bike_id": "2b590fa7c2f25472a80215e4a59bacf4", "fusion_lon": 0.0, "name": "2b590fa7c2f25472a80215e4a59bacf4", "lat": 38.8655515, "is_disabled": 0, "is_reserved": 0, "lon": -76.98357416666667, "type": "electric_scooter", "fusion_lat": 0.0, "rental_uris": {"android": "https://dc.lft.to/lastmile_qr_scan", "ios": "https://dc.lft.to/lastmile_qr_scan"}}, {"bike_id": "e0c24ffc55cef6043480d682504a92ef", "fusion_lon": 0.0, "name": "e0c24ffc55cef6043480d682504a92ef", "lat": 38.9095835, "is_disabled": 0, "is_reserved": 0, "lon": -77.02288433333334, "type": "electric_scooter", "fusion_lat": 0.0, "rental_uris": {"android": "https://dc.lft.to/lastmile_qr_scan", "ios": "https://dc.lft.to/lastmile_qr_scan"}}, {"bike_id": "bcb378fcca7790ffcd74816c6e7ceaba", "fusion_lon": 0.0, "name": "bcb378fcca7790ffcd74816c6e7ceaba", "lat": 38.883999333333335, "is_disabled": 0, "is_reserved": 0, "lon": -76.96061516666667, "type": "electric_bike", "fusion_lat": 0.0, "rental_uris": {"android": "https://dc.lft.to/lastmile_qr_scan", "ios": "https://dc.lft.to/lastmile_qr_scan"}}, {"bike_id": "efcbac0251891e1120e869657831cfc5", "fusion_lon": 0.0, "name": "efcbac0251891e1120e869657831cfc5", "lat": 38.899508166666664, "is_disabled": 0, "is_reserved": 0, "lon": -77.04172566666666, "type": "electric_scooter", "fusion_lat": 0.0, "rental_uris": {"android": "https://dc.lft.to/lastmile_qr_scan", "ios": "https://dc.lft.to/lastmile_qr_scan"}}, {"bike_id": "21aa08effb13e3b18dcf3503861a6e03", "fusion_lon": 0.0, "name": "21aa08effb13e3b18dcf3503861a6e03", "lat": 38.92311383333333, "is_disabled": 0, "is_reserved": 0, "lon": -77.04193083333334, "type": "electric_scooter", "fusion_lat": 0.0, "rental_uris": {"android": "https://dc.lft.to/lastmile_qr_scan", "ios": "https://dc.lft.to/lastmile_qr_scan"}}, {"bike_id": "2f03672b5060df9505e2f27f35af2cea", "fusion_lon": 0.0, "name": "2f03672b5060df9505e2f27f35af2cea", "lat": 38.86555583333333, "is_disabled": 0, "is_reserved": 0, "lon": -76.98353983333334, "type": "electric_scooter", "fusion_lat": 0.0, "rental_uris": {"android": "https://dc.lft.to/lastmile_qr_scan", "ios": "https://dc.lft.to/lastmile_qr_scan"}}, {"bike_id": "928ea8b9b55682a6a89fabff8c6aa2f7", "fusion_lon": 0.0, "name": "928ea8b9b55682a6a89fabff8c6aa2f7", "lat": 38.882563833333336, "is_disabled": 0, "is_reserved": 0, "lon": -76.9948885, "type": "electric_scooter", "fusion_lat": 0.0, "rental_uris": {"android": "https://dc.lft.to/lastmile_qr_scan", "ios": "https://dc.lft.to/lastmile_qr_scan"}}, {"bike_id": "3a825df91f4d67f1bee98786aed5bc71", "fusion_lon": 0.0, "name": "3a825df91f4d67f1bee98786aed5bc71", "lat": 38.9203235, "is_disabled": 0, "is_reserved": 0, "lon": -77.01289183333333, "type": "electric_scooter", "fusion_lat": 0.0, "rental_uris": {"android": "https://dc.lft.to/lastmile_qr_scan", "ios": "https://dc.lft.to/lastmile_qr_scan"}}, {"bike_id": "7f31ad125de4319ad07ec8bac4ca5c2c", "fusion_lon": 0.0, "name": "7f31ad125de4319ad07ec8bac4ca5c2c", "lat": 38.90737333333333, "is_disabled": 0, "is_reserved": 0, "lon": -77.043385, "type": "electric_scooter", "fusion_lat": 0.0, "rental_uris": {"android": "https://dc.lft.to/lastmile_qr_scan", "ios": "https://dc.lft.to/lastmile_qr_scan"}}, {"bike_id": "ed598a93584f58f8971155114179d6b5", "fusion_lon": 0.0, "name": "ed598a93584f58f8971155114179d6b5", "lat": 38.877575666666665, "is_disabled": 0, "is_reserved": 0, "lon": -77.00708633333333, "type": "electric_scooter", "fusion_lat": 0.0, "rental_uris": {"android": "https://dc.lft.to/lastmile_qr_scan", "ios": "https://dc.lft.to/lastmile_qr_scan"}}, {"bike_id": "5ca9db4a9c4054043beed8e227cf990d", "fusion_lon": 0.0, "name": "5ca9db4a9c4054043beed8e227cf990d", "lat": 38.871307, "is_disabled": 0, "is_reserved": 0, "lon": -77.10027716666667, "type": "electric_bike", "fusion_lat": 0.0, "rental_uris": {"android": "https://dc.lft.to/lastmile_qr_scan", "ios": "https://dc.lft.to/lastmile_qr_scan"}}, {"bike_id": "77813a68423d348eb4ff4f6250f54530", "fusion_lon": 0.0, "name": "77813a68423d348eb4ff4f6250f54530", "lat": 38.892205, "is_disabled": 0, "is_reserved": 0, "lon": -77.047706, "type": "electric_scooter", "fusion_lat": 0.0, "rental_uris": {"android": "https://dc.lft.to/lastmile_qr_scan", "ios": "https://dc.lft.to/lastmile_qr_scan"}}, {"bike_id": "12d8029f12723ba8738bcef5c18e1130", "fusion_lon": 0.0, "name": "12d8029f12723ba8738bcef5c18e1130", "lat": 38.896016833333334, "is_disabled": 0, "is_reserved": 0, "lon": -77.05436883333333, "type": "electric_scooter", "fusion_lat": 0.0, "rental_uris": {"android": "https://dc.lft.to/lastmile_qr_scan", "ios": "https://dc.lft.to/lastmile_qr_scan"}}, {"bike_id": "0aa7aad55c0bdf7840b6ed38aa533871", "fusion_lon": 0.0, "name": "0aa7aad55c0bdf7840b6ed38aa533871", "lat": 38.892242, "is_disabled": 0, "is_reserved": 0, "lon": -77.03377166666667, "type": "electric_scooter", "fusion_lat": 0.0, "rental_uris": {"android": "https://dc.lft.to/lastmile_qr_scan", "ios": "https://dc.lft.to/lastmile_qr_scan"}}, {"bike_id": "e498f429844fd61d7f9b3ba31e898c23", "fusion_lon": 0.0, "name": "e498f429844fd61d7f9b3ba31e898c23", "lat": 38.922226, "is_disabled": 0, "is_reserved": 0, "lon": -77.043017, "type": "electric_scooter", "fusion_lat": 0.0, "rental_uris": {"android": "https://dc.lft.to/lastmile_qr_scan", "ios": "https://dc.lft.to/lastmile_qr_scan"}}, {"bike_id": "0382e9b72eb93b89784f54ba7f2499c7", "fusion_lon": 0.0, "name": "0382e9b72eb93b89784f54ba7f2499c7", "lat": 38.89982416666667, "is_disabled": 0, "is_reserved": 0, "lon": -76.984379, "type": "electric_scooter", "fusion_lat": 0.0, "rental_uris": {"android": "https://dc.lft.to/lastmile_qr_scan", "ios": "https://dc.lft.to/lastmile_qr_scan"}}, {"bike_id": "c253693123cc17bd7bfe9ad17c870927", "fusion_lon": 0.0, "name": "c253693123cc17bd7bfe9ad17c870927", "lat": 38.95162466666667, "is_disabled": 0, "is_reserved": 0, "lon": -77.031663, "type": "electric_bike", "fusion_lat": 0.0, "rental_uris": {"android": "https://dc.lft.to/lastmile_qr_scan", "ios": "https://dc.lft.to/lastmile_qr_scan"}}, {"bike_id": "02eae9a1e835a3fbb8d10e89b5df07c4", "fusion_lon": 0.0, "name": "02eae9a1e835a3fbb8d10e89b5df07c4", "lat": 38.9097795, "is_disabled": 0, "is_reserved": 0, "lon": -77.0339475, "type": "electric_scooter", "fusion_lat": 0.0, "rental_uris": {"android": "https://dc.lft.to/lastmile_qr_scan", "ios": "https://dc.lft.to/lastmile_qr_scan"}}, {"bike_id": "d608e0f80dbbda484c2963aa97600cca", "fusion_lon": 0.0, "name": "d608e0f80dbbda484c2963aa97600cca", "lat": 38.9264555, "is_disabled": 0, "is_reserved": 0, "lon": -77.03310283333333, "type": "electric_scooter", "fusion_lat": 0.0, "rental_uris": {"android": "https://dc.lft.to/lastmile_qr_scan", "ios": "https://dc.lft.to/lastmile_qr_scan"}}, {"bike_id": "0c2392a2d14ee0012c3f4aee740995ef", "fusion_lon": 0.0, "name": "0c2392a2d14ee0012c3f4aee740995ef", "lat": 38.994121, "is_disabled": 0, "is_reserved": 0, "lon": -77.0770125, "type": "electric_bike", "fusion_lat": 0.0, "rental_uris": {"android": "https://dc.lft.to/lastmile_qr_scan", "ios": "https://dc.lft.to/lastmile_qr_scan"}}, {"bike_id": "309333d6f5e33f26dd158f1b7b5f82a4", "fusion_lon": 0.0, "name": "309333d6f5e33f26dd158f1b7b5f82a4", "lat": 38.90960916666667, "is_disabled": 0, "is_reserved": 0, "lon": -77.03194866666666, "type": "electric_scooter", "fusion_lat": 0.0, "rental_uris": {"android": "https://dc.lft.to/lastmile_qr_scan", "ios": "https://dc.lft.to/lastmile_qr_scan"}}, {"bike_id": "bfd0b545b5bb3bda5257a1f6579d28be", "fusion_lon": 0.0, "name": "bfd0b545b5bb3bda5257a1f6579d28be", "lat": 38.92436516666667, "is_disabled": 0, "is_reserved": 0, "lon": -77.03376583333333, "type": "electric_scooter", "fusion_lat": 0.0, "rental_uris": {"android": "https://dc.lft.to/lastmile_qr_scan", "ios": "https://dc.lft.to/lastmile_qr_scan"}}, {"bike_id": "e4283bfb3f7e9ec35f98add5466d414f", "fusion_lon": 0.0, "name": "e4283bfb3f7e9ec35f98add5466d414f", "lat": 39.036063, "is_disabled": 0, "is_reserved": 0, "lon": -77.05547516666667, "type": "electric_bike", "fusion_lat": 0.0, "rental_uris": {"android": "https://dc.lft.to/lastmile_qr_scan", "ios": "https://dc.lft.to/lastmile_qr_scan"}}, {"bike_id": "a2a88cbaa597332fee87b7d9fadfd803", "fusion_lon": 0.0, "name": "a2a88cbaa597332fee87b7d9fadfd803", "lat": 38.928233, "is_disabled": 0, "is_reserved": 0, "lon": -77.05971483333333, "type": "electric_scooter", "fusion_lat": 0.0, "rental_uris": {"android": "https://dc.lft.to/lastmile_qr_scan", "ios": "https://dc.lft.to/lastmile_qr_scan"}}, {"bike_id": "d2336da662891e8d2a99c01cdeb75325", "fusion_lon": 0.0, "name": "d2336da662891e8d2a99c01cdeb75325", "lat": 38.896217, "is_disabled": 0, "is_reserved": 0, "lon": -76.99733216666667, "type": "electric_scooter", "fusion_lat": 0.0, "rental_uris": {"android": "https://dc.lft.to/lastmile_qr_scan", "ios": "https://dc.lft.to/lastmile_qr_scan"}}, {"bike_id": "7454d899a6cd4da7a827e967f4b55681", "fusion_lon": 0.0, "name": "7454d899a6cd4da7a827e967f4b55681", "lat": 38.86195166666667, "is_disabled": 0, "is_reserved": 0, "lon": -77.0599295, "type": "electric_bike", "fusion_lat": 0.0, "rental_uris": {"android": "https://dc.lft.to/lastmile_qr_scan", "ios": "https://dc.lft.to/lastmile_qr_scan"}}, {"bike_id": "e7c980a054e9050660a23dcedaf77c48", "fusion_lon": 0.0, "name": "e7c980a054e9050660a23dcedaf77c48", "lat": 38.892419, "is_disabled": 0, "is_reserved": 0, "lon": -77.03352066666666, "type": "electric_scooter", "fusion_lat": 0.0, "rental_uris": {"android": "https://dc.lft.to/lastmile_qr_scan", "ios": "https://dc.lft.to/lastmile_qr_scan"}}, {"bike_id": "370977f5a729f0b262f21a2bce828e3e", "fusion_lon": 0.0, "name": "370977f5a729f0b262f21a2bce828e3e", "lat": 38.96200366666667, "is_disabled": 0, "is_reserved": 0, "lon": -77.00084966666667, "type": "electric_bike", "fusion_lat": 0.0, "rental_uris": {"android": "https://dc.lft.to/lastmile_qr_scan", "ios": "https://dc.lft.to/lastmile_qr_scan"}}, {"bike_id": "17b3dc8e87e3f061216d1ac33b6769a1", "fusion_lon": 0.0, "name": "17b3dc8e87e3f061216d1ac33b6769a1", "lat": 38.901138833333334, "is_disabled": 0, "is_reserved": 0, "lon": -77.02174583333333, "type": "electric_scooter", "fusion_lat": 0.0, "rental_uris": {"android": "https://dc.lft.to/lastmile_qr_scan", "ios": "https://dc.lft.to/lastmile_qr_scan"}}, {"bike_id": "76dfd49346bcd0375389bcdb82b30872", "fusion_lon": 0.0, "name": "76dfd49346bcd0375389bcdb82b30872", "lat": 38.866783833333336, "is_disabled": 0, "is_reserved": 0, "lon": -76.98561816666667, "type": "electric_scooter", "fusion_lat": 0.0, "rental_uris": {"android": "https://dc.lft.to/lastmile_qr_scan", "ios": "https://dc.lft.to/lastmile_qr_scan"}}, {"bike_id": "c578850b3b7cd6b99ca8be5c20ffff22", "fusion_lon": 0.0, "name": "c578850b3b7cd6b99ca8be5c20ffff22", "lat": 38.99095533333333, "is_disabled": 0, "is_reserved": 0, "lon": -76.993756, "type": "electric_bike", "fusion_lat": 0.0, "rental_uris": {"android": "https://dc.lft.to/lastmile_qr_scan", "ios": "https://dc.lft.to/lastmile_qr_scan"}}, {"bike_id": "7f1638a2252ff8d0f55b972c822471c5", "fusion_lon": 0.0, "name": "7f1638a2252ff8d0f55b972c822471c5", "lat": 38.8768495, "is_disabled": 0, "is_reserved": 0, "lon": -77.00404616666667, "type": "electric_scooter", "fusion_lat": 0.0, "rental_uris": {"android": "https://dc.lft.to/lastmile_qr_scan", "ios": "https://dc.lft.to/lastmile_qr_scan"}}, {"bike_id": "63abdeee160019f660ed5e1a486b7f0e", "fusion_lon": 0.0, "name": "63abdeee160019f660ed5e1a486b7f0e", "lat": 38.92043483333333, "is_disabled": 0, "is_reserved": 0, "lon": -77.0168205, "type": "electric_scooter", "fusion_lat": 0.0, "rental_uris": {"android": "https://dc.lft.to/lastmile_qr_scan", "ios": "https://dc.lft.to/lastmile_qr_scan"}}, {"bike_id": "01f594955290ab3cec4beeb555466c2d", "fusion_lon": 0.0, "name": "01f594955290ab3cec4beeb555466c2d", "lat": 38.89895516666667, "is_disabled": 0, "is_reserved": 0, "lon": -77.09625666666666, "type": "electric_bike", "fusion_lat": 0.0, "rental_uris": {"android": "https://dc.lft.to/lastmile_qr_scan", "ios": "https://dc.lft.to/lastmile_qr_scan"}}, {"bike_id": "cf01770cfe2678fff0e4435734d14d7f", "fusion_lon": 0.0, "name": "cf01770cfe2678fff0e4435734d14d7f", "lat": 38.908303333333336, "is_disabled": 0, "is_reserved": 0, "lon": -77.03555683333333, "type": "electric_scooter", "fusion_lat": 0.0, "rental_uris": {"android": "https://dc.lft.to/lastmile_qr_scan", "ios": "https://dc.lft.to/lastmile_qr_scan"}}, {"bike_id": "e922757887c9e375e614847c2639849b", "fusion_lon": 0.0, "name": "e922757887c9e375e614847c2639849b", "lat": 38.8872805, "is_disabled": 0, "is_reserved": 0, "lon": -77.02583416666667, "type": "electric_scooter", "fusion_lat": 0.0, "rental_uris": {"android": "https://dc.lft.to/lastmile_qr_scan", "ios": "https://dc.lft.to/lastmile_qr_scan"}}, {"bike_id": "fe3dc937c89843ead3b382cf90db3d62", "fusion_lon": 0.0, "name": "fe3dc937c89843ead3b382cf90db3d62", "lat": 38.916989, "is_disabled": 0, "is_reserved": 0, "lon": -77.0564245, "type": "electric_scooter", "fusion_lat": 0.0, "rental_uris": {"android": "https://dc.lft.to/lastmile_qr_scan", "ios": "https://dc.lft.to/lastmile_qr_scan"}}, {"bike_id": "e9da9ed1b184e7f07fb5c258c69cb504", "fusion_lon": 0.0, "name": "e9da9ed1b184e7f07fb5c258c69cb504", "lat": 38.901766333333335, "is_disabled": 0, "is_reserved": 0, "lon": -76.94149666666667, "type": "electric_scooter", "fusion_lat": 0.0, "rental_uris": {"android": "https://dc.lft.to/lastmile_qr_scan", "ios": "https://dc.lft.to/lastmile_qr_scan"}}, {"bike_id": "e0a7969adf0d568fcb41c9867da4645e", "fusion_lon": 0.0, "name": "e0a7969adf0d568fcb41c9867da4645e", "lat": 38.92037933333334, "is_disabled": 0, "is_reserved": 0, "lon": -77.02590716666667, "type": "electric_scooter", "fusion_lat": 0.0, "rental_uris": {"android": "https://dc.lft.to/lastmile_qr_scan", "ios": "https://dc.lft.to/lastmile_qr_scan"}}, {"bike_id": "e81be1ccd0784aabb5b8832997573ab8", "fusion_lon": 0.0, "name": "e81be1ccd0784aabb5b8832997573ab8", "lat": 38.920438, "is_disabled": 0, "is_reserved": 0, "lon": -77.025753, "type": "electric_scooter", "fusion_lat": 0.0, "rental_uris": {"android": "https://dc.lft.to/lastmile_qr_scan", "ios": "https://dc.lft.to/lastmile_qr_scan"}}, {"bike_id": "bfe9130cab83ce4a54b131368509af7d", "fusion_lon": 0.0, "name": "bfe9130cab83ce4a54b131368509af7d", "lat": 38.896151833333334, "is_disabled": 0, "is_reserved": 0, "lon": -76.9796845, "type": "electric_scooter", "fusion_lat": 0.0, "rental_uris": {"android": "https://dc.lft.to/lastmile_qr_scan", "ios": "https://dc.lft.to/lastmile_qr_scan"}}, {"bike_id": "5851add2cc1395adc9c9d6f3eecec4a3", "fusion_lon": 0.0, "name": "5851add2cc1395adc9c9d6f3eecec4a3", "lat": 38.8812135, "is_disabled": 0, "is_reserved": 0, "lon": -76.99287333333334, "type": "electric_scooter", "fusion_lat": 0.0, "rental_uris": {"android": "https://dc.lft.to/lastmile_qr_scan", "ios": "https://dc.lft.to/lastmile_qr_scan"}}, {"bike_id": "5e8894aa5477fc11072e2e4f96bc963b", "fusion_lon": 0.0, "name": "5e8894aa5477fc11072e2e4f96bc963b", "lat": 38.891593, "is_disabled": 0, "is_reserved": 0, "lon": -77.00471683333333, "type": "electric_bike", "fusion_lat": 0.0, "rental_uris": {"android": "https://dc.lft.to/lastmile_qr_scan", "ios": "https://dc.lft.to/lastmile_qr_scan"}}, {"bike_id": "ec19448da555c6fe1774202112013127", "fusion_lon": 0.0, "name": "ec19448da555c6fe1774202112013127", "lat": 38.91976983333333, "is_disabled": 0, "is_reserved": 0, "lon": -77.02196333333333, "type": "electric_scooter", "fusion_lat": 0.0, "rental_uris": {"android": "https://dc.lft.to/lastmile_qr_scan", "ios": "https://dc.lft.to/lastmile_qr_scan"}}, {"bike_id": "c0c0da1881715515a43ba46dde821d31", "fusion_lon": 0.0, "name": "c0c0da1881715515a43ba46dde821d31", "lat": 38.90135516666667, "is_disabled": 0, "is_reserved": 0, "lon": -76.98962933333334, "type": "electric_scooter", "fusion_lat": 0.0, "rental_uris": {"android": "https://dc.lft.to/lastmile_qr_scan", "ios": "https://dc.lft.to/lastmile_qr_scan"}}, {"bike_id": "ec066c45549c56d293df894ae430c2aa", "fusion_lon": 0.0, "name": "ec066c45549c56d293df894ae430c2aa", "lat": 38.896239, "is_disabled": 0, "is_reserved": 0, "lon": -76.993321, "type": "electric_scooter", "fusion_lat": 0.0, "rental_uris": {"android": "https://dc.lft.to/lastmile_qr_scan", "ios": "https://dc.lft.to/lastmile_qr_scan"}}, {"bike_id": "b24ec93a81dbfddc97627e86df1351a6", "fusion_lon": 0.0, "name": "b24ec93a81dbfddc97627e86df1351a6", "lat": 38.90388183333334, "is_disabled": 0, "is_reserved": 0, "lon": -77.04395716666667, "type": "electric_scooter", "fusion_lat": 0.0, "rental_uris": {"android": "https://dc.lft.to/lastmile_qr_scan", "ios": "https://dc.lft.to/lastmile_qr_scan"}}, {"bike_id": "10a3a0dc76e8aac546b9796429c77dd9", "fusion_lon": 0.0, "name": "10a3a0dc76e8aac546b9796429c77dd9", "lat": 38.902282666666665, "is_disabled": 0, "is_reserved": 0, "lon": -77.03467033333334, "type": "electric_scooter", "fusion_lat": 0.0, "rental_uris": {"android": "https://dc.lft.to/lastmile_qr_scan", "ios": "https://dc.lft.to/lastmile_qr_scan"}}, {"bike_id": "34a8534fe57bd43c07c37e52db73c6eb", "fusion_lon": 0.0, "name": "34a8534fe57bd43c07c37e52db73c6eb", "lat": 38.90529566666667, "is_disabled": 0, "is_reserved": 0, "lon": -77.04892016666666, "type": "electric_scooter", "fusion_lat": 0.0, "rental_uris": {"android": "https://dc.lft.to/lastmile_qr_scan", "ios": "https://dc.lft.to/lastmile_qr_scan"}}, {"bike_id": "035ebd41a920e91b0f3e461120961045", "fusion_lon": 0.0, "name": "035ebd41a920e91b0f3e461120961045", "lat": 38.916344333333335, "is_disabled": 0, "is_reserved": 0, "lon": -77.04789133333334, "type": "electric_scooter", "fusion_lat": 0.0, "rental_uris": {"android": "https://dc.lft.to/lastmile_qr_scan", "ios": "https://dc.lft.to/lastmile_qr_scan"}}, {"bike_id": "8e09de46bc2894f6c69833fef0821c57", "fusion_lon": 0.0, "name": "8e09de46bc2894f6c69833fef0821c57", "lat": 38.898922166666665, "is_disabled": 0, "is_reserved": 0, "lon": -77.03277966666667, "type": "electric_scooter", "fusion_lat": 0.0, "rental_uris": {"android": "https://dc.lft.to/lastmile_qr_scan", "ios": "https://dc.lft.to/lastmile_qr_scan"}}, {"bike_id": "79d6057077e718ca3b67c14a2a219567", "fusion_lon": 0.0, "name": "79d6057077e718ca3b67c14a2a219567", "lat": 38.91702766666667, "is_disabled": 0, "is_reserved": 0, "lon": -77.03469716666666, "type": "electric_scooter", "fusion_lat": 0.0, "rental_uris": {"android": "https://dc.lft.to/lastmile_qr_scan", "ios": "https://dc.lft.to/lastmile_qr_scan"}}, {"bike_id": "cd9b87c3b53f2a2a9267c82d34e91454", "fusion_lon": 0.0, "name": "cd9b87c3b53f2a2a9267c82d34e91454", "lat": 38.92097116666667, "is_disabled": 0, "is_reserved": 0, "lon": -77.013205, "type": "electric_scooter", "fusion_lat": 0.0, "rental_uris": {"android": "https://dc.lft.to/lastmile_qr_scan", "ios": "https://dc.lft.to/lastmile_qr_scan"}}, {"bike_id": "a7f3d0c54a5918b983d3a92cff1467a6", "fusion_lon": 0.0, "name": "a7f3d0c54a5918b983d3a92cff1467a6", "lat": 38.884816, "is_disabled": 0, "is_reserved": 0, "lon": -76.94968883333334, "type": "electric_scooter", "fusion_lat": 0.0, "rental_uris": {"android": "https://dc.lft.to/lastmile_qr_scan", "ios": "https://dc.lft.to/lastmile_qr_scan"}}, {"bike_id": "93eac08fa764b63e8e1a9265cc7d769f", "fusion_lon": 0.0, "name": "93eac08fa764b63e8e1a9265cc7d769f", "lat": 38.9211635, "is_disabled": 0, "is_reserved": 0, "lon": -77.04395933333333, "type": "electric_scooter", "fusion_lat": 0.0, "rental_uris": {"android": "https://dc.lft.to/lastmile_qr_scan", "ios": "https://dc.lft.to/lastmile_qr_scan"}}, {"bike_id": "e09f3409e1b8a4c4bc54bb175b5de74b", "fusion_lon": 0.0, "name": "e09f3409e1b8a4c4bc54bb175b5de74b", "lat": 38.93675016666667, "is_disabled": 0, "is_reserved": 0, "lon": -77.03595233333333, "type": "electric_scooter", "fusion_lat": 0.0, "rental_uris": {"android": "https://dc.lft.to/lastmile_qr_scan", "ios": "https://dc.lft.to/lastmile_qr_scan"}}, {"bike_id": "2b3204812b9124e0388dd7a541e43b72", "fusion_lon": 0.0, "name": "2b3204812b9124e0388dd7a541e43b72", "lat": 38.90269116666666, "is_disabled": 0, "is_reserved": 0, "lon": -77.04613616666667, "type": "electric_scooter", "fusion_lat": 0.0, "rental_uris": {"android": "https://dc.lft.to/lastmile_qr_scan", "ios": "https://dc.lft.to/lastmile_qr_scan"}}, {"bike_id": "7a9d11535e5122a8b546ae2f764406a9", "fusion_lon": 0.0, "name": "7a9d11535e5122a8b546ae2f764406a9", "lat": 38.88320366666667, "is_disabled": 0, "is_reserved": 0, "lon": -77.0176645, "type": "electric_scooter", "fusion_lat": 0.0, "rental_uris": {"android": "https://dc.lft.to/lastmile_qr_scan", "ios": "https://dc.lft.to/lastmile_qr_scan"}}, {"bike_id": "5dca0ebfb31b0d47cd5f503e06d0e8f7", "fusion_lon": 0.0, "name": "5dca0ebfb31b0d47cd5f503e06d0e8f7", "lat": 38.8950595, "is_disabled": 0, "is_reserved": 0, "lon": -77.02216766666666, "type": "electric_scooter", "fusion_lat": 0.0, "rental_uris": {"android": "https://dc.lft.to/lastmile_qr_scan", "ios": "https://dc.lft.to/lastmile_qr_scan"}}, {"bike_id": "67cb60769a5750f46adbe47b297fa0f4", "fusion_lon": 0.0, "name": "67cb60769a5750f46adbe47b297fa0f4", "lat": 38.8922, "is_disabled": 0, "is_reserved": 0, "lon": -77.03977283333333, "type": "electric_scooter", "fusion_lat": 0.0, "rental_uris": {"android": "https://dc.lft.to/lastmile_qr_scan", "ios": "https://dc.lft.to/lastmile_qr_scan"}}, {"bike_id": "7454f70be715560bc2d1399a6d417bb4", "fusion_lon": 0.0, "name": "7454f70be715560bc2d1399a6d417bb4", "lat": 38.9628405, "is_disabled": 0, "is_reserved": 0, "lon": -77.010721, "type": "electric_bike", "fusion_lat": 0.0, "rental_uris": {"android": "https://dc.lft.to/lastmile_qr_scan", "ios": "https://dc.lft.to/lastmile_qr_scan"}}, {"bike_id": "2a8f5cd49b453e5dd7091caf9eef1578", "fusion_lon": 0.0, "name": "2a8f5cd49b453e5dd7091caf9eef1578", "lat": 38.91478383333333, "is_disabled": 0, "is_reserved": 0, "lon": -77.008723, "type": "electric_scooter", "fusion_lat": 0.0, "rental_uris": {"android": "https://dc.lft.to/lastmile_qr_scan", "ios": "https://dc.lft.to/lastmile_qr_scan"}}, {"bike_id": "1231162cebbfefffa73333a8464d4739", "fusion_lon": 0.0, "name": "1231162cebbfefffa73333a8464d4739", "lat": 38.900110833333336, "is_disabled": 0, "is_reserved": 0, "lon": -76.9879495, "type": "electric_scooter", "fusion_lat": 0.0, "rental_uris": {"android": "https://dc.lft.to/lastmile_qr_scan", "ios": "https://dc.lft.to/lastmile_qr_scan"}}, {"bike_id": "5c60cfab52e6e44be5ed0f1e6f8f5d4c", "fusion_lon": 0.0, "name": "5c60cfab52e6e44be5ed0f1e6f8f5d4c", "lat": 38.908123833333335, "is_disabled": 0, "is_reserved": 0, "lon": -77.03945966666667, "type": "electric_scooter", "fusion_lat": 0.0, "rental_uris": {"android": "https://dc.lft.to/lastmile_qr_scan", "ios": "https://dc.lft.to/lastmile_qr_scan"}}, {"bike_id": "6c4c87edd906598cec41cf9d7aab2b5f", "fusion_lon": 0.0, "name": "6c4c87edd906598cec41cf9d7aab2b5f", "lat": 39.08452233333333, "is_disabled": 0, "is_reserved": 0, "lon": -76.9519595, "type": "electric_bike", "fusion_lat": 0.0, "rental_uris": {"android": "https://dc.lft.to/lastmile_qr_scan", "ios": "https://dc.lft.to/lastmile_qr_scan"}}, {"bike_id": "5537eda88541666a367012b8ad32aa72", "fusion_lon": 0.0, "name": "5537eda88541666a367012b8ad32aa72", "lat": 38.93484616666667, "is_disabled": 0, "is_reserved": 0, "lon": -77.04531933333334, "type": "electric_scooter", "fusion_lat": 0.0, "rental_uris": {"android": "https://dc.lft.to/lastmile_qr_scan", "ios": "https://dc.lft.to/lastmile_qr_scan"}}, {"bike_id": "0fef2ed317658429fac9e8ab98c0bbd3", "fusion_lon": 0.0, "name": "0fef2ed317658429fac9e8ab98c0bbd3", "lat": 38.923945, "is_disabled": 0, "is_reserved": 0, "lon": -77.025438, "type": "electric_scooter", "fusion_lat": 0.0, "rental_uris": {"android": "https://dc.lft.to/lastmile_qr_scan", "ios": "https://dc.lft.to/lastmile_qr_scan"}}, {"bike_id": "5a97c61a509a6ab8eace826e797e512c", "fusion_lon": 0.0, "name": "5a97c61a509a6ab8eace826e797e512c", "lat": 38.83143183333333, "is_disabled": 0, "is_reserved": 0, "lon": -77.00847333333333, "type": "electric_scooter", "fusion_lat": 0.0, "rental_uris": {"android": "https://dc.lft.to/lastmile_qr_scan", "ios": "https://dc.lft.to/lastmile_qr_scan"}}, {"bike_id": "7fcbc3923861f3686b0d8748e095f201", "fusion_lon": 0.0, "name": "7fcbc3923861f3686b0d8748e095f201", "lat": 38.898697166666665, "is_disabled": 0, "is_reserved": 0, "lon": -76.931862, "type": "electric_scooter", "fusion_lat": 0.0, "rental_uris": {"android": "https://dc.lft.to/lastmile_qr_scan", "ios": "https://dc.lft.to/lastmile_qr_scan"}}, {"bike_id": "7ea7e050fb5385223974bfc470eb79e1", "fusion_lon": 0.0, "name": "7ea7e050fb5385223974bfc470eb79e1", "lat": 38.87395133333333, "is_disabled": 0, "is_reserved": 0, "lon": -77.00015766666667, "type": "electric_scooter", "fusion_lat": 0.0, "rental_uris": {"android": "https://dc.lft.to/lastmile_qr_scan", "ios": "https://dc.lft.to/lastmile_qr_scan"}}, {"bike_id": "d46034c54ebbc8fd15f36cd72e23ee17", "fusion_lon": 0.0, "name": "d46034c54ebbc8fd15f36cd72e23ee17", "lat": 38.9072085, "is_disabled": 0, "is_reserved": 0, "lon": -77.03441933333333, "type": "electric_scooter", "fusion_lat": 0.0, "rental_uris": {"android": "https://dc.lft.to/lastmile_qr_scan", "ios": "https://dc.lft.to/lastmile_qr_scan"}}, {"bike_id": "63d539f468766d6c3e90f552deb3571d", "fusion_lon": 0.0, "name": "63d539f468766d6c3e90f552deb3571d", "lat": 38.92273433333333, "is_disabled": 0, "is_reserved": 0, "lon": -77.04237933333333, "type": "electric_scooter", "fusion_lat": 0.0, "rental_uris": {"android": "https://dc.lft.to/lastmile_qr_scan", "ios": "https://dc.lft.to/lastmile_qr_scan"}}, {"bike_id": "260d230916cae58c3c7767460d64db27", "fusion_lon": 0.0, "name": "260d230916cae58c3c7767460d64db27", "lat": 38.92442416666667, "is_disabled": 0, "is_reserved": 0, "lon": -77.02709766666666, "type": "electric_scooter", "fusion_lat": 0.0, "rental_uris": {"android": "https://dc.lft.to/lastmile_qr_scan", "ios": "https://dc.lft.to/lastmile_qr_scan"}}, {"bike_id": "f0faf60e5023c3cc846f4fc7265f65a6", "fusion_lon": 0.0, "name": "f0faf60e5023c3cc846f4fc7265f65a6", "lat": 38.89397, "is_disabled": 0, "is_reserved": 0, "lon": -76.99159116666667, "type": "electric_scooter", "fusion_lat": 0.0, "rental_uris": {"android": "https://dc.lft.to/lastmile_qr_scan", "ios": "https://dc.lft.to/lastmile_qr_scan"}}, {"bike_id": "eddec1a1cff1960e36d64827166f9604", "fusion_lon": 0.0, "name": "eddec1a1cff1960e36d64827166f9604", "lat": 38.926688166666665, "is_disabled": 0, "is_reserved": 0, "lon": -77.04287766666667, "type": "electric_scooter", "fusion_lat": 0.0, "rental_uris": {"android": "https://dc.lft.to/lastmile_qr_scan", "ios": "https://dc.lft.to/lastmile_qr_scan"}}, {"bike_id": "162da9962ec155fc312873d4e2f7a7df", "fusion_lon": 0.0, "name": "162da9962ec155fc312873d4e2f7a7df", "lat": 38.922525666666665, "is_disabled": 0, "is_reserved": 0, "lon": -77.0091505, "type": "electric_scooter", "fusion_lat": 0.0, "rental_uris": {"android": "https://dc.lft.to/lastmile_qr_scan", "ios": "https://dc.lft.to/lastmile_qr_scan"}}, {"bike_id": "2a2921b1f1589e4db83a82ba0ae5b3ef", "fusion_lon": 0.0, "name": "2a2921b1f1589e4db83a82ba0ae5b3ef", "lat": 38.831565833333336, "is_disabled": 0, "is_reserved": 0, "lon": -76.99544183333333, "type": "electric_bike", "fusion_lat": 0.0, "rental_uris": {"android": "https://dc.lft.to/lastmile_qr_scan", "ios": "https://dc.lft.to/lastmile_qr_scan"}}, {"bike_id": "3fb75e7891d416a7b3ca4671da81fb76", "fusion_lon": 0.0, "name": "3fb75e7891d416a7b3ca4671da81fb76", "lat": 38.89223783333333, "is_disabled": 0, "is_reserved": 0, "lon": -77.03149116666667, "type": "electric_scooter", "fusion_lat": 0.0, "rental_uris": {"android": "https://dc.lft.to/lastmile_qr_scan", "ios": "https://dc.lft.to/lastmile_qr_scan"}}, {"bike_id": "9d49aa5a2b6d13eb461cb399b8438db2", "fusion_lon": 0.0, "name": "9d49aa5a2b6d13eb461cb399b8438db2", "lat": 38.9003375, "is_disabled": 0, "is_reserved": 0, "lon": -76.97230166666667, "type": "electric_bike", "fusion_lat": 0.0, "rental_uris": {"android": "https://dc.lft.to/lastmile_qr_scan", "ios": "https://dc.lft.to/lastmile_qr_scan"}}, {"bike_id": "18cb1f3a9a1b4f62e50f94f19d76cc81", "fusion_lon": 0.0, "name": "18cb1f3a9a1b4f62e50f94f19d76cc81", "lat": 38.938505166666666, "is_disabled": 0, "is_reserved": 0, "lon": -77.02555133333334, "type": "electric_scooter", "fusion_lat": 0.0, "rental_uris": {"android": "https://dc.lft.to/lastmile_qr_scan", "ios": "https://dc.lft.to/lastmile_qr_scan"}}, {"bike_id": "520192a5c48f6023ef4f8d6e9114d456", "fusion_lon": 0.0, "name": "520192a5c48f6023ef4f8d6e9114d456", "lat": 38.876931166666665, "is_disabled": 0, "is_reserved": 0, "lon": -77.00409183333333, "type": "electric_scooter", "fusion_lat": 0.0, "rental_uris": {"android": "https://dc.lft.to/lastmile_qr_scan", "ios": "https://dc.lft.to/lastmile_qr_scan"}}, {"bike_id": "0f523da67c65139d68795ec4f0282105", "fusion_lon": 0.0, "name": "0f523da67c65139d68795ec4f0282105", "lat": 38.913955666666666, "is_disabled": 0, "is_reserved": 0, "lon": -77.04172766666667, "type": "electric_scooter", "fusion_lat": 0.0, "rental_uris": {"android": "https://dc.lft.to/lastmile_qr_scan", "ios": "https://dc.lft.to/lastmile_qr_scan"}}, {"bike_id": "baa8f1e6ede5c08c2c850e92314a9225", "fusion_lon": 0.0, "name": "baa8f1e6ede5c08c2c850e92314a9225", "lat": 38.90566616666667, "is_disabled": 0, "is_reserved": 0, "lon": -77.04354533333333, "type": "electric_scooter", "fusion_lat": 0.0, "rental_uris": {"android": "https://dc.lft.to/lastmile_qr_scan", "ios": "https://dc.lft.to/lastmile_qr_scan"}}, {"bike_id": "a9447cac9ae309d5afc3ce1e901b92ab", "fusion_lon": 0.0, "name": "a9447cac9ae309d5afc3ce1e901b92ab", "lat": 38.91530916666667, "is_disabled": 0, "is_reserved": 0, "lon": -77.012245, "type": "electric_scooter", "fusion_lat": 0.0, "rental_uris": {"android": "https://dc.lft.to/lastmile_qr_scan", "ios": "https://dc.lft.to/lastmile_qr_scan"}}, {"bike_id": "68559f364714d8accba5dd8f9be3aaf8", "fusion_lon": 0.0, "name": "68559f364714d8accba5dd8f9be3aaf8", "lat": 38.905523333333335, "is_disabled": 0, "is_reserved": 0, "lon": -77.00590366666667, "type": "electric_scooter", "fusion_lat": 0.0, "rental_uris": {"android": "https://dc.lft.to/lastmile_qr_scan", "ios": "https://dc.lft.to/lastmile_qr_scan"}}, {"bike_id": "5707be2542d46035138ce9f42a51f455", "fusion_lon": 0.0, "name": "5707be2542d46035138ce9f42a51f455", "lat": 38.90373833333334, "is_disabled": 0, "is_reserved": 0, "lon": -77.04036766666667, "type": "electric_scooter", "fusion_lat": 0.0, "rental_uris": {"android": "https://dc.lft.to/lastmile_qr_scan", "ios": "https://dc.lft.to/lastmile_qr_scan"}}, {"bike_id": "6c86792c285aae7d2706da75a20baa9f", "fusion_lon": 0.0, "name": "6c86792c285aae7d2706da75a20baa9f", "lat": 38.90026733333333, "is_disabled": 0, "is_reserved": 0, "lon": -76.97229383333334, "type": "electric_bike", "fusion_lat": 0.0, "rental_uris": {"android": "https://dc.lft.to/lastmile_qr_scan", "ios": "https://dc.lft.to/lastmile_qr_scan"}}, {"bike_id": "762975f69d25cff41987a131f5bf80be", "fusion_lon": 0.0, "name": "762975f69d25cff41987a131f5bf80be", "lat": 38.877044, "is_disabled": 0, "is_reserved": 0, "lon": -77.0043385, "type": "electric_scooter", "fusion_lat": 0.0, "rental_uris": {"android": "https://dc.lft.to/lastmile_qr_scan", "ios": "https://dc.lft.to/lastmile_qr_scan"}}, {"bike_id": "f57c14ea2098c3fe5d43b2eaa0f476ab", "fusion_lon": 0.0, "name": "f57c14ea2098c3fe5d43b2eaa0f476ab", "lat": 38.90495466666667, "is_disabled": 0, "is_reserved": 0, "lon": -77.061264, "type": "electric_scooter", "fusion_lat": 0.0, "rental_uris": {"android": "https://dc.lft.to/lastmile_qr_scan", "ios": "https://dc.lft.to/lastmile_qr_scan"}}, {"bike_id": "57ece86a81d80758c7364f0be7724e8a", "fusion_lon": 0.0, "name": "57ece86a81d80758c7364f0be7724e8a", "lat": 38.90144133333333, "is_disabled": 0, "is_reserved": 0, "lon": -77.03273133333333, "type": "electric_scooter", "fusion_lat": 0.0, "rental_uris": {"android": "https://dc.lft.to/lastmile_qr_scan", "ios": "https://dc.lft.to/lastmile_qr_scan"}}, {"bike_id": "f9c80bfcf2e2378e07616e10d94f3061", "fusion_lon": 0.0, "name": "f9c80bfcf2e2378e07616e10d94f3061", "lat": 38.904832, "is_disabled": 0, "is_reserved": 0, "lon": -77.03477166666667, "type": "electric_scooter", "fusion_lat": 0.0, "rental_uris": {"android": "https://dc.lft.to/lastmile_qr_scan", "ios": "https://dc.lft.to/lastmile_qr_scan"}},