{"data": {"bikes": [{"fusion_lat": 0.0, "name": "83ce10ca5c012fbe21aebb2d79310cb1", "is_disabled": 0, "rental_uris": {"android": "https://dc.lft.to/lastmile_qr_scan", "ios": "https://dc.lft.to/lastmile_qr_scan"}, "fusion_lon": 0.0, "lat": 38.92727766666667, "bike_id": "83ce10ca5c012fbe21aebb2d79310cb1", "type": "electric_scooter", "is_reserved": 0, "lon": -77.03066883333334}, {"fusion_lat": 0.0, "name": "0a707e7f007890a51e980d41d91e249c", "is_disabled": 0, "rental_uris": {"android": "https://dc.lft.to/lastmile_qr_scan", "ios": "https://dc.lft.to/lastmile_qr_scan"}, "fusion_lon": 0.0, "lat": 38.87369116666667, "bike_id": "0a707e7f007890a51e980d41d91e249c", "type": "electric_scooter", "is_reserved": 0, "lon": -77.00124083333333}, {"fusion_lat": 0.0, "name": "298f890b528fccc600ccf9b523a904f9", "is_disabled": 0, "rental_uris": {"android": "https://dc.lft.to/lastmile_qr_scan", "ios": "https://dc.lft.to/lastmile_qr_scan"}, "fusion_lon": 0.0, "lat": 38.812482833333334, "bike_id": "298f890b528fccc600ccf9b523a904f9", "type": "electric_bike", "is_reserved": 0, "lon": -77.11757716666666}, {"fusion_lat": 0.0, "name": "a4336f99cfb24e2b6e0d841037b20754", "is_disabled": 0, "rental_uris": {"android": "https://dc.lft.to/lastmile_qr_scan", "ios": "https://dc.lft.to/lastmile_qr_scan"}, "fusion_lon": 0.0, "lat": 38.807047, "bike_id": "a4336f99cfb24e2b6e0d841037b20754", "type": "electric_bike", "is_reserved": 0, "lon": -77.0618015}, {"fusion_lat": 0.0, "name": "631f0baa0d19d948003a08bd2bc42900", "is_disabled": 0, "rental_uris": {"android": "https://dc.lft.to/lastmile_qr_scan", "ios": "https://dc.lft.to/lastmile_qr_scan"}, "fusion_lon": 0.0, "lat": 38.892929333333335, "bike_id": "631f0baa0d19d948003a08bd2bc42900", "type": "electric_scooter", "is_reserved": 0, "lon": -76.93003716666666}, {"fusion_lat": 0.0, "name": "e46abd8516ea1d79761d03538cb152b5", "is_disabled": 0, "rental_uris": {"android": "https://dc.lft.to/lastmile_qr_scan", "ios": "https://dc.lft.to/lastmile_qr_scan"}, "fusion_lon": 0.0, "lat": 38.91778716666666, "bike_id": "e46abd8516ea1d79761d03538cb152b5", "type": "electric_scooter", "is_reserved": 0, "lon": -77.02278333333334}, {"fusion_lat": 0.0, "name": "f1b365690016fd48a21a85f42312d628", "is_disabled": 0, "rental_uris": {"android": "https://dc.lft.to/lastmile_qr_scan", "ios": "https://dc.lft.to/lastmile_qr_scan"}, "fusion_lon": 0.0, "lat": 38.90041183333334, "bike_id": "f1b365690016fd48a21a85f42312d628", "type": "electric_scooter", "is_reserved": 0, "lon": -76.99143783333334}, {"fusion_lat": 0.0, "name": "c66095cb55734e1e7ca1db69967ff9dc", "is_disabled": 0, "rental_uris": {"android": "https://dc.lft.to/lastmile_qr_scan", "ios": "https://dc.lft.to/lastmile_qr_scan"}, "fusion_lon": 0.0, "lat": 38.90398883333334, "bike_id": "c66095cb55734e1e7ca1db69967ff9dc", "type": "electric_scooter", "is_reserved": 0, "lon": -77.06808966666667}, {"fusion_lat": 0.0, "name": "ce4709c6fb9397838201e0f3286265ee", "is_disabled": 0, "rental_uris": {"android": "https://dc.lft.to/lastmile_qr_scan", "ios": "https://dc.lft.to/lastmile_qr_scan"}, "fusion_lon": 0.0, "lat": 38.92676383333333, "bike_id": "ce4709c6fb9397838201e0f3286265ee", "type": "electric_scooter", "is_reserved": 0, "lon": -77.01473033333333}, {"fusion_lat": 0.0, "name": "54739b03ffb58b5a02a7543389562a64", "is_disabled": 0, "rental_uris": {"android": "https://dc.lft.to/lastmile_qr_scan", "ios": "https://dc.lft.to/lastmile_qr_scan"}, "fusion_lon": 0.0, "lat": 38.907528, "bike_id": "54739b03ffb58b5a02a7543389562a64", "type": "electric_scooter", "is_reserved": 0, "lon": -76.93551783333334}, {"fusion_lat": 0.0, "name": "d86cfd958c761af94b74af85a88e18de", "is_disabled": 0, "rental_uris": {"android": "https://dc.lft.to/lastmile_qr_scan", "ios": "https://dc.lft.to/lastmile_qr_scan"}, "fusion_lon": 0.0, "lat": 38.819149333333336, "bike_id": "d86cfd958c761af94b74af85a88e18de", "type": "electric_bike", "is_reserved": 0, "lon": -77.04806483333333}, {"fusion_lat": 0.0, "name": "c7bbabca2bfc808fa5014bc9f76a4b63", "is_disabled": 0, "rental_uris": {"android": "https://dc.lft.to/lastmile_qr_scan", "ios": "https://dc.lft.to/lastmile_qr_scan"}, "fusion_lon": 0.0, "lat": 38.92225116666667, "bike_id": "c7bbabca2bfc808fa5014bc9f76a4b63", "type": "electric_scooter", "is_reserved": 0, "lon": -77.042519}, {"fusion_lat": 0.0, "name": "5f807f9bb46737d405b1dc8d2274d3af", "is_disabled": 0, "rental_uris": {"android": "https://dc.lft.to/lastmile_qr_scan", "ios": "https://dc.lft.to/lastmile_qr_scan"}, "fusion_lon": 0.0, "lat": 38.89223833333333, "bike_id": "5f807f9bb46737d405b1dc8d2274d3af", "type": "electric_scooter", "is_reserved": 0, "lon": -77.03339416666667}, {"fusion_lat": 0.0, "name": "f5aec400f3389d66b531c681af3869df", "is_disabled": 0, "rental_uris": {"android": "https://dc.lft.to/lastmile_qr_scan", "ios": "https://dc.lft.to/lastmile_qr_scan"}, "fusion_lon": 0.0, "lat": 38.921487666666664, "bike_id": "f5aec400f3389d66b531c681af3869df", "type": "electric_scooter", "is_reserved": 0, "lon": -77.04004383333333}, {"fusion_lat": 0.0, "name": "6e838fdc311ff1f7b851adc72e6331ce", "is_disabled": 0, "rental_uris": {"android": "https://dc.lft.to/lastmile_qr_scan", "ios": "https://dc.lft.to/lastmile_qr_scan"}, "fusion_lon": 0.0, "lat": 38.8836485, "bike_id": "6e838fdc311ff1f7b851adc72e6331ce", "type": "electric_scooter", "is_reserved": 0, "lon": -77.019647}, {"fusion_lat": 0.0, "name": "70481d656c53e4fe627a1e641d345e45", "is_disabled": 0, "rental_uris": {"android": "https://dc.lft.to/lastmile_qr_scan", "ios": "https://dc.lft.to/lastmile_qr_scan"}, "fusion_lon": 0.0, "lat": 38.941766, "bike_id": "70481d656c53e4fe627a1e641d345e45", "type": "electric_scooter", "is_reserved": 0, "lon": -77.03652383333333}, {"fusion_lat": 0.0, "name": "9ac228842650db9174969f6276697671", "is_disabled": 0, "rental_uris": {"android": "https://dc.lft.to/lastmile_qr_scan", "ios": "https://dc.lft.to/lastmile_qr_scan"}, "fusion_lon": 0.0, "lat": 38.90394383333334, "bike_id": "9ac228842650db9174969f6276697671", "type": "electric_scooter", "is_reserved": 0, "lon": -76.9900795}, {"fusion_lat": 0.0, "name": "aeef1a6a92477ef4f06f716a3c8ffa5f", "is_disabled": 0, "rental_uris": {"android": "https://dc.lft.to/lastmile_qr_scan", "ios": "https://dc.lft.to/lastmile_qr_scan"}, "fusion_lon": 0.0, "lat": 38.918220166666664, "bike_id": "aeef1a6a92477ef4f06f716a3c8ffa5f", "type": "electric_scooter", "is_reserved": 0, "lon": -77.0400225}, {"fusion_lat": 0.0, "name": "728c2bc6ce0e5d8d7a46de88ba43133e", "is_disabled": 0, "rental_uris": {"android": "https://dc.lft.to/lastmile_qr_scan", "ios": "https://dc.lft.to/lastmile_qr_scan"}, "fusion_lon": 0.0, "lat": 38.90101816666667, "bike_id": "728c2bc6ce0e5d8d7a46de88ba43133e", "type": "electric_scooter", "is_reserved": 0, "lon": -77.019791}, {"fusion_lat": 0.0, "name": "77c03f1cc2f6d57f83abf990ddab65cd", "is_disabled": 0, "rental_uris": {"android": "https://dc.lft.to/lastmile_qr_scan", "ios": "https://dc.lft.to/lastmile_qr_scan"}, "fusion_lon": 0.0, "lat": 38.8580095, "bike_id": "77c03f1cc2f6d57f83abf990ddab65cd", "type": "electric_bike", "is_reserved": 0, "lon": -76.9874105}, {"fusion_lat": 0.0, "name": "884d216e16cd4106c233b6d7f3460c29", "is_disabled": 0, "rental_uris": {"android": "https://dc.lft.to/lastmile_qr_scan", "ios": "https://dc.lft.to/lastmile_qr_scan"}, "fusion_lon": 0.0, "lat": 38.923707, "bike_id": "884d216e16cd4106c233b6d7f3460c29", "type": "electric_scooter", "is_reserved": 0, "lon": -77.0361705}, {"fusion_lat": 0.0, "name": "ce54ced38b050f38d063a4b5dcc987ab", "is_disabled": 0, "rental_uris": {"android": "https://dc.lft.to/lastmile_qr_scan", "ios": "https://dc.lft.to/lastmile_qr_scan"}, "fusion_lon": 0.0, "lat": 38.920576, "bike_id": "ce54ced38b050f38d063a4b5dcc987ab", "type": "electric_scooter", "is_reserved": 0, "lon": -77.0323555}, {"fusion_lat": 0.0, "name": "718839610f34d702f115444743b3c839", "is_disabled": 0, "rental_uris": {"android": "https://dc.lft.to/lastmile_qr_scan", "ios": "https://dc.lft.to/lastmile_qr_scan"}, "fusion_lon": 0.0, "lat": 38.92200533333333, "bike_id": "718839610f34d702f115444743b3c839", "type": "electric_scooter", "is_reserved": 0, "lon": -76.99679066666667}, {"fusion_lat": 0.0, "name": "2f46f20ffa12910920436191ab72a9a3", "is_disabled": 0, "rental_uris": {"android": "https://dc.lft.to/lastmile_qr_scan", "ios": "https://dc.lft.to/lastmile_qr_scan"}, "fusion_lon": 0.0, "lat": 38.895458166666664, "bike_id": "2f46f20ffa12910920436191ab72a9a3", "type": "electric_scooter", "is_reserved": 0, "lon": -76.98337616666667}, {"fusion_lat": 0.0, "name": "1cffafed75c8c8a0e37fb5c1b2bf3c9c", "is_disabled": 0, "rental_uris": {"android": "https://dc.lft.to/lastmile_qr_scan", "ios": "https://dc.lft.to/lastmile_qr_scan"}, "fusion_lon": 0.0, "lat": 38.8625315, "bike_id": "1cffafed75c8c8a0e37fb5c1b2bf3c9c", "type": "electric_bike", "is_reserved": 0, "lon": -76.98331716666667}, {"fusion_lat": 0.0, "name": "9b3d2d549427d8a5ee1e144d51169dab", "is_disabled": 0, "rental_uris": {"android": "https://dc.lft.to/lastmile_qr_scan", "ios": "https://dc.lft.to/lastmile_qr_scan"}, "fusion_lon": 0.0, "lat": 38.82192833333333, "bike_id": "9b3d2d549427d8a5ee1e144d51169dab", "type": "electric_bike", "is_reserved": 0, "lon": -77.00140033333334}, {"fusion_lat": 0.0, "name": "3ed1ddb875aef4d2529708c7ce301575", "is_disabled": 0, "rental_uris": {"android": "https://dc.lft.to/lastmile_qr_scan", "ios": "https://dc.lft.to/lastmile_qr_scan"}, "fusion_lon": 0.0, "lat": 38.896060166666665, "bike_id": "3ed1ddb875aef4d2529708c7ce301575", "type": "electric_scooter", "is_reserved": 0, "lon": -77.009301}, {"fusion_lat": 0.0, "name": "a1b8ac1c93d2ff008b59cd0ee1b54519", "is_disabled": 0, "rental_uris": {"android": "https://dc.lft.to/lastmile_qr_scan", "ios": "https://dc.lft.to/lastmile_qr_scan"}, "fusion_lon": 0.0, "lat": 38.917687, "bike_id": "a1b8ac1c93d2ff008b59cd0ee1b54519", "type": "electric_scooter", "is_reserved": 0, "lon": -77.0147675}, {"fusion_lat": 0.0, "name": "cdcbde0a120cca68780bc1bd361f0c08", "is_disabled": 0, "rental_uris": {"android": "https://dc.lft.to/lastmile_qr_scan", "ios": "https://dc.lft.to/lastmile_qr_scan"}, "fusion_lon": 0.0, "lat": 38.94303216666667, "bike_id": "cdcbde0a120cca68780bc1bd361f0c08", "type": "electric_scooter", "is_reserved": 0, "lon": -77.06131216666667}, {"fusion_lat": 0.0, "name": "409763eba5ec6a5bf4c57b14ff40c19e", "is_disabled": 0, "rental_uris": {"android": "https://dc.lft.to/lastmile_qr_scan", "ios": "https://dc.lft.to/lastmile_qr_scan"}, "fusion_lon": 0.0, "lat": 38.90139283333333, "bike_id": "409763eba5ec6a5bf4c57b14ff40c19e", "type": "electric_scooter", "is_reserved": 0, "lon": -76.98417483333333}, {"fusion_lat": 0.0, "name": "e83835eda5587aea6df01405fa624dd1", "is_disabled": 0, "rental_uris": {"android": "https://dc.lft.to/lastmile_qr_scan", "ios": "https://dc.lft.to/lastmile_qr_scan"}, "fusion_lon": 0.0, "lat": 38.9520155, "bike_id": "e83835eda5587aea6df01405fa624dd1", "type": "electric_scooter", "is_reserved": 0, "lon": -77.068358}, {"fusion_lat": 0.0, "name": "3e95624162317de2c6c7150e89c134dd", "is_disabled": 0, "rental_uris": {"android": "https://dc.lft.to/lastmile_qr_scan", "ios": "https://dc.lft.to/lastmile_qr_scan"}, "fusion_lon": 0.0, "lat": 38.907214, "bike_id": "3e95624162317de2c6c7150e89c134dd", "type": "electric_scooter", "is_reserved": 0, "lon": -77.03600783333333}, {"fusion_lat": 0.0, "name": "3c2023fd3fe0178f97658cdbb1c62588", "is_disabled": 0, "rental_uris": {"android": "https://dc.lft.to/lastmile_qr_scan", "ios": "https://dc.lft.to/lastmile_qr_scan"}, "fusion_lon": 0.0, "lat": 38.892177, "bike_id": "3c2023fd3fe0178f97658cdbb1c62588", "type": "electric_scooter", "is_reserved": 0, "lon": -77.0263145}, {"fusion_lat": 0.0, "name": "6d1b0f9912adb2c2603019a73a956a9f", "is_disabled": 0, "rental_uris": {"android": "https://dc.lft.to/lastmile_qr_scan", "ios": "https://dc.lft.to/lastmile_qr_scan"}, "fusion_lon": 0.0, "lat": 38.9070225, "bike_id": "6d1b0f9912adb2c2603019a73a956a9f", "type": "electric_scooter", "is_reserved": 0, "lon": -77.034407}, {"fusion_lat": 0.0, "name": "9fc2d8cc9541377d20e37bd8333c640d", "is_disabled": 0, "rental_uris": {"android": "https://dc.lft.to/lastmile_qr_scan", "ios": "https://dc.lft.to/lastmile_qr_scan"}, "fusion_lon": 0.0, "lat": 38.91112583333334, "bike_id": "9fc2d8cc9541377d20e37bd8333c640d", "type": "electric_scooter", "is_reserved": 0, "lon": -77.04842216666667}, {"fusion_lat": 0.0, "name": "87e38cd67b62bbe243ab9bfcdb8945ab", "is_disabled": 0, "rental_uris": {"android": "https://dc.lft.to/lastmile_qr_scan", "ios": "https://dc.lft.to/lastmile_qr_scan"}, "fusion_lon": 0.0, "lat": 38.8428345, "bike_id": "87e38cd67b62bbe243ab9bfcdb8945ab", "type": "electric_bike", "is_reserved": 0, "lon": -77.04488666666667}, {"fusion_lat": 0.0, "name": "c367502e528045fe10a39289a8e2c5dd", "is_disabled": 0, "rental_uris": {"android": "https://dc.lft.to/lastmile_qr_scan", "ios": "https://dc.lft.to/lastmile_qr_scan"}, "fusion_lon": 0.0, "lat": 38.943383833333336, "bike_id": "c367502e528045fe10a39289a8e2c5dd", "type": "electric_scooter", "is_reserved": 0, "lon": -77.032434}, {"fusion_lat": 0.0, "name": "eb3b545deb18f8b95af9edeb589ea5e5", "is_disabled": 0, "rental_uris": {"android": "https://dc.lft.to/lastmile_qr_scan", "ios": "https://dc.lft.to/lastmile_qr_scan"}, "fusion_lon": 0.0, "lat": 38.899974, "bike_id": "eb3b545deb18f8b95af9edeb589ea5e5", "type": "electric_scooter", "is_reserved": 0, "lon": -76.99354816666667}, {"fusion_lat": 0.0, "name": "e2af0cc952c10b70915197eef6f6d8c6", "is_disabled": 0, "rental_uris": {"android": "https://dc.lft.to/lastmile_qr_scan", "ios": "https://dc.lft.to/lastmile_qr_scan"}, "fusion_lon": 0.0, "lat": 38.908088666666664, "bike_id": "e2af0cc952c10b70915197eef6f6d8c6", "type": "electric_scooter", "is_reserved": 0, "lon": -77.0428395}, {"fusion_lat": 0.0, "name": "40950d98a3c4eef894bb568c348ef75f", "is_disabled": 0, "rental_uris": {"android": "https://dc.lft.to/lastmile_qr_scan", "ios": "https://dc.lft.to/lastmile_qr_scan"}, "fusion_lon": 0.0, "lat": 38.90336216666667, "bike_id": "40950d98a3c4eef894bb568c348ef75f", "type": "electric_bike", "is_reserved": 0, "lon": -76.97533466666667}, {"fusion_lat": 0.0, "name": "e38bcc711cd7c9bf1050f396ee8fccbe", "is_disabled": 0, "rental_uris": {"android": "https://dc.lft.to/lastmile_qr_scan", "ios": "https://dc.lft.to/lastmile_qr_scan"}, "fusion_lon": 0.0, "lat": 38.92750366666667, "bike_id": "e38bcc711cd7c9bf1050f396ee8fccbe", "type": "electric_scooter", "is_reserved": 0, "lon": -77.024512}, {"fusion_lat": 0.0, "name": "afa89d5bf30f5c2f2c257daa02c49388", "is_disabled": 0, "rental_uris": {"android": "https://dc.lft.to/lastmile_qr_scan", "ios": "https://dc.lft.to/lastmile_qr_scan"}, "fusion_lon": 0.0, "lat": 38.95605533333333, "bike_id": "afa89d5bf30f5c2f2c257daa02c49388", "type": "electric_scooter", "is_reserved": 0, "lon": -77.0335475}, {"fusion_lat": 0.0, "name": "f0a3e0ae853b34ce48e21c6626fa35d7", "is_disabled": 0, "rental_uris": {"android": "https://dc.lft.to/lastmile_qr_scan", "ios": "https://dc.lft.to/lastmile_qr_scan"}, "fusion_lon": 0.0, "lat": 38.9201845, "bike_id": "f0a3e0ae853b34ce48e21c6626fa35d7", "type": "electric_scooter", "is_reserved": 0, "lon": -77.03225133333333}, {"fusion_lat": 0.0, "name": "10fb398d73bbf8450f2a9974a505a225", "is_disabled": 0, "rental_uris": {"android": "https://dc.lft.to/lastmile_qr_scan", "ios": "https://dc.lft.to/lastmile_qr_scan"}, "fusion_lon": 0.0, "lat": 38.85800583333334, "bike_id": "10fb398d73bbf8450f2a9974a505a225", "type": "electric_bike", "is_reserved": 0, "lon": -77.05146916666666}, {"fusion_lat": 0.0, "name": "f752e79200bd59d88351751cda59e636", "is_disabled": 0, "rental_uris": {"android": "https://dc.lft.to/lastmile_qr_scan", "ios": "https://dc.lft.to/lastmile_qr_scan"}, "fusion_lon": 0.0, "lat": 38.910361, "bike_id": "f752e79200bd59d88351751cda59e636", "type": "electric_scooter", "is_reserved": 0, "lon": -77.03320683333334}, {"fusion_lat": 0.0, "name": "ff55222fa087f8d6bc8eec6a3d5f5c5f", "is_disabled": 0, "rental_uris": {"android": "https://dc.lft.to/lastmile_qr_scan", "ios": "https://dc.lft.to/lastmile_qr_scan"}, "fusion_lon": 0.0, "lat": 38.91552016666667, "bike_id": "ff55222fa087f8d6bc8eec6a3d5f5c5f", "type": "electric_scooter", "is_reserved": 0, "lon": -77.02208983333334}, {"fusion_lat": 0.0, "name": "4230a3b1889dedb685c5fe60e6c5b778", "is_disabled": 0, "rental_uris": {"android": "https://dc.lft.to/lastmile_qr_scan", "ios": "https://dc.lft.to/lastmile_qr_scan"}, "fusion_lon": 0.0, "lat": 38.965947666666665, "bike_id": "4230a3b1889dedb685c5fe60e6c5b778", "type": "electric_scooter", "is_reserved": 0, "lon": -77.0159835}, {"fusion_lat": 0.0, "name": "e3466f6d89c4c1392a62ab67e0137cb2", "is_disabled": 0, "rental_uris": {"android": "https://dc.lft.to/lastmile_qr_scan", "ios": "https://dc.lft.to/lastmile_qr_scan"}, "fusion_lon": 0.0, "lat": 38.910078, "bike_id": "e3466f6d89c4c1392a62ab67e0137cb2", "type": "electric_scooter", "is_reserved": 0, "lon": -77.04910816666667}, {"fusion_lat": 0.0, "name": "840054ec7a44e6deb4b95d29a9cacd70", "is_disabled": 0, "rental_uris": {"android": "https://dc.lft.to/lastmile_qr_scan", "ios": "https://dc.lft.to/lastmile_qr_scan"}, "fusion_lon": 0.0, "lat": 38.898315, "bike_id": "840054ec7a44e6deb4b95d29a9cacd70", "type": "electric_scooter", "is_reserved": 0, "lon": -77.02519533333333}, {"fusion_lat": 0.0, "name": "ff514b52063bbcfb6e41b65187cfcce4", "is_disabled": 0, "rental_uris": {"android": "https://dc.lft.to/lastmile_qr_scan", "ios": "https://dc.lft.to/lastmile_qr_scan"}, "fusion_lon": 0.0, "lat": 38.924397, "bike_id": "ff514b52063bbcfb6e41b65187cfcce4", "type": "electric_scooter", "is_reserved": 0, "lon": -76.9973425}, {"fusion_lat": 0.0, "name": "05654475ca565265004a206c7923b20f", "is_disabled": 0, "rental_uris": {"android": "https://dc.lft.to/lastmile_qr_scan", "ios": "https://dc.lft.to/lastmile_qr_scan"}, "fusion_lon": 0.0, "lat": 38.90790583333333, "bike_id": "05654475ca565265004a206c7923b20f", "type": "electric_scooter", "is_reserved": 0, "lon": -77.01104333333333}, {"fusion_lat": 0.0, "name": "9614115523021b0934e4bd45b1d6083f", "is_disabled": 0, "rental_uris": {"android": "https://dc.lft.to/lastmile_qr_scan", "ios": "https://dc.lft.to/lastmile_qr_scan"}, "fusion_lon": 0.0, "lat": 38.887704666666664, "bike_id": "9614115523021b0934e4bd45b1d6083f", "type": "electric_scooter", "is_reserved": 0, "lon": -77.02370366666666}, {"fusion_lat": 0.0, "name": "d4a2e352f4c560a84ac2edde3f838549", "is_disabled": 0, "rental_uris": {"android": "https://dc.lft.to/lastmile_qr_scan", "ios": "https://dc.lft.to/lastmile_qr_scan"}, "fusion_lon": 0.0, "lat": 38.9337685, "bike_id": "d4a2e352f4c560a84ac2edde3f838549", "type": "electric_scooter", "is_reserved": 0, "lon": -77.038905}, {"fusion_lat": 0.0, "name": "3791ca34dd41db163a6a13d4cc2b0080", "is_disabled": 0, "rental_uris": {"android": "https://dc.lft.to/lastmile_qr_scan", "ios": "https://dc.lft.to/lastmile_qr_scan"}, "fusion_lon": 0.0, "lat": 38.924922333333335, "bike_id": "3791ca34dd41db163a6a13d4cc2b0080", "type": "electric_scooter", "is_reserved": 0, "lon": -77.037614}, {"fusion_lat": 0.0, "name": "c20b52331df358ce4d9646785edfd5ce", "is_disabled": 0, "rental_uris": {"android": "https://dc.lft.to/lastmile_qr_scan", "ios": "https://dc.lft.to/lastmile_qr_scan"}, "fusion_lon": 0.0, "lat": 38.863963, "bike_id": "c20b52331df358ce4d9646785edfd5ce", "type": "electric_bike", "is_reserved": 0, "lon": -77.2011325}, {"fusion_lat": 0.0, "name": "b64387c46412d8fa2d3262de04e41c3b", "is_disabled": 0, "rental_uris": {"android": "https://dc.lft.to/lastmile_qr_scan", "ios": "https://dc.lft.to/lastmile_qr_scan"}, "fusion_lon": 0.0, "lat": 38.922360833333336, "bike_id": "b64387c46412d8fa2d3262de04e41c3b", "type": "electric_bike", "is_reserved": 0, "lon": -77.030788}, {"fusion_lat": 0.0, "name": "10eb3416fcca7fca262ea99fd8bca709", "is_disabled": 0, "rental_uris": {"android": "https://dc.lft.to/lastmile_qr_scan", "ios": "https://dc.lft.to/lastmile_qr_scan"}, "fusion_lon": 0.0, "lat": 38.88740133333334, "bike_id": "10eb3416fcca7fca262ea99fd8bca709", "type": "electric_scooter", "is_reserved": 0, "lon": -77.02128666666667}, {"fusion_lat": 0.0, "name": "e7d7f4448b729253f8778b02fb548810", "is_disabled": 0, "rental_uris": {"android": "https://dc.lft.to/lastmile_qr_scan", "ios": "https://dc.lft.to/lastmile_qr_scan"}, "fusion_lon": 0.0, "lat": 38.90239866666667, "bike_id": "e7d7f4448b729253f8778b02fb548810", "type": "electric_scooter", "is_reserved": 0, "lon": -77.02609383333333}, {"fusion_lat": 0.0, "name": "dbedfaa3dd93c7cc4c78abaca6de5b2e", "is_disabled": 0, "rental_uris": {"android": "https://dc.lft.to/lastmile_qr_scan", "ios": "https://dc.lft.to/lastmile_qr_scan"}, "fusion_lon": 0.0, "lat": 38.90574133333333, "bike_id": "dbedfaa3dd93c7cc4c78abaca6de5b2e", "type": "electric_scooter", "is_reserved": 0, "lon": -77.02413733333333}, {"fusion_lat": 0.0, "name": "b68b59f43f3ab02a5b4f43c807213657", "is_disabled": 0, "rental_uris": {"android": "https://dc.lft.to/lastmile_qr_scan", "ios": "https://dc.lft.to/lastmile_qr_scan"}, "fusion_lon": 0.0, "lat": 38.93354716666666, "bike_id": "b68b59f43f3ab02a5b4f43c807213657", "type": "electric_scooter", "is_reserved": 0, "lon": -77.02498766666666}, {"fusion_lat": 0.0, "name": "21e2767c61ee6c893e501e63688e1eab", "is_disabled": 0, "rental_uris": {"android": "https://dc.lft.to/lastmile_qr_scan", "ios": "https://dc.lft.to/lastmile_qr_scan"}, "fusion_lon": 0.0, "lat": 38.96121633333333, "bike_id": "21e2767c61ee6c893e501e63688e1eab", "type": "electric_scooter", "is_reserved": 0, "lon": -77.02789333333334}, {"fusion_lat": 0.0, "name": "9c80e3babc909c4fa6f1bcab8780412d", "is_disabled": 0, "rental_uris": {"android": "https://dc.lft.to/lastmile_qr_scan", "ios": "https://dc.lft.to/lastmile_qr_scan"}, "fusion_lon": 0.0, "lat": 38.92979, "bike_id": "9c80e3babc909c4fa6f1bcab8780412d", "type": "electric_scooter", "is_reserved": 0, "lon": -77.0323555}, {"fusion_lat": 0.0, "name": "0b8cd73601f73873461e49c51c855ddf", "is_disabled": 0, "rental_uris": {"android": "https://dc.lft.to/lastmile_qr_scan", "ios": "https://dc.lft.to/lastmile_qr_scan"}, "fusion_lon": 0.0, "lat": 38.927473, "bike_id": "0b8cd73601f73873461e49c51c855ddf", "type": "electric_scooter", "is_reserved": 0, "lon": -77.03273283333333}, {"fusion_lat": 0.0, "name": "4a49ad8cf30cf543765af8fcc4c2475a", "is_disabled": 0, "rental_uris": {"android": "https://dc.lft.to/lastmile_qr_scan", "ios": "https://dc.lft.to/lastmile_qr_scan"}, "fusion_lon": 0.0, "lat": 38.90558333333333, "bike_id": "4a49ad8cf30cf543765af8fcc4c2475a", "type": "electric_scooter", "is_reserved": 0, "lon": -77.00586816666667}, {"fusion_lat": 0.0, "name": "7db9fad207670a2332f97fb4a2f0d4d4", "is_disabled": 0, "rental_uris": {"android": "https://dc.lft.to/lastmile_qr_scan", "ios": "https://dc.lft.to/lastmile_qr_scan"}, "fusion_lon": 0.0, "lat": 38.93320666666666, "bike_id": "7db9fad207670a2332f97fb4a2f0d4d4", "type": "electric_scooter", "is_reserved": 0, "lon": -77.038125}, {"fusion_lat": 0.0, "name": "12822d95296e6aaa91412d43078c7847", "is_disabled": 0, "rental_uris": {"android": "https://dc.lft.to/lastmile_qr_scan", "ios": "https://dc.lft.to/lastmile_qr_scan"}, "fusion_lon": 0.0, "lat": 38.8922315, "bike_id": "12822d95296e6aaa91412d43078c7847", "type": "electric_scooter", "is_reserved": 0, "lon": -77.04190733333333}, {"fusion_lat": 0.0, "name": "1d05b4ee43dace2183fdfa5fd1854c89", "is_disabled": 0, "rental_uris": {"android": "https://dc.lft.to/lastmile_qr_scan", "ios": "https://dc.lft.to/lastmile_qr_scan"}, "fusion_lon": 0.0, "lat": 38.923133, "bike_id": "1d05b4ee43dace2183fdfa5fd1854c89", "type": "electric_scooter", "is_reserved": 0, "lon": -77.02258183333333}, {"fusion_lat": 0.0, "name": "aa974139097da04743a30e33f2949801", "is_disabled": 0, "rental_uris": {"android": "https://dc.lft.to/lastmile_qr_scan", "ios": "https://dc.lft.to/lastmile_qr_scan"}, "fusion_lon": 0.0, "lat": 38.90723533333333, "bike_id": "aa974139097da04743a30e33f2949801", "type": "electric_scooter", "is_reserved": 0, "lon": -77.04985666666667}, {"fusion_lat": 0.0, "name": "4e30ca76434e5149e991f4d67bfcd7e9", "is_disabled": 0, "rental_uris": {"android": "https://dc.lft.to/lastmile_qr_scan", "ios": "https://dc.lft.to/lastmile_qr_scan"}, "fusion_lon": 0.0, "lat": 38.9156935, "bike_id": "4e30ca76434e5149e991f4d67bfcd7e9", "type": "electric_scooter", "is_reserved": 0, "lon": -77.03179266666666}, {"fusion_lat": 0.0, "name": "147d9e8b66fe13a8b760e371e79c88b7", "is_disabled": 0, "rental_uris": {"android": "https://dc.lft.to/lastmile_qr_scan", "ios": "https://dc.lft.to/lastmile_qr_scan"}, "fusion_lon": 0.0, "lat": 38.90392766666667, "bike_id": "147d9e8b66fe13a8b760e371e79c88b7", "type": "electric_scooter", "is_reserved": 0, "lon": -77.0248085}, {"fusion_lat": 0.0, "name": "f708d0a1a182a29b841964acfcd8da0a", "is_disabled": 0, "rental_uris": {"android": "https://dc.lft.to/lastmile_qr_scan", "ios": "https://dc.lft.to/lastmile_qr_scan"}, "fusion_lon": 0.0, "lat": 38.920097, "bike_id": "f708d0a1a182a29b841964acfcd8da0a", "type": "electric_scooter", "is_reserved": 0, "lon": -77.03241}, {"fusion_lat": 0.0, "name": "8b268b237746e427777530cec0cefb38", "is_disabled": 0, "rental_uris": {"android": "https://dc.lft.to/lastmile_qr_scan", "ios": "https://dc.lft.to/lastmile_qr_scan"}, "fusion_lon": 0.0, "lat": 38.92067133333333, "bike_id": "8b268b237746e427777530cec0cefb38", "type": "electric_scooter", "is_reserved": 0, "lon": -77.0221215}, {"fusion_lat": 0.0, "name": "48a96898af0bfebb07423779124c1293", "is_disabled": 0, "rental_uris": {"android": "https://dc.lft.to/lastmile_qr_scan", "ios": "https://dc.lft.to/lastmile_qr_scan"}, "fusion_lon": 0.0, "lat": 38.886234333333334, "bike_id": "48a96898af0bfebb07423779124c1293", "type": "electric_scooter", "is_reserved": 0, "lon": -77.02813533333334}, {"fusion_lat": 0.0, "name": "b55dd6e5694a849da7c3e0529f50bb1e", "is_disabled": 0, "rental_uris": {"android": "https://dc.lft.to/lastmile_qr_scan", "ios": "https://dc.lft.to/lastmile_qr_scan"}, "fusion_lon": 0.0, "lat": 38.89228383333333, "bike_id": "b55dd6e5694a849da7c3e0529f50bb1e", "type": "electric_scooter", "is_reserved": 0, "lon": -77.04093266666666}, {"fusion_lat": 0.0, "name": "99141dc7524d5e077ebcd5a74b3919e4", "is_disabled": 0, "rental_uris": {"android": "https://dc.lft.to/lastmile_qr_scan", "ios": "https://dc.lft.to/lastmile_qr_scan"}, "fusion_lon": 0.0, "lat": 38.91497716666667, "bike_id": "99141dc7524d5e077ebcd5a74b3919e4", "type": "electric_scooter", "is_reserved": 0, "lon": -77.0122125}, {"fusion_lat": 0.0, "name": "e274b0c9e9296b3abb29aff12da1c289", "is_disabled": 0, "rental_uris": {"android": "https://dc.lft.to/lastmile_qr_scan", "ios": "https://dc.lft.to/lastmile_qr_scan"}, "fusion_lon": 0.0, "lat": 39.0360365, "bike_id": "e274b0c9e9296b3abb29aff12da1c289", "type": "electric_bike", "is_reserved": 0, "lon": -77.05537783333334}, {"fusion_lat": 0.0, "name": "e78c3502060e8ed64e95ef0cfdd7c43f", "is_disabled": 0, "rental_uris": {"android": "https://dc.lft.to/lastmile_qr_scan", "ios": "https://dc.lft.to/lastmile_qr_scan"}, "fusion_lon": 0.0, "lat": 38.916854, "bike_id": "e78c3502060e8ed64e95ef0cfdd7c43f", "type": "electric_scooter", "is_reserved": 0, "lon": -77.02277766666667}, {"fusion_lat": 0.0, "name": "527a947ce8bb77c2008ab9d5e895e845", "is_disabled": 0, "rental_uris": {"android": "https://dc.lft.to/lastmile_qr_scan", "ios": "https://dc.lft.to/lastmile_qr_scan"}, "fusion_lon": 0.0, "lat": 38.91576766666667, "bike_id": "527a947ce8bb77c2008ab9d5e895e845", "type": "electric_scooter", "is_reserved": 0, "lon": -77.0105615}, {"fusion_lat": 0.0, "name": "1d2f87238a2856979447ccda1da3e7d3", "is_disabled": 0, "rental_uris": {"android": "https://dc.lft.to/lastmile_qr_scan", "ios": "https://dc.lft.to/lastmile_qr_scan"}, "fusion_lon": 0.0, "lat": 38.8922355, "bike_id": "1d2f87238a2856979447ccda1da3e7d3", "type": "electric_scooter", "is_reserved": 0, "lon": -77.02224666666666}, {"fusion_lat": 0.0, "name": "24f4d434f511d1cdd90830387a6203ce", "is_disabled": 0, "rental_uris": {"android": "https://dc.lft.to/lastmile_qr_scan", "ios": "https://dc.lft.to/lastmile_qr_scan"}, "fusion_lon": 0.0, "lat": 38.92500166666667, "bike_id": "24f4d434f511d1cdd90830387a6203ce", "type": "electric_scooter", "is_reserved": 0, "lon": -77.02149216666666}, {"fusion_lat": 0.0, "name": "efe968ec1811a297a9eae7d79cc91ca7", "is_disabled": 0, "rental_uris": {"android": "https://dc.lft.to/lastmile_qr_scan", "ios": "https://dc.lft.to/lastmile_qr_scan"}, "fusion_lon": 0.0, "lat": 38.912006833333336, "bike_id": "efe968ec1811a297a9eae7d79cc91ca7", "type": "electric_scooter", "is_reserved": 0, "lon": -77.036006}, {"fusion_lat": 0.0, "name": "07d57c8350e18def83c10fb03c47518c", "is_disabled": 0, "rental_uris": {"android": "https://dc.lft.to/lastmile_qr_scan", "ios": "https://dc.lft.to/lastmile_qr_scan"}, "fusion_lon": 0.0, "lat": 39.0705425, "bike_id": "07d57c8350e18def83c10fb03c47518c", "type": "electric_bike", "is_reserved": 0, "lon": -77.11478733333334}, {"fusion_lat": 0.0, "name": "eb0afc3e41fbf1c2823d617292eb9d6e", "is_disabled": 0, "rental_uris": {"android": "https://dc.lft.to/lastmile_qr_scan", "ios": "https://dc.lft.to/lastmile_qr_scan"}, "fusion_lon": 0.0, "lat": 38.914848166666665, "bike_id": "eb0afc3e41fbf1c2823d617292eb9d6e", "type": "electric_scooter", "is_reserved": 0, "lon": -77.0424755}, {"fusion_lat": 0.0, "name": "c24bf4394924a91b754bc1d9ea9d3f75", "is_disabled": 0, "rental_uris": {"android": "https://dc.lft.to/lastmile_qr_scan", "ios": "https://dc.lft.to/lastmile_qr_scan"}, "fusion_lon": 0.0, "lat": 38.89221166666667, "bike_id": "c24bf4394924a91b754bc1d9ea9d3f75", "type": "electric_scooter", "is_reserved": 0, "lon": -77.03983183333334}, {"fusion_lat": 0.0, "name": "5320f0874ba7303d376a8321ede7563e", "is_disabled": 0, "rental_uris": {"android": "https://dc.lft.to/lastmile_qr_scan", "ios": "https://dc.lft.to/lastmile_qr_scan"}, "fusion_lon": 0.0, "lat": 38.92055666666667, "bike_id": "5320f0874ba7303d376a8321ede7563e", "type": "electric_scooter", "is_reserved": 0, "lon": -77.02357966666666}, {"fusion_lat": 0.0, "name": "93277151cc3463ab6bad05c98724a6a7", "is_disabled": 0, "rental_uris": {"android": "https://dc.lft.to/lastmile_qr_scan", "ios": "https://dc.lft.to/lastmile_qr_scan"}, "fusion_lon": 0.0, "lat": 38.8989615, "bike_id": "93277151cc3463ab6bad05c98724a6a7", "type": "electric_scooter", "is_reserved": 0, "lon": -76.98064283333333}, {"fusion_lat": 0.0, "name": "e6227dd703567390edde498cf3351df8", "is_disabled": 0, "rental_uris": {"android": "https://dc.lft.to/lastmile_qr_scan", "ios": "https://dc.lft.to/lastmile_qr_scan"}, "fusion_lon": 0.0, "lat": 38.90267333333333, "bike_id": "e6227dd703567390edde498cf3351df8", "type": "electric_scooter", "is_reserved": 0, "lon": -77.01753983333333}, {"fusion_lat": 0.0, "name": "509789d5beb512808a041fc1ba094832", "is_disabled": 0, "rental_uris": {"android": "https://dc.lft.to/lastmile_qr_scan", "ios": "https://dc.lft.to/lastmile_qr_scan"}, "fusion_lon": 0.0, "lat": 38.91579016666667, "bike_id": "509789d5beb512808a041fc1ba094832", "type": "electric_scooter", "is_reserved": 0, "lon": -77.01232816666666}, {"fusion_lat": 0.0, "name": "810af112b6dc310b01f6fe3000d6a6e6", "is_disabled": 0, "rental_uris": {"android": "https://dc.lft.to/lastmile_qr_scan", "ios": "https://dc.lft.to/lastmile_qr_scan"}, "fusion_lon": 0.0, "lat": 38.90783316666667, "bike_id": "810af112b6dc310b01f6fe3000d6a6e6", "type": "electric_scooter", "is_reserved": 0, "lon": -77.0023515}, {"fusion_lat": 0.0, "name": "bf276f5f9131d1d24b1ce945c5ff2f50", "is_disabled": 0, "rental_uris": {"android": "https://dc.lft.to/lastmile_qr_scan", "ios": "https://dc.lft.to/lastmile_qr_scan"}, "fusion_lon": 0.0, "lat": 38.91380433333333, "bike_id": "bf276f5f9131d1d24b1ce945c5ff2f50", "type": "electric_scooter", "is_reserved": 0, "lon": -77.04585816666666}, {"fusion_lat": 0.0, "name": "0dedde9a6764d566115113188aa5adf7", "is_disabled": 0, "rental_uris": {"android": "https://dc.lft.to/lastmile_qr_scan", "ios": "https://dc.lft.to/lastmile_qr_scan"}, "fusion_lon": 0.0, "lat": 38.9268075, "bike_id": "0dedde9a6764d566115113188aa5adf7", "type": "electric_scooter", "is_reserved": 0, "lon": -77.05351166666667}, {"fusion_lat": 0.0, "name": "92fe5e1792718002a04a5842a4a4d317", "is_disabled": 0, "rental_uris": {"android": "https://dc.lft.to/lastmile_qr_scan", "ios": "https://dc.lft.to/lastmile_qr_scan"}, "fusion_lon": 0.0, "lat": 38.905787333333336, "bike_id": "92fe5e1792718002a04a5842a4a4d317", "type": "electric_scooter", "is_reserved": 0, "lon": -77.00892183333333}, {"fusion_lat": 0.0, "name": "c2b2067dfadf6d19004aa6abbaea0f58", "is_disabled": 0, "rental_uris": {"android": "https://dc.lft.to/lastmile_qr_scan", "ios": "https://dc.lft.to/lastmile_qr_scan"}, "fusion_lon": 0.0, "lat": 38.91138483333334, "bike_id": "c2b2067dfadf6d19004aa6abbaea0f58", "type": "electric_scooter", "is_reserved": 0, "lon": -77.03838433333334}, {"fusion_lat": 0.0, "name": "1b03be54f0c6cf321dea68eeca6b60ef", "is_disabled": 0, "rental_uris": {"android": "https://dc.lft.to/lastmile_qr_scan", "ios": "https://dc.lft.to/lastmile_qr_scan"}, "fusion_lon": 0.0, "lat": 38.892854666666665, "bike_id": "1b03be54f0c6cf321dea68eeca6b60ef", "type": "electric_scooter", "is_reserved": 0, "lon": -77.01234}, {"fusion_lat": 0.0, "name": "8108c29701108912050bfbbf401aa43c", "is_disabled": 0, "rental_uris": {"android": "https://dc.lft.to/lastmile_qr_scan", "ios": "https://dc.lft.to/lastmile_qr_scan"}, "fusion_lon": 0.0, "lat": 38.892824166666664, "bike_id": "8108c29701108912050bfbbf401aa43c", "type": "electric_scooter", "is_reserved": 0, "lon": -77.03190333333333}, {"fusion_lat": 0.0, "name": "af2a5439f0c26a7b9a1f67ec68f4b18f", "is_disabled": 0, "rental_uris": {"android": "https://dc.lft.to/lastmile_qr_scan", "ios": "https://dc.lft.to/lastmile_qr_scan"}, "fusion_lon": 0.0, "lat": 38.871631, "bike_id": "af2a5439f0c26a7b9a1f67ec68f4b18f", "type": "electric_scooter", "is_reserved": 0, "lon": -77.00569566666667}, {"fusion_lat": 0.0, "name": "cc0ea444d35c21ad8cb19bcbeaa7f486", "is_disabled": 0, "rental_uris": {"android": "https://dc.lft.to/lastmile_qr_scan", "ios": "https://dc.lft.to/lastmile_qr_scan"}, "fusion_lon": 0.0, "lat": 38.90414, "bike_id": "cc0ea444d35c21ad8cb19bcbeaa7f486", "type": "electric_scooter", "is_reserved": 0, "lon": -77.02587316666667}, {"fusion_lat": 0.0, "name": "009b3948bd5cd102a648ba4ea36b2e36", "is_disabled": 0, "rental_uris": {"android": "https://dc.lft.to/lastmile_qr_scan", "ios": "https://dc.lft.to/lastmile_qr_scan"}, "fusion_lon": 0.0, "lat": 38.86225, "bike_id": "009b3948bd5cd102a648ba4ea36b2e36", "type": "electric_bike", "is_reserved": 0, "lon": -77.060061}, {"fusion_lat": 0.0, "name": "7535bd8197e3bc413d811afcbe5143fc", "is_disabled": 0, "rental_uris": {"android": "https://dc.lft.to/lastmile_qr_scan", "ios": "https://dc.lft.to/lastmile_qr_scan"}, "fusion_lon": 0.0, "lat": 38.92849983333333, "bike_id": "7535bd8197e3bc413d811afcbe5143fc", "type": "electric_scooter", "is_reserved": 0, "lon": -77.02961833333333}, {"fusion_lat": 0.0, "name": "006d7ffee68bde9e32a26900b6c66bff", "is_disabled": 0, "rental_uris": {"android": "https://dc.lft.to/lastmile_qr_scan", "ios": "https://dc.lft.to/lastmile_qr_scan"}, "fusion_lon": 0.0, "lat": 38.86669416666667, "bike_id": "006d7ffee68bde9e32a26900b6c66bff", "type": "electric_scooter", "is_reserved": 0, "lon": -76.98909866666666}, {"fusion_lat": 0.0, "name": "fa90e69bb21428d8f7074d8a157a82cc", "is_disabled": 0, "rental_uris": {"android": "https://dc.lft.to/lastmile_qr_scan", "ios": "https://dc.lft.to/lastmile_qr_scan"}, "fusion_lon": 0.0, "lat": 38.91770366666667, "bike_id": "fa90e69bb21428d8f7074d8a157a82cc", "type": "electric_scooter", "is_reserved": 0, "lon": -77.0321795}, {"fusion_lat": 0.0, "name": "73a95dcac1de42f329f770d176fbb830", "is_disabled": 0, "rental_uris": {"android": "https://dc.lft.to/lastmile_qr_scan", "ios": "https://dc.lft.to/lastmile_qr_scan"}, "fusion_lon": 0.0, "lat": 38.929944, "bike_id": "73a95dcac1de42f329f770d176fbb830", "type": "electric_scooter", "is_reserved": 0, "lon": -77.03239233333333}, {"fusion_lat": 0.0, "name": "bb0e16ba80474b571399b73eeceae24e", "is_disabled": 0, "rental_uris": {"android": "https://dc.lft.to/lastmile_qr_scan", "ios": "https://dc.lft.to/lastmile_qr_scan"}, "fusion_lon": 0.0, "lat": 38.902999333333334, "bike_id": "bb0e16ba80474b571399b73eeceae24e", "type": "electric_scooter", "is_reserved": 0, "lon": -77.049485}, {"fusion_lat": 0.0, "name": "fab3ee61ab1ae8437874d01ed5d068a2", "is_disabled": 0, "rental_uris": {"android": "https://dc.lft.to/lastmile_qr_scan", "ios": "https://dc.lft.to/lastmile_qr_scan"}, "fusion_lon": 0.0, "lat": 38.898051333333335, "bike_id": "fab3ee61ab1ae8437874d01ed5d068a2", "type": "electric_scooter", "is_reserved": 0, "lon": -76.984668}, {"fusion_lat": 0.0, "name": "75b945b742b1c0ac244d24faf2b8b169", "is_disabled": 0, "rental_uris": {"android": "https://dc.lft.to/lastmile_qr_scan", "ios": "https://dc.lft.to/lastmile_qr_scan"}, "fusion_lon": 0.0, "lat": 38.858801666666665, "bike_id": "75b945b742b1c0ac244d24faf2b8b169", "type": "electric_bike", "is_reserved": 0, "lon": -77.095544}, {"fusion_lat": 0.0, "name": "027e928c08576635bfacf850f34bd5d4", "is_disabled": 0, "rental_uris": {"android": "https://dc.lft.to/lastmile_qr_scan", "ios": "https://dc.lft.to/lastmile_qr_scan"}, "fusion_lon": 0.0, "lat": 38.916917, "bike_id": "027e928c08576635bfacf850f34bd5d4", "type": "electric_scooter", "is_reserved": 0, "lon": -77.0385085}, {"fusion_lat": 0.0, "name": "39836290ebbff9365dd2fea419cf3053", "is_disabled": 0, "rental_uris": {"android": "https://dc.lft.to/lastmile_qr_scan", "ios": "https://dc.lft.to/lastmile_qr_scan"}, "fusion_lon": 0.0, "lat": 38.90011766666667, "bike_id": "39836290ebbff9365dd2fea419cf3053", "type": "electric_scooter", "is_reserved": 0, "lon": -76.98807416666666}, {"fusion_lat": 0.0, "name": "57c3e32ddf0beb58a40e8f4a07684a9d", "is_disabled": 0, "rental_uris": {"android": "https://dc.lft.to/lastmile_qr_scan", "ios": "https://dc.lft.to/lastmile_qr_scan"}, "fusion_lon": 0.0, "lat": 38.91799066666667, "bike_id": "57c3e32ddf0beb58a40e8f4a07684a9d", "type": "electric_scooter", "is_reserved": 0, "lon": -77.03446316666667}, {"fusion_lat": 0.0, "name": "8202d7d250c83c70f1a156ccab271d22", "is_disabled": 0, "rental_uris": {"android": "https://dc.lft.to/lastmile_qr_scan", "ios": "https://dc.lft.to/lastmile_qr_scan"}, "fusion_lon": 0.0, "lat": 38.8984365, "bike_id": "8202d7d250c83c70f1a156ccab271d22", "type": "electric_scooter", "is_reserved": 0, "lon": -77.03051716666667}, {"fusion_lat": 0.0, "name": "11437bdab02f3ccc10b7c283dc9cdd3d", "is_disabled": 0, "rental_uris": {"android": "https://dc.lft.to/lastmile_qr_scan", "ios": "https://dc.lft.to/lastmile_qr_scan"}, "fusion_lon": 0.0, "lat": 38.90220683333333, "bike_id": "11437bdab02f3ccc10b7c283dc9cdd3d", "type": "electric_scooter", "is_reserved": 0, "lon": -77.05345733333333}, {"fusion_lat": 0.0, "name": "35e278fee8a79c697bedec4739d9e3ff", "is_disabled": 0, "rental_uris": {"android": "https://dc.lft.to/lastmile_qr_scan", "ios": "https://dc.lft.to/lastmile_qr_scan"}, "fusion_lon": 0.0, "lat": 38.879419666666664, "bike_id": "35e278fee8a79c697bedec4739d9e3ff", "type": "electric_scooter", "is_reserved": 0, "lon": -77.0057315}, {"fusion_lat": 0.0, "name": "4f5112859b3fbea61fd57ae882dcdb08", "is_disabled": 0, "rental_uris": {"android": "https://dc.lft.to/lastmile_qr_scan", "ios": "https://dc.lft.to/lastmile_qr_scan"}, "fusion_lon": 0.0, "lat": 38.905019833333334, "bike_id": "4f5112859b3fbea61fd57ae882dcdb08", "type": "electric_bike", "is_reserved": 0, "lon": -76.974527}, {"fusion_lat": 0.0, "name": "7e26351cd445c654a5fceb4289fb69cc", "is_disabled": 0, "rental_uris": {"android": "https://dc.lft.to/lastmile_qr_scan", "ios": "https://dc.lft.to/lastmile_qr_scan"}, "fusion_lon": 0.0, "lat": 38.843497, "bike_id": "7e26351cd445c654a5fceb4289fb69cc", "type": "electric_bike", "is_reserved": 0, "lon": -76.97818533333333}, {"fusion_lat": 0.0, "name": "4ef1c4ae7791ced1b7dff315c351c444", "is_disabled": 0, "rental_uris": {"android": "https://dc.lft.to/lastmile_qr_scan", "ios": "https://dc.lft.to/lastmile_qr_scan"}, "fusion_lon": 0.0, "lat": 38.91785433333333, "bike_id": "4ef1c4ae7791ced1b7dff315c351c444", "type": "electric_bike", "is_reserved": 0, "lon": -77.04250983333333}, {"fusion_lat": 0.0, "name": "35e19551a0a8a75662346fe6f575a17a", "is_disabled": 0, "rental_uris": {"android": "https://dc.lft.to/lastmile_qr_scan", "ios": "https://dc.lft.to/lastmile_qr_scan"}, "fusion_lon": 0.0, "lat": 38.8965735, "bike_id": "35e19551a0a8a75662346fe6f575a17a", "type": "electric_scooter", "is_reserved": 0, "lon": -77.024709}, {"fusion_lat": 0.0, "name": "a98c88fadea17286af0f3919a2be89eb", "is_disabled": 0, "rental_uris": {"android": "https://dc.lft.to/lastmile_qr_scan", "ios": "https://dc.lft.to/lastmile_qr_scan"}, "fusion_lon": 0.0, "lat": 38.898271333333334, "bike_id": "a98c88fadea17286af0f3919a2be89eb", "type": "electric_scooter", "is_reserved": 0, "lon": -77.0335495}, {"fusion_lat": 0.0, "name": "37ede53dd038987678bc54898d731341", "is_disabled": 0, "rental_uris": {"android": "https://dc.lft.to/lastmile_qr_scan", "ios": "https://dc.lft.to/lastmile_qr_scan"}, "fusion_lon": 0.0, "lat": 38.880128166666665, "bike_id": "37ede53dd038987678bc54898d731341", "type": "electric_scooter", "is_reserved": 0, "lon": -77.02481733333333}, {"fusion_lat": 0.0, "name": "d2a002163d2a421c76c3f7086589b918", "is_disabled": 0, "rental_uris": {"android": "https://dc.lft.to/lastmile_qr_scan", "ios": "https://dc.lft.to/lastmile_qr_scan"}, "fusion_lon": 0.0, "lat": 38.9562955, "bike_id": "d2a002163d2a421c76c3f7086589b918", "type": "electric_scooter", "is_reserved": 0, "lon": -77.02838066666666}, {"fusion_lat": 0.0, "name": "7824b59e7edb5304d88a1233dc5407f2", "is_disabled": 0, "rental_uris": {"android": "https://dc.lft.to/lastmile_qr_scan", "ios": "https://dc.lft.to/lastmile_qr_scan"}, "fusion_lon": 0.0, "lat": 38.92343866666667, "bike_id": "7824b59e7edb5304d88a1233dc5407f2", "type": "electric_scooter", "is_reserved": 0, "lon": -77.05226333333333}, {"fusion_lat": 0.0, "name": "0bff6f736d9b3ee4ded294228e1a8264", "is_disabled": 0, "rental_uris": {"android": "https://dc.lft.to/lastmile_qr_scan", "ios": "https://dc.lft.to/lastmile_qr_scan"}, "fusion_lon": 0.0, "lat": 38.91572983333333, "bike_id": "0bff6f736d9b3ee4ded294228e1a8264", "type": "electric_scooter", "is_reserved": 0, "lon": -76.98383133333333}, {"fusion_lat": 0.0, "name": "78ee4ef950118cd686e98dae76b4711b", "is_disabled": 0, "rental_uris": {"android": "https://dc.lft.to/lastmile_qr_scan", "ios": "https://dc.lft.to/lastmile_qr_scan"}, "fusion_lon": 0.0, "lat": 38.90735866666667, "bike_id": "78ee4ef950118cd686e98dae76b4711b", "type": "electric_scooter", "is_reserved": 0, "lon": -77.0294855}, {"fusion_lat": 0.0, "name": "8472833cdd50f87a6266d6a2dafa6fbb", "is_disabled": 0, "rental_uris": {"android": "https://dc.lft.to/lastmile_qr_scan", "ios": "https://dc.lft.to/lastmile_qr_scan"}, "fusion_lon": 0.0, "lat": 38.9171175, "bike_id": "8472833cdd50f87a6266d6a2dafa6fbb", "type": "electric_scooter", "is_reserved": 0, "lon": -77.03252083333334}, {"fusion_lat": 0.0, "name": "e4a6265bb201fda0dff35d4af0acc2ff", "is_disabled": 0, "rental_uris": {"android": "https://dc.lft.to/lastmile_qr_scan", "ios": "https://dc.lft.to/lastmile_qr_scan"}, "fusion_lon": 0.0, "lat": 38.90148, "bike_id": "e4a6265bb201fda0dff35d4af0acc2ff", "type": "electric_scooter", "is_reserved": 0, "lon": -77.05904016666666}, {"fusion_lat": 0.0, "name": "64ddd38f2fc19547884f8bdc44c8ec06", "is_disabled": 0, "rental_uris": {"android": "https://dc.lft.to/lastmile_qr_scan", "ios": "https://dc.lft.to/lastmile_qr_scan"}, "fusion_lon": 0.0, "lat": 38.93141216666667, "bike_id": "64ddd38f2fc19547884f8bdc44c8ec06", "type": "electric_bike", "is_reserved": 0, "lon": -77.01970633333333}, {"fusion_lat": 0.0, "name": "4124c642cce00a78116edd4cfee69ce3", "is_disabled": 0, "rental_uris": {"android": "https://dc.lft.to/lastmile_qr_scan", "ios": "https://dc.lft.to/lastmile_qr_scan"}, "fusion_lon": 0.0, "lat": 38.923435833333336, "bike_id": "4124c642cce00a78116edd4cfee69ce3", "type": "electric_scooter", "is_reserved": 0, "lon": -77.04349516666667}, {"fusion_lat": 0.0, "name": "43a47c27538491df85e01fa7a95c3a0b", "is_disabled": 0, "rental_uris": {"android": "https://dc.lft.to/lastmile_qr_scan", "ios": "https://dc.lft.to/lastmile_qr_scan"}, "fusion_lon": 0.0, "lat": 38.90225783333333, "bike_id": "43a47c27538491df85e01fa7a95c3a0b", "type": "electric_scooter", "is_reserved": 0, "lon": -77.03267866666667}, {"fusion_lat": 0.0, "name": "62830a150b0eac71978882fcb6c1d9b7", "is_disabled": 0, "rental_uris": {"android": "https://dc.lft.to/lastmile_qr_scan", "ios": "https://dc.lft.to/lastmile_qr_scan"}, "fusion_lon": 0.0, "lat": 38.887220666666664, "bike_id": "62830a150b0eac71978882fcb6c1d9b7", "type": "electric_scooter", "is_reserved": 0, "lon": -77.02582966666667}, {"fusion_lat": 0.0, "name": "5ab291c81b4c6724b1d2d550df3668c9", "is_disabled": 0, "rental_uris": {"android": "https://dc.lft.to/lastmile_qr_scan", "ios": "https://dc.lft.to/lastmile_qr_scan"}, "fusion_lon": 0.0, "lat": 38.86244283333333, "bike_id": "5ab291c81b4c6724b1d2d550df3668c9", "type": "electric_scooter", "is_reserved": 0, "lon": -76.99495933333333}, {"fusion_lat": 0.0, "name": "f7977904934052dcfcac8d09775df876", "is_disabled": 0, "rental_uris": {"android": "https://dc.lft.to/lastmile_qr_scan", "ios": "https://dc.lft.to/lastmile_qr_scan"}, "fusion_lon": 0.0, "lat": 38.873744333333335, "bike_id": "f7977904934052dcfcac8d09775df876", "type": "electric_scooter", "is_reserved": 0, "lon": -77.00044116666666}, {"fusion_lat": 0.0, "name": "f9277861504dd40ef9c049955e0d625d", "is_disabled": 0, "rental_uris": {"android": "https://dc.lft.to/lastmile_qr_scan", "ios": "https://dc.lft.to/lastmile_qr_scan"}, "fusion_lon": 0.0, "lat": 38.89773783333333, "bike_id": "f9277861504dd40ef9c049955e0d625d", "type": "electric_scooter", "is_reserved": 0, "lon": -76.98459616666666}, {"fusion_lat": 0.0, "name": "2c92517c358aa422ed73120b2b1843c8", "is_disabled": 0, "rental_uris": {"android": "https://dc.lft.to/lastmile_qr_scan", "ios": "https://dc.lft.to/lastmile_qr_scan"}, "fusion_lon": 0.0, "lat": 38.943444166666666, "bike_id": "2c92517c358aa422ed73120b2b1843c8", "type": "electric_scooter", "is_reserved": 0, "lon": -77.0614705}, {"fusion_lat": 0.0, "name": "8c85c0997b0cc5109e525fe7f5d97652", "is_disabled": 0, "rental_uris": {"android": "https://dc.lft.to/lastmile_qr_scan", "ios": "https://dc.lft.to/lastmile_qr_scan"}, "fusion_lon": 0.0, "lat": 38.877335333333335, "bike_id": "8c85c0997b0cc5109e525fe7f5d97652", "type": "electric_scooter", "is_reserved": 0, "lon": -76.99674366666666}, {"fusion_lat": 0.0, "name": "50b172835a3d7154da82367152bd37ed", "is_disabled": 0, "rental_uris": {"android": "https://dc.lft.to/lastmile_qr_scan", "ios": "https://dc.lft.to/lastmile_qr_scan"}, "fusion_lon": 0.0, "lat": 38.92154883333333, "bike_id": "50b172835a3d7154da82367152bd37ed", "type": "electric_scooter", "is_reserved": 0, "lon": -77.0343435}, {"fusion_lat": 0.0, "name": "bfa82e040bf3a2ac87e5f9106a8fb077", "is_disabled": 0, "rental_uris": {"android": "https://dc.lft.to/lastmile_qr_scan", "ios": "https://dc.lft.to/lastmile_qr_scan"}, "fusion_lon": 0.0, "lat": 38.917078, "bike_id": "bfa82e040bf3a2ac87e5f9106a8fb077", "type": "electric_scooter", "is_reserved": 0, "lon": -77.03054283333333}, {"fusion_lat": 0.0, "name": "8d7f6fa6e91cd6b997a635aec00eeaab", "is_disabled": 0, "rental_uris": {"android": "https://dc.lft.to/lastmile_qr_scan", "ios": "https://dc.lft.to/lastmile_qr_scan"}, "fusion_lon": 0.0, "lat": 38.919195333333334, "bike_id": "8d7f6fa6e91cd6b997a635aec00eeaab", "type": "electric_scooter", "is_reserved": 0, "lon": -77.02734683333334}, {"fusion_lat": 0.0, "name": "b4a4211051022764532dc0a269c37495", "is_disabled": 0, "rental_uris": {"android": "https://dc.lft.to/lastmile_qr_scan", "ios": "https://dc.lft.to/lastmile_qr_scan"}, "fusion_lon": 0.0, "lat": 38.9001045, "bike_id": "b4a4211051022764532dc0a269c37495", "type": "electric_scooter", "is_reserved": 0, "lon": -77.0117635}, {"fusion_lat": 0.0, "name": "e95820816a5ee2d8ac071e102880600e", "is_disabled": 0, "rental_uris": {"android": "https://dc.lft.to/lastmile_qr_scan", "ios": "https://dc.lft.to/lastmile_qr_scan"}, "fusion_lon": 0.0, "lat": 38.91710466666667, "bike_id": "e95820816a5ee2d8ac071e102880600e", "type": "electric_scooter", "is_reserved": 0, "lon": -77.0386395}, {"fusion_lat": 0.0, "name": "764c4476637706a30737296fe8e1cffc", "is_disabled": 0, "rental_uris": {"android": "https://dc.lft.to/lastmile_qr_scan", "ios": "https://dc.lft.to/lastmile_qr_scan"}, "fusion_lon": 0.0, "lat": 38.9336315, "bike_id": "764c4476637706a30737296fe8e1cffc", "type": "electric_scooter", "is_reserved": 0, "lon": -77.0341775}, {"fusion_lat": 0.0, "name": "bcb1d5e86604b1fce13e799091cbaa60", "is_disabled": 0, "rental_uris": {"android": "https://dc.lft.to/lastmile_qr_scan", "ios": "https://dc.lft.to/lastmile_qr_scan"}, "fusion_lon": 0.0, "lat": 39.034163, "bike_id": "bcb1d5e86604b1fce13e799091cbaa60", "type": "electric_bike", "is_reserved": 0, "lon": -77.0430425}, {"fusion_lat": 0.0, "name": "68db8ce4c0837e081091d4de72885c1f", "is_disabled": 0, "rental_uris": {"android": "https://dc.lft.to/lastmile_qr_scan", "ios": "https://dc.lft.to/lastmile_qr_scan"}, "fusion_lon": 0.0, "lat": 38.87479316666666, "bike_id": "68db8ce4c0837e081091d4de72885c1f", "type": "electric_scooter", "is_reserved": 0, "lon": -77.0059715}, {"fusion_lat": 0.0, "name": "5c142d882673e4410bdc9472a845d228", "is_disabled": 0, "rental_uris": {"android": "https://dc.lft.to/lastmile_qr_scan", "ios": "https://dc.lft.to/lastmile_qr_scan"}, "fusion_lon": 0.0, "lat": 38.85369933333333, "bike_id": "5c142d882673e4410bdc9472a845d228", "type": "electric_bike", "is_reserved": 0, "lon": -77.11504033333334}, {"fusion_lat": 0.0, "name": "26b33aa39692635a8a22b5432c30f6b6", "is_disabled": 0, "rental_uris": {"android": "https://dc.lft.to/lastmile_qr_scan", "ios": "https://dc.lft.to/lastmile_qr_scan"}, "fusion_lon": 0.0, "lat": 38.919459, "bike_id": "26b33aa39692635a8a22b5432c30f6b6", "type": "electric_scooter", "is_reserved": 0, "lon": -77.02512316666666}, {"fusion_lat": 0.0, "name": "5cea2ac7b4a1ae71b1efbf96d144bc25", "is_disabled": 0, "rental_uris": {"android": "https://dc.lft.to/lastmile_qr_scan", "ios": "https://dc.lft.to/lastmile_qr_scan"}, "fusion_lon": 0.0, "lat": 38.92529716666667, "bike_id": "5cea2ac7b4a1ae71b1efbf96d144bc25", "type": "electric_scooter", "is_reserved": 0, "lon": -77.0524905}, {"fusion_lat": 0.0, "name": "d416d0ffe0d7e5c0293270fbd82c959f", "is_disabled": 0, "rental_uris": {"android": "https://dc.lft.to/lastmile_qr_scan", "ios": "https://dc.lft.to/lastmile_qr_scan"}, "fusion_lon": 0.0, "lat": 38.8600425, "bike_id": "d416d0ffe0d7e5c0293270fbd82c959f", "type": "electric_scooter", "is_reserved": 0, "lon": -76.98517633333333}, {"fusion_lat": 0.0, "name": "5714fa19370578c9d202ef52efd34c84", "is_disabled": 0, "rental_uris": {"android": "https://dc.lft.to/lastmile_qr_scan", "ios": "https://dc.lft.to/lastmile_qr_scan"}, "fusion_lon": 0.0, "lat": 38.92073516666667, "bike_id": "5714fa19370578c9d202ef52efd34c84", "type": "electric_scooter", "is_reserved": 0, "lon": -77.02410316666666}, {"fusion_lat": 0.0, "name": "157c8b817a0a737d6fd9d10e462a2ec2", "is_disabled": 0, "rental_uris": {"android": "https://dc.lft.to/lastmile_qr_scan", "ios": "https://dc.lft.to/lastmile_qr_scan"}, "fusion_lon": 0.0, "lat": 38.91703233333333, "bike_id": "157c8b817a0a737d6fd9d10e462a2ec2", "type": "electric_scooter", "is_reserved": 0, "lon": -77.04282866666667}, {"fusion_lat": 0.0, "name": "f1a25b9b32dbd7fe7e5336532f402ce1", "is_disabled": 0, "rental_uris": {"android": "https://dc.lft.to/lastmile_qr_scan", "ios": "https://dc.lft.to/lastmile_qr_scan"}, "fusion_lon": 0.0, "lat": 38.92666766666667, "bike_id": "f1a25b9b32dbd7fe7e5336532f402ce1", "type": "electric_scooter", "is_reserved": 0, "lon": -77.030223}, {"fusion_lat": 0.0, "name": "465eb4d1e672441482dec3b16dcb0ac7", "is_disabled": 0, "rental_uris": {"android": "https://dc.lft.to/lastmile_qr_scan", "ios": "https://dc.lft.to/lastmile_qr_scan"}, "fusion_lon": 0.0, "lat": 38.90451133333333, "bike_id": "465eb4d1e672441482dec3b16dcb0ac7", "type": "electric_scooter", "is_reserved": 0, "lon": -77.0282095}, {"fusion_lat": 0.0, "name": "e57cdee3bab1aa07fc673508296159f4", "is_disabled": 0, "rental_uris": {"android": "https://dc.lft.to/lastmile_qr_scan", "ios": "https://dc.lft.to/lastmile_qr_scan"}, "fusion_lon": 0.0, "lat": 38.8957835, "bike_id": "e57cdee3bab1aa07fc673508296159f4", "type": "electric_scooter", "is_reserved": 0, "lon": -76.9832325}, {"fusion_lat": 0.0, "name": "75ec99d20d935c8b27aee35c9a1c0c04", "is_disabled": 0, "rental_uris": {"android": "https://dc.lft.to/lastmile_qr_scan", "ios": "https://dc.lft.to/lastmile_qr_scan"}, "fusion_lon": 0.0, "lat": 38.959276833333334, "bike_id": "75ec99d20d935c8b27aee35c9a1c0c04", "type": "electric_bike", "is_reserved": 0, "lon": -76.92836066666666}, {"fusion_lat": 0.0, "name": "9f01c4730fb14f599b4e28e39e9e1205", "is_disabled": 0, "rental_uris": {"android": "https://dc.lft.to/lastmile_qr_scan", "ios": "https://dc.lft.to/lastmile_qr_scan"}, "fusion_lon": 0.0, "lat": 38.887689, "bike_id": "9f01c4730fb14f599b4e28e39e9e1205", "type": "electric_scooter", "is_reserved": 0, "lon": -76.99158333333334}, {"fusion_lat": 0.0, "name": "30f0478cd9a87b4808bb574bd84bd442", "is_disabled": 0, "rental_uris": {"android": "https://dc.lft.to/lastmile_qr_scan", "ios": "https://dc.lft.to/lastmile_qr_scan"}, "fusion_lon": 0.0, "lat": 38.912549, "bike_id": "30f0478cd9a87b4808bb574bd84bd442", "type": "electric_scooter", "is_reserved": 0, "lon": -77.0386145}, {"fusion_lat": 0.0, "name": "69442280956b958b0cdb6f87bb565bd1", "is_disabled": 0, "rental_uris": {"android": "https://dc.lft.to/lastmile_qr_scan", "ios": "https://dc.lft.to/lastmile_qr_scan"}, "fusion_lon": 0.0, "lat": 38.9206925, "bike_id": "69442280956b958b0cdb6f87bb565bd1", "type": "electric_scooter", "is_reserved": 0, "lon": -77.04377066666666}, {"fusion_lat": 0.0, "name": "135792797848ab0ced961ff208b1af6e", "is_disabled": 0, "rental_uris": {"android": "https://dc.lft.to/lastmile_qr_scan", "ios": "https://dc.lft.to/lastmile_qr_scan"}, "fusion_lon": 0.0, "lat": 38.91840883333333, "bike_id": "135792797848ab0ced961ff208b1af6e", "type": "electric_scooter", "is_reserved": 0, "lon": -77.035105}, {"fusion_lat": 0.0, "name": "bcdd3e090d687481ca9bd45a8b2b2eb1", "is_disabled": 0, "rental_uris": {"android": "https://dc.lft.to/lastmile_qr_scan", "ios": "https://dc.lft.to/lastmile_qr_scan"}, "fusion_lon": 0.0, "lat": 38.95488133333333, "bike_id": "bcdd3e090d687481ca9bd45a8b2b2eb1", "type": "electric_bike", "is_reserved": 0, "lon": -77.02668866666667}, {"fusion_lat": 0.0, "name": "b8e34a3f1ad111f19a75be9b96b202b4", "is_disabled": 0, "rental_uris": {"android": "https://dc.lft.to/lastmile_qr_scan", "ios": "https://dc.lft.to/lastmile_qr_scan"}, "fusion_lon": 0.0, "lat": 38.91729333333333, "bike_id": "b8e34a3f1ad111f19a75be9b96b202b4", "type": "electric_scooter", "is_reserved": 0, "lon": -77.02819916666667}, {"fusion_lat": 0.0, "name": "f0bfc10caebf46198c3b22030647e9b0", "is_disabled": 0, "rental_uris": {"android": "https://dc.lft.to/lastmile_qr_scan", "ios": "https://dc.lft.to/lastmile_qr_scan"}, "fusion_lon": 0.0, "lat": 38.905704, "bike_id": "f0bfc10caebf46198c3b22030647e9b0", "type": "electric_scooter", "is_reserved": 0, "lon": -77.00893266666667}, {"fusion_lat": 0.0, "name": "d9d11980793e7d942b76c4b5198826cb", "is_disabled": 0, "rental_uris": {"android": "https://dc.lft.to/lastmile_qr_scan", "ios": "https://dc.lft.to/lastmile_qr_scan"}, "fusion_lon": 0.0, "lat": 38.905627, "bike_id": "d9d11980793e7d942b76c4b5198826cb", "type": "electric_scooter", "is_reserved": 0, "lon": -77.04681616666667}, {"fusion_lat": 0.0, "name": "a9f5ac52d8238d4649aa81c936d8d4f2", "is_disabled": 0, "rental_uris": {"android": "https://dc.lft.to/lastmile_qr_scan", "ios": "https://dc.lft.to/lastmile_qr_scan"}, "fusion_lon": 0.0, "lat": 38.91447766666667, "bike_id": "a9f5ac52d8238d4649aa81c936d8d4f2", "type": "electric_scooter", "is_reserved": 0, "lon": -77.044896}, {"fusion_lat": 0.0, "name": "a054de61207f63672f48a846e22d9fb4", "is_disabled": 0, "rental_uris": {"android": "https://dc.lft.to/lastmile_qr_scan", "ios": "https://dc.lft.to/lastmile_qr_scan"}, "fusion_lon": 0.0, "lat": 38.899518, "bike_id": "a054de61207f63672f48a846e22d9fb4", "type": "electric_scooter", "is_reserved": 0, "lon": -76.985534}, {"fusion_lat": 0.0, "name": "01c5122280922e378a7b6329f0d1f842", "is_disabled": 0, "rental_uris": {"android": "https://dc.lft.to/lastmile_qr_scan", "ios": "https://dc.lft.to/lastmile_qr_scan"}, "fusion_lon": 0.0, "lat": 38.90505183333333, "bike_id": "01c5122280922e378a7b6329f0d1f842", "type": "electric_scooter", "is_reserved": 0, "lon": -77.04101983333334}, {"fusion_lat": 0.0, "name": "bbc4e4b811c030c0dbb0a067e1775988", "is_disabled": 0, "rental_uris": {"android": "https://dc.lft.to/lastmile_qr_scan", "ios": "https://dc.lft.to/lastmile_qr_scan"}, "fusion_lon": 0.0, "lat": 38.889914833333336, "bike_id": "bbc4e4b811c030c0dbb0a067e1775988", "type": "electric_scooter", "is_reserved": 0, "lon": -76.91419783333333}, {"fusion_lat": 0.0, "name": "403bf1378a96d9a8d8e170817b5d0361", "is_disabled": 0, "rental_uris": {"android": "https://dc.lft.to/lastmile_qr_scan", "ios": "https://dc.lft.to/lastmile_qr_scan"}, "fusion_lon": 0.0, "lat": 38.90627416666667, "bike_id": "403bf1378a96d9a8d8e170817b5d0361", "type": "electric_scooter", "is_reserved": 0, "lon": -77.00584966666666}, {"fusion_lat": 0.0, "name": "3c1340b7a3612d5b4a21eae7f775e1fb", "is_disabled": 0, "rental_uris": {"android": "https://dc.lft.to/lastmile_qr_scan", "ios": "https://dc.lft.to/lastmile_qr_scan"}, "fusion_lon": 0.0, "lat": 38.94864033333333, "bike_id": "3c1340b7a3612d5b4a21eae7f775e1fb", "type": "electric_scooter", "is_reserved": 0, "lon": -77.02569033333333}, {"fusion_lat": 0.0, "name": "fac965f6ee801375bb7ac8b0637ef741", "is_disabled": 0, "rental_uris": {"android": "https://dc.lft.to/lastmile_qr_scan", "ios": "https://dc.lft.to/lastmile_qr_scan"}, "fusion_lon": 0.0, "lat": 38.911058833333335, "bike_id": "fac965f6ee801375bb7ac8b0637ef741", "type": "electric_scooter", "is_reserved": 0, "lon": -77.04204966666667}, {"fusion_lat": 0.0, "name": "09a4348bf5172a0fc6bfe0413fddf450", "is_disabled": 0, "rental_uris": {"android": "https://dc.lft.to/lastmile_qr_scan", "ios": "https://dc.lft.to/lastmile_qr_scan"}, "fusion_lon": 0.0, "lat": 38.931783333333335, "bike_id": "09a4348bf5172a0fc6bfe0413fddf450", "type": "electric_scooter", "is_reserved": 0, "lon": -77.0784735}, {"fusion_lat": 0.0, "name": "968615d61146d2218f581f0e3e8495a4", "is_disabled": 0, "rental_uris": {"android": "https://dc.lft.to/lastmile_qr_scan", "ios": "https://dc.lft.to/lastmile_qr_scan"}, "fusion_lon": 0.0, "lat": 38.95799816666667, "bike_id": "968615d61146d2218f581f0e3e8495a4", "type": "electric_bike", "is_reserved": 0, "lon": -76.96047983333334}, {"fusion_lat": 0.0, "name": "ade0cc3cd3f5e60c911392a6bec6137d", "is_disabled": 0, "rental_uris": {"android": "https://dc.lft.to/lastmile_qr_scan", "ios": "https://dc.lft.to/lastmile_qr_scan"}, "fusion_lon": 0.0, "lat": 38.9146255, "bike_id": "ade0cc3cd3f5e60c911392a6bec6137d", "type": "electric_scooter", "is_reserved": 0, "lon": -77.00215916666667}, {"fusion_lat": 0.0, "name": "0c1aa29282ad690713eea65b3f74447c", "is_disabled": 0, "rental_uris": {"android": "https://dc.lft.to/lastmile_qr_scan", "ios": "https://dc.lft.to/lastmile_qr_scan"}, "fusion_lon": 0.0, "lat": 38.900375833333335, "bike_id": "0c1aa29282ad690713eea65b3f74447c", "type": "electric_scooter", "is_reserved": 0, "lon": -76.99134466666666}, {"fusion_lat": 0.0, "name": "6ef63f519539e4799fc5bfb83a7a3ba6", "is_disabled": 0, "rental_uris": {"android": "https://dc.lft.to/lastmile_qr_scan", "ios": "https://dc.lft.to/lastmile_qr_scan"}, "fusion_lon": 0.0, "lat": 38.95004683333333, "bike_id": "6ef63f519539e4799fc5bfb83a7a3ba6", "type": "electric_scooter", "is_reserved": 0, "lon": -77.08061166666667}, {"fusion_lat": 0.0, "name": "3ccc0d4474fbf58443155fba39d4481b", "is_disabled": 0, "rental_uris": {"android": "https://dc.lft.to/lastmile_qr_scan", "ios": "https://dc.lft.to/lastmile_qr_scan"}, "fusion_lon": 0.0, "lat": 38.9037795, "bike_id": "3ccc0d4474fbf58443155fba39d4481b", "type": "electric_scooter", "is_reserved": 0, "lon": -77.00985666666666}, {"fusion_lat": 0.0, "name": "6616714f12ec2d434a1b484dbdbcec81", "is_disabled": 0, "rental_uris": {"android": "https://dc.lft.to/lastmile_qr_scan", "ios": "https://dc.lft.to/lastmile_qr_scan"}, "fusion_lon": 0.0, "lat": 38.8836965, "bike_id": "6616714f12ec2d434a1b484dbdbcec81", "type": "electric_scooter", "is_reserved": 0, "lon": -76.99515033333333}, {"fusion_lat": 0.0, "name": "11ca1790141117dec6f829c5a71ffd0a", "is_disabled": 0, "rental_uris": {"android": "https://dc.lft.to/lastmile_qr_scan", "ios": "https://dc.lft.to/lastmile_qr_scan"}, "fusion_lon": 0.0, "lat": 38.892211833333334, "bike_id": "11ca1790141117dec6f829c5a71ffd0a", "type": "electric_scooter", "is_reserved": 0, "lon": -77.02666183333334}, {"fusion_lat": 0.0, "name": "1682d7ba915b93246e5c01d55cd31b44", "is_disabled": 0, "rental_uris": {"android": "https://dc.lft.to/lastmile_qr_scan", "ios": "https://dc.lft.to/lastmile_qr_scan"}, "fusion_lon": 0.0, "lat": 38.928581666666666, "bike_id": "1682d7ba915b93246e5c01d55cd31b44", "type": "electric_scooter", "is_reserved": 0, "lon": -77.03310983333333}, {"fusion_lat": 0.0, "name": "1122b735731309084e214f8d9f872efd", "is_disabled": 0, "rental_uris": {"android": "https://dc.lft.to/lastmile_qr_scan", "ios": "https://dc.lft.to/lastmile_qr_scan"}, "fusion_lon": 0.0, "lat": 38.9170665, "bike_id": "1122b735731309084e214f8d9f872efd", "type": "electric_scooter", "is_reserved": 0, "lon": -77.0227575}, {"fusion_lat": 0.0, "name": "81dbc4c1fb41c10c97862d5c69141df6", "is_disabled": 0, "rental_uris": {"android": "https://dc.lft.to/lastmile_qr_scan", "ios": "https://dc.lft.to/lastmile_qr_scan"}, "fusion_lon": 0.0, "lat": 38.90010916666667, "bike_id": "81dbc4c1fb41c10c97862d5c69141df6", "type": "electric_scooter", "is_reserved": 0, "lon": -77.04488716666667}, {"fusion_lat": 0.0, "name": "d8ea547b9aaa9f87cb4d4691a155b03f", "is_disabled": 0, "rental_uris": {"android": "https://dc.lft.to/lastmile_qr_scan", "ios": "https://dc.lft.to/lastmile_qr_scan"}, "fusion_lon": 0.0, "lat": 38.924133833333336, "bike_id": "d8ea547b9aaa9f87cb4d4691a155b03f", "type": "electric_scooter", "is_reserved": 0, "lon": -77.02698466666666}, {"fusion_lat": 0.0, "name": "75dc4306924876a7d41c237aed923cbc", "is_disabled": 0, "rental_uris": {"android": "https://dc.lft.to/lastmile_qr_scan", "ios": "https://dc.lft.to/lastmile_qr_scan"}, "fusion_lon": 0.0, "lat": 38.92131033333333, "bike_id": "75dc4306924876a7d41c237aed923cbc", "type": "electric_scooter", "is_reserved": 0, "lon": -77.02511933333334}, {"fusion_lat": 0.0, "name": "ef34b9b630b2e999befe6e0d3e796487", "is_disabled": 0, "rental_uris": {"android": "https://dc.lft.to/lastmile_qr_scan", "ios": "https://dc.lft.to/lastmile_qr_scan"}, "fusion_lon": 0.0, "lat": 38.900166666666664, "bike_id": "ef34b9b630b2e999befe6e0d3e796487", "type": "electric_scooter", "is_reserved": 0, "lon": -77.002064}, {"fusion_lat": 0.0, "name": "6dd2627a1b2315046f015f4a86beb022", "is_disabled": 0, "rental_uris": {"android": "https://dc.lft.to/lastmile_qr_scan", "ios": "https://dc.lft.to/lastmile_qr_scan"}, "fusion_lon": 0.0, "lat": 38.949716, "bike_id": "6dd2627a1b2315046f015f4a86beb022", "type": "electric_bike", "is_reserved": 0, "lon": -77.06636683333333}, {"fusion_lat": 0.0, "name": "3d633a4b2e74273da05abe9b30b0770e", "is_disabled": 0, "rental_uris": {"android": "https://dc.lft.to/lastmile_qr_scan", "ios": "https://dc.lft.to/lastmile_qr_scan"}, "fusion_lon": 0.0, "lat": 38.890170833333336, "bike_id": "3d633a4b2e74273da05abe9b30b0770e", "type": "electric_scooter", "is_reserved": 0, "lon": -76.93735383333333}, {"fusion_lat": 0.0, "name": "86f90767ef642e83c1583be2edcab733", "is_disabled": 0, "rental_uris": {"android": "https://dc.lft.to/lastmile_qr_scan", "ios": "https://dc.lft.to/lastmile_qr_scan"}, "fusion_lon": 0.0, "lat": 38.87559666666667, "bike_id": "86f90767ef642e83c1583be2edcab733", "type": "electric_scooter", "is_reserved": 0, "lon": -77.00608133333333}, {"fusion_lat": 0.0, "name": "2b0ec29afc00994a3e8b7fb7dc215001", "is_disabled": 0, "rental_uris": {"android": "https://dc.lft.to/lastmile_qr_scan", "ios": "https://dc.lft.to/lastmile_qr_scan"}, "fusion_lon": 0.0, "lat": 38.9155245, "bike_id": "2b0ec29afc00994a3e8b7fb7dc215001", "type": "electric_scooter", "is_reserved": 0, "lon": -77.041604}, {"fusion_lat": 0.0, "name": "7023e89b89f3d64d1a256df79ddfec46", "is_disabled": 0, "rental_uris": {"android": "https://dc.lft.to/lastmile_qr_scan", "ios": "https://dc.lft.to/lastmile_qr_scan"}, "fusion_lon": 0.0, "lat": 38.9234815, "bike_id": "7023e89b89f3d64d1a256df79ddfec46", "type": "electric_scooter", "is_reserved": 0, "lon": -77.05172416666667}, {"fusion_lat": 0.0, "name": "9e5f967aae331dc728c20b6855d63aa9", "is_disabled": 0, "rental_uris": {"android": "https://dc.lft.to/lastmile_qr_scan", "ios": "https://dc.lft.to/lastmile_qr_scan"}, "fusion_lon": 0.0, "lat": 38.886160833333335, "bike_id": "9e5f967aae331dc728c20b6855d63aa9", "type": "electric_scooter", "is_reserved": 0, "lon": -76.99541116666667}, {"fusion_lat": 0.0, "name": "b7622c9e37427a37fab8df8ecf338be4", "is_disabled": 0, "rental_uris": {"android": "https://dc.lft.to/lastmile_qr_scan", "ios": "https://dc.lft.to/lastmile_qr_scan"}, "fusion_lon": 0.0, "lat": 38.90166716666667, "bike_id": "b7622c9e37427a37fab8df8ecf338be4", "type": "electric_scooter", "is_reserved": 0, "lon": -77.041935}, {"fusion_lat": 0.0, "name": "7a1f56561593c2af9660e1fe93081c93", "is_disabled": 0, "rental_uris": {"android": "https://dc.lft.to/lastmile_qr_scan", "ios": "https://dc.lft.to/lastmile_qr_scan"}, "fusion_lon": 0.0, "lat": 38.9053845, "bike_id": "7a1f56561593c2af9660e1fe93081c93", "type": "electric_scooter", "is_reserved": 0, "lon": -77.06533783333333}, {"fusion_lat": 0.0, "name": "d61d37f0c9fa8a12c79961c11157df37", "is_disabled": 0, "rental_uris": {"android": "https://dc.lft.to/lastmile_qr_scan", "ios": "https://dc.lft.to/lastmile_qr_scan"}, "fusion_lon": 0.0, "lat": 38.9008, "bike_id": "d61d37f0c9fa8a12c79961c11157df37", "type": "electric_scooter", "is_reserved": 0, "lon": -76.98336616666667}, {"fusion_lat": 0.0, "name": "c592dc08d114cc550a6fb3891107a668", "is_disabled": 0, "rental_uris": {"android": "https://dc.lft.to/lastmile_qr_scan", "ios": "https://dc.lft.to/lastmile_qr_scan"}, "fusion_lon": 0.0, "lat": 38.920829166666664, "bike_id": "c592dc08d114cc550a6fb3891107a668", "type": "electric_scooter", "is_reserved": 0, "lon": -77.013932}, {"fusion_lat": 0.0, "name": "1a98089fdf58f5afc7aea85c213b787e", "is_disabled": 0, "rental_uris": {"android": "https://dc.lft.to/lastmile_qr_scan", "ios": "https://dc.lft.to/lastmile_qr_scan"}, "fusion_lon": 0.0, "lat": 38.900424, "bike_id": "1a98089fdf58f5afc7aea85c213b787e", "type": "electric_scooter", "is_reserved": 0, "lon": -77.0261585}, {"fusion_lat": 0.0, "name": "373394921447e907b1396d4701f66eea", "is_disabled": 0, "rental_uris": {"android": "https://dc.lft.to/lastmile_qr_scan", "ios": "https://dc.lft.to/lastmile_qr_scan"}, "fusion_lon": 0.0, "lat": 38.887313666666664, "bike_id": "373394921447e907b1396d4701f66eea", "type": "electric_scooter", "is_reserved": 0, "lon": -76.9835635}, {"fusion_lat": 0.0, "name": "ae9a05062d756f76e0889fffcf4f8fd0", "is_disabled": 0, "rental_uris": {"android": "https://dc.lft.to/lastmile_qr_scan", "ios": "https://dc.lft.to/lastmile_qr_scan"}, "fusion_lon": 0.0, "lat": 38.90715133333333, "bike_id": "ae9a05062d756f76e0889fffcf4f8fd0", "type": "electric_scooter", "is_reserved": 0, "lon": -77.02714983333334}, {"fusion_lat": 0.0, "name": "477e28461ea66e1002ce35d630288bd3", "is_disabled": 0, "rental_uris": {"android": "https://dc.lft.to/lastmile_qr_scan", "ios": "https://dc.lft.to/lastmile_qr_scan"}, "fusion_lon": 0.0, "lat": 38.8833915, "bike_id": "477e28461ea66e1002ce35d630288bd3", "type": "electric_scooter", "is_reserved": 0, "lon": -77.03162566666667}, {"fusion_lat": 0.0, "name": "d7b1111cba8d4a59c9c5795d8e27224e", "is_disabled": 0, "rental_uris": {"android": "https://dc.lft.to/lastmile_qr_scan", "ios": "https://dc.lft.to/lastmile_qr_scan"}, "fusion_lon": 0.0, "lat": 38.92314116666667, "bike_id": "d7b1111cba8d4a59c9c5795d8e27224e", "type": "electric_scooter", "is_reserved": 0, "lon": -77.03979116666666}, {"fusion_lat": 0.0, "name": "59d5e30dbe52e9013944cdd35b8e3120", "is_disabled": 0, "rental_uris": {"android": "https://dc.lft.to/lastmile_qr_scan", "ios": "https://dc.lft.to/lastmile_qr_scan"}, "fusion_lon": 0.0, "lat": 38.908518, "bike_id": "59d5e30dbe52e9013944cdd35b8e3120", "type": "electric_scooter", "is_reserved": 0, "lon": -77.048866}, {"fusion_lat": 0.0, "name": "2bc4c23b0772fdc47e1ecb940d8968b6", "is_disabled": 0, "rental_uris": {"android": "https://dc.lft.to/lastmile_qr_scan", "ios": "https://dc.lft.to/lastmile_qr_scan"}, "fusion_lon": 0.0, "lat": 38.91281083333333, "bike_id": "2bc4c23b0772fdc47e1ecb940d8968b6", "type": "electric_scooter", "is_reserved": 0, "lon": -77.03861333333333}, {"fusion_lat": 0.0, "name": "146b82d0423d3b6b05beaa649c4bfab6", "is_disabled": 0, "rental_uris": {"android": "https://dc.lft.to/lastmile_qr_scan", "ios": "https://dc.lft.to/lastmile_qr_scan"}, "fusion_lon": 0.0, "lat": 38.905523, "bike_id": "146b82d0423d3b6b05beaa649c4bfab6", "type": "electric_scooter", "is_reserved": 0, "lon": -77.04655783333334}, {"fusion_lat": 0.0, "name": "8b6aae19ee06740d92d4264c48911ff5", "is_disabled": 0, "rental_uris": {"android": "https://dc.lft.to/lastmile_qr_scan", "ios": "https://dc.lft.to/lastmile_qr_scan"}, "fusion_lon": 0.0, "lat": 38.90686433333333, "bike_id": "8b6aae19ee06740d92d4264c48911ff5", "type": "electric_scooter", "is_reserved": 0, "lon": -77.027035}, {"fusion_lat": 0.0, "name": "4edf74671b1d4322aae204daa5de8e20", "is_disabled": 0, "rental_uris": {"android": "https://dc.lft.to/lastmile_qr_scan", "ios": "https://dc.lft.to/lastmile_qr_scan"}, "fusion_lon": 0.0, "lat": 38.922524833333334, "bike_id": "4edf74671b1d4322aae204daa5de8e20", "type": "electric_scooter", "is_reserved": 0, "lon": -77.02807583333333}, {"fusion_lat": 0.0, "name": "29e8ee024005669d4404df092f6ed6e8", "is_disabled": 0, "rental_uris": {"android": "https://dc.lft.to/lastmile_qr_scan", "ios": "https://dc.lft.to/lastmile_qr_scan"}, "fusion_lon": 0.0, "lat": 38.84756616666667, "bike_id": "29e8ee024005669d4404df092f6ed6e8", "type": "electric_scooter", "is_reserved": 0, "lon": -76.99499283333333}, {"fusion_lat": 0.0, "name": "273674dcf9b3625ac1f5e89179f4221f", "is_disabled": 0, "rental_uris": {"android": "https://dc.lft.to/lastmile_qr_scan", "ios": "https://dc.lft.to/lastmile_qr_scan"}, "fusion_lon": 0.0, "lat": 38.90165983333333, "bike_id": "273674dcf9b3625ac1f5e89179f4221f", "type": "electric_scooter", "is_reserved": 0, "lon": -76.99264666666667}, {"fusion_lat": 0.0, "name": "b62cf43890af3364b79c6eb42a6ec289", "is_disabled": 0, "rental_uris": {"android": "https://dc.lft.to/lastmile_qr_scan", "ios": "https://dc.lft.to/lastmile_qr_scan"}, "fusion_lon": 0.0, "lat": 38.91971616666667, "bike_id": "b62cf43890af3364b79c6eb42a6ec289", "type": "electric_scooter", "is_reserved": 0, "lon": -77.025939}, {"fusion_lat": 0.0, "name": "7eca409c0c2fdc6131bf1e7c004e3fb4", "is_disabled": 0, "rental_uris": {"android": "https://dc.lft.to/lastmile_qr_scan", "ios": "https://dc.lft.to/lastmile_qr_scan"}, "fusion_lon": 0.0, "lat": 38.9209915, "bike_id": "7eca409c0c2fdc6131bf1e7c004e3fb4", "type": "electric_scooter", "is_reserved": 0, "lon": -77.02513366666666}, {"fusion_lat": 0.0, "name": "0a4b8a57d3051340a637858cc46f3116", "is_disabled": 0, "rental_uris": {"android": "https://dc.lft.to/lastmile_qr_scan", "ios": "https://dc.lft.to/lastmile_qr_scan"}, "fusion_lon": 0.0, "lat": 38.90005683333333, "bike_id": "0a4b8a57d3051340a637858cc46f3116", "type": "electric_scooter", "is_reserved": 0, "lon": -76.99763333333334}, {"fusion_lat": 0.0, "name": "dd94132f8141a2e56d1950d1db91f0cd", "is_disabled": 0, "rental_uris": {"android": "https://dc.lft.to/lastmile_qr_scan", "ios": "https://dc.lft.to/lastmile_qr_scan"}, "fusion_lon": 0.0, "lat": 38.94968216666667, "bike_id": "dd94132f8141a2e56d1950d1db91f0cd", "type": "electric_scooter", "is_reserved": 0, "lon": -77.066285}, {"fusion_lat": 0.0, "name": "1f08de77526476db71d8569c8aee01d0", "is_disabled": 0, "rental_uris": {"android": "https://dc.lft.to/lastmile_qr_scan", "ios": "https://dc.lft.to/lastmile_qr_scan"}, "fusion_lon": 0.0, "lat": 38.9245585, "bike_id": "1f08de77526476db71d8569c8aee01d0", "type": "electric_scooter", "is_reserved": 0, "lon": -77.0396835}, {"fusion_lat": 0.0, "name": "9cf730baf6836d7282dc0c448c0b960d", "is_disabled": 0, "rental_uris": {"android": "https://dc.lft.to/lastmile_qr_scan", "ios": "https://dc.lft.to/lastmile_qr_scan"}, "fusion_lon": 0.0, "lat": 38.90470783333333, "bike_id": "9cf730baf6836d7282dc0c448c0b960d", "type": "electric_scooter", "is_reserved": 0, "lon": -77.02821216666666}, {"fusion_lat": 0.0, "name": "e444d9228578153d4445861f5f7ba2c5", "is_disabled": 0, "rental_uris": {"android": "https://dc.lft.to/lastmile_qr_scan", "ios": "https://dc.lft.to/lastmile_qr_scan"}, "fusion_lon": 0.0, "lat": 38.874792666666664, "bike_id": "e444d9228578153d4445861f5f7ba2c5", "type": "electric_scooter", "is_reserved": 0, "lon": -77.0060115}, {"fusion_lat": 0.0, "name": "799b97dac5321afd2fb867c76a6954bd", "is_disabled": 0, "rental_uris": {"android": "https://dc.lft.to/lastmile_qr_scan", "ios": "https://dc.lft.to/lastmile_qr_scan"}, "fusion_lon": 0.0, "lat": 38.907383, "bike_id": "799b97dac5321afd2fb867c76a6954bd", "type": "electric_scooter", "is_reserved": 0, "lon": -77.00769066666666}, {"fusion_lat": 0.0, "name": "d8f3ae647ce4933e17f44e6093bf223a", "is_disabled": 0, "rental_uris": {"android": "https://dc.lft.to/lastmile_qr_scan", "ios": "https://dc.lft.to/lastmile_qr_scan"}, "fusion_lon": 0.0, "lat": 38.90208283333333, "bike_id": "d8f3ae647ce4933e17f44e6093bf223a", "type": "electric_scooter", "is_reserved": 0, "lon": -77.02216516666667}, {"fusion_lat": 0.0, "name": "2eece190bcdb60e216d085b023d5a0f0", "is_disabled": 0, "rental_uris": {"android": "https://dc.lft.to/lastmile_qr_scan", "ios": "https://dc.lft.to/lastmile_qr_scan"}, "fusion_lon": 0.0, "lat": 38.876446, "bike_id": "2eece190bcdb60e216d085b023d5a0f0", "type": "electric_scooter", "is_reserved": 0, "lon": -77.00067766666666}, {"fusion_lat": 0.0, "name": "861d30193de185f7c74349a673790351", "is_disabled": 0, "rental_uris": {"android": "https://dc.lft.to/lastmile_qr_scan", "ios": "https://dc.lft.to/lastmile_qr_scan"}, "fusion_lon": 0.0, "lat": 38.902756333333336, "bike_id": "861d30193de185f7c74349a673790351", "type": "electric_scooter", "is_reserved": 0, "lon": -77.00546933333334}, {"fusion_lat": 0.0, "name": "0f86613aca58801f03d6e7383eeac01d", "is_disabled": 0, "rental_uris": {"android": "https://dc.lft.to/lastmile_qr_scan", "ios": "https://dc.lft.to/lastmile_qr_scan"}, "fusion_lon": 0.0, "lat": 38.895874166666665, "bike_id": "0f86613aca58801f03d6e7383eeac01d", "type": "electric_scooter", "is_reserved": 0, "lon": -76.9831205}, {"fusion_lat": 0.0, "name": "48a9484ed989c2775885231a75cf57b8", "is_disabled": 0, "rental_uris": {"android": "https://dc.lft.to/lastmile_qr_scan", "ios": "https://dc.lft.to/lastmile_qr_scan"}, "fusion_lon": 0.0, "lat": 38.8922695, "bike_id": "48a9484ed989c2775885231a75cf57b8", "type": "electric_scooter", "is_reserved": 0, "lon": -77.0489795}, {"fusion_lat": 0.0, "name": "46410a8f7fc8e3028ed953a26c9167a1", "is_disabled": 0, "rental_uris": {"android": "https://dc.lft.to/lastmile_qr_scan", "ios": "https://dc.lft.to/lastmile_qr_scan"}, "fusion_lon": 0.0, "lat": 38.90244283333333, "bike_id": "46410a8f7fc8e3028ed953a26c9167a1", "type": "electric_scooter", "is_reserved": 0, "lon": -77.01974933333334}, {"fusion_lat": 0.0, "name": "78c162cb673b55b025a762ee8ab24677", "is_disabled": 0, "rental_uris": {"android": "https://dc.lft.to/lastmile_qr_scan", "ios": "https://dc.lft.to/lastmile_qr_scan"}, "fusion_lon": 0.0, "lat": 38.9233735, "bike_id": "78c162cb673b55b025a762ee8ab24677", "type": "electric_scooter", "is_reserved": 0, "lon": -77.05300783333334}, {"fusion_lat": 0.0, "name": "3981d05f479be9ce7a241e6938b0f8c8", "is_disabled": 0, "rental_uris": {"android": "https://dc.lft.to/lastmile_qr_scan", "ios": "https://dc.lft.to/lastmile_qr_scan"}, "fusion_lon": 0.0, "lat": 38.906682833333335, "bike_id": "3981d05f479be9ce7a241e6938b0f8c8", "type": "electric_scooter", "is_reserved": 0, "lon": -77.0270685}, {"fusion_lat": 0.0, "name": "ca12553340a90104c475854445f48c8a", "is_disabled": 0, "rental_uris": {"android": "https://dc.lft.to/lastmile_qr_scan", "ios": "https://dc.lft.to/lastmile_qr_scan"}, "fusion_lon": 0.0, "lat": 38.918300333333335, "bike_id": "ca12553340a90104c475854445f48c8a", "type": "electric_scooter", "is_reserved": 0, "lon": -77.03213216666667}, {"fusion_lat": 0.0, "name": "1d2ac4cec2b3eef84480b30fc054638a", "is_disabled": 0, "rental_uris": {"android": "https://dc.lft.to/lastmile_qr_scan", "ios": "https://dc.lft.to/lastmile_qr_scan"}, "fusion_lon": 0.0, "lat": 38.935795, "bike_id": "1d2ac4cec2b3eef84480b30fc054638a", "type": "electric_scooter", "is_reserved": 0, "lon": -77.021256}, {"fusion_lat": 0.0, "name": "95b1a0527621e90d0148eb29c3bad9b8", "is_disabled": 0, "rental_uris": {"android": "https://dc.lft.to/lastmile_qr_scan", "ios": "https://dc.lft.to/lastmile_qr_scan"}, "fusion_lon": 0.0, "lat": 38.8836765, "bike_id": "95b1a0527621e90d0148eb29c3bad9b8", "type": "electric_scooter", "is_reserved": 0, "lon": -77.01356333333334}, {"fusion_lat": 0.0, "name": "127e8fba16627d27fbbb3395c7d46657", "is_disabled": 0, "rental_uris": {"android": "https://dc.lft.to/lastmile_qr_scan", "ios": "https://dc.lft.to/lastmile_qr_scan"}, "fusion_lon": 0.0, "lat": 38.8839535, "bike_id": "127e8fba16627d27fbbb3395c7d46657", "type": "electric_scooter", "is_reserved": 0, "lon": -76.93045233333333}, {"fusion_lat": 0.0, "name": "f4b5ce4c9ce549155edc1e7f0be66431", "is_disabled": 0, "rental_uris": {"android": "https://dc.lft.to/lastmile_qr_scan", "ios": "https://dc.lft.to/lastmile_qr_scan"}, "fusion_lon": 0.0, "lat": 38.89761883333333, "bike_id": "f4b5ce4c9ce549155edc1e7f0be66431", "type": "electric_scooter", "is_reserved": 0, "lon": -77.00199283333333}, {"fusion_lat": 0.0, "name": "88b899a93d4bbd882b99c98f00dd9443", "is_disabled": 0, "rental_uris": {"android": "https://dc.lft.to/lastmile_qr_scan", "ios": "https://dc.lft.to/lastmile_qr_scan"}, "fusion_lon": 0.0, "lat": 38.9156985, "bike_id": "88b899a93d4bbd882b99c98f00dd9443", "type": "electric_scooter", "is_reserved": 0, "lon": -77.03167666666667}, {"fusion_lat": 0.0, "name": "d1a5e45ba3a31319e49f1392a236da37", "is_disabled": 0, "rental_uris": {"android": "https://dc.lft.to/lastmile_qr_scan", "ios": "https://dc.lft.to/lastmile_qr_scan"}, "fusion_lon": 0.0, "lat": 38.923185833333335, "bike_id": "d1a5e45ba3a31319e49f1392a236da37", "type": "electric_scooter", "is_reserved": 0, "lon": -77.042237}, {"fusion_lat": 0.0, "name": "c96cd15beb4dcae38699c7c467dde06f", "is_disabled": 0, "rental_uris": {"android": "https://dc.lft.to/lastmile_qr_scan", "ios": "https://dc.lft.to/lastmile_qr_scan"}, "fusion_lon": 0.0, "lat": 38.8721275, "bike_id": "c96cd15beb4dcae38699c7c467dde06f", "type": "electric_scooter", "is_reserved": 0, "lon": -77.005754}, {"fusion_lat": 0.0, "name": "33f6606fd0621947bc2c1968a2e5905e", "is_disabled": 0, "rental_uris": {"android": "https://dc.lft.to/lastmile_qr_scan", "ios": "https://dc.lft.to/lastmile_qr_scan"}, "fusion_lon": 0.0, "lat": 38.90062116666667, "bike_id": "33f6606fd0621947bc2c1968a2e5905e", "type": "electric_scooter", "is_reserved": 0, "lon": -77.0161665}, {"fusion_lat": 0.0, "name": "63e1e1a84c894ba3ed5ce290cacf0208", "is_disabled": 0, "rental_uris": {"android": "https://dc.lft.to/lastmile_qr_scan", "ios": "https://dc.lft.to/lastmile_qr_scan"}, "fusion_lon": 0.0, "lat": 38.9178865, "bike_id": "63e1e1a84c894ba3ed5ce290cacf0208", "type": "electric_scooter", "is_reserved": 0, "lon": -77.0240845}, {"fusion_lat": 0.0, "name": "3684ca2b2f6e5fd7920609c7e63c09aa", "is_disabled": 0, "rental_uris": {"android": "https://dc.lft.to/lastmile_qr_scan", "ios": "https://dc.lft.to/lastmile_qr_scan"}, "fusion_lon": 0.0, "lat": 38.91002233333333, "bike_id": "3684ca2b2f6e5fd7920609c7e63c09aa", "type": "electric_scooter", "is_reserved": 0, "lon": -77.05270316666666}, {"fusion_lat": 0.0, "name": "921a27c12a55ee84f4c51d6a5504b5c4", "is_disabled": 0, "rental_uris": {"android": "https://dc.lft.to/lastmile_qr_scan", "ios": "https://dc.lft.to/lastmile_qr_scan"}, "fusion_lon": 0.0, "lat": 38.91929583333334, "bike_id": "921a27c12a55ee84f4c51d6a5504b5c4", "type": "electric_scooter", "is_reserved": 0, "lon": -77.02664533333333}, {"fusion_lat": 0.0, "name": "e8ca1a5dcc8b9f059f5be5b6ee0379fa", "is_disabled": 0, "rental_uris": {"android": "https://dc.lft.to/lastmile_qr_scan", "ios": "https://dc.lft.to/lastmile_qr_scan"}, "fusion_lon": 0.0, "lat": 38.907327, "bike_id": "e8ca1a5dcc8b9f059f5be5b6ee0379fa", "type": "electric_scooter", "is_reserved": 0, "lon": -77.0433825}, {"fusion_lat": 0.0, "name": "4537b3392a2a2d79a181dc9bb279da19", "is_disabled": 0, "rental_uris": {"android": "https://dc.lft.to/lastmile_qr_scan", "ios": "https://dc.lft.to/lastmile_qr_scan"}, "fusion_lon": 0.0, "lat": 38.91777666666667, "bike_id": "4537b3392a2a2d79a181dc9bb279da19", "type": "electric_scooter", "is_reserved": 0, "lon": -77.03576033333333}, {"fusion_lat": 0.0, "name": "784a420e609bd541663b1c5655e93aa8", "is_disabled": 0, "rental_uris": {"android": "https://dc.lft.to/lastmile_qr_scan", "ios": "https://dc.lft.to/lastmile_qr_scan"}, "fusion_lon": 0.0, "lat": 38.89958466666667, "bike_id": "784a420e609bd541663b1c5655e93aa8", "type": "electric_scooter", "is_reserved": 0, "lon": -77.05699583333333}, {"fusion_lat": 0.0, "name": "8ffa9cc11b14d377d3b5c8ea30c4b7f0", "is_disabled": 0, "rental_uris": {"android": "https://dc.lft.to/lastmile_qr_scan", "ios": "https://dc.lft.to/lastmile_qr_scan"}, "fusion_lon": 0.0, "lat": 38.91543716666666, "bike_id": "8ffa9cc11b14d377d3b5c8ea30c4b7f0", "type": "electric_scooter", "is_reserved": 0, "lon": -77.03202566666667}, {"fusion_lat": 0.0, "name": "7f3b97480ba0bcfcab6617b4775d6287", "is_disabled": 0, "rental_uris": {"android": "https://dc.lft.to/lastmile_qr_scan", "ios": "https://dc.lft.to/lastmile_qr_scan"}, "fusion_lon": 0.0, "lat": 38.922903833333336, "bike_id": "7f3b97480ba0bcfcab6617b4775d6287", "type": "electric_scooter", "is_reserved": 0, "lon": -77.036611}, {"fusion_lat": 0.0, "name": "f576b78aa9b83418abc3fa528beed699", "is_disabled": 0, "rental_uris": {"android": "https://dc.lft.to/lastmile_qr_scan", "ios": "https://dc.lft.to/lastmile_qr_scan"}, "fusion_lon": 0.0, "lat": 38.887470666666665, "bike_id": "f576b78aa9b83418abc3fa528beed699", "type": "electric_scooter", "is_reserved": 0, "lon": -77.021354}, {"fusion_lat": 0.0, "name": "8de9c995bfb784cb4e4e469f4bafe7a9", "is_disabled": 0, "rental_uris": {"android": "https://dc.lft.to/lastmile_qr_scan", "ios": "https://dc.lft.to/lastmile_qr_scan"}, "fusion_lon": 0.0, "lat": 38.91399716666667, "bike_id": "8de9c995bfb784cb4e4e469f4bafe7a9", "type": "electric_scooter", "is_reserved": 0, "lon": -77.07551866666667}, {"fusion_lat": 0.0, "name": "fd7387cc087601a7e37dba266a2eb2e3", "is_disabled": 0, "rental_uris": {"android": "https://dc.lft.to/lastmile_qr_scan", "ios": "https://dc.lft.to/lastmile_qr_scan"}, "fusion_lon": 0.0, "lat": 38.902720333333335, "bike_id": "fd7387cc087601a7e37dba266a2eb2e3", "type": "electric_scooter", "is_reserved": 0, "lon": -77.036626}, {"fusion_lat": 0.0, "name": "985f29851d39bb1daaa842c480927f30", "is_disabled": 0, "rental_uris": {"android": "https://dc.lft.to/lastmile_qr_scan", "ios": "https://dc.lft.to/lastmile_qr_scan"}, "fusion_lon": 0.0, "lat": 38.90724783333334, "bike_id": "985f29851d39bb1daaa842c480927f30", "type": "electric_scooter", "is_reserved": 0, "lon": -77.0455675}, {"fusion_lat": 0.0, "name": "26a05fe1dfa7c4d116ae63d6331cf3a1", "is_disabled": 0, "rental_uris": {"android": "https://dc.lft.to/lastmile_qr_scan", "ios": "https://dc.lft.to/lastmile_qr_scan"}, "fusion_lon": 0.0, "lat": 38.900242666666664, "bike_id": "26a05fe1dfa7c4d116ae63d6331cf3a1", "type": "electric_scooter", "is_reserved": 0, "lon": -76.998699}, {"fusion_lat": 0.0, "name": "3814c1d3a1b438cc7ba81f4c03885ce8", "is_disabled": 0, "rental_uris": {"android": "https://dc.lft.to/lastmile_qr_scan", "ios": "https://dc.lft.to/lastmile_qr_scan"}, "fusion_lon": 0.0, "lat": 38.9192705, "bike_id": "3814c1d3a1b438cc7ba81f4c03885ce8", "type": "electric_scooter", "is_reserved": 0, "lon": -77.024115}, {"fusion_lat": 0.0, "name": "2ae1e58adc378878a739cbff61c21dac", "is_disabled": 0, "rental_uris": {"android": "https://dc.lft.to/lastmile_qr_scan", "ios": "https://dc.lft.to/lastmile_qr_scan"}, "fusion_lon": 0.0, "lat": 38.911912666666666, "bike_id": "2ae1e58adc378878a739cbff61c21dac", "type": "electric_scooter", "is_reserved": 0, "lon": -77.0376665}, {"fusion_lat": 0.0, "name": "79b1619e1795676711886b49764a50ff", "is_disabled": 0, "rental_uris": {"android": "https://dc.lft.to/lastmile_qr_scan", "ios": "https://dc.lft.to/lastmile_qr_scan"}, "fusion_lon": 0.0, "lat": 38.93108183333333, "bike_id": "79b1619e1795676711886b49764a50ff", "type": "electric_scooter", "is_reserved": 0, "lon": -77.02380383333333}, {"fusion_lat": 0.0, "name": "3efa7f6a4eafef653aae9a6d81619119", "is_disabled": 0, "rental_uris": {"android": "https://dc.lft.to/lastmile_qr_scan", "ios": "https://dc.lft.to/lastmile_qr_scan"}, "fusion_lon": 0.0, "lat": 38.89207783333333, "bike_id": "3efa7f6a4eafef653aae9a6d81619119", "type": "electric_scooter", "is_reserved": 0, "lon": -76.9956895}, {"fusion_lat": 0.0, "name": "0d632b8d829cf924adfadd52992c9994", "is_disabled": 0, "rental_uris": {"android": "https://dc.lft.to/lastmile_qr_scan", "ios": "https://dc.lft.to/lastmile_qr_scan"}, "fusion_lon": 0.0, "lat": 38.91811283333333, "bike_id": "0d632b8d829cf924adfadd52992c9994", "type": "electric_scooter", "is_reserved": 0, "lon": -77.0400395}, {"fusion_lat": 0.0, "name": "5a00a1d8000b4240ef9130bbfef806e5", "is_disabled": 0, "rental_uris": {"android": "https://dc.lft.to/lastmile_qr_scan", "ios": "https://dc.lft.to/lastmile_qr_scan"}, "fusion_lon": 0.0, "lat": 38.90575333333334, "bike_id": "5a00a1d8000b4240ef9130bbfef806e5", "type": "electric_scooter", "is_reserved": 0, "lon": -77.04478883333333}, {"fusion_lat": 0.0, "name": "929e8080779a7ecda71fc77fcb1f505b", "is_disabled": 0, "rental_uris": {"android": "https://dc.lft.to/lastmile_qr_scan", "ios": "https://dc.lft.to/lastmile_qr_scan"}, "fusion_lon": 0.0, "lat": 38.956076333333336, "bike_id": "929e8080779a7ecda71fc77fcb1f505b", "type": "electric_scooter", "is_reserved": 0, "lon": -77.03353816666667}, {"fusion_lat": 0.0, "name": "2c883a134bafe83a9b2ff83331b27c64", "is_disabled": 0, "rental_uris": {"android": "https://dc.lft.to/lastmile_qr_scan", "ios": "https://dc.lft.to/lastmile_qr_scan"}, "fusion_lon": 0.0, "lat": 38.912636166666665, "bike_id": "2c883a134bafe83a9b2ff83331b27c64", "type": "electric_scooter", "is_reserved": 0, "lon": -77.0282345}, {"fusion_lat": 0.0, "name": "e7cba57d43d1958b90e21cbd8804e9e5", "is_disabled": 0, "rental_uris": {"android": "https://dc.lft.to/lastmile_qr_scan", "ios": "https://dc.lft.to/lastmile_qr_scan"}, "fusion_lon": 0.0, "lat": 38.898346333333336, "bike_id": "e7cba57d43d1958b90e21cbd8804e9e5", "type": "electric_scooter", "is_reserved": 0, "lon": -77.029742}, {"fusion_lat": 0.0, "name": "d29f18b548337379c51062a653d0d263", "is_disabled": 0, "rental_uris": {"android": "https://dc.lft.to/lastmile_qr_scan", "ios": "https://dc.lft.to/lastmile_qr_scan"}, "fusion_lon": 0.0, "lat": 38.93775766666667, "bike_id": "d29f18b548337379c51062a653d0d263", "type": "electric_scooter", "is_reserved": 0, "lon": -77.032673}, {"fusion_lat": 0.0, "name": "9566e658cec380950dbd4f31bb3d421d", "is_disabled": 0, "rental_uris": {"android": "https://dc.lft.to/lastmile_qr_scan", "ios": "https://dc.lft.to/lastmile_qr_scan"}, "fusion_lon": 0.0, "lat": 38.95098083333333, "bike_id": "9566e658cec380950dbd4f31bb3d421d", "type": "electric_scooter", "is_reserved": 0, "lon": -77.02958966666667}, {"fusion_lat": 0.0, "name": "4abeb7827fdb3cdec62f9062624f4271", "is_disabled": 0, "rental_uris": {"android": "https://dc.lft.to/lastmile_qr_scan", "ios": "https://dc.lft.to/lastmile_qr_scan"}, "fusion_lon": 0.0, "lat": 38.93179333333333, "bike_id": "4abeb7827fdb3cdec62f9062624f4271", "type": "electric_scooter", "is_reserved": 0, "lon": -77.023527}, {"fusion_lat": 0.0, "name": "b852d422486a473f1dac00b845013070", "is_disabled": 0, "rental_uris": {"android": "https://dc.lft.to/lastmile_qr_scan", "ios": "https://dc.lft.to/lastmile_qr_scan"}, "fusion_lon": 0.0, "lat": 38.89857266666667, "bike_id": "b852d422486a473f1dac00b845013070", "type": "electric_scooter", "is_reserved": 0, "lon": -76.95047833333334}, {"fusion_lat": 0.0, "name": "acb82b075df33cc1d19baea7260162c1", "is_disabled": 0, "rental_uris": {"android": "https://dc.lft.to/lastmile_qr_scan", "ios": "https://dc.lft.to/lastmile_qr_scan"}, "fusion_lon": 0.0, "lat": 38.89897833333333, "bike_id": "acb82b075df33cc1d19baea7260162c1", "type": "electric_scooter", "is_reserved": 0, "lon": -77.02701216666667}, {"fusion_lat": 0.0, "name": "e1edba14677dd34221a699b5d128018e", "is_disabled": 0, "rental_uris": {"android": "https://dc.lft.to/lastmile_qr_scan", "ios": "https://dc.lft.to/lastmile_qr_scan"}, "fusion_lon": 0.0, "lat": 38.94507383333333, "bike_id": "e1edba14677dd34221a699b5d128018e", "type": "electric_scooter", "is_reserved": 0, "lon": -77.03864466666667}, {"fusion_lat": 0.0, "name": "83fe8bfb301dc6e93d9240ddcb8ae2fc", "is_disabled": 0, "rental_uris": {"android": "https://dc.lft.to/lastmile_qr_scan", "ios": "https://dc.lft.to/lastmile_qr_scan"}, "fusion_lon": 0.0, "lat": 38.905756833333335, "bike_id": "83fe8bfb301dc6e93d9240ddcb8ae2fc", "type": "electric_scooter", "is_reserved": 0, "lon": -77.04697166666666}, {"fusion_lat": 0.0, "name": "3df542db886ca07e3dc692fdfbb9746f", "is_disabled": 0, "rental_uris": {"android": "https://dc.lft.to/lastmile_qr_scan", "ios": "https://dc.lft.to/lastmile_qr_scan"}, "fusion_lon": 0.0, "lat": 38.911283, "bike_id": "3df542db886ca07e3dc692fdfbb9746f", "type": "electric_scooter", "is_reserved": 0, "lon": -77.02971533333333}, {"fusion_lat": 0.0, "name": "46cd030eb6ce396009f719a2921b079d", "is_disabled": 0, "rental_uris": {"android": "https://dc.lft.to/lastmile_qr_scan", "ios": "https://dc.lft.to/lastmile_qr_scan"}, "fusion_lon": 0.0, "lat": 38.906954666666664, "bike_id": "46cd030eb6ce396009f719a2921b079d", "type": "electric_scooter", "is_reserved": 0, "lon": -77.0317485}, {"fusion_lat": 0.0, "name": "dd4e9cdea0ac96bd2dc5962a75a191df", "is_disabled": 0, "rental_uris": {"android": "https://dc.lft.to/lastmile_qr_scan", "ios": "https://dc.lft.to/lastmile_qr_scan"}, "fusion_lon": 0.0, "lat": 38.9371775, "bike_id": "dd4e9cdea0ac96bd2dc5962a75a191df", "type": "electric_scooter", "is_reserved": 0, "lon": -77.02418933333334}, {"fusion_lat": 0.0, "name": "3f6a29c4b5e5f3a22cebcd213800b746", "is_disabled": 0, "rental_uris": {"android": "https://dc.lft.to/lastmile_qr_scan", "ios": "https://dc.lft.to/lastmile_qr_scan"}, "fusion_lon": 0.0, "lat": 38.920654166666665, "bike_id": "3f6a29c4b5e5f3a22cebcd213800b746", "type": "electric_bike", "is_reserved": 0, "lon": -77.24133883333333}, {"fusion_lat": 0.0, "name": "4665a19697b732a84c461652b202c0dc", "is_disabled": 0, "rental_uris": {"android": "https://dc.lft.to/lastmile_qr_scan", "ios": "https://dc.lft.to/lastmile_qr_scan"}, "fusion_lon": 0.0, "lat": 38.88770733333333, "bike_id": "4665a19697b732a84c461652b202c0dc", "type": "electric_scooter", "is_reserved": 0, "lon": -77.02367716666667}, {"fusion_lat": 0.0, "name": "abb5f31840435c28d45f2966c93f2f9a", "is_disabled": 0, "rental_uris": {"android": "https://dc.lft.to/lastmile_qr_scan", "ios": "https://dc.lft.to/lastmile_qr_scan"}, "fusion_lon": 0.0, "lat": 38.899241, "bike_id": "abb5f31840435c28d45f2966c93f2f9a", "type": "electric_scooter", "is_reserved": 0, "lon": -77.04030466666667}, {"fusion_lat": 0.0, "name": "b8442fb877dd1ca5245012c2402af65b", "is_disabled": 0, "rental_uris": {"android": "https://dc.lft.to/lastmile_qr_scan", "ios": "https://dc.lft.to/lastmile_qr_scan"}, "fusion_lon": 0.0, "lat": 38.906576333333334, "bike_id": "b8442fb877dd1ca5245012c2402af65b", "type": "electric_scooter", "is_reserved": 0, "lon": -77.03163966666666}, {"fusion_lat": 0.0, "name": "9d32c8781d8689895ca4f77cb4861890", "is_disabled": 0, "rental_uris": {"android": "https://dc.lft.to/lastmile_qr_scan", "ios": "https://dc.lft.to/lastmile_qr_scan"}, "fusion_lon": 0.0, "lat": 38.876519333333334, "bike_id": "9d32c8781d8689895ca4f77cb4861890", "type": "electric_scooter", "is_reserved": 0, "lon": -77.0031725}, {"fusion_lat": 0.0, "name": "24b7fb09ac07d6afa7c8ec17b963ab9a", "is_disabled": 0, "rental_uris": {"android": "https://dc.lft.to/lastmile_qr_scan", "ios": "https://dc.lft.to/lastmile_qr_scan"}, "fusion_lon": 0.0, "lat": 38.8775155, "bike_id": "24b7fb09ac07d6afa7c8ec17b963ab9a", "type": "electric_scooter", "is_reserved": 0, "lon": -77.00340866666667}, {"fusion_lat": 0.0, "name": "bf042924d59c71986b270966d8abb23d", "is_disabled": 0, "rental_uris": {"android": "https://dc.lft.to/lastmile_qr_scan", "ios": "https://dc.lft.to/lastmile_qr_scan"}, "fusion_lon": 0.0, "lat": 38.89732766666667, "bike_id": "bf042924d59c71986b270966d8abb23d", "type": "electric_scooter", "is_reserved": 0, "lon": -77.01920066666666}, {"fusion_lat": 0.0, "name": "4b0d81ac5c6b8fc3477bc3f979b37f97", "is_disabled": 0, "rental_uris": {"android": "https://dc.lft.to/lastmile_qr_scan", "ios": "https://dc.lft.to/lastmile_qr_scan"}, "fusion_lon": 0.0, "lat": 38.9272185, "bike_id": "4b0d81ac5c6b8fc3477bc3f979b37f97", "type": "electric_bike", "is_reserved": 0, "lon": -77.02957316666667}, {"fusion_lat": 0.0, "name": "57546a132c91d26e9f3d4db2835d7985", "is_disabled": 0, "rental_uris": {"android": "https://dc.lft.to/lastmile_qr_scan", "ios": "https://dc.lft.to/lastmile_qr_scan"}, "fusion_lon": 0.0, "lat": 38.90972766666667, "bike_id": "57546a132c91d26e9f3d4db2835d7985", "type": "electric_scooter", "is_reserved": 0, "lon": -77.03207833333333}, {"fusion_lat": 0.0, "name": "659c2e570be2ea71acc45a76e62714a4", "is_disabled": 0, "rental_uris": {"android": "https://dc.lft.to/lastmile_qr_scan", "ios": "https://dc.lft.to/lastmile_qr_scan"}, "fusion_lon": 0.0, "lat": 38.90935983333333, "bike_id": "659c2e570be2ea71acc45a76e62714a4", "type": "electric_scooter", "is_reserved": 0, "lon": -77.0280605}, {"fusion_lat": 0.0, "name": "65caac48baf2bbb557f5a391294d31e8", "is_disabled": 0, "rental_uris": {"android": "https://dc.lft.to/lastmile_qr_scan", "ios": "https://dc.lft.to/lastmile_qr_scan"}, "fusion_lon": 0.0, "lat": 38.90325133333333, "bike_id": "65caac48baf2bbb557f5a391294d31e8", "type": "electric_scooter", "is_reserved": 0, "lon": -77.04479283333333}, {"fusion_lat": 0.0, "name": "978f9e995df532f627252f2fffd7ccfa", "is_disabled": 0, "rental_uris": {"android": "https://dc.lft.to/lastmile_qr_scan", "ios": "https://dc.lft.to/lastmile_qr_scan"}, "fusion_lon": 0.0, "lat": 38.90803566666666, "bike_id": "978f9e995df532f627252f2fffd7ccfa", "type": "electric_scooter", "is_reserved": 0, "lon": -77.02947583333334}, {"fusion_lat": 0.0, "name": "3f05a26a851d2fc369ab90bd68a712fd", "is_disabled": 0, "rental_uris": {"android": "https://dc.lft.to/lastmile_qr_scan", "ios": "https://dc.lft.to/lastmile_qr_scan"}, "fusion_lon": 0.0, "lat": 38.912606, "bike_id": "3f05a26a851d2fc369ab90bd68a712fd", "type": "electric_scooter", "is_reserved": 0, "lon": -77.02812583333333}, {"fusion_lat": 0.0, "name": "6a928300d0b220dc5ed5e64e82e39f6c", "is_disabled": 0, "rental_uris": {"android": "https://dc.lft.to/lastmile_qr_scan", "ios": "https://dc.lft.to/lastmile_qr_scan"}, "fusion_lon": 0.0, "lat": 38.895604666666664, "bike_id": "6a928300d0b220dc5ed5e64e82e39f6c", "type": "electric_scooter", "is_reserved": 0, "lon": -76.948764}, {"fusion_lat": 0.0, "name": "57419cd6cee59482e27cbaa1503e7938", "is_disabled": 0, "rental_uris": {"android": "https://dc.lft.to/lastmile_qr_scan", "ios": "https://dc.lft.to/lastmile_qr_scan"}, "fusion_lon": 0.0, "lat": 38.923140833333335, "bike_id": "57419cd6cee59482e27cbaa1503e7938", "type": "electric_scooter", "is_reserved": 0, "lon": -77.04024216666667}, {"fusion_lat": 0.0, "name": "4b8caa6690d235920377c0f512128c6a", "is_disabled": 0, "rental_uris": {"android": "https://dc.lft.to/lastmile_qr_scan", "ios": "https://dc.lft.to/lastmile_qr_scan"}, "fusion_lon": 0.0, "lat": 38.89896133333333, "bike_id": "4b8caa6690d235920377c0f512128c6a", "type": "electric_scooter", "is_reserved": 0, "lon": -77.03920783333334}, {"fusion_lat": 0.0, "name": "23f9ca325bdbd7248b2630ea956e2ff9", "is_disabled": 0, "rental_uris": {"android": "https://dc.lft.to/lastmile_qr_scan", "ios": "https://dc.lft.to/lastmile_qr_scan"}, "fusion_lon": 0.0, "lat": 38.91725666666667, "bike_id": "23f9ca325bdbd7248b2630ea956e2ff9", "type": "electric_scooter", "is_reserved": 0, "lon": -77.02289466666667}, {"fusion_lat": 0.0, "name": "5fae6e328642e86c64d37843c1718cdf", "is_disabled": 0, "rental_uris": {"android": "https://dc.lft.to/lastmile_qr_scan", "ios": "https://dc.lft.to/lastmile_qr_scan"}, "fusion_lon": 0.0, "lat": 38.90534233333333, "bike_id": "5fae6e328642e86c64d37843c1718cdf", "type": "electric_bike", "is_reserved": 0, "lon": -76.99803016666667}, {"fusion_lat": 0.0, "name": "83669bb5416db827d8e79fb5229ed8dd", "is_disabled": 0, "rental_uris": {"android": "https://dc.lft.to/lastmile_qr_scan", "ios": "https://dc.lft.to/lastmile_qr_scan"}, "fusion_lon": 0.0, "lat": 38.90029366666667, "bike_id": "83669bb5416db827d8e79fb5229ed8dd", "type": "electric_scooter", "is_reserved": 0, "lon": -76.99631783333334}, {"fusion_lat": 0.0, "name": "9ed35426b76b7dc2f9d926877254fcce", "is_disabled": 0, "rental_uris": {"android": "https://dc.lft.to/lastmile_qr_scan", "ios": "https://dc.lft.to/lastmile_qr_scan"}, "fusion_lon": 0.0, "lat": 38.92032183333333, "bike_id": "9ed35426b76b7dc2f9d926877254fcce", "type": "electric_scooter", "is_reserved": 0, "lon": -76.98994033333334}, {"fusion_lat": 0.0, "name": "f7b8922279886f8e3a1c319e248fc03a", "is_disabled": 0, "rental_uris": {"android": "https://dc.lft.to/lastmile_qr_scan", "ios": "https://dc.lft.to/lastmile_qr_scan"}, "fusion_lon": 0.0, "lat": 38.908921166666666, "bike_id": "f7b8922279886f8e3a1c319e248fc03a", "type": "electric_scooter", "is_reserved": 0, "lon": -77.04384733333333}, {"fusion_lat": 0.0, "name": "0c595885dc5ba54476b408aff55c9243", "is_disabled": 0, "rental_uris": {"android": "https://dc.lft.to/lastmile_qr_scan", "ios": "https://dc.lft.to/lastmile_qr_scan"}, "fusion_lon": 0.0, "lat": 38.86268883333334, "bike_id": "0c595885dc5ba54476b408aff55c9243", "type": "electric_bike", "is_reserved": 0, "lon": -76.98349683333333}, {"fusion_lat": 0.0, "name": "d95d0a5399c19896968d1dc8ce721f84", "is_disabled": 0, "rental_uris": {"android": "https://dc.lft.to/lastmile_qr_scan", "ios": "https://dc.lft.to/lastmile_qr_scan"}, "fusion_lon": 0.0, "lat": 38.905683, "bike_id": "d95d0a5399c19896968d1dc8ce721f84", "type": "electric_scooter", "is_reserved": 0, "lon": -77.00596083333333}, {"fusion_lat": 0.0, "name": "6cc70cab9afccb9786a4ae5fd839d393", "is_disabled": 0, "rental_uris": {"android": "https://dc.lft.to/lastmile_qr_scan", "ios": "https://dc.lft.to/lastmile_qr_scan"}, "fusion_lon": 0.0, "lat": 38.9269705, "bike_id": "6cc70cab9afccb9786a4ae5fd839d393", "type": "electric_scooter", "is_reserved": 0, "lon": -77.05381616666666}, {"fusion_lat": 0.0, "name": "87fa2d9096ec140ed2968a6d936d51fc", "is_disabled": 0, "rental_uris": {"android": "https://dc.lft.to/lastmile_qr_scan", "ios": "https://dc.lft.to/lastmile_qr_scan"},