{"data": {"bikes": [{"lat": 38.90374166666667, "is_disabled": 0, "type": "electric_scooter", "lon": -77.00760316666667, "bike_id": "0ef1aa8cbcc6a58f6a4c908a2afd2af4", "fusion_lat": 0.0, "name": "0ef1aa8cbcc6a58f6a4c908a2afd2af4", "is_reserved": 0, "rental_uris": {"android": "https://dc.lft.to/lastmile_qr_scan", "ios": "https://dc.lft.to/lastmile_qr_scan"}, "fusion_lon": 0.0}, {"lat": 38.90034283333333, "is_disabled": 0, "type": "electric_scooter", "lon": -77.0219535, "bike_id": "680e6a036a7a727083cc6d42ad033974", "fusion_lat": 0.0, "name": "680e6a036a7a727083cc6d42ad033974", "is_reserved": 0, "rental_uris": {"android": "https://dc.lft.to/lastmile_qr_scan", "ios": "https://dc.lft.to/lastmile_qr_scan"}, "fusion_lon": 0.0}, {"lat": 38.899142, "is_disabled": 0, "type": "electric_bike", "lon": -77.03263033333333, "bike_id": "024f8b731fea33b20e2e28a3e37c8826", "fusion_lat": 0.0, "name": "024f8b731fea33b20e2e28a3e37c8826", "is_reserved": 0, "rental_uris": {"android": "https://dc.lft.to/lastmile_qr_scan", "ios": "https://dc.lft.to/lastmile_qr_scan"}, "fusion_lon": 0.0}, {"lat": 38.886597333333334, "is_disabled": 0, "type": "electric_scooter", "lon": -77.01378683333333, "bike_id": "bdb75601315767df406ca9ec9c5d2f47", "fusion_lat": 0.0, "name": "bdb75601315767df406ca9ec9c5d2f47", "is_reserved": 0, "rental_uris": {"android": "https://dc.lft.to/lastmile_qr_scan", "ios": "https://dc.lft.to/lastmile_qr_scan"}, "fusion_lon": 0.0}, {"lat": 38.9158955, "is_disabled": 0, "type": "electric_scooter", "lon": -77.0212685, "bike_id": "be601eb6af6f3338cb686d046807ee8c", "fusion_lat": 0.0, "name": "be601eb6af6f3338cb686d046807ee8c", "is_reserved": 0, "rental_uris": {"android": "https://dc.lft.to/lastmile_qr_scan", "ios": "https://dc.lft.to/lastmile_qr_scan"}, "fusion_lon": 0.0}, {"lat": 38.89217933333333, "is_disabled": 0, "type": "electric_bike", "lon": -77.10779833333333, "bike_id": "dded9b40e40f1c7893a688e079fb7448", "fusion_lat": 0.0, "name": "dded9b40e40f1c7893a688e079fb7448", "is_reserved": 0, "rental_uris": {"android": "https://dc.lft.to/lastmile_qr_scan", "ios": "https://dc.lft.to/lastmile_qr_scan"}, "fusion_lon": 0.0}, {"lat": 38.9621695, "is_disabled": 0, "type": "electric_bike", "lon": -77.02624616666667, "bike_id": "46ac1545ffa687c23362da3f3ae54e38", "fusion_lat": 0.0, "name": "46ac1545ffa687c23362da3f3ae54e38", "is_reserved": 0, "rental_uris": {"android": "https://dc.lft.to/lastmile_qr_scan", "ios": "https://dc.lft.to/lastmile_qr_scan"}, "fusion_lon": 0.0}, {"lat": 38.91080433333333, "is_disabled": 0, "type": "electric_scooter", "lon": -77.044004, "bike_id": "0f5eb8f8d018f6d0e6536f02bc915eae", "fusion_lat": 0.0, "name": "0f5eb8f8d018f6d0e6536f02bc915eae", "is_reserved": 0, "rental_uris": {"android": "https://dc.lft.to/lastmile_qr_scan", "ios": "https://dc.lft.to/lastmile_qr_scan"}, "fusion_lon": 0.0}, {"lat": 38.894636, "is_disabled": 0, "type": "electric_bike", "lon": -77.0731675, "bike_id": "1293b3dabdfe4c2a57d894fb906a12bb", "fusion_lat": 0.0, "name": "1293b3dabdfe4c2a57d894fb906a12bb", "is_reserved": 0, "rental_uris": {"android": "https://dc.lft.to/lastmile_qr_scan", "ios": "https://dc.lft.to/lastmile_qr_scan"}, "fusion_lon": 0.0}, {"lat": 38.925103166666666, "is_disabled": 0, "type": "electric_scooter", "lon": -77.02353916666667, "bike_id": "4f9e0b04c238b5f65ecf090099438e7a", "fusion_lat": 0.0, "name": "4f9e0b04c238b5f65ecf090099438e7a", "is_reserved": 0, "rental_uris": {"android": "https://dc.lft.to/lastmile_qr_scan", "ios": "https://dc.lft.to/lastmile_qr_scan"}, "fusion_lon": 0.0}, {"lat": 38.89836, "is_disabled": 0, "type": "electric_scooter", "lon": -76.9950695, "bike_id": "1d2c7208b9a4c5f6cd3f224dc3742e03", "fusion_lat": 0.0, "name": "1d2c7208b9a4c5f6cd3f224dc3742e03", "is_reserved": 0, "rental_uris": {"android": "https://dc.lft.to/lastmile_qr_scan", "ios": "https://dc.lft.to/lastmile_qr_scan"}, "fusion_lon": 0.0}, {"lat": 38.90973983333333, "is_disabled": 0, "type": "electric_scooter", "lon": -77.04610933333333, "bike_id": "6d38c5c492848c80f4c46b2a4c579c7a", "fusion_lat": 0.0, "name": "6d38c5c492848c80f4c46b2a4c579c7a", "is_reserved": 0, "rental_uris": {"android": "https://dc.lft.to/lastmile_qr_scan", "ios": "https://dc.lft.to/lastmile_qr_scan"}, "fusion_lon": 0.0}, {"lat": 38.9373505, "is_disabled": 0, "type": "electric_scooter", "lon": -77.03613816666666, "bike_id": "c348285fba1e7d817f63c6d3e0e4e195", "fusion_lat": 0.0, "name": "c348285fba1e7d817f63c6d3e0e4e195", "is_reserved": 0, "rental_uris": {"android": "https://dc.lft.to/lastmile_qr_scan", "ios": "https://dc.lft.to/lastmile_qr_scan"}, "fusion_lon": 0.0}, {"lat": 38.91114116666667, "is_disabled": 0, "type": "electric_scooter", "lon": -77.04357816666666, "bike_id": "c6ab8b63c631ff515a222f2d9da56fc7", "fusion_lat": 0.0, "name": "c6ab8b63c631ff515a222f2d9da56fc7", "is_reserved": 0, "rental_uris": {"android": "https://dc.lft.to/lastmile_qr_scan", "ios": "https://dc.lft.to/lastmile_qr_scan"}, "fusion_lon": 0.0}, {"lat": 38.89071966666667, "is_disabled": 0, "type": "electric_scooter", "lon": -76.98837316666666, "bike_id": "1438c65aea7fea573800395d1266bccf", "fusion_lat": 0.0, "name": "1438c65aea7fea573800395d1266bccf", "is_reserved": 0, "rental_uris": {"android": "https://dc.lft.to/lastmile_qr_scan", "ios": "https://dc.lft.to/lastmile_qr_scan"}, "fusion_lon": 0.0}, {"lat": 38.851893833333335, "is_disabled": 0, "type": "electric_scooter", "lon": -76.97621916666667, "bike_id": "2e63c4a30d3ffe021abc5ddec69e464f", "fusion_lat": 0.0, "name": "2e63c4a30d3ffe021abc5ddec69e464f", "is_reserved": 0, "rental_uris": {"android": "https://dc.lft.to/lastmile_qr_scan", "ios": "https://dc.lft.to/lastmile_qr_scan"}, "fusion_lon": 0.0}, {"lat": 38.84429016666667, "is_disabled": 0, "type": "electric_scooter", "lon": -76.99657466666666, "bike_id": "817a392250404fdc59bf04fe0cb24afc", "fusion_lat": 0.0, "name": "817a392250404fdc59bf04fe0cb24afc", "is_reserved": 0, "rental_uris": {"android": "https://dc.lft.to/lastmile_qr_scan", "ios": "https://dc.lft.to/lastmile_qr_scan"}, "fusion_lon": 0.0}, {"lat": 38.905142, "is_disabled": 0, "type": "electric_scooter", "lon": -77.06180766666667, "bike_id": "e93bb850d2ef80886da349a2c6b88825", "fusion_lat": 0.0, "name": "e93bb850d2ef80886da349a2c6b88825", "is_reserved": 0, "rental_uris": {"android": "https://dc.lft.to/lastmile_qr_scan", "ios": "https://dc.lft.to/lastmile_qr_scan"}, "fusion_lon": 0.0}, {"lat": 38.945495, "is_disabled": 0, "type": "electric_bike", "lon": -76.8953735, "bike_id": "b6ea2b530a03a33b34ce5a9eef51ab30", "fusion_lat": 0.0, "name": "b6ea2b530a03a33b34ce5a9eef51ab30", "is_reserved": 0, "rental_uris": {"android": "https://dc.lft.to/lastmile_qr_scan", "ios": "https://dc.lft.to/lastmile_qr_scan"}, "fusion_lon": 0.0}, {"lat": 38.901319, "is_disabled": 0, "type": "electric_scooter", "lon": -77.0434105, "bike_id": "9f6d4015bac7e697786b511c9c17919f", "fusion_lat": 0.0, "name": "9f6d4015bac7e697786b511c9c17919f", "is_reserved": 0, "rental_uris": {"android": "https://dc.lft.to/lastmile_qr_scan", "ios": "https://dc.lft.to/lastmile_qr_scan"}, "fusion_lon": 0.0}, {"lat": 39.0342165, "is_disabled": 0, "type": "electric_bike", "lon": -77.042978, "bike_id": "1466a335c886c06de50c184d4c1bee3e", "fusion_lat": 0.0, "name": "1466a335c886c06de50c184d4c1bee3e", "is_reserved": 0, "rental_uris": {"android": "https://dc.lft.to/lastmile_qr_scan", "ios": "https://dc.lft.to/lastmile_qr_scan"}, "fusion_lon": 0.0}, {"lat": 38.900781333333335, "is_disabled": 0, "type": "electric_scooter", "lon": -77.04901883333334, "bike_id": "4385e0f28446f2c35ad0609f19acdab2", "fusion_lat": 0.0, "name": "4385e0f28446f2c35ad0609f19acdab2", "is_reserved": 0, "rental_uris": {"android": "https://dc.lft.to/lastmile_qr_scan", "ios": "https://dc.lft.to/lastmile_qr_scan"}, "fusion_lon": 0.0}, {"lat": 38.93655416666667, "is_disabled": 0, "type": "electric_bike", "lon": -76.95221216666667, "bike_id": "55951f45a7bb10f0fa5c9c76dd2ba77d", "fusion_lat": 0.0, "name": "55951f45a7bb10f0fa5c9c76dd2ba77d", "is_reserved": 0, "rental_uris": {"android": "https://dc.lft.to/lastmile_qr_scan", "ios": "https://dc.lft.to/lastmile_qr_scan"}, "fusion_lon": 0.0}, {"lat": 38.8571395, "is_disabled": 0, "type": "electric_scooter", "lon": -76.98674216666667, "bike_id": "45e70e209b70ba0d189732daa55d8e49", "fusion_lat": 0.0, "name": "45e70e209b70ba0d189732daa55d8e49", "is_reserved": 0, "rental_uris": {"android": "https://dc.lft.to/lastmile_qr_scan", "ios": "https://dc.lft.to/lastmile_qr_scan"}, "fusion_lon": 0.0}, {"lat": 38.9925365, "is_disabled": 0, "type": "electric_scooter", "lon": -77.03656033333333, "bike_id": "d9aeb276d926ae10a4a35d41e2685838", "fusion_lat": 0.0, "name": "d9aeb276d926ae10a4a35d41e2685838", "is_reserved": 0, "rental_uris": {"android": "https://dc.lft.to/lastmile_qr_scan", "ios": "https://dc.lft.to/lastmile_qr_scan"}, "fusion_lon": 0.0}, {"lat": 38.925885666666666, "is_disabled": 0, "type": "electric_scooter", "lon": -77.044111, "bike_id": "54f1835cc82e737bbcd69be629ce6520", "fusion_lat": 0.0, "name": "54f1835cc82e737bbcd69be629ce6520", "is_reserved": 0, "rental_uris": {"android": "https://dc.lft.to/lastmile_qr_scan", "ios": "https://dc.lft.to/lastmile_qr_scan"}, "fusion_lon": 0.0}, {"lat": 38.89346583333333, "is_disabled": 0, "type": "electric_scooter", "lon": -77.0414205, "bike_id": "e559dfcdfd58df013a5b234b0b3d03a1", "fusion_lat": 0.0, "name": "e559dfcdfd58df013a5b234b0b3d03a1", "is_reserved": 0, "rental_uris": {"android": "https://dc.lft.to/lastmile_qr_scan", "ios": "https://dc.lft.to/lastmile_qr_scan"}, "fusion_lon": 0.0}, {"lat": 38.900701833333336, "is_disabled": 0, "type": "electric_scooter", "lon": -77.00205166666667, "bike_id": "c44f60f2672cb06c6832d87c52147621", "fusion_lat": 0.0, "name": "c44f60f2672cb06c6832d87c52147621", "is_reserved": 0, "rental_uris": {"android": "https://dc.lft.to/lastmile_qr_scan", "ios": "https://dc.lft.to/lastmile_qr_scan"}, "fusion_lon": 0.0}, {"lat": 38.851868833333334, "is_disabled": 0, "type": "electric_bike", "lon": -76.9610885, "bike_id": "f9293f7ede3ebb501db9e37875f0fc9a", "fusion_lat": 0.0, "name": "f9293f7ede3ebb501db9e37875f0fc9a", "is_reserved": 0, "rental_uris": {"android": "https://dc.lft.to/lastmile_qr_scan", "ios": "https://dc.lft.to/lastmile_qr_scan"}, "fusion_lon": 0.0}, {"lat": 38.9225015, "is_disabled": 0, "type": "electric_scooter", "lon": -77.03389633333333, "bike_id": "f82334cc49a252dfb18796ed1538c317", "fusion_lat": 0.0, "name": "f82334cc49a252dfb18796ed1538c317", "is_reserved": 0, "rental_uris": {"android": "https://dc.lft.to/lastmile_qr_scan", "ios": "https://dc.lft.to/lastmile_qr_scan"}, "fusion_lon": 0.0}, {"lat": 38.94093083333333, "is_disabled": 0, "type": "electric_scooter", "lon": -77.02106533333334, "bike_id": "d4a5b962847defcf0a7f92471f8cbf60", "fusion_lat": 0.0, "name": "d4a5b962847defcf0a7f92471f8cbf60", "is_reserved": 0, "rental_uris": {"android": "https://dc.lft.to/lastmile_qr_scan", "ios": "https://dc.lft.to/lastmile_qr_scan"}, "fusion_lon": 0.0}, {"lat": 38.905657166666664, "is_disabled": 0, "type": "electric_scooter", "lon": -77.01953916666666, "bike_id": "d41bb8c1d71727c70bb0d9c683fcfe76", "fusion_lat": 0.0, "name": "d41bb8c1d71727c70bb0d9c683fcfe76", "is_reserved": 0, "rental_uris": {"android": "https://dc.lft.to/lastmile_qr_scan", "ios": "https://dc.lft.to/lastmile_qr_scan"}, "fusion_lon": 0.0}, {"lat": 38.908340833333334, "is_disabled": 0, "type": "electric_scooter", "lon": -77.0385355, "bike_id": "bb6435fb9de28a7e52e76f842dcbff8e", "fusion_lat": 0.0, "name": "bb6435fb9de28a7e52e76f842dcbff8e", "is_reserved": 0, "rental_uris": {"android": "https://dc.lft.to/lastmile_qr_scan", "ios": "https://dc.lft.to/lastmile_qr_scan"}, "fusion_lon": 0.0}, {"lat": 38.90963833333333, "is_disabled": 0, "type": "electric_scooter", "lon": -77.02395183333333, "bike_id": "7778278d70ccf39aecee76149ca093ce", "fusion_lat": 0.0, "name": "7778278d70ccf39aecee76149ca093ce", "is_reserved": 0, "rental_uris": {"android": "https://dc.lft.to/lastmile_qr_scan", "ios": "https://dc.lft.to/lastmile_qr_scan"}, "fusion_lon": 0.0}, {"lat": 38.943895166666664, "is_disabled": 0, "type": "electric_scooter", "lon": -77.01979116666666, "bike_id": "a353ce69db82c965d31b470ed6899fb9", "fusion_lat": 0.0, "name": "a353ce69db82c965d31b470ed6899fb9", "is_reserved": 0, "rental_uris": {"android": "https://dc.lft.to/lastmile_qr_scan", "ios": "https://dc.lft.to/lastmile_qr_scan"}, "fusion_lon": 0.0}, {"lat": 38.94437416666667, "is_disabled": 0, "type": "electric_scooter", "lon": -77.01503083333333, "bike_id": "9cf77fd03c0e62a3a602084d2b9bcf61", "fusion_lat": 0.0, "name": "9cf77fd03c0e62a3a602084d2b9bcf61", "is_reserved": 0, "rental_uris": {"android": "https://dc.lft.to/lastmile_qr_scan", "ios": "https://dc.lft.to/lastmile_qr_scan"}, "fusion_lon": 0.0}, {"lat": 38.90183616666667, "is_disabled": 0, "type": "electric_scooter", "lon": -77.02671716666667, "bike_id": "20bd3ea2d4506f1a36c825ab0d20fa1b", "fusion_lat": 0.0, "name": "20bd3ea2d4506f1a36c825ab0d20fa1b", "is_reserved": 0, "rental_uris": {"android": "https://dc.lft.to/lastmile_qr_scan", "ios": "https://dc.lft.to/lastmile_qr_scan"}, "fusion_lon": 0.0}, {"lat": 38.8551445, "is_disabled": 0, "type": "electric_bike", "lon": -77.12014833333333, "bike_id": "69c71a63f0f1bb874fb87d7108cf6b08", "fusion_lat": 0.0, "name": "69c71a63f0f1bb874fb87d7108cf6b08", "is_reserved": 0, "rental_uris": {"android": "https://dc.lft.to/lastmile_qr_scan", "ios": "https://dc.lft.to/lastmile_qr_scan"}, "fusion_lon": 0.0}, {"lat": 38.915486333333334, "is_disabled": 0, "type": "electric_scooter", "lon": -77.038611, "bike_id": "80c197f4fb12b6644bbc271b954bdebb", "fusion_lat": 0.0, "name": "80c197f4fb12b6644bbc271b954bdebb", "is_reserved": 0, "rental_uris": {"android": "https://dc.lft.to/lastmile_qr_scan", "ios": "https://dc.lft.to/lastmile_qr_scan"}, "fusion_lon": 0.0}, {"lat": 38.91533783333333, "is_disabled": 0, "type": "electric_scooter", "lon": -77.0220235, "bike_id": "9990a79301c5b69b8bf83ac36f3aafe2", "fusion_lat": 0.0, "name": "9990a79301c5b69b8bf83ac36f3aafe2", "is_reserved": 0, "rental_uris": {"android": "https://dc.lft.to/lastmile_qr_scan", "ios": "https://dc.lft.to/lastmile_qr_scan"}, "fusion_lon": 0.0}, {"lat": 38.807514, "is_disabled": 0, "type": "electric_bike", "lon": -77.0945345, "bike_id": "cda8f997258dae51354a4fc74b3f4922", "fusion_lat": 0.0, "name": "cda8f997258dae51354a4fc74b3f4922", "is_reserved": 0, "rental_uris": {"android": "https://dc.lft.to/lastmile_qr_scan", "ios": "https://dc.lft.to/lastmile_qr_scan"}, "fusion_lon": 0.0}, {"lat": 38.924530833333336, "is_disabled": 0, "type": "electric_scooter", "lon": -77.04019683333334, "bike_id": "94d72aead08154f7d17fca7dc076c193", "fusion_lat": 0.0, "name": "94d72aead08154f7d17fca7dc076c193", "is_reserved": 0, "rental_uris": {"android": "https://dc.lft.to/lastmile_qr_scan", "ios": "https://dc.lft.to/lastmile_qr_scan"}, "fusion_lon": 0.0}, {"lat": 38.91125483333333, "is_disabled": 0, "type": "electric_scooter", "lon": -77.04350183333334, "bike_id": "0334ca6906788d3e05da9424209815b0", "fusion_lat": 0.0, "name": "0334ca6906788d3e05da9424209815b0", "is_reserved": 0, "rental_uris": {"android": "https://dc.lft.to/lastmile_qr_scan", "ios": "https://dc.lft.to/lastmile_qr_scan"}, "fusion_lon": 0.0}, {"lat": 38.884708833333335, "is_disabled": 0, "type": "electric_scooter", "lon": -76.99281183333333, "bike_id": "c81669987e357fe39591faf4d42248a5", "fusion_lat": 0.0, "name": "c81669987e357fe39591faf4d42248a5", "is_reserved": 0, "rental_uris": {"android": "https://dc.lft.to/lastmile_qr_scan", "ios": "https://dc.lft.to/lastmile_qr_scan"}, "fusion_lon": 0.0}, {"lat": 39.02931983333333, "is_disabled": 0, "type": "electric_bike", "lon": -77.049274, "bike_id": "6eb57df443fe97f352b143b39ca8d0f4", "fusion_lat": 0.0, "name": "6eb57df443fe97f352b143b39ca8d0f4", "is_reserved": 0, "rental_uris": {"android": "https://dc.lft.to/lastmile_qr_scan", "ios": "https://dc.lft.to/lastmile_qr_scan"}, "fusion_lon": 0.0}, {"lat": 38.892187666666665, "is_disabled": 0, "type": "electric_scooter", "lon": -76.99586283333333, "bike_id": "1b71559a992a6806ca9377487b837b93", "fusion_lat": 0.0, "name": "1b71559a992a6806ca9377487b837b93", "is_reserved": 0, "rental_uris": {"android": "https://dc.lft.to/lastmile_qr_scan", "ios": "https://dc.lft.to/lastmile_qr_scan"}, "fusion_lon": 0.0}, {"lat": 38.902510166666666, "is_disabled": 0, "type": "electric_scooter", "lon": -77.0268965, "bike_id": "6a717c3736e5a419a3b73095d7a04784", "fusion_lat": 0.0, "name": "6a717c3736e5a419a3b73095d7a04784", "is_reserved": 0, "rental_uris": {"android": "https://dc.lft.to/lastmile_qr_scan", "ios": "https://dc.lft.to/lastmile_qr_scan"}, "fusion_lon": 0.0}, {"lat": 38.8848695, "is_disabled": 0, "type": "electric_scooter", "lon": -77.007144, "bike_id": "48cece2aabf3e39fcaae692965d5f89e", "fusion_lat": 0.0, "name": "48cece2aabf3e39fcaae692965d5f89e", "is_reserved": 0, "rental_uris": {"android": "https://dc.lft.to/lastmile_qr_scan", "ios": "https://dc.lft.to/lastmile_qr_scan"}, "fusion_lon": 0.0}, {"lat": 38.88490616666667, "is_disabled": 0, "type": "electric_scooter", "lon": -77.007033, "bike_id": "469538dd0f5254c17019c7f76880ac74", "fusion_lat": 0.0, "name": "469538dd0f5254c17019c7f76880ac74", "is_reserved": 0, "rental_uris": {"android": "https://dc.lft.to/lastmile_qr_scan", "ios": "https://dc.lft.to/lastmile_qr_scan"}, "fusion_lon": 0.0}, {"lat": 38.91427216666666, "is_disabled": 0, "type": "electric_scooter", "lon": -77.03207933333333, "bike_id": "cc2038bb18af8faac5e99b8bf7e141cf", "fusion_lat": 0.0, "name": "cc2038bb18af8faac5e99b8bf7e141cf", "is_reserved": 0, "rental_uris": {"android": "https://dc.lft.to/lastmile_qr_scan", "ios": "https://dc.lft.to/lastmile_qr_scan"}, "fusion_lon": 0.0}, {"lat": 38.940385666666664, "is_disabled": 0, "type": "electric_bike", "lon": -76.98817866666667, "bike_id": "99ef0dd8f67375b3f3475e993ee67e93", "fusion_lat": 0.0, "name": "99ef0dd8f67375b3f3475e993ee67e93", "is_reserved": 0, "rental_uris": {"android": "https://dc.lft.to/lastmile_qr_scan", "ios": "https://dc.lft.to/lastmile_qr_scan"}, "fusion_lon": 0.0}, {"lat": 38.90846583333333, "is_disabled": 0, "type": "electric_scooter", "lon": -77.02056833333333, "bike_id": "c4fcf9da35a28ce9b25b6e75ee1d3b75", "fusion_lat": 0.0, "name": "c4fcf9da35a28ce9b25b6e75ee1d3b75", "is_reserved": 0, "rental_uris": {"android": "https://dc.lft.to/lastmile_qr_scan", "ios": "https://dc.lft.to/lastmile_qr_scan"}, "fusion_lon": 0.0}, {"lat": 38.9207, "is_disabled": 0, "type": "electric_scooter", "lon": -77.02536416666666, "bike_id": "ec4988853a62c38507f493cb51148b8b", "fusion_lat": 0.0, "name": "ec4988853a62c38507f493cb51148b8b", "is_reserved": 0, "rental_uris": {"android": "https://dc.lft.to/lastmile_qr_scan", "ios": "https://dc.lft.to/lastmile_qr_scan"}, "fusion_lon": 0.0}, {"lat": 38.800557166666664, "is_disabled": 0, "type": "electric_bike", "lon": -77.07109916666667, "bike_id": "0837e9dafce28e7272f575ad21692097", "fusion_lat": 0.0, "name": "0837e9dafce28e7272f575ad21692097", "is_reserved": 0, "rental_uris": {"android": "https://dc.lft.to/lastmile_qr_scan", "ios": "https://dc.lft.to/lastmile_qr_scan"}, "fusion_lon": 0.0}, {"lat": 38.95631066666667, "is_disabled": 0, "type": "electric_bike", "lon": -77.02297483333334, "bike_id": "52c1446a0df247edc55c25db45e9c2e5", "fusion_lat": 0.0, "name": "52c1446a0df247edc55c25db45e9c2e5", "is_reserved": 0, "rental_uris": {"android": "https://dc.lft.to/lastmile_qr_scan", "ios": "https://dc.lft.to/lastmile_qr_scan"}, "fusion_lon": 0.0}, {"lat": 38.918033333333334, "is_disabled": 0, "type": "electric_scooter", "lon": -77.02493233333334, "bike_id": "5d3a357a92be16c3b68befda4910264d", "fusion_lat": 0.0, "name": "5d3a357a92be16c3b68befda4910264d", "is_reserved": 0, "rental_uris": {"android": "https://dc.lft.to/lastmile_qr_scan", "ios": "https://dc.lft.to/lastmile_qr_scan"}, "fusion_lon": 0.0}, {"lat": 38.86647716666667, "is_disabled": 0, "type": "electric_scooter", "lon": -76.98883533333333, "bike_id": "9c52ad86167ea5dd30bb15c1b52fb5e7", "fusion_lat": 0.0, "name": "9c52ad86167ea5dd30bb15c1b52fb5e7", "is_reserved": 0, "rental_uris": {"android": "https://dc.lft.to/lastmile_qr_scan", "ios": "https://dc.lft.to/lastmile_qr_scan"}, "fusion_lon": 0.0}, {"lat": 38.94436983333333, "is_disabled": 0, "type": "electric_scooter", "lon": -77.02340783333334, "bike_id": "d350795190438d1432683294bf5ff30e", "fusion_lat": 0.0, "name": "d350795190438d1432683294bf5ff30e", "is_reserved": 0, "rental_uris": {"android": "https://dc.lft.to/lastmile_qr_scan", "ios": "https://dc.lft.to/lastmile_qr_scan"}, "fusion_lon": 0.0}, {"lat": 38.904545, "is_disabled": 0, "type": "electric_scooter", "lon": -77.0628365, "bike_id": "6c130d6499a6fb78150956794953c1f8", "fusion_lat": 0.0, "name": "6c130d6499a6fb78150956794953c1f8", "is_reserved": 0, "rental_uris": {"android": "https://dc.lft.to/lastmile_qr_scan", "ios": "https://dc.lft.to/lastmile_qr_scan"}, "fusion_lon": 0.0}, {"lat": 38.9236125, "is_disabled": 0, "type": "electric_scooter", "lon": -77.05131666666666, "bike_id": "e8c30688a7565f25be447679dd3a13d3", "fusion_lat": 0.0, "name": "e8c30688a7565f25be447679dd3a13d3", "is_reserved": 0, "rental_uris": {"android": "https://dc.lft.to/lastmile_qr_scan", "ios": "https://dc.lft.to/lastmile_qr_scan"}, "fusion_lon": 0.0}, {"lat": 38.917754, "is_disabled": 0, "type": "electric_scooter", "lon": -77.03654783333333, "bike_id": "4d47454896d3a5a2058e47f8f349db8e", "fusion_lat": 0.0, "name": "4d47454896d3a5a2058e47f8f349db8e", "is_reserved": 0, "rental_uris": {"android": "https://dc.lft.to/lastmile_qr_scan", "ios": "https://dc.lft.to/lastmile_qr_scan"}, "fusion_lon": 0.0}, {"lat": 38.9276895, "is_disabled": 0, "type": "electric_scooter", "lon": -77.02617483333333, "bike_id": "a2642944b19976c92a75baf205d77a18", "fusion_lat": 0.0, "name": "a2642944b19976c92a75baf205d77a18", "is_reserved": 0, "rental_uris": {"android": "https://dc.lft.to/lastmile_qr_scan", "ios": "https://dc.lft.to/lastmile_qr_scan"}, "fusion_lon": 0.0}, {"lat": 38.913935, "is_disabled": 0, "type": "electric_scooter", "lon": -77.03181883333333, "bike_id": "ea28f2bd55edcec806c9e3d4c9ffd5aa", "fusion_lat": 0.0, "name": "ea28f2bd55edcec806c9e3d4c9ffd5aa", "is_reserved": 0, "rental_uris": {"android": "https://dc.lft.to/lastmile_qr_scan", "ios": "https://dc.lft.to/lastmile_qr_scan"}, "fusion_lon": 0.0}, {"lat": 38.981408333333334, "is_disabled": 0, "type": "electric_bike", "lon": -77.00768316666667, "bike_id": "45b9c0781c8e4ba6d21b7ca046a186fa", "fusion_lat": 0.0, "name": "45b9c0781c8e4ba6d21b7ca046a186fa", "is_reserved": 0, "rental_uris": {"android": "https://dc.lft.to/lastmile_qr_scan", "ios": "https://dc.lft.to/lastmile_qr_scan"}, "fusion_lon": 0.0}, {"lat": 38.913304, "is_disabled": 0, "type": "electric_scooter", "lon": -77.03205583333333, "bike_id": "abbae1a1e49e446e4263983df9adb52d", "fusion_lat": 0.0, "name": "abbae1a1e49e446e4263983df9adb52d", "is_reserved": 0, "rental_uris": {"android": "https://dc.lft.to/lastmile_qr_scan", "ios": "https://dc.lft.to/lastmile_qr_scan"}, "fusion_lon": 0.0}, {"lat": 38.9037225, "is_disabled": 0, "type": "electric_scooter", "lon": -77.04805466666667, "bike_id": "893e93b873a2451d47cf2cd96f58bd28", "fusion_lat": 0.0, "name": "893e93b873a2451d47cf2cd96f58bd28", "is_reserved": 0, "rental_uris": {"android": "https://dc.lft.to/lastmile_qr_scan", "ios": "https://dc.lft.to/lastmile_qr_scan"}, "fusion_lon": 0.0}, {"lat": 38.85735433333333, "is_disabled": 0, "type": "electric_scooter", "lon": -76.99438466666666, "bike_id": "8afa6c1aa908e0c84dcc53627b26339a", "fusion_lat": 0.0, "name": "8afa6c1aa908e0c84dcc53627b26339a", "is_reserved": 0, "rental_uris": {"android": "https://dc.lft.to/lastmile_qr_scan", "ios": "https://dc.lft.to/lastmile_qr_scan"}, "fusion_lon": 0.0}, {"lat": 38.9004575, "is_disabled": 0, "type": "electric_scooter", "lon": -77.05016166666667, "bike_id": "3cf41f89a3172ac651dcf7180c46cd9b", "fusion_lat": 0.0, "name": "3cf41f89a3172ac651dcf7180c46cd9b", "is_reserved": 0, "rental_uris": {"android": "https://dc.lft.to/lastmile_qr_scan", "ios": "https://dc.lft.to/lastmile_qr_scan"}, "fusion_lon": 0.0}, {"lat": 38.867021333333334, "is_disabled": 0, "type": "electric_scooter", "lon": -76.98709416666667, "bike_id": "6b2226c1fe39aa7a14157a709f82b959", "fusion_lat": 0.0, "name": "6b2226c1fe39aa7a14157a709f82b959", "is_reserved": 0, "rental_uris": {"android": "https://dc.lft.to/lastmile_qr_scan", "ios": "https://dc.lft.to/lastmile_qr_scan"}, "fusion_lon": 0.0}, {"lat": 38.90941383333333, "is_disabled": 0, "type": "electric_scooter", "lon": -76.98960116666666, "bike_id": "ff7fc485559137f8b6385673fdd7bda1", "fusion_lat": 0.0, "name": "ff7fc485559137f8b6385673fdd7bda1", "is_reserved": 0, "rental_uris": {"android": "https://dc.lft.to/lastmile_qr_scan", "ios": "https://dc.lft.to/lastmile_qr_scan"}, "fusion_lon": 0.0}, {"lat": 38.89818316666667, "is_disabled": 0, "type": "electric_scooter", "lon": -77.02608983333333, "bike_id": "94616b983cd7a5af2c54f3a84b9b3c12", "fusion_lat": 0.0, "name": "94616b983cd7a5af2c54f3a84b9b3c12", "is_reserved": 0, "rental_uris": {"android": "https://dc.lft.to/lastmile_qr_scan", "ios": "https://dc.lft.to/lastmile_qr_scan"}, "fusion_lon": 0.0}, {"lat": 38.900716833333334, "is_disabled": 0, "type": "electric_scooter", "lon": -77.02712716666667, "bike_id": "26ddd5db772df35efaff8238b3d8609d", "fusion_lat": 0.0, "name": "26ddd5db772df35efaff8238b3d8609d", "is_reserved": 0, "rental_uris": {"android": "https://dc.lft.to/lastmile_qr_scan", "ios": "https://dc.lft.to/lastmile_qr_scan"}, "fusion_lon": 0.0}, {"lat": 38.95783466666666, "is_disabled": 0, "type": "electric_bike", "lon": -77.02747183333334, "bike_id": "16e772351c04f013fefe61fbe75b759e", "fusion_lat": 0.0, "name": "16e772351c04f013fefe61fbe75b759e", "is_reserved": 0, "rental_uris": {"android": "https://dc.lft.to/lastmile_qr_scan", "ios": "https://dc.lft.to/lastmile_qr_scan"}, "fusion_lon": 0.0}, {"lat": 38.84036566666666, "is_disabled": 0, "type": "electric_bike", "lon": -76.97575716666667, "bike_id": "da07ffdec65bd86e5f78a28fc737b7af", "fusion_lat": 0.0, "name": "da07ffdec65bd86e5f78a28fc737b7af", "is_reserved": 0, "rental_uris": {"android": "https://dc.lft.to/lastmile_qr_scan", "ios": "https://dc.lft.to/lastmile_qr_scan"}, "fusion_lon": 0.0}, {"lat": 38.900285333333336, "is_disabled": 0, "type": "electric_scooter", "lon": -76.99903583333334, "bike_id": "5eeafdea5b29bf8d12484be45dc39a41", "fusion_lat": 0.0, "name": "5eeafdea5b29bf8d12484be45dc39a41", "is_reserved": 0, "rental_uris": {"android": "https://dc.lft.to/lastmile_qr_scan", "ios": "https://dc.lft.to/lastmile_qr_scan"}, "fusion_lon": 0.0}, {"lat": 38.9028275, "is_disabled": 0, "type": "electric_scooter", "lon": -77.058052, "bike_id": "b5c5edace8568617b3662dc7f7678a16", "fusion_lat": 0.0, "name": "b5c5edace8568617b3662dc7f7678a16", "is_reserved": 0, "rental_uris": {"android": "https://dc.lft.to/lastmile_qr_scan", "ios": "https://dc.lft.to/lastmile_qr_scan"}, "fusion_lon": 0.0}, {"lat": 38.93088266666667, "is_disabled": 0, "type": "electric_scooter", "lon": -77.07745216666666, "bike_id": "72514c60c790c0a9cca5d64ad561b3c7", "fusion_lat": 0.0, "name": "72514c60c790c0a9cca5d64ad561b3c7", "is_reserved": 0, "rental_uris": {"android": "https://dc.lft.to/lastmile_qr_scan", "ios": "https://dc.lft.to/lastmile_qr_scan"}, "fusion_lon": 0.0}, {"lat": 38.941064833333336, "is_disabled": 0, "type": "electric_scooter", "lon": -77.00044466666667, "bike_id": "ecc9e9f0949a93a2a5001ca895ea4ee9", "fusion_lat": 0.0, "name": "ecc9e9f0949a93a2a5001ca895ea4ee9", "is_reserved": 0, "rental_uris": {"android": "https://dc.lft.to/lastmile_qr_scan", "ios": "https://dc.lft.to/lastmile_qr_scan"}, "fusion_lon": 0.0}, {"lat": 38.895584, "is_disabled": 0, "type": "electric_scooter", "lon": -77.00365383333333, "bike_id": "ef1adea5548cacf1be6cce032c297e65", "fusion_lat": 0.0, "name": "ef1adea5548cacf1be6cce032c297e65", "is_reserved": 0, "rental_uris": {"android": "https://dc.lft.to/lastmile_qr_scan", "ios": "https://dc.lft.to/lastmile_qr_scan"}, "fusion_lon": 0.0}, {"lat": 38.907669, "is_disabled": 0, "type": "electric_scooter", "lon": -77.01096883333334, "bike_id": "7d39e270cbcc6fcfe67870940d810636", "fusion_lat": 0.0, "name": "7d39e270cbcc6fcfe67870940d810636", "is_reserved": 0, "rental_uris": {"android": "https://dc.lft.to/lastmile_qr_scan", "ios": "https://dc.lft.to/lastmile_qr_scan"}, "fusion_lon": 0.0}, {"lat": 38.909659, "is_disabled": 0, "type": "electric_scooter", "lon": -77.031958, "bike_id": "24e24fbdc31a4e0bedc0d6d7ce9ecab9", "fusion_lat": 0.0, "name": "24e24fbdc31a4e0bedc0d6d7ce9ecab9", "is_reserved": 0, "rental_uris": {"android": "https://dc.lft.to/lastmile_qr_scan", "ios": "https://dc.lft.to/lastmile_qr_scan"}, "fusion_lon": 0.0}, {"lat": 38.899982, "is_disabled": 0, "type": "electric_scooter", "lon": -77.03328266666666, "bike_id": "6129642b54ccbcf13de972aa2e65b8be", "fusion_lat": 0.0, "name": "6129642b54ccbcf13de972aa2e65b8be", "is_reserved": 0, "rental_uris": {"android": "https://dc.lft.to/lastmile_qr_scan", "ios": "https://dc.lft.to/lastmile_qr_scan"}, "fusion_lon": 0.0}, {"lat": 38.8134525, "is_disabled": 0, "type": "electric_bike", "lon": -77.04924133333333, "bike_id": "8cd5dccf38f3007bcb484c4a1019cd97", "fusion_lat": 0.0, "name": "8cd5dccf38f3007bcb484c4a1019cd97", "is_reserved": 0, "rental_uris": {"android": "https://dc.lft.to/lastmile_qr_scan", "ios": "https://dc.lft.to/lastmile_qr_scan"}, "fusion_lon": 0.0}, {"lat": 38.96203166666667, "is_disabled": 0, "type": "electric_bike", "lon": -77.03514783333334, "bike_id": "8b434c97bc7d627fccd083578cef5b32", "fusion_lat": 0.0, "name": "8b434c97bc7d627fccd083578cef5b32", "is_reserved": 0, "rental_uris": {"android": "https://dc.lft.to/lastmile_qr_scan", "ios": "https://dc.lft.to/lastmile_qr_scan"}, "fusion_lon": 0.0}, {"lat": 38.87194183333333, "is_disabled": 0, "type": "electric_scooter", "lon": -77.0135395, "bike_id": "ff0d8cf4ce58e96ff6803ab90eedb8f5", "fusion_lat": 0.0, "name": "ff0d8cf4ce58e96ff6803ab90eedb8f5", "is_reserved": 0, "rental_uris": {"android": "https://dc.lft.to/lastmile_qr_scan", "ios": "https://dc.lft.to/lastmile_qr_scan"}, "fusion_lon": 0.0}, {"lat": 38.853191, "is_disabled": 0, "type": "electric_scooter", "lon": -76.98026283333333, "bike_id": "0dc4487f9923f50a0233f515b7a1f06b", "fusion_lat": 0.0, "name": "0dc4487f9923f50a0233f515b7a1f06b", "is_reserved": 0, "rental_uris": {"android": "https://dc.lft.to/lastmile_qr_scan", "ios": "https://dc.lft.to/lastmile_qr_scan"}, "fusion_lon": 0.0}, {"lat": 38.90723633333333, "is_disabled": 0, "type": "electric_scooter", "lon": -77.029873, "bike_id": "06651d3cae414f6efe01ee6379634ff6", "fusion_lat": 0.0, "name": "06651d3cae414f6efe01ee6379634ff6", "is_reserved": 0, "rental_uris": {"android": "https://dc.lft.to/lastmile_qr_scan", "ios": "https://dc.lft.to/lastmile_qr_scan"}, "fusion_lon": 0.0}, {"lat": 38.9257745, "is_disabled": 0, "type": "electric_scooter", "lon": -77.04017016666667, "bike_id": "71e46bc725caac423c60fdde4ae8f1c0", "fusion_lat": 0.0, "name": "71e46bc725caac423c60fdde4ae8f1c0", "is_reserved": 0, "rental_uris": {"android": "https://dc.lft.to/lastmile_qr_scan", "ios": "https://dc.lft.to/lastmile_qr_scan"}, "fusion_lon": 0.0}, {"lat": 38.911277, "is_disabled": 0, "type": "electric_scooter", "lon": -77.03819433333334, "bike_id": "48c9d7b2aa08ff274c14dcde9b5d775b", "fusion_lat": 0.0, "name": "48c9d7b2aa08ff274c14dcde9b5d775b", "is_reserved": 0, "rental_uris": {"android": "https://dc.lft.to/lastmile_qr_scan", "ios": "https://dc.lft.to/lastmile_qr_scan"}, "fusion_lon": 0.0}, {"lat": 38.9212605, "is_disabled": 0, "type": "electric_scooter", "lon": -77.0422815, "bike_id": "982ed9b8ecfb1a4d4a9bb3fe8ab4727e", "fusion_lat": 0.0, "name": "982ed9b8ecfb1a4d4a9bb3fe8ab4727e", "is_reserved": 0, "rental_uris": {"android": "https://dc.lft.to/lastmile_qr_scan", "ios": "https://dc.lft.to/lastmile_qr_scan"}, "fusion_lon": 0.0}, {"lat": 38.89605616666667, "is_disabled": 0, "type": "electric_scooter", "lon": -76.9565405, "bike_id": "5cdd56e36525a3ad7030c5426d945e13", "fusion_lat": 0.0, "name": "5cdd56e36525a3ad7030c5426d945e13", "is_reserved": 0, "rental_uris": {"android": "https://dc.lft.to/lastmile_qr_scan", "ios": "https://dc.lft.to/lastmile_qr_scan"}, "fusion_lon": 0.0}, {"lat": 38.904326, "is_disabled": 0, "type": "electric_scooter", "lon": -77.002133, "bike_id": "b6104bc7b95ae77b6c7e802fff7a5ce1", "fusion_lat": 0.0, "name": "b6104bc7b95ae77b6c7e802fff7a5ce1", "is_reserved": 0, "rental_uris": {"android": "https://dc.lft.to/lastmile_qr_scan", "ios": "https://dc.lft.to/lastmile_qr_scan"}, "fusion_lon": 0.0}, {"lat": 38.945142, "is_disabled": 0, "type": "electric_scooter", "lon": -77.06397016666666, "bike_id": "6743844b21e14e2f5c6896c6f2bb02fa", "fusion_lat": 0.0, "name": "6743844b21e14e2f5c6896c6f2bb02fa", "is_reserved": 0, "rental_uris": {"android": "https://dc.lft.to/lastmile_qr_scan", "ios": "https://dc.lft.to/lastmile_qr_scan"}, "fusion_lon": 0.0}, {"lat": 38.9129115, "is_disabled": 0, "type": "electric_scooter", "lon": -77.03846666666666, "bike_id": "2f2c53542a8787558f7da1a5c11063cd", "fusion_lat": 0.0, "name": "2f2c53542a8787558f7da1a5c11063cd", "is_reserved": 0, "rental_uris": {"android": "https://dc.lft.to/lastmile_qr_scan", "ios": "https://dc.lft.to/lastmile_qr_scan"}, "fusion_lon": 0.0}, {"lat": 38.893517833333334, "is_disabled": 0, "type": "electric_scooter", "lon": -77.041391, "bike_id": "f87ff904e952590422c9d941d8f92b0a", "fusion_lat": 0.0, "name": "f87ff904e952590422c9d941d8f92b0a", "is_reserved": 0, "rental_uris": {"android": "https://dc.lft.to/lastmile_qr_scan", "ios": "https://dc.lft.to/lastmile_qr_scan"}, "fusion_lon": 0.0}, {"lat": 38.92849016666667, "is_disabled": 0, "type": "electric_bike", "lon": -77.10672966666667, "bike_id": "388ee795da47643ce3462318fedf3d6c", "fusion_lat": 0.0, "name": "388ee795da47643ce3462318fedf3d6c", "is_reserved": 0, "rental_uris": {"android": "https://dc.lft.to/lastmile_qr_scan", "ios": "https://dc.lft.to/lastmile_qr_scan"}, "fusion_lon": 0.0}, {"lat": 38.91634883333333, "is_disabled": 0, "type": "electric_scooter", "lon": -77.04783266666666, "bike_id": "b4e298bbc6d81b9a238584934eb408c0", "fusion_lat": 0.0, "name": "b4e298bbc6d81b9a238584934eb408c0", "is_reserved": 0, "rental_uris": {"android": "https://dc.lft.to/lastmile_qr_scan", "ios": "https://dc.lft.to/lastmile_qr_scan"}, "fusion_lon": 0.0}, {"lat": 38.91484966666667, "is_disabled": 0, "type": "electric_scooter", "lon": -77.03258966666667, "bike_id": "8b6a5621884911509855b7cf56a0adb4", "fusion_lat": 0.0, "name": "8b6a5621884911509855b7cf56a0adb4", "is_reserved": 0, "rental_uris": {"android": "https://dc.lft.to/lastmile_qr_scan", "ios": "https://dc.lft.to/lastmile_qr_scan"}, "fusion_lon": 0.0}, {"lat": 38.916832, "is_disabled": 0, "type": "electric_scooter", "lon": -77.02556383333334, "bike_id": "a416a57f4c644b6f90805cf24fe981d5", "fusion_lat": 0.0, "name": "a416a57f4c644b6f90805cf24fe981d5", "is_reserved": 0, "rental_uris": {"android": "https://dc.lft.to/lastmile_qr_scan", "ios": "https://dc.lft.to/lastmile_qr_scan"}, "fusion_lon": 0.0}, {"lat": 38.925275666666664, "is_disabled": 0, "type": "electric_scooter", "lon": -77.04433, "bike_id": "a5ff46bc84aaddfae29a21204a6cb4c1", "fusion_lat": 0.0, "name": "a5ff46bc84aaddfae29a21204a6cb4c1", "is_reserved": 0, "rental_uris": {"android": "https://dc.lft.to/lastmile_qr_scan", "ios": "https://dc.lft.to/lastmile_qr_scan"}, "fusion_lon": 0.0}, {"lat": 38.932025333333335, "is_disabled": 0, "type": "electric_scooter", "lon": -77.0365735, "bike_id": "e44a48cc3e26ec09a8ae154fc8c48e85", "fusion_lat": 0.0, "name": "e44a48cc3e26ec09a8ae154fc8c48e85", "is_reserved": 0, "rental_uris": {"android": "https://dc.lft.to/lastmile_qr_scan", "ios": "https://dc.lft.to/lastmile_qr_scan"}, "fusion_lon": 0.0}, {"lat": 38.9003635, "is_disabled": 0, "type": "electric_scooter", "lon": -76.99370166666667, "bike_id": "e820f74832fd11672fd2ea9fced39397", "fusion_lat": 0.0, "name": "e820f74832fd11672fd2ea9fced39397", "is_reserved": 0, "rental_uris": {"android": "https://dc.lft.to/lastmile_qr_scan", "ios": "https://dc.lft.to/lastmile_qr_scan"}, "fusion_lon": 0.0}, {"lat": 38.90094716666667, "is_disabled": 0, "type": "electric_scooter", "lon": -77.01809333333334, "bike_id": "c4aa20c914340ef43f8a4ea9219c1fc2", "fusion_lat": 0.0, "name": "c4aa20c914340ef43f8a4ea9219c1fc2", "is_reserved": 0, "rental_uris": {"android": "https://dc.lft.to/lastmile_qr_scan", "ios": "https://dc.lft.to/lastmile_qr_scan"}, "fusion_lon": 0.0}, {"lat": 38.936388666666666, "is_disabled": 0, "type": "electric_scooter", "lon": -77.024939, "bike_id": "df56cf900e9a17f6057f55715c2dc92e", "fusion_lat": 0.0, "name": "df56cf900e9a17f6057f55715c2dc92e", "is_reserved": 0, "rental_uris": {"android": "https://dc.lft.to/lastmile_qr_scan", "ios": "https://dc.lft.to/lastmile_qr_scan"}, "fusion_lon": 0.0}, {"lat": 38.92256583333333, "is_disabled": 0, "type": "electric_scooter", "lon": -77.04293966666667, "bike_id": "4bc7839a7a11ef2292d76503e8a12c58", "fusion_lat": 0.0, "name": "4bc7839a7a11ef2292d76503e8a12c58", "is_reserved": 0, "rental_uris": {"android": "https://dc.lft.to/lastmile_qr_scan", "ios": "https://dc.lft.to/lastmile_qr_scan"}, "fusion_lon": 0.0}, {"lat": 38.917162833333336, "is_disabled": 0, "type": "electric_scooter", "lon": -77.0334655, "bike_id": "24ca6d4e9b09f2d74fc86170c075dfbe", "fusion_lat": 0.0, "name": "24ca6d4e9b09f2d74fc86170c075dfbe", "is_reserved": 0, "rental_uris": {"android": "https://dc.lft.to/lastmile_qr_scan", "ios": "https://dc.lft.to/lastmile_qr_scan"}, "fusion_lon": 0.0}, {"lat": 38.87247166666667, "is_disabled": 0, "type": "electric_scooter", "lon": -76.97726816666666, "bike_id": "427e9970f348be5a77cef1b7a90588de", "fusion_lat": 0.0, "name": "427e9970f348be5a77cef1b7a90588de", "is_reserved": 0, "rental_uris": {"android": "https://dc.lft.to/lastmile_qr_scan", "ios": "https://dc.lft.to/lastmile_qr_scan"}, "fusion_lon": 0.0}, {"lat": 38.91692183333333, "is_disabled": 0, "type": "electric_scooter", "lon": -77.02687066666667, "bike_id": "54036c3e1715ecd53dff0b0724cadb96", "fusion_lat": 0.0, "name": "54036c3e1715ecd53dff0b0724cadb96", "is_reserved": 0, "rental_uris": {"android": "https://dc.lft.to/lastmile_qr_scan", "ios": "https://dc.lft.to/lastmile_qr_scan"}, "fusion_lon": 0.0}, {"lat": 38.908572666666664, "is_disabled": 0, "type": "electric_scooter", "lon": -77.04764233333333, "bike_id": "6ed2b93f08671ba346bfb4ed9ff85ebb", "fusion_lat": 0.0, "name": "6ed2b93f08671ba346bfb4ed9ff85ebb", "is_reserved": 0, "rental_uris": {"android": "https://dc.lft.to/lastmile_qr_scan", "ios": "https://dc.lft.to/lastmile_qr_scan"}, "fusion_lon": 0.0}, {"lat": 38.943989, "is_disabled": 0, "type": "electric_scooter", "lon": -77.02640833333334, "bike_id": "7ffbaa9ee6c52f94a2d280e46cd00af1", "fusion_lat": 0.0, "name": "7ffbaa9ee6c52f94a2d280e46cd00af1", "is_reserved": 0, "rental_uris": {"android": "https://dc.lft.to/lastmile_qr_scan", "ios": "https://dc.lft.to/lastmile_qr_scan"}, "fusion_lon": 0.0}, {"lat": 38.900786, "is_disabled": 0, "type": "electric_scooter", "lon": -77.00213283333333, "bike_id": "e5cb914c599e5b14994cf10cf2372ef6", "fusion_lat": 0.0, "name": "e5cb914c599e5b14994cf10cf2372ef6", "is_reserved": 0, "rental_uris": {"android": "https://dc.lft.to/lastmile_qr_scan", "ios": "https://dc.lft.to/lastmile_qr_scan"}, "fusion_lon": 0.0}, {"lat": 38.88926583333333, "is_disabled": 0, "type": "electric_scooter", "lon": -76.97371033333333, "bike_id": "c5a05f8282d51da5334f3a3f5723124d", "fusion_lat": 0.0, "name": "c5a05f8282d51da5334f3a3f5723124d", "is_reserved": 0, "rental_uris": {"android": "https://dc.lft.to/lastmile_qr_scan", "ios": "https://dc.lft.to/lastmile_qr_scan"}, "fusion_lon": 0.0}, {"lat": 38.906644666666665, "is_disabled": 0, "type": "electric_bike", "lon": -77.0271015, "bike_id": "e94ad041ecdb330814a27c71d373f609", "fusion_lat": 0.0, "name": "e94ad041ecdb330814a27c71d373f609", "is_reserved": 0, "rental_uris": {"android": "https://dc.lft.to/lastmile_qr_scan", "ios": "https://dc.lft.to/lastmile_qr_scan"}, "fusion_lon": 0.0}, {"lat": 38.85517733333333, "is_disabled": 0, "type": "electric_bike", "lon": -76.98416083333333, "bike_id": "39e725722bb80b3b930f5bb6cbb330a6", "fusion_lat": 0.0, "name": "39e725722bb80b3b930f5bb6cbb330a6", "is_reserved": 0, "rental_uris": {"android": "https://dc.lft.to/lastmile_qr_scan", "ios": "https://dc.lft.to/lastmile_qr_scan"}, "fusion_lon": 0.0}, {"lat": 38.897583, "is_disabled": 0, "type": "electric_scooter", "lon": -76.94184533333333, "bike_id": "120509cd5b40ca47862f1176933c0242", "fusion_lat": 0.0, "name": "120509cd5b40ca47862f1176933c0242", "is_reserved": 0, "rental_uris": {"android": "https://dc.lft.to/lastmile_qr_scan", "ios": "https://dc.lft.to/lastmile_qr_scan"}, "fusion_lon": 0.0}, {"lat": 38.91108783333333, "is_disabled": 0, "type": "electric_scooter", "lon": -77.0201105, "bike_id": "e3a91a1486474dc13586277a70dd7d52", "fusion_lat": 0.0, "name": "e3a91a1486474dc13586277a70dd7d52", "is_reserved": 0, "rental_uris": {"android": "https://dc.lft.to/lastmile_qr_scan", "ios": "https://dc.lft.to/lastmile_qr_scan"}, "fusion_lon": 0.0}, {"lat": 38.903318666666664, "is_disabled": 0, "type": "electric_scooter", "lon": -77.06306716666667, "bike_id": "a4eb73141a6be8465cc0e690aac41961", "fusion_lat": 0.0, "name": "a4eb73141a6be8465cc0e690aac41961", "is_reserved": 0, "rental_uris": {"android": "https://dc.lft.to/lastmile_qr_scan", "ios": "https://dc.lft.to/lastmile_qr_scan"}, "fusion_lon": 0.0}, {"lat": 38.92228733333334, "is_disabled": 0, "type": "electric_scooter", "lon": -77.04337133333334, "bike_id": "c7685c01379543ceb5ebd7b42703961c", "fusion_lat": 0.0, "name": "c7685c01379543ceb5ebd7b42703961c", "is_reserved": 0, "rental_uris": {"android": "https://dc.lft.to/lastmile_qr_scan", "ios": "https://dc.lft.to/lastmile_qr_scan"}, "fusion_lon": 0.0}, {"lat": 38.934234833333335, "is_disabled": 0, "type": "electric_scooter", "lon": -77.05549883333333, "bike_id": "5d25cb6f2feaacdff57448de687c110e", "fusion_lat": 0.0, "name": "5d25cb6f2feaacdff57448de687c110e", "is_reserved": 0, "rental_uris": {"android": "https://dc.lft.to/lastmile_qr_scan", "ios": "https://dc.lft.to/lastmile_qr_scan"}, "fusion_lon": 0.0}, {"lat": 38.9169165, "is_disabled": 0, "type": "electric_scooter", "lon": -77.03718233333333, "bike_id": "2ffae3205eb74fc0f390c31391d834fb", "fusion_lat": 0.0, "name": "2ffae3205eb74fc0f390c31391d834fb", "is_reserved": 0, "rental_uris": {"android": "https://dc.lft.to/lastmile_qr_scan", "ios": "https://dc.lft.to/lastmile_qr_scan"}, "fusion_lon": 0.0}, {"lat": 38.9148675, "is_disabled": 0, "type": "electric_scooter", "lon": -77.0137445, "bike_id": "88c70f6f6c9cb44f6598627be76922cf", "fusion_lat": 0.0, "name": "88c70f6f6c9cb44f6598627be76922cf", "is_reserved": 0, "rental_uris": {"android": "https://dc.lft.to/lastmile_qr_scan", "ios": "https://dc.lft.to/lastmile_qr_scan"}, "fusion_lon": 0.0}, {"lat": 38.91099466666667, "is_disabled": 0, "type": "electric_scooter", "lon": -77.048158, "bike_id": "79a0d5f9ad8766b314fbe1f4dc2f1959", "fusion_lat": 0.0, "name": "79a0d5f9ad8766b314fbe1f4dc2f1959", "is_reserved": 0, "rental_uris": {"android": "https://dc.lft.to/lastmile_qr_scan", "ios": "https://dc.lft.to/lastmile_qr_scan"}, "fusion_lon": 0.0}, {"lat": 38.81343733333333, "is_disabled": 0, "type": "electric_bike", "lon": -77.049265, "bike_id": "d97a41acd9669b4ed0e9a78eafdd624a", "fusion_lat": 0.0, "name": "d97a41acd9669b4ed0e9a78eafdd624a", "is_reserved": 0, "rental_uris": {"android": "https://dc.lft.to/lastmile_qr_scan", "ios": "https://dc.lft.to/lastmile_qr_scan"}, "fusion_lon": 0.0}, {"lat": 38.900264666666665, "is_disabled": 0, "type": "electric_scooter", "lon": -77.00200066666666, "bike_id": "a0cd8eb1a3de2aa6ebdcd9662d23fb40", "fusion_lat": 0.0, "name": "a0cd8eb1a3de2aa6ebdcd9662d23fb40", "is_reserved": 0, "rental_uris": {"android": "https://dc.lft.to/lastmile_qr_scan", "ios": "https://dc.lft.to/lastmile_qr_scan"}, "fusion_lon": 0.0}, {"lat": 38.918004, "is_disabled": 0, "type": "electric_scooter", "lon": -77.040138, "bike_id": "c46da8a984a976e9ce751a17dea8a8a5", "fusion_lat": 0.0, "name": "c46da8a984a976e9ce751a17dea8a8a5", "is_reserved": 0, "rental_uris": {"android": "https://dc.lft.to/lastmile_qr_scan", "ios": "https://dc.lft.to/lastmile_qr_scan"}, "fusion_lon": 0.0}, {"lat": 38.90944566666667, "is_disabled": 0, "type": "electric_scooter", "lon": -77.04314766666667, "bike_id": "f37be5b9efc5e8b9678864ac14eaefed", "fusion_lat": 0.0, "name": "f37be5b9efc5e8b9678864ac14eaefed", "is_reserved": 0, "rental_uris": {"android": "https://dc.lft.to/lastmile_qr_scan", "ios": "https://dc.lft.to/lastmile_qr_scan"}, "fusion_lon": 0.0}, {"lat": 38.90029066666666, "is_disabled": 0, "type": "electric_scooter", "lon": -76.99904416666666, "bike_id": "4d04e93811a6cad335e6841a29952082", "fusion_lat": 0.0, "name": "4d04e93811a6cad335e6841a29952082", "is_reserved": 0, "rental_uris": {"android": "https://dc.lft.to/lastmile_qr_scan", "ios": "https://dc.lft.to/lastmile_qr_scan"}, "fusion_lon": 0.0}, {"lat": 38.93128433333333, "is_disabled": 0, "type": "electric_scooter", "lon": -77.03261983333333, "bike_id": "1d9870b06722b11f89b878f4b273c749", "fusion_lat": 0.0, "name": "1d9870b06722b11f89b878f4b273c749", "is_reserved": 0, "rental_uris": {"android": "https://dc.lft.to/lastmile_qr_scan", "ios": "https://dc.lft.to/lastmile_qr_scan"}, "fusion_lon": 0.0}, {"lat": 38.902690166666666, "is_disabled": 0, "type": "electric_scooter", "lon": -77.03966283333334, "bike_id": "7d6efa876c67507681445cbac1da7f3e", "fusion_lat": 0.0, "name": "7d6efa876c67507681445cbac1da7f3e", "is_reserved": 0, "rental_uris": {"android": "https://dc.lft.to/lastmile_qr_scan", "ios": "https://dc.lft.to/lastmile_qr_scan"}, "fusion_lon": 0.0}, {"lat": 38.94823783333333, "is_disabled": 0, "type": "electric_scooter", "lon": -76.9990435, "bike_id": "88e1842754399910b9ac93a3727ecd9d", "fusion_lat": 0.0, "name": "88e1842754399910b9ac93a3727ecd9d", "is_reserved": 0, "rental_uris": {"android": "https://dc.lft.to/lastmile_qr_scan", "ios": "https://dc.lft.to/lastmile_qr_scan"}, "fusion_lon": 0.0}, {"lat": 38.944640666666665, "is_disabled": 0, "type": "electric_scooter", "lon": -77.060278, "bike_id": "7cfc80c79fa633a13cf553583d0661d5", "fusion_lat": 0.0, "name": "7cfc80c79fa633a13cf553583d0661d5", "is_reserved": 0, "rental_uris": {"android": "https://dc.lft.to/lastmile_qr_scan", "ios": "https://dc.lft.to/lastmile_qr_scan"}, "fusion_lon": 0.0}, {"lat": 38.92445283333333, "is_disabled": 0, "type": "electric_scooter", "lon": -77.04200116666667, "bike_id": "d09db90acd2e4df49eb91e2782706d54", "fusion_lat": 0.0, "name": "d09db90acd2e4df49eb91e2782706d54", "is_reserved": 0, "rental_uris": {"android": "https://dc.lft.to/lastmile_qr_scan", "ios": "https://dc.lft.to/lastmile_qr_scan"}, "fusion_lon": 0.0}, {"lat": 38.89683766666667, "is_disabled": 0, "type": "electric_scooter", "lon": -76.93608933333333, "bike_id": "d9cf1f55bf395aa26cb74edae92026f1", "fusion_lat": 0.0, "name": "d9cf1f55bf395aa26cb74edae92026f1", "is_reserved": 0, "rental_uris": {"android": "https://dc.lft.to/lastmile_qr_scan", "ios": "https://dc.lft.to/lastmile_qr_scan"}, "fusion_lon": 0.0}, {"lat": 38.91803016666667, "is_disabled": 0, "type": "electric_scooter", "lon": -77.04011916666667, "bike_id": "4b4054cc28045b9d0b327a8daf0733d2", "fusion_lat": 0.0, "name": "4b4054cc28045b9d0b327a8daf0733d2", "is_reserved": 0, "rental_uris": {"android": "https://dc.lft.to/lastmile_qr_scan", "ios": "https://dc.lft.to/lastmile_qr_scan"}, "fusion_lon": 0.0}, {"lat": 38.9173745, "is_disabled": 0, "type": "electric_scooter", "lon": -77.03181666666667, "bike_id": "c2c591a460328471d82c1602675ea6ae", "fusion_lat": 0.0, "name": "c2c591a460328471d82c1602675ea6ae", "is_reserved": 0, "rental_uris": {"android": "https://dc.lft.to/lastmile_qr_scan", "ios": "https://dc.lft.to/lastmile_qr_scan"}, "fusion_lon": 0.0}, {"lat": 38.90225933333333, "is_disabled": 0, "type": "electric_scooter", "lon": -77.06064833333333, "bike_id": "ef5ba1adddcf06d08acfb301f3af4648", "fusion_lat": 0.0, "name": "ef5ba1adddcf06d08acfb301f3af4648", "is_reserved": 0, "rental_uris": {"android": "https://dc.lft.to/lastmile_qr_scan", "ios": "https://dc.lft.to/lastmile_qr_scan"}, "fusion_lon": 0.0}, {"lat": 38.93068183333333, "is_disabled": 0, "type": "electric_scooter", "lon": -77.03391033333334, "bike_id": "fe81182da03b1aab89d3cf23834c9cef", "fusion_lat": 0.0, "name": "fe81182da03b1aab89d3cf23834c9cef", "is_reserved": 0, "rental_uris": {"android": "https://dc.lft.to/lastmile_qr_scan", "ios": "https://dc.lft.to/lastmile_qr_scan"}, "fusion_lon": 0.0}, {"lat": 38.93042633333334, "is_disabled": 0, "type": "electric_bike", "lon": -77.072955, "bike_id": "d0479f39698d5ba277b9afe288c61470", "fusion_lat": 0.0, "name": "d0479f39698d5ba277b9afe288c61470", "is_reserved": 0, "rental_uris": {"android": "https://dc.lft.to/lastmile_qr_scan", "ios": "https://dc.lft.to/lastmile_qr_scan"}, "fusion_lon": 0.0}, {"lat": 38.98812566666667, "is_disabled": 0, "type": "electric_bike", "lon": -77.02654016666666, "bike_id": "31e20dbc5298fb5f8bf6c3a921296e53", "fusion_lat": 0.0, "name": "31e20dbc5298fb5f8bf6c3a921296e53", "is_reserved": 0, "rental_uris": {"android": "https://dc.lft.to/lastmile_qr_scan", "ios": "https://dc.lft.to/lastmile_qr_scan"}, "fusion_lon": 0.0}, {"lat": 38.92000266666667, "is_disabled": 0, "type": "electric_scooter", "lon": -77.03237016666667, "bike_id": "32f066a662890e791733453980a787bd", "fusion_lat": 0.0, "name": "32f066a662890e791733453980a787bd", "is_reserved": 0, "rental_uris": {"android": "https://dc.lft.to/lastmile_qr_scan", "ios": "https://dc.lft.to/lastmile_qr_scan"}, "fusion_lon": 0.0}, {"lat": 38.91565933333333, "is_disabled": 0, "type": "electric_scooter", "lon": -77.03185966666666, "bike_id": "34a7c3541775357be2422155de045034", "fusion_lat": 0.0, "name": "34a7c3541775357be2422155de045034", "is_reserved": 0, "rental_uris": {"android": "https://dc.lft.to/lastmile_qr_scan", "ios": "https://dc.lft.to/lastmile_qr_scan"}, "fusion_lon": 0.0}, {"lat": 38.92111333333333, "is_disabled": 0, "type": "electric_scooter", "lon": -77.04170033333334, "bike_id": "29decaa583e9152c1162c0cebbf14365", "fusion_lat": 0.0, "name": "29decaa583e9152c1162c0cebbf14365", "is_reserved": 0, "rental_uris": {"android": "https://dc.lft.to/lastmile_qr_scan", "ios": "https://dc.lft.to/lastmile_qr_scan"}, "fusion_lon": 0.0}, {"lat": 38.88449516666667, "is_disabled": 0, "type": "electric_scooter", "lon": -76.95095866666666, "bike_id": "30b055374ac43415156bd21204801368", "fusion_lat": 0.0, "name": "30b055374ac43415156bd21204801368", "is_reserved": 0, "rental_uris": {"android": "https://dc.lft.to/lastmile_qr_scan", "ios": "https://dc.lft.to/lastmile_qr_scan"}, "fusion_lon": 0.0}, {"lat": 38.9191925, "is_disabled": 0, "type": "electric_scooter", "lon": -77.04804316666667, "bike_id": "e695dccf30399a0d2b72659651be4f52", "fusion_lat": 0.0, "name": "e695dccf30399a0d2b72659651be4f52", "is_reserved": 0, "rental_uris": {"android": "https://dc.lft.to/lastmile_qr_scan", "ios": "https://dc.lft.to/lastmile_qr_scan"}, "fusion_lon": 0.0}, {"lat": 38.91679166666667, "is_disabled": 0, "type": "electric_scooter", "lon": -77.03344683333333, "bike_id": "c374c7b61beaeef65b1eabbb8fe8dac3", "fusion_lat": 0.0, "name": "c374c7b61beaeef65b1eabbb8fe8dac3", "is_reserved": 0, "rental_uris": {"android": "https://dc.lft.to/lastmile_qr_scan", "ios": "https://dc.lft.to/lastmile_qr_scan"}, "fusion_lon": 0.0}, {"lat": 38.88486533333333, "is_disabled": 0, "type": "electric_scooter", "lon": -77.03472233333333, "bike_id": "c86a3d5f3e508a496214bfdca55bc5be", "fusion_lat": 0.0, "name": "c86a3d5f3e508a496214bfdca55bc5be", "is_reserved": 0, "rental_uris": {"android": "https://dc.lft.to/lastmile_qr_scan", "ios": "https://dc.lft.to/lastmile_qr_scan"}, "fusion_lon": 0.0}, {"lat": 38.90550983333333, "is_disabled": 0, "type": "electric_scooter", "lon": -77.05706733333334, "bike_id": "ea9307c4e18a8af7b9ae2da67ebb9c37", "fusion_lat": 0.0, "name": "ea9307c4e18a8af7b9ae2da67ebb9c37", "is_reserved": 0, "rental_uris": {"android": "https://dc.lft.to/lastmile_qr_scan", "ios": "https://dc.lft.to/lastmile_qr_scan"}, "fusion_lon": 0.0}, {"lat": 38.920603166666666, "is_disabled": 0, "type": "electric_scooter", "lon": -77.04334516666667, "bike_id": "9d9eb77ee44025afaca0b7617ee66a5b", "fusion_lat": 0.0, "name": "9d9eb77ee44025afaca0b7617ee66a5b", "is_reserved": 0, "rental_uris": {"android": "https://dc.lft.to/lastmile_qr_scan", "ios": "https://dc.lft.to/lastmile_qr_scan"}, "fusion_lon": 0.0}, {"lat": 38.91328766666667, "is_disabled": 0, "type": "electric_scooter", "lon": -77.03266533333333, "bike_id": "032d1bb7be5dcbea5a1aa9b39bcace40", "fusion_lat": 0.0, "name": "032d1bb7be5dcbea5a1aa9b39bcace40", "is_reserved": 0, "rental_uris": {"android": "https://dc.lft.to/lastmile_qr_scan", "ios": "https://dc.lft.to/lastmile_qr_scan"}, "fusion_lon": 0.0}, {"lat": 38.928726166666664, "is_disabled": 0, "type": "electric_scooter", "lon": -77.02818366666666, "bike_id": "682ec95385beffcc64ae563600590563", "fusion_lat": 0.0, "name": "682ec95385beffcc64ae563600590563", "is_reserved": 0, "rental_uris": {"android": "https://dc.lft.to/lastmile_qr_scan", "ios": "https://dc.lft.to/lastmile_qr_scan"}, "fusion_lon": 0.0}, {"lat": 38.89850533333333, "is_disabled": 0, "type": "electric_scooter", "lon": -77.0231855, "bike_id": "88771a08e8652e8fb19f5544064c12be", "fusion_lat": 0.0, "name": "88771a08e8652e8fb19f5544064c12be", "is_reserved": 0, "rental_uris": {"android": "https://dc.lft.to/lastmile_qr_scan", "ios": "https://dc.lft.to/lastmile_qr_scan"}, "fusion_lon": 0.0}, {"lat": 38.91122133333333, "is_disabled": 0, "type": "electric_scooter", "lon": -77.0436305, "bike_id": "710279289259e4502e2f06b9ab448d81", "fusion_lat": 0.0, "name": "710279289259e4502e2f06b9ab448d81", "is_reserved": 0, "rental_uris": {"android": "https://dc.lft.to/lastmile_qr_scan", "ios": "https://dc.lft.to/lastmile_qr_scan"}, "fusion_lon": 0.0}, {"lat": 38.95959283333333, "is_disabled": 0, "type": "electric_bike", "lon": -77.10089533333333, "bike_id": "526afc9aee4940720f47c5d562fb8cd6", "fusion_lat": 0.0, "name": "526afc9aee4940720f47c5d562fb8cd6", "is_reserved": 0, "rental_uris": {"android": "https://dc.lft.to/lastmile_qr_scan", "ios": "https://dc.lft.to/lastmile_qr_scan"}, "fusion_lon": 0.0}, {"lat": 38.9181485, "is_disabled": 0, "type": "electric_scooter", "lon": -77.03195016666666, "bike_id": "e82ba156c3a980fec7b1054a76b59140", "fusion_lat": 0.0, "name": "e82ba156c3a980fec7b1054a76b59140", "is_reserved": 0, "rental_uris": {"android": "https://dc.lft.to/lastmile_qr_scan", "ios": "https://dc.lft.to/lastmile_qr_scan"}, "fusion_lon": 0.0}, {"lat": 38.895275, "is_disabled": 0, "type": "electric_scooter", "lon": -77.03204566666666, "bike_id": "092b4fc6ca2c7548f4b3caaa83f86abf", "fusion_lat": 0.0, "name": "092b4fc6ca2c7548f4b3caaa83f86abf", "is_reserved": 0, "rental_uris": {"android": "https://dc.lft.to/lastmile_qr_scan", "ios": "https://dc.lft.to/lastmile_qr_scan"}, "fusion_lon": 0.0}, {"lat": 38.95954366666667, "is_disabled": 0, "type": "electric_scooter", "lon": -77.03306833333333, "bike_id": "17c5a81ee9b9474ea011e061a72e0b29", "fusion_lat": 0.0, "name": "17c5a81ee9b9474ea011e061a72e0b29", "is_reserved": 0, "rental_uris": {"android": "https://dc.lft.to/lastmile_qr_scan", "ios": "https://dc.lft.to/lastmile_qr_scan"}, "fusion_lon": 0.0}, {"lat": 38.89395016666667, "is_disabled": 0, "type": "electric_scooter", "lon": -76.9866375, "bike_id": "c65dbce82309aaa3f1ebec818e717961", "fusion_lat": 0.0, "name": "c65dbce82309aaa3f1ebec818e717961", "is_reserved": 0, "rental_uris": {"android": "https://dc.lft.to/lastmile_qr_scan", "ios": "https://dc.lft.to/lastmile_qr_scan"}, "fusion_lon": 0.0}, {"lat": 38.869980166666664, "is_disabled": 0, "type": "electric_bike", "lon": -77.06568233333333, "bike_id": "231673c47a6c6472692da27eb9627c3a", "fusion_lat": 0.0, "name": "231673c47a6c6472692da27eb9627c3a", "is_reserved": 0, "rental_uris": {"android": "https://dc.lft.to/lastmile_qr_scan", "ios": "https://dc.lft.to/lastmile_qr_scan"}, "fusion_lon": 0.0}, {"lat": 38.916753166666666, "is_disabled": 0, "type": "electric_scooter", "lon": -77.03188683333333, "bike_id": "3cf007eab01d908dd4c8fc6078d1dbc0", "fusion_lat": 0.0, "name": "3cf007eab01d908dd4c8fc6078d1dbc0", "is_reserved": 0, "rental_uris": {"android": "https://dc.lft.to/lastmile_qr_scan", "ios": "https://dc.lft.to/lastmile_qr_scan"}, "fusion_lon": 0.0}, {"lat": 38.90604283333333, "is_disabled": 0, "type": "electric_scooter", "lon": -76.98979633333333, "bike_id": "8f59c014dfd97e85eb96b3dcdbdf3793", "fusion_lat": 0.0, "name": "8f59c014dfd97e85eb96b3dcdbdf3793", "is_reserved": 0, "rental_uris": {"android": "https://dc.lft.to/lastmile_qr_scan", "ios": "https://dc.lft.to/lastmile_qr_scan"}, "fusion_lon": 0.0}, {"lat": 38.85923616666667, "is_disabled": 0, "type": "electric_scooter", "lon": -76.9971685, "bike_id": "51d075c92f29881d33d0c8594f3b568b", "fusion_lat": 0.0, "name": "51d075c92f29881d33d0c8594f3b568b", "is_reserved": 0, "rental_uris": {"android": "https://dc.lft.to/lastmile_qr_scan", "ios": "https://dc.lft.to/lastmile_qr_scan"}, "fusion_lon": 0.0}, {"lat": 38.86521333333334, "is_disabled": 0, "type": "electric_scooter", "lon": -76.99030066666667, "bike_id": "b3ab59a526aa4dd201eba4d0927aa3f8", "fusion_lat": 0.0, "name": "b3ab59a526aa4dd201eba4d0927aa3f8", "is_reserved": 0, "rental_uris": {"android": "https://dc.lft.to/lastmile_qr_scan", "ios": "https://dc.lft.to/lastmile_qr_scan"}, "fusion_lon": 0.0}, {"lat": 38.934438, "is_disabled": 0, "type": "electric_scooter", "lon": -77.03082333333333, "bike_id": "4cf96597339ff9fb4cf936cac43e2a9c", "fusion_lat": 0.0, "name": "4cf96597339ff9fb4cf936cac43e2a9c", "is_reserved": 0, "rental_uris": {"android": "https://dc.lft.to/lastmile_qr_scan", "ios": "https://dc.lft.to/lastmile_qr_scan"}, "fusion_lon": 0.0}, {"lat": 38.91993516666667, "is_disabled": 0, "type": "electric_scooter", "lon": -77.02382316666667, "bike_id": "2f884b3ddc1c919e525e2bb5118d5cce", "fusion_lat": 0.0, "name": "2f884b3ddc1c919e525e2bb5118d5cce", "is_reserved": 0, "rental_uris": {"android": "https://dc.lft.to/lastmile_qr_scan", "ios": "https://dc.lft.to/lastmile_qr_scan"}, "fusion_lon": 0.0}, {"lat": 38.90529, "is_disabled": 0, "type": "electric_scooter", "lon": -77.06243483333333, "bike_id": "afe073d3c76591c02a09710f0378b4a9", "fusion_lat": 0.0, "name": "afe073d3c76591c02a09710f0378b4a9", "is_reserved": 0, "rental_uris": {"android": "https://dc.lft.to/lastmile_qr_scan", "ios": "https://dc.lft.to/lastmile_qr_scan"}, "fusion_lon": 0.0}, {"lat": 38.8763025, "is_disabled": 0, "type": "electric_scooter", "lon": -76.96525766666667, "bike_id": "727f7ead8b3386f1c240f7266bd61474", "fusion_lat": 0.0, "name": "727f7ead8b3386f1c240f7266bd61474", "is_reserved": 0, "rental_uris": {"android": "https://dc.lft.to/lastmile_qr_scan", "ios": "https://dc.lft.to/lastmile_qr_scan"}, "fusion_lon": 0.0}, {"lat": 38.903429333333335, "is_disabled": 0, "type": "electric_scooter", "lon": -77.04245483333334, "bike_id": "dc07ba856189e7aa732b70b8a1ea7b03", "fusion_lat": 0.0, "name": "dc07ba856189e7aa732b70b8a1ea7b03", "is_reserved": 0, "rental_uris": {"android": "https://dc.lft.to/lastmile_qr_scan", "ios": "https://dc.lft.to/lastmile_qr_scan"}, "fusion_lon": 0.0}, {"lat": 38.9169115, "is_disabled": 0, "type": "electric_scooter", "lon": -77.02688133333334, "bike_id": "c13da679625fedecbe473911b04e362d", "fusion_lat": 0.0, "name": "c13da679625fedecbe473911b04e362d", "is_reserved": 0, "rental_uris": {"android": "https://dc.lft.to/lastmile_qr_scan", "ios": "https://dc.lft.to/lastmile_qr_scan"}, "fusion_lon": 0.0}, {"lat": 38.924014666666665, "is_disabled": 0, "type": "electric_scooter", "lon": -77.02741416666667, "bike_id": "28db5f162ce422ac93a96343be1bdcd4", "fusion_lat": 0.0, "name": "28db5f162ce422ac93a96343be1bdcd4", "is_reserved": 0, "rental_uris": {"android": "https://dc.lft.to/lastmile_qr_scan", "ios": "https://dc.lft.to/lastmile_qr_scan"}, "fusion_lon": 0.0}, {"lat": 38.92103083333333, "is_disabled": 0, "type": "electric_scooter", "lon": -77.02520233333334, "bike_id": "92d9a9f9bd080ff108ab1034b6df5298", "fusion_lat": 0.0, "name": "92d9a9f9bd080ff108ab1034b6df5298", "is_reserved": 0, "rental_uris": {"android": "https://dc.lft.to/lastmile_qr_scan", "ios": "https://dc.lft.to/lastmile_qr_scan"}, "fusion_lon": 0.0}, {"lat": 38.98501866666667, "is_disabled": 0, "type": "electric_bike", "lon": -76.9820825, "bike_id": "fdfc0c8b75156f12beb92bd607709211", "fusion_lat": 0.0, "name": "fdfc0c8b75156f12beb92bd607709211", "is_reserved": 0, "rental_uris": {"android": "https://dc.lft.to/lastmile_qr_scan", "ios": "https://dc.lft.to/lastmile_qr_scan"}, "fusion_lon": 0.0}, {"lat": 38.89086916666667, "is_disabled": 0, "type": "electric_scooter", "lon": -76.99921233333333, "bike_id": "023635ebe73fa99a32c48e4bb85d41c8", "fusion_lat": 0.0, "name": "023635ebe73fa99a32c48e4bb85d41c8", "is_reserved": 0, "rental_uris": {"android": "https://dc.lft.to/lastmile_qr_scan", "ios": "https://dc.lft.to/lastmile_qr_scan"}, "fusion_lon": 0.0}, {"lat": 38.888324833333336, "is_disabled": 0, "type": "electric_scooter", "lon": -76.9941595, "bike_id": "c67e599c154512212c4d75f1327b02d3", "fusion_lat": 0.0, "name": "c67e599c154512212c4d75f1327b02d3", "is_reserved": 0, "rental_uris": {"android": "https://dc.lft.to/lastmile_qr_scan", "ios": "https://dc.lft.to/lastmile_qr_scan"}, "fusion_lon": 0.0}, {"lat": 38.80573966666667, "is_disabled": 0, "type": "electric_bike", "lon": -77.06857816666667, "bike_id": "47cd27595024111ca34000d7c7c537c9", "fusion_lat": 0.0, "name": "47cd27595024111ca34000d7c7c537c9", "is_reserved": 0, "rental_uris": {"android": "https://dc.lft.to/lastmile_qr_scan", "ios": "https://dc.lft.to/lastmile_qr_scan"}, "fusion_lon": 0.0}, {"lat": 38.9288285, "is_disabled": 0, "type": "electric_scooter", "lon": -77.03270883333333, "bike_id": "432a1bd92ab5b1247f28dc150a04ec5b", "fusion_lat": 0.0, "name": "432a1bd92ab5b1247f28dc150a04ec5b", "is_reserved": 0, "rental_uris": {"android": "https://dc.lft.to/lastmile_qr_scan", "ios": "https://dc.lft.to/lastmile_qr_scan"}, "fusion_lon": 0.0}, {"lat": 38.909893833333335, "is_disabled": 0, "type": "electric_scooter", "lon": -77.04170266666667, "bike_id": "2648116913095cd77b80395bddfc2eff", "fusion_lat": 0.0, "name": "2648116913095cd77b80395bddfc2eff", "is_reserved": 0, "rental_uris": {"android": "https://dc.lft.to/lastmile_qr_scan", "ios": "https://dc.lft.to/lastmile_qr_scan"}, "fusion_lon": 0.0}, {"lat": 38.923398, "is_disabled": 0, "type": "electric_bike", "lon": -77.05173216666667, "bike_id": "5a33053a08ccc8fc95178e5c9c57ec12", "fusion_lat": 0.0, "name": "5a33053a08ccc8fc95178e5c9c57ec12", "is_reserved": 0, "rental_uris": {"android": "https://dc.lft.to/lastmile_qr_scan", "ios": "https://dc.lft.to/lastmile_qr_scan"}, "fusion_lon": 0.0}, {"lat": 38.919865, "is_disabled": 0, "type": "electric_scooter", "lon": -77.025293, "bike_id": "ab08202733650c41169b7104998f74c7", "fusion_lat": 0.0, "name": "ab08202733650c41169b7104998f74c7", "is_reserved": 0, "rental_uris": {"android": "https://dc.lft.to/lastmile_qr_scan", "ios": "https://dc.lft.to/lastmile_qr_scan"}, "fusion_lon": 0.0}, {"lat": 38.9174035, "is_disabled": 0, "type": "electric_scooter", "lon": -77.03204033333333, "bike_id": "f686296267c31b6fca5c3005c0b78d1a", "fusion_lat": 0.0, "name": "f686296267c31b6fca5c3005c0b78d1a", "is_reserved": 0, "rental_uris": {"android": "https://dc.lft.to/lastmile_qr_scan", "ios": "https://dc.lft.to/lastmile_qr_scan"}, "fusion_lon": 0.0}, {"lat": 38.920112333333336, "is_disabled": 0, "type": "electric_scooter", "lon": -77.01955583333333, "bike_id": "d7d784dcac62dbb942ee02364de17d63", "fusion_lat": 0.0, "name": "d7d784dcac62dbb942ee02364de17d63", "is_reserved": 0, "rental_uris": {"android": "https://dc.lft.to/lastmile_qr_scan", "ios": "https://dc.lft.to/lastmile_qr_scan"}, "fusion_lon": 0.0}, {"lat": 38.982743666666664, "is_disabled": 0, "type": "electric_bike", "lon": -77.01770716666667, "bike_id": "8206eb5b2c572f6e59fd9e8adffc2e6a", "fusion_lat": 0.0, "name": "8206eb5b2c572f6e59fd9e8adffc2e6a", "is_reserved": 0, "rental_uris": {"android": "https://dc.lft.to/lastmile_qr_scan", "ios": "https://dc.lft.to/lastmile_qr_scan"}, "fusion_lon": 0.0}, {"lat": 38.91409133333333, "is_disabled": 0, "type": "electric_scooter", "lon": -77.045062, "bike_id": "c4fc822b525c9fe1d7743f5597846ab2", "fusion_lat": 0.0, "name": "c4fc822b525c9fe1d7743f5597846ab2", "is_reserved": 0, "rental_uris": {"android": "https://dc.lft.to/lastmile_qr_scan", "ios": "https://dc.lft.to/lastmile_qr_scan"}, "fusion_lon": 0.0}, {"lat": 38.901100666666665, "is_disabled": 0, "type": "electric_scooter", "lon": -77.033194, "bike_id": "e4dfe4372432732a9aaa55733f6d23e0", "fusion_lat": 0.0, "name": "e4dfe4372432732a9aaa55733f6d23e0", "is_reserved": 0, "rental_uris": {"android": "https://dc.lft.to/lastmile_qr_scan", "ios": "https://dc.lft.to/lastmile_qr_scan"}, "fusion_lon": 0.0}, {"lat": 38.9540715, "is_disabled": 0, "type": "electric_bike", "lon": -76.98060433333333, "bike_id": "acc2de86bfe14e26bbc3f974e05a1707", "fusion_lat": 0.0, "name": "acc2de86bfe14e26bbc3f974e05a1707", "is_reserved": 0, "rental_uris": {"android": "https://dc.lft.to/lastmile_qr_scan", "ios": "https://dc.lft.to/lastmile_qr_scan"}, "fusion_lon": 0.0}, {"lat": 38.8734665, "is_disabled": 0, "type": "electric_scooter", "lon": -76.99167133333333, "bike_id": "9e05e0d67fc7f5a794a55cfa6a7e1f37", "fusion_lat": 0.0, "name": "9e05e0d67fc7f5a794a55cfa6a7e1f37", "is_reserved": 0, "rental_uris": {"android": "https://dc.lft.to/lastmile_qr_scan", "ios": "https://dc.lft.to/lastmile_qr_scan"}, "fusion_lon": 0.0}, {"lat": 38.924519333333336, "is_disabled": 0, "type": "electric_scooter", "lon": -77.0402085, "bike_id": "a6c9138f7583963a3b14f35895ea7a0f", "fusion_lat": 0.0, "name": "a6c9138f7583963a3b14f35895ea7a0f", "is_reserved": 0, "rental_uris": {"android": "https://dc.lft.to/lastmile_qr_scan", "ios": "https://dc.lft.to/lastmile_qr_scan"}, "fusion_lon": 0.0}, {"lat": 38.907212, "is_disabled": 0, "type": "electric_scooter", "lon": -77.02749533333333, "bike_id": "44af03134a3c8d29f590564c15ebfc38", "fusion_lat": 0.0, "name": "44af03134a3c8d29f590564c15ebfc38", "is_reserved": 0, "rental_uris": {"android": "https://dc.lft.to/lastmile_qr_scan", "ios": "https://dc.lft.to/lastmile_qr_scan"}, "fusion_lon": 0.0}, {"lat": 38.876267, "is_disabled": 0, "type": "electric_scooter", "lon": -76.96523683333334, "bike_id": "0922bc6fc3b246c711a7b9f5afdc1230", "fusion_lat": 0.0, "name": "0922bc6fc3b246c711a7b9f5afdc1230", "is_reserved": 0, "rental_uris": {"android": "https://dc.lft.to/lastmile_qr_scan", "ios": "https://dc.lft.to/lastmile_qr_scan"}, "fusion_lon": 0.0}, {"lat": 38.91903383333333, "is_disabled": 0, "type": "electric_scooter", "lon": -77.02463816666666, "bike_id": "5e3933ed8e616a540dea4fac289aa908", "fusion_lat": 0.0, "name": "5e3933ed8e616a540dea4fac289aa908", "is_reserved": 0, "rental_uris": {"android": "https://dc.lft.to/lastmile_qr_scan", "ios": "https://dc.lft.to/lastmile_qr_scan"}, "fusion_lon": 0.0}, {"lat": 38.9062425, "is_disabled": 0, "type": "electric_scooter", "lon": -77.02184, "bike_id": "db857ab6a61ee35d9994fc0672669e37", "fusion_lat": 0.0, "name": "db857ab6a61ee35d9994fc0672669e37", "is_reserved": 0, "rental_uris": {"android": "https://dc.lft.to/lastmile_qr_scan", "ios": "https://dc.lft.to/lastmile_qr_scan"}, "fusion_lon": 0.0}, {"lat": 38.90024283333333, "is_disabled": 0, "type": "electric_scooter", "lon": -77.04416283333333, "bike_id": "62b9b1a5c2dcc6da3935fc1f0cbe1fc1", "fusion_lat": 0.0, "name": "62b9b1a5c2dcc6da3935fc1f0cbe1fc1", "is_reserved": 0, "rental_uris": {"android": "https://dc.lft.to/lastmile_qr_scan", "ios": "https://dc.lft.to/lastmile_qr_scan"}, "fusion_lon": 0.0}, {"lat": 38.915641, "is_disabled": 0, "type": "electric_scooter", "lon": -77.02005733333333, "bike_id": "477538769650a7fd9e10aeb8e073f478", "fusion_lat": 0.0, "name": "477538769650a7fd9e10aeb8e073f478", "is_reserved": 0, "rental_uris": {"android": "https://dc.lft.to/lastmile_qr_scan", "ios": "https://dc.lft.to/lastmile_qr_scan"}, "fusion_lon": 0.0}, {"lat": 38.906798, "is_disabled": 0, "type": "electric_scooter", "lon": -77.02711516666666, "bike_id": "58a643752d08f8e59519544c71f64b74", "fusion_lat": 0.0, "name": "58a643752d08f8e59519544c71f64b74", "is_reserved": 0, "rental_uris": {"android": "https://dc.lft.to/lastmile_qr_scan", "ios": "https://dc.lft.to/lastmile_qr_scan"}, "fusion_lon": 0.0}, {"lat": 38.9003525, "is_disabled": 0, "type": "electric_scooter", "lon": -76.996977, "bike_id": "4520f31362cecd81d725c9e1102d47d1", "fusion_lat": 0.0, "name": "4520f31362cecd81d725c9e1102d47d1", "is_reserved": 0, "rental_uris": {"android": "https://dc.lft.to/lastmile_qr_scan", "ios": "https://dc.lft.to/lastmile_qr_scan"}, "fusion_lon": 0.0}, {"lat": 38.885268333333336, "is_disabled": 0, "type": "electric_scooter", "lon": -77.01133683333333, "bike_id": "2a281e352f88666d99e78d993d7ba1a3", "fusion_lat": 0.0, "name": "2a281e352f88666d99e78d993d7ba1a3", "is_reserved": 0, "rental_uris": {"android": "https://dc.lft.to/lastmile_qr_scan", "ios": "https://dc.lft.to/lastmile_qr_scan"}, "fusion_lon": 0.0}, {"lat": 38.917732, "is_disabled": 0, "type": "electric_scooter", "lon": -77.04147983333333, "bike_id": "b6806e554f0f256be8e52d7774ec8e8c", "fusion_lat": 0.0, "name": "b6806e554f0f256be8e52d7774ec8e8c", "is_reserved": 0, "rental_uris": {"android": "https://dc.lft.to/lastmile_qr_scan", "ios": "https://dc.lft.to/lastmile_qr_scan"}, "fusion_lon": 0.0}, {"lat": 38.91738516666667, "is_disabled": 0, "type": "electric_scooter", "lon": -77.0318825, "bike_id": "175c402cceb0c9d8a09ec5876e02eb71", "fusion_lat": 0.0, "name": "175c402cceb0c9d8a09ec5876e02eb71", "is_reserved": 0, "rental_uris": {"android": "https://dc.lft.to/lastmile_qr_scan", "ios": "https://dc.lft.to/lastmile_qr_scan"}, "fusion_lon": 0.0}, {"lat": 38.86165, "is_disabled": 0, "type": "electric_bike", "lon": -77.13146733333333, "bike_id": "000a90cfb925fd3229de43c27a3ae6b8", "fusion_lat": 0.0, "name": "000a90cfb925fd3229de43c27a3ae6b8", "is_reserved": 0, "rental_uris": {"android": "https://dc.lft.to/lastmile_qr_scan", "ios": "https://dc.lft.to/lastmile_qr_scan"}, "fusion_lon": 0.0}, {"lat": 38.91705066666667, "is_disabled": 0, "type": "electric_scooter", "lon": -77.0322715, "bike_id": "c6e6e7da89d0ca3edf33d93c78fb4476", "fusion_lat": 0.0, "name": "c6e6e7da89d0ca3edf33d93c78fb4476", "is_reserved": 0, "rental_uris": {"android": "https://dc.lft.to/lastmile_qr_scan", "ios": "https://dc.lft.to/lastmile_qr_scan"}, "fusion_lon": 0.0}, {"lat": 38.931213166666666, "is_disabled": 0, "type": "electric_scooter", "lon": -77.02099283333334, "bike_id": "b53c9915c1aa3758e03330fb37103a17", "fusion_lat": 0.0, "name": "b53c9915c1aa3758e03330fb37103a17", "is_reserved": 0, "rental_uris": {"android": "https://dc.lft.to/lastmile_qr_scan", "ios": "https://dc.lft.to/lastmile_qr_scan"}, "fusion_lon": 0.0}, {"lat": 38.917849, "is_disabled": 0, "type": "electric_bike", "lon": -76.971861, "bike_id": "5520738308405712ae7366abff9427fd", "fusion_lat": 0.0, "name": "5520738308405712ae7366abff9427fd", "is_reserved": 0, "rental_uris": {"android": "https://dc.lft.to/lastmile_qr_scan", "ios": "https://dc.lft.to/lastmile_qr_scan"}, "fusion_lon": 0.0}, {"lat": 38.867008, "is_disabled": 0, "type": "electric_scooter", "lon": -76.98705983333333, "bike_id": "fa83812a86300425f337774b13decee9", "fusion_lat": 0.0, "name": "fa83812a86300425f337774b13decee9", "is_reserved": 0, "rental_uris": {"android": "https://dc.lft.to/lastmile_qr_scan", "ios": "https://dc.lft.to/lastmile_qr_scan"}, "fusion_lon": 0.0}, {"lat": 38.905587833333335, "is_disabled": 0, "type": "electric_scooter", "lon": -77.01771433333333, "bike_id": "edf137b02e961d565f75afb16ceb5fc7", "fusion_lat": 0.0, "name": "edf137b02e961d565f75afb16ceb5fc7", "is_reserved": 0, "rental_uris": {"android": "https://dc.lft.to/lastmile_qr_scan", "ios": "https://dc.lft.to/lastmile_qr_scan"}, "fusion_lon": 0.0}, {"lat": 38.79318716666667, "is_disabled": 0, "type": "electric_bike", "lon": -77.040169, "bike_id": "40570b54320d98ffe9acf4adbfc0505c", "fusion_lat": 0.0, "name": "40570b54320d98ffe9acf4adbfc0505c", "is_reserved": 0, "rental_uris": {"android": "https://dc.lft.to/lastmile_qr_scan", "ios": "https://dc.lft.to/lastmile_qr_scan"}, "fusion_lon": 0.0}, {"lat": 38.9490455, "is_disabled": 0, "type": "electric_bike", "lon": -76.97237066666666, "bike_id": "54ae8c808f4873e8dd5cb9b6a6b37b4a", "fusion_lat": 0.0, "name": "54ae8c808f4873e8dd5cb9b6a6b37b4a", "is_reserved": 0, "rental_uris": {"android": "https://dc.lft.to/lastmile_qr_scan", "ios": "https://dc.lft.to/lastmile_qr_scan"}, "fusion_lon": 0.0}, {"lat": 38.9268555, "is_disabled": 0, "type": "electric_scooter", "lon": -77.01571183333333, "bike_id": "cc77be330d1226a3a48fcfc45af65168", "fusion_lat": 0.0, "name": "cc77be330d1226a3a48fcfc45af65168", "is_reserved": 0, "rental_uris": {"android": "https://dc.lft.to/lastmile_qr_scan", "ios": "https://dc.lft.to/lastmile_qr_scan"}, "fusion_lon": 0.0}, {"lat": 38.906353, "is_disabled": 0, "type": "electric_scooter", "lon": -77.03402166666666, "bike_id": "b94142aad1e0b1fb91d59ec65096c044", "fusion_lat": 0.0, "name": "b94142aad1e0b1fb91d59ec65096c044", "is_reserved": 0, "rental_uris": {"android": "https://dc.lft.to/lastmile_qr_scan", "ios": "https://dc.lft.to/lastmile_qr_scan"}, "fusion_lon": 0.0}, {"lat": 38.883346833333334, "is_disabled": 0, "type": "electric_scooter", "lon": -77.00928766666667, "bike_id": "d2c2ebb9b34f18c647f16d950f57991d", "fusion_lat": 0.0, "name": "d2c2ebb9b34f18c647f16d950f57991d", "is_reserved": 0, "rental_uris": {"android": "https://dc.lft.to/lastmile_qr_scan", "ios": "https://dc.lft.to/lastmile_qr_scan"}, "fusion_lon": 0.0}, {"lat": 38.897189166666664, "is_disabled": 0, "type": "electric_scooter", "lon": -77.00795166666667, "bike_id": "20ac879217be352ad13ec980cf5ba684", "fusion_lat": 0.0, "name": "20ac879217be352ad13ec980cf5ba684", "is_reserved": 0, "rental_uris": {"android": "https://dc.lft.to/lastmile_qr_scan", "ios": "https://dc.lft.to/lastmile_qr_scan"}, "fusion_lon": 0.0}, {"lat": 38.89798, "is_disabled": 0, "type": "electric_scooter", "lon": -77.05024883333333, "bike_id": "d0441324d4be8e7407608f58886985ef", "fusion_lat": 0.0, "name": "d0441324d4be8e7407608f58886985ef", "is_reserved": 0, "rental_uris": {"android": "https://dc.lft.to/lastmile_qr_scan", "ios": "https://dc.lft.to/lastmile_qr_scan"}, "fusion_lon": 0.0}, {"lat": 38.8927605, "is_disabled": 0, "type": "electric_scooter", "lon": -77.05036066666666, "bike_id": "9bb714d1bab0877c474a1c32b4357535", "fusion_lat": 0.0, "name": "9bb714d1bab0877c474a1c32b4357535", "is_reserved": 0, "rental_uris": {"android": "https://dc.lft.to/lastmile_qr_scan", "ios": "https://dc.lft.to/lastmile_qr_scan"}, "fusion_lon": 0.0}, {"lat": 38.924797, "is_disabled": 0, "type": "electric_bike", "lon": -76.9903375, "bike_id": "07153c6b86d3f70c184a5325f1b98c01", "fusion_lat": 0.0, "name": "07153c6b86d3f70c184a5325f1b98c01", "is_reserved": 0, "rental_uris": {"android": "https://dc.lft.to/lastmile_qr_scan", "ios": "https://dc.lft.to/lastmile_qr_scan"}, "fusion_lon": 0.0}, {"lat": 39.0885695, "is_disabled": 0, "type": "electric_bike", "lon": -77.17841116666666, "bike_id": "47f850213ef190c25eb721aa59f7c4a6", "fusion_lat": 0.0, "name": "47f850213ef190c25eb721aa59f7c4a6", "is_reserved": 0, "rental_uris": {"android": "https://dc.lft.to/lastmile_qr_scan", "ios": "https://dc.lft.to/lastmile_qr_scan"}, "fusion_lon": 0.0}, {"lat": 38.911226, "is_disabled": 0, "type": "electric_bike", "lon": -77.06580783333334, "bike_id": "657bd1041790fadcde1c75814dcfa297", "fusion_lat": 0.0, "name": "657bd1041790fadcde1c75814dcfa297", "is_reserved": 0, "rental_uris": {"android": "https://dc.lft.to/lastmile_qr_scan", "ios": "https://dc.lft.to/lastmile_qr_scan"}, "fusion_lon": 0.0}, {"lat": 38.907647833333336, "is_disabled": 0, "type": "electric_bike", "lon": -77.0699975, "bike_id": "826f2d12f570495a30d189f7aaa02b33", "fusion_lat": 0.0, "name": "826f2d12f570495a30d189f7aaa02b33", "is_reserved": 0, "rental_uris": {"android": "https://dc.lft.to/lastmile_qr_scan", "ios": "https://dc.lft.to/lastmile_qr_scan"}, "fusion_lon": 0.0}, {"lat": 38.917693166666666, "is_disabled": 0, "type": "electric_scooter", "lon": -77.04766416666666, "bike_id": "ac6f78de524273cee6716cdb703f8a77", "fusion_lat": 0.0, "name": "ac6f78de524273cee6716cdb703f8a77", "is_reserved": 0, "rental_uris": {"android": "https://dc.lft.to/lastmile_qr_scan", "ios": "https://dc.lft.to/lastmile_qr_scan"}, "fusion_lon": 0.0}, {"lat": 38.928597833333335, "is_disabled": 0, "type": "electric_bike", "lon": -77.22219683333333, "bike_id": "8543eee289903bfcaeb4b0ccdaf8ca2f", "fusion_lat": 0.0, "name": "8543eee289903bfcaeb4b0ccdaf8ca2f", "is_reserved": 0, "rental_uris": {"android": "https://dc.lft.to/lastmile_qr_scan", "ios": "https://dc.lft.to/lastmile_qr_scan"}, "fusion_lon": 0.0}, {"lat": 38.90556483333334, "is_disabled": 0, "type": "electric_bike", "lon": -77.05699883333334, "bike_id": "b29a495925b77a4df44567f9d9b50057", "fusion_lat": 0.0, "name": "b29a495925b77a4df44567f9d9b50057", "is_reserved": 0, "rental_uris": {"android": "https://dc.lft.to/lastmile_qr_scan", "ios": "https://dc.lft.to/lastmile_qr_scan"}, "fusion_lon": 0.0}, {"lat": 38.906352166666665, "is_disabled": 0, "type": "electric_scooter", "lon": -77.031427, "bike_id": "0eede1e6e50b3fdb8954550511227c69", "fusion_lat": 0.0, "name": "0eede1e6e50b3fdb8954550511227c69", "is_reserved": 0, "rental_uris": {"android": "https://dc.lft.to/lastmile_qr_scan", "ios": "https://dc.lft.to/lastmile_qr_scan"}, "fusion_lon": 0.0}, {"lat": 38.902810333333335, "is_disabled": 0, "type": "electric_scooter", "lon": -77.02879033333333, "bike_id": "76981ed806b242d6a86cd353dc61b88d", "fusion_lat": 0.0, "name": "76981ed806b242d6a86cd353dc61b88d", "is_reserved": 0, "rental_uris": {"android": "https://dc.lft.to/lastmile_qr_scan", "ios": "https://dc.lft.to/lastmile_qr_scan"}, "fusion_lon": 0.0}, {"lat": 38.903240833333335, "is_disabled": 0, "type": "electric_scooter", "lon": -77.03759333333333, "bike_id": "dff8a9d264a9207b7a93f6d21d7da780", "fusion_lat": 0.0, "name": "dff8a9d264a9207b7a93f6d21d7da780", "is_reserved": 0, "rental_uris": {"android": "https://dc.lft.to/lastmile_qr_scan", "ios": "https://dc.lft.to/lastmile_qr_scan"}, "fusion_lon": 0.0}, {"lat": 38.97225483333333, "is_disabled": 0, "type": "electric_bike", "lon": -76.99344533333333, "bike_id": "e785d937c65b23bf904f3ce0f04b42b2", "fusion_lat": 0.0, "name": "e785d937c65b23bf904f3ce0f04b42b2", "is_reserved": 0, "rental_uris": {"android": "https://dc.lft.to/lastmile_qr_scan", "ios": "https://dc.lft.to/lastmile_qr_scan"}, "fusion_lon": 0.0}, {"lat": 38.922397333333336, "is_disabled": 0, "type": "electric_scooter", "lon": -77.04571966666667, "bike_id": "d8bd418c65e0cf56ba58a963aec0f226", "fusion_lat": 0.0, "name": "d8bd418c65e0cf56ba58a963aec0f226", "is_reserved": 0, "rental_uris": {"android": "https://dc.lft.to/lastmile_qr_scan", "ios": "https://dc.lft.to/lastmile_qr_scan"}, "fusion_lon": 0.0}, {"lat": 38.90838, "is_disabled": 0, "type": "electric_scooter", "lon": -76.9969175, "bike_id": "212bcf3c0b695892931b586b72c8cb15", "fusion_lat": 0.0, "name": "212bcf3c0b695892931b586b72c8cb15", "is_reserved": 0, "rental_uris": {"android": "https://dc.lft.to/lastmile_qr_scan", "ios": "https://dc.lft.to/lastmile_qr_scan"}, "fusion_lon": 0.0}, {"lat": 38.933180666666665, "is_disabled": 0, "type": "electric_scooter", "lon": -77.04530233333334, "bike_id": "777bab76df0a440def8a264db2937c52", "fusion_lat": 0.0, "name": "777bab76df0a440def8a264db2937c52", "is_reserved": 0, "rental_uris": {"android": "https://dc.lft.to/lastmile_qr_scan", "ios": "https://dc.lft.to/lastmile_qr_scan"}, "fusion_lon": 0.0}, {"lat": 38.94894083333333, "is_disabled": 0, "type": "electric_scooter", "lon": -77.03045633333333, "bike_id": "33c694ba12d181f2f9111740bf753650", "fusion_lat": 0.0, "name": "33c694ba12d181f2f9111740bf753650", "is_reserved": 0, "rental_uris": {"android": "https://dc.lft.to/lastmile_qr_scan", "ios": "https://dc.lft.to/lastmile_qr_scan"}, "fusion_lon": 0.0}, {"lat": 38.91322983333333, "is_disabled": 0, "type": "electric_scooter", "lon": -77.03186683333334, "bike_id": "c14f3fd7eb610830ed30396dc02474a2", "fusion_lat": 0.0, "name": "c14f3fd7eb610830ed30396dc02474a2", "is_reserved": 0, "rental_uris": {"android": "https://dc.lft.to/lastmile_qr_scan", "ios": "https://dc.lft.to/lastmile_qr_scan"}, "fusion_lon": 0.0}, {"lat": 38.93089366666667, "is_disabled": 0, "type": "electric_scooter", "lon": -77.03123716666667, "bike_id": "a3f96dccf88b276e5181a8f49ed4515c", "fusion_lat": 0.0, "name": "a3f96dccf88b276e5181a8f49ed4515c", "is_reserved": 0, "rental_uris": {"android": "https://dc.lft.to/lastmile_qr_scan", "ios": "https://dc.lft.to/lastmile_qr_scan"}, "fusion_lon": 0.0}, {"lat": 38.91637433333333, "is_disabled": 0, "type": "electric_scooter", "lon": -77.02233933333333, "bike_id": "acb0faaca1f0d7d650617fb098c4c927", "fusion_lat": 0.0, "name": "acb0faaca1f0d7d650617fb098c4c927", "is_reserved": 0, "rental_uris": {"android": "https://dc.lft.to/lastmile_qr_scan", "ios": "https://dc.lft.to/lastmile_qr_scan"}, "fusion_lon": 0.0}, {"lat": 38.99996066666667, "is_disabled": 0, "type": "electric_bike", "lon": -76.92496233333334, "bike_id": "b07f4a2f87f5069b76517155bef40c53", "fusion_lat": 0.0, "name": "b07f4a2f87f5069b76517155bef40c53", "is_reserved": 0, "rental_uris": {"android": "https://dc.lft.to/lastmile_qr_scan", "ios": "https://dc.lft.to/lastmile_qr_scan"}, "fusion_lon": 0.0}, {"lat": 38.8908765, "is_disabled": 0, "type": "electric_scooter", "lon": -76.95266233333334, "bike_id": "c72ebfabcaf5f34e3e151318b65ae361", "fusion_lat": 0.0, "name": "c72ebfabcaf5f34e3e151318b65ae361", "is_reserved": 0, "rental_uris": {"android": "https://dc.lft.to/lastmile_qr_scan", "ios": "https://dc.lft.to/lastmile_qr_scan"}, "fusion_lon": 0.0}, {"lat": 38.9109895, "is_disabled": 0, "type": "electric_scooter", "lon": -77.03720466666667, "bike_id": "b146481fbd50ceaff93707f7b08e868b", "fusion_lat": 0.0, "name": "b146481fbd50ceaff93707f7b08e868b", "is_reserved": 0, "rental_uris": {"android": "https://dc.lft.to/lastmile_qr_scan", "ios": "https://dc.lft.to/lastmile_qr_scan"}, "fusion_lon": 0.0}, {"lat": 38.952117, "is_disabled": 0, "type": "electric_scooter", "lon": -77.086006, "bike_id": "012f5ea6c563d71e69d486263f923d6b", "fusion_lat": 0.0, "name": "012f5ea6c563d71e69d486263f923d6b", "is_reserved": 0, "rental_uris": {"android": "https://dc.lft.to/lastmile_qr_scan", "ios": "https://dc.lft.to/lastmile_qr_scan"}, "fusion_lon": 0.0}, {"lat": 38.92144733333333, "is_disabled": 0, "type": "electric_scooter", "lon": -77.04478866666666, "bike_id": "9e5ebd3c8ebb891f0bebbca668d05ffe", "fusion_lat": 0.0, "name": "9e5ebd3c8ebb891f0bebbca668d05ffe", "is_reserved": 0, "rental_uris": {"android": "https://dc.lft.to/lastmile_qr_scan", "ios": "https://dc.lft.to/lastmile_qr_scan"}, "fusion_lon": 0.0}, {"lat": 38.915511, "is_disabled": 0, "type": "electric_bike", "lon": -77.03171166666667, "bike_id": "5b5807180e564fcb2ea0a6186c6810f1", "fusion_lat": 0.0, "name": "5b5807180e564fcb2ea0a6186c6810f1", "is_reserved": 0, "rental_uris": {"android": "https://dc.lft.to/lastmile_qr_scan", "ios": "https://dc.lft.to/lastmile_qr_scan"}, "fusion_lon": 0.0}, {"lat": 38.916887833333334, "is_disabled": 0, "type": "electric_scooter", "lon": -77.0239455, "bike_id": "718d200114016d873c94dd3e4c87deaf", "fusion_lat": 0.0, "name": "718d200114016d873c94dd3e4c87deaf", "is_reserved": 0, "rental_uris": {"android": "https://dc.lft.to/lastmile_qr_scan", "ios": "https://dc.lft.to/lastmile_qr_scan"}, "fusion_lon": 0.0}, {"lat": 38.91564483333333, "is_disabled": 0, "type": "electric_scooter", "lon": -77.03171616666667, "bike_id": "df14fb0fd89121bdaa5c59c5970c21c4", "fusion_lat": 0.0, "name": "df14fb0fd89121bdaa5c59c5970c21c4", "is_reserved": 0, "rental_uris": {"android": "https://dc.lft.to/lastmile_qr_scan", "ios": "https://dc.lft.to/lastmile_qr_scan"}, "fusion_lon": 0.0}, {"lat": 38.9224005, "is_disabled": 0, "type": "electric_scooter", "lon": -77.04255766666667, "bike_id": "d2e061c55a2721d29ee4f8b4c1a63800", "fusion_lat": 0.0, "name": "d2e061c55a2721d29ee4f8b4c1a63800", "is_reserved": 0, "rental_uris": {"android": "https://dc.lft.to/lastmile_qr_scan", "ios": "https://dc.lft.to/lastmile_qr_scan"}, "fusion_lon": 0.0}, {"lat": 38.9171195, "is_disabled": 0, "type": "electric_scooter", "lon": -77.02860133333333, "bike_id": "5c35f2bf66bcf02126c6853c14f51ba9", "fusion_lat": 0.0, "name": "5c35f2bf66bcf02126c6853c14f51ba9", "is_reserved": 0, "rental_uris": {"android": "https://dc.lft.to/lastmile_qr_scan", "ios": "https://dc.lft.to/lastmile_qr_scan"}, "fusion_lon": 0.0}, {"lat": 38.9000845, "is_disabled": 0, "type": "electric_scooter", "lon": -76.9223245, "bike_id": "d4d6e9d7d208c3dd584cc752aa147e0b", "fusion_lat": 0.0, "name": "d4d6e9d7d208c3dd584cc752aa147e0b", "is_reserved": 0, "rental_uris": {"android": "https://dc.lft.to/lastmile_qr_scan", "ios": "https://dc.lft.to/lastmile_qr_scan"}, "fusion_lon": 0.0}, {"lat": 38.90407066666667, "is_disabled": 0, "type": "electric_scooter", "lon": -77.02035566666666, "bike_id": "fb4a959b5df5faa8af6cd3ccf4dab709", "fusion_lat": 0.0, "name": "fb4a959b5df5faa8af6cd3ccf4dab709", "is_reserved": 0, "rental_uris": {"android": "https://dc.lft.to/lastmile_qr_scan", "ios": "https://dc.lft.to/lastmile_qr_scan"}, "fusion_lon": 0.0}, {"lat": 38.914458, "is_disabled": 0, "type": "electric_scooter", "lon": -77.02968516666667, "bike_id": "395d769251a3caa5e773f672eba11e58", "fusion_lat": 0.0, "name": "395d769251a3caa5e773f672eba11e58", "is_reserved": 0, "rental_uris": {"android": "https://dc.lft.to/lastmile_qr_scan", "ios": "https://dc.lft.to/lastmile_qr_scan"}, "fusion_lon": 0.0}, {"lat": 38.933391666666665, "is_disabled": 0, "type": "electric_scooter", "lon": -76.99308216666667, "bike_id": "fe016a5d4e723cdfe9306a2326d4196a", "fusion_lat": 0.0, "name": "fe016a5d4e723cdfe9306a2326d4196a", "is_reserved": 0, "rental_uris": {"android": "https://dc.lft.to/lastmile_qr_scan", "ios": "https://dc.lft.to/lastmile_qr_scan"}, "fusion_lon": 0.0}, {"lat": 38.9314225, "is_disabled": 0, "type": "electric_scooter", "lon": -77.02145183333333, "bike_id": "6b64dff305858daefaa1b75a4f6c94f6", "fusion_lat": 0.0, "name": "6b64dff305858daefaa1b75a4f6c94f6", "is_reserved": 0, "rental_uris": {"android": "https://dc.lft.to/lastmile_qr_scan", "ios": "https://dc.lft.to/lastmile_qr_scan"}, "fusion_lon": 0.0}, {"lat": 38.8995865, "is_disabled": 0, "type": "electric_scooter", "lon": -77.003503, "bike_id": "7a5b22cbd42276209a140d9d2cf1a77d", "fusion_lat": 0.0, "name": "7a5b22cbd42276209a140d9d2cf1a77d", "is_reserved": 0, "rental_uris": {"android": "https://dc.lft.to/lastmile_qr_scan", "ios": "https://dc.lft.to/lastmile_qr_scan"}, "fusion_lon": 0.0}, {"lat": 38.90955683333333, "is_disabled": 0, "type": "electric_scooter", "lon": -77.02158883333334, "bike_id": "fe7c12cda8f46b1c4c6df02a49b986bb", "fusion_lat": 0.0, "name": "fe7c12cda8f46b1c4c6df02a49b986bb", "is_reserved": 0, "rental_uris": {"android": "https://dc.lft.to/lastmile_qr_scan", "ios": "https://dc.lft.to/lastmile_qr_scan"}, "fusion_lon": 0.0}, {"lat": 38.907337166666665, "is_disabled": 0, "type": "electric_bike", "lon": -77.01068066666667, "bike_id": "749502359a31da42c655c889cdcbf0e7", "fusion_lat": 0.0, "name": "749502359a31da42c655c889cdcbf0e7", "is_reserved": 0, "rental_uris": {"android": "https://dc.lft.to/lastmile_qr_scan", "ios": "https://dc.lft.to/lastmile_qr_scan"}, "fusion_lon": 0.0}, {"lat": 38.85808333333333, "is_disabled": 0, "type": "electric_scooter", "lon": -76.98650666666667, "bike_id": "6fee283ddd3c51abf3df5bba68982cf2", "fusion_lat": 0.0, "name": "6fee283ddd3c51abf3df5bba68982cf2", "is_reserved": 0, "rental_uris": {"android": "https://dc.lft.to/lastmile_qr_scan", "ios": "https://dc.lft.to/lastmile_qr_scan"}, "fusion_lon": 0.0}, {"lat": 38.90139633333333, "is_disabled": 0, "type": "electric_scooter", "lon": -77.03267983333333, "bike_id": "b307de014ef27f1c61981a33567110a5", "fusion_lat": 0.0, "name": "b307de014ef27f1c61981a33567110a5", "is_reserved": 0, "rental_uris": {"android": "https://dc.lft.to/lastmile_qr_scan", "ios": "https://dc.lft.to/lastmile_qr_scan"}, "fusion_lon": 0.0}, {"lat": 38.96609133333333, "is_disabled": 0, "type": "electric_scooter", "lon": -77.0205165, "bike_id": "1a3f72adba48981887c729c2a8de08e0", "fusion_lat": 0.0, "name": "1a3f72adba48981887c729c2a8de08e0", "is_reserved": 0, "rental_uris": {"android": "https://dc.lft.to/lastmile_qr_scan", "ios": "https://dc.lft.to/lastmile_qr_scan"}, "fusion_lon": 0.0}, {"lat": 38.9176175, "is_disabled": 0, "type": "electric_scooter", "lon": -77.01170233333333, "bike_id": "d7fb39d31bb4b386afd9eb7af6a3aaae", "fusion_lat": 0.0, "name": "d7fb39d31bb4b386afd9eb7af6a3aaae", "is_reserved": 0, "rental_uris": {"android": "https://dc.lft.to/lastmile_qr_scan", "ios": "https://dc.lft.to/lastmile_qr_scan"}, "fusion_lon": 0.0}, {"lat": 38.8638245, "is_disabled": 0, "type": "electric_scooter", "lon": -76.9925205, "bike_id": "58ebe5e1204200a32c19dd820400b1ba", "fusion_lat": 0.0, "name": "58ebe5e1204200a32c19dd820400b1ba", "is_reserved": 0, "rental_uris": {"android": "https://dc.lft.to/lastmile_qr_scan", "ios": "https://dc.lft.to/lastmile_qr_scan"}, "fusion_lon": 0.0}, {"lat": 38.923505166666665, "is_disabled": 0, "type": "electric_scooter", "lon": -77.04392733333333, "bike_id": "d9a3b395959f135b78805dd7f0e5d7e4", "fusion_lat": 0.0, "name": "d9a3b395959f135b78805dd7f0e5d7e4", "is_reserved": 0, "rental_uris": {"android": "https://dc.lft.to/lastmile_qr_scan", "ios": "https://dc.lft.to/lastmile_qr_scan"}, "fusion_lon": 0.0}, {"lat": 38.914484, "is_disabled": 0, "type": "electric_scooter", "lon": -77.03860566666667, "bike_id": "a75c584a7c0dcdc23ea2c2f8c6d30801", "fusion_lat": 0.0, "name": "a75c584a7c0dcdc23ea2c2f8c6d30801", "is_reserved": 0, "rental_uris": {"android": "https://dc.lft.to/lastmile_qr_scan", "ios": "https://dc.lft.to/lastmile_qr_scan"}, "fusion_lon": 0.0}, {"lat": 38.9096705, "is_disabled": 0, "type": "electric_scooter", "lon": -77.03817183333334, "bike_id": "a9d26413fd620b43b641fd4207777af5", "fusion_lat": 0.0, "name": "a9d26413fd620b43b641fd4207777af5", "is_reserved": 0, "rental_uris": {"android": "https://dc.lft.to/lastmile_qr_scan", "ios": "https://dc.lft.to/lastmile_qr_scan"}, "fusion_lon": 0.0}, {"lat": 38.91828433333333, "is_disabled": 0, "type": "electric_scooter", "lon": -77.024179, "bike_id": "aa5318a1f3ea78a43677c62fcd96d081", "fusion_lat": 0.0, "name": "aa5318a1f3ea78a43677c62fcd96d081", "is_reserved": 0, "rental_uris": {"android": "https://dc.lft.to/lastmile_qr_scan", "ios": "https://dc.lft.to/lastmile_qr_scan"}, "fusion_lon": 0.0}, {"lat": 38.90321866666667, "is_disabled": 0, "type": "electric_bike", "lon": -77.06270983333333, "bike_id": "dcec60a31745efc90377b99a9407c7c7", "fusion_lat": 0.0, "name": "dcec60a31745efc90377b99a9407c7c7", "is_reserved": 0, "rental_uris": {"android": "https://dc.lft.to/lastmile_qr_scan", "ios": "https://dc.lft.to/lastmile_qr_scan"}, "fusion_lon": 0.0}, {"lat": 38.94291533333333, "is_disabled": 0, "type": "electric_scooter", "lon": -77.05922483333333, "bike_id": "ac8d8f95a5addcf77a8fb337932f1f5f", "fusion_lat": 0.0, "name": "ac8d8f95a5addcf77a8fb337932f1f5f", "is_reserved": 0, "rental_uris": {"android": "https://dc.lft.to/lastmile_qr_scan", "ios": "https://dc.lft.to/lastmile_qr_scan"}, "fusion_lon": 0.0}, {"lat": 38.854524833333336, "is_disabled": 0, "type": "electric_scooter", "lon": -76.972187, "bike_id": "c8305c5184820d171568967c4aae108b", "fusion_lat": 0.0, "name": "c8305c5184820d171568967c4aae108b", "is_reserved": 0, "rental_uris": {"android": "https://dc.lft.to/lastmile_qr_scan", "ios": "https://dc.lft.to/lastmile_qr_scan"}, "fusion_lon": 0.0}, {"lat": 38.97837283333333, "is_disabled": 0, "type": "electric_bike", "lon": -77.0264225, "bike_id": "194d5274b5c1466b9536a713ba014ad0", "fusion_lat": 0.0, "name": "194d5274b5c1466b9536a713ba014ad0", "is_reserved": 0, "rental_uris": {"android": "https://dc.lft.to/lastmile_qr_scan", "ios": "https://dc.lft.to/lastmile_qr_scan"}, "fusion_lon": 0.0}, {"lat": 38.909872666666665, "is_disabled": 0, "type": "electric_scooter", "lon": -77.03208266666667, "bike_id": "a7f17fdeddd4292d2dbe36dcb9316cd6", "fusion_lat": 0.0, "name": "a7f17fdeddd4292d2dbe36dcb9316cd6", "is_reserved": 0, "rental_uris": {"android": "https://dc.lft.to/lastmile_qr_scan", "ios": "https://dc.lft.to/lastmile_qr_scan"}, "fusion_lon": 0.0}, {"lat": 38.92169533333333, "is_disabled": 0, "type": "electric_scooter", "lon": -77.0320745, "bike_id": "89a3d3741bf1aae86034cdd6470b77ae", "fusion_lat": 0.0, "name": "89a3d3741bf1aae86034cdd6470b77ae", "is_reserved": 0, "rental_uris": {"android": "https://dc.lft.to/lastmile_qr_scan", "ios": "https://dc.lft.to/lastmile_qr_scan"}, "fusion_lon": 0.0}, {"lat": 38.837294666666665, "is_disabled": 0, "type": "electric_bike", "lon": -76.997641, "bike_id": "2384206b9fb114d8c239ac954a04f428", "fusion_lat": 0.0, "name": "2384206b9fb114d8c239ac954a04f428", "is_reserved": 0, "rental_uris": {"android": "https://dc.lft.to/lastmile_qr_scan", "ios": "https://dc.lft.to/lastmile_qr_scan"}, "fusion_lon": 0.0}, {"lat": 38.916647166666664, "is_disabled": 0, "type": "electric_scooter", "lon": -77.04717233333334, "bike_id": "3798c4db79a75a60c9bf976a2df95a40", "fusion_lat": 0.0, "name": "3798c4db79a75a60c9bf976a2df95a40", "is_reserved": 0, "rental_uris": {"android": "https://dc.lft.to/lastmile_qr_scan", "ios": "https://dc.lft.to/lastmile_qr_scan"}, "fusion_lon": 0.0}, {"lat": 38.88107683333333, "is_disabled": 0, "type": "electric_scooter", "lon": -77.02638316666666, "bike_id": "0e47f1ddb5612b695bbb20f4073240a4", "fusion_lat": 0.0, "name": "0e47f1ddb5612b695bbb20f4073240a4", "is_reserved": 0, "rental_uris": {"android": "https://dc.lft.to/lastmile_qr_scan", "ios": "https://dc.lft.to/lastmile_qr_scan"}, "fusion_lon": 0.0}, {"lat": 38.92033983333334, "is_disabled": 0, "type": "electric_scooter", "lon": -76.993409, "bike_id": "137c0ada89abe0c72b166c70483bdad6", "fusion_lat": 0.0, "name": "137c0ada89abe0c72b166c70483bdad6", "is_reserved": 0, "rental_uris": {"android": "https://dc.lft.to/lastmile_qr_scan", "ios": "https://dc.lft.to/lastmile_qr_scan"}, "fusion_lon": 0.0}, {"lat": 38.865072166666664, "is_disabled": 0, "type": "electric_scooter", "lon": -76.990065, "bike_id": "f9be14d2888afd29c07fb2635946b5bd", "fusion_lat": 0.0, "name": "f9be14d2888afd29c07fb2635946b5bd", "is_reserved": 0, "rental_uris": {"android": "https://dc.lft.to/lastmile_qr_scan", "ios": "https://dc.lft.to/lastmile_qr_scan"}, "fusion_lon": 0.0}, {"lat": 38.90882033333333, "is_disabled": 0, "type": "electric_scooter", "lon": -77.00259466666667, "bike_id": "519abe9329002224c4a21a0060d01c0d", "fusion_lat": 0.0, "name": "519abe9329002224c4a21a0060d01c0d", "is_reserved": 0, "rental_uris": {"android": "https://dc.lft.to/lastmile_qr_scan", "ios": "https://dc.lft.to/lastmile_qr_scan"}, "fusion_lon": 0.0}, {"lat": 38.902892333333334, "is_disabled": 0, "type": "electric_scooter", "lon": -77.02881283333333, "bike_id": "4cc744899073e0585e575b0edf7f03ca", "fusion_lat": 0.0, "name": "4cc744899073e0585e575b0edf7f03ca", "is_reserved": 0, "rental_uris": {"android": "https://dc.lft.to/lastmile_qr_scan", "ios": "https://dc.lft.to/lastmile_qr_scan"}, "fusion_lon": 0.0}, {"lat": 38.8996375, "is_disabled": 0, "type": "electric_scooter", "lon": -77.0206865, "bike_id": "9becd5fc6e6676d42864a16857af9363", "fusion_lat": 0.0, "name": "9becd5fc6e6676d42864a16857af9363", "is_reserved": 0, "rental_uris": {"android": "https://dc.lft.to/lastmile_qr_scan", "ios": "https://dc.lft.to/lastmile_qr_scan"}, "fusion_lon": 0.0}, {"lat": 38.84270316666667, "is_disabled": 0, "type": "electric_bike", "lon": -76.98846866666666, "bike_id": "9abc62be9deee8411303e8fa5026d965", "fusion_lat": 0.0, "name": "9abc62be9deee8411303e8fa5026d965", "is_reserved": 0, "rental_uris": {"android": "https://dc.lft.to/lastmile_qr_scan", "ios": "https://dc.lft.to/lastmile_qr_scan"}, "fusion_lon": 0.0}, {"lat": 38.856793, "is_disabled": 0, "type": "electric_scooter", "lon": -76.98177883333334, "bike_id": "1a98bd002f76fbd1b648848d00830292", "fusion_lat": 0.0, "name": "1a98bd002f76fbd1b648848d00830292", "is_reserved": 0, "rental_uris": {"android": "https://dc.lft.to/lastmile_qr_scan", "ios": "https://dc.lft.to/lastmile_qr_scan"}, "fusion_lon": 0.0}, {"lat": 38.89548416666667, "is_disabled": 0, "type": "electric_scooter", "lon": -77.00438066666666, "bike_id": "fb42c56473739a0d07967cdc6aa0f67a", "fusion_lat": 0.0, "name": "fb42c56473739a0d07967cdc6aa0f67a", "is_reserved": 0, "rental_uris": {"android": "https://dc.lft.to/lastmile_qr_scan", "ios": "https://dc.lft.to/lastmile_qr_scan"}, "fusion_lon": 0.0}, {"lat": 38.93599183333333, "is_disabled": 0, "type": "electric_scooter", "lon": -77.02527166666667, "bike_id": "d313ed8f51e9b90cdf048729464dd980", "fusion_lat": 0.0, "name": "d313ed8f51e9b90cdf048729464dd980", "is_reserved": 0, "rental_uris": {"android": "https://dc.lft.to/lastmile_qr_scan", "ios": "https://dc.lft.to/lastmile_qr_scan"}, "fusion_lon": 0.0}, {"lat": 38.934208, "is_disabled": 0, "type": "electric_scooter", "lon": -77.02466416666667, "bike_id": "ce5a37e926e036038f9ccae62de1dba9", "fusion_lat": 0.0, "name": "ce5a37e926e036038f9ccae62de1dba9", "is_reserved": 0, "rental_uris": {"android": "https://dc.lft.to/lastmile_qr_scan", "ios": "https://dc.lft.to/lastmile_qr_scan"}, "fusion_lon": 0.0}, {"lat": 38.8425225, "is_disabled": 0, "type": "electric_bike", "lon": -77.0583085, "bike_id": "8925e34456e778be8a602f2dfc425954", "fusion_lat": 0.0, "name": "8925e34456e778be8a602f2dfc425954", "is_reserved": 0, "rental_uris": {"android": "https://dc.lft.to/lastmile_qr_scan", "ios": "https://dc.lft.to/lastmile_qr_scan"}, "fusion_lon": 0.0}, {"lat": 38.91697166666667, "is_disabled": 0, "type": "electric_scooter", "lon": -77.04268833333333, "bike_id": "3cdaa3616474353fd03c3bbff7dfafd9", "fusion_lat": 0.0, "name": "3cdaa3616474353fd03c3bbff7dfafd9", "is_reserved": 0, "rental_uris": {"android": "https://dc.lft.to/lastmile_qr_scan", "ios": "https://dc.lft.to/lastmile_qr_scan"}, "fusion_lon": 0.0}, {"lat": 38.91004516666667, "is_disabled": 0, "type": "electric_scooter", "lon": -77.015099, "bike_id": "759b0fa701a515502a5932091780022a", "fusion_lat": 0.0, "name": "759b0fa701a515502a5932091780022a", "is_reserved": 0, "rental_uris": {"android": "https://dc.lft.to/lastmile_qr_scan", "ios": "https://dc.lft.to/lastmile_qr_scan"}, "fusion_lon": 0.0}, {"lat": 38.900390333333334, "is_disabled": 0, "type": "electric_scooter", "lon": -77.00590683333333, "bike_id": "96a8c4ee75d376180d0f5b5cb9ee768b", "fusion_lat": 0.0, "name": "96a8c4ee75d376180d0f5b5cb9ee768b", "is_reserved": 0, "rental_uris": {"android": "https://dc.lft.to/lastmile_qr_scan", "ios": "https://dc.lft.to/lastmile_qr_scan"}, "fusion_lon": 0.0}, {"lat": 38.911124, "is_disabled": 0, "type": "electric_scooter", "lon": -77.03826416666666, "bike_id": "7ffe1ead35f050a27ee9cba6ea1e7c07", "fusion_lat": 0.0, "name": "7ffe1ead35f050a27ee9cba6ea1e7c07", "is_reserved": 0, "rental_uris": {"android": "https://dc.lft.to/lastmile_qr_scan", "ios": "https://dc.lft.to/lastmile_qr_scan"}, "fusion_lon": 0.0}, {"lat": 38.908297166666664, "is_disabled": 0, "type": "electric_scooter", "lon": -76.99703583333333, "bike_id": "27d7e95d382dbfda854f3897039990de", "fusion_lat": 0.0, "name": "27d7e95d382dbfda854f3897039990de", "is_reserved": 0, "rental_uris": {"android": "https://dc.lft.to/lastmile_qr_scan", "ios": "https://dc.lft.to/lastmile_qr_scan"}, "fusion_lon": 0.0}, {"lat": 38.917095, "is_disabled": 0, "type": "electric_scooter", "lon": -77.03247766666667, "bike_id": "7f0b0e3ced7369f995f5b08ef2d126e7", "fusion_lat": 0.0, "name": "7f0b0e3ced7369f995f5b08ef2d126e7", "is_reserved": 0, "rental_uris": {"android": "https://dc.lft.to/lastmile_qr_scan", "ios": "https://dc.lft.to/lastmile_qr_scan"}, "fusion_lon": 0.0},