{"data": {"bikes": [{"type": "electric_scooter", "name": "66e2f4fce017b2656231c167128bae92", "rental_uris": {"ios": "https://dc.lft.to/lastmile_qr_scan", "android": "https://dc.lft.to/lastmile_qr_scan"}, "fusion_lon": 0.0, "lat": 38.913295166666664, "is_disabled": 0, "bike_id": "66e2f4fce017b2656231c167128bae92", "fusion_lat": 0.0, "is_reserved": 0, "lon": -77.031697}, {"type": "electric_scooter", "name": "f13e582de323824f73188b1cc606d63c", "rental_uris": {"ios": "https://dc.lft.to/lastmile_qr_scan", "android": "https://dc.lft.to/lastmile_qr_scan"}, "fusion_lon": 0.0, "lat": 38.9155985, "is_disabled": 0, "bike_id": "f13e582de323824f73188b1cc606d63c", "fusion_lat": 0.0, "is_reserved": 0, "lon": -77.02352066666667}, {"type": "electric_scooter", "name": "c0265b66700881b1574eb2c388d05e05", "rental_uris": {"ios": "https://dc.lft.to/lastmile_qr_scan", "android": "https://dc.lft.to/lastmile_qr_scan"}, "fusion_lon": 0.0, "lat": 38.86504166666667, "is_disabled": 0, "bike_id": "c0265b66700881b1574eb2c388d05e05", "fusion_lat": 0.0, "is_reserved": 0, "lon": -76.98999933333333}, {"type": "electric_scooter", "name": "65ed9f253d49ae24b399d9e1e3de7dfc", "rental_uris": {"ios": "https://dc.lft.to/lastmile_qr_scan", "android": "https://dc.lft.to/lastmile_qr_scan"}, "fusion_lon": 0.0, "lat": 38.936076666666665, "is_disabled": 0, "bike_id": "65ed9f253d49ae24b399d9e1e3de7dfc", "fusion_lat": 0.0, "is_reserved": 0, "lon": -77.05861733333333}, {"type": "electric_scooter", "name": "732070306889a7d676749f8c3d213452", "rental_uris": {"ios": "https://dc.lft.to/lastmile_qr_scan", "android": "https://dc.lft.to/lastmile_qr_scan"}, "fusion_lon": 0.0, "lat": 38.898031, "is_disabled": 0, "bike_id": "732070306889a7d676749f8c3d213452", "fusion_lat": 0.0, "is_reserved": 0, "lon": -76.93121166666667}, {"type": "electric_scooter", "name": "92c8e6efeb31b241379d8382ba47da2b", "rental_uris": {"ios": "https://dc.lft.to/lastmile_qr_scan", "android": "https://dc.lft.to/lastmile_qr_scan"}, "fusion_lon": 0.0, "lat": 38.9017805, "is_disabled": 0, "bike_id": "92c8e6efeb31b241379d8382ba47da2b", "fusion_lat": 0.0, "is_reserved": 0, "lon": -76.9806955}, {"type": "electric_scooter", "name": "5e97639b5a4a0d334d39c522f6b52647", "rental_uris": {"ios": "https://dc.lft.to/lastmile_qr_scan", "android": "https://dc.lft.to/lastmile_qr_scan"}, "fusion_lon": 0.0, "lat": 38.904489833333336, "is_disabled": 0, "bike_id": "5e97639b5a4a0d334d39c522f6b52647", "fusion_lat": 0.0, "is_reserved": 0, "lon": -77.01903866666666}, {"type": "electric_scooter", "name": "3701438dce1c9a8d364325801b6912d6", "rental_uris": {"ios": "https://dc.lft.to/lastmile_qr_scan", "android": "https://dc.lft.to/lastmile_qr_scan"}, "fusion_lon": 0.0, "lat": 38.90248783333333, "is_disabled": 0, "bike_id": "3701438dce1c9a8d364325801b6912d6", "fusion_lat": 0.0, "is_reserved": 0, "lon": -77.035254}, {"type": "electric_scooter", "name": "9d43da3ba19449be0f8c80e448d215d6", "rental_uris": {"ios": "https://dc.lft.to/lastmile_qr_scan", "android": "https://dc.lft.to/lastmile_qr_scan"}, "fusion_lon": 0.0, "lat": 38.892216166666664, "is_disabled": 0, "bike_id": "9d43da3ba19449be0f8c80e448d215d6", "fusion_lat": 0.0, "is_reserved": 0, "lon": -77.03337983333333}, {"type": "electric_scooter", "name": "7918e81adcd8d7a4e83c0fb8e96b5e9f", "rental_uris": {"ios": "https://dc.lft.to/lastmile_qr_scan", "android": "https://dc.lft.to/lastmile_qr_scan"}, "fusion_lon": 0.0, "lat": 38.9015865, "is_disabled": 0, "bike_id": "7918e81adcd8d7a4e83c0fb8e96b5e9f", "fusion_lat": 0.0, "is_reserved": 0, "lon": -77.01315916666667}, {"type": "electric_scooter", "name": "d72c494f712ee2023bf94664f90dfaf5", "rental_uris": {"ios": "https://dc.lft.to/lastmile_qr_scan", "android": "https://dc.lft.to/lastmile_qr_scan"}, "fusion_lon": 0.0, "lat": 38.912309, "is_disabled": 0, "bike_id": "d72c494f712ee2023bf94664f90dfaf5", "fusion_lat": 0.0, "is_reserved": 0, "lon": -76.98789516666666}, {"type": "electric_scooter", "name": "e6d79f62a4f5fa58ce2c0e2eb148b45c", "rental_uris": {"ios": "https://dc.lft.to/lastmile_qr_scan", "android": "https://dc.lft.to/lastmile_qr_scan"}, "fusion_lon": 0.0, "lat": 38.929754, "is_disabled": 0, "bike_id": "e6d79f62a4f5fa58ce2c0e2eb148b45c", "fusion_lat": 0.0, "is_reserved": 0, "lon": -77.0550265}, {"type": "electric_scooter", "name": "e9203b8f6b634c512a8a3600ff5645e9", "rental_uris": {"ios": "https://dc.lft.to/lastmile_qr_scan", "android": "https://dc.lft.to/lastmile_qr_scan"}, "fusion_lon": 0.0, "lat": 38.892206, "is_disabled": 0, "bike_id": "e9203b8f6b634c512a8a3600ff5645e9", "fusion_lat": 0.0, "is_reserved": 0, "lon": -77.04376233333333}, {"type": "electric_bike", "name": "db8138da763604fa4e2fee9f70f5e2d6", "rental_uris": {"ios": "https://dc.lft.to/lastmile_qr_scan", "android": "https://dc.lft.to/lastmile_qr_scan"}, "fusion_lon": 0.0, "lat": 38.858939166666666, "is_disabled": 0, "bike_id": "db8138da763604fa4e2fee9f70f5e2d6", "fusion_lat": 0.0, "is_reserved": 0, "lon": -77.09541733333333}, {"type": "electric_scooter", "name": "2dac15ea6dc85fd2414bd85d230b6d42", "rental_uris": {"ios": "https://dc.lft.to/lastmile_qr_scan", "android": "https://dc.lft.to/lastmile_qr_scan"}, "fusion_lon": 0.0, "lat": 38.9132035, "is_disabled": 0, "bike_id": "2dac15ea6dc85fd2414bd85d230b6d42", "fusion_lat": 0.0, "is_reserved": 0, "lon": -77.03171383333333}, {"type": "electric_scooter", "name": "69efa4173afa4673270559ff409c02bb", "rental_uris": {"ios": "https://dc.lft.to/lastmile_qr_scan", "android": "https://dc.lft.to/lastmile_qr_scan"}, "fusion_lon": 0.0, "lat": 38.898241, "is_disabled": 0, "bike_id": "69efa4173afa4673270559ff409c02bb", "fusion_lat": 0.0, "is_reserved": 0, "lon": -77.04829966666667}, {"type": "electric_scooter", "name": "f61458352b7522898aa6facdec490214", "rental_uris": {"ios": "https://dc.lft.to/lastmile_qr_scan", "android": "https://dc.lft.to/lastmile_qr_scan"}, "fusion_lon": 0.0, "lat": 38.90954633333333, "is_disabled": 0, "bike_id": "f61458352b7522898aa6facdec490214", "fusion_lat": 0.0, "is_reserved": 0, "lon": -77.03501066666666}, {"type": "electric_scooter", "name": "141eb8330659792f42fb28906d4e9d56", "rental_uris": {"ios": "https://dc.lft.to/lastmile_qr_scan", "android": "https://dc.lft.to/lastmile_qr_scan"}, "fusion_lon": 0.0, "lat": 38.9496675, "is_disabled": 0, "bike_id": "141eb8330659792f42fb28906d4e9d56", "fusion_lat": 0.0, "is_reserved": 0, "lon": -77.075334}, {"type": "electric_scooter", "name": "1a57176a38cf44efdfe157f6ad1b0f7b", "rental_uris": {"ios": "https://dc.lft.to/lastmile_qr_scan", "android": "https://dc.lft.to/lastmile_qr_scan"}, "fusion_lon": 0.0, "lat": 38.93469433333333, "is_disabled": 0, "bike_id": "1a57176a38cf44efdfe157f6ad1b0f7b", "fusion_lat": 0.0, "is_reserved": 0, "lon": -77.0297765}, {"type": "electric_scooter", "name": "307fcc71403548c3c9087b797762dba1", "rental_uris": {"ios": "https://dc.lft.to/lastmile_qr_scan", "android": "https://dc.lft.to/lastmile_qr_scan"}, "fusion_lon": 0.0, "lat": 38.909955, "is_disabled": 0, "bike_id": "307fcc71403548c3c9087b797762dba1", "fusion_lat": 0.0, "is_reserved": 0, "lon": -77.0269495}, {"type": "electric_scooter", "name": "6eeeaed5bb28e4a1afd59becb6cfcee9", "rental_uris": {"ios": "https://dc.lft.to/lastmile_qr_scan", "android": "https://dc.lft.to/lastmile_qr_scan"}, "fusion_lon": 0.0, "lat": 38.883937, "is_disabled": 0, "bike_id": "6eeeaed5bb28e4a1afd59becb6cfcee9", "fusion_lat": 0.0, "is_reserved": 0, "lon": -76.93044983333333}, {"type": "electric_scooter", "name": "f4ed9cd3ca91685692d15985e6306b32", "rental_uris": {"ios": "https://dc.lft.to/lastmile_qr_scan", "android": "https://dc.lft.to/lastmile_qr_scan"}, "fusion_lon": 0.0, "lat": 38.936199333333334, "is_disabled": 0, "bike_id": "f4ed9cd3ca91685692d15985e6306b32", "fusion_lat": 0.0, "is_reserved": 0, "lon": -77.02465483333333}, {"type": "electric_scooter", "name": "af177b4eb191c5f176c4a1cede0c3d72", "rental_uris": {"ios": "https://dc.lft.to/lastmile_qr_scan", "android": "https://dc.lft.to/lastmile_qr_scan"}, "fusion_lon": 0.0, "lat": 38.941828666666666, "is_disabled": 0, "bike_id": "af177b4eb191c5f176c4a1cede0c3d72", "fusion_lat": 0.0, "is_reserved": 0, "lon": -77.02407866666667}, {"type": "electric_scooter", "name": "0f6e1b089f28a631e8e17686f7062130", "rental_uris": {"ios": "https://dc.lft.to/lastmile_qr_scan", "android": "https://dc.lft.to/lastmile_qr_scan"}, "fusion_lon": 0.0, "lat": 38.922443, "is_disabled": 0, "bike_id": "0f6e1b089f28a631e8e17686f7062130", "fusion_lat": 0.0, "is_reserved": 0, "lon": -77.08078566666667}, {"type": "electric_scooter", "name": "c997d91126639f3031f489bcdb8bd64c", "rental_uris": {"ios": "https://dc.lft.to/lastmile_qr_scan", "android": "https://dc.lft.to/lastmile_qr_scan"}, "fusion_lon": 0.0, "lat": 38.90178183333333, "is_disabled": 0, "bike_id": "c997d91126639f3031f489bcdb8bd64c", "fusion_lat": 0.0, "is_reserved": 0, "lon": -77.01617533333334}, {"type": "electric_scooter", "name": "a8f79ae1a5f2044c80a4cfcd04f9c377", "rental_uris": {"ios": "https://dc.lft.to/lastmile_qr_scan", "android": "https://dc.lft.to/lastmile_qr_scan"}, "fusion_lon": 0.0, "lat": 38.90504333333333, "is_disabled": 0, "bike_id": "a8f79ae1a5f2044c80a4cfcd04f9c377", "fusion_lat": 0.0, "is_reserved": 0, "lon": -77.01988083333333}, {"type": "electric_scooter", "name": "4515b6133c0776adf6476b2af7cd36b7", "rental_uris": {"ios": "https://dc.lft.to/lastmile_qr_scan", "android": "https://dc.lft.to/lastmile_qr_scan"}, "fusion_lon": 0.0, "lat": 38.898615666666664, "is_disabled": 0, "bike_id": "4515b6133c0776adf6476b2af7cd36b7", "fusion_lat": 0.0, "is_reserved": 0, "lon": -76.94638933333333}, {"type": "electric_scooter", "name": "f04d8d1b4e330284c4e6df419ac46ac3", "rental_uris": {"ios": "https://dc.lft.to/lastmile_qr_scan", "android": "https://dc.lft.to/lastmile_qr_scan"}, "fusion_lon": 0.0, "lat": 38.89384733333333, "is_disabled": 0, "bike_id": "f04d8d1b4e330284c4e6df419ac46ac3", "fusion_lat": 0.0, "is_reserved": 0, "lon": -76.923056}, {"type": "electric_scooter", "name": "9711728f4b29c3f954782025a9b55a9f", "rental_uris": {"ios": "https://dc.lft.to/lastmile_qr_scan", "android": "https://dc.lft.to/lastmile_qr_scan"}, "fusion_lon": 0.0, "lat": 38.8617515, "is_disabled": 0, "bike_id": "9711728f4b29c3f954782025a9b55a9f", "fusion_lat": 0.0, "is_reserved": 0, "lon": -76.96908483333333}, {"type": "electric_scooter", "name": "4822a7a3b75af61aa7d7e0d8063f5ef2", "rental_uris": {"ios": "https://dc.lft.to/lastmile_qr_scan", "android": "https://dc.lft.to/lastmile_qr_scan"}, "fusion_lon": 0.0, "lat": 38.927257, "is_disabled": 0, "bike_id": "4822a7a3b75af61aa7d7e0d8063f5ef2", "fusion_lat": 0.0, "is_reserved": 0, "lon": -77.02301516666667}, {"type": "electric_scooter", "name": "a87002f56fa40505ce8ddc99c3af38cf", "rental_uris": {"ios": "https://dc.lft.to/lastmile_qr_scan", "android": "https://dc.lft.to/lastmile_qr_scan"}, "fusion_lon": 0.0, "lat": 38.93610533333333, "is_disabled": 0, "bike_id": "a87002f56fa40505ce8ddc99c3af38cf", "fusion_lat": 0.0, "is_reserved": 0, "lon": -77.0586305}, {"type": "electric_scooter", "name": "78073c9a586b6a3baf7684aaac4d3615", "rental_uris": {"ios": "https://dc.lft.to/lastmile_qr_scan", "android": "https://dc.lft.to/lastmile_qr_scan"}, "fusion_lon": 0.0, "lat": 38.9169405, "is_disabled": 0, "bike_id": "78073c9a586b6a3baf7684aaac4d3615", "fusion_lat": 0.0, "is_reserved": 0, "lon": -77.03118116666667}, {"type": "electric_scooter", "name": "3150bfd1152f54c191a80c09664e17ea", "rental_uris": {"ios": "https://dc.lft.to/lastmile_qr_scan", "android": "https://dc.lft.to/lastmile_qr_scan"}, "fusion_lon": 0.0, "lat": 38.908631166666666, "is_disabled": 0, "bike_id": "3150bfd1152f54c191a80c09664e17ea", "fusion_lat": 0.0, "is_reserved": 0, "lon": -76.9979495}, {"type": "electric_scooter", "name": "fc245e080b0b0f91b5d6757e13d22c2a", "rental_uris": {"ios": "https://dc.lft.to/lastmile_qr_scan", "android": "https://dc.lft.to/lastmile_qr_scan"}, "fusion_lon": 0.0, "lat": 38.90200733333333, "is_disabled": 0, "bike_id": "fc245e080b0b0f91b5d6757e13d22c2a", "fusion_lat": 0.0, "is_reserved": 0, "lon": -77.02374166666667}, {"type": "electric_scooter", "name": "e1321cc07540c86feeb80e0d22ceb277", "rental_uris": {"ios": "https://dc.lft.to/lastmile_qr_scan", "android": "https://dc.lft.to/lastmile_qr_scan"}, "fusion_lon": 0.0, "lat": 38.902512, "is_disabled": 0, "bike_id": "e1321cc07540c86feeb80e0d22ceb277", "fusion_lat": 0.0, "is_reserved": 0, "lon": -77.0334455}, {"type": "electric_scooter", "name": "7d2dc2f9a22d47c0855db51839d8f2d9", "rental_uris": {"ios": "https://dc.lft.to/lastmile_qr_scan", "android": "https://dc.lft.to/lastmile_qr_scan"}, "fusion_lon": 0.0, "lat": 38.933769166666664, "is_disabled": 0, "bike_id": "7d2dc2f9a22d47c0855db51839d8f2d9", "fusion_lat": 0.0, "is_reserved": 0, "lon": -77.0268535}, {"type": "electric_scooter", "name": "2c53812932bf95d6f5fb4df6d1a95ae7", "rental_uris": {"ios": "https://dc.lft.to/lastmile_qr_scan", "android": "https://dc.lft.to/lastmile_qr_scan"}, "fusion_lon": 0.0, "lat": 38.8985995, "is_disabled": 0, "bike_id": "2c53812932bf95d6f5fb4df6d1a95ae7", "fusion_lat": 0.0, "is_reserved": 0, "lon": -77.02810066666666}, {"type": "electric_bike", "name": "0089a475332ac84086308880235a43ec", "rental_uris": {"ios": "https://dc.lft.to/lastmile_qr_scan", "android": "https://dc.lft.to/lastmile_qr_scan"}, "fusion_lon": 0.0, "lat": 39.056323666666664, "is_disabled": 0, "bike_id": "0089a475332ac84086308880235a43ec", "fusion_lat": 0.0, "is_reserved": 0, "lon": -77.12526516666667}, {"type": "electric_scooter", "name": "3af50ffed41c15c8f81657e7da7a7da2", "rental_uris": {"ios": "https://dc.lft.to/lastmile_qr_scan", "android": "https://dc.lft.to/lastmile_qr_scan"}, "fusion_lon": 0.0, "lat": 38.907803, "is_disabled": 0, "bike_id": "3af50ffed41c15c8f81657e7da7a7da2", "fusion_lat": 0.0, "is_reserved": 0, "lon": -77.07252166666666}, {"type": "electric_scooter", "name": "1a03494da419f688369c67321b9ecc7e", "rental_uris": {"ios": "https://dc.lft.to/lastmile_qr_scan", "android": "https://dc.lft.to/lastmile_qr_scan"}, "fusion_lon": 0.0, "lat": 38.9494845, "is_disabled": 0, "bike_id": "1a03494da419f688369c67321b9ecc7e", "fusion_lat": 0.0, "is_reserved": 0, "lon": -77.023142}, {"type": "electric_scooter", "name": "ce277a05621fd3aef256d25779a2732a", "rental_uris": {"ios": "https://dc.lft.to/lastmile_qr_scan", "android": "https://dc.lft.to/lastmile_qr_scan"}, "fusion_lon": 0.0, "lat": 38.9105765, "is_disabled": 0, "bike_id": "ce277a05621fd3aef256d25779a2732a", "fusion_lat": 0.0, "is_reserved": 0, "lon": -77.05287133333333}, {"type": "electric_scooter", "name": "2bd87b8d001e726fdd0f189a9045f1d3", "rental_uris": {"ios": "https://dc.lft.to/lastmile_qr_scan", "android": "https://dc.lft.to/lastmile_qr_scan"}, "fusion_lon": 0.0, "lat": 38.9211825, "is_disabled": 0, "bike_id": "2bd87b8d001e726fdd0f189a9045f1d3", "fusion_lat": 0.0, "is_reserved": 0, "lon": -77.04690283333333}, {"type": "electric_scooter", "name": "7beff83bde17736b5a5dcc49462b0ef9", "rental_uris": {"ios": "https://dc.lft.to/lastmile_qr_scan", "android": "https://dc.lft.to/lastmile_qr_scan"}, "fusion_lon": 0.0, "lat": 38.93110766666667, "is_disabled": 0, "bike_id": "7beff83bde17736b5a5dcc49462b0ef9", "fusion_lat": 0.0, "is_reserved": 0, "lon": -77.02986133333333}, {"type": "electric_scooter", "name": "4196f2ccf1c4492917022bd69c2f4393", "rental_uris": {"ios": "https://dc.lft.to/lastmile_qr_scan", "android": "https://dc.lft.to/lastmile_qr_scan"}, "fusion_lon": 0.0, "lat": 38.907894, "is_disabled": 0, "bike_id": "4196f2ccf1c4492917022bd69c2f4393", "fusion_lat": 0.0, "is_reserved": 0, "lon": -77.02958783333334}, {"type": "electric_scooter", "name": "1388ba12f19bb3558b6bbdff9ff43e01", "rental_uris": {"ios": "https://dc.lft.to/lastmile_qr_scan", "android": "https://dc.lft.to/lastmile_qr_scan"}, "fusion_lon": 0.0, "lat": 38.91285083333333, "is_disabled": 0, "bike_id": "1388ba12f19bb3558b6bbdff9ff43e01", "fusion_lat": 0.0, "is_reserved": 0, "lon": -77.047363}, {"type": "electric_scooter", "name": "a444c6db5f8dc74ec650b2fd4c48072d", "rental_uris": {"ios": "https://dc.lft.to/lastmile_qr_scan", "android": "https://dc.lft.to/lastmile_qr_scan"}, "fusion_lon": 0.0, "lat": 38.857149166666666, "is_disabled": 0, "bike_id": "a444c6db5f8dc74ec650b2fd4c48072d", "fusion_lat": 0.0, "is_reserved": 0, "lon": -76.980973}, {"type": "electric_scooter", "name": "0f60504e0990019aaa0e967affa9b20c", "rental_uris": {"ios": "https://dc.lft.to/lastmile_qr_scan", "android": "https://dc.lft.to/lastmile_qr_scan"}, "fusion_lon": 0.0, "lat": 38.9040585, "is_disabled": 0, "bike_id": "0f60504e0990019aaa0e967affa9b20c", "fusion_lat": 0.0, "is_reserved": 0, "lon": -76.97332533333334}, {"type": "electric_scooter", "name": "c110a19310e5ff38aa170302677b7bf1", "rental_uris": {"ios": "https://dc.lft.to/lastmile_qr_scan", "android": "https://dc.lft.to/lastmile_qr_scan"}, "fusion_lon": 0.0, "lat": 38.896121666666666, "is_disabled": 0, "bike_id": "c110a19310e5ff38aa170302677b7bf1", "fusion_lat": 0.0, "is_reserved": 0, "lon": -77.04481566666666}, {"type": "electric_scooter", "name": "43f307dd3fb5f9aea87f54c83aadebac", "rental_uris": {"ios": "https://dc.lft.to/lastmile_qr_scan", "android": "https://dc.lft.to/lastmile_qr_scan"}, "fusion_lon": 0.0, "lat": 38.9017275, "is_disabled": 0, "bike_id": "43f307dd3fb5f9aea87f54c83aadebac", "fusion_lat": 0.0, "is_reserved": 0, "lon": -77.04830816666667}, {"type": "electric_bike", "name": "335da1c7a190203ba1253d6782624ee8", "rental_uris": {"ios": "https://dc.lft.to/lastmile_qr_scan", "android": "https://dc.lft.to/lastmile_qr_scan"}, "fusion_lon": 0.0, "lat": 38.845056, "is_disabled": 0, "bike_id": "335da1c7a190203ba1253d6782624ee8", "fusion_lat": 0.0, "is_reserved": 0, "lon": -76.99352483333334}, {"type": "electric_bike", "name": "2db84d51841d4881ec46de268574a659", "rental_uris": {"ios": "https://dc.lft.to/lastmile_qr_scan", "android": "https://dc.lft.to/lastmile_qr_scan"}, "fusion_lon": 0.0, "lat": 38.8956665, "is_disabled": 0, "bike_id": "2db84d51841d4881ec46de268574a659", "fusion_lat": 0.0, "is_reserved": 0, "lon": -77.12737183333333}, {"type": "electric_scooter", "name": "d4b3475b9e42224077e0935fb62b7a63", "rental_uris": {"ios": "https://dc.lft.to/lastmile_qr_scan", "android": "https://dc.lft.to/lastmile_qr_scan"}, "fusion_lon": 0.0, "lat": 38.92373416666667, "is_disabled": 0, "bike_id": "d4b3475b9e42224077e0935fb62b7a63", "fusion_lat": 0.0, "is_reserved": 0, "lon": -77.03134666666666}, {"type": "electric_scooter", "name": "3e1c9feaf17f9eba6f8878cc9718c3b6", "rental_uris": {"ios": "https://dc.lft.to/lastmile_qr_scan", "android": "https://dc.lft.to/lastmile_qr_scan"}, "fusion_lon": 0.0, "lat": 38.91189383333333, "is_disabled": 0, "bike_id": "3e1c9feaf17f9eba6f8878cc9718c3b6", "fusion_lat": 0.0, "is_reserved": 0, "lon": -77.03964433333333}, {"type": "electric_scooter", "name": "3caf5c3c2a335c290b50c7c24a07708b", "rental_uris": {"ios": "https://dc.lft.to/lastmile_qr_scan", "android": "https://dc.lft.to/lastmile_qr_scan"}, "fusion_lon": 0.0, "lat": 38.92753533333333, "is_disabled": 0, "bike_id": "3caf5c3c2a335c290b50c7c24a07708b", "fusion_lat": 0.0, "is_reserved": 0, "lon": -77.032741}, {"type": "electric_scooter", "name": "9f16e7bf21262b384004deb144cd54f8", "rental_uris": {"ios": "https://dc.lft.to/lastmile_qr_scan", "android": "https://dc.lft.to/lastmile_qr_scan"}, "fusion_lon": 0.0, "lat": 38.91741916666667, "is_disabled": 0, "bike_id": "9f16e7bf21262b384004deb144cd54f8", "fusion_lat": 0.0, "is_reserved": 0, "lon": -77.03189066666667}, {"type": "electric_bike", "name": "e0f3ef408c7ad80885339f01877deb26", "rental_uris": {"ios": "https://dc.lft.to/lastmile_qr_scan", "android": "https://dc.lft.to/lastmile_qr_scan"}, "fusion_lon": 0.0, "lat": 38.9940335, "is_disabled": 0, "bike_id": "e0f3ef408c7ad80885339f01877deb26", "fusion_lat": 0.0, "is_reserved": 0, "lon": -77.03098533333333}, {"type": "electric_scooter", "name": "0bad38bdec04750f3bb59317574bd219", "rental_uris": {"ios": "https://dc.lft.to/lastmile_qr_scan", "android": "https://dc.lft.to/lastmile_qr_scan"}, "fusion_lon": 0.0, "lat": 38.9178735, "is_disabled": 0, "bike_id": "0bad38bdec04750f3bb59317574bd219", "fusion_lat": 0.0, "is_reserved": 0, "lon": -77.04416033333334}, {"type": "electric_bike", "name": "00fd70d297491625067f41d45a406340", "rental_uris": {"ios": "https://dc.lft.to/lastmile_qr_scan", "android": "https://dc.lft.to/lastmile_qr_scan"}, "fusion_lon": 0.0, "lat": 38.84125866666667, "is_disabled": 0, "bike_id": "00fd70d297491625067f41d45a406340", "fusion_lat": 0.0, "is_reserved": 0, "lon": -77.063076}, {"type": "electric_scooter", "name": "acb5833662e0e851c6759f125448eadc", "rental_uris": {"ios": "https://dc.lft.to/lastmile_qr_scan", "android": "https://dc.lft.to/lastmile_qr_scan"}, "fusion_lon": 0.0, "lat": 38.9074225, "is_disabled": 0, "bike_id": "acb5833662e0e851c6759f125448eadc", "fusion_lat": 0.0, "is_reserved": 0, "lon": -77.02689883333333}, {"type": "electric_scooter", "name": "ed5415aecef05a0fd7a58a2d32d3776b", "rental_uris": {"ios": "https://dc.lft.to/lastmile_qr_scan", "android": "https://dc.lft.to/lastmile_qr_scan"}, "fusion_lon": 0.0, "lat": 38.898490833333334, "is_disabled": 0, "bike_id": "ed5415aecef05a0fd7a58a2d32d3776b", "fusion_lat": 0.0, "is_reserved": 0, "lon": -77.0318625}, {"type": "electric_scooter", "name": "ccfbfd28ce0a44e3ed0154115a1932a9", "rental_uris": {"ios": "https://dc.lft.to/lastmile_qr_scan", "android": "https://dc.lft.to/lastmile_qr_scan"}, "fusion_lon": 0.0, "lat": 38.8836965, "is_disabled": 0, "bike_id": "ccfbfd28ce0a44e3ed0154115a1932a9", "fusion_lat": 0.0, "is_reserved": 0, "lon": -76.92917983333334}, {"type": "electric_scooter", "name": "104bbf6ce74ce3e83499cb0ac7a76619", "rental_uris": {"ios": "https://dc.lft.to/lastmile_qr_scan", "android": "https://dc.lft.to/lastmile_qr_scan"}, "fusion_lon": 0.0, "lat": 38.89992, "is_disabled": 0, "bike_id": "104bbf6ce74ce3e83499cb0ac7a76619", "fusion_lat": 0.0, "is_reserved": 0, "lon": -76.98230933333333}, {"type": "electric_scooter", "name": "46413a7aa25bf0e27b711eb5fdabb5ad", "rental_uris": {"ios": "https://dc.lft.to/lastmile_qr_scan", "android": "https://dc.lft.to/lastmile_qr_scan"}, "fusion_lon": 0.0, "lat": 38.89252466666667, "is_disabled": 0, "bike_id": "46413a7aa25bf0e27b711eb5fdabb5ad", "fusion_lat": 0.0, "is_reserved": 0, "lon": -77.0034715}, {"type": "electric_scooter", "name": "f6bfa1d9638a4a7ffad0ba6fa6ede7eb", "rental_uris": {"ios": "https://dc.lft.to/lastmile_qr_scan", "android": "https://dc.lft.to/lastmile_qr_scan"}, "fusion_lon": 0.0, "lat": 38.92396266666667, "is_disabled": 0, "bike_id": "f6bfa1d9638a4a7ffad0ba6fa6ede7eb", "fusion_lat": 0.0, "is_reserved": 0, "lon": -77.04306783333334}, {"type": "electric_scooter", "name": "ee93f0622c5f584810cc0340fc82ba5c", "rental_uris": {"ios": "https://dc.lft.to/lastmile_qr_scan", "android": "https://dc.lft.to/lastmile_qr_scan"}, "fusion_lon": 0.0, "lat": 38.91713416666666, "is_disabled": 0, "bike_id": "ee93f0622c5f584810cc0340fc82ba5c", "fusion_lat": 0.0, "is_reserved": 0, "lon": -77.02387216666666}, {"type": "electric_bike", "name": "e88b73728dd9511f1f9de383b0c45608", "rental_uris": {"ios": "https://dc.lft.to/lastmile_qr_scan", "android": "https://dc.lft.to/lastmile_qr_scan"}, "fusion_lon": 0.0, "lat": 38.938777, "is_disabled": 0, "bike_id": "e88b73728dd9511f1f9de383b0c45608", "fusion_lat": 0.0, "is_reserved": 0, "lon": -76.99033583333333}, {"type": "electric_bike", "name": "95f5e99bf686380d3b940d37dc9c29b5", "rental_uris": {"ios": "https://dc.lft.to/lastmile_qr_scan", "android": "https://dc.lft.to/lastmile_qr_scan"}, "fusion_lon": 0.0, "lat": 38.88529, "is_disabled": 0, "bike_id": "95f5e99bf686380d3b940d37dc9c29b5", "fusion_lat": 0.0, "is_reserved": 0, "lon": -77.12191833333333}, {"type": "electric_scooter", "name": "245ea37a9e6d1ed4a2b6a67a096b25ae", "rental_uris": {"ios": "https://dc.lft.to/lastmile_qr_scan", "android": "https://dc.lft.to/lastmile_qr_scan"}, "fusion_lon": 0.0, "lat": 38.9243085, "is_disabled": 0, "bike_id": "245ea37a9e6d1ed4a2b6a67a096b25ae", "fusion_lat": 0.0, "is_reserved": 0, "lon": -77.02122233333333}, {"type": "electric_scooter", "name": "524d0e3172c912b6aefba152439f660c", "rental_uris": {"ios": "https://dc.lft.to/lastmile_qr_scan", "android": "https://dc.lft.to/lastmile_qr_scan"}, "fusion_lon": 0.0, "lat": 38.9050455, "is_disabled": 0, "bike_id": "524d0e3172c912b6aefba152439f660c", "fusion_lat": 0.0, "is_reserved": 0, "lon": -77.029852}, {"type": "electric_scooter", "name": "34c14ae5c9b2c60f2820848d05c494ff", "rental_uris": {"ios": "https://dc.lft.to/lastmile_qr_scan", "android": "https://dc.lft.to/lastmile_qr_scan"}, "fusion_lon": 0.0, "lat": 38.9085225, "is_disabled": 0, "bike_id": "34c14ae5c9b2c60f2820848d05c494ff", "fusion_lat": 0.0, "is_reserved": 0, "lon": -76.99803383333334}, {"type": "electric_scooter", "name": "0a62cccdc07dd93f6521e03528d70a4c", "rental_uris": {"ios": "https://dc.lft.to/lastmile_qr_scan", "android": "https://dc.lft.to/lastmile_qr_scan"}, "fusion_lon": 0.0, "lat": 38.87289666666667, "is_disabled": 0, "bike_id": "0a62cccdc07dd93f6521e03528d70a4c", "fusion_lat": 0.0, "is_reserved": 0, "lon": -77.009878}, {"type": "electric_scooter", "name": "a1113da971edf02bc9cca72c99b05af8", "rental_uris": {"ios": "https://dc.lft.to/lastmile_qr_scan", "android": "https://dc.lft.to/lastmile_qr_scan"}, "fusion_lon": 0.0, "lat": 38.922911666666664, "is_disabled": 0, "bike_id": "a1113da971edf02bc9cca72c99b05af8", "fusion_lat": 0.0, "is_reserved": 0, "lon": -77.02714266666666}, {"type": "electric_scooter", "name": "df4bda4739017b740b804f416fc5c750", "rental_uris": {"ios": "https://dc.lft.to/lastmile_qr_scan", "android": "https://dc.lft.to/lastmile_qr_scan"}, "fusion_lon": 0.0, "lat": 38.93357783333333, "is_disabled": 0, "bike_id": "df4bda4739017b740b804f416fc5c750", "fusion_lat": 0.0, "is_reserved": 0, "lon": -77.02856283333334}, {"type": "electric_scooter", "name": "4783b70339e69e9f62c5f38db1386f76", "rental_uris": {"ios": "https://dc.lft.to/lastmile_qr_scan", "android": "https://dc.lft.to/lastmile_qr_scan"}, "fusion_lon": 0.0, "lat": 38.90631233333333, "is_disabled": 0, "bike_id": "4783b70339e69e9f62c5f38db1386f76", "fusion_lat": 0.0, "is_reserved": 0, "lon": -77.03559566666667}, {"type": "electric_scooter", "name": "8ea76b635011019b8343b353a3f719ba", "rental_uris": {"ios": "https://dc.lft.to/lastmile_qr_scan", "android": "https://dc.lft.to/lastmile_qr_scan"}, "fusion_lon": 0.0, "lat": 38.885100333333334, "is_disabled": 0, "bike_id": "8ea76b635011019b8343b353a3f719ba", "fusion_lat": 0.0, "is_reserved": 0, "lon": -77.015106}, {"type": "electric_scooter", "name": "398f6adc6d0c173070ef3c25239ce6a3", "rental_uris": {"ios": "https://dc.lft.to/lastmile_qr_scan", "android": "https://dc.lft.to/lastmile_qr_scan"}, "fusion_lon": 0.0, "lat": 38.91177016666666, "is_disabled": 0, "bike_id": "398f6adc6d0c173070ef3c25239ce6a3", "fusion_lat": 0.0, "is_reserved": 0, "lon": -77.06092766666667}, {"type": "electric_scooter", "name": "0ec9349f105895f11ef41044170abf02", "rental_uris": {"ios": "https://dc.lft.to/lastmile_qr_scan", "android": "https://dc.lft.to/lastmile_qr_scan"}, "fusion_lon": 0.0, "lat": 38.91108916666666, "is_disabled": 0, "bike_id": "0ec9349f105895f11ef41044170abf02", "fusion_lat": 0.0, "is_reserved": 0, "lon": -77.03830816666667}, {"type": "electric_scooter", "name": "6476f50d2cea8eea66852037932a7a5f", "rental_uris": {"ios": "https://dc.lft.to/lastmile_qr_scan", "android": "https://dc.lft.to/lastmile_qr_scan"}, "fusion_lon": 0.0, "lat": 38.9277185, "is_disabled": 0, "bike_id": "6476f50d2cea8eea66852037932a7a5f", "fusion_lat": 0.0, "is_reserved": 0, "lon": -77.0267755}, {"type": "electric_scooter", "name": "09c28200ddf3dc465844b370a13a8604", "rental_uris": {"ios": "https://dc.lft.to/lastmile_qr_scan", "android": "https://dc.lft.to/lastmile_qr_scan"}, "fusion_lon": 0.0, "lat": 38.9013765, "is_disabled": 0, "bike_id": "09c28200ddf3dc465844b370a13a8604", "fusion_lat": 0.0, "is_reserved": 0, "lon": -77.035752}, {"type": "electric_scooter", "name": "56bd9bef1e2337c93fe3fcc2b99590c8", "rental_uris": {"ios": "https://dc.lft.to/lastmile_qr_scan", "android": "https://dc.lft.to/lastmile_qr_scan"}, "fusion_lon": 0.0, "lat": 38.91334916666667, "is_disabled": 0, "bike_id": "56bd9bef1e2337c93fe3fcc2b99590c8", "fusion_lat": 0.0, "is_reserved": 0, "lon": -77.03171516666667}, {"type": "electric_scooter", "name": "967dc5ba47e9f39f9cc569175a484e13", "rental_uris": {"ios": "https://dc.lft.to/lastmile_qr_scan", "android": "https://dc.lft.to/lastmile_qr_scan"}, "fusion_lon": 0.0, "lat": 38.944629166666665, "is_disabled": 0, "bike_id": "967dc5ba47e9f39f9cc569175a484e13", "fusion_lat": 0.0, "is_reserved": 0, "lon": -77.00657216666667}, {"type": "electric_scooter", "name": "746cbdd7e91c2717ca69b136631d2bf0", "rental_uris": {"ios": "https://dc.lft.to/lastmile_qr_scan", "android": "https://dc.lft.to/lastmile_qr_scan"}, "fusion_lon": 0.0, "lat": 38.9078975, "is_disabled": 0, "bike_id": "746cbdd7e91c2717ca69b136631d2bf0", "fusion_lat": 0.0, "is_reserved": 0, "lon": -77.031836}, {"type": "electric_scooter", "name": "0df94218a0037278ea058ed0c786e9bc", "rental_uris": {"ios": "https://dc.lft.to/lastmile_qr_scan", "android": "https://dc.lft.to/lastmile_qr_scan"}, "fusion_lon": 0.0, "lat": 38.921515, "is_disabled": 0, "bike_id": "0df94218a0037278ea058ed0c786e9bc", "fusion_lat": 0.0, "is_reserved": 0, "lon": -77.03381616666667}, {"type": "electric_scooter", "name": "1b9ff55a750c1dbcd95ea72710fac037", "rental_uris": {"ios": "https://dc.lft.to/lastmile_qr_scan", "android": "https://dc.lft.to/lastmile_qr_scan"}, "fusion_lon": 0.0, "lat": 38.908682166666665, "is_disabled": 0, "bike_id": "1b9ff55a750c1dbcd95ea72710fac037", "fusion_lat": 0.0, "is_reserved": 0, "lon": -76.93338216666666}, {"type": "electric_scooter", "name": "297b4ce9e920a16f22e3026ffe1d3971", "rental_uris": {"ios": "https://dc.lft.to/lastmile_qr_scan", "android": "https://dc.lft.to/lastmile_qr_scan"}, "fusion_lon": 0.0, "lat": 38.906628, "is_disabled": 0, "bike_id": "297b4ce9e920a16f22e3026ffe1d3971", "fusion_lat": 0.0, "is_reserved": 0, "lon": -77.0271225}, {"type": "electric_scooter", "name": "175ac2394c0636a238d33b0841259a25", "rental_uris": {"ios": "https://dc.lft.to/lastmile_qr_scan", "android": "https://dc.lft.to/lastmile_qr_scan"}, "fusion_lon": 0.0, "lat": 38.90784583333333, "is_disabled": 0, "bike_id": "175ac2394c0636a238d33b0841259a25", "fusion_lat": 0.0, "is_reserved": 0, "lon": -76.9942}, {"type": "electric_scooter", "name": "d8e96e6b28d934ec3375788f4693d78a", "rental_uris": {"ios": "https://dc.lft.to/lastmile_qr_scan", "android": "https://dc.lft.to/lastmile_qr_scan"}, "fusion_lon": 0.0, "lat": 38.857953, "is_disabled": 0, "bike_id": "d8e96e6b28d934ec3375788f4693d78a", "fusion_lat": 0.0, "is_reserved": 0, "lon": -76.98910433333333}, {"type": "electric_bike", "name": "96f0d75a1e070045303304b82b6c1d6f", "rental_uris": {"ios": "https://dc.lft.to/lastmile_qr_scan", "android": "https://dc.lft.to/lastmile_qr_scan"}, "fusion_lon": 0.0, "lat": 38.798511833333336, "is_disabled": 0, "bike_id": "96f0d75a1e070045303304b82b6c1d6f", "fusion_lat": 0.0, "is_reserved": 0, "lon": -77.06309116666667}, {"type": "electric_bike", "name": "72a1f67533e6e89aafcf927df64a4fd9", "rental_uris": {"ios": "https://dc.lft.to/lastmile_qr_scan", "android": "https://dc.lft.to/lastmile_qr_scan"}, "fusion_lon": 0.0, "lat": 38.94431766666666, "is_disabled": 0, "bike_id": "72a1f67533e6e89aafcf927df64a4fd9", "fusion_lat": 0.0, "is_reserved": 0, "lon": -77.02602633333333}, {"type": "electric_scooter", "name": "dd0ccef53d7acc60cd0651e9d910bbce", "rental_uris": {"ios": "https://dc.lft.to/lastmile_qr_scan", "android": "https://dc.lft.to/lastmile_qr_scan"}, "fusion_lon": 0.0, "lat": 38.91691, "is_disabled": 0, "bike_id": "dd0ccef53d7acc60cd0651e9d910bbce", "fusion_lat": 0.0, "is_reserved": 0, "lon": -77.0314475}, {"type": "electric_scooter", "name": "6d775ad23cbbf2718184909ec27614a4", "rental_uris": {"ios": "https://dc.lft.to/lastmile_qr_scan", "android": "https://dc.lft.to/lastmile_qr_scan"}, "fusion_lon": 0.0, "lat": 38.911104, "is_disabled": 0, "bike_id": "6d775ad23cbbf2718184909ec27614a4", "fusion_lat": 0.0, "is_reserved": 0, "lon": -77.02235766666666}, {"type": "electric_scooter", "name": "0cf4f6159507213d2ceb07b822f284e1", "rental_uris": {"ios": "https://dc.lft.to/lastmile_qr_scan", "android": "https://dc.lft.to/lastmile_qr_scan"}, "fusion_lon": 0.0, "lat": 38.939455333333335, "is_disabled": 0, "bike_id": "0cf4f6159507213d2ceb07b822f284e1", "fusion_lat": 0.0, "is_reserved": 0, "lon": -77.08591116666666}, {"type": "electric_bike", "name": "67eae24b7e618f801f62eb8e39de014f", "rental_uris": {"ios": "https://dc.lft.to/lastmile_qr_scan", "android": "https://dc.lft.to/lastmile_qr_scan"}, "fusion_lon": 0.0, "lat": 38.8577175, "is_disabled": 0, "bike_id": "67eae24b7e618f801f62eb8e39de014f", "fusion_lat": 0.0, "is_reserved": 0, "lon": -76.98758083333334}, {"type": "electric_scooter", "name": "42d958a4a68c6b3d57fc2f0103b87db6", "rental_uris": {"ios": "https://dc.lft.to/lastmile_qr_scan", "android": "https://dc.lft.to/lastmile_qr_scan"}, "fusion_lon": 0.0, "lat": 38.928905, "is_disabled": 0, "bike_id": "42d958a4a68c6b3d57fc2f0103b87db6", "fusion_lat": 0.0, "is_reserved": 0, "lon": -77.01359833333333}, {"type": "electric_scooter", "name": "267b5344619ca76da064f58b22bac498", "rental_uris": {"ios": "https://dc.lft.to/lastmile_qr_scan", "android": "https://dc.lft.to/lastmile_qr_scan"}, "fusion_lon": 0.0, "lat": 38.92495733333333, "is_disabled": 0, "bike_id": "267b5344619ca76da064f58b22bac498", "fusion_lat": 0.0, "is_reserved": 0, "lon": -77.02153683333333}, {"type": "electric_scooter", "name": "3764413a137418d190dc9cf67ffa9267", "rental_uris": {"ios": "https://dc.lft.to/lastmile_qr_scan", "android": "https://dc.lft.to/lastmile_qr_scan"}, "fusion_lon": 0.0, "lat": 38.90503266666666, "is_disabled": 0, "bike_id": "3764413a137418d190dc9cf67ffa9267", "fusion_lat": 0.0, "is_reserved": 0, "lon": -77.00100033333334}, {"type": "electric_scooter", "name": "b570ebc3ca464ff3f6f2a96a10892086", "rental_uris": {"ios": "https://dc.lft.to/lastmile_qr_scan", "android": "https://dc.lft.to/lastmile_qr_scan"}, "fusion_lon": 0.0, "lat": 38.947547666666665, "is_disabled": 0, "bike_id": "b570ebc3ca464ff3f6f2a96a10892086", "fusion_lat": 0.0, "is_reserved": 0, "lon": -77.00719583333333}, {"type": "electric_scooter", "name": "a7bdb221da88169bb8bf3a58bfc4311d", "rental_uris": {"ios": "https://dc.lft.to/lastmile_qr_scan", "android": "https://dc.lft.to/lastmile_qr_scan"}, "fusion_lon": 0.0, "lat": 38.90695733333333, "is_disabled": 0, "bike_id": "a7bdb221da88169bb8bf3a58bfc4311d", "fusion_lat": 0.0, "is_reserved": 0, "lon": -77.0359065}, {"type": "electric_scooter", "name": "0ecc11dd73e931a7d2147631609b33b4", "rental_uris": {"ios": "https://dc.lft.to/lastmile_qr_scan", "android": "https://dc.lft.to/lastmile_qr_scan"}, "fusion_lon": 0.0, "lat": 38.935993333333336, "is_disabled": 0, "bike_id": "0ecc11dd73e931a7d2147631609b33b4", "fusion_lat": 0.0, "is_reserved": 0, "lon": -77.02850583333333}, {"type": "electric_scooter", "name": "265621486c5f9ca94642b598b6a66733", "rental_uris": {"ios": "https://dc.lft.to/lastmile_qr_scan", "android": "https://dc.lft.to/lastmile_qr_scan"}, "fusion_lon": 0.0, "lat": 38.88730566666667, "is_disabled": 0, "bike_id": "265621486c5f9ca94642b598b6a66733", "fusion_lat": 0.0, "is_reserved": 0, "lon": -77.02829616666666}, {"type": "electric_scooter", "name": "7498558639ff15836bd4fbb5dc24209c", "rental_uris": {"ios": "https://dc.lft.to/lastmile_qr_scan", "android": "https://dc.lft.to/lastmile_qr_scan"}, "fusion_lon": 0.0, "lat": 38.9234245, "is_disabled": 0, "bike_id": "7498558639ff15836bd4fbb5dc24209c", "fusion_lat": 0.0, "is_reserved": 0, "lon": -77.05119866666666}, {"type": "electric_scooter", "name": "1c173734394ef5c0fc6a9e2b695152dd", "rental_uris": {"ios": "https://dc.lft.to/lastmile_qr_scan", "android": "https://dc.lft.to/lastmile_qr_scan"}, "fusion_lon": 0.0, "lat": 38.91063716666667, "is_disabled": 0, "bike_id": "1c173734394ef5c0fc6a9e2b695152dd", "fusion_lat": 0.0, "is_reserved": 0, "lon": -77.03025783333334}, {"type": "electric_scooter", "name": "4d640b5f4ecdba02b935f8b3822861a5", "rental_uris": {"ios": "https://dc.lft.to/lastmile_qr_scan", "android": "https://dc.lft.to/lastmile_qr_scan"}, "fusion_lon": 0.0, "lat": 38.9013225, "is_disabled": 0, "bike_id": "4d640b5f4ecdba02b935f8b3822861a5", "fusion_lat": 0.0, "is_reserved": 0, "lon": -77.04438083333334}, {"type": "electric_scooter", "name": "012f896cdebe860c34eecec21aa28ed8", "rental_uris": {"ios": "https://dc.lft.to/lastmile_qr_scan", "android": "https://dc.lft.to/lastmile_qr_scan"}, "fusion_lon": 0.0, "lat": 38.895326, "is_disabled": 0, "bike_id": "012f896cdebe860c34eecec21aa28ed8", "fusion_lat": 0.0, "is_reserved": 0, "lon": -76.94891533333333}, {"type": "electric_scooter", "name": "2758bcb13d4fbdc09278430d116322b1", "rental_uris": {"ios": "https://dc.lft.to/lastmile_qr_scan", "android": "https://dc.lft.to/lastmile_qr_scan"}, "fusion_lon": 0.0, "lat": 38.910984666666664, "is_disabled": 0, "bike_id": "2758bcb13d4fbdc09278430d116322b1", "fusion_lat": 0.0, "is_reserved": 0, "lon": -77.02801866666667}, {"type": "electric_scooter", "name": "92d28cbcf45443637d41b4082f0c6664", "rental_uris": {"ios": "https://dc.lft.to/lastmile_qr_scan", "android": "https://dc.lft.to/lastmile_qr_scan"}, "fusion_lon": 0.0, "lat": 38.879855166666665, "is_disabled": 0, "bike_id": "92d28cbcf45443637d41b4082f0c6664", "fusion_lat": 0.0, "is_reserved": 0, "lon": -77.024108}, {"type": "electric_bike", "name": "8ca2887a2499ae9f4722ec57d616e777", "rental_uris": {"ios": "https://dc.lft.to/lastmile_qr_scan", "android": "https://dc.lft.to/lastmile_qr_scan"}, "fusion_lon": 0.0, "lat": 38.997806, "is_disabled": 0, "bike_id": "8ca2887a2499ae9f4722ec57d616e777", "fusion_lat": 0.0, "is_reserved": 0, "lon": -77.0472285}, {"type": "electric_scooter", "name": "f44ecbd9f2f83102cfe5fda88e251e99", "rental_uris": {"ios": "https://dc.lft.to/lastmile_qr_scan", "android": "https://dc.lft.to/lastmile_qr_scan"}, "fusion_lon": 0.0, "lat": 38.90568283333333, "is_disabled": 0, "bike_id": "f44ecbd9f2f83102cfe5fda88e251e99", "fusion_lat": 0.0, "is_reserved": 0, "lon": -77.00584616666667}, {"type": "electric_scooter", "name": "b752078514974a2d37c1423678940572", "rental_uris": {"ios": "https://dc.lft.to/lastmile_qr_scan", "android": "https://dc.lft.to/lastmile_qr_scan"}, "fusion_lon": 0.0, "lat": 38.933892, "is_disabled": 0, "bike_id": "b752078514974a2d37c1423678940572", "fusion_lat": 0.0, "is_reserved": 0, "lon": -77.05742566666666}, {"type": "electric_scooter", "name": "280d3ca6b99f085fbc68fd753fbb18e1", "rental_uris": {"ios": "https://dc.lft.to/lastmile_qr_scan", "android": "https://dc.lft.to/lastmile_qr_scan"}, "fusion_lon": 0.0, "lat": 38.938637, "is_disabled": 0, "bike_id": "280d3ca6b99f085fbc68fd753fbb18e1", "fusion_lat": 0.0, "is_reserved": 0, "lon": -77.02488566666666}, {"type": "electric_scooter", "name": "39a00a99fad8fe9caa4fb554a398e342", "rental_uris": {"ios": "https://dc.lft.to/lastmile_qr_scan", "android": "https://dc.lft.to/lastmile_qr_scan"}, "fusion_lon": 0.0, "lat": 38.902877, "is_disabled": 0, "bike_id": "39a00a99fad8fe9caa4fb554a398e342", "fusion_lat": 0.0, "is_reserved": 0, "lon": -76.976368}, {"type": "electric_scooter", "name": "3c098c8e2968dceca9a80122327113e0", "rental_uris": {"ios": "https://dc.lft.to/lastmile_qr_scan", "android": "https://dc.lft.to/lastmile_qr_scan"}, "fusion_lon": 0.0, "lat": 38.90522983333334, "is_disabled": 0, "bike_id": "3c098c8e2968dceca9a80122327113e0", "fusion_lat": 0.0, "is_reserved": 0, "lon": -77.0487625}, {"type": "electric_scooter", "name": "ac58929467a0ed2e3677bf7796cfe8ce", "rental_uris": {"ios": "https://dc.lft.to/lastmile_qr_scan", "android": "https://dc.lft.to/lastmile_qr_scan"}, "fusion_lon": 0.0, "lat": 38.97508583333333, "is_disabled": 0, "bike_id": "ac58929467a0ed2e3677bf7796cfe8ce", "fusion_lat": 0.0, "is_reserved": 0, "lon": -77.01667183333333}, {"type": "electric_scooter", "name": "d52f9a996e2db9c8774dd9a56bf17450", "rental_uris": {"ios": "https://dc.lft.to/lastmile_qr_scan", "android": "https://dc.lft.to/lastmile_qr_scan"}, "fusion_lon": 0.0, "lat": 38.92694983333333, "is_disabled": 0, "bike_id": "d52f9a996e2db9c8774dd9a56bf17450", "fusion_lat": 0.0, "is_reserved": 0, "lon": -77.0323625}, {"type": "electric_bike", "name": "7fcff6909a9cf798d0ffe03b86c52492", "rental_uris": {"ios": "https://dc.lft.to/lastmile_qr_scan", "android": "https://dc.lft.to/lastmile_qr_scan"}, "fusion_lon": 0.0, "lat": 38.87674716666667, "is_disabled": 0, "bike_id": "7fcff6909a9cf798d0ffe03b86c52492", "fusion_lat": 0.0, "is_reserved": 0, "lon": -77.01464633333333}, {"type": "electric_scooter", "name": "be8dc8ae1ab2fd734ebcfbe8f3d0d51d", "rental_uris": {"ios": "https://dc.lft.to/lastmile_qr_scan", "android": "https://dc.lft.to/lastmile_qr_scan"}, "fusion_lon": 0.0, "lat": 38.912635333333334, "is_disabled": 0, "bike_id": "be8dc8ae1ab2fd734ebcfbe8f3d0d51d", "fusion_lat": 0.0, "is_reserved": 0, "lon": -77.0221435}, {"type": "electric_scooter", "name": "0d823abc30503eae9db19338b1cd7a55", "rental_uris": {"ios": "https://dc.lft.to/lastmile_qr_scan", "android": "https://dc.lft.to/lastmile_qr_scan"}, "fusion_lon": 0.0, "lat": 38.91255916666667, "is_disabled": 0, "bike_id": "0d823abc30503eae9db19338b1cd7a55", "fusion_lat": 0.0, "is_reserved": 0, "lon": -77.04436183333334}, {"type": "electric_scooter", "name": "efdc0bccf6c7e8b47282dfc21842b513", "rental_uris": {"ios": "https://dc.lft.to/lastmile_qr_scan", "android": "https://dc.lft.to/lastmile_qr_scan"}, "fusion_lon": 0.0, "lat": 38.921203166666665, "is_disabled": 0, "bike_id": "efdc0bccf6c7e8b47282dfc21842b513", "fusion_lat": 0.0, "is_reserved": 0, "lon": -77.02519483333333}, {"type": "electric_scooter", "name": "38d0aa6bec3e934a6308efd0ee10fed8", "rental_uris": {"ios": "https://dc.lft.to/lastmile_qr_scan", "android": "https://dc.lft.to/lastmile_qr_scan"}, "fusion_lon": 0.0, "lat": 38.904676333333335, "is_disabled": 0, "bike_id": "38d0aa6bec3e934a6308efd0ee10fed8", "fusion_lat": 0.0, "is_reserved": 0, "lon": -77.065371}, {"type": "electric_scooter", "name": "7d978dd0fdb7ce97e10f51c4ff614448", "rental_uris": {"ios": "https://dc.lft.to/lastmile_qr_scan", "android": "https://dc.lft.to/lastmile_qr_scan"}, "fusion_lon": 0.0, "lat": 38.89728, "is_disabled": 0, "bike_id": "7d978dd0fdb7ce97e10f51c4ff614448", "fusion_lat": 0.0, "is_reserved": 0, "lon": -77.05523666666667}, {"type": "electric_scooter", "name": "ef56d3b0da7976a0f07339e7ea6b250a", "rental_uris": {"ios": "https://dc.lft.to/lastmile_qr_scan", "android": "https://dc.lft.to/lastmile_qr_scan"}, "fusion_lon": 0.0, "lat": 38.892984166666665, "is_disabled": 0, "bike_id": "ef56d3b0da7976a0f07339e7ea6b250a", "fusion_lat": 0.0, "is_reserved": 0, "lon": -77.0465615}, {"type": "electric_scooter", "name": "22234f4f3fcadfe45649568190abc414", "rental_uris": {"ios": "https://dc.lft.to/lastmile_qr_scan", "android": "https://dc.lft.to/lastmile_qr_scan"}, "fusion_lon": 0.0, "lat": 38.916172333333336, "is_disabled": 0, "bike_id": "22234f4f3fcadfe45649568190abc414", "fusion_lat": 0.0, "is_reserved": 0, "lon": -77.04865783333334}, {"type": "electric_scooter", "name": "4ed15579be8d46d1bc37b16b0615e61c", "rental_uris": {"ios": "https://dc.lft.to/lastmile_qr_scan", "android": "https://dc.lft.to/lastmile_qr_scan"}, "fusion_lon": 0.0, "lat": 38.91413883333333, "is_disabled": 0, "bike_id": "4ed15579be8d46d1bc37b16b0615e61c", "fusion_lat": 0.0, "is_reserved": 0, "lon": -77.01881683333333}, {"type": "electric_scooter", "name": "ab1eeafb5e08d26bb4a326dc73bbe035", "rental_uris": {"ios": "https://dc.lft.to/lastmile_qr_scan", "android": "https://dc.lft.to/lastmile_qr_scan"}, "fusion_lon": 0.0, "lat": 38.934926, "is_disabled": 0, "bike_id": "ab1eeafb5e08d26bb4a326dc73bbe035", "fusion_lat": 0.0, "is_reserved": 0, "lon": -77.02408116666666}, {"type": "electric_scooter", "name": "19b069f57505f7e1074f2ee95f809490", "rental_uris": {"ios": "https://dc.lft.to/lastmile_qr_scan", "android": "https://dc.lft.to/lastmile_qr_scan"}, "fusion_lon": 0.0, "lat": 38.901146833333335, "is_disabled": 0, "bike_id": "19b069f57505f7e1074f2ee95f809490", "fusion_lat": 0.0, "is_reserved": 0, "lon": -77.0423605}, {"type": "electric_scooter", "name": "fb5ba6fc8b860f3c4c9549d079910c51", "rental_uris": {"ios": "https://dc.lft.to/lastmile_qr_scan", "android": "https://dc.lft.to/lastmile_qr_scan"}, "fusion_lon": 0.0, "lat": 38.892212, "is_disabled": 0, "bike_id": "fb5ba6fc8b860f3c4c9549d079910c51", "fusion_lat": 0.0, "is_reserved": 0, "lon": -77.04690533333333}, {"type": "electric_scooter", "name": "52e73184b056f900ed81822966d84fe5", "rental_uris": {"ios": "https://dc.lft.to/lastmile_qr_scan", "android": "https://dc.lft.to/lastmile_qr_scan"}, "fusion_lon": 0.0, "lat": 38.92581066666666, "is_disabled": 0, "bike_id": "52e73184b056f900ed81822966d84fe5", "fusion_lat": 0.0, "is_reserved": 0, "lon": -77.0296685}, {"type": "electric_scooter", "name": "c6906332c5a90c0d6c513db722021d63", "rental_uris": {"ios": "https://dc.lft.to/lastmile_qr_scan", "android": "https://dc.lft.to/lastmile_qr_scan"}, "fusion_lon": 0.0, "lat": 38.93138416666667, "is_disabled": 0, "bike_id": "c6906332c5a90c0d6c513db722021d63", "fusion_lat": 0.0, "is_reserved": 0, "lon": -77.07846966666666}, {"type": "electric_scooter", "name": "05d6ab37f4310c0af36b5845c69d56e7", "rental_uris": {"ios": "https://dc.lft.to/lastmile_qr_scan", "android": "https://dc.lft.to/lastmile_qr_scan"}, "fusion_lon": 0.0, "lat": 38.9071485, "is_disabled": 0, "bike_id": "05d6ab37f4310c0af36b5845c69d56e7", "fusion_lat": 0.0, "is_reserved": 0, "lon": -77.025067}, {"type": "electric_scooter", "name": "d3db73786bbc32f83157dc1e4c0fba58", "rental_uris": {"ios": "https://dc.lft.to/lastmile_qr_scan", "android": "https://dc.lft.to/lastmile_qr_scan"}, "fusion_lon": 0.0, "lat": 38.885038, "is_disabled": 0, "bike_id": "d3db73786bbc32f83157dc1e4c0fba58", "fusion_lat": 0.0, "is_reserved": 0, "lon": -77.02085033333333}, {"type": "electric_scooter", "name": "543db427842a865ec35d872e0e221e7e", "rental_uris": {"ios": "https://dc.lft.to/lastmile_qr_scan", "android": "https://dc.lft.to/lastmile_qr_scan"}, "fusion_lon": 0.0, "lat": 38.8873955, "is_disabled": 0, "bike_id": "543db427842a865ec35d872e0e221e7e", "fusion_lat": 0.0, "is_reserved": 0, "lon": -77.03185566666667}, {"type": "electric_scooter", "name": "6094afdd9001c7dfeb038ba70218c517", "rental_uris": {"ios": "https://dc.lft.to/lastmile_qr_scan", "android": "https://dc.lft.to/lastmile_qr_scan"}, "fusion_lon": 0.0, "lat": 38.94447133333333, "is_disabled": 0, "bike_id": "6094afdd9001c7dfeb038ba70218c517", "fusion_lat": 0.0, "is_reserved": 0, "lon": -77.02340433333333}, {"type": "electric_scooter", "name": "52594a3dbdb40c396f5ecf464b62d078", "rental_uris": {"ios": "https://dc.lft.to/lastmile_qr_scan", "android": "https://dc.lft.to/lastmile_qr_scan"}, "fusion_lon": 0.0, "lat": 38.866223166666664, "is_disabled": 0, "bike_id": "52594a3dbdb40c396f5ecf464b62d078", "fusion_lat": 0.0, "is_reserved": 0, "lon": -76.98717583333334}, {"type": "electric_scooter", "name": "3490697b14bf9ee970eb5caa6e23b14d", "rental_uris": {"ios": "https://dc.lft.to/lastmile_qr_scan", "android": "https://dc.lft.to/lastmile_qr_scan"}, "fusion_lon": 0.0, "lat": 38.9109355, "is_disabled": 0, "bike_id": "3490697b14bf9ee970eb5caa6e23b14d", "fusion_lat": 0.0, "is_reserved": 0, "lon": -77.00395566666667}, {"type": "electric_scooter", "name": "90db3ef9b19d85d064a68d63075028cf", "rental_uris": {"ios": "https://dc.lft.to/lastmile_qr_scan", "android": "https://dc.lft.to/lastmile_qr_scan"}, "fusion_lon": 0.0, "lat": 38.8999855, "is_disabled": 0, "bike_id": "90db3ef9b19d85d064a68d63075028cf", "fusion_lat": 0.0, "is_reserved": 0, "lon": -77.01022616666667}, {"type": "electric_scooter", "name": "ca74b8f87cf298ffb0e441f72e1b71bf", "rental_uris": {"ios": "https://dc.lft.to/lastmile_qr_scan", "android": "https://dc.lft.to/lastmile_qr_scan"}, "fusion_lon": 0.0, "lat": 38.910308666666666, "is_disabled": 0, "bike_id": "ca74b8f87cf298ffb0e441f72e1b71bf", "fusion_lat": 0.0, "is_reserved": 0, "lon": -77.04322716666667}, {"type": "electric_scooter", "name": "eb851740e55ce757d879dd4165fc0a0c", "rental_uris": {"ios": "https://dc.lft.to/lastmile_qr_scan", "android": "https://dc.lft.to/lastmile_qr_scan"}, "fusion_lon": 0.0, "lat": 38.90782183333334, "is_disabled": 0, "bike_id": "eb851740e55ce757d879dd4165fc0a0c", "fusion_lat": 0.0, "is_reserved": 0, "lon": -76.9942385}, {"type": "electric_scooter", "name": "bc52a0298d9906571aa667cb019ae187", "rental_uris": {"ios": "https://dc.lft.to/lastmile_qr_scan", "android": "https://dc.lft.to/lastmile_qr_scan"}, "fusion_lon": 0.0, "lat": 38.90417633333333, "is_disabled": 0, "bike_id": "bc52a0298d9906571aa667cb019ae187", "fusion_lat": 0.0, "is_reserved": 0, "lon": -77.05327916666667}, {"type": "electric_scooter", "name": "fae29ca2efb9349e8e0a745c449edd9b", "rental_uris": {"ios": "https://dc.lft.to/lastmile_qr_scan", "android": "https://dc.lft.to/lastmile_qr_scan"}, "fusion_lon": 0.0, "lat": 38.9353385, "is_disabled": 0, "bike_id": "fae29ca2efb9349e8e0a745c449edd9b", "fusion_lat": 0.0, "is_reserved": 0, "lon": -77.02352183333333}, {"type": "electric_scooter", "name": "88f8790c8cdfff8a548d7206bf71d7fb", "rental_uris": {"ios": "https://dc.lft.to/lastmile_qr_scan", "android": "https://dc.lft.to/lastmile_qr_scan"}, "fusion_lon": 0.0, "lat": 38.8981035, "is_disabled": 0, "bike_id": "88f8790c8cdfff8a548d7206bf71d7fb", "fusion_lat": 0.0, "is_reserved": 0, "lon": -77.03321616666666}, {"type": "electric_scooter", "name": "8dd95ffc8ac760a2342f494815960ddb", "rental_uris": {"ios": "https://dc.lft.to/lastmile_qr_scan", "android": "https://dc.lft.to/lastmile_qr_scan"}, "fusion_lon": 0.0, "lat": 38.895351833333336, "is_disabled": 0, "bike_id": "8dd95ffc8ac760a2342f494815960ddb", "fusion_lat": 0.0, "is_reserved": 0, "lon": -76.94882}, {"type": "electric_scooter", "name": "004e82fd65f1697aee3392a7fe7d0cef", "rental_uris": {"ios": "https://dc.lft.to/lastmile_qr_scan", "android": "https://dc.lft.to/lastmile_qr_scan"}, "fusion_lon": 0.0, "lat": 38.90147183333333, "is_disabled": 0, "bike_id": "004e82fd65f1697aee3392a7fe7d0cef", "fusion_lat": 0.0, "is_reserved": 0, "lon": -76.99028333333334}, {"type": "electric_scooter", "name": "f40dff707989a078b076b361477f331b", "rental_uris": {"ios": "https://dc.lft.to/lastmile_qr_scan", "android": "https://dc.lft.to/lastmile_qr_scan"}, "fusion_lon": 0.0, "lat": 38.94301983333333, "is_disabled": 0, "bike_id": "f40dff707989a078b076b361477f331b", "fusion_lat": 0.0, "is_reserved": 0, "lon": -77.0294595}, {"type": "electric_scooter", "name": "ed611367e4b1cd272aac184a068259b1", "rental_uris": {"ios": "https://dc.lft.to/lastmile_qr_scan", "android": "https://dc.lft.to/lastmile_qr_scan"}, "fusion_lon": 0.0, "lat": 38.92342283333333, "is_disabled": 0, "bike_id": "ed611367e4b1cd272aac184a068259b1", "fusion_lat": 0.0, "is_reserved": 0, "lon": -77.05234733333333}, {"type": "electric_scooter", "name": "a66d1347c429c27eac72dca8fb6e4654", "rental_uris": {"ios": "https://dc.lft.to/lastmile_qr_scan", "android": "https://dc.lft.to/lastmile_qr_scan"}, "fusion_lon": 0.0, "lat": 38.921112, "is_disabled": 0, "bike_id": "a66d1347c429c27eac72dca8fb6e4654", "fusion_lat": 0.0, "is_reserved": 0, "lon": -77.009179}, {"type": "electric_scooter", "name": "f35ecb7337925bbc8a5cabb14cfa74c1", "rental_uris": {"ios": "https://dc.lft.to/lastmile_qr_scan", "android": "https://dc.lft.to/lastmile_qr_scan"}, "fusion_lon": 0.0, "lat": 38.921083333333335, "is_disabled": 0, "bike_id": "f35ecb7337925bbc8a5cabb14cfa74c1", "fusion_lat": 0.0, "is_reserved": 0, "lon": -77.02415483333333}, {"type": "electric_scooter", "name": "a596a573b97e18779c2329a2d7050dac", "rental_uris": {"ios": "https://dc.lft.to/lastmile_qr_scan", "android": "https://dc.lft.to/lastmile_qr_scan"}, "fusion_lon": 0.0, "lat": 38.91766116666667, "is_disabled": 0, "bike_id": "a596a573b97e18779c2329a2d7050dac", "fusion_lat": 0.0, "is_reserved": 0, "lon": -77.023116}, {"type": "electric_scooter", "name": "ecd855a1cbf2b3872700520c0ef15f28", "rental_uris": {"ios": "https://dc.lft.to/lastmile_qr_scan", "android": "https://dc.lft.to/lastmile_qr_scan"}, "fusion_lon": 0.0, "lat": 38.8984765, "is_disabled": 0, "bike_id": "ecd855a1cbf2b3872700520c0ef15f28", "fusion_lat": 0.0, "is_reserved": 0, "lon": -77.00756266666667}, {"type": "electric_scooter", "name": "7c15ba3c81f861eb7353de76c2b8d83c", "rental_uris": {"ios": "https://dc.lft.to/lastmile_qr_scan", "android": "https://dc.lft.to/lastmile_qr_scan"}, "fusion_lon": 0.0, "lat": 38.88521083333333, "is_disabled": 0, "bike_id": "7c15ba3c81f861eb7353de76c2b8d83c", "fusion_lat": 0.0, "is_reserved": 0, "lon": -76.97709033333334}, {"type": "electric_bike", "name": "22317b8050462940e44b9849c2f0c926", "rental_uris": {"ios": "https://dc.lft.to/lastmile_qr_scan", "android": "https://dc.lft.to/lastmile_qr_scan"}, "fusion_lon": 0.0, "lat": 38.909555833333336, "is_disabled": 0, "bike_id": "22317b8050462940e44b9849c2f0c926", "fusion_lat": 0.0, "is_reserved": 0, "lon": -77.22886566666666}, {"type": "electric_scooter", "name": "6fd4f16d6e10a9a2b6cc295623d72af8", "rental_uris": {"ios": "https://dc.lft.to/lastmile_qr_scan", "android": "https://dc.lft.to/lastmile_qr_scan"}, "fusion_lon": 0.0, "lat": 38.93417133333333, "is_disabled": 0, "bike_id": "6fd4f16d6e10a9a2b6cc295623d72af8", "fusion_lat": 0.0, "is_reserved": 0, "lon": -77.0440745}, {"type": "electric_scooter", "name": "dfd5daef89dd7b2cc8a515f0225815da", "rental_uris": {"ios": "https://dc.lft.to/lastmile_qr_scan", "android": "https://dc.lft.to/lastmile_qr_scan"}, "fusion_lon": 0.0, "lat": 38.896654166666664, "is_disabled": 0, "bike_id": "dfd5daef89dd7b2cc8a515f0225815da", "fusion_lat": 0.0, "is_reserved": 0, "lon": -77.05468833333333}, {"type": "electric_scooter", "name": "2d45fe832b26d489deaef732e4552e80", "rental_uris": {"ios": "https://dc.lft.to/lastmile_qr_scan", "android": "https://dc.lft.to/lastmile_qr_scan"}, "fusion_lon": 0.0, "lat": 38.9000545, "is_disabled": 0, "bike_id": "2d45fe832b26d489deaef732e4552e80", "fusion_lat": 0.0, "is_reserved": 0, "lon": -77.07138033333334}, {"type": "electric_scooter", "name": "784eeb8d1b1481e3815db1f09efe8dd9", "rental_uris": {"ios": "https://dc.lft.to/lastmile_qr_scan", "android": "https://dc.lft.to/lastmile_qr_scan"}, "fusion_lon": 0.0, "lat": 38.896327166666666, "is_disabled": 0, "bike_id": "784eeb8d1b1481e3815db1f09efe8dd9", "fusion_lat": 0.0, "is_reserved": 0, "lon": -77.0332205}, {"type": "electric_scooter", "name": "1f3b10ffd06641f301b64c67e0121c4b", "rental_uris": {"ios": "https://dc.lft.to/lastmile_qr_scan", "android": "https://dc.lft.to/lastmile_qr_scan"}, "fusion_lon": 0.0, "lat": 38.910857166666666, "is_disabled": 0, "bike_id": "1f3b10ffd06641f301b64c67e0121c4b", "fusion_lat": 0.0, "is_reserved": 0, "lon": -77.01615733333334}, {"type": "electric_scooter", "name": "5bed9a1a1edff3faeb765c3905d1261d", "rental_uris": {"ios": "https://dc.lft.to/lastmile_qr_scan", "android": "https://dc.lft.to/lastmile_qr_scan"}, "fusion_lon": 0.0, "lat": 38.938733666666664, "is_disabled": 0, "bike_id": "5bed9a1a1edff3faeb765c3905d1261d", "fusion_lat": 0.0, "is_reserved": 0, "lon": -77.03082783333333}, {"type": "electric_scooter", "name": "9eaceecee9317d390b747c06d7d62b2c", "rental_uris": {"ios": "https://dc.lft.to/lastmile_qr_scan", "android": "https://dc.lft.to/lastmile_qr_scan"}, "fusion_lon": 0.0, "lat": 38.93053533333333, "is_disabled": 0, "bike_id": "9eaceecee9317d390b747c06d7d62b2c", "fusion_lat": 0.0, "is_reserved": 0, "lon": -77.032049}, {"type": "electric_scooter", "name": "091738585ceece7daf08f9fcdee54168", "rental_uris": {"ios": "https://dc.lft.to/lastmile_qr_scan", "android": "https://dc.lft.to/lastmile_qr_scan"}, "fusion_lon": 0.0, "lat": 38.926122, "is_disabled": 0, "bike_id": "091738585ceece7daf08f9fcdee54168", "fusion_lat": 0.0, "is_reserved": 0, "lon": -77.02162616666666}, {"type": "electric_scooter", "name": "31335d6f13cac1e440f84c98129cac2d", "rental_uris": {"ios": "https://dc.lft.to/lastmile_qr_scan", "android": "https://dc.lft.to/lastmile_qr_scan"}, "fusion_lon": 0.0, "lat": 38.92264816666667, "is_disabled": 0, "bike_id": "31335d6f13cac1e440f84c98129cac2d", "fusion_lat": 0.0, "is_reserved": 0, "lon": -77.03394816666666}, {"type": "electric_scooter", "name": "92be18e235970ebefbddb0c42b02deef", "rental_uris": {"ios": "https://dc.lft.to/lastmile_qr_scan", "android": "https://dc.lft.to/lastmile_qr_scan"}, "fusion_lon": 0.0, "lat": 38.943275666666665, "is_disabled": 0, "bike_id": "92be18e235970ebefbddb0c42b02deef", "fusion_lat": 0.0, "is_reserved": 0, "lon": -77.02688366666666}, {"type": "electric_bike", "name": "0735908a2d5552a46bf1eda09154f038", "rental_uris": {"ios": "https://dc.lft.to/lastmile_qr_scan", "android": "https://dc.lft.to/lastmile_qr_scan"}, "fusion_lon": 0.0, "lat": 38.8245625, "is_disabled": 0, "bike_id": "0735908a2d5552a46bf1eda09154f038", "fusion_lat": 0.0, "is_reserved": 0, "lon": -77.0079225}, {"type": "electric_scooter", "name": "ef8b0a040b8c8877bee144136e475344", "rental_uris": {"ios": "https://dc.lft.to/lastmile_qr_scan", "android": "https://dc.lft.to/lastmile_qr_scan"}, "fusion_lon": 0.0, "lat": 38.92315466666667, "is_disabled": 0, "bike_id": "ef8b0a040b8c8877bee144136e475344", "fusion_lat": 0.0, "is_reserved": 0, "lon": -77.04106866666666}, {"type": "electric_scooter", "name": "5898ed4f1e228fd61b78bbdaa5c35346", "rental_uris": {"ios": "https://dc.lft.to/lastmile_qr_scan", "android": "https://dc.lft.to/lastmile_qr_scan"}, "fusion_lon": 0.0, "lat": 38.914876666666665, "is_disabled": 0, "bike_id": "5898ed4f1e228fd61b78bbdaa5c35346", "fusion_lat": 0.0, "is_reserved": 0, "lon": -77.04837566666667}, {"type": "electric_scooter", "name": "762b4094f6cdfa40a33cb5ed2c4dbaca", "rental_uris": {"ios": "https://dc.lft.to/lastmile_qr_scan", "android": "https://dc.lft.to/lastmile_qr_scan"}, "fusion_lon": 0.0, "lat": 38.90023016666667, "is_disabled": 0, "bike_id": "762b4094f6cdfa40a33cb5ed2c4dbaca", "fusion_lat": 0.0, "is_reserved": 0, "lon": -77.0129295}, {"type": "electric_scooter", "name": "1b8c75b4ecad1aac73fdfb1112bd2986", "rental_uris": {"ios": "https://dc.lft.to/lastmile_qr_scan", "android": "https://dc.lft.to/lastmile_qr_scan"}, "fusion_lon": 0.0, "lat": 38.91267, "is_disabled": 0, "bike_id": "1b8c75b4ecad1aac73fdfb1112bd2986", "fusion_lat": 0.0, "is_reserved": 0, "lon": -77.0484355}, {"type": "electric_scooter", "name": "76aab2871607117ccee61ae126373fed", "rental_uris": {"ios": "https://dc.lft.to/lastmile_qr_scan", "android": "https://dc.lft.to/lastmile_qr_scan"}, "fusion_lon": 0.0, "lat": 38.9096085, "is_disabled": 0, "bike_id": "76aab2871607117ccee61ae126373fed", "fusion_lat": 0.0, "is_reserved": 0, "lon": -76.9854565}, {"type": "electric_scooter", "name": "64635769f0d7eb680e03ab5497d5c634", "rental_uris": {"ios": "https://dc.lft.to/lastmile_qr_scan", "android": "https://dc.lft.to/lastmile_qr_scan"}, "fusion_lon": 0.0, "lat": 38.89580183333333, "is_disabled": 0, "bike_id": "64635769f0d7eb680e03ab5497d5c634", "fusion_lat": 0.0, "is_reserved": 0, "lon": -77.02567266666667}, {"type": "electric_scooter", "name": "0200c0af0a90490628da84449134e0a1", "rental_uris": {"ios": "https://dc.lft.to/lastmile_qr_scan", "android": "https://dc.lft.to/lastmile_qr_scan"}, "fusion_lon": 0.0, "lat": 38.9491365, "is_disabled": 0, "bike_id": "0200c0af0a90490628da84449134e0a1", "fusion_lat": 0.0, "is_reserved": 0, "lon": -77.06631366666667}, {"type": "electric_scooter", "name": "f4e364384f4d928e57541d9456ce6187", "rental_uris": {"ios": "https://dc.lft.to/lastmile_qr_scan", "android": "https://dc.lft.to/lastmile_qr_scan"}, "fusion_lon": 0.0, "lat": 38.9097785, "is_disabled": 0, "bike_id": "f4e364384f4d928e57541d9456ce6187", "fusion_lat": 0.0, "is_reserved": 0, "lon": -77.0338535}, {"type": "electric_scooter", "name": "e497f0c6004109edec02e87f37812fcb", "rental_uris": {"ios": "https://dc.lft.to/lastmile_qr_scan", "android": "https://dc.lft.to/lastmile_qr_scan"}, "fusion_lon": 0.0, "lat": 38.92352483333333, "is_disabled": 0, "bike_id": "e497f0c6004109edec02e87f37812fcb", "fusion_lat": 0.0, "is_reserved": 0, "lon": -77.05050066666666}, {"type": "electric_scooter", "name": "b92053e8a2f7c4e642a6856f87fdc936", "rental_uris": {"ios": "https://dc.lft.to/lastmile_qr_scan", "android": "https://dc.lft.to/lastmile_qr_scan"}, "fusion_lon": 0.0, "lat": 38.9082955, "is_disabled": 0, "bike_id": "b92053e8a2f7c4e642a6856f87fdc936", "fusion_lat": 0.0, "is_reserved": 0, "lon": -77.043538}, {"type": "electric_scooter", "name": "6fea5f7dbe90c913ea709f911329c29d", "rental_uris": {"ios": "https://dc.lft.to/lastmile_qr_scan", "android": "https://dc.lft.to/lastmile_qr_scan"}, "fusion_lon": 0.0, "lat": 38.916970166666665, "is_disabled": 0, "bike_id": "6fea5f7dbe90c913ea709f911329c29d", "fusion_lat": 0.0, "is_reserved": 0, "lon": -77.04218216666666}, {"type": "electric_scooter", "name": "b69facbe68ef3542d901ab63ec36cd70", "rental_uris": {"ios": "https://dc.lft.to/lastmile_qr_scan", "android": "https://dc.lft.to/lastmile_qr_scan"}, "fusion_lon": 0.0, "lat": 38.90565933333333, "is_disabled": 0, "bike_id": "b69facbe68ef3542d901ab63ec36cd70", "fusion_lat": 0.0, "is_reserved": 0, "lon": -77.03435166666667}, {"type": "electric_scooter", "name": "9cc8b3558f1d30977919ecc2182c4194", "rental_uris": {"ios": "https://dc.lft.to/lastmile_qr_scan", "android": "https://dc.lft.to/lastmile_qr_scan"}, "fusion_lon": 0.0, "lat": 38.893601333333336, "is_disabled": 0, "bike_id": "9cc8b3558f1d30977919ecc2182c4194", "fusion_lat": 0.0, "is_reserved": 0, "lon": -76.9259305}, {"type": "electric_scooter", "name": "969fc9927624626f9274680b30083f7e", "rental_uris": {"ios": "https://dc.lft.to/lastmile_qr_scan", "android": "https://dc.lft.to/lastmile_qr_scan"}, "fusion_lon": 0.0, "lat": 38.91693716666666, "is_disabled": 0, "bike_id": "969fc9927624626f9274680b30083f7e", "fusion_lat": 0.0, "is_reserved": 0, "lon": -77.03444}, {"type": "electric_scooter", "name": "c5431ada86af2b9bd96033be529c9743", "rental_uris": {"ios": "https://dc.lft.to/lastmile_qr_scan", "android": "https://dc.lft.to/lastmile_qr_scan"}, "fusion_lon": 0.0, "lat": 38.898406666666666, "is_disabled": 0, "bike_id": "c5431ada86af2b9bd96033be529c9743", "fusion_lat": 0.0, "is_reserved": 0, "lon": -77.00744716666667}, {"type": "electric_scooter", "name": "daf04fc9b5cdb6803c3f2017df7f6f60", "rental_uris": {"ios": "https://dc.lft.to/lastmile_qr_scan", "android": "https://dc.lft.to/lastmile_qr_scan"}, "fusion_lon": 0.0, "lat": 38.86458283333333, "is_disabled": 0, "bike_id": "daf04fc9b5cdb6803c3f2017df7f6f60", "fusion_lat": 0.0, "is_reserved": 0, "lon": -77.01267066666666}, {"type": "electric_bike", "name": "a61b38844a98242703c613fec8411d38", "rental_uris": {"ios": "https://dc.lft.to/lastmile_qr_scan", "android": "https://dc.lft.to/lastmile_qr_scan"}, "fusion_lon": 0.0, "lat": 38.86517516666667, "is_disabled": 0, "bike_id": "a61b38844a98242703c613fec8411d38", "fusion_lat": 0.0, "is_reserved": 0, "lon": -77.12937883333333}, {"type": "electric_scooter", "name": "6ac0ccf08d664fc201407c54013dc089", "rental_uris": {"ios": "https://dc.lft.to/lastmile_qr_scan", "android": "https://dc.lft.to/lastmile_qr_scan"}, "fusion_lon": 0.0, "lat": 38.900105, "is_disabled": 0, "bike_id": "6ac0ccf08d664fc201407c54013dc089", "fusion_lat": 0.0, "is_reserved": 0, "lon": -77.006649}, {"type": "electric_scooter", "name": "bdfdf9c1cb22b3e8a4847695811ce033", "rental_uris": {"ios": "https://dc.lft.to/lastmile_qr_scan", "android": "https://dc.lft.to/lastmile_qr_scan"}, "fusion_lon": 0.0, "lat": 38.8876585, "is_disabled": 0, "bike_id": "bdfdf9c1cb22b3e8a4847695811ce033", "fusion_lat": 0.0, "is_reserved": 0, "lon": -76.97750583333334}, {"type": "electric_scooter", "name": "ee99ee5932c71f406ced7924a1885945", "rental_uris": {"ios": "https://dc.lft.to/lastmile_qr_scan", "android": "https://dc.lft.to/lastmile_qr_scan"}, "fusion_lon": 0.0, "lat": 38.90503533333333, "is_disabled": 0, "bike_id": "ee99ee5932c71f406ced7924a1885945", "fusion_lat": 0.0, "is_reserved": 0, "lon": -77.02982233333333}, {"type": "electric_bike", "name": "fbca3714447379719943e8c0bd8771ae", "rental_uris": {"ios": "https://dc.lft.to/lastmile_qr_scan", "android": "https://dc.lft.to/lastmile_qr_scan"}, "fusion_lon": 0.0, "lat": 38.963127666666665, "is_disabled": 0, "bike_id": "fbca3714447379719943e8c0bd8771ae", "fusion_lat": 0.0, "is_reserved": 0, "lon": -77.0749295}, {"type": "electric_scooter", "name": "e91ab3366f85995b78ec1c7208e16890", "rental_uris": {"ios": "https://dc.lft.to/lastmile_qr_scan", "android": "https://dc.lft.to/lastmile_qr_scan"}, "fusion_lon": 0.0, "lat": 38.92076516666667, "is_disabled": 0, "bike_id": "e91ab3366f85995b78ec1c7208e16890", "fusion_lat": 0.0, "is_reserved": 0, "lon": -77.03495233333334}, {"type": "electric_scooter", "name": "26505c271e01de1de12a747c14783b83", "rental_uris": {"ios": "https://dc.lft.to/lastmile_qr_scan", "android": "https://dc.lft.to/lastmile_qr_scan"}, "fusion_lon": 0.0, "lat": 38.9387155, "is_disabled": 0, "bike_id": "26505c271e01de1de12a747c14783b83", "fusion_lat": 0.0, "is_reserved": 0, "lon": -77.02463933333334}, {"type": "electric_scooter", "name": "1bf47ab2ad3104d49bdb3de434dbf5a6", "rental_uris": {"ios": "https://dc.lft.to/lastmile_qr_scan", "android": "https://dc.lft.to/lastmile_qr_scan"}, "fusion_lon": 0.0, "lat": 38.85711766666667, "is_disabled": 0, "bike_id": "1bf47ab2ad3104d49bdb3de434dbf5a6", "fusion_lat": 0.0, "is_reserved": 0, "lon": -76.995974}, {"type": "electric_scooter", "name": "1135f512135577a563bee79aa6f5785f", "rental_uris": {"ios": "https://dc.lft.to/lastmile_qr_scan", "android": "https://dc.lft.to/lastmile_qr_scan"}, "fusion_lon": 0.0, "lat": 38.9169855, "is_disabled": 0, "bike_id": "1135f512135577a563bee79aa6f5785f", "fusion_lat": 0.0, "is_reserved": 0, "lon": -77.0289095}, {"type": "electric_scooter", "name": "1fb94577a5abd0f6fd4a16eb4877bfdf", "rental_uris": {"ios": "https://dc.lft.to/lastmile_qr_scan", "android": "https://dc.lft.to/lastmile_qr_scan"}, "fusion_lon": 0.0, "lat": 38.89845483333333, "is_disabled": 0, "bike_id": "1fb94577a5abd0f6fd4a16eb4877bfdf", "fusion_lat": 0.0, "is_reserved": 0, "lon": -76.99035383333333}, {"type": "electric_scooter", "name": "9fa22f0048f1bb1fc7c0c0f1589a1c9b", "rental_uris": {"ios": "https://dc.lft.to/lastmile_qr_scan", "android": "https://dc.lft.to/lastmile_qr_scan"}, "fusion_lon": 0.0, "lat": 38.915882, "is_disabled": 0, "bike_id": "9fa22f0048f1bb1fc7c0c0f1589a1c9b", "fusion_lat": 0.0, "is_reserved": 0, "lon": -76.9797745}, {"type": "electric_scooter", "name": "d823d9626156593d1991486d795789fd", "rental_uris": {"ios": "https://dc.lft.to/lastmile_qr_scan", "android": "https://dc.lft.to/lastmile_qr_scan"}, "fusion_lon": 0.0, "lat": 38.92850416666667, "is_disabled": 0, "bike_id": "d823d9626156593d1991486d795789fd", "fusion_lat": 0.0, "is_reserved": 0, "lon": -77.035206}, {"type": "electric_scooter", "name": "b0e814285c28c27bede64167c277e675", "rental_uris": {"ios": "https://dc.lft.to/lastmile_qr_scan", "android": "https://dc.lft.to/lastmile_qr_scan"}, "fusion_lon": 0.0, "lat": 38.915294833333334, "is_disabled": 0, "bike_id": "b0e814285c28c27bede64167c277e675", "fusion_lat": 0.0, "is_reserved": 0, "lon": -77.0122375}, {"type": "electric_scooter", "name": "d35318a41824ff0b4eb6b61bf7b27d51", "rental_uris": {"ios": "https://dc.lft.to/lastmile_qr_scan", "android": "https://dc.lft.to/lastmile_qr_scan"}, "fusion_lon": 0.0, "lat": 38.918173333333336, "is_disabled": 0, "bike_id": "d35318a41824ff0b4eb6b61bf7b27d51", "fusion_lat": 0.0, "is_reserved": 0, "lon": -77.0134455}, {"type": "electric_scooter", "name": "43d57a82b4103b60202290854ed99d61", "rental_uris": {"ios": "https://dc.lft.to/lastmile_qr_scan", "android": "https://dc.lft.to/lastmile_qr_scan"}, "fusion_lon": 0.0, "lat": 38.89994133333333, "is_disabled": 0, "bike_id": "43d57a82b4103b60202290854ed99d61", "fusion_lat": 0.0, "is_reserved": 0, "lon": -77.01026133333333}, {"type": "electric_scooter", "name": "5cd47ab7dfb79d4eeff6390bed44369b", "rental_uris": {"ios": "https://dc.lft.to/lastmile_qr_scan", "android": "https://dc.lft.to/lastmile_qr_scan"}, "fusion_lon": 0.0, "lat": 38.90388083333333, "is_disabled": 0, "bike_id": "5cd47ab7dfb79d4eeff6390bed44369b", "fusion_lat": 0.0, "is_reserved": 0, "lon": -76.99267283333333}, {"type": "electric_scooter", "name": "78f5a823eb098d6a76bbe0b8573c6341", "rental_uris": {"ios": "https://dc.lft.to/lastmile_qr_scan", "android": "https://dc.lft.to/lastmile_qr_scan"}, "fusion_lon": 0.0, "lat": 38.904504, "is_disabled": 0, "bike_id": "78f5a823eb098d6a76bbe0b8573c6341", "fusion_lat": 0.0, "is_reserved": 0, "lon": -76.97427166666667}, {"type": "electric_scooter", "name": "0f5794e57d0a70e5128b53fca938436a", "rental_uris": {"ios": "https://dc.lft.to/lastmile_qr_scan", "android": "https://dc.lft.to/lastmile_qr_scan"}, "fusion_lon": 0.0, "lat": 38.8787505, "is_disabled": 0, "bike_id": "0f5794e57d0a70e5128b53fca938436a", "fusion_lat": 0.0, "is_reserved": 0, "lon": -77.00132216666667}, {"type": "electric_scooter", "name": "a9b450d804e6c270429882288dd2503a", "rental_uris": {"ios": "https://dc.lft.to/lastmile_qr_scan", "android": "https://dc.lft.to/lastmile_qr_scan"}, "fusion_lon": 0.0, "lat": 38.942034666666665, "is_disabled": 0, "bike_id": "a9b450d804e6c270429882288dd2503a", "fusion_lat": 0.0, "is_reserved": 0, "lon": -77.02591183333334}, {"type": "electric_scooter", "name": "dc2ac3827e715e9a0afa51ed4c6ec374", "rental_uris": {"ios": "https://dc.lft.to/lastmile_qr_scan", "android": "https://dc.lft.to/lastmile_qr_scan"}, "fusion_lon": 0.0, "lat": 38.913013166666666, "is_disabled": 0, "bike_id": "dc2ac3827e715e9a0afa51ed4c6ec374", "fusion_lat": 0.0, "is_reserved": 0, "lon": -77.0454695}, {"type": "electric_scooter", "name": "db39a9c13f7dc48cf96c091361ba9310", "rental_uris": {"ios": "https://dc.lft.to/lastmile_qr_scan", "android": "https://dc.lft.to/lastmile_qr_scan"}, "fusion_lon": 0.0, "lat": 38.91227716666667, "is_disabled": 0, "bike_id": "db39a9c13f7dc48cf96c091361ba9310", "fusion_lat": 0.0, "is_reserved": 0, "lon": -77.0769885}, {"type": "electric_scooter", "name": "989d00d47d47a570f09aee8d6bcc59f2", "rental_uris": {"ios": "https://dc.lft.to/lastmile_qr_scan", "android": "https://dc.lft.to/lastmile_qr_scan"}, "fusion_lon": 0.0, "lat": 38.89610066666667, "is_disabled": 0, "bike_id": "989d00d47d47a570f09aee8d6bcc59f2", "fusion_lat": 0.0, "is_reserved": 0, "lon": -76.992792}, {"type": "electric_scooter", "name": "49bffc80aa062f52e498ae9f01c5fe17", "rental_uris": {"ios": "https://dc.lft.to/lastmile_qr_scan", "android": "https://dc.lft.to/lastmile_qr_scan"}, "fusion_lon": 0.0, "lat": 38.921085166666664, "is_disabled": 0, "bike_id": "49bffc80aa062f52e498ae9f01c5fe17", "fusion_lat": 0.0, "is_reserved": 0, "lon": -77.02410066666667}, {"type": "electric_scooter", "name": "a5a2d88232106d95e97021b3c22babcd", "rental_uris": {"ios": "https://dc.lft.to/lastmile_qr_scan", "android": "https://dc.lft.to/lastmile_qr_scan"}, "fusion_lon": 0.0, "lat": 38.918172, "is_disabled": 0, "bike_id": "a5a2d88232106d95e97021b3c22babcd", "fusion_lat": 0.0, "is_reserved": 0, "lon": -77.04176366666667}, {"type": "electric_scooter", "name": "0fb4c7c506880622c366a085ea80583b", "rental_uris": {"ios": "https://dc.lft.to/lastmile_qr_scan", "android": "https://dc.lft.to/lastmile_qr_scan"}, "fusion_lon": 0.0, "lat": 38.92495233333333, "is_disabled": 0, "bike_id": "0fb4c7c506880622c366a085ea80583b", "fusion_lat": 0.0, "is_reserved": 0, "lon": -77.05110833333333}, {"type": "electric_scooter", "name": "b22fe7bb17ad3567d4a1eb8e053c7e62", "rental_uris": {"ios": "https://dc.lft.to/lastmile_qr_scan", "android": "https://dc.lft.to/lastmile_qr_scan"}, "fusion_lon": 0.0, "lat": 38.928616833333336, "is_disabled": 0, "bike_id": "b22fe7bb17ad3567d4a1eb8e053c7e62", "fusion_lat": 0.0, "is_reserved": 0, "lon": -77.03291483333334}, {"type": "electric_scooter", "name": "f2633dbd6b3a9c38f1abba759eb15832", "rental_uris": {"ios": "https://dc.lft.to/lastmile_qr_scan", "android": "https://dc.lft.to/lastmile_qr_scan"}, "fusion_lon": 0.0, "lat": 38.908348333333336, "is_disabled": 0, "bike_id": "f2633dbd6b3a9c38f1abba759eb15832", "fusion_lat": 0.0, "is_reserved": 0, "lon": -76.99975}, {"type": "electric_scooter", "name": "0fe1f01de0268ce4fcb1c4d6e8c75690", "rental_uris": {"ios": "https://dc.lft.to/lastmile_qr_scan", "android": "https://dc.lft.to/lastmile_qr_scan"}, "fusion_lon": 0.0, "lat": 38.905244333333336, "is_disabled": 0, "bike_id": "0fe1f01de0268ce4fcb1c4d6e8c75690", "fusion_lat": 0.0, "is_reserved": 0, "lon": -77.0677455}, {"type": "electric_scooter", "name": "606d4f03ea65bfeb82652dd94606a5fd", "rental_uris": {"ios": "https://dc.lft.to/lastmile_qr_scan", "android": "https://dc.lft.to/lastmile_qr_scan"}, "fusion_lon": 0.0, "lat": 38.90834016666667, "is_disabled": 0, "bike_id": "606d4f03ea65bfeb82652dd94606a5fd", "fusion_lat": 0.0, "is_reserved": 0, "lon": -76.99189416666667}, {"type": "electric_scooter", "name": "169114466edc5935ae41e166cd7b05fa", "rental_uris": {"ios": "https://dc.lft.to/lastmile_qr_scan", "android": "https://dc.lft.to/lastmile_qr_scan"}, "fusion_lon": 0.0, "lat": 38.932540833333334, "is_disabled": 0, "bike_id": "169114466edc5935ae41e166cd7b05fa", "fusion_lat": 0.0, "is_reserved": 0, "lon": -77.03106033333333}, {"type": "electric_scooter", "name": "5ea6c231d7160872f5c032ea8b1d5ee7", "rental_uris": {"ios": "https://dc.lft.to/lastmile_qr_scan", "android": "https://dc.lft.to/lastmile_qr_scan"}, "fusion_lon": 0.0, "lat": 38.928405, "is_disabled": 0, "bike_id": "5ea6c231d7160872f5c032ea8b1d5ee7", "fusion_lat": 0.0, "is_reserved": 0, "lon": -77.03661866666667}, {"type": "electric_scooter", "name": "a1ca260c8d4ecfde333abba52f5d1d8c", "rental_uris": {"ios": "https://dc.lft.to/lastmile_qr_scan", "android": "https://dc.lft.to/lastmile_qr_scan"}, "fusion_lon": 0.0, "lat": 38.92322716666666, "is_disabled": 0, "bike_id": "a1ca260c8d4ecfde333abba52f5d1d8c", "fusion_lat": 0.0, "is_reserved": 0, "lon": -77.02963183333334}, {"type": "electric_scooter", "name": "492c5de3bce21cc6eff91f2d4427651a", "rental_uris": {"ios": "https://dc.lft.to/lastmile_qr_scan", "android": "https://dc.lft.to/lastmile_qr_scan"}, "fusion_lon": 0.0, "lat": 38.9075925, "is_disabled": 0, "bike_id": "492c5de3bce21cc6eff91f2d4427651a", "fusion_lat": 0.0, "is_reserved": 0, "lon": -77.04225566666666}, {"type": "electric_scooter", "name": "4c7f3ac55af7406264d32e8e62211e3b", "rental_uris": {"ios": "https://dc.lft.to/lastmile_qr_scan", "android": "https://dc.lft.to/lastmile_qr_scan"}, "fusion_lon": 0.0, "lat": 38.89736283333333, "is_disabled": 0, "bike_id": "4c7f3ac55af7406264d32e8e62211e3b", "fusion_lat": 0.0, "is_reserved": 0, "lon": -77.04554566666667}, {"type": "electric_bike", "name": "ccbe3cea1cc34a9806b7656f7ba4781e", "rental_uris": {"ios": "https://dc.lft.to/lastmile_qr_scan", "android": "https://dc.lft.to/lastmile_qr_scan"}, "fusion_lon": 0.0, "lat": 38.990509, "is_disabled": 0, "bike_id": "ccbe3cea1cc34a9806b7656f7ba4781e", "fusion_lat": 0.0, "is_reserved": 0, "lon": -77.03871}, {"type": "electric_scooter", "name": "edd3fe1fb0675cba0aa22953ad7e96e5", "rental_uris": {"ios": "https://dc.lft.to/lastmile_qr_scan", "android": "https://dc.lft.to/lastmile_qr_scan"}, "fusion_lon": 0.0, "lat": 38.886335833333334, "is_disabled": 0, "bike_id": "edd3fe1fb0675cba0aa22953ad7e96e5", "fusion_lat": 0.0, "is_reserved": 0, "lon": -77.01557}, {"type": "electric_bike", "name": "3787c50542fcefb3abe8274446d371f1", "rental_uris": {"ios": "https://dc.lft.to/lastmile_qr_scan", "android": "https://dc.lft.to/lastmile_qr_scan"}, "fusion_lon": 0.0, "lat": 38.83541566666667, "is_disabled": 0, "bike_id": "3787c50542fcefb3abe8274446d371f1", "fusion_lat": 0.0, "is_reserved": 0, "lon": -76.9872655}, {"type": "electric_scooter", "name": "9de473b3ac8b7ac688b199b8a0ac6b0f", "rental_uris": {"ios": "https://dc.lft.to/lastmile_qr_scan", "android": "https://dc.lft.to/lastmile_qr_scan"}, "fusion_lon": 0.0, "lat": 38.843878333333336, "is_disabled": 0, "bike_id": "9de473b3ac8b7ac688b199b8a0ac6b0f", "fusion_lat": 0.0, "is_reserved": 0, "lon": -76.9895715}, {"type": "electric_scooter", "name": "cf7acbacf78ec1e3bd54151004c4885a", "rental_uris": {"ios": "https://dc.lft.to/lastmile_qr_scan", "android": "https://dc.lft.to/lastmile_qr_scan"}, "fusion_lon": 0.0, "lat": 38.916654, "is_disabled": 0, "bike_id": "cf7acbacf78ec1e3bd54151004c4885a", "fusion_lat": 0.0, "is_reserved": 0, "lon": -77.02700633333333}, {"type": "electric_scooter", "name": "defdd6c7eb9b70f4c15744abc92b50f5", "rental_uris": {"ios": "https://dc.lft.to/lastmile_qr_scan", "android": "https://dc.lft.to/lastmile_qr_scan"}, "fusion_lon": 0.0, "lat": 38.9274945, "is_disabled": 0, "bike_id": "defdd6c7eb9b70f4c15744abc92b50f5", "fusion_lat": 0.0, "is_reserved": 0, "lon": -77.03271283333333}, {"type": "electric_scooter", "name": "d43ba9704229936470615a7a9d037f26", "rental_uris": {"ios": "https://dc.lft.to/lastmile_qr_scan", "android": "https://dc.lft.to/lastmile_qr_scan"}, "fusion_lon": 0.0, "lat": 38.93245566666667, "is_disabled": 0, "bike_id": "d43ba9704229936470615a7a9d037f26", "fusion_lat": 0.0, "is_reserved": 0, "lon": -77.03265566666667}, {"type": "electric_bike", "name": "62f945a9e5cdc4f049c12e57df69e687", "rental_uris": {"ios": "https://dc.lft.to/lastmile_qr_scan", "android": "https://dc.lft.to/lastmile_qr_scan"}, "fusion_lon": 0.0, "lat": 38.992240833333334, "is_disabled": 0, "bike_id": "62f945a9e5cdc4f049c12e57df69e687", "fusion_lat": 0.0, "is_reserved": 0, "lon": -76.94414283333333}, {"type": "electric_scooter", "name": "b6fd4f0dec518bad8d42cb2232207de4", "rental_uris": {"ios": "https://dc.lft.to/lastmile_qr_scan", "android": "https://dc.lft.to/lastmile_qr_scan"}, "fusion_lon": 0.0, "lat": 38.9647875, "is_disabled": 0, "bike_id": "b6fd4f0dec518bad8d42cb2232207de4", "fusion_lat": 0.0, "is_reserved": 0, "lon": -77.01190483333333}, {"type": "electric_scooter", "name": "410cc142c9a3863e8856c0d7c4c6ac7e", "rental_uris": {"ios": "https://dc.lft.to/lastmile_qr_scan", "android": "https://dc.lft.to/lastmile_qr_scan"}, "fusion_lon": 0.0, "lat": 38.89214616666667, "is_disabled": 0, "bike_id": "410cc142c9a3863e8856c0d7c4c6ac7e", "fusion_lat": 0.0, "is_reserved": 0, "lon": -76.9569285}, {"type": "electric_bike", "name": "699b99c01b91a77995a0b3168c912f02", "rental_uris": {"ios": "https://dc.lft.to/lastmile_qr_scan", "android": "https://dc.lft.to/lastmile_qr_scan"}, "fusion_lon": 0.0, "lat": 38.925256166666664, "is_disabled": 0, "bike_id": "699b99c01b91a77995a0b3168c912f02", "fusion_lat": 0.0, "is_reserved": 0, "lon": -77.07899883333333}, {"type": "electric_scooter", "name": "4f7557a8125023276b18dd735ca6367e", "rental_uris": {"ios": "https://dc.lft.to/lastmile_qr_scan", "android": "https://dc.lft.to/lastmile_qr_scan"}, "fusion_lon": 0.0, "lat": 38.91838116666667, "is_disabled": 0, "bike_id": "4f7557a8125023276b18dd735ca6367e", "fusion_lat": 0.0, "is_reserved": 0, "lon": -77.0402105}, {"type": "electric_bike", "name": "39c5a45172556ee055f507a5646c5575", "rental_uris": {"ios": "https://dc.lft.to/lastmile_qr_scan", "android": "https://dc.lft.to/lastmile_qr_scan"}, "fusion_lon": 0.0, "lat": 38.85508816666667, "is_disabled": 0, "bike_id": "39c5a45172556ee055f507a5646c5575", "fusion_lat": 0.0, "is_reserved": 0, "lon": -77.12019933333333}, {"type": "electric_bike", "name": "11aada48bc0ed7a8b33842e7e555bde5", "rental_uris": {"ios": "https://dc.lft.to/lastmile_qr_scan", "android": "https://dc.lft.to/lastmile_qr_scan"}, "fusion_lon": 0.0, "lat": 38.8578285, "is_disabled": 0, "bike_id": "11aada48bc0ed7a8b33842e7e555bde5", "fusion_lat": 0.0, "is_reserved": 0, "lon": -77.12020483333333}, {"type": "electric_scooter", "name": "38c37db2ec44e4c4df35b2e54c8afe1c", "rental_uris": {"ios": "https://dc.lft.to/lastmile_qr_scan", "android": "https://dc.lft.to/lastmile_qr_scan"}, "fusion_lon": 0.0, "lat": 38.92041183333333, "is_disabled": 0, "bike_id": "38c37db2ec44e4c4df35b2e54c8afe1c", "fusion_lat": 0.0, "is_reserved": 0, "lon": -77.025772}, {"type": "electric_scooter", "name": "bd1734ac327bd4ad6db5e922e2c05fca", "rental_uris": {"ios": "https://dc.lft.to/lastmile_qr_scan", "android": "https://dc.lft.to/lastmile_qr_scan"}, "fusion_lon": 0.0, "lat": 38.8950655, "is_disabled": 0, "bike_id": "bd1734ac327bd4ad6db5e922e2c05fca", "fusion_lat": 0.0, "is_reserved": 0, "lon": -77.025933}, {"type": "electric_scooter", "name": "92288b0b64faaf66d2c9ea533e2980dd", "rental_uris": {"ios": "https://dc.lft.to/lastmile_qr_scan", "android": "https://dc.lft.to/lastmile_qr_scan"}, "fusion_lon": 0.0, "lat": 38.91029483333333, "is_disabled": 0, "bike_id": "92288b0b64faaf66d2c9ea533e2980dd", "fusion_lat": 0.0, "is_reserved": 0, "lon": -77.033763}, {"type": "electric_scooter", "name": "478ad207e3caa423962c3924cd2bd1d6", "rental_uris": {"ios": "https://dc.lft.to/lastmile_qr_scan", "android": "https://dc.lft.to/lastmile_qr_scan"}, "fusion_lon": 0.0, "lat": 38.897979166666666, "is_disabled": 0, "bike_id": "478ad207e3caa423962c3924cd2bd1d6", "fusion_lat": 0.0, "is_reserved": 0, "lon": -77.033166}, {"type": "electric_scooter", "name": "b0823e9e584b05d95ab641d168e2ac8e", "rental_uris": {"ios": "https://dc.lft.to/lastmile_qr_scan", "android": "https://dc.lft.to/lastmile_qr_scan"}, "fusion_lon": 0.0, "lat": 38.87618416666667, "is_disabled": 0, "bike_id": "b0823e9e584b05d95ab641d168e2ac8e", "fusion_lat": 0.0, "is_reserved": 0, "lon": -77.00605683333333}, {"type": "electric_scooter", "name": "f1dfd23ecc06b032a38dd847a4c7f63c", "rental_uris": {"ios": "https://dc.lft.to/lastmile_qr_scan", "android": "https://dc.lft.to/lastmile_qr_scan"}, "fusion_lon": 0.0, "lat": 38.91668116666666, "is_disabled": 0, "bike_id": "f1dfd23ecc06b032a38dd847a4c7f63c", "fusion_lat": 0.0, "is_reserved": 0, "lon": -77.02706416666666}, {"type": "electric_scooter", "name": "3d1742e745df438dc4ebe98ea3073a50", "rental_uris": {"ios": "https://dc.lft.to/lastmile_qr_scan", "android": "https://dc.lft.to/lastmile_qr_scan"}, "fusion_lon": 0.0, "lat": 38.9041695, "is_disabled": 0, "bike_id": "3d1742e745df438dc4ebe98ea3073a50", "fusion_lat": 0.0, "is_reserved": 0, "lon": -77.04353133333333}, {"type": "electric_scooter", "name": "5989c30f5e5b2d7279498dd345ce0313", "rental_uris": {"ios": "https://dc.lft.to/lastmile_qr_scan", "android": "https://dc.lft.to/lastmile_qr_scan"}, "fusion_lon": 0.0, "lat": 38.891305333333335, "is_disabled": 0, "bike_id": "5989c30f5e5b2d7279498dd345ce0313", "fusion_lat": 0.0, "is_reserved": 0, "lon": -76.99088566666667}, {"type": "electric_bike", "name": "6d18f5a0c3f6bed8223de1d7f3018967", "rental_uris": {"ios": "https://dc.lft.to/lastmile_qr_scan", "android": "https://dc.lft.to/lastmile_qr_scan"}, "fusion_lon": 0.0, "lat": 38.8552885, "is_disabled": 0, "bike_id": "6d18f5a0c3f6bed8223de1d7f3018967", "fusion_lat": 0.0, "is_reserved": 0, "lon": -76.98435633333334}, {"type": "electric_scooter", "name": "4a61acd9af3ed200076447b06546ce08", "rental_uris": {"ios": "https://dc.lft.to/lastmile_qr_scan", "android": "https://dc.lft.to/lastmile_qr_scan"}, "fusion_lon": 0.0, "lat": 38.90854383333333, "is_disabled": 0, "bike_id": "4a61acd9af3ed200076447b06546ce08", "fusion_lat": 0.0, "is_reserved": 0, "lon": -77.04268133333333}, {"type": "electric_scooter", "name": "479ccc4d220eca9a13d9a220d66c5f52", "rental_uris": {"ios": "https://dc.lft.to/lastmile_qr_scan", "android": "https://dc.lft.to/lastmile_qr_scan"}, "fusion_lon": 0.0, "lat": 38.910506833333336, "is_disabled": 0, "bike_id": "479ccc4d220eca9a13d9a220d66c5f52", "fusion_lat": 0.0, "is_reserved": 0, "lon": -76.98518916666667}, {"type": "electric_scooter", "name": "3a370dbb5f1be7922626d221adfd9a2c", "rental_uris": {"ios": "https://dc.lft.to/lastmile_qr_scan", "android": "https://dc.lft.to/lastmile_qr_scan"}, "fusion_lon": 0.0, "lat": 38.918329, "is_disabled": 0, "bike_id": "3a370dbb5f1be7922626d221adfd9a2c", "fusion_lat": 0.0, "is_reserved": 0, "lon": -77.02310566666667}, {"type": "electric_scooter", "name": "353afbb970248f6fd2d1c35ddb7f331b", "rental_uris": {"ios": "https://dc.lft.to/lastmile_qr_scan", "android": "https://dc.lft.to/lastmile_qr_scan"}, "fusion_lon": 0.0, "lat": 38.93861016666666, "is_disabled": 0, "bike_id": "353afbb970248f6fd2d1c35ddb7f331b", "fusion_lat": 0.0, "is_reserved": 0, "lon": -77.0262915}, {"type": "electric_scooter", "name": "ec50dc09d48d2c63a9605872a9d2d6eb", "rental_uris": {"ios": "https://dc.lft.to/lastmile_qr_scan", "android": "https://dc.lft.to/lastmile_qr_scan"}, "fusion_lon": 0.0, "lat": 38.9398875, "is_disabled": 0, "bike_id": "ec50dc09d48d2c63a9605872a9d2d6eb", "fusion_lat": 0.0, "is_reserved": 0, "lon": -77.03264166666666}, {"type": "electric_scooter", "name": "31a01b5c6252e3e12bcab781c8f3d9d3", "rental_uris": {"ios": "https://dc.lft.to/lastmile_qr_scan", "android": "https://dc.lft.to/lastmile_qr_scan"}, "fusion_lon": 0.0, "lat": 38.88764316666666, "is_disabled": 0, "bike_id": "31a01b5c6252e3e12bcab781c8f3d9d3", "fusion_lat": 0.0, "is_reserved": 0, "lon": -76.97748783333333}, {"type": "electric_bike", "name": "520ccd3e3b532fef1cbc6e346f5db4a1", "rental_uris": {"ios": "https://dc.lft.to/lastmile_qr_scan", "android": "https://dc.lft.to/lastmile_qr_scan"}, "fusion_lon": 0.0, "lat": 38.9846265, "is_disabled": 0, "bike_id": "520ccd3e3b532fef1cbc6e346f5db4a1", "fusion_lat": 0.0, "is_reserved": 0, "lon": -76.97057}, {"type": "electric_scooter", "name": "f5a9af2e34f3cc9ded9a8df12774e7d0", "rental_uris": {"ios": "https://dc.lft.to/lastmile_qr_scan", "android": "https://dc.lft.to/lastmile_qr_scan"}, "fusion_lon": 0.0, "lat": 38.906328333333335, "is_disabled": 0, "bike_id": "f5a9af2e34f3cc9ded9a8df12774e7d0", "fusion_lat": 0.0, "is_reserved": 0, "lon": -77.04141983333334}, {"type": "electric_scooter", "name": "10325944a21aefbbed5410eb3f6bb346", "rental_uris": {"ios": "https://dc.lft.to/lastmile_qr_scan", "android": "https://dc.lft.to/lastmile_qr_scan"}, "fusion_lon": 0.0, "lat": 38.92829483333333, "is_disabled": 0, "bike_id": "10325944a21aefbbed5410eb3f6bb346", "fusion_lat": 0.0, "is_reserved": 0, "lon": -77.05964966666667}, {"type": "electric_scooter", "name": "e3a950d0a2e55ca63e9ed1096f3c925c", "rental_uris": {"ios": "https://dc.lft.to/lastmile_qr_scan", "android": "https://dc.lft.to/lastmile_qr_scan"}, "fusion_lon": 0.0, "lat": 38.929629166666665, "is_disabled": 0, "bike_id": "e3a950d0a2e55ca63e9ed1096f3c925c", "fusion_lat": 0.0, "is_reserved": 0, "lon": -77.03188516666667}, {"type": "electric_scooter", "name": "b55efe84a27491560596f32e46776c23", "rental_uris": {"ios": "https://dc.lft.to/lastmile_qr_scan", "android": "https://dc.lft.to/lastmile_qr_scan"}, "fusion_lon": 0.0, "lat": 38.92442833333333, "is_disabled": 0, "bike_id": "b55efe84a27491560596f32e46776c23", "fusion_lat": 0.0, "is_reserved": 0, "lon": -77.03376083333333}, {"type": "electric_scooter", "name": "60cb340ee85b95c9e589b9cc12ec871c", "rental_uris": {"ios": "https://dc.lft.to/lastmile_qr_scan", "android": "https://dc.lft.to/lastmile_qr_scan"}, "fusion_lon": 0.0, "lat": 38.923008, "is_disabled": 0, "bike_id": "60cb340ee85b95c9e589b9cc12ec871c", "fusion_lat": 0.0, "is_reserved": 0, "lon": -77.04180533333333}, {"type": "electric_scooter", "name": "ee38534693fcad7d842b2bb8f8b92f57", "rental_uris": {"ios": "https://dc.lft.to/lastmile_qr_scan", "android": "https://dc.lft.to/lastmile_qr_scan"}, "fusion_lon": 0.0, "lat": 38.91419916666667, "is_disabled": 0, "bike_id": "ee38534693fcad7d842b2bb8f8b92f57", "fusion_lat": 0.0, "is_reserved": 0, "lon": -77.02201233333334}, {"type": "electric_scooter", "name": "f33103a5a0b077d3236ded8fc033c851", "rental_uris": {"ios": "https://dc.lft.to/lastmile_qr_scan", "android": "https://dc.lft.to/lastmile_qr_scan"}, "fusion_lon": 0.0, "lat": 38.93671283333333, "is_disabled": 0, "bike_id": "f33103a5a0b077d3236ded8fc033c851", "fusion_lat": 0.0, "is_reserved": 0, "lon": -77.03591016666667}, {"type": "electric_scooter", "name": "cbb6520df92d5256cefa126e9df9883b", "rental_uris": {"ios": "https://dc.lft.to/lastmile_qr_scan", "android": "https://dc.lft.to/lastmile_qr_scan"}, "fusion_lon": 0.0, "lat": 38.8221955, "is_disabled": 0, "bike_id": "cbb6520df92d5256cefa126e9df9883b", "fusion_lat": 0.0, "is_reserved": 0, "lon": -77.00185133333333}, {"type": "electric_bike", "name": "93b5a33486825e341314e49798913cff", "rental_uris": {"ios": "https://dc.lft.to/lastmile_qr_scan", "android": "https://dc.lft.to/lastmile_qr_scan"}, "fusion_lon": 0.0, "lat": 38.9516885, "is_disabled": 0, "bike_id": "93b5a33486825e341314e49798913cff", "fusion_lat": 0.0, "is_reserved": 0, "lon": -77.0316465}, {"type": "electric_scooter", "name": "1dcf589734224e3fa9e4f76441729b09", "rental_uris": {"ios": "https://dc.lft.to/lastmile_qr_scan", "android": "https://dc.lft.to/lastmile_qr_scan"}, "fusion_lon": 0.0, "lat": 38.91911566666667, "is_disabled": 0, "bike_id": "1dcf589734224e3fa9e4f76441729b09", "fusion_lat": 0.0, "is_reserved": 0, "lon": -77.031766}, {"type": "electric_scooter", "name": "e1631395c3c9905289c560489aefc1ac", "rental_uris": {"ios": "https://dc.lft.to/lastmile_qr_scan", "android": "https://dc.lft.to/lastmile_qr_scan"}, "fusion_lon": 0.0, "lat": 38.92377316666666, "is_disabled": 0, "bike_id": "e1631395c3c9905289c560489aefc1ac", "fusion_lat": 0.0, "is_reserved": 0, "lon": -77.03137116666667}, {"type": "electric_scooter", "name": "af4e89ce243507af57683e677b0fa726", "rental_uris": {"ios": "https://dc.lft.to/lastmile_qr_scan", "android": "https://dc.lft.to/lastmile_qr_scan"}, "fusion_lon": 0.0, "lat": 38.8998785, "is_disabled": 0, "bike_id": "af4e89ce243507af57683e677b0fa726", "fusion_lat": 0.0, "is_reserved": 0, "lon": -76.98434433333334}, {"type": "electric_bike", "name": "f66c03438646d630cc46c6ddb5ca8ba0", "rental_uris": {"ios": "https://dc.lft.to/lastmile_qr_scan", "android": "https://dc.lft.to/lastmile_qr_scan"}, "fusion_lon": 0.0, "lat": 38.994142333333336, "is_disabled": 0, "bike_id": "f66c03438646d630cc46c6ddb5ca8ba0", "fusion_lat": 0.0, "is_reserved": 0, "lon": -77.076988}, {"type": "electric_bike", "name": "ee02e1aa049d8fe188cfaacb25bcdad6", "rental_uris": {"ios": "https://dc.lft.to/lastmile_qr_scan", "android": "https://dc.lft.to/lastmile_qr_scan"}, "fusion_lon": 0.0, "lat": 39.036084333333335, "is_disabled": 0, "bike_id": "ee02e1aa049d8fe188cfaacb25bcdad6", "fusion_lat": 0.0, "is_reserved": 0, "lon": -77.05540933333333}, {"type": "electric_scooter", "name": "1d233a7964046ef1ea7068124afe01b4", "rental_uris": {"ios": "https://dc.lft.to/lastmile_qr_scan", "android": "https://dc.lft.to/lastmile_qr_scan"}, "fusion_lon": 0.0, "lat": 38.855980333333335, "is_disabled": 0, "bike_id": "1d233a7964046ef1ea7068124afe01b4", "fusion_lat": 0.0, "is_reserved": 0, "lon": -76.97266383333333}, {"type": "electric_scooter", "name": "86d3101a9bc4dd05e38c466a078ed5c8", "rental_uris": {"ios": "https://dc.lft.to/lastmile_qr_scan", "android": "https://dc.lft.to/lastmile_qr_scan"}, "fusion_lon": 0.0, "lat": 38.88135183333333, "is_disabled": 0, "bike_id": "86d3101a9bc4dd05e38c466a078ed5c8", "fusion_lat": 0.0, "is_reserved": 0, "lon": -77.02709283333333}, {"type": "electric_scooter", "name": "1d5fcdb529da6cddcbb293f403ed692e", "rental_uris": {"ios": "https://dc.lft.to/lastmile_qr_scan", "android": "https://dc.lft.to/lastmile_qr_scan"}, "fusion_lon": 0.0, "lat": 38.909792333333336, "is_disabled": 0, "bike_id": "1d5fcdb529da6cddcbb293f403ed692e", "fusion_lat": 0.0, "is_reserved": 0, "lon": -77.03446666666666}, {"type": "electric_scooter", "name": "3ae26b3842a3bd809c4217f7bb4b9b6b", "rental_uris": {"ios": "https://dc.lft.to/lastmile_qr_scan", "android": "https://dc.lft.to/lastmile_qr_scan"}, "fusion_lon": 0.0, "lat": 38.92264083333333, "is_disabled": 0, "bike_id": "3ae26b3842a3bd809c4217f7bb4b9b6b", "fusion_lat": 0.0, "is_reserved": 0, "lon": -77.03269083333333}, {"type": "electric_scooter", "name": "5fbac0f4fdbf77b987a0b1dd258ed87d", "rental_uris": {"ios": "https://dc.lft.to/lastmile_qr_scan", "android": "https://dc.lft.to/lastmile_qr_scan"}, "fusion_lon": 0.0, "lat": 38.900757166666665, "is_disabled": 0, "bike_id": "5fbac0f4fdbf77b987a0b1dd258ed87d", "fusion_lat": 0.0, "is_reserved": 0, "lon": -77.04610966666667}, {"type": "electric_scooter", "name": "5d816b6feac358b08192f3ab8df17b75", "rental_uris": {"ios": "https://dc.lft.to/lastmile_qr_scan", "android": "https://dc.lft.to/lastmile_qr_scan"}, "fusion_lon": 0.0, "lat": 38.89231383333333, "is_disabled": 0, "bike_id": "5d816b6feac358b08192f3ab8df17b75", "fusion_lat": 0.0, "is_reserved": 0, "lon": -77.048763}, {"type": "electric_scooter", "name": "3ad556b8152e9fafec159c690169539c", "rental_uris": {"ios": "https://dc.lft.to/lastmile_qr_scan", "android": "https://dc.lft.to/lastmile_qr_scan"}, "fusion_lon": 0.0, "lat": 38.90134, "is_disabled": 0, "bike_id": "3ad556b8152e9fafec159c690169539c", "fusion_lat": 0.0, "is_reserved": 0, "lon": -77.03478183333333}, {"type": "electric_scooter", "name": "4d6019299332a933a42979a7ed32ff98", "rental_uris": {"ios": "https://dc.lft.to/lastmile_qr_scan", "android": "https://dc.lft.to/lastmile_qr_scan"}, "fusion_lon": 0.0, "lat": 38.9020935, "is_disabled": 0, "bike_id": "4d6019299332a933a42979a7ed32ff98", "fusion_lat": 0.0, "is_reserved": 0, "lon": -77.0475835}, {"type": "electric_scooter", "name": "a67ffef68f9cbad4d2875ffa4655de24", "rental_uris": {"ios": "https://dc.lft.to/lastmile_qr_scan", "android": "https://dc.lft.to/lastmile_qr_scan"}, "fusion_lon": 0.0, "lat": 38.909764333333335, "is_disabled": 0, "bike_id": "a67ffef68f9cbad4d2875ffa4655de24", "fusion_lat": 0.0, "is_reserved": 0, "lon": -77.0344335}, {"type": "electric_scooter", "name": "c17a3b410390fe36451c46ba68a4df69", "rental_uris": {"ios": "https://dc.lft.to/lastmile_qr_scan", "android": "https://dc.lft.to/lastmile_qr_scan"}, "fusion_lon": 0.0, "lat": 38.898531166666665, "is_disabled": 0, "bike_id": "c17a3b410390fe36451c46ba68a4df69", "fusion_lat": 0.0, "is_reserved": 0, "lon": -77.02034466666667}, {"type": "electric_bike", "name": "ae3a75a11dd9d2cff7bb714bfdcb6359", "rental_uris": {"ios": "https://dc.lft.to/lastmile_qr_scan", "android": "https://dc.lft.to/lastmile_qr_scan"}, "fusion_lon": 0.0, "lat": 38.99094183333333, "is_disabled": 0, "bike_id": "ae3a75a11dd9d2cff7bb714bfdcb6359", "fusion_lat": 0.0, "is_reserved": 0, "lon": -76.99374866666666}, {"type": "electric_bike", "name": "c08734f8680235f255daae0e5773b8bf", "rental_uris": {"ios": "https://dc.lft.to/lastmile_qr_scan", "android": "https://dc.lft.to/lastmile_qr_scan"}, "fusion_lon": 0.0, "lat": 38.89897233333333, "is_disabled": 0, "bike_id": "c08734f8680235f255daae0e5773b8bf", "fusion_lat": 0.0, "is_reserved": 0, "lon": -77.09619116666667}, {"type": "electric_scooter", "name": "0648deecc100f7df3a8c6340ecd34f01", "rental_uris": {"ios": "https://dc.lft.to/lastmile_qr_scan", "android": "https://dc.lft.to/lastmile_qr_scan"}, "fusion_lon": 0.0, "lat": 38.89979266666667, "is_disabled": 0, "bike_id": "0648deecc100f7df3a8c6340ecd34f01", "fusion_lat": 0.0, "is_reserved": 0, "lon": -76.99484133333333}, {"type": "electric_scooter", "name": "8f57dca46aed6ae168149f063b9da976", "rental_uris": {"ios": "https://dc.lft.to/lastmile_qr_scan", "android": "https://dc.lft.to/lastmile_qr_scan"}, "fusion_lon": 0.0, "lat": 38.907977, "is_disabled": 0, "bike_id": "8f57dca46aed6ae168149f063b9da976", "fusion_lat": 0.0, "is_reserved": 0, "lon": -77.04339383333334}, {"type": "electric_scooter", "name": "0085cf22ace79e4416ddcb336c497539", "rental_uris": {"ios": "https://dc.lft.to/lastmile_qr_scan", "android": "https://dc.lft.to/lastmile_qr_scan"}, "fusion_lon": 0.0, "lat": 38.92672366666667, "is_disabled": 0, "bike_id": "0085cf22ace79e4416ddcb336c497539", "fusion_lat": 0.0, "is_reserved": 0, "lon": -77.01508366666667}, {"type": "electric_scooter", "name": "2bbae853596d5dc7e570d1603346b796", "rental_uris": {"ios": "https://dc.lft.to/lastmile_qr_scan", "android": "https://dc.lft.to/lastmile_qr_scan"}, "fusion_lon": 0.0, "lat": 38.9206195, "is_disabled": 0, "bike_id": "2bbae853596d5dc7e570d1603346b796", "fusion_lat": 0.0, "is_reserved": 0, "lon": -76.98193583333334}, {"type": "electric_scooter", "name": "e3a435b002f1eb6998e230239d2d04f5", "rental_uris": {"ios": "https://dc.lft.to/lastmile_qr_scan", "android": "https://dc.lft.to/lastmile_qr_scan"}, "fusion_lon": 0.0, "lat": 38.92300633333333, "is_disabled": 0, "bike_id": "e3a435b002f1eb6998e230239d2d04f5", "fusion_lat": 0.0, "is_reserved": 0, "lon": -77.02442533333334}, {"type": "electric_scooter", "name": "534f62dee6b0c01ca4e0347d6c09b662", "rental_uris": {"ios": "https://dc.lft.to/lastmile_qr_scan", "android": "https://dc.lft.to/lastmile_qr_scan"}, "fusion_lon": 0.0, "lat": 38.901015666666666, "is_disabled": 0, "bike_id": "534f62dee6b0c01ca4e0347d6c09b662", "fusion_lat": 0.0, "is_reserved": 0, "lon": -77.01773233333333}, {"type": "electric_scooter", "name": "ca8121593de45961a6b105a1d54e7d9c", "rental_uris": {"ios": "https://dc.lft.to/lastmile_qr_scan", "android": "https://dc.lft.to/lastmile_qr_scan"}, "fusion_lon": 0.0, "lat": 38.908558, "is_disabled": 0, "bike_id": "ca8121593de45961a6b105a1d54e7d9c", "fusion_lat": 0.0, "is_reserved": 0, "lon": -76.99798483333333}, {"type": "electric_scooter", "name": "e2ca95745adfd79021c4e8375f8e7101", "rental_uris": {"ios": "https://dc.lft.to/lastmile_qr_scan", "android": "https://dc.lft.to/lastmile_qr_scan"}, "fusion_lon": 0.0, "lat": 38.866794666666664, "is_disabled": 0, "bike_id": "e2ca95745adfd79021c4e8375f8e7101", "fusion_lat": 0.0, "is_reserved": 0, "lon": -76.9856585}, {"type": "electric_scooter", "name": "53625aefd9064d6b018326355f5104dd", "rental_uris": {"ios": "https://dc.lft.to/lastmile_qr_scan", "android": "https://dc.lft.to/lastmile_qr_scan"}, "fusion_lon": 0.0, "lat": 38.8931705, "is_disabled": 0, "bike_id": "53625aefd9064d6b018326355f5104dd", "fusion_lat": 0.0, "is_reserved": 0, "lon": -77.0222845}, {"type": "electric_scooter", "name": "a7702b203787285c344650209cccef1f", "rental_uris": {"ios": "https://dc.lft.to/lastmile_qr_scan", "android": "https://dc.lft.to/lastmile_qr_scan"}, "fusion_lon": 0.0, "lat": 38.923612166666665, "is_disabled": 0, "bike_id": "a7702b203787285c344650209cccef1f", "fusion_lat": 0.0, "is_reserved": 0, "lon": -77.0502665}, {"type": "electric_scooter", "name": "bf7e342c14452fe2ffe26879e6bdc4dd", "rental_uris": {"ios": "https://dc.lft.to/lastmile_qr_scan", "android": "https://dc.lft.to/lastmile_qr_scan"}, "fusion_lon": 0.0, "lat": 38.87687, "is_disabled": 0, "bike_id": "bf7e342c14452fe2ffe26879e6bdc4dd", "fusion_lat": 0.0, "is_reserved": 0, "lon": -77.00414}, {"type": "electric_scooter", "name": "cccac60313380518015232251d587b46", "rental_uris": {"ios": "https://dc.lft.to/lastmile_qr_scan", "android": "https://dc.lft.to/lastmile_qr_scan"}, "fusion_lon": 0.0, "lat": 38.924716333333336, "is_disabled": 0, "bike_id": "cccac60313380518015232251d587b46", "fusion_lat": 0.0, "is_reserved": 0, "lon": -76.99021516666667}, {"type": "electric_bike", "name": "b02ab3616267d9bb4b3dae2aa0b6757b", "rental_uris": {"ios": "https://dc.lft.to/lastmile_qr_scan", "android": "https://dc.lft.to/lastmile_qr_scan"}, "fusion_lon": 0.0, "lat": 38.961952, "is_disabled": 0, "bike_id": "b02ab3616267d9bb4b3dae2aa0b6757b", "fusion_lat": 0.0, "is_reserved": 0, "lon": -77.00081816666666}, {"type": "electric_scooter", "name": "4bb9ccd98f43e7ae03a84ceac400f46b", "rental_uris": {"ios": "https://dc.lft.to/lastmile_qr_scan", "android": "https://dc.lft.to/lastmile_qr_scan"}, "fusion_lon": 0.0, "lat": 38.899441333333336, "is_disabled": 0, "bike_id": "4bb9ccd98f43e7ae03a84ceac400f46b", "fusion_lat": 0.0, "is_reserved": 0, "lon": -76.981624}, {"type": "electric_scooter", "name": "f168464737f851e9d9835dcecc8752b0", "rental_uris": {"ios": "https://dc.lft.to/lastmile_qr_scan", "android": "https://dc.lft.to/lastmile_qr_scan"}, "fusion_lon": 0.0, "lat": 38.887196, "is_disabled": 0, "bike_id": "f168464737f851e9d9835dcecc8752b0", "fusion_lat": 0.0, "is_reserved": 0, "lon": -76.99686066666666}, {"type": "electric_scooter", "name": "f4977987ed7b928ba1412d88105e2daa", "rental_uris": {"ios": "https://dc.lft.to/lastmile_qr_scan", "android": "https://dc.lft.to/lastmile_qr_scan"},