{"data": {"bikes": [{"lon": -77.05087516666667, "lat": 38.813337833333335, "name": "701ce251a75a726e8da027ac77d42727", "fusion_lat": 0.0, "fusion_lon": 0.0, "rental_uris": {"android": "https://dc.lft.to/lastmile_qr_scan", "ios": "https://dc.lft.to/lastmile_qr_scan"}, "is_reserved": 0, "is_disabled": 0, "type": "electric_bike", "bike_id": "701ce251a75a726e8da027ac77d42727"}, {"lon": -77.00859533333333, "lat": 38.86946533333333, "name": "f65329021a688cd9aa21c8e92e4b12e7", "fusion_lat": 0.0, "fusion_lon": 0.0, "rental_uris": {"android": "https://dc.lft.to/lastmile_qr_scan", "ios": "https://dc.lft.to/lastmile_qr_scan"}, "is_reserved": 0, "is_disabled": 0, "type": "electric_scooter", "bike_id": "f65329021a688cd9aa21c8e92e4b12e7"}, {"lon": -77.000902, "lat": 38.873803, "name": "e5953546c404747efcddfc28b7bb7755", "fusion_lat": 0.0, "fusion_lon": 0.0, "rental_uris": {"android": "https://dc.lft.to/lastmile_qr_scan", "ios": "https://dc.lft.to/lastmile_qr_scan"}, "is_reserved": 0, "is_disabled": 0, "type": "electric_scooter", "bike_id": "e5953546c404747efcddfc28b7bb7755"}, {"lon": -77.047867, "lat": 38.905237666666665, "name": "1e92e2de0da250e83751da9717442aec", "fusion_lat": 0.0, "fusion_lon": 0.0, "rental_uris": {"android": "https://dc.lft.to/lastmile_qr_scan", "ios": "https://dc.lft.to/lastmile_qr_scan"}, "is_reserved": 0, "is_disabled": 0, "type": "electric_scooter", "bike_id": "1e92e2de0da250e83751da9717442aec"}, {"lon": -77.0370335, "lat": 38.916623333333334, "name": "5cf0adeb61c8cd2d5dbd5f036dcf2d28", "fusion_lat": 0.0, "fusion_lon": 0.0, "rental_uris": {"android": "https://dc.lft.to/lastmile_qr_scan", "ios": "https://dc.lft.to/lastmile_qr_scan"}, "is_reserved": 0, "is_disabled": 0, "type": "electric_scooter", "bike_id": "5cf0adeb61c8cd2d5dbd5f036dcf2d28"}, {"lon": -77.079001, "lat": 38.83933616666667, "name": "a57cf2ac06258c79e25e064d3ce45fd3", "fusion_lat": 0.0, "fusion_lon": 0.0, "rental_uris": {"android": "https://dc.lft.to/lastmile_qr_scan", "ios": "https://dc.lft.to/lastmile_qr_scan"}, "is_reserved": 0, "is_disabled": 0, "type": "electric_bike", "bike_id": "a57cf2ac06258c79e25e064d3ce45fd3"}, {"lon": -77.02901583333333, "lat": 38.88424633333333, "name": "4c06b5f1613a78ab09fbc33674a74403", "fusion_lat": 0.0, "fusion_lon": 0.0, "rental_uris": {"android": "https://dc.lft.to/lastmile_qr_scan", "ios": "https://dc.lft.to/lastmile_qr_scan"}, "is_reserved": 0, "is_disabled": 0, "type": "electric_scooter", "bike_id": "4c06b5f1613a78ab09fbc33674a74403"}, {"lon": -77.01534366666667, "lat": 38.887398833333336, "name": "f09fbcbcd50dd1350aaebceb3c0b359f", "fusion_lat": 0.0, "fusion_lon": 0.0, "rental_uris": {"android": "https://dc.lft.to/lastmile_qr_scan", "ios": "https://dc.lft.to/lastmile_qr_scan"}, "is_reserved": 0, "is_disabled": 0, "type": "electric_scooter", "bike_id": "f09fbcbcd50dd1350aaebceb3c0b359f"}, {"lon": -77.027822, "lat": 38.9182185, "name": "853272b26e7f6bb77c6efde72cf02c10", "fusion_lat": 0.0, "fusion_lon": 0.0, "rental_uris": {"android": "https://dc.lft.to/lastmile_qr_scan", "ios": "https://dc.lft.to/lastmile_qr_scan"}, "is_reserved": 0, "is_disabled": 0, "type": "electric_scooter", "bike_id": "853272b26e7f6bb77c6efde72cf02c10"}, {"lon": -77.1141695, "lat": 38.842866666666666, "name": "257ecd3260144a2a59a75f4326682db0", "fusion_lat": 0.0, "fusion_lon": 0.0, "rental_uris": {"android": "https://dc.lft.to/lastmile_qr_scan", "ios": "https://dc.lft.to/lastmile_qr_scan"}, "is_reserved": 0, "is_disabled": 0, "type": "electric_bike", "bike_id": "257ecd3260144a2a59a75f4326682db0"}, {"lon": -77.01356483333333, "lat": 38.9141245, "name": "b3e0432906f51eb4686ca573cf1dfad7", "fusion_lat": 0.0, "fusion_lon": 0.0, "rental_uris": {"android": "https://dc.lft.to/lastmile_qr_scan", "ios": "https://dc.lft.to/lastmile_qr_scan"}, "is_reserved": 0, "is_disabled": 0, "type": "electric_scooter", "bike_id": "b3e0432906f51eb4686ca573cf1dfad7"}, {"lon": -77.021943, "lat": 38.91886566666667, "name": "6651825b87f5b3e55dd56dc6ad2b5067", "fusion_lat": 0.0, "fusion_lon": 0.0, "rental_uris": {"android": "https://dc.lft.to/lastmile_qr_scan", "ios": "https://dc.lft.to/lastmile_qr_scan"}, "is_reserved": 0, "is_disabled": 0, "type": "electric_scooter", "bike_id": "6651825b87f5b3e55dd56dc6ad2b5067"}, {"lon": -77.12508, "lat": 39.024229166666665, "name": "2746b96fe7b37ae8a72d7c80eb02773b", "fusion_lat": 0.0, "fusion_lon": 0.0, "rental_uris": {"android": "https://dc.lft.to/lastmile_qr_scan", "ios": "https://dc.lft.to/lastmile_qr_scan"}, "is_reserved": 0, "is_disabled": 0, "type": "electric_bike", "bike_id": "2746b96fe7b37ae8a72d7c80eb02773b"}, {"lon": -77.07163516666667, "lat": 38.958413, "name": "22eeb9ad3fcb175723dbdab69fc3de84", "fusion_lat": 0.0, "fusion_lon": 0.0, "rental_uris": {"android": "https://dc.lft.to/lastmile_qr_scan", "ios": "https://dc.lft.to/lastmile_qr_scan"}, "is_reserved": 0, "is_disabled": 0, "type": "electric_scooter", "bike_id": "22eeb9ad3fcb175723dbdab69fc3de84"}, {"lon": -77.04672066666667, "lat": 38.90740366666667, "name": "960ecf8e20b70f7d0a250013e8033543", "fusion_lat": 0.0, "fusion_lon": 0.0, "rental_uris": {"android": "https://dc.lft.to/lastmile_qr_scan", "ios": "https://dc.lft.to/lastmile_qr_scan"}, "is_reserved": 0, "is_disabled": 0, "type": "electric_scooter", "bike_id": "960ecf8e20b70f7d0a250013e8033543"}, {"lon": -77.0169125, "lat": 38.901277666666665, "name": "f9fb4403a5489d612083cae1da896f35", "fusion_lat": 0.0, "fusion_lon": 0.0, "rental_uris": {"android": "https://dc.lft.to/lastmile_qr_scan", "ios": "https://dc.lft.to/lastmile_qr_scan"}, "is_reserved": 0, "is_disabled": 0, "type": "electric_scooter", "bike_id": "f9fb4403a5489d612083cae1da896f35"}, {"lon": -77.003367, "lat": 38.89357716666667, "name": "94967f17e9faa29dffd10136060388e7", "fusion_lat": 0.0, "fusion_lon": 0.0, "rental_uris": {"android": "https://dc.lft.to/lastmile_qr_scan", "ios": "https://dc.lft.to/lastmile_qr_scan"}, "is_reserved": 0, "is_disabled": 0, "type": "electric_scooter", "bike_id": "94967f17e9faa29dffd10136060388e7"}, {"lon": -77.027381, "lat": 38.90155683333333, "name": "444a051bfd6faee8227d48f636e15862", "fusion_lat": 0.0, "fusion_lon": 0.0, "rental_uris": {"android": "https://dc.lft.to/lastmile_qr_scan", "ios": "https://dc.lft.to/lastmile_qr_scan"}, "is_reserved": 0, "is_disabled": 0, "type": "electric_scooter", "bike_id": "444a051bfd6faee8227d48f636e15862"}, {"lon": -77.00291716666666, "lat": 38.89202783333333, "name": "a36e446c99b922bdfa650493f264608f", "fusion_lat": 0.0, "fusion_lon": 0.0, "rental_uris": {"android": "https://dc.lft.to/lastmile_qr_scan", "ios": "https://dc.lft.to/lastmile_qr_scan"}, "is_reserved": 0, "is_disabled": 0, "type": "electric_scooter", "bike_id": "a36e446c99b922bdfa650493f264608f"}, {"lon": -77.0130555, "lat": 38.89739483333334, "name": "054ff78a2dc947ff3281d0b291804893", "fusion_lat": 0.0, "fusion_lon": 0.0, "rental_uris": {"android": "https://dc.lft.to/lastmile_qr_scan", "ios": "https://dc.lft.to/lastmile_qr_scan"}, "is_reserved": 0, "is_disabled": 0, "type": "electric_scooter", "bike_id": "054ff78a2dc947ff3281d0b291804893"}, {"lon": -77.04463316666667, "lat": 38.8974525, "name": "7c6ba699054bfa05171db07d0ce16ffd", "fusion_lat": 0.0, "fusion_lon": 0.0, "rental_uris": {"android": "https://dc.lft.to/lastmile_qr_scan", "ios": "https://dc.lft.to/lastmile_qr_scan"}, "is_reserved": 0, "is_disabled": 0, "type": "electric_bike", "bike_id": "7c6ba699054bfa05171db07d0ce16ffd"}, {"lon": -77.023299, "lat": 38.91986583333333, "name": "d766efafcc89b736451c2053482a8fbf", "fusion_lat": 0.0, "fusion_lon": 0.0, "rental_uris": {"android": "https://dc.lft.to/lastmile_qr_scan", "ios": "https://dc.lft.to/lastmile_qr_scan"}, "is_reserved": 0, "is_disabled": 0, "type": "electric_scooter", "bike_id": "d766efafcc89b736451c2053482a8fbf"}, {"lon": -77.0435615, "lat": 38.8966945, "name": "2a039c4b4cf54bef0e460c494e7045fd", "fusion_lat": 0.0, "fusion_lon": 0.0, "rental_uris": {"android": "https://dc.lft.to/lastmile_qr_scan", "ios": "https://dc.lft.to/lastmile_qr_scan"}, "is_reserved": 0, "is_disabled": 0, "type": "electric_scooter", "bike_id": "2a039c4b4cf54bef0e460c494e7045fd"}, {"lon": -77.03656866666667, "lat": 38.936029, "name": "9bf58fedd128fc15ac97f04252c137f8", "fusion_lat": 0.0, "fusion_lon": 0.0, "rental_uris": {"android": "https://dc.lft.to/lastmile_qr_scan", "ios": "https://dc.lft.to/lastmile_qr_scan"}, "is_reserved": 0, "is_disabled": 0, "type": "electric_scooter", "bike_id": "9bf58fedd128fc15ac97f04252c137f8"}, {"lon": -77.05181766666666, "lat": 38.9242815, "name": "faf20d303912a66e5aa646547ff61729", "fusion_lat": 0.0, "fusion_lon": 0.0, "rental_uris": {"android": "https://dc.lft.to/lastmile_qr_scan", "ios": "https://dc.lft.to/lastmile_qr_scan"}, "is_reserved": 0, "is_disabled": 0, "type": "electric_scooter", "bike_id": "faf20d303912a66e5aa646547ff61729"}, {"lon": -77.002319, "lat": 38.90049833333333, "name": "9e3603143492524de82bb71daa2562a4", "fusion_lat": 0.0, "fusion_lon": 0.0, "rental_uris": {"android": "https://dc.lft.to/lastmile_qr_scan", "ios": "https://dc.lft.to/lastmile_qr_scan"}, "is_reserved": 0, "is_disabled": 0, "type": "electric_bike", "bike_id": "9e3603143492524de82bb71daa2562a4"}, {"lon": -77.03832533333333, "lat": 38.911936833333336, "name": "4cc221fb06259fa2aa518e275cd821c5", "fusion_lat": 0.0, "fusion_lon": 0.0, "rental_uris": {"android": "https://dc.lft.to/lastmile_qr_scan", "ios": "https://dc.lft.to/lastmile_qr_scan"}, "is_reserved": 0, "is_disabled": 0, "type": "electric_scooter", "bike_id": "4cc221fb06259fa2aa518e275cd821c5"}, {"lon": -76.99952283333333, "lat": 38.90868283333333, "name": "3f4529ef3305bfdd638a17a1c7048324", "fusion_lat": 0.0, "fusion_lon": 0.0, "rental_uris": {"android": "https://dc.lft.to/lastmile_qr_scan", "ios": "https://dc.lft.to/lastmile_qr_scan"}, "is_reserved": 0, "is_disabled": 0, "type": "electric_scooter", "bike_id": "3f4529ef3305bfdd638a17a1c7048324"}, {"lon": -77.032331, "lat": 38.9148105, "name": "ca2cf68926f5190bf9917672aa1e5122", "fusion_lat": 0.0, "fusion_lon": 0.0, "rental_uris": {"android": "https://dc.lft.to/lastmile_qr_scan", "ios": "https://dc.lft.to/lastmile_qr_scan"}, "is_reserved": 0, "is_disabled": 0, "type": "electric_scooter", "bike_id": "ca2cf68926f5190bf9917672aa1e5122"}, {"lon": -77.00449666666667, "lat": 38.876731166666666, "name": "29995a1814a0b8eccbd71bc1ad4e074f", "fusion_lat": 0.0, "fusion_lon": 0.0, "rental_uris": {"android": "https://dc.lft.to/lastmile_qr_scan", "ios": "https://dc.lft.to/lastmile_qr_scan"}, "is_reserved": 0, "is_disabled": 0, "type": "electric_scooter", "bike_id": "29995a1814a0b8eccbd71bc1ad4e074f"}, {"lon": -76.98535333333334, "lat": 38.883894, "name": "64430982398cc97530723cecc8b2bb02", "fusion_lat": 0.0, "fusion_lon": 0.0, "rental_uris": {"android": "https://dc.lft.to/lastmile_qr_scan", "ios": "https://dc.lft.to/lastmile_qr_scan"}, "is_reserved": 0, "is_disabled": 0, "type": "electric_scooter", "bike_id": "64430982398cc97530723cecc8b2bb02"}, {"lon": -76.9982345, "lat": 38.888691333333334, "name": "83276d8347577853b39311889ab6950f", "fusion_lat": 0.0, "fusion_lon": 0.0, "rental_uris": {"android": "https://dc.lft.to/lastmile_qr_scan", "ios": "https://dc.lft.to/lastmile_qr_scan"}, "is_reserved": 0, "is_disabled": 0, "type": "electric_scooter", "bike_id": "83276d8347577853b39311889ab6950f"}, {"lon": -77.0330685, "lat": 38.89646716666667, "name": "ffc1865b8b555b458321b66512dd7311", "fusion_lat": 0.0, "fusion_lon": 0.0, "rental_uris": {"android": "https://dc.lft.to/lastmile_qr_scan", "ios": "https://dc.lft.to/lastmile_qr_scan"}, "is_reserved": 0, "is_disabled": 0, "type": "electric_scooter", "bike_id": "ffc1865b8b555b458321b66512dd7311"}, {"lon": -77.13229833333334, "lat": 38.86975266666666, "name": "9201796be259db1d91df4a001ce9062b", "fusion_lat": 0.0, "fusion_lon": 0.0, "rental_uris": {"android": "https://dc.lft.to/lastmile_qr_scan", "ios": "https://dc.lft.to/lastmile_qr_scan"}, "is_reserved": 0, "is_disabled": 0, "type": "electric_bike", "bike_id": "9201796be259db1d91df4a001ce9062b"}, {"lon": -77.01881466666667, "lat": 38.911966666666665, "name": "2645ba01323dabc3fbec9edc8867565d", "fusion_lat": 0.0, "fusion_lon": 0.0, "rental_uris": {"android": "https://dc.lft.to/lastmile_qr_scan", "ios": "https://dc.lft.to/lastmile_qr_scan"}, "is_reserved": 0, "is_disabled": 0, "type": "electric_scooter", "bike_id": "2645ba01323dabc3fbec9edc8867565d"}, {"lon": -77.00280833333333, "lat": 38.9055815, "name": "fcca8a387ae4d22a7a1ba70ad8086490", "fusion_lat": 0.0, "fusion_lon": 0.0, "rental_uris": {"android": "https://dc.lft.to/lastmile_qr_scan", "ios": "https://dc.lft.to/lastmile_qr_scan"}, "is_reserved": 0, "is_disabled": 0, "type": "electric_scooter", "bike_id": "fcca8a387ae4d22a7a1ba70ad8086490"}, {"lon": -77.036566, "lat": 38.92283316666666, "name": "20b3bb1ed639c21ff587aaeaf918b939", "fusion_lat": 0.0, "fusion_lon": 0.0, "rental_uris": {"android": "https://dc.lft.to/lastmile_qr_scan", "ios": "https://dc.lft.to/lastmile_qr_scan"}, "is_reserved": 0, "is_disabled": 0, "type": "electric_scooter", "bike_id": "20b3bb1ed639c21ff587aaeaf918b939"}, {"lon": -77.027422, "lat": 38.92852966666667, "name": "41931ce33ab6c6ee60e7994c077e0046", "fusion_lat": 0.0, "fusion_lon": 0.0, "rental_uris": {"android": "https://dc.lft.to/lastmile_qr_scan", "ios": "https://dc.lft.to/lastmile_qr_scan"}, "is_reserved": 0, "is_disabled": 0, "type": "electric_scooter", "bike_id": "41931ce33ab6c6ee60e7994c077e0046"}, {"lon": -76.9475765, "lat": 38.90054716666667, "name": "a644a8a52f97d454fbae24cdda13eb5d", "fusion_lat": 0.0, "fusion_lon": 0.0, "rental_uris": {"android": "https://dc.lft.to/lastmile_qr_scan", "ios": "https://dc.lft.to/lastmile_qr_scan"}, "is_reserved": 0, "is_disabled": 0, "type": "electric_scooter", "bike_id": "a644a8a52f97d454fbae24cdda13eb5d"}, {"lon": -76.99630716666667, "lat": 38.846224, "name": "f31c5d4514727c9ba4c796b901f1cef0", "fusion_lat": 0.0, "fusion_lon": 0.0, "rental_uris": {"android": "https://dc.lft.to/lastmile_qr_scan", "ios": "https://dc.lft.to/lastmile_qr_scan"}, "is_reserved": 0, "is_disabled": 0, "type": "electric_scooter", "bike_id": "f31c5d4514727c9ba4c796b901f1cef0"}, {"lon": -76.9987405, "lat": 38.900336833333334, "name": "dcfed14fafc48e5bab6ea54a5507d956", "fusion_lat": 0.0, "fusion_lon": 0.0, "rental_uris": {"android": "https://dc.lft.to/lastmile_qr_scan", "ios": "https://dc.lft.to/lastmile_qr_scan"}, "is_reserved": 0, "is_disabled": 0, "type": "electric_scooter", "bike_id": "dcfed14fafc48e5bab6ea54a5507d956"}, {"lon": -77.01968066666667, "lat": 38.901278833333336, "name": "13d24adc6a730d050386aac5c8eeeb38", "fusion_lat": 0.0, "fusion_lon": 0.0, "rental_uris": {"android": "https://dc.lft.to/lastmile_qr_scan", "ios": "https://dc.lft.to/lastmile_qr_scan"}, "is_reserved": 0, "is_disabled": 0, "type": "electric_scooter", "bike_id": "13d24adc6a730d050386aac5c8eeeb38"}, {"lon": -77.02464383333333, "lat": 38.938609666666665, "name": "1a0215782948d1088b2b776c4e8671d6", "fusion_lat": 0.0, "fusion_lon": 0.0, "rental_uris": {"android": "https://dc.lft.to/lastmile_qr_scan", "ios": "https://dc.lft.to/lastmile_qr_scan"}, "is_reserved": 0, "is_disabled": 0, "type": "electric_scooter", "bike_id": "1a0215782948d1088b2b776c4e8671d6"}, {"lon": -77.030739, "lat": 38.9225385, "name": "1d91c48086fe319902327dc489739d8a", "fusion_lat": 0.0, "fusion_lon": 0.0, "rental_uris": {"android": "https://dc.lft.to/lastmile_qr_scan", "ios": "https://dc.lft.to/lastmile_qr_scan"}, "is_reserved": 0, "is_disabled": 0, "type": "electric_scooter", "bike_id": "1d91c48086fe319902327dc489739d8a"}, {"lon": -77.003432, "lat": 38.88623316666666, "name": "6c9da3e7a069a7ccfa28136bad129df7", "fusion_lat": 0.0, "fusion_lon": 0.0, "rental_uris": {"android": "https://dc.lft.to/lastmile_qr_scan", "ios": "https://dc.lft.to/lastmile_qr_scan"}, "is_reserved": 0, "is_disabled": 0, "type": "electric_scooter", "bike_id": "6c9da3e7a069a7ccfa28136bad129df7"}, {"lon": -76.99018516666666, "lat": 38.861123666666664, "name": "48dbafed1d094bebd58cf8cff23fbf65", "fusion_lat": 0.0, "fusion_lon": 0.0, "rental_uris": {"android": "https://dc.lft.to/lastmile_qr_scan", "ios": "https://dc.lft.to/lastmile_qr_scan"}, "is_reserved": 0, "is_disabled": 0, "type": "electric_scooter", "bike_id": "48dbafed1d094bebd58cf8cff23fbf65"}, {"lon": -77.02303616666667, "lat": 38.96562, "name": "e95b4eea7b1b3f5f05e7d615f21473f0", "fusion_lat": 0.0, "fusion_lon": 0.0, "rental_uris": {"android": "https://dc.lft.to/lastmile_qr_scan", "ios": "https://dc.lft.to/lastmile_qr_scan"}, "is_reserved": 0, "is_disabled": 0, "type": "electric_bike", "bike_id": "e95b4eea7b1b3f5f05e7d615f21473f0"}, {"lon": -77.02376666666666, "lat": 38.907452666666664, "name": "0a976eea4adbd9faa07b1d5999cf54f9", "fusion_lat": 0.0, "fusion_lon": 0.0, "rental_uris": {"android": "https://dc.lft.to/lastmile_qr_scan", "ios": "https://dc.lft.to/lastmile_qr_scan"}, "is_reserved": 0, "is_disabled": 0, "type": "electric_scooter", "bike_id": "0a976eea4adbd9faa07b1d5999cf54f9"}, {"lon": -77.01764633333333, "lat": 38.902632833333335, "name": "36c75f86ada85a2b87a74aa8d0b793b8", "fusion_lat": 0.0, "fusion_lon": 0.0, "rental_uris": {"android": "https://dc.lft.to/lastmile_qr_scan", "ios": "https://dc.lft.to/lastmile_qr_scan"}, "is_reserved": 0, "is_disabled": 0, "type": "electric_scooter", "bike_id": "36c75f86ada85a2b87a74aa8d0b793b8"}, {"lon": -77.04521383333334, "lat": 38.907806666666666, "name": "125dda6d09d2316d6cdddec2ad504a99", "fusion_lat": 0.0, "fusion_lon": 0.0, "rental_uris": {"android": "https://dc.lft.to/lastmile_qr_scan", "ios": "https://dc.lft.to/lastmile_qr_scan"}, "is_reserved": 0, "is_disabled": 0, "type": "electric_scooter", "bike_id": "125dda6d09d2316d6cdddec2ad504a99"}, {"lon": -77.02173166666667, "lat": 38.88752566666667, "name": "507454aba66f70d1f23ddf5cbbe6c362", "fusion_lat": 0.0, "fusion_lon": 0.0, "rental_uris": {"android": "https://dc.lft.to/lastmile_qr_scan", "ios": "https://dc.lft.to/lastmile_qr_scan"}, "is_reserved": 0, "is_disabled": 0, "type": "electric_scooter", "bike_id": "507454aba66f70d1f23ddf5cbbe6c362"}, {"lon": -76.98560166666667, "lat": 38.85584716666666, "name": "3da132f21fea6cddcdebdefd8b598fd8", "fusion_lat": 0.0, "fusion_lon": 0.0, "rental_uris": {"android": "https://dc.lft.to/lastmile_qr_scan", "ios": "https://dc.lft.to/lastmile_qr_scan"}, "is_reserved": 0, "is_disabled": 0, "type": "electric_scooter", "bike_id": "3da132f21fea6cddcdebdefd8b598fd8"}, {"lon": -77.00375833333334, "lat": 38.8878635, "name": "7b575bfaa4a2634e2d30cbbba514adae", "fusion_lat": 0.0, "fusion_lon": 0.0, "rental_uris": {"android": "https://dc.lft.to/lastmile_qr_scan", "ios": "https://dc.lft.to/lastmile_qr_scan"}, "is_reserved": 0, "is_disabled": 0, "type": "electric_scooter", "bike_id": "7b575bfaa4a2634e2d30cbbba514adae"}, {"lon": -77.03211883333333, "lat": 38.917176166666664, "name": "862334e803c8f614dcf075e143f94a77", "fusion_lat": 0.0, "fusion_lon": 0.0, "rental_uris": {"android": "https://dc.lft.to/lastmile_qr_scan", "ios": "https://dc.lft.to/lastmile_qr_scan"}, "is_reserved": 0, "is_disabled": 0, "type": "electric_scooter", "bike_id": "862334e803c8f614dcf075e143f94a77"}, {"lon": -77.0513665, "lat": 38.90580333333333, "name": "2e401870bcc12891ace2555826f2ca15", "fusion_lat": 0.0, "fusion_lon": 0.0, "rental_uris": {"android": "https://dc.lft.to/lastmile_qr_scan", "ios": "https://dc.lft.to/lastmile_qr_scan"}, "is_reserved": 0, "is_disabled": 0, "type": "electric_scooter", "bike_id": "2e401870bcc12891ace2555826f2ca15"}, {"lon": -77.01947916666667, "lat": 38.9241975, "name": "206c01088e9345da8d1ba984502a8cea", "fusion_lat": 0.0, "fusion_lon": 0.0, "rental_uris": {"android": "https://dc.lft.to/lastmile_qr_scan", "ios": "https://dc.lft.to/lastmile_qr_scan"}, "is_reserved": 0, "is_disabled": 0, "type": "electric_scooter", "bike_id": "206c01088e9345da8d1ba984502a8cea"}, {"lon": -77.03472466666666, "lat": 38.908713, "name": "7419fbbef4ee3d7bd66a488887379ca7", "fusion_lat": 0.0, "fusion_lon": 0.0, "rental_uris": {"android": "https://dc.lft.to/lastmile_qr_scan", "ios": "https://dc.lft.to/lastmile_qr_scan"}, "is_reserved": 0, "is_disabled": 0, "type": "electric_scooter", "bike_id": "7419fbbef4ee3d7bd66a488887379ca7"}, {"lon": -77.02603816666667, "lat": 38.900533, "name": "df7b212a4423732f1f0679171253bc17", "fusion_lat": 0.0, "fusion_lon": 0.0, "rental_uris": {"android": "https://dc.lft.to/lastmile_qr_scan", "ios": "https://dc.lft.to/lastmile_qr_scan"}, "is_reserved": 0, "is_disabled": 0, "type": "electric_scooter", "bike_id": "df7b212a4423732f1f0679171253bc17"}, {"lon": -77.0228595, "lat": 38.9164055, "name": "811ea6067897f8d0e826a9f7757969bd", "fusion_lat": 0.0, "fusion_lon": 0.0, "rental_uris": {"android": "https://dc.lft.to/lastmile_qr_scan", "ios": "https://dc.lft.to/lastmile_qr_scan"}, "is_reserved": 0, "is_disabled": 0, "type": "electric_scooter", "bike_id": "811ea6067897f8d0e826a9f7757969bd"}, {"lon": -77.04217166666666, "lat": 38.90749433333333, "name": "aae4887e8485dacb67c059706b5f4697", "fusion_lat": 0.0, "fusion_lon": 0.0, "rental_uris": {"android": "https://dc.lft.to/lastmile_qr_scan", "ios": "https://dc.lft.to/lastmile_qr_scan"}, "is_reserved": 0, "is_disabled": 0, "type": "electric_bike", "bike_id": "aae4887e8485dacb67c059706b5f4697"}, {"lon": -77.0086535, "lat": 38.827282, "name": "9614333c6b14d983d9deff09fdb15997", "fusion_lat": 0.0, "fusion_lon": 0.0, "rental_uris": {"android": "https://dc.lft.to/lastmile_qr_scan", "ios": "https://dc.lft.to/lastmile_qr_scan"}, "is_reserved": 0, "is_disabled": 0, "type": "electric_bike", "bike_id": "9614333c6b14d983d9deff09fdb15997"}, {"lon": -77.02482066666667, "lat": 38.93881733333333, "name": "060f13e47382032bfd8ad9afeece402c", "fusion_lat": 0.0, "fusion_lon": 0.0, "rental_uris": {"android": "https://dc.lft.to/lastmile_qr_scan", "ios": "https://dc.lft.to/lastmile_qr_scan"}, "is_reserved": 0, "is_disabled": 0, "type": "electric_scooter", "bike_id": "060f13e47382032bfd8ad9afeece402c"}, {"lon": -77.04424266666666, "lat": 38.90059216666667, "name": "ba5482b4790d166606d1ae9afe03f279", "fusion_lat": 0.0, "fusion_lon": 0.0, "rental_uris": {"android": "https://dc.lft.to/lastmile_qr_scan", "ios": "https://dc.lft.to/lastmile_qr_scan"}, "is_reserved": 0, "is_disabled": 0, "type": "electric_scooter", "bike_id": "ba5482b4790d166606d1ae9afe03f279"}, {"lon": -77.07271283333333, "lat": 38.93483666666667, "name": "7e08ec0ec46b63ab0c7a43b85ec27b2a", "fusion_lat": 0.0, "fusion_lon": 0.0, "rental_uris": {"android": "https://dc.lft.to/lastmile_qr_scan", "ios": "https://dc.lft.to/lastmile_qr_scan"}, "is_reserved": 0, "is_disabled": 0, "type": "electric_scooter", "bike_id": "7e08ec0ec46b63ab0c7a43b85ec27b2a"}, {"lon": -77.05319783333333, "lat": 38.90266833333333, "name": "4c7038c653e0514638e77b5a55c541c8", "fusion_lat": 0.0, "fusion_lon": 0.0, "rental_uris": {"android": "https://dc.lft.to/lastmile_qr_scan", "ios": "https://dc.lft.to/lastmile_qr_scan"}, "is_reserved": 0, "is_disabled": 0, "type": "electric_scooter", "bike_id": "4c7038c653e0514638e77b5a55c541c8"}, {"lon": -77.061739, "lat": 38.94310816666667, "name": "4aabd3055c08238398f9c25269741d0f", "fusion_lat": 0.0, "fusion_lon": 0.0, "rental_uris": {"android": "https://dc.lft.to/lastmile_qr_scan", "ios": "https://dc.lft.to/lastmile_qr_scan"}, "is_reserved": 0, "is_disabled": 0, "type": "electric_scooter", "bike_id": "4aabd3055c08238398f9c25269741d0f"}, {"lon": -77.0448395, "lat": 38.90734583333333, "name": "0991dae67ebd650806cff2a14c724a99", "fusion_lat": 0.0, "fusion_lon": 0.0, "rental_uris": {"android": "https://dc.lft.to/lastmile_qr_scan", "ios": "https://dc.lft.to/lastmile_qr_scan"}, "is_reserved": 0, "is_disabled": 0, "type": "electric_scooter", "bike_id": "0991dae67ebd650806cff2a14c724a99"}, {"lon": -77.02705966666667, "lat": 38.9067435, "name": "80ac13bda97cec5a24a44b335e9f7060", "fusion_lat": 0.0, "fusion_lon": 0.0, "rental_uris": {"android": "https://dc.lft.to/lastmile_qr_scan", "ios": "https://dc.lft.to/lastmile_qr_scan"}, "is_reserved": 0, "is_disabled": 0, "type": "electric_scooter", "bike_id": "80ac13bda97cec5a24a44b335e9f7060"}, {"lon": -76.98348033333333, "lat": 38.91538883333333, "name": "a9b96327204c7c7ea6b77a9c14f65200", "fusion_lat": 0.0, "fusion_lon": 0.0, "rental_uris": {"android": "https://dc.lft.to/lastmile_qr_scan", "ios": "https://dc.lft.to/lastmile_qr_scan"}, "is_reserved": 0, "is_disabled": 0, "type": "electric_scooter", "bike_id": "a9b96327204c7c7ea6b77a9c14f65200"}, {"lon": -77.02706066666667, "lat": 38.93121266666667, "name": "3649a767fcb9156c8b576fd8e346dcb7", "fusion_lat": 0.0, "fusion_lon": 0.0, "rental_uris": {"android": "https://dc.lft.to/lastmile_qr_scan", "ios": "https://dc.lft.to/lastmile_qr_scan"}, "is_reserved": 0, "is_disabled": 0, "type": "electric_bike", "bike_id": "3649a767fcb9156c8b576fd8e346dcb7"}, {"lon": -77.04228533333334, "lat": 38.91109816666667, "name": "0495fa63323dbef239f0c42d05a5bc24", "fusion_lat": 0.0, "fusion_lon": 0.0, "rental_uris": {"android": "https://dc.lft.to/lastmile_qr_scan", "ios": "https://dc.lft.to/lastmile_qr_scan"}, "is_reserved": 0, "is_disabled": 0, "type": "electric_scooter", "bike_id": "0495fa63323dbef239f0c42d05a5bc24"}, {"lon": -76.98823383333334, "lat": 38.88025533333333, "name": "a9d4af73070d6d17cb41c3e9afcbf8bb", "fusion_lat": 0.0, "fusion_lon": 0.0, "rental_uris": {"android": "https://dc.lft.to/lastmile_qr_scan", "ios": "https://dc.lft.to/lastmile_qr_scan"}, "is_reserved": 0, "is_disabled": 0, "type": "electric_scooter", "bike_id": "a9d4af73070d6d17cb41c3e9afcbf8bb"}, {"lon": -77.03201383333334, "lat": 38.886973166666664, "name": "4e0c668f95fa4361bf43af8c3e861b6d", "fusion_lat": 0.0, "fusion_lon": 0.0, "rental_uris": {"android": "https://dc.lft.to/lastmile_qr_scan", "ios": "https://dc.lft.to/lastmile_qr_scan"}, "is_reserved": 0, "is_disabled": 0, "type": "electric_scooter", "bike_id": "4e0c668f95fa4361bf43af8c3e861b6d"}, {"lon": -77.010925, "lat": 38.894041, "name": "3accf7d05aac33bef8c817ac061ad338", "fusion_lat": 0.0, "fusion_lon": 0.0, "rental_uris": {"android": "https://dc.lft.to/lastmile_qr_scan", "ios": "https://dc.lft.to/lastmile_qr_scan"}, "is_reserved": 0, "is_disabled": 0, "type": "electric_scooter", "bike_id": "3accf7d05aac33bef8c817ac061ad338"}, {"lon": -77.03370516666666, "lat": 38.899702166666664, "name": "fb1a983282e6a2ba94fa228f88570c73", "fusion_lat": 0.0, "fusion_lon": 0.0, "rental_uris": {"android": "https://dc.lft.to/lastmile_qr_scan", "ios": "https://dc.lft.to/lastmile_qr_scan"}, "is_reserved": 0, "is_disabled": 0, "type": "electric_scooter", "bike_id": "fb1a983282e6a2ba94fa228f88570c73"}, {"lon": -76.97747383333333, "lat": 38.9001025, "name": "1332c2c8de68542cadefc62c83311ad5", "fusion_lat": 0.0, "fusion_lon": 0.0, "rental_uris": {"android": "https://dc.lft.to/lastmile_qr_scan", "ios": "https://dc.lft.to/lastmile_qr_scan"}, "is_reserved": 0, "is_disabled": 0, "type": "electric_scooter", "bike_id": "1332c2c8de68542cadefc62c83311ad5"}, {"lon": -77.037868, "lat": 38.926405333333335, "name": "41c7ae2c3165ed8e99daccac07c209fc", "fusion_lat": 0.0, "fusion_lon": 0.0, "rental_uris": {"android": "https://dc.lft.to/lastmile_qr_scan", "ios": "https://dc.lft.to/lastmile_qr_scan"}, "is_reserved": 0, "is_disabled": 0, "type": "electric_scooter", "bike_id": "41c7ae2c3165ed8e99daccac07c209fc"}, {"lon": -76.94872016666666, "lat": 38.889603, "name": "486496566c661ffd1f4c0ecc4905ec0c", "fusion_lat": 0.0, "fusion_lon": 0.0, "rental_uris": {"android": "https://dc.lft.to/lastmile_qr_scan", "ios": "https://dc.lft.to/lastmile_qr_scan"}, "is_reserved": 0, "is_disabled": 0, "type": "electric_bike", "bike_id": "486496566c661ffd1f4c0ecc4905ec0c"}, {"lon": -77.107384, "lat": 38.855315166666664, "name": "0b488e72c195afce2a5e5eb7ac6b40ad", "fusion_lat": 0.0, "fusion_lon": 0.0, "rental_uris": {"android": "https://dc.lft.to/lastmile_qr_scan", "ios": "https://dc.lft.to/lastmile_qr_scan"}, "is_reserved": 0, "is_disabled": 0, "type": "electric_bike", "bike_id": "0b488e72c195afce2a5e5eb7ac6b40ad"}, {"lon": -77.05555966666667, "lat": 38.899552, "name": "e83fd1219f61481a474a6fdb6a0245c3", "fusion_lat": 0.0, "fusion_lon": 0.0, "rental_uris": {"android": "https://dc.lft.to/lastmile_qr_scan", "ios": "https://dc.lft.to/lastmile_qr_scan"}, "is_reserved": 0, "is_disabled": 0, "type": "electric_scooter", "bike_id": "e83fd1219f61481a474a6fdb6a0245c3"}, {"lon": -76.98232233333333, "lat": 38.925058666666665, "name": "81d962e0addb01fdf360d102e87b99c2", "fusion_lat": 0.0, "fusion_lon": 0.0, "rental_uris": {"android": "https://dc.lft.to/lastmile_qr_scan", "ios": "https://dc.lft.to/lastmile_qr_scan"}, "is_reserved": 0, "is_disabled": 0, "type": "electric_bike", "bike_id": "81d962e0addb01fdf360d102e87b99c2"}, {"lon": -76.878205, "lat": 38.992319333333334, "name": "0190b47f532a48f6d996bbde2836b122", "fusion_lat": 0.0, "fusion_lon": 0.0, "rental_uris": {"android": "https://dc.lft.to/lastmile_qr_scan", "ios": "https://dc.lft.to/lastmile_qr_scan"}, "is_reserved": 0, "is_disabled": 0, "type": "electric_bike", "bike_id": "0190b47f532a48f6d996bbde2836b122"}, {"lon": -77.03314166666667, "lat": 38.91417916666666, "name": "608d8dbc95c19bc5e01667c7b2ecfb90", "fusion_lat": 0.0, "fusion_lon": 0.0, "rental_uris": {"android": "https://dc.lft.to/lastmile_qr_scan", "ios": "https://dc.lft.to/lastmile_qr_scan"}, "is_reserved": 0, "is_disabled": 0, "type": "electric_scooter", "bike_id": "608d8dbc95c19bc5e01667c7b2ecfb90"}, {"lon": -76.98177366666667, "lat": 38.900408666666664, "name": "814b5ff5b8e88ac902de11c6633b9e7a", "fusion_lat": 0.0, "fusion_lon": 0.0, "rental_uris": {"android": "https://dc.lft.to/lastmile_qr_scan", "ios": "https://dc.lft.to/lastmile_qr_scan"}, "is_reserved": 0, "is_disabled": 0, "type": "electric_scooter", "bike_id": "814b5ff5b8e88ac902de11c6633b9e7a"}, {"lon": -77.03342616666667, "lat": 38.8850615, "name": "8fbeb9a03f8c3baffbb2866c9a269004", "fusion_lat": 0.0, "fusion_lon": 0.0, "rental_uris": {"android": "https://dc.lft.to/lastmile_qr_scan", "ios": "https://dc.lft.to/lastmile_qr_scan"}, "is_reserved": 0, "is_disabled": 0, "type": "electric_scooter", "bike_id": "8fbeb9a03f8c3baffbb2866c9a269004"}, {"lon": -77.1785055, "lat": 39.0890395, "name": "818d8e82f8efec56f9396ae8c37b5c91", "fusion_lat": 0.0, "fusion_lon": 0.0, "rental_uris": {"android": "https://dc.lft.to/lastmile_qr_scan", "ios": "https://dc.lft.to/lastmile_qr_scan"}, "is_reserved": 0, "is_disabled": 0, "type": "electric_bike", "bike_id": "818d8e82f8efec56f9396ae8c37b5c91"}, {"lon": -77.08542716666666, "lat": 38.8562035, "name": "19009e002126ebb91e96d2f5e654ce3e", "fusion_lat": 0.0, "fusion_lon": 0.0, "rental_uris": {"android": "https://dc.lft.to/lastmile_qr_scan", "ios": "https://dc.lft.to/lastmile_qr_scan"}, "is_reserved": 0, "is_disabled": 0, "type": "electric_bike", "bike_id": "19009e002126ebb91e96d2f5e654ce3e"}, {"lon": -77.03076866666666, "lat": 38.912618333333334, "name": "3dc8652762e574bc78cc6b93eb33dd4f", "fusion_lat": 0.0, "fusion_lon": 0.0, "rental_uris": {"android": "https://dc.lft.to/lastmile_qr_scan", "ios": "https://dc.lft.to/lastmile_qr_scan"}, "is_reserved": 0, "is_disabled": 0, "type": "electric_scooter", "bike_id": "3dc8652762e574bc78cc6b93eb33dd4f"}, {"lon": -76.99558116666667, "lat": 38.8859185, "name": "dd14b7c27c529dece982671359f0fb07", "fusion_lat": 0.0, "fusion_lon": 0.0, "rental_uris": {"android": "https://dc.lft.to/lastmile_qr_scan", "ios": "https://dc.lft.to/lastmile_qr_scan"}, "is_reserved": 0, "is_disabled": 0, "type": "electric_scooter", "bike_id": "dd14b7c27c529dece982671359f0fb07"}, {"lon": -77.0262765, "lat": 38.96227416666667, "name": "73f9465c7acf2445a1b0c2bcb3f3e9ed", "fusion_lat": 0.0, "fusion_lon": 0.0, "rental_uris": {"android": "https://dc.lft.to/lastmile_qr_scan", "ios": "https://dc.lft.to/lastmile_qr_scan"}, "is_reserved": 0, "is_disabled": 0, "type": "electric_bike", "bike_id": "73f9465c7acf2445a1b0c2bcb3f3e9ed"}, {"lon": -77.04035966666666, "lat": 38.91883, "name": "d20f06f85a23c4c0979d8d024c1367cf", "fusion_lat": 0.0, "fusion_lon": 0.0, "rental_uris": {"android": "https://dc.lft.to/lastmile_qr_scan", "ios": "https://dc.lft.to/lastmile_qr_scan"}, "is_reserved": 0, "is_disabled": 0, "type": "electric_scooter", "bike_id": "d20f06f85a23c4c0979d8d024c1367cf"}, {"lon": -77.03460383333334, "lat": 38.94575783333333, "name": "2d9ed5f90f8679a0dc57b7a2422ef640", "fusion_lat": 0.0, "fusion_lon": 0.0, "rental_uris": {"android": "https://dc.lft.to/lastmile_qr_scan", "ios": "https://dc.lft.to/lastmile_qr_scan"}, "is_reserved": 0, "is_disabled": 0, "type": "electric_scooter", "bike_id": "2d9ed5f90f8679a0dc57b7a2422ef640"}, {"lon": -76.99500766666667, "lat": 38.86246716666667, "name": "5aa7730d3cb3b96cf11d0ad3f5a4548f", "fusion_lat": 0.0, "fusion_lon": 0.0, "rental_uris": {"android": "https://dc.lft.to/lastmile_qr_scan", "ios": "https://dc.lft.to/lastmile_qr_scan"}, "is_reserved": 0, "is_disabled": 0, "type": "electric_scooter", "bike_id": "5aa7730d3cb3b96cf11d0ad3f5a4548f"}, {"lon": -77.00726266666666, "lat": 38.884904666666664, "name": "cfcd73f6f272d06be7132ab57c5a729a", "fusion_lat": 0.0, "fusion_lon": 0.0, "rental_uris": {"android": "https://dc.lft.to/lastmile_qr_scan", "ios": "https://dc.lft.to/lastmile_qr_scan"}, "is_reserved": 0, "is_disabled": 0, "type": "electric_scooter", "bike_id": "cfcd73f6f272d06be7132ab57c5a729a"}, {"lon": -77.04435883333333, "lat": 38.89178966666667, "name": "b79f34bcb6acf8bcd97a7b10a8b099d0", "fusion_lat": 0.0, "fusion_lon": 0.0, "rental_uris": {"android": "https://dc.lft.to/lastmile_qr_scan", "ios": "https://dc.lft.to/lastmile_qr_scan"}, "is_reserved": 0, "is_disabled": 0, "type": "electric_scooter", "bike_id": "b79f34bcb6acf8bcd97a7b10a8b099d0"}, {"lon": -77.023474, "lat": 38.897323666666665, "name": "ec94d4687482f75585ed115f5f293136", "fusion_lat": 0.0, "fusion_lon": 0.0, "rental_uris": {"android": "https://dc.lft.to/lastmile_qr_scan", "ios": "https://dc.lft.to/lastmile_qr_scan"}, "is_reserved": 0, "is_disabled": 0, "type": "electric_scooter", "bike_id": "ec94d4687482f75585ed115f5f293136"}, {"lon": -77.04645816666667, "lat": 38.852104, "name": "d04f01569529250e4a3bb8f6a11cc45f", "fusion_lat": 0.0, "fusion_lon": 0.0, "rental_uris": {"android": "https://dc.lft.to/lastmile_qr_scan", "ios": "https://dc.lft.to/lastmile_qr_scan"}, "is_reserved": 0, "is_disabled": 0, "type": "electric_bike", "bike_id": "d04f01569529250e4a3bb8f6a11cc45f"}, {"lon": -77.02155716666667, "lat": 38.924632333333335, "name": "4ebb43fc065376f8fecb80522080047b", "fusion_lat": 0.0, "fusion_lon": 0.0, "rental_uris": {"android": "https://dc.lft.to/lastmile_qr_scan", "ios": "https://dc.lft.to/lastmile_qr_scan"}, "is_reserved": 0, "is_disabled": 0, "type": "electric_scooter", "bike_id": "4ebb43fc065376f8fecb80522080047b"}, {"lon": -77.03744016666667, "lat": 38.916966333333335, "name": "a1afed4ab474b634a6c6c74b14029318", "fusion_lat": 0.0, "fusion_lon": 0.0, "rental_uris": {"android": "https://dc.lft.to/lastmile_qr_scan", "ios": "https://dc.lft.to/lastmile_qr_scan"}, "is_reserved": 0, "is_disabled": 0, "type": "electric_scooter", "bike_id": "a1afed4ab474b634a6c6c74b14029318"}, {"lon": -76.9994695, "lat": 38.842920666666664, "name": "c0773222c2144902cd9e416417919ef3", "fusion_lat": 0.0, "fusion_lon": 0.0, "rental_uris": {"android": "https://dc.lft.to/lastmile_qr_scan", "ios": "https://dc.lft.to/lastmile_qr_scan"}, "is_reserved": 0, "is_disabled": 0, "type": "electric_scooter", "bike_id": "c0773222c2144902cd9e416417919ef3"}, {"lon": -77.03165733333333, "lat": 38.94461233333333, "name": "0df2cb248e9b600cef8218d481c0876f", "fusion_lat": 0.0, "fusion_lon": 0.0, "rental_uris": {"android": "https://dc.lft.to/lastmile_qr_scan", "ios": "https://dc.lft.to/lastmile_qr_scan"}, "is_reserved": 0, "is_disabled": 0, "type": "electric_bike", "bike_id": "0df2cb248e9b600cef8218d481c0876f"}, {"lon": -77.0444085, "lat": 38.91876466666667, "name": "5415b79b481dfacd5c8f72920e18689c", "fusion_lat": 0.0, "fusion_lon": 0.0, "rental_uris": {"android": "https://dc.lft.to/lastmile_qr_scan", "ios": "https://dc.lft.to/lastmile_qr_scan"}, "is_reserved": 0, "is_disabled": 0, "type": "electric_scooter", "bike_id": "5415b79b481dfacd5c8f72920e18689c"}, {"lon": -77.03319966666666, "lat": 38.90048866666667, "name": "4476359dd86af2086c15bd10382a1cec", "fusion_lat": 0.0, "fusion_lon": 0.0, "rental_uris": {"android": "https://dc.lft.to/lastmile_qr_scan", "ios": "https://dc.lft.to/lastmile_qr_scan"}, "is_reserved": 0, "is_disabled": 0, "type": "electric_scooter", "bike_id": "4476359dd86af2086c15bd10382a1cec"}, {"lon": -77.0272665, "lat": 38.972105166666665, "name": "5f8d5d4213ff6e632f893ac3e30d36c4", "fusion_lat": 0.0, "fusion_lon": 0.0, "rental_uris": {"android": "https://dc.lft.to/lastmile_qr_scan", "ios": "https://dc.lft.to/lastmile_qr_scan"}, "is_reserved": 0, "is_disabled": 0, "type": "electric_bike", "bike_id": "5f8d5d4213ff6e632f893ac3e30d36c4"}, {"lon": -76.94728733333334, "lat": 38.89686116666667, "name": "23ae6367683e1b83bf263d7676d4ebb0", "fusion_lat": 0.0, "fusion_lon": 0.0, "rental_uris": {"android": "https://dc.lft.to/lastmile_qr_scan", "ios": "https://dc.lft.to/lastmile_qr_scan"}, "is_reserved": 0, "is_disabled": 0, "type": "electric_scooter", "bike_id": "23ae6367683e1b83bf263d7676d4ebb0"}, {"lon": -77.02939383333333, "lat": 38.9050235, "name": "60f43688c3edb1066931e70791aba274", "fusion_lat": 0.0, "fusion_lon": 0.0, "rental_uris": {"android": "https://dc.lft.to/lastmile_qr_scan", "ios": "https://dc.lft.to/lastmile_qr_scan"}, "is_reserved": 0, "is_disabled": 0, "type": "electric_scooter", "bike_id": "60f43688c3edb1066931e70791aba274"}, {"lon": -77.04723566666667, "lat": 38.89955166666667, "name": "d795585043f0cce8ea4b048474dc1104", "fusion_lat": 0.0, "fusion_lon": 0.0, "rental_uris": {"android": "https://dc.lft.to/lastmile_qr_scan", "ios": "https://dc.lft.to/lastmile_qr_scan"}, "is_reserved": 0, "is_disabled": 0, "type": "electric_scooter", "bike_id": "d795585043f0cce8ea4b048474dc1104"}, {"lon": -76.98133116666666, "lat": 38.90501416666667, "name": "31c301b667426a38978c7fa93e547103", "fusion_lat": 0.0, "fusion_lon": 0.0, "rental_uris": {"android": "https://dc.lft.to/lastmile_qr_scan", "ios": "https://dc.lft.to/lastmile_qr_scan"}, "is_reserved": 0, "is_disabled": 0, "type": "electric_scooter", "bike_id": "31c301b667426a38978c7fa93e547103"}, {"lon": -77.0110635, "lat": 38.895141333333335, "name": "baaff692c11aa31613ca4ffab70a3289", "fusion_lat": 0.0, "fusion_lon": 0.0, "rental_uris": {"android": "https://dc.lft.to/lastmile_qr_scan", "ios": "https://dc.lft.to/lastmile_qr_scan"}, "is_reserved": 0, "is_disabled": 0, "type": "electric_scooter", "bike_id": "baaff692c11aa31613ca4ffab70a3289"}, {"lon": -76.988979, "lat": 38.866931666666666, "name": "b2adfe38a1dd444f2dbbae79b9b15500", "fusion_lat": 0.0, "fusion_lon": 0.0, "rental_uris": {"android": "https://dc.lft.to/lastmile_qr_scan", "ios": "https://dc.lft.to/lastmile_qr_scan"}, "is_reserved": 0, "is_disabled": 0, "type": "electric_scooter", "bike_id": "b2adfe38a1dd444f2dbbae79b9b15500"}, {"lon": -77.1784415, "lat": 39.08858466666667, "name": "e59aa57029884d059eb64faa4549e2b3", "fusion_lat": 0.0, "fusion_lon": 0.0, "rental_uris": {"android": "https://dc.lft.to/lastmile_qr_scan", "ios": "https://dc.lft.to/lastmile_qr_scan"}, "is_reserved": 0, "is_disabled": 0, "type": "electric_bike", "bike_id": "e59aa57029884d059eb64faa4549e2b3"}, {"lon": -77.018881, "lat": 38.902423166666665, "name": "7c4a9bd671fae1e32e136824ad5dbaf4", "fusion_lat": 0.0, "fusion_lon": 0.0, "rental_uris": {"android": "https://dc.lft.to/lastmile_qr_scan", "ios": "https://dc.lft.to/lastmile_qr_scan"}, "is_reserved": 0, "is_disabled": 0, "type": "electric_scooter", "bike_id": "7c4a9bd671fae1e32e136824ad5dbaf4"}, {"lon": -77.00207533333334, "lat": 38.90076966666667, "name": "c6520a9aa1a0f592c5baa295561684be", "fusion_lat": 0.0, "fusion_lon": 0.0, "rental_uris": {"android": "https://dc.lft.to/lastmile_qr_scan", "ios": "https://dc.lft.to/lastmile_qr_scan"}, "is_reserved": 0, "is_disabled": 0, "type": "electric_scooter", "bike_id": "c6520a9aa1a0f592c5baa295561684be"}, {"lon": -77.0215035, "lat": 38.892221, "name": "e03d9c3209b5b3feccd8b8fe656be4cf", "fusion_lat": 0.0, "fusion_lon": 0.0, "rental_uris": {"android": "https://dc.lft.to/lastmile_qr_scan", "ios": "https://dc.lft.to/lastmile_qr_scan"}, "is_reserved": 0, "is_disabled": 0, "type": "electric_scooter", "bike_id": "e03d9c3209b5b3feccd8b8fe656be4cf"}, {"lon": -77.08208466666666, "lat": 38.93556816666667, "name": "cad43fc1d67d8d89e9941f6e250e8581", "fusion_lat": 0.0, "fusion_lon": 0.0, "rental_uris": {"android": "https://dc.lft.to/lastmile_qr_scan", "ios": "https://dc.lft.to/lastmile_qr_scan"}, "is_reserved": 0, "is_disabled": 0, "type": "electric_scooter", "bike_id": "cad43fc1d67d8d89e9941f6e250e8581"}, {"lon": -77.02706116666667, "lat": 38.949996, "name": "5f9649363612f6e1c2fbc905b874eb41", "fusion_lat": 0.0, "fusion_lon": 0.0, "rental_uris": {"android": "https://dc.lft.to/lastmile_qr_scan", "ios": "https://dc.lft.to/lastmile_qr_scan"}, "is_reserved": 0, "is_disabled": 0, "type": "electric_scooter", "bike_id": "5f9649363612f6e1c2fbc905b874eb41"}, {"lon": -77.04401716666666, "lat": 38.9224065, "name": "889bfd7d82e7b149d5ccc2f0fde4bfb7", "fusion_lat": 0.0, "fusion_lon": 0.0, "rental_uris": {"android": "https://dc.lft.to/lastmile_qr_scan", "ios": "https://dc.lft.to/lastmile_qr_scan"}, "is_reserved": 0, "is_disabled": 0, "type": "electric_scooter", "bike_id": "889bfd7d82e7b149d5ccc2f0fde4bfb7"}, {"lon": -77.04305233333334, "lat": 39.05449683333333, "name": "33d09e1b04e950cbfa4c57a1d16c722d", "fusion_lat": 0.0, "fusion_lon": 0.0, "rental_uris": {"android": "https://dc.lft.to/lastmile_qr_scan", "ios": "https://dc.lft.to/lastmile_qr_scan"}, "is_reserved": 0, "is_disabled": 0, "type": "electric_bike", "bike_id": "33d09e1b04e950cbfa4c57a1d16c722d"}, {"lon": -77.04148133333334, "lat": 38.923043, "name": "98c0b5c68a82da01083f715d69f29c16", "fusion_lat": 0.0, "fusion_lon": 0.0, "rental_uris": {"android": "https://dc.lft.to/lastmile_qr_scan", "ios": "https://dc.lft.to/lastmile_qr_scan"}, "is_reserved": 0, "is_disabled": 0, "type": "electric_scooter", "bike_id": "98c0b5c68a82da01083f715d69f29c16"}, {"lon": -77.027199, "lat": 38.909631833333336, "name": "1a46b36d50e2ddcacf736ce6d8bb5f0e", "fusion_lat": 0.0, "fusion_lon": 0.0, "rental_uris": {"android": "https://dc.lft.to/lastmile_qr_scan", "ios": "https://dc.lft.to/lastmile_qr_scan"}, "is_reserved": 0, "is_disabled": 0, "type": "electric_scooter", "bike_id": "1a46b36d50e2ddcacf736ce6d8bb5f0e"}, {"lon": -77.02305783333334, "lat": 38.9178335, "name": "b26c1daa4373861369603d3d9b4c1abc", "fusion_lat": 0.0, "fusion_lon": 0.0, "rental_uris": {"android": "https://dc.lft.to/lastmile_qr_scan", "ios": "https://dc.lft.to/lastmile_qr_scan"}, "is_reserved": 0, "is_disabled": 0, "type": "electric_scooter", "bike_id": "b26c1daa4373861369603d3d9b4c1abc"}, {"lon": -77.03300416666667, "lat": 38.908473666666666, "name": "f1992b48eadb012dc61f945429dc10ab", "fusion_lat": 0.0, "fusion_lon": 0.0, "rental_uris": {"android": "https://dc.lft.to/lastmile_qr_scan", "ios": "https://dc.lft.to/lastmile_qr_scan"}, "is_reserved": 0, "is_disabled": 0, "type": "electric_scooter", "bike_id": "f1992b48eadb012dc61f945429dc10ab"}, {"lon": -76.979132, "lat": 38.86606916666667, "name": "d718b61291e32a710dee17bc756581ec", "fusion_lat": 0.0, "fusion_lon": 0.0, "rental_uris": {"android": "https://dc.lft.to/lastmile_qr_scan", "ios": "https://dc.lft.to/lastmile_qr_scan"}, "is_reserved": 0, "is_disabled": 0, "type": "electric_scooter", "bike_id": "d718b61291e32a710dee17bc756581ec"}, {"lon": -76.99838283333334, "lat": 38.88809033333333, "name": "1524eaf0e55398dcb6aeaca821e6ff98", "fusion_lat": 0.0, "fusion_lon": 0.0, "rental_uris": {"android": "https://dc.lft.to/lastmile_qr_scan", "ios": "https://dc.lft.to/lastmile_qr_scan"}, "is_reserved": 0, "is_disabled": 0, "type": "electric_scooter", "bike_id": "1524eaf0e55398dcb6aeaca821e6ff98"}, {"lon": -77.01926816666666, "lat": 38.899747166666664, "name": "5f25433dddebbe43d87be57f42486926", "fusion_lat": 0.0, "fusion_lon": 0.0, "rental_uris": {"android": "https://dc.lft.to/lastmile_qr_scan", "ios": "https://dc.lft.to/lastmile_qr_scan"}, "is_reserved": 0, "is_disabled": 0, "type": "electric_scooter", "bike_id": "5f25433dddebbe43d87be57f42486926"}, {"lon": -76.985593, "lat": 38.899550166666664, "name": "68d24f4ff272c4121b69ee24b1380cdc", "fusion_lat": 0.0, "fusion_lon": 0.0, "rental_uris": {"android": "https://dc.lft.to/lastmile_qr_scan", "ios": "https://dc.lft.to/lastmile_qr_scan"}, "is_reserved": 0, "is_disabled": 0, "type": "electric_scooter", "bike_id": "68d24f4ff272c4121b69ee24b1380cdc"}, {"lon": -77.024412, "lat": 38.90217466666667, "name": "c0be14a7a2024f0928a698e18b08f76c", "fusion_lat": 0.0, "fusion_lon": 0.0, "rental_uris": {"android": "https://dc.lft.to/lastmile_qr_scan", "ios": "https://dc.lft.to/lastmile_qr_scan"}, "is_reserved": 0, "is_disabled": 0, "type": "electric_scooter", "bike_id": "c0be14a7a2024f0928a698e18b08f76c"}, {"lon": -76.988245, "lat": 38.900450166666666, "name": "49612eeda5d0621295eada38bf5dc9a0", "fusion_lat": 0.0, "fusion_lon": 0.0, "rental_uris": {"android": "https://dc.lft.to/lastmile_qr_scan", "ios": "https://dc.lft.to/lastmile_qr_scan"}, "is_reserved": 0, "is_disabled": 0, "type": "electric_scooter", "bike_id": "49612eeda5d0621295eada38bf5dc9a0"}, {"lon": -77.03975966666667, "lat": 38.898860666666664, "name": "b8bd21d634c65b1e2847a8d36cd508af", "fusion_lat": 0.0, "fusion_lon": 0.0, "rental_uris": {"android": "https://dc.lft.to/lastmile_qr_scan", "ios": "https://dc.lft.to/lastmile_qr_scan"}, "is_reserved": 0, "is_disabled": 0, "type": "electric_scooter", "bike_id": "b8bd21d634c65b1e2847a8d36cd508af"}, {"lon": -77.01979866666667, "lat": 38.884013833333334, "name": "c0ea4e279af3f22488b8c57b18be87e7", "fusion_lat": 0.0, "fusion_lon": 0.0, "rental_uris": {"android": "https://dc.lft.to/lastmile_qr_scan", "ios": "https://dc.lft.to/lastmile_qr_scan"}, "is_reserved": 0, "is_disabled": 0, "type": "electric_scooter", "bike_id": "c0ea4e279af3f22488b8c57b18be87e7"}, {"lon": -77.04080833333333, "lat": 38.9202265, "name": "83efb73b90a72db0bfb8445ede1fced9", "fusion_lat": 0.0, "fusion_lon": 0.0, "rental_uris": {"android": "https://dc.lft.to/lastmile_qr_scan", "ios": "https://dc.lft.to/lastmile_qr_scan"}, "is_reserved": 0, "is_disabled": 0, "type": "electric_scooter", "bike_id": "83efb73b90a72db0bfb8445ede1fced9"}, {"lon": -77.001986, "lat": 38.8226625, "name": "205bc45059de54f71d0be8bfa49ba03c", "fusion_lat": 0.0, "fusion_lon": 0.0, "rental_uris": {"android": "https://dc.lft.to/lastmile_qr_scan", "ios": "https://dc.lft.to/lastmile_qr_scan"}, "is_reserved": 0, "is_disabled": 0, "type": "electric_scooter", "bike_id": "205bc45059de54f71d0be8bfa49ba03c"}, {"lon": -77.03217933333333, "lat": 38.912872, "name": "d66a1694b38a26f6466c894312d1256f", "fusion_lat": 0.0, "fusion_lon": 0.0, "rental_uris": {"android": "https://dc.lft.to/lastmile_qr_scan", "ios": "https://dc.lft.to/lastmile_qr_scan"}, "is_reserved": 0, "is_disabled": 0, "type": "electric_scooter", "bike_id": "d66a1694b38a26f6466c894312d1256f"}, {"lon": -76.9836005, "lat": 38.86479216666667, "name": "f187bef80b14dec036bc4395f0c50dd6", "fusion_lat": 0.0, "fusion_lon": 0.0, "rental_uris": {"android": "https://dc.lft.to/lastmile_qr_scan", "ios": "https://dc.lft.to/lastmile_qr_scan"}, "is_reserved": 0, "is_disabled": 0, "type": "electric_scooter", "bike_id": "f187bef80b14dec036bc4395f0c50dd6"}, {"lon": -77.01152183333333, "lat": 38.956756, "name": "bdc48d554d26a88d63a5c78126de4416", "fusion_lat": 0.0, "fusion_lon": 0.0, "rental_uris": {"android": "https://dc.lft.to/lastmile_qr_scan", "ios": "https://dc.lft.to/lastmile_qr_scan"}, "is_reserved": 0, "is_disabled": 0, "type": "electric_scooter", "bike_id": "bdc48d554d26a88d63a5c78126de4416"}, {"lon": -77.022457, "lat": 38.91276466666667, "name": "e39e17a402a55ac55b9e0937aca52dbf", "fusion_lat": 0.0, "fusion_lon": 0.0, "rental_uris": {"android": "https://dc.lft.to/lastmile_qr_scan", "ios": "https://dc.lft.to/lastmile_qr_scan"}, "is_reserved": 0, "is_disabled": 0, "type": "electric_scooter", "bike_id": "e39e17a402a55ac55b9e0937aca52dbf"}, {"lon": -77.00134633333333, "lat": 38.90413266666667, "name": "2da2b871cde8554dee2f2e04451f6788", "fusion_lat": 0.0, "fusion_lon": 0.0, "rental_uris": {"android": "https://dc.lft.to/lastmile_qr_scan", "ios": "https://dc.lft.to/lastmile_qr_scan"}, "is_reserved": 0, "is_disabled": 0, "type": "electric_scooter", "bike_id": "2da2b871cde8554dee2f2e04451f6788"}, {"lon": -77.021869, "lat": 38.9227335, "name": "3c18ac17f76b87999ae88e8bb2d9462f", "fusion_lat": 0.0, "fusion_lon": 0.0, "rental_uris": {"android": "https://dc.lft.to/lastmile_qr_scan", "ios": "https://dc.lft.to/lastmile_qr_scan"}, "is_reserved": 0, "is_disabled": 0, "type": "electric_scooter", "bike_id": "3c18ac17f76b87999ae88e8bb2d9462f"}, {"lon": -77.03164533333333, "lat": 38.914176499999996, "name": "167c523d63977b65189d7a99822a8873", "fusion_lat": 0.0, "fusion_lon": 0.0, "rental_uris": {"android": "https://dc.lft.to/lastmile_qr_scan", "ios": "https://dc.lft.to/lastmile_qr_scan"}, "is_reserved": 0, "is_disabled": 0, "type": "electric_scooter", "bike_id": "167c523d63977b65189d7a99822a8873"}, {"lon": -77.02980633333334, "lat": 38.96231916666667, "name": "b8a7137e57f9a22a13203043b874f9d9", "fusion_lat": 0.0, "fusion_lon": 0.0, "rental_uris": {"android": "https://dc.lft.to/lastmile_qr_scan", "ios": "https://dc.lft.to/lastmile_qr_scan"}, "is_reserved": 0, "is_disabled": 0, "type": "electric_scooter", "bike_id": "b8a7137e57f9a22a13203043b874f9d9"}, {"lon": -77.04211666666667, "lat": 38.933331833333334, "name": "cb25740b71a826a97cd32932790f74c7", "fusion_lat": 0.0, "fusion_lon": 0.0, "rental_uris": {"android": "https://dc.lft.to/lastmile_qr_scan", "ios": "https://dc.lft.to/lastmile_qr_scan"}, "is_reserved": 0, "is_disabled": 0, "type": "electric_bike", "bike_id": "cb25740b71a826a97cd32932790f74c7"}, {"lon": -77.02165033333333, "lat": 38.886294, "name": "3dd854992803b977fb56797cc3eda99a", "fusion_lat": 0.0, "fusion_lon": 0.0, "rental_uris": {"android": "https://dc.lft.to/lastmile_qr_scan", "ios": "https://dc.lft.to/lastmile_qr_scan"}, "is_reserved": 0, "is_disabled": 0, "type": "electric_scooter", "bike_id": "3dd854992803b977fb56797cc3eda99a"}, {"lon": -77.10130033333333, "lat": 38.85213266666667, "name": "d14ce7db52f3ae088f261a0d5b324baf", "fusion_lat": 0.0, "fusion_lon": 0.0, "rental_uris": {"android": "https://dc.lft.to/lastmile_qr_scan", "ios": "https://dc.lft.to/lastmile_qr_scan"}, "is_reserved": 0, "is_disabled": 0, "type": "electric_bike", "bike_id": "d14ce7db52f3ae088f261a0d5b324baf"}, {"lon": -77.03856116666667, "lat": 38.909194, "name": "a95cf8289e31a57f80b4dac9ac47b08c", "fusion_lat": 0.0, "fusion_lon": 0.0, "rental_uris": {"android": "https://dc.lft.to/lastmile_qr_scan", "ios": "https://dc.lft.to/lastmile_qr_scan"}, "is_reserved": 0, "is_disabled": 0, "type": "electric_scooter", "bike_id": "a95cf8289e31a57f80b4dac9ac47b08c"}, {"lon": -76.93174583333334, "lat": 38.898848, "name": "ef5a70c247a64b894bc1024794a1fca4", "fusion_lat": 0.0, "fusion_lon": 0.0, "rental_uris": {"android": "https://dc.lft.to/lastmile_qr_scan", "ios": "https://dc.lft.to/lastmile_qr_scan"}, "is_reserved": 0, "is_disabled": 0, "type": "electric_scooter", "bike_id": "ef5a70c247a64b894bc1024794a1fca4"}, {"lon": -77.01898983333334, "lat": 38.9099265, "name": "0845399d8a5973a893adf3a56f6ff5f8", "fusion_lat": 0.0, "fusion_lon": 0.0, "rental_uris": {"android": "https://dc.lft.to/lastmile_qr_scan", "ios": "https://dc.lft.to/lastmile_qr_scan"}, "is_reserved": 0, "is_disabled": 0, "type": "electric_scooter", "bike_id": "0845399d8a5973a893adf3a56f6ff5f8"}, {"lon": -76.93021166666666, "lat": 38.9008345, "name": "93034ebe291513432cca31a36d0ff8cc", "fusion_lat": 0.0, "fusion_lon": 0.0, "rental_uris": {"android": "https://dc.lft.to/lastmile_qr_scan", "ios": "https://dc.lft.to/lastmile_qr_scan"}, "is_reserved": 0, "is_disabled": 0, "type": "electric_scooter", "bike_id": "93034ebe291513432cca31a36d0ff8cc"}, {"lon": -77.03848983333333, "lat": 38.918156, "name": "584f6f0a91dfa90be76b4ab00926de6c", "fusion_lat": 0.0, "fusion_lon": 0.0, "rental_uris": {"android": "https://dc.lft.to/lastmile_qr_scan", "ios": "https://dc.lft.to/lastmile_qr_scan"}, "is_reserved": 0, "is_disabled": 0, "type": "electric_scooter", "bike_id": "584f6f0a91dfa90be76b4ab00926de6c"}, {"lon": -77.02720016666666, "lat": 38.909592333333336, "name": "a2c3ad7247f9c3745ba10e1e1a84388a", "fusion_lat": 0.0, "fusion_lon": 0.0, "rental_uris": {"android": "https://dc.lft.to/lastmile_qr_scan", "ios": "https://dc.lft.to/lastmile_qr_scan"}, "is_reserved": 0, "is_disabled": 0, "type": "electric_scooter", "bike_id": "a2c3ad7247f9c3745ba10e1e1a84388a"}, {"lon": -77.000336, "lat": 38.876399166666666, "name": "b7399faf22800d3b4b2ae439dc172db2", "fusion_lat": 0.0, "fusion_lon": 0.0, "rental_uris": {"android": "https://dc.lft.to/lastmile_qr_scan", "ios": "https://dc.lft.to/lastmile_qr_scan"}, "is_reserved": 0, "is_disabled": 0, "type": "electric_scooter", "bike_id": "b7399faf22800d3b4b2ae439dc172db2"}, {"lon": -77.01757433333333, "lat": 38.8771615, "name": "1efbe8628f272b6d519f21ea5920c382", "fusion_lat": 0.0, "fusion_lon": 0.0, "rental_uris": {"android": "https://dc.lft.to/lastmile_qr_scan", "ios": "https://dc.lft.to/lastmile_qr_scan"}, "is_reserved": 0, "is_disabled": 0, "type": "electric_scooter", "bike_id": "1efbe8628f272b6d519f21ea5920c382"}, {"lon": -77.04096883333334, "lat": 38.91258116666667, "name": "912521282766f7a7ff5b39928e6aacfe", "fusion_lat": 0.0, "fusion_lon": 0.0, "rental_uris": {"android": "https://dc.lft.to/lastmile_qr_scan", "ios": "https://dc.lft.to/lastmile_qr_scan"}, "is_reserved": 0, "is_disabled": 0, "type": "electric_scooter", "bike_id": "912521282766f7a7ff5b39928e6aacfe"}, {"lon": -77.10030233333333, "lat": 38.990652833333336, "name": "06eec94b0435ef4a577a498a71986dfc", "fusion_lat": 0.0, "fusion_lon": 0.0, "rental_uris": {"android": "https://dc.lft.to/lastmile_qr_scan", "ios": "https://dc.lft.to/lastmile_qr_scan"}, "is_reserved": 0, "is_disabled": 0, "type": "electric_bike", "bike_id": "06eec94b0435ef4a577a498a71986dfc"}, {"lon": -77.03195383333333, "lat": 38.913250833333336, "name": "8fe2d72a44484c0c6cf1c590e70e81f1", "fusion_lat": 0.0, "fusion_lon": 0.0, "rental_uris": {"android": "https://dc.lft.to/lastmile_qr_scan", "ios": "https://dc.lft.to/lastmile_qr_scan"}, "is_reserved": 0, "is_disabled": 0, "type": "electric_scooter", "bike_id": "8fe2d72a44484c0c6cf1c590e70e81f1"}, {"lon": -77.04906883333334, "lat": 38.874954833333334, "name": "c5de1b9fbf696da194898bdc98abe7e1", "fusion_lat": 0.0, "fusion_lon": 0.0, "rental_uris": {"android": "https://dc.lft.to/lastmile_qr_scan", "ios": "https://dc.lft.to/lastmile_qr_scan"}, "is_reserved": 0, "is_disabled": 0, "type": "electric_bike", "bike_id": "c5de1b9fbf696da194898bdc98abe7e1"}, {"lon": -77.02123883333333, "lat": 38.9030195, "name": "58affd048b54325efe8a4b5006d8ce71", "fusion_lat": 0.0, "fusion_lon": 0.0, "rental_uris": {"android": "https://dc.lft.to/lastmile_qr_scan", "ios": "https://dc.lft.to/lastmile_qr_scan"}, "is_reserved": 0, "is_disabled": 0, "type": "electric_scooter", "bike_id": "58affd048b54325efe8a4b5006d8ce71"}, {"lon": -76.94653966666667, "lat": 38.898252666666664, "name": "e8f456a4f871cad3d95e0ed470cc4249", "fusion_lat": 0.0, "fusion_lon": 0.0, "rental_uris": {"android": "https://dc.lft.to/lastmile_qr_scan", "ios": "https://dc.lft.to/lastmile_qr_scan"}, "is_reserved": 0, "is_disabled": 0, "type": "electric_scooter", "bike_id": "e8f456a4f871cad3d95e0ed470cc4249"}, {"lon": -77.03198966666666, "lat": 38.9126225, "name": "c5dc29df4756b3129fbfd7c70f9c90be", "fusion_lat": 0.0, "fusion_lon": 0.0, "rental_uris": {"android": "https://dc.lft.to/lastmile_qr_scan", "ios": "https://dc.lft.to/lastmile_qr_scan"}, "is_reserved": 0, "is_disabled": 0, "type": "electric_scooter", "bike_id": "c5dc29df4756b3129fbfd7c70f9c90be"}, {"lon": -76.98572566666667, "lat": 38.898877, "name": "b717c88e442f3de431f192a02e4875e5", "fusion_lat": 0.0, "fusion_lon": 0.0, "rental_uris": {"android": "https://dc.lft.to/lastmile_qr_scan", "ios": "https://dc.lft.to/lastmile_qr_scan"}, "is_reserved": 0, "is_disabled": 0, "type": "electric_scooter", "bike_id": "b717c88e442f3de431f192a02e4875e5"}, {"lon": -77.033426, "lat": 38.928691666666666, "name": "d370f5da4bc9756dd7755f6be4a3c9ef", "fusion_lat": 0.0, "fusion_lon": 0.0, "rental_uris": {"android": "https://dc.lft.to/lastmile_qr_scan", "ios": "https://dc.lft.to/lastmile_qr_scan"}, "is_reserved": 0, "is_disabled": 0, "type": "electric_scooter", "bike_id": "d370f5da4bc9756dd7755f6be4a3c9ef"}, {"lon": -77.00471616666667, "lat": 38.87761, "name": "0be6755209135f8e431f6101e4af9d8b", "fusion_lat": 0.0, "fusion_lon": 0.0, "rental_uris": {"android": "https://dc.lft.to/lastmile_qr_scan", "ios": "https://dc.lft.to/lastmile_qr_scan"}, "is_reserved": 0, "is_disabled": 0, "type": "electric_scooter", "bike_id": "0be6755209135f8e431f6101e4af9d8b"}, {"lon": -77.046869, "lat": 38.892274666666665, "name": "82bc9585612a1195ac1801482f93e66c", "fusion_lat": 0.0, "fusion_lon": 0.0, "rental_uris": {"android": "https://dc.lft.to/lastmile_qr_scan", "ios": "https://dc.lft.to/lastmile_qr_scan"}, "is_reserved": 0, "is_disabled": 0, "type": "electric_scooter", "bike_id": "82bc9585612a1195ac1801482f93e66c"}, {"lon": -77.01816616666666, "lat": 38.91192066666667, "name": "4d261daaa57a0a9e741e364f715bae6b", "fusion_lat": 0.0, "fusion_lon": 0.0, "rental_uris": {"android": "https://dc.lft.to/lastmile_qr_scan", "ios": "https://dc.lft.to/lastmile_qr_scan"}, "is_reserved": 0, "is_disabled": 0, "type": "electric_scooter", "bike_id": "4d261daaa57a0a9e741e364f715bae6b"}, {"lon": -77.04184866666667, "lat": 38.92058866666667, "name": "bcad4ddf2bb924cbcc507ff1ed20b6bc", "fusion_lat": 0.0, "fusion_lon": 0.0, "rental_uris": {"android": "https://dc.lft.to/lastmile_qr_scan", "ios": "https://dc.lft.to/lastmile_qr_scan"}, "is_reserved": 0, "is_disabled": 0, "type": "electric_scooter", "bike_id": "bcad4ddf2bb924cbcc507ff1ed20b6bc"}, {"lon": -77.02542866666667, "lat": 38.91656666666667, "name": "3506241a36a37a74b11ce5c487e9cd20", "fusion_lat": 0.0, "fusion_lon": 0.0, "rental_uris": {"android": "https://dc.lft.to/lastmile_qr_scan", "ios": "https://dc.lft.to/lastmile_qr_scan"}, "is_reserved": 0, "is_disabled": 0, "type": "electric_scooter", "bike_id": "3506241a36a37a74b11ce5c487e9cd20"}, {"lon": -77.038952, "lat": 38.91705683333333, "name": "820b6c88ccc6a9e7945df34c2b5f042d", "fusion_lat": 0.0, "fusion_lon": 0.0, "rental_uris": {"android": "https://dc.lft.to/lastmile_qr_scan", "ios": "https://dc.lft.to/lastmile_qr_scan"}, "is_reserved": 0, "is_disabled": 0, "type": "electric_scooter", "bike_id": "820b6c88ccc6a9e7945df34c2b5f042d"}, {"lon": -77.03434166666666, "lat": 38.939761833333336, "name": "b410bfc2550a1375b0ff2f97e328f12d", "fusion_lat": 0.0, "fusion_lon": 0.0, "rental_uris": {"android": "https://dc.lft.to/lastmile_qr_scan", "ios": "https://dc.lft.to/lastmile_qr_scan"}, "is_reserved": 0, "is_disabled": 0, "type": "electric_scooter", "bike_id": "b410bfc2550a1375b0ff2f97e328f12d"}, {"lon": -77.03427566666667, "lat": 38.91930033333333, "name": "be72752464439d1b1d9bff3f3ee12d22", "fusion_lat": 0.0, "fusion_lon": 0.0, "rental_uris": {"android": "https://dc.lft.to/lastmile_qr_scan", "ios": "https://dc.lft.to/lastmile_qr_scan"}, "is_reserved": 0, "is_disabled": 0, "type": "electric_scooter", "bike_id": "be72752464439d1b1d9bff3f3ee12d22"}, {"lon": -77.06125533333334, "lat": 38.9053475, "name": "8a36d494a92c1977968b251d6984f58d", "fusion_lat": 0.0, "fusion_lon": 0.0, "rental_uris": {"android": "https://dc.lft.to/lastmile_qr_scan", "ios": "https://dc.lft.to/lastmile_qr_scan"}, "is_reserved": 0, "is_disabled": 0, "type": "electric_scooter", "bike_id": "8a36d494a92c1977968b251d6984f58d"}, {"lon": -77.04184383333333, "lat": 38.91342783333333, "name": "408565041622021bc1dc48ce60e4425c", "fusion_lat": 0.0, "fusion_lon": 0.0, "rental_uris": {"android": "https://dc.lft.to/lastmile_qr_scan", "ios": "https://dc.lft.to/lastmile_qr_scan"}, "is_reserved": 0, "is_disabled": 0, "type": "electric_scooter", "bike_id": "408565041622021bc1dc48ce60e4425c"}, {"lon": -77.0429985, "lat": 38.92253866666667, "name": "94419395049a7c7a19f4bdcc74595b78", "fusion_lat": 0.0, "fusion_lon": 0.0, "rental_uris": {"android": "https://dc.lft.to/lastmile_qr_scan", "ios": "https://dc.lft.to/lastmile_qr_scan"}, "is_reserved": 0, "is_disabled": 0, "type": "electric_scooter", "bike_id": "94419395049a7c7a19f4bdcc74595b78"}, {"lon": -76.9526415, "lat": 38.885931, "name": "6efa8ef4ab002e0c318fcb8932d76ac4", "fusion_lat": 0.0, "fusion_lon": 0.0, "rental_uris": {"android": "https://dc.lft.to/lastmile_qr_scan", "ios": "https://dc.lft.to/lastmile_qr_scan"}, "is_reserved": 0, "is_disabled": 0, "type": "electric_scooter", "bike_id": "6efa8ef4ab002e0c318fcb8932d76ac4"}, {"lon": -76.98756216666666, "lat": 38.84500966666667, "name": "69f3578f28c760e2d2271823c4a7ca0c", "fusion_lat": 0.0, "fusion_lon": 0.0, "rental_uris": {"android": "https://dc.lft.to/lastmile_qr_scan", "ios": "https://dc.lft.to/lastmile_qr_scan"}, "is_reserved": 0, "is_disabled": 0, "type": "electric_scooter", "bike_id": "69f3578f28c760e2d2271823c4a7ca0c"}, {"lon": -77.04899866666666, "lat": 38.8923165, "name": "bb8f6945fef8e57731b56ea87c39dec2", "fusion_lat": 0.0, "fusion_lon": 0.0, "rental_uris": {"android": "https://dc.lft.to/lastmile_qr_scan", "ios": "https://dc.lft.to/lastmile_qr_scan"}, "is_reserved": 0, "is_disabled": 0, "type": "electric_scooter", "bike_id": "bb8f6945fef8e57731b56ea87c39dec2"}, {"lon": -77.03661116666666, "lat": 38.91179133333333, "name": "5d21b22310a9849b3874fbe55470ead8", "fusion_lat": 0.0, "fusion_lon": 0.0, "rental_uris": {"android": "https://dc.lft.to/lastmile_qr_scan", "ios": "https://dc.lft.to/lastmile_qr_scan"}, "is_reserved": 0, "is_disabled": 0, "type": "electric_scooter", "bike_id": "5d21b22310a9849b3874fbe55470ead8"}, {"lon": -77.13595366666667, "lat": 39.05345833333333, "name": "c8c6f9b174448d362349c40355db29ec", "fusion_lat": 0.0, "fusion_lon": 0.0, "rental_uris": {"android": "https://dc.lft.to/lastmile_qr_scan", "ios": "https://dc.lft.to/lastmile_qr_scan"}, "is_reserved": 0, "is_disabled": 0, "type": "electric_bike", "bike_id": "c8c6f9b174448d362349c40355db29ec"}, {"lon": -77.03626583333333, "lat": 38.92922183333334, "name": "0df5c5cb6bf217f8436e8a893c7fff63", "fusion_lat": 0.0, "fusion_lon": 0.0, "rental_uris": {"android": "https://dc.lft.to/lastmile_qr_scan", "ios": "https://dc.lft.to/lastmile_qr_scan"}, "is_reserved": 0, "is_disabled": 0, "type": "electric_scooter", "bike_id": "0df5c5cb6bf217f8436e8a893c7fff63"}, {"lon": -76.98625116666666, "lat": 38.86824133333333, "name": "03d9831c0ccdebd598783a4559d5372c", "fusion_lat": 0.0, "fusion_lon": 0.0, "rental_uris": {"android": "https://dc.lft.to/lastmile_qr_scan", "ios": "https://dc.lft.to/lastmile_qr_scan"}, "is_reserved": 0, "is_disabled": 0, "type": "electric_scooter", "bike_id": "03d9831c0ccdebd598783a4559d5372c"}, {"lon": -77.0123285, "lat": 38.89302166666667, "name": "0e33c87d2091e5ada0fed09a7d25cbe8", "fusion_lat": 0.0, "fusion_lon": 0.0, "rental_uris": {"android": "https://dc.lft.to/lastmile_qr_scan", "ios": "https://dc.lft.to/lastmile_qr_scan"}, "is_reserved": 0, "is_disabled": 0, "type": "electric_scooter", "bike_id": "0e33c87d2091e5ada0fed09a7d25cbe8"}, {"lon": -77.07081983333333, "lat": 38.919328666666665, "name": "ea1e2b75280297335590763ebf473700", "fusion_lat": 0.0, "fusion_lon": 0.0, "rental_uris": {"android": "https://dc.lft.to/lastmile_qr_scan", "ios": "https://dc.lft.to/lastmile_qr_scan"}, "is_reserved": 0, "is_disabled": 0, "type": "electric_bike", "bike_id": "ea1e2b75280297335590763ebf473700"}, {"lon": -76.9842665, "lat": 38.9142855, "name": "8ca20f3a07469ba94ff774e454490132", "fusion_lat": 0.0, "fusion_lon": 0.0, "rental_uris": {"android": "https://dc.lft.to/lastmile_qr_scan", "ios": "https://dc.lft.to/lastmile_qr_scan"}, "is_reserved": 0, "is_disabled": 0, "type": "electric_scooter", "bike_id": "8ca20f3a07469ba94ff774e454490132"}, {"lon": -77.04818716666666, "lat": 38.913359166666666, "name": "d7f5ca5e6efe48c4f56fa9373cb007cf", "fusion_lat": 0.0, "fusion_lon": 0.0, "rental_uris": {"android": "https://dc.lft.to/lastmile_qr_scan", "ios": "https://dc.lft.to/lastmile_qr_scan"}, "is_reserved": 0, "is_disabled": 0, "type": "electric_scooter", "bike_id": "d7f5ca5e6efe48c4f56fa9373cb007cf"}, {"lon": -76.90813516666667, "lat": 38.99454333333333, "name": "1d4c2dd32ffd51e52dc9d4fbe6cd4e9b", "fusion_lat": 0.0, "fusion_lon": 0.0, "rental_uris": {"android": "https://dc.lft.to/lastmile_qr_scan", "ios": "https://dc.lft.to/lastmile_qr_scan"}, "is_reserved": 0, "is_disabled": 0, "type": "electric_bike", "bike_id": "1d4c2dd32ffd51e52dc9d4fbe6cd4e9b"}, {"lon": -77.032089, "lat": 38.92967616666667, "name": "6430e9ca081bf52f0c0401d75e8bbcba", "fusion_lat": 0.0, "fusion_lon": 0.0, "rental_uris": {"android": "https://dc.lft.to/lastmile_qr_scan", "ios": "https://dc.lft.to/lastmile_qr_scan"}, "is_reserved": 0, "is_disabled": 0, "type": "electric_scooter", "bike_id": "6430e9ca081bf52f0c0401d75e8bbcba"}, {"lon": -77.0344415, "lat": 38.90742083333333, "name": "40b3045fa47e52c5c6b656132ed9568d", "fusion_lat": 0.0, "fusion_lon": 0.0, "rental_uris": {"android": "https://dc.lft.to/lastmile_qr_scan", "ios": "https://dc.lft.to/lastmile_qr_scan"}, "is_reserved": 0, "is_disabled": 0, "type": "electric_scooter", "bike_id": "40b3045fa47e52c5c6b656132ed9568d"}, {"lon": -77.03851283333333, "lat": 38.912856166666664, "name": "5a4909f7f00728e79e9e4a29f9bd3fff", "fusion_lat": 0.0, "fusion_lon": 0.0, "rental_uris": {"android": "https://dc.lft.to/lastmile_qr_scan", "ios": "https://dc.lft.to/lastmile_qr_scan"}, "is_reserved": 0, "is_disabled": 0, "type": "electric_scooter", "bike_id": "5a4909f7f00728e79e9e4a29f9bd3fff"}, {"lon": -77.06534633333334, "lat": 38.934764333333334, "name": "d3738bff4cf61bd2aac9128abf3cbe42", "fusion_lat": 0.0, "fusion_lon": 0.0, "rental_uris": {"android": "https://dc.lft.to/lastmile_qr_scan", "ios": "https://dc.lft.to/lastmile_qr_scan"}, "is_reserved": 0, "is_disabled": 0, "type": "electric_scooter", "bike_id": "d3738bff4cf61bd2aac9128abf3cbe42"}, {"lon": -77.023088, "lat": 38.92712683333333, "name": "247ba2fb335770dc5c3596692d431af0", "fusion_lat": 0.0, "fusion_lon": 0.0, "rental_uris": {"android": "https://dc.lft.to/lastmile_qr_scan", "ios": "https://dc.lft.to/lastmile_qr_scan"}, "is_reserved": 0, "is_disabled": 0, "type": "electric_scooter", "bike_id": "247ba2fb335770dc5c3596692d431af0"}, {"lon": -77.0602775, "lat": 38.939278, "name": "c2bc36b8fad83165e1a821a3f157a1bb", "fusion_lat": 0.0, "fusion_lon": 0.0, "rental_uris": {"android": "https://dc.lft.to/lastmile_qr_scan", "ios": "https://dc.lft.to/lastmile_qr_scan"}, "is_reserved": 0, "is_disabled": 0, "type": "electric_scooter", "bike_id": "c2bc36b8fad83165e1a821a3f157a1bb"}, {"lon": -77.05044283333334, "lat": 38.924192166666664, "name": "5c117941811b1c3311d5d30e5a336902", "fusion_lat": 0.0, "fusion_lon": 0.0, "rental_uris": {"android": "https://dc.lft.to/lastmile_qr_scan", "ios": "https://dc.lft.to/lastmile_qr_scan"}, "is_reserved": 0, "is_disabled": 0, "type": "electric_scooter", "bike_id": "5c117941811b1c3311d5d30e5a336902"}, {"lon": -77.0338785, "lat": 38.88658933333333, "name": "68bc74a332f8131fe183f83aee27e1dc", "fusion_lat": 0.0, "fusion_lon": 0.0, "rental_uris": {"android": "https://dc.lft.to/lastmile_qr_scan", "ios": "https://dc.lft.to/lastmile_qr_scan"}, "is_reserved": 0, "is_disabled": 0, "type": "electric_scooter", "bike_id": "68bc74a332f8131fe183f83aee27e1dc"}, {"lon": -77.0663285, "lat": 38.91368133333334, "name": "8a32595b68e77c81fea2ce308bc5e286", "fusion_lat": 0.0, "fusion_lon": 0.0, "rental_uris": {"android": "https://dc.lft.to/lastmile_qr_scan", "ios": "https://dc.lft.to/lastmile_qr_scan"}, "is_reserved": 0, "is_disabled": 0, "type": "electric_scooter", "bike_id": "8a32595b68e77c81fea2ce308bc5e286"}, {"lon": -77.057165, "lat": 38.90490716666667, "name": "046db3e950d691951cce040ab10fe744", "fusion_lat": 0.0, "fusion_lon": 0.0, "rental_uris": {"android": "https://dc.lft.to/lastmile_qr_scan", "ios": "https://dc.lft.to/lastmile_qr_scan"}, "is_reserved": 0, "is_disabled": 0, "type": "electric_scooter", "bike_id": "046db3e950d691951cce040ab10fe744"}, {"lon": -77.005541, "lat": 38.8754365, "name": "2b53462b7e0873aa4e6510078ed9d5e8", "fusion_lat": 0.0, "fusion_lon": 0.0, "rental_uris": {"android": "https://dc.lft.to/lastmile_qr_scan", "ios": "https://dc.lft.to/lastmile_qr_scan"}, "is_reserved": 0, "is_disabled": 0, "type": "electric_scooter", "bike_id": "2b53462b7e0873aa4e6510078ed9d5e8"}, {"lon": -77.0269385, "lat": 38.907044, "name": "efba6f5b5b04175ba2dab5105227a791", "fusion_lat": 0.0, "fusion_lon": 0.0, "rental_uris": {"android": "https://dc.lft.to/lastmile_qr_scan", "ios": "https://dc.lft.to/lastmile_qr_scan"}, "is_reserved": 0, "is_disabled": 0, "type": "electric_scooter", "bike_id": "efba6f5b5b04175ba2dab5105227a791"}, {"lon": -77.02938983333334, "lat": 38.942842166666665, "name": "0d84220b097186e7e6ac431481aa9e31", "fusion_lat": 0.0, "fusion_lon": 0.0, "rental_uris": {"android": "https://dc.lft.to/lastmile_qr_scan", "ios": "https://dc.lft.to/lastmile_qr_scan"}, "is_reserved": 0, "is_disabled": 0, "type": "electric_scooter", "bike_id": "0d84220b097186e7e6ac431481aa9e31"}, {"lon": -77.12901333333333, "lat": 38.863803, "name": "27400e120a472c2e51c56da128dc7607", "fusion_lat": 0.0, "fusion_lon": 0.0, "rental_uris": {"android": "https://dc.lft.to/lastmile_qr_scan", "ios": "https://dc.lft.to/lastmile_qr_scan"}, "is_reserved": 0, "is_disabled": 0, "type": "electric_bike", "bike_id": "27400e120a472c2e51c56da128dc7607"}, {"lon": -77.01354166666667, "lat": 38.871615166666665, "name": "c2606c13c2c233c16c6882aa9a58cc3b", "fusion_lat": 0.0, "fusion_lon": 0.0, "rental_uris": {"android": "https://dc.lft.to/lastmile_qr_scan", "ios": "https://dc.lft.to/lastmile_qr_scan"}, "is_reserved": 0, "is_disabled": 0, "type": "electric_scooter", "bike_id": "c2606c13c2c233c16c6882aa9a58cc3b"}, {"lon": -77.04015416666667, "lat": 38.896424833333334, "name": "a622a083ea6856cc61692b7b0763fd4a", "fusion_lat": 0.0, "fusion_lon": 0.0, "rental_uris": {"android": "https://dc.lft.to/lastmile_qr_scan", "ios": "https://dc.lft.to/lastmile_qr_scan"}, "is_reserved": 0, "is_disabled": 0, "type": "electric_scooter", "bike_id": "a622a083ea6856cc61692b7b0763fd4a"}, {"lon": -77.03428733333334, "lat": 38.919316, "name": "20ec7fc9c989912d3fa7cae05cee23a1", "fusion_lat": 0.0, "fusion_lon": 0.0, "rental_uris": {"android": "https://dc.lft.to/lastmile_qr_scan", "ios": "https://dc.lft.to/lastmile_qr_scan"}, "is_reserved": 0, "is_disabled": 0, "type": "electric_scooter", "bike_id": "20ec7fc9c989912d3fa7cae05cee23a1"}, {"lon": -76.9951575, "lat": 38.89482866666667, "name": "d778580b002d4a5e016439518160bd4c", "fusion_lat": 0.0, "fusion_lon": 0.0, "rental_uris": {"android": "https://dc.lft.to/lastmile_qr_scan", "ios": "https://dc.lft.to/lastmile_qr_scan"}, "is_reserved": 0, "is_disabled": 0, "type": "electric_scooter", "bike_id": "d778580b002d4a5e016439518160bd4c"}, {"lon": -77.03263066666666, "lat": 38.933332166666666, "name": "5cb23fbd7cc8d6ff503fa36e8904644a", "fusion_lat": 0.0, "fusion_lon": 0.0, "rental_uris": {"android": "https://dc.lft.to/lastmile_qr_scan", "ios": "https://dc.lft.to/lastmile_qr_scan"}, "is_reserved": 0, "is_disabled": 0, "type": "electric_scooter", "bike_id": "5cb23fbd7cc8d6ff503fa36e8904644a"}, {"lon": -77.00335333333334, "lat": 38.893549, "name": "3ab232952c75fc3273a6d425ad2c9d15", "fusion_lat": 0.0, "fusion_lon": 0.0, "rental_uris": {"android": "https://dc.lft.to/lastmile_qr_scan", "ios": "https://dc.lft.to/lastmile_qr_scan"}, "is_reserved": 0, "is_disabled": 0, "type": "electric_scooter", "bike_id": "3ab232952c75fc3273a6d425ad2c9d15"}, {"lon": -77.01201316666666, "lat": 38.900377166666665, "name": "8eba24a184197d7a5bc2cfbb63430932", "fusion_lat": 0.0, "fusion_lon": 0.0, "rental_uris": {"android": "https://dc.lft.to/lastmile_qr_scan", "ios": "https://dc.lft.to/lastmile_qr_scan"}, "is_reserved": 0, "is_disabled": 0, "type": "electric_scooter", "bike_id": "8eba24a184197d7a5bc2cfbb63430932"}, {"lon": -77.006139, "lat": 38.905799333333334, "name": "009a9f42fbc1055c82ea4fa3c899531b", "fusion_lat": 0.0, "fusion_lon": 0.0, "rental_uris": {"android": "https://dc.lft.to/lastmile_qr_scan", "ios": "https://dc.lft.to/lastmile_qr_scan"}, "is_reserved": 0, "is_disabled": 0, "type": "electric_scooter", "bike_id": "009a9f42fbc1055c82ea4fa3c899531b"}, {"lon": -77.04636916666666, "lat": 38.892234333333334, "name": "16c42c4496a48c62cba93d6da560166f", "fusion_lat": 0.0, "fusion_lon": 0.0, "rental_uris": {"android": "https://dc.lft.to/lastmile_qr_scan", "ios": "https://dc.lft.to/lastmile_qr_scan"}, "is_reserved": 0, "is_disabled": 0, "type": "electric_scooter", "bike_id": "16c42c4496a48c62cba93d6da560166f"}, {"lon": -76.9323145, "lat": 38.865967833333336, "name": "4cc9c28aca4c186a8de605bde692e0b7", "fusion_lat": 0.0, "fusion_lon": 0.0, "rental_uris": {"android": "https://dc.lft.to/lastmile_qr_scan", "ios": "https://dc.lft.to/lastmile_qr_scan"}, "is_reserved": 0, "is_disabled": 0, "type": "electric_bike", "bike_id": "4cc9c28aca4c186a8de605bde692e0b7"}, {"lon": -77.04076966666666, "lat": 38.905045, "name": "f4fad923f9d8986493d0b500d8ce965e", "fusion_lat": 0.0, "fusion_lon": 0.0, "rental_uris": {"android": "https://dc.lft.to/lastmile_qr_scan", "ios": "https://dc.lft.to/lastmile_qr_scan"}, "is_reserved": 0, "is_disabled": 0, "type": "electric_scooter", "bike_id": "f4fad923f9d8986493d0b500d8ce965e"}, {"lon": -77.0222215, "lat": 38.91259266666667, "name": "6d3d99a28c7504f3ad01cdf4394efb2f", "fusion_lat": 0.0, "fusion_lon": 0.0, "rental_uris": {"android": "https://dc.lft.to/lastmile_qr_scan", "ios": "https://dc.lft.to/lastmile_qr_scan"}, "is_reserved": 0, "is_disabled": 0, "type": "electric_scooter", "bike_id": "6d3d99a28c7504f3ad01cdf4394efb2f"}, {"lon": -77.03644366666667, "lat": 38.90292316666667, "name": "aed03caec54adaeda8a1f50ee03e9ca9", "fusion_lat": 0.0, "fusion_lon": 0.0, "rental_uris": {"android": "https://dc.lft.to/lastmile_qr_scan", "ios": "https://dc.lft.to/lastmile_qr_scan"}, "is_reserved": 0, "is_disabled": 0, "type": "electric_scooter", "bike_id": "aed03caec54adaeda8a1f50ee03e9ca9"}, {"lon": -77.02488633333333, "lat": 38.917576, "name": "c3a26088cd8f6fef983444db5443822e", "fusion_lat": 0.0, "fusion_lon": 0.0, "rental_uris": {"android": "https://dc.lft.to/lastmile_qr_scan", "ios": "https://dc.lft.to/lastmile_qr_scan"}, "is_reserved": 0, "is_disabled": 0, "type": "electric_scooter", "bike_id": "c3a26088cd8f6fef983444db5443822e"}, {"lon": -77.12958416666666, "lat": 38.852173, "name": "a70773b814d22a68e741b2acb96045a0", "fusion_lat": 0.0, "fusion_lon": 0.0, "rental_uris": {"android": "https://dc.lft.to/lastmile_qr_scan", "ios": "https://dc.lft.to/lastmile_qr_scan"}, "is_reserved": 0, "is_disabled": 0, "type": "electric_bike", "bike_id": "a70773b814d22a68e741b2acb96045a0"}, {"lon": -77.0091685, "lat": 38.910712833333335, "name": "f9873ef5453214c82620e306c49106e3", "fusion_lat": 0.0, "fusion_lon": 0.0, "rental_uris": {"android": "https://dc.lft.to/lastmile_qr_scan", "ios": "https://dc.lft.to/lastmile_qr_scan"}, "is_reserved": 0, "is_disabled": 0, "type": "electric_scooter", "bike_id": "f9873ef5453214c82620e306c49106e3"}, {"lon": -77.04513433333334, "lat": 38.8922335, "name": "320863ed754375e1fcf2befdf1500dd6", "fusion_lat": 0.0, "fusion_lon": 0.0, "rental_uris": {"android": "https://dc.lft.to/lastmile_qr_scan", "ios": "https://dc.lft.to/lastmile_qr_scan"}, "is_reserved": 0, "is_disabled": 0, "type": "electric_scooter", "bike_id": "320863ed754375e1fcf2befdf1500dd6"}, {"lon": -76.94213216666667, "lat": 38.89677566666667, "name": "19a641f0d830b54eff4fc1b569378870", "fusion_lat": 0.0, "fusion_lon": 0.0, "rental_uris": {"android": "https://dc.lft.to/lastmile_qr_scan", "ios": "https://dc.lft.to/lastmile_qr_scan"}, "is_reserved": 0, "is_disabled": 0, "type": "electric_scooter", "bike_id": "19a641f0d830b54eff4fc1b569378870"}, {"lon": -77.03336583333333, "lat": 38.92161016666667, "name": "35c0e74b9bbca23a98bda10da8666503", "fusion_lat": 0.0, "fusion_lon": 0.0, "rental_uris": {"android": "https://dc.lft.to/lastmile_qr_scan", "ios": "https://dc.lft.to/lastmile_qr_scan"}, "is_reserved": 0, "is_disabled": 0, "type": "electric_scooter", "bike_id": "35c0e74b9bbca23a98bda10da8666503"}, {"lon": -77.0920125, "lat": 38.94131333333333, "name": "2a450eb580d91a4765bad6459e2f4c16", "fusion_lat": 0.0, "fusion_lon": 0.0, "rental_uris": {"android": "https://dc.lft.to/lastmile_qr_scan", "ios": "https://dc.lft.to/lastmile_qr_scan"}, "is_reserved": 0, "is_disabled": 0, "type": "electric_scooter", "bike_id": "2a450eb580d91a4765bad6459e2f4c16"}, {"lon": -77.001954, "lat": 38.90044816666666, "name": "10cb158691be2ca39391799b02110a02", "fusion_lat": 0.0, "fusion_lon": 0.0, "rental_uris": {"android": "https://dc.lft.to/lastmile_qr_scan", "ios": "https://dc.lft.to/lastmile_qr_scan"}, "is_reserved": 0, "is_disabled": 0, "type": "electric_scooter", "bike_id": "10cb158691be2ca39391799b02110a02"}, {"lon": -77.11218666666667, "lat": 38.828784666666664, "name": "993ddd6aef873b48fa480ac1074aadca", "fusion_lat": 0.0, "fusion_lon": 0.0, "rental_uris": {"android": "https://dc.lft.to/lastmile_qr_scan", "ios": "https://dc.lft.to/lastmile_qr_scan"}, "is_reserved": 0, "is_disabled": 0, "type": "electric_bike", "bike_id": "993ddd6aef873b48fa480ac1074aadca"}, {"lon": -77.04384633333333, "lat": 38.90727233333333, "name": "0be638cd229fc1d79a04db2ab6bf3400", "fusion_lat": 0.0, "fusion_lon": 0.0, "rental_uris": {"android": "https://dc.lft.to/lastmile_qr_scan", "ios": "https://dc.lft.to/lastmile_qr_scan"}, "is_reserved": 0, "is_disabled": 0, "type": "electric_scooter", "bike_id": "0be638cd229fc1d79a04db2ab6bf3400"}, {"lon": -76.93158166666667, "lat": 38.898779, "name": "b59f37817c8b976c64b2ecbc302cdf32", "fusion_lat": 0.0, "fusion_lon": 0.0, "rental_uris": {"android": "https://dc.lft.to/lastmile_qr_scan", "ios": "https://dc.lft.to/lastmile_qr_scan"}, "is_reserved": 0, "is_disabled": 0, "type": "electric_scooter", "bike_id": "b59f37817c8b976c64b2ecbc302cdf32"}, {"lon": -77.02697766666667, "lat": 38.916366333333336, "name": "f4363d29b093dcf964b4cb3d182f6ba8", "fusion_lat": 0.0, "fusion_lon": 0.0, "rental_uris": {"android": "https://dc.lft.to/lastmile_qr_scan", "ios": "https://dc.lft.to/lastmile_qr_scan"}, "is_reserved": 0, "is_disabled": 0, "type": "electric_scooter", "bike_id": "f4363d29b093dcf964b4cb3d182f6ba8"}, {"lon": -77.0181955, "lat": 38.902547, "name": "bc2d8ad6a7e585922e767b0ce535c645", "fusion_lat": 0.0, "fusion_lon": 0.0, "rental_uris": {"android": "https://dc.lft.to/lastmile_qr_scan", "ios": "https://dc.lft.to/lastmile_qr_scan"}, "is_reserved": 0, "is_disabled": 0, "type": "electric_scooter", "bike_id": "bc2d8ad6a7e585922e767b0ce535c645"}, {"lon": -77.03132583333333, "lat": 38.91563266666667, "name": "f8510416db8cd793278dfdc8ff384d15", "fusion_lat": 0.0, "fusion_lon": 0.0, "rental_uris": {"android": "https://dc.lft.to/lastmile_qr_scan", "ios": "https://dc.lft.to/lastmile_qr_scan"}, "is_reserved": 0, "is_disabled": 0, "type": "electric_scooter", "bike_id": "f8510416db8cd793278dfdc8ff384d15"}, {"lon": -77.02971566666666, "lat": 38.916876333333335, "name": "8b000d410e8941bd450b8f7e566db72f", "fusion_lat": 0.0, "fusion_lon": 0.0, "rental_uris": {"android": "https://dc.lft.to/lastmile_qr_scan", "ios": "https://dc.lft.to/lastmile_qr_scan"}, "is_reserved": 0, "is_disabled": 0, "type": "electric_scooter", "bike_id": "8b000d410e8941bd450b8f7e566db72f"}, {"lon": -76.87497016666667, "lat": 38.990916166666665, "name": "4f1328ee88cc150d95b2e76dc199fd25", "fusion_lat": 0.0, "fusion_lon": 0.0, "rental_uris": {"android": "https://dc.lft.to/lastmile_qr_scan", "ios": "https://dc.lft.to/lastmile_qr_scan"}, "is_reserved": 0, "is_disabled": 0, "type": "electric_bike", "bike_id": "4f1328ee88cc150d95b2e76dc199fd25"}, {"lon": -77.03356466666666, "lat": 38.93216783333333, "name": "f1e415a9f74b9b0f62610ad9cb138e38", "fusion_lat": 0.0, "fusion_lon": 0.0, "rental_uris": {"android": "https://dc.lft.to/lastmile_qr_scan", "ios": "https://dc.lft.to/lastmile_qr_scan"}, "is_reserved": 0, "is_disabled": 0, "type": "electric_scooter", "bike_id": "f1e415a9f74b9b0f62610ad9cb138e38"}, {"lon": -76.97311416666666, "lat": 38.919903166666664, "name": "f19184481a1b4fd60eac8501077bac87", "fusion_lat": 0.0, "fusion_lon": 0.0, "rental_uris": {"android": "https://dc.lft.to/lastmile_qr_scan", "ios": "https://dc.lft.to/lastmile_qr_scan"}, "is_reserved": 0, "is_disabled": 0, "type": "electric_scooter", "bike_id": "f19184481a1b4fd60eac8501077bac87"}, {"lon": -77.00602466666666, "lat": 38.884922833333334, "name": "d865a87a0dcd479ba6ff51fac97ee841", "fusion_lat": 0.0, "fusion_lon": 0.0, "rental_uris": {"android": "https://dc.lft.to/lastmile_qr_scan", "ios": "https://dc.lft.to/lastmile_qr_scan"}, "is_reserved": 0, "is_disabled": 0, "type": "electric_scooter", "bike_id": "d865a87a0dcd479ba6ff51fac97ee841"}, {"lon": -77.02281516666666, "lat": 38.9255365, "name": "738a75dcb05d0bf44910b355fe412a60", "fusion_lat": 0.0, "fusion_lon": 0.0, "rental_uris": {"android": "https://dc.lft.to/lastmile_qr_scan", "ios": "https://dc.lft.to/lastmile_qr_scan"}, "is_reserved": 0, "is_disabled": 0, "type": "electric_scooter", "bike_id": "738a75dcb05d0bf44910b355fe412a60"}, {"lon": -77.03258866666667, "lat": 38.932459, "name": "4c8fd6498e6ad14e498c0ea843147372", "fusion_lat": 0.0, "fusion_lon": 0.0, "rental_uris": {"android": "https://dc.lft.to/lastmile_qr_scan", "ios": "https://dc.lft.to/lastmile_qr_scan"}, "is_reserved": 0, "is_disabled": 0, "type": "electric_scooter", "bike_id": "4c8fd6498e6ad14e498c0ea843147372"}, {"lon": -77.014137, "lat": 38.89095783333333, "name": "dddf4e03b931037ef0f8aa23d4d3d0ed", "fusion_lat": 0.0, "fusion_lon": 0.0, "rental_uris": {"android": "https://dc.lft.to/lastmile_qr_scan", "ios": "https://dc.lft.to/lastmile_qr_scan"}, "is_reserved": 0, "is_disabled": 0, "type": "electric_scooter", "bike_id": "dddf4e03b931037ef0f8aa23d4d3d0ed"}, {"lon": -77.03227216666667, "lat": 38.89224466666667, "name": "6a08add0bead5e92e3d6ac58ed6e53a5", "fusion_lat": 0.0, "fusion_lon": 0.0, "rental_uris": {"android": "https://dc.lft.to/lastmile_qr_scan", "ios": "https://dc.lft.to/lastmile_qr_scan"}, "is_reserved": 0, "is_disabled": 0, "type": "electric_scooter", "bike_id": "6a08add0bead5e92e3d6ac58ed6e53a5"}, {"lon": -77.02486216666667, "lat": 38.938674166666665, "name": "76f56428fef061543baba6ee9d95b75b", "fusion_lat": 0.0, "fusion_lon": 0.0, "rental_uris": {"android": "https://dc.lft.to/lastmile_qr_scan", "ios": "https://dc.lft.to/lastmile_qr_scan"}, "is_reserved": 0, "is_disabled": 0, "type": "electric_scooter", "bike_id": "76f56428fef061543baba6ee9d95b75b"}, {"lon": -76.9457155, "lat": 38.8662335, "name": "47b2768c51f6974b934c8a3a4a168714", "fusion_lat": 0.0, "fusion_lon": 0.0, "rental_uris": {"android": "https://dc.lft.to/lastmile_qr_scan", "ios": "https://dc.lft.to/lastmile_qr_scan"}, "is_reserved": 0, "is_disabled": 0, "type": "electric_bike", "bike_id": "47b2768c51f6974b934c8a3a4a168714"}, {"lon": -77.077282, "lat": 38.947105666666666, "name": "23e2236027d419a1ce678dfea2853639", "fusion_lat": 0.0, "fusion_lon": 0.0, "rental_uris": {"android": "https://dc.lft.to/lastmile_qr_scan", "ios": "https://dc.lft.to/lastmile_qr_scan"}, "is_reserved": 0, "is_disabled": 0, "type": "electric_scooter", "bike_id": "23e2236027d419a1ce678dfea2853639"}, {"lon": -76.9993665, "lat": 38.89617633333334, "name": "7268c3d50d3588b97fb8f51b8ee10278", "fusion_lat": 0.0, "fusion_lon": 0.0, "rental_uris": {"android": "https://dc.lft.to/lastmile_qr_scan", "ios": "https://dc.lft.to/lastmile_qr_scan"}, "is_reserved": 0, "is_disabled": 0, "type": "electric_scooter", "bike_id": "7268c3d50d3588b97fb8f51b8ee10278"}, {"lon": -77.04886116666667, "lat": 38.9044435, "name": "01bfc2828390891c8d699b4818849a38", "fusion_lat": 0.0, "fusion_lon": 0.0, "rental_uris": {"android": "https://dc.lft.to/lastmile_qr_scan", "ios": "https://dc.lft.to/lastmile_qr_scan"}, "is_reserved": 0, "is_disabled": 0, "type": "electric_scooter", "bike_id": "01bfc2828390891c8d699b4818849a38"}, {"lon": -76.95208366666667, "lat": 38.936708833333334, "name": "b2a440e973f043a6d1ed9727f23613f2", "fusion_lat": 0.0, "fusion_lon": 0.0, "rental_uris": {"android": "https://dc.lft.to/lastmile_qr_scan", "ios": "https://dc.lft.to/lastmile_qr_scan"}, "is_reserved": 0, "is_disabled": 0, "type": "electric_bike", "bike_id": "b2a440e973f043a6d1ed9727f23613f2"}, {"lon": -77.0282785, "lat": 38.917021166666665, "name": "f33d858c1b5d20362b6a2ffe12df3c78", "fusion_lat": 0.0, "fusion_lon": 0.0, "rental_uris": {"android": "https://dc.lft.to/lastmile_qr_scan", "ios": "https://dc.lft.to/lastmile_qr_scan"}, "is_reserved": 0, "is_disabled": 0, "type": "electric_scooter", "bike_id": "f33d858c1b5d20362b6a2ffe12df3c78"}, {"lon": -77.011179, "lat": 38.91558166666667, "name": "edc0790612455e26e9bb9746bca7afaa", "fusion_lat": 0.0, "fusion_lon": 0.0, "rental_uris": {"android": "https://dc.lft.to/lastmile_qr_scan", "ios": "https://dc.lft.to/lastmile_qr_scan"}, "is_reserved": 0, "is_disabled": 0, "type": "electric_scooter", "bike_id": "edc0790612455e26e9bb9746bca7afaa"}, {"lon": -77.022379, "lat": 38.914160833333334, "name": "6867f8197dec4e566651a989e775cb82", "fusion_lat": 0.0, "fusion_lon": 0.0, "rental_uris": {"android": "https://dc.lft.to/lastmile_qr_scan", "ios": "https://dc.lft.to/lastmile_qr_scan"}, "is_reserved": 0, "is_disabled": 0, "type": "electric_scooter", "bike_id": "6867f8197dec4e566651a989e775cb82"}, {"lon": -77.01535416666667, "lat": 38.88625666666667, "name": "a0e8e6feb959349f3b3bee3264e6807c", "fusion_lat": 0.0, "fusion_lon": 0.0, "rental_uris": {"android": "https://dc.lft.to/lastmile_qr_scan", "ios": "https://dc.lft.to/lastmile_qr_scan"}, "is_reserved": 0, "is_disabled": 0, "type": "electric_scooter", "bike_id": "a0e8e6feb959349f3b3bee3264e6807c"}, {"lon": -77.06767966666666, "lat": 38.9050815, "name": "a3a1252a42d4e6c7de0945208373f110", "fusion_lat": 0.0, "fusion_lon": 0.0, "rental_uris": {"android": "https://dc.lft.to/lastmile_qr_scan", "ios": "https://dc.lft.to/lastmile_qr_scan"}, "is_reserved": 0, "is_disabled": 0, "type": "electric_scooter", "bike_id": "a3a1252a42d4e6c7de0945208373f110"}, {"lon": -77.03880083333334, "lat": 38.95560316666667, "name": "440919821199a26ab9903ea2d18631d7", "fusion_lat": 0.0, "fusion_lon": 0.0, "rental_uris": {"android": "https://dc.lft.to/lastmile_qr_scan", "ios": "https://dc.lft.to/lastmile_qr_scan"}, "is_reserved": 0, "is_disabled": 0, "type": "electric_scooter", "bike_id": "440919821199a26ab9903ea2d18631d7"}, {"lon": -76.93183583333334, "lat": 38.898757833333335, "name": "5c62b3e2c2ce0a75976b7f729b3b6321", "fusion_lat": 0.0, "fusion_lon": 0.0, "rental_uris": {"android": "https://dc.lft.to/lastmile_qr_scan", "ios": "https://dc.lft.to/lastmile_qr_scan"}, "is_reserved": 0, "is_disabled": 0, "type": "electric_scooter", "bike_id": "5c62b3e2c2ce0a75976b7f729b3b6321"}, {"lon": -77.02816916666667, "lat": 38.89538783333333, "name": "73c1c3ac0ae057f47ac05c4890ea2a9b", "fusion_lat": 0.0, "fusion_lon": 0.0, "rental_uris": {"android": "https://dc.lft.to/lastmile_qr_scan", "ios": "https://dc.lft.to/lastmile_qr_scan"}, "is_reserved": 0, "is_disabled": 0, "type": "electric_scooter", "bike_id": "73c1c3ac0ae057f47ac05c4890ea2a9b"}, {"lon": -76.99059566666666, "lat": 38.9002465, "name": "7060b9b4cc5a2dff43bc48bb21cedc8c", "fusion_lat": 0.0, "fusion_lon": 0.0, "rental_uris": {"android": "https://dc.lft.to/lastmile_qr_scan", "ios": "https://dc.lft.to/lastmile_qr_scan"}, "is_reserved": 0, "is_disabled": 0, "type": "electric_scooter", "bike_id": "7060b9b4cc5a2dff43bc48bb21cedc8c"}, {"lon": -77.00130933333334, "lat": 38.904164333333334, "name": "b9f5c6c220de3ca4162b5fe84901e53c", "fusion_lat": 0.0, "fusion_lon": 0.0, "rental_uris": {"android": "https://dc.lft.to/lastmile_qr_scan", "ios": "https://dc.lft.to/lastmile_qr_scan"}, "is_reserved": 0, "is_disabled": 0, "type": "electric_scooter", "bike_id": "b9f5c6c220de3ca4162b5fe84901e53c"}, {"lon": -77.0629435, "lat": 38.90601433333333, "name": "1fbeff03444351097d255b92a069415d", "fusion_lat": 0.0, "fusion_lon": 0.0, "rental_uris": {"android": "https://dc.lft.to/lastmile_qr_scan", "ios": "https://dc.lft.to/lastmile_qr_scan"}, "is_reserved": 0, "is_disabled": 0, "type": "electric_bike", "bike_id": "1fbeff03444351097d255b92a069415d"}, {"lon": -77.03214216666667, "lat": 38.91995566666667, "name": "8d4360264412e75e1880b430cef9fe57", "fusion_lat": 0.0, "fusion_lon": 0.0, "rental_uris": {"android": "https://dc.lft.to/lastmile_qr_scan", "ios": "https://dc.lft.to/lastmile_qr_scan"}, "is_reserved": 0, "is_disabled": 0, "type": "electric_scooter", "bike_id": "8d4360264412e75e1880b430cef9fe57"}, {"lon": -77.033369, "lat": 38.92158166666667, "name": "bfbcb22ac0b933ca0b9b36a40e42459e", "fusion_lat": 0.0, "fusion_lon": 0.0, "rental_uris": {"android": "https://dc.lft.to/lastmile_qr_scan", "ios": "https://dc.lft.to/lastmile_qr_scan"}, "is_reserved": 0, "is_disabled": 0, "type": "electric_scooter", "bike_id": "bfbcb22ac0b933ca0b9b36a40e42459e"}, {"lon": -76.9850865, "lat": 38.8808285, "name": "fe0a960e9aed88bf80b9fb386d40f5b5", "fusion_lat": 0.0, "fusion_lon": 0.0, "rental_uris": {"android": "https://dc.lft.to/lastmile_qr_scan", "ios": "https://dc.lft.to/lastmile_qr_scan"}, "is_reserved": 0, "is_disabled": 0, "type": "electric_bike", "bike_id": "fe0a960e9aed88bf80b9fb386d40f5b5"}, {"lon": -77.0283675, "lat": 38.88773783333333, "name": "ce2415f0824644c4cf5e7ca34c1b21a7", "fusion_lat": 0.0, "fusion_lon": 0.0, "rental_uris": {"android": "https://dc.lft.to/lastmile_qr_scan", "ios": "https://dc.lft.to/lastmile_qr_scan"}, "is_reserved": 0, "is_disabled": 0, "type": "electric_scooter", "bike_id": "ce2415f0824644c4cf5e7ca34c1b21a7"}, {"lon": -77.03834983333333, "lat": 38.91467566666667, "name": "f33328d415762d6be9ea6644a9be745a", "fusion_lat": 0.0, "fusion_lon": 0.0, "rental_uris": {"android": "https://dc.lft.to/lastmile_qr_scan", "ios": "https://dc.lft.to/lastmile_qr_scan"}, "is_reserved": 0, "is_disabled": 0, "type": "electric_scooter", "bike_id": "f33328d415762d6be9ea6644a9be745a"}, {"lon": -77.04153733333334, "lat": 38.923356166666665, "name": "b39ea6c55394c6df832642daae0e0509", "fusion_lat": 0.0, "fusion_lon": 0.0, "rental_uris": {"android": "https://dc.lft.to/lastmile_qr_scan", "ios": "https://dc.lft.to/lastmile_qr_scan"}, "is_reserved": 0, "is_disabled": 0, "type": "electric_scooter", "bike_id": "b39ea6c55394c6df832642daae0e0509"}, {"lon": -77.03153, "lat": 38.89721883333333, "name": "1ae2bd70d3386f1a36007eeaf4d82ad2", "fusion_lat": 0.0, "fusion_lon": 0.0, "rental_uris": {"android": "https://dc.lft.to/lastmile_qr_scan", "ios": "https://dc.lft.to/lastmile_qr_scan"}, "is_reserved": 0, "is_disabled": 0, "type": "electric_scooter", "bike_id": "1ae2bd70d3386f1a36007eeaf4d82ad2"}, {"lon": -77.00687066666667, "lat": 38.87702483333333, "name": "fb114cedf7ce4bcbc02ce507d24c0aab", "fusion_lat": 0.0, "fusion_lon": 0.0, "rental_uris": {"android": "https://dc.lft.to/lastmile_qr_scan", "ios": "https://dc.lft.to/lastmile_qr_scan"}, "is_reserved": 0, "is_disabled": 0, "type": "electric_scooter", "bike_id": "fb114cedf7ce4bcbc02ce507d24c0aab"}, {"lon": -77.03408783333333, "lat": 38.919166833333335, "name": "21aad44f8b4181faa67a8c4c3b8df0c4", "fusion_lat": 0.0, "fusion_lon": 0.0, "rental_uris": {"android": "https://dc.lft.to/lastmile_qr_scan", "ios": "https://dc.lft.to/lastmile_qr_scan"}, "is_reserved": 0, "is_disabled": 0, "type": "electric_scooter", "bike_id": "21aad44f8b4181faa67a8c4c3b8df0c4"}, {"lon": -76.99470266666667, "lat": 38.86194733333333, "name": "d644b6f0f03296fbad72d16894badae7", "fusion_lat": 0.0, "fusion_lon": 0.0, "rental_uris": {"android": "https://dc.lft.to/lastmile_qr_scan", "ios": "https://dc.lft.to/lastmile_qr_scan"}, "is_reserved": 0, "is_disabled": 0, "type": "electric_scooter", "bike_id": "d644b6f0f03296fbad72d16894badae7"}, {"lon": -77.06847466666666, "lat": 38.91737366666667, "name": "2f9e382825a6254763e13b62eaf8a3c9", "fusion_lat": 0.0, "fusion_lon": 0.0, "rental_uris": {"android": "https://dc.lft.to/lastmile_qr_scan", "ios": "https://dc.lft.to/lastmile_qr_scan"}, "is_reserved": 0, "is_disabled": 0, "type": "electric_scooter", "bike_id": "2f9e382825a6254763e13b62eaf8a3c9"}, {"lon": -76.999002, "lat": 38.90961866666667, "name": "9ae86fe99b9b421d9895203556cfad29", "fusion_lat": 0.0, "fusion_lon": 0.0, "rental_uris": {"android": "https://dc.lft.to/lastmile_qr_scan", "ios": "https://dc.lft.to/lastmile_qr_scan"}, "is_reserved": 0, "is_disabled": 0, "type": "electric_scooter", "bike_id": "9ae86fe99b9b421d9895203556cfad29"}, {"lon": -77.03474566666667, "lat": 38.91712833333333, "name": "10988f0d7afcf85e889bea3fce4cbd51", "fusion_lat": 0.0, "fusion_lon": 0.0, "rental_uris": {"android": "https://dc.lft.to/lastmile_qr_scan", "ios": "https://dc.lft.to/lastmile_qr_scan"}, "is_reserved": 0, "is_disabled": 0, "type": "electric_scooter", "bike_id": "10988f0d7afcf85e889bea3fce4cbd51"}, {"lon": -77.03856633333334, "lat": 38.93239483333333, "name": "142939fe85c4f07cad657c691526c1df", "fusion_lat": 0.0, "fusion_lon": 0.0, "rental_uris": {"android": "https://dc.lft.to/lastmile_qr_scan", "ios": "https://dc.lft.to/lastmile_qr_scan"}, "is_reserved": 0, "is_disabled": 0, "type": "electric_scooter", "bike_id": "142939fe85c4f07cad657c691526c1df"}, {"lon": -77.02354866666667, "lat": 38.91115033333333, "name": "d973d8a378f65cbf4a2243b4a5e013c2", "fusion_lat": 0.0, "fusion_lon": 0.0, "rental_uris": {"android": "https://dc.lft.to/lastmile_qr_scan", "ios": "https://dc.lft.to/lastmile_qr_scan"}, "is_reserved": 0, "is_disabled": 0, "type": "electric_scooter", "bike_id": "d973d8a378f65cbf4a2243b4a5e013c2"}, {"lon": -77.130941, "lat": 38.86165116666667, "name": "4a006035692275f23e065e3270ecf43b", "fusion_lat": 0.0, "fusion_lon": 0.0, "rental_uris": {"android": "https://dc.lft.to/lastmile_qr_scan", "ios": "https://dc.lft.to/lastmile_qr_scan"}, "is_reserved": 0, "is_disabled": 0, "type": "electric_bike", "bike_id": "4a006035692275f23e065e3270ecf43b"}, {"lon": -77.02467933333334, "lat": 38.938569666666666, "name": "2b1d3f17b190681478126166f6316b10", "fusion_lat": 0.0, "fusion_lon": 0.0, "rental_uris": {"android": "https://dc.lft.to/lastmile_qr_scan", "ios": "https://dc.lft.to/lastmile_qr_scan"}, "is_reserved": 0, "is_disabled": 0, "type": "electric_scooter", "bike_id": "2b1d3f17b190681478126166f6316b10"}, {"lon": -77.04100216666667, "lat": 38.91845433333334, "name": "2f51cb784e8de3ddc31392e05335ce53", "fusion_lat": 0.0, "fusion_lon": 0.0, "rental_uris": {"android": "https://dc.lft.to/lastmile_qr_scan", "ios": "https://dc.lft.to/lastmile_qr_scan"}, "is_reserved": 0, "is_disabled": 0, "type": "electric_scooter", "bike_id": "2f51cb784e8de3ddc31392e05335ce53"}, {"lon": -77.03215366666667, "lat": 38.91651933333333, "name": "ab29a32c4a04d6ee94b3ac4bc6b4cbb7", "fusion_lat": 0.0, "fusion_lon": 0.0, "rental_uris": {"android": "https://dc.lft.to/lastmile_qr_scan", "ios": "https://dc.lft.to/lastmile_qr_scan"}, "is_reserved": 0, "is_disabled": 0, "type": "electric_scooter", "bike_id": "ab29a32c4a04d6ee94b3ac4bc6b4cbb7"}, {"lon": -76.9874815, "lat": 38.857942, "name": "72e8bb752ea8b6028d34f30c0ccf254b", "fusion_lat": 0.0, "fusion_lon": 0.0, "rental_uris": {"android": "https://dc.lft.to/lastmile_qr_scan", "ios": "https://dc.lft.to/lastmile_qr_scan"}, "is_reserved": 0, "is_disabled": 0, "type": "electric_bike", "bike_id": "72e8bb752ea8b6028d34f30c0ccf254b"}, {"lon": -77.03186116666667, "lat": 38.91922566666667, "name": "0dd5246de2ec5bd387f8d26299e6904d", "fusion_lat": 0.0, "fusion_lon": 0.0, "rental_uris": {"android": "https://dc.lft.to/lastmile_qr_scan", "ios": "https://dc.lft.to/lastmile_qr_scan"}, "is_reserved": 0, "is_disabled": 0, "type": "electric_scooter", "bike_id": "0dd5246de2ec5bd387f8d26299e6904d"}, {"lon": -77.03225983333333, "lat": 38.892228833333334, "name": "d847a3ef633f9e5b2ceb5dddae2b6b7a", "fusion_lat": 0.0, "fusion_lon": 0.0, "rental_uris": {"android": "https://dc.lft.to/lastmile_qr_scan", "ios": "https://dc.lft.to/lastmile_qr_scan"}, "is_reserved": 0, "is_disabled": 0, "type": "electric_scooter", "bike_id": "d847a3ef633f9e5b2ceb5dddae2b6b7a"}, {"lon": -77.02388583333334, "lat": 38.9291005, "name": "094d917749c15340b0c5e203f62b4d3a", "fusion_lat": 0.0, "fusion_lon": 0.0, "rental_uris": {"android": "https://dc.lft.to/lastmile_qr_scan", "ios": "https://dc.lft.to/lastmile_qr_scan"}, "is_reserved": 0, "is_disabled": 0, "type": "electric_bike", "bike_id": "094d917749c15340b0c5e203f62b4d3a"}, {"lon": -77.02963, "lat": 38.8922945, "name": "fc668658adfa142a956681ec74f73c97", "fusion_lat": 0.0, "fusion_lon": 0.0, "rental_uris": {"android": "https://dc.lft.to/lastmile_qr_scan", "ios": "https://dc.lft.to/lastmile_qr_scan"}, "is_reserved": 0, "is_disabled": 0, "type": "electric_scooter", "bike_id": "fc668658adfa142a956681ec74f73c97"}, {"lon": -76.98399216666667, "lat": 38.92203716666667, "name": "ccea3fb51c6ef505e04570e880bb5c6f", "fusion_lat": 0.0, "fusion_lon": 0.0, "rental_uris": {"android": "https://dc.lft.to/lastmile_qr_scan", "ios": "https://dc.lft.to/lastmile_qr_scan"}, "is_reserved": 0, "is_disabled": 0, "type": "electric_bike", "bike_id": "ccea3fb51c6ef505e04570e880bb5c6f"}, {"lon": -77.03279066666667, "lat": 38.89873716666666, "name": "8eca25990bddba0d1f650fdb6dd55df3", "fusion_lat": 0.0, "fusion_lon": 0.0, "rental_uris": {"android": "https://dc.lft.to/lastmile_qr_scan", "ios": "https://dc.lft.to/lastmile_qr_scan"}, "is_reserved": 0, "is_disabled": 0, "type": "electric_scooter", "bike_id": "8eca25990bddba0d1f650fdb6dd55df3"}, {"lon": -77.12631433333334, "lat": 39.05815966666667, "name": "6d62a6b7da9bd411a6a0ff03bd5589d3", "fusion_lat": 0.0, "fusion_lon": 0.0, "rental_uris": {"android": "https://dc.lft.to/lastmile_qr_scan", "ios": "https://dc.lft.to/lastmile_qr_scan"}, "is_reserved": 0, "is_disabled": 0, "type": "electric_bike", "bike_id": "6d62a6b7da9bd411a6a0ff03bd5589d3"}, {"lon": -76.99830116666666, "lat": 38.844219, "name": "f5d23356ea702b315216e47b59c47925", "fusion_lat": 0.0, "fusion_lon": 0.0, "rental_uris": {"android": "https://dc.lft.to/lastmile_qr_scan", "ios": "https://dc.lft.to/lastmile_qr_scan"}, "is_reserved": 0, "is_disabled": 0, "type": "electric_scooter", "bike_id": "f5d23356ea702b315216e47b59c47925"}, {"lon": -77.04875083333333, "lat": 38.90657816666667, "name": "aad28451c42d8d8030153795e015a995", "fusion_lat": 0.0, "fusion_lon": 0.0, "rental_uris": {"android": "https://dc.lft.to/lastmile_qr_scan", "ios": "https://dc.lft.to/lastmile_qr_scan"}, "is_reserved": 0, "is_disabled": 0, "type": "electric_scooter", "bike_id": "aad28451c42d8d8030153795e015a995"}, {"lon": -77.03133233333334, "lat": 38.910340833333336, "name": "3e3660c01fb9e5d7f48081c8ec50e5f5", "fusion_lat": 0.0, "fusion_lon": 0.0, "rental_uris": {"android": "https://dc.lft.to/lastmile_qr_scan", "ios": "https://dc.lft.to/lastmile_qr_scan"}, "is_reserved": 0, "is_disabled": 0, "type": "electric_scooter", "bike_id": "3e3660c01fb9e5d7f48081c8ec50e5f5"}, {"lon": -77.0227905, "lat": 38.90221616666667, "name": "2fbc87eeb5ac2c67308761d3463ea13b", "fusion_lat": 0.0, "fusion_lon": 0.0, "rental_uris": {"android": "https://dc.lft.to/lastmile_qr_scan", "ios": "https://dc.lft.to/lastmile_qr_scan"}, "is_reserved": 0, "is_disabled": 0, "type": "electric_scooter", "bike_id": "2fbc87eeb5ac2c67308761d3463ea13b"}, {"lon": -77.04341433333333, "lat": 38.90378183333333, "name": "29597154fdfe27100a2feff04994e5ee", "fusion_lat": 0.0, "fusion_lon": 0.0, "rental_uris": {"android": "https://dc.lft.to/lastmile_qr_scan", "ios": "https://dc.lft.to/lastmile_qr_scan"}, "is_reserved": 0, "is_disabled": 0, "type": "electric_scooter", "bike_id": "29597154fdfe27100a2feff04994e5ee"},