{"data": {"bikes": [{"rental_uris": {"android": "https://dc.lft.to/lastmile_qr_scan", "ios": "https://dc.lft.to/lastmile_qr_scan"}, "fusion_lat": 0.0, "is_reserved": 0, "lat": 38.94499166666667, "name": "6edd9dad24d3b5f8bcd698599e6653ec", "bike_id": "6edd9dad24d3b5f8bcd698599e6653ec", "is_disabled": 0, "fusion_lon": 0.0, "type": "electric_bike", "lon": -77.00509433333333}, {"rental_uris": {"android": "https://dc.lft.to/lastmile_qr_scan", "ios": "https://dc.lft.to/lastmile_qr_scan"}, "fusion_lat": 0.0, "is_reserved": 0, "lat": 38.86487983333333, "name": "98ef2d2479580c858114ae08fe34e440", "bike_id": "98ef2d2479580c858114ae08fe34e440", "is_disabled": 0, "fusion_lon": 0.0, "type": "electric_scooter", "lon": -76.97749233333333}, {"rental_uris": {"android": "https://dc.lft.to/lastmile_qr_scan", "ios": "https://dc.lft.to/lastmile_qr_scan"}, "fusion_lat": 0.0, "is_reserved": 0, "lat": 38.9191045, "name": "378eed9cb13cac4cf4e7d4274b606789", "bike_id": "378eed9cb13cac4cf4e7d4274b606789", "is_disabled": 0, "fusion_lon": 0.0, "type": "electric_scooter", "lon": -77.02392266666666}, {"rental_uris": {"android": "https://dc.lft.to/lastmile_qr_scan", "ios": "https://dc.lft.to/lastmile_qr_scan"}, "fusion_lat": 0.0, "is_reserved": 0, "lat": 38.92170183333333, "name": "f9e7781a06aba03de1ef58cb177c7a4b", "bike_id": "f9e7781a06aba03de1ef58cb177c7a4b", "is_disabled": 0, "fusion_lon": 0.0, "type": "electric_scooter", "lon": -77.02663433333333}, {"rental_uris": {"android": "https://dc.lft.to/lastmile_qr_scan", "ios": "https://dc.lft.to/lastmile_qr_scan"}, "fusion_lat": 0.0, "is_reserved": 0, "lat": 38.893530166666665, "name": "3cc9f673894b2f5cebc6e56ca3a1295f", "bike_id": "3cc9f673894b2f5cebc6e56ca3a1295f", "is_disabled": 0, "fusion_lon": 0.0, "type": "electric_scooter", "lon": -77.01746016666667}, {"rental_uris": {"android": "https://dc.lft.to/lastmile_qr_scan", "ios": "https://dc.lft.to/lastmile_qr_scan"}, "fusion_lat": 0.0, "is_reserved": 0, "lat": 38.93589566666667, "name": "aff500421e7b19646f3dd15a2441c51b", "bike_id": "aff500421e7b19646f3dd15a2441c51b", "is_disabled": 0, "fusion_lon": 0.0, "type": "electric_scooter", "lon": -77.0336955}, {"rental_uris": {"android": "https://dc.lft.to/lastmile_qr_scan", "ios": "https://dc.lft.to/lastmile_qr_scan"}, "fusion_lat": 0.0, "is_reserved": 0, "lat": 38.900423333333336, "name": "3d5cf01f276fb4006b36a8de7a9d3363", "bike_id": "3d5cf01f276fb4006b36a8de7a9d3363", "is_disabled": 0, "fusion_lon": 0.0, "type": "electric_scooter", "lon": -76.98805966666667}, {"rental_uris": {"android": "https://dc.lft.to/lastmile_qr_scan", "ios": "https://dc.lft.to/lastmile_qr_scan"}, "fusion_lat": 0.0, "is_reserved": 0, "lat": 38.91764883333333, "name": "71de42a65bed9d0a5ad03b03bcbb0fd7", "bike_id": "71de42a65bed9d0a5ad03b03bcbb0fd7", "is_disabled": 0, "fusion_lon": 0.0, "type": "electric_scooter", "lon": -77.028143}, {"rental_uris": {"android": "https://dc.lft.to/lastmile_qr_scan", "ios": "https://dc.lft.to/lastmile_qr_scan"}, "fusion_lat": 0.0, "is_reserved": 0, "lat": 38.9261115, "name": "84fb7f5a23b9a8bc728216baa7dcd407", "bike_id": "84fb7f5a23b9a8bc728216baa7dcd407", "is_disabled": 0, "fusion_lon": 0.0, "type": "electric_scooter", "lon": -77.02160283333333}, {"rental_uris": {"android": "https://dc.lft.to/lastmile_qr_scan", "ios": "https://dc.lft.to/lastmile_qr_scan"}, "fusion_lat": 0.0, "is_reserved": 0, "lat": 38.930099, "name": "ec814eb1029d72da672fe9859bbf7707", "bike_id": "ec814eb1029d72da672fe9859bbf7707", "is_disabled": 0, "fusion_lon": 0.0, "type": "electric_scooter", "lon": -77.0365315}, {"rental_uris": {"android": "https://dc.lft.to/lastmile_qr_scan", "ios": "https://dc.lft.to/lastmile_qr_scan"}, "fusion_lat": 0.0, "is_reserved": 0, "lat": 38.89485033333333, "name": "7b1b579f33decd1e7162651178d722e1", "bike_id": "7b1b579f33decd1e7162651178d722e1", "is_disabled": 0, "fusion_lon": 0.0, "type": "electric_scooter", "lon": -76.9957685}, {"rental_uris": {"android": "https://dc.lft.to/lastmile_qr_scan", "ios": "https://dc.lft.to/lastmile_qr_scan"}, "fusion_lat": 0.0, "is_reserved": 0, "lat": 38.89132883333333, "name": "a18fd6a8ae67520e5b1f109249c9286a", "bike_id": "a18fd6a8ae67520e5b1f109249c9286a", "is_disabled": 0, "fusion_lon": 0.0, "type": "electric_scooter", "lon": -76.99952466666667}, {"rental_uris": {"android": "https://dc.lft.to/lastmile_qr_scan", "ios": "https://dc.lft.to/lastmile_qr_scan"}, "fusion_lat": 0.0, "is_reserved": 0, "lat": 38.93055733333333, "name": "66c918c4e4545cfe5ce9f67174f8a62e", "bike_id": "66c918c4e4545cfe5ce9f67174f8a62e", "is_disabled": 0, "fusion_lon": 0.0, "type": "electric_scooter", "lon": -77.02320066666667}, {"rental_uris": {"android": "https://dc.lft.to/lastmile_qr_scan", "ios": "https://dc.lft.to/lastmile_qr_scan"}, "fusion_lat": 0.0, "is_reserved": 0, "lat": 38.8982185, "name": "e42f8287852b1bbc886523e03200c5d9", "bike_id": "e42f8287852b1bbc886523e03200c5d9", "is_disabled": 0, "fusion_lon": 0.0, "type": "electric_scooter", "lon": -77.02808483333334}, {"rental_uris": {"android": "https://dc.lft.to/lastmile_qr_scan", "ios": "https://dc.lft.to/lastmile_qr_scan"}, "fusion_lat": 0.0, "is_reserved": 0, "lat": 38.89355783333333, "name": "93bc121ffb34d91bca66decdf59501af", "bike_id": "93bc121ffb34d91bca66decdf59501af", "is_disabled": 0, "fusion_lon": 0.0, "type": "electric_scooter", "lon": -77.003353}, {"rental_uris": {"android": "https://dc.lft.to/lastmile_qr_scan", "ios": "https://dc.lft.to/lastmile_qr_scan"}, "fusion_lat": 0.0, "is_reserved": 0, "lat": 38.8872065, "name": "e7bd909f1fbba7af7b6fa952ad32d26c", "bike_id": "e7bd909f1fbba7af7b6fa952ad32d26c", "is_disabled": 0, "fusion_lon": 0.0, "type": "electric_scooter", "lon": -76.99676283333334}, {"rental_uris": {"android": "https://dc.lft.to/lastmile_qr_scan", "ios": "https://dc.lft.to/lastmile_qr_scan"}, "fusion_lat": 0.0, "is_reserved": 0, "lat": 38.93748983333333, "name": "b52d05d08161acbb6415d3aff6cbc6dd", "bike_id": "b52d05d08161acbb6415d3aff6cbc6dd", "is_disabled": 0, "fusion_lon": 0.0, "type": "electric_scooter", "lon": -77.03433166666667}, {"rental_uris": {"android": "https://dc.lft.to/lastmile_qr_scan", "ios": "https://dc.lft.to/lastmile_qr_scan"}, "fusion_lat": 0.0, "is_reserved": 0, "lat": 38.8543605, "name": "30271167f97bbe8a3866e8e3362e6b5d", "bike_id": "30271167f97bbe8a3866e8e3362e6b5d", "is_disabled": 0, "fusion_lon": 0.0, "type": "electric_bike", "lon": -77.08320883333333}, {"rental_uris": {"android": "https://dc.lft.to/lastmile_qr_scan", "ios": "https://dc.lft.to/lastmile_qr_scan"}, "fusion_lat": 0.0, "is_reserved": 0, "lat": 38.937418666666666, "name": "645c72667cbb57d81f2157a8d1c925b5", "bike_id": "645c72667cbb57d81f2157a8d1c925b5", "is_disabled": 0, "fusion_lon": 0.0, "type": "electric_scooter", "lon": -77.032592}, {"rental_uris": {"android": "https://dc.lft.to/lastmile_qr_scan", "ios": "https://dc.lft.to/lastmile_qr_scan"}, "fusion_lat": 0.0, "is_reserved": 0, "lat": 39.021133166666665, "name": "2ebd4614ea705eab19e52c04fc6ffb6d", "bike_id": "2ebd4614ea705eab19e52c04fc6ffb6d", "is_disabled": 0, "fusion_lon": 0.0, "type": "electric_bike", "lon": -77.04494716666666}, {"rental_uris": {"android": "https://dc.lft.to/lastmile_qr_scan", "ios": "https://dc.lft.to/lastmile_qr_scan"}, "fusion_lat": 0.0, "is_reserved": 0, "lat": 38.8775585, "name": "1ef46c8a0b43ef6f49d286af24a68522", "bike_id": "1ef46c8a0b43ef6f49d286af24a68522", "is_disabled": 0, "fusion_lon": 0.0, "type": "electric_scooter", "lon": -77.00318266666666}, {"rental_uris": {"android": "https://dc.lft.to/lastmile_qr_scan", "ios": "https://dc.lft.to/lastmile_qr_scan"}, "fusion_lat": 0.0, "is_reserved": 0, "lat": 38.90252866666667, "name": "aed6f8735133bec0cefddd9f753812ee", "bike_id": "aed6f8735133bec0cefddd9f753812ee", "is_disabled": 0, "fusion_lon": 0.0, "type": "electric_scooter", "lon": -77.03962933333334}, {"rental_uris": {"android": "https://dc.lft.to/lastmile_qr_scan", "ios": "https://dc.lft.to/lastmile_qr_scan"}, "fusion_lat": 0.0, "is_reserved": 0, "lat": 38.91631566666667, "name": "ae0792c078e767d9be77a50f0e394015", "bike_id": "ae0792c078e767d9be77a50f0e394015", "is_disabled": 0, "fusion_lon": 0.0, "type": "electric_scooter", "lon": -77.03205716666666}, {"rental_uris": {"android": "https://dc.lft.to/lastmile_qr_scan", "ios": "https://dc.lft.to/lastmile_qr_scan"}, "fusion_lat": 0.0, "is_reserved": 0, "lat": 38.936935, "name": "e6bd424353b547b2f1b0338824a0b31b", "bike_id": "e6bd424353b547b2f1b0338824a0b31b", "is_disabled": 0, "fusion_lon": 0.0, "type": "electric_scooter", "lon": -77.02714083333333}, {"rental_uris": {"android": "https://dc.lft.to/lastmile_qr_scan", "ios": "https://dc.lft.to/lastmile_qr_scan"}, "fusion_lat": 0.0, "is_reserved": 0, "lat": 38.92521816666667, "name": "98d1832353cf375fca2136247fc54532", "bike_id": "98d1832353cf375fca2136247fc54532", "is_disabled": 0, "fusion_lon": 0.0, "type": "electric_scooter", "lon": -77.050582}, {"rental_uris": {"android": "https://dc.lft.to/lastmile_qr_scan", "ios": "https://dc.lft.to/lastmile_qr_scan"}, "fusion_lat": 0.0, "is_reserved": 0, "lat": 38.92053033333333, "name": "eabb52bf01f8e506f02b9d7092fb1f7f", "bike_id": "eabb52bf01f8e506f02b9d7092fb1f7f", "is_disabled": 0, "fusion_lon": 0.0, "type": "electric_scooter", "lon": -77.03274166666667}, {"rental_uris": {"android": "https://dc.lft.to/lastmile_qr_scan", "ios": "https://dc.lft.to/lastmile_qr_scan"}, "fusion_lat": 0.0, "is_reserved": 0, "lat": 38.90637066666667, "name": "c454fa5da9bf0d4018fd0f8a9b7d7213", "bike_id": "c454fa5da9bf0d4018fd0f8a9b7d7213", "is_disabled": 0, "fusion_lon": 0.0, "type": "electric_scooter", "lon": -77.01427083333333}, {"rental_uris": {"android": "https://dc.lft.to/lastmile_qr_scan", "ios": "https://dc.lft.to/lastmile_qr_scan"}, "fusion_lat": 0.0, "is_reserved": 0, "lat": 38.906082166666664, "name": "ac419c19408897016ce5bd854486503d", "bike_id": "ac419c19408897016ce5bd854486503d", "is_disabled": 0, "fusion_lon": 0.0, "type": "electric_scooter", "lon": -77.05028933333334}, {"rental_uris": {"android": "https://dc.lft.to/lastmile_qr_scan", "ios": "https://dc.lft.to/lastmile_qr_scan"}, "fusion_lat": 0.0, "is_reserved": 0, "lat": 38.9245385, "name": "532f141265b5119cb462d209ac5be1a0", "bike_id": "532f141265b5119cb462d209ac5be1a0", "is_disabled": 0, "fusion_lon": 0.0, "type": "electric_scooter", "lon": -76.99910266666667}, {"rental_uris": {"android": "https://dc.lft.to/lastmile_qr_scan", "ios": "https://dc.lft.to/lastmile_qr_scan"}, "fusion_lat": 0.0, "is_reserved": 0, "lat": 38.86430766666667, "name": "28bc354a5afdb8e6cd38f3cf6c86a906", "bike_id": "28bc354a5afdb8e6cd38f3cf6c86a906", "is_disabled": 0, "fusion_lon": 0.0, "type": "electric_scooter", "lon": -76.998565}, {"rental_uris": {"android": "https://dc.lft.to/lastmile_qr_scan", "ios": "https://dc.lft.to/lastmile_qr_scan"}, "fusion_lat": 0.0, "is_reserved": 0, "lat": 38.90058166666667, "name": "c12f6087330678627d6c8ffc51dc4f9c", "bike_id": "c12f6087330678627d6c8ffc51dc4f9c", "is_disabled": 0, "fusion_lon": 0.0, "type": "electric_scooter", "lon": -76.98679583333333}, {"rental_uris": {"android": "https://dc.lft.to/lastmile_qr_scan", "ios": "https://dc.lft.to/lastmile_qr_scan"}, "fusion_lat": 0.0, "is_reserved": 0, "lat": 38.918268, "name": "1b7d92c74c75f742dfd6fedd3dc40bfd", "bike_id": "1b7d92c74c75f742dfd6fedd3dc40bfd", "is_disabled": 0, "fusion_lon": 0.0, "type": "electric_scooter", "lon": -77.04560933333333}, {"rental_uris": {"android": "https://dc.lft.to/lastmile_qr_scan", "ios": "https://dc.lft.to/lastmile_qr_scan"}, "fusion_lat": 0.0, "is_reserved": 0, "lat": 38.938553166666665, "name": "e48500eceb9e055e318ff1108ac40a73", "bike_id": "e48500eceb9e055e318ff1108ac40a73", "is_disabled": 0, "fusion_lon": 0.0, "type": "electric_scooter", "lon": -77.02474983333333}, {"rental_uris": {"android": "https://dc.lft.to/lastmile_qr_scan", "ios": "https://dc.lft.to/lastmile_qr_scan"}, "fusion_lat": 0.0, "is_reserved": 0, "lat": 38.924314, "name": "7f413083c8a1402de6ed1762667ea666", "bike_id": "7f413083c8a1402de6ed1762667ea666", "is_disabled": 0, "fusion_lon": 0.0, "type": "electric_scooter", "lon": -77.03791933333333}, {"rental_uris": {"android": "https://dc.lft.to/lastmile_qr_scan", "ios": "https://dc.lft.to/lastmile_qr_scan"}, "fusion_lat": 0.0, "is_reserved": 0, "lat": 38.93445416666667, "name": "a51d28a00bb70e9ab199161c5f09626e", "bike_id": "a51d28a00bb70e9ab199161c5f09626e", "is_disabled": 0, "fusion_lon": 0.0, "type": "electric_scooter", "lon": -77.0298335}, {"rental_uris": {"android": "https://dc.lft.to/lastmile_qr_scan", "ios": "https://dc.lft.to/lastmile_qr_scan"}, "fusion_lat": 0.0, "is_reserved": 0, "lat": 38.88042, "name": "806f1660790a4c12eb0f2ec5a85f12fc", "bike_id": "806f1660790a4c12eb0f2ec5a85f12fc", "is_disabled": 0, "fusion_lon": 0.0, "type": "electric_scooter", "lon": -77.0118925}, {"rental_uris": {"android": "https://dc.lft.to/lastmile_qr_scan", "ios": "https://dc.lft.to/lastmile_qr_scan"}, "fusion_lat": 0.0, "is_reserved": 0, "lat": 38.90609883333333, "name": "046758ad3bfc511f81b1b2158c1f9ed6", "bike_id": "046758ad3bfc511f81b1b2158c1f9ed6", "is_disabled": 0, "fusion_lon": 0.0, "type": "electric_bike", "lon": -77.12884916666667}, {"rental_uris": {"android": "https://dc.lft.to/lastmile_qr_scan", "ios": "https://dc.lft.to/lastmile_qr_scan"}, "fusion_lat": 0.0, "is_reserved": 0, "lat": 38.932508166666665, "name": "6dc11d57849e971a3234aea5d881d94d", "bike_id": "6dc11d57849e971a3234aea5d881d94d", "is_disabled": 0, "fusion_lon": 0.0, "type": "electric_scooter", "lon": -77.03272083333333}, {"rental_uris": {"android": "https://dc.lft.to/lastmile_qr_scan", "ios": "https://dc.lft.to/lastmile_qr_scan"}, "fusion_lat": 0.0, "is_reserved": 0, "lat": 38.91571583333333, "name": "42a4c3d68fbd5f171bf1bd9c299dc31d", "bike_id": "42a4c3d68fbd5f171bf1bd9c299dc31d", "is_disabled": 0, "fusion_lon": 0.0, "type": "electric_scooter", "lon": -77.018871}, {"rental_uris": {"android": "https://dc.lft.to/lastmile_qr_scan", "ios": "https://dc.lft.to/lastmile_qr_scan"}, "fusion_lat": 0.0, "is_reserved": 0, "lat": 38.9032735, "name": "114c50540f7e46479163c3a03ba586a1", "bike_id": "114c50540f7e46479163c3a03ba586a1", "is_disabled": 0, "fusion_lon": 0.0, "type": "electric_scooter", "lon": -77.0253985}, {"rental_uris": {"android": "https://dc.lft.to/lastmile_qr_scan", "ios": "https://dc.lft.to/lastmile_qr_scan"}, "fusion_lat": 0.0, "is_reserved": 0, "lat": 38.88074733333333, "name": "89120c3f09f23dbefd9e4fffcfcb3d30", "bike_id": "89120c3f09f23dbefd9e4fffcfcb3d30", "is_disabled": 0, "fusion_lon": 0.0, "type": "electric_scooter", "lon": -77.03722}, {"rental_uris": {"android": "https://dc.lft.to/lastmile_qr_scan", "ios": "https://dc.lft.to/lastmile_qr_scan"}, "fusion_lat": 0.0, "is_reserved": 0, "lat": 38.881376333333336, "name": "cfcf5ba8c16f4c393aa1616d865f9b60", "bike_id": "cfcf5ba8c16f4c393aa1616d865f9b60", "is_disabled": 0, "fusion_lon": 0.0, "type": "electric_scooter", "lon": -77.017663}, {"rental_uris": {"android": "https://dc.lft.to/lastmile_qr_scan", "ios": "https://dc.lft.to/lastmile_qr_scan"}, "fusion_lat": 0.0, "is_reserved": 0, "lat": 38.924796, "name": "6733376bbed24bfe4add671ca927e7f0", "bike_id": "6733376bbed24bfe4add671ca927e7f0", "is_disabled": 0, "fusion_lon": 0.0, "type": "electric_scooter", "lon": -77.05213766666667}, {"rental_uris": {"android": "https://dc.lft.to/lastmile_qr_scan", "ios": "https://dc.lft.to/lastmile_qr_scan"}, "fusion_lat": 0.0, "is_reserved": 0, "lat": 38.899216333333335, "name": "79d8442217b7ec47eaadf2a64469f5e9", "bike_id": "79d8442217b7ec47eaadf2a64469f5e9", "is_disabled": 0, "fusion_lon": 0.0, "type": "electric_bike", "lon": -77.00162216666666}, {"rental_uris": {"android": "https://dc.lft.to/lastmile_qr_scan", "ios": "https://dc.lft.to/lastmile_qr_scan"}, "fusion_lat": 0.0, "is_reserved": 0, "lat": 38.9213755, "name": "da9d6ed2612547eb5384e34092e773bd", "bike_id": "da9d6ed2612547eb5384e34092e773bd", "is_disabled": 0, "fusion_lon": 0.0, "type": "electric_scooter", "lon": -77.0337445}, {"rental_uris": {"android": "https://dc.lft.to/lastmile_qr_scan", "ios": "https://dc.lft.to/lastmile_qr_scan"}, "fusion_lat": 0.0, "is_reserved": 0, "lat": 38.8936595, "name": "8b07757286332289c6875f772de991f2", "bike_id": "8b07757286332289c6875f772de991f2", "is_disabled": 0, "fusion_lon": 0.0, "type": "electric_scooter", "lon": -76.98461166666667}, {"rental_uris": {"android": "https://dc.lft.to/lastmile_qr_scan", "ios": "https://dc.lft.to/lastmile_qr_scan"}, "fusion_lat": 0.0, "is_reserved": 0, "lat": 38.94217366666667, "name": "e2dab130d1eb76724713631a9fb18288", "bike_id": "e2dab130d1eb76724713631a9fb18288", "is_disabled": 0, "fusion_lon": 0.0, "type": "electric_bike", "lon": -76.96125783333333}, {"rental_uris": {"android": "https://dc.lft.to/lastmile_qr_scan", "ios": "https://dc.lft.to/lastmile_qr_scan"}, "fusion_lat": 0.0, "is_reserved": 0, "lat": 38.9574115, "name": "fa8616d5854c197002b087f19c496fb9", "bike_id": "fa8616d5854c197002b087f19c496fb9", "is_disabled": 0, "fusion_lon": 0.0, "type": "electric_scooter", "lon": -77.020662}, {"rental_uris": {"android": "https://dc.lft.to/lastmile_qr_scan", "ios": "https://dc.lft.to/lastmile_qr_scan"}, "fusion_lat": 0.0, "is_reserved": 0, "lat": 38.896146, "name": "9e27c7f7bd78ff68a5e8e2fc78291056", "bike_id": "9e27c7f7bd78ff68a5e8e2fc78291056", "is_disabled": 0, "fusion_lon": 0.0, "type": "electric_scooter", "lon": -76.929755}, {"rental_uris": {"android": "https://dc.lft.to/lastmile_qr_scan", "ios": "https://dc.lft.to/lastmile_qr_scan"}, "fusion_lat": 0.0, "is_reserved": 0, "lat": 38.918319333333336, "name": "576693173d81b037fd6fc90c9939ebfd", "bike_id": "576693173d81b037fd6fc90c9939ebfd", "is_disabled": 0, "fusion_lon": 0.0, "type": "electric_scooter", "lon": -77.035116}, {"rental_uris": {"android": "https://dc.lft.to/lastmile_qr_scan", "ios": "https://dc.lft.to/lastmile_qr_scan"}, "fusion_lat": 0.0, "is_reserved": 0, "lat": 38.90613783333333, "name": "04151a498b34d337164b2e976397ee33", "bike_id": "04151a498b34d337164b2e976397ee33", "is_disabled": 0, "fusion_lon": 0.0, "type": "electric_scooter", "lon": -77.01026466666667}, {"rental_uris": {"android": "https://dc.lft.to/lastmile_qr_scan", "ios": "https://dc.lft.to/lastmile_qr_scan"}, "fusion_lat": 0.0, "is_reserved": 0, "lat": 38.903591, "name": "29f9178a1bca30cf918147ed31fe34ae", "bike_id": "29f9178a1bca30cf918147ed31fe34ae", "is_disabled": 0, "fusion_lon": 0.0, "type": "electric_scooter", "lon": -77.01731583333333}, {"rental_uris": {"android": "https://dc.lft.to/lastmile_qr_scan", "ios": "https://dc.lft.to/lastmile_qr_scan"}, "fusion_lat": 0.0, "is_reserved": 0, "lat": 38.91254933333333, "name": "f4810ff109438908c675bbca75cb84b0", "bike_id": "f4810ff109438908c675bbca75cb84b0", "is_disabled": 0, "fusion_lon": 0.0, "type": "electric_scooter", "lon": -77.0386185}, {"rental_uris": {"android": "https://dc.lft.to/lastmile_qr_scan", "ios": "https://dc.lft.to/lastmile_qr_scan"}, "fusion_lat": 0.0, "is_reserved": 0, "lat": 38.9051125, "name": "805ca41f9064b7db4bee7f531876a5f0", "bike_id": "805ca41f9064b7db4bee7f531876a5f0", "is_disabled": 0, "fusion_lon": 0.0, "type": "electric_scooter", "lon": -77.05119633333334}, {"rental_uris": {"android": "https://dc.lft.to/lastmile_qr_scan", "ios": "https://dc.lft.to/lastmile_qr_scan"}, "fusion_lat": 0.0, "is_reserved": 0, "lat": 38.882682, "name": "e0dadcedb2fcf3cabae5edd5a2c8988e", "bike_id": "e0dadcedb2fcf3cabae5edd5a2c8988e", "is_disabled": 0, "fusion_lon": 0.0, "type": "electric_scooter", "lon": -76.99200316666666}, {"rental_uris": {"android": "https://dc.lft.to/lastmile_qr_scan", "ios": "https://dc.lft.to/lastmile_qr_scan"}, "fusion_lat": 0.0, "is_reserved": 0, "lat": 38.926897833333335, "name": "26da3f96bf72b79f2f4cec318c18eda7", "bike_id": "26da3f96bf72b79f2f4cec318c18eda7", "is_disabled": 0, "fusion_lon": 0.0, "type": "electric_scooter", "lon": -77.02051233333333}, {"rental_uris": {"android": "https://dc.lft.to/lastmile_qr_scan", "ios": "https://dc.lft.to/lastmile_qr_scan"}, "fusion_lat": 0.0, "is_reserved": 0, "lat": 38.905615833333336, "name": "6e13d1b0a3dd778432f873e3e70b4638", "bike_id": "6e13d1b0a3dd778432f873e3e70b4638", "is_disabled": 0, "fusion_lon": 0.0, "type": "electric_scooter", "lon": -77.0418135}, {"rental_uris": {"android": "https://dc.lft.to/lastmile_qr_scan", "ios": "https://dc.lft.to/lastmile_qr_scan"}, "fusion_lat": 0.0, "is_reserved": 0, "lat": 38.896208666666666, "name": "f08d81739257c77101915fae779d19bc", "bike_id": "f08d81739257c77101915fae779d19bc", "is_disabled": 0, "fusion_lon": 0.0, "type": "electric_scooter", "lon": -77.01175316666667}, {"rental_uris": {"android": "https://dc.lft.to/lastmile_qr_scan", "ios": "https://dc.lft.to/lastmile_qr_scan"}, "fusion_lat": 0.0, "is_reserved": 0, "lat": 38.947293333333334, "name": "022cf3d5ccc0a6e55334d2892cd30aae", "bike_id": "022cf3d5ccc0a6e55334d2892cd30aae", "is_disabled": 0, "fusion_lon": 0.0, "type": "electric_scooter", "lon": -77.02459983333334}, {"rental_uris": {"android": "https://dc.lft.to/lastmile_qr_scan", "ios": "https://dc.lft.to/lastmile_qr_scan"}, "fusion_lat": 0.0, "is_reserved": 0, "lat": 38.90067033333333, "name": "2a63a7727e52a610c8b6dc08cf37ce69", "bike_id": "2a63a7727e52a610c8b6dc08cf37ce69", "is_disabled": 0, "fusion_lon": 0.0, "type": "electric_scooter", "lon": -76.927443}, {"rental_uris": {"android": "https://dc.lft.to/lastmile_qr_scan", "ios": "https://dc.lft.to/lastmile_qr_scan"}, "fusion_lat": 0.0, "is_reserved": 0, "lat": 38.9205405, "name": "1d0768738948aafab4196f30db7b59ec", "bike_id": "1d0768738948aafab4196f30db7b59ec", "is_disabled": 0, "fusion_lon": 0.0, "type": "electric_scooter", "lon": -77.02985033333333}, {"rental_uris": {"android": "https://dc.lft.to/lastmile_qr_scan", "ios": "https://dc.lft.to/lastmile_qr_scan"}, "fusion_lat": 0.0, "is_reserved": 0, "lat": 38.94819433333333, "name": "3cd059a7b748c85ecd9e3729e66cd8ad", "bike_id": "3cd059a7b748c85ecd9e3729e66cd8ad", "is_disabled": 0, "fusion_lon": 0.0, "type": "electric_bike", "lon": -77.00634666666667}, {"rental_uris": {"android": "https://dc.lft.to/lastmile_qr_scan", "ios": "https://dc.lft.to/lastmile_qr_scan"}, "fusion_lat": 0.0, "is_reserved": 0, "lat": 38.87633116666667, "name": "80d64662a6965d917954434a424db514", "bike_id": "80d64662a6965d917954434a424db514", "is_disabled": 0, "fusion_lon": 0.0, "type": "electric_scooter", "lon": -77.01657366666667}, {"rental_uris": {"android": "https://dc.lft.to/lastmile_qr_scan", "ios": "https://dc.lft.to/lastmile_qr_scan"}, "fusion_lat": 0.0, "is_reserved": 0, "lat": 38.87073916666667, "name": "c660e4175379d258abcbabbf19b3bf23", "bike_id": "c660e4175379d258abcbabbf19b3bf23", "is_disabled": 0, "fusion_lon": 0.0, "type": "electric_bike", "lon": -77.11044866666667}, {"rental_uris": {"android": "https://dc.lft.to/lastmile_qr_scan", "ios": "https://dc.lft.to/lastmile_qr_scan"}, "fusion_lat": 0.0, "is_reserved": 0, "lat": 38.90421683333334, "name": "0bdc56f3aefb5f3746cdb3364c3bd671", "bike_id": "0bdc56f3aefb5f3746cdb3364c3bd671", "is_disabled": 0, "fusion_lon": 0.0, "type": "electric_scooter", "lon": -77.053209}, {"rental_uris": {"android": "https://dc.lft.to/lastmile_qr_scan", "ios": "https://dc.lft.to/lastmile_qr_scan"}, "fusion_lat": 0.0, "is_reserved": 0, "lat": 38.879334666666665, "name": "c61af0465d1cfd8db19fab899832a3cf", "bike_id": "c61af0465d1cfd8db19fab899832a3cf", "is_disabled": 0, "fusion_lon": 0.0, "type": "electric_scooter", "lon": -77.0037835}, {"rental_uris": {"android": "https://dc.lft.to/lastmile_qr_scan", "ios": "https://dc.lft.to/lastmile_qr_scan"}, "fusion_lat": 0.0, "is_reserved": 0, "lat": 38.883422833333334, "name": "ad0ae92e2f73c01bec970adabca5491c", "bike_id": "ad0ae92e2f73c01bec970adabca5491c", "is_disabled": 0, "fusion_lon": 0.0, "type": "electric_scooter", "lon": -76.9428585}, {"rental_uris": {"android": "https://dc.lft.to/lastmile_qr_scan", "ios": "https://dc.lft.to/lastmile_qr_scan"}, "fusion_lat": 0.0, "is_reserved": 0, "lat": 38.917137333333336, "name": "66f5d65482906e2f7baa4993cf51dcb8", "bike_id": "66f5d65482906e2f7baa4993cf51dcb8", "is_disabled": 0, "fusion_lon": 0.0, "type": "electric_scooter", "lon": -77.0345255}, {"rental_uris": {"android": "https://dc.lft.to/lastmile_qr_scan", "ios": "https://dc.lft.to/lastmile_qr_scan"}, "fusion_lat": 0.0, "is_reserved": 0, "lat": 38.911902833333336, "name": "82ee9480ca9ce51df476d0c88d5208f8", "bike_id": "82ee9480ca9ce51df476d0c88d5208f8", "is_disabled": 0, "fusion_lon": 0.0, "type": "electric_scooter", "lon": -77.03834683333334}, {"rental_uris": {"android": "https://dc.lft.to/lastmile_qr_scan", "ios": "https://dc.lft.to/lastmile_qr_scan"}, "fusion_lat": 0.0, "is_reserved": 0, "lat": 38.88417316666666, "name": "d14b9365dd08415b6342a5eb4a7f7c7c", "bike_id": "d14b9365dd08415b6342a5eb4a7f7c7c", "is_disabled": 0, "fusion_lon": 0.0, "type": "electric_scooter", "lon": -77.025961}, {"rental_uris": {"android": "https://dc.lft.to/lastmile_qr_scan", "ios": "https://dc.lft.to/lastmile_qr_scan"}, "fusion_lat": 0.0, "is_reserved": 0, "lat": 38.91813616666666, "name": "2bcd0e0bc6733e2f6d1dafa01540a474", "bike_id": "2bcd0e0bc6733e2f6d1dafa01540a474", "is_disabled": 0, "fusion_lon": 0.0, "type": "electric_scooter", "lon": -77.024821}, {"rental_uris": {"android": "https://dc.lft.to/lastmile_qr_scan", "ios": "https://dc.lft.to/lastmile_qr_scan"}, "fusion_lat": 0.0, "is_reserved": 0, "lat": 38.90566033333333, "name": "e2bf0a5a32221968700c8bebd3aff6df", "bike_id": "e2bf0a5a32221968700c8bebd3aff6df", "is_disabled": 0, "fusion_lon": 0.0, "type": "electric_scooter", "lon": -77.023953}, {"rental_uris": {"android": "https://dc.lft.to/lastmile_qr_scan", "ios": "https://dc.lft.to/lastmile_qr_scan"}, "fusion_lat": 0.0, "is_reserved": 0, "lat": 38.923931833333334, "name": "06cf45fa10db5807d29baa134f066261", "bike_id": "06cf45fa10db5807d29baa134f066261", "is_disabled": 0, "fusion_lon": 0.0, "type": "electric_scooter", "lon": -77.03653483333333}, {"rental_uris": {"android": "https://dc.lft.to/lastmile_qr_scan", "ios": "https://dc.lft.to/lastmile_qr_scan"}, "fusion_lat": 0.0, "is_reserved": 0, "lat": 38.91559916666667, "name": "eabf2de57dbcf1c4527adc3edf79f0f3", "bike_id": "eabf2de57dbcf1c4527adc3edf79f0f3", "is_disabled": 0, "fusion_lon": 0.0, "type": "electric_scooter", "lon": -77.03128266666667}, {"rental_uris": {"android": "https://dc.lft.to/lastmile_qr_scan", "ios": "https://dc.lft.to/lastmile_qr_scan"}, "fusion_lat": 0.0, "is_reserved": 0, "lat": 38.93694883333333, "name": "e14b53d9696ef0b2609fb22cdacb04b7", "bike_id": "e14b53d9696ef0b2609fb22cdacb04b7", "is_disabled": 0, "fusion_lon": 0.0, "type": "electric_scooter", "lon": -77.0559165}, {"rental_uris": {"android": "https://dc.lft.to/lastmile_qr_scan", "ios": "https://dc.lft.to/lastmile_qr_scan"}, "fusion_lat": 0.0, "is_reserved": 0, "lat": 38.9073935, "name": "8190ccfd637fd1c64b50cd66ec45de21", "bike_id": "8190ccfd637fd1c64b50cd66ec45de21", "is_disabled": 0, "fusion_lon": 0.0, "type": "electric_scooter", "lon": -76.93484533333333}, {"rental_uris": {"android": "https://dc.lft.to/lastmile_qr_scan", "ios": "https://dc.lft.to/lastmile_qr_scan"}, "fusion_lat": 0.0, "is_reserved": 0, "lat": 38.90158, "name": "5056a7b21537cdaaa49967a0b24720da", "bike_id": "5056a7b21537cdaaa49967a0b24720da", "is_disabled": 0, "fusion_lon": 0.0, "type": "electric_scooter", "lon": -77.04648383333334}, {"rental_uris": {"android": "https://dc.lft.to/lastmile_qr_scan", "ios": "https://dc.lft.to/lastmile_qr_scan"}, "fusion_lat": 0.0, "is_reserved": 0, "lat": 38.91198116666666, "name": "5a7254d46af751a74795922643b27ecd", "bike_id": "5a7254d46af751a74795922643b27ecd", "is_disabled": 0, "fusion_lon": 0.0, "type": "electric_scooter", "lon": -77.0383975}, {"rental_uris": {"android": "https://dc.lft.to/lastmile_qr_scan", "ios": "https://dc.lft.to/lastmile_qr_scan"}, "fusion_lat": 0.0, "is_reserved": 0, "lat": 38.900341833333336, "name": "37af33b81a667fc4487918870820a2e6", "bike_id": "37af33b81a667fc4487918870820a2e6", "is_disabled": 0, "fusion_lon": 0.0, "type": "electric_scooter", "lon": -76.9984405}, {"rental_uris": {"android": "https://dc.lft.to/lastmile_qr_scan", "ios": "https://dc.lft.to/lastmile_qr_scan"}, "fusion_lat": 0.0, "is_reserved": 0, "lat": 38.924022, "name": "1b806960b992024970599a023159c6a0", "bike_id": "1b806960b992024970599a023159c6a0", "is_disabled": 0, "fusion_lon": 0.0, "type": "electric_scooter", "lon": -77.03523383333334}, {"rental_uris": {"android": "https://dc.lft.to/lastmile_qr_scan", "ios": "https://dc.lft.to/lastmile_qr_scan"}, "fusion_lat": 0.0, "is_reserved": 0, "lat": 38.903164833333335, "name": "cc88d370748d82b1960ff4311c6bd507", "bike_id": "cc88d370748d82b1960ff4311c6bd507", "is_disabled": 0, "fusion_lon": 0.0, "type": "electric_scooter", "lon": -77.04656666666666}, {"rental_uris": {"android": "https://dc.lft.to/lastmile_qr_scan", "ios": "https://dc.lft.to/lastmile_qr_scan"}, "fusion_lat": 0.0, "is_reserved": 0, "lat": 38.919604166666666, "name": "2c9acecd4e6b4574dcabd8176b715858", "bike_id": "2c9acecd4e6b4574dcabd8176b715858", "is_disabled": 0, "fusion_lon": 0.0, "type": "electric_scooter", "lon": -76.99197266666667}, {"rental_uris": {"android": "https://dc.lft.to/lastmile_qr_scan", "ios": "https://dc.lft.to/lastmile_qr_scan"}, "fusion_lat": 0.0, "is_reserved": 0, "lat": 38.9385735, "name": "f3279a481e5f91a32cefb998787ce7bb", "bike_id": "f3279a481e5f91a32cefb998787ce7bb", "is_disabled": 0, "fusion_lon": 0.0, "type": "electric_scooter", "lon": -77.02472766666666}, {"rental_uris": {"android": "https://dc.lft.to/lastmile_qr_scan", "ios": "https://dc.lft.to/lastmile_qr_scan"}, "fusion_lat": 0.0, "is_reserved": 0, "lat": 38.930827666666666, "name": "36113045ba2110c7b8365d929d9d01f8", "bike_id": "36113045ba2110c7b8365d929d9d01f8", "is_disabled": 0, "fusion_lon": 0.0, "type": "electric_scooter", "lon": -77.03766666666667}, {"rental_uris": {"android": "https://dc.lft.to/lastmile_qr_scan", "ios": "https://dc.lft.to/lastmile_qr_scan"}, "fusion_lat": 0.0, "is_reserved": 0, "lat": 38.92027266666667, "name": "08eecb1c125f0855448b468508a63caf", "bike_id": "08eecb1c125f0855448b468508a63caf", "is_disabled": 0, "fusion_lon": 0.0, "type": "electric_scooter", "lon": -77.02799566666667}, {"rental_uris": {"android": "https://dc.lft.to/lastmile_qr_scan", "ios": "https://dc.lft.to/lastmile_qr_scan"}, "fusion_lat": 0.0, "is_reserved": 0, "lat": 38.804444333333336, "name": "a28148960a2667bf2c48178cd1c2e9c5", "bike_id": "a28148960a2667bf2c48178cd1c2e9c5", "is_disabled": 0, "fusion_lon": 0.0, "type": "electric_bike", "lon": -77.132246}, {"rental_uris": {"android": "https://dc.lft.to/lastmile_qr_scan", "ios": "https://dc.lft.to/lastmile_qr_scan"}, "fusion_lat": 0.0, "is_reserved": 0, "lat": 38.91577433333333, "name": "b34636741f33db57bc8890952993e7ec", "bike_id": "b34636741f33db57bc8890952993e7ec", "is_disabled": 0, "fusion_lon": 0.0, "type": "electric_scooter", "lon": -77.01228883333333}, {"rental_uris": {"android": "https://dc.lft.to/lastmile_qr_scan", "ios": "https://dc.lft.to/lastmile_qr_scan"}, "fusion_lat": 0.0, "is_reserved": 0, "lat": 38.89619533333333, "name": "0ba65be173d995872fbfd6cd089911ce", "bike_id": "0ba65be173d995872fbfd6cd089911ce", "is_disabled": 0, "fusion_lon": 0.0, "type": "electric_scooter", "lon": -77.02604483333333}, {"rental_uris": {"android": "https://dc.lft.to/lastmile_qr_scan", "ios": "https://dc.lft.to/lastmile_qr_scan"}, "fusion_lat": 0.0, "is_reserved": 0, "lat": 38.8883725, "name": "ed630dbb582a6ebe4eb734c927e65f50", "bike_id": "ed630dbb582a6ebe4eb734c927e65f50", "is_disabled": 0, "fusion_lon": 0.0, "type": "electric_scooter", "lon": -76.98691033333333}, {"rental_uris": {"android": "https://dc.lft.to/lastmile_qr_scan", "ios": "https://dc.lft.to/lastmile_qr_scan"}, "fusion_lat": 0.0, "is_reserved": 0, "lat": 38.928692833333336, "name": "cf19c1814025e5c42f940e17efadb41b", "bike_id": "cf19c1814025e5c42f940e17efadb41b", "is_disabled": 0, "fusion_lon": 0.0, "type": "electric_scooter", "lon": -77.027032}, {"rental_uris": {"android": "https://dc.lft.to/lastmile_qr_scan", "ios": "https://dc.lft.to/lastmile_qr_scan"}, "fusion_lat": 0.0, "is_reserved": 0, "lat": 38.9081305, "name": "933c4cc36262f2731673f4e2c66b6161", "bike_id": "933c4cc36262f2731673f4e2c66b6161", "is_disabled": 0, "fusion_lon": 0.0, "type": "electric_scooter", "lon": -77.04198683333334}, {"rental_uris": {"android": "https://dc.lft.to/lastmile_qr_scan", "ios": "https://dc.lft.to/lastmile_qr_scan"}, "fusion_lat": 0.0, "is_reserved": 0, "lat": 38.90555833333333, "name": "55c8e973e140e7bf85ffa10e23d01214", "bike_id": "55c8e973e140e7bf85ffa10e23d01214", "is_disabled": 0, "fusion_lon": 0.0, "type": "electric_scooter", "lon": -77.0355885}, {"rental_uris": {"android": "https://dc.lft.to/lastmile_qr_scan", "ios": "https://dc.lft.to/lastmile_qr_scan"}, "fusion_lat": 0.0, "is_reserved": 0, "lat": 38.88689083333333, "name": "6cdfc46c0fb8668a17e57e6bd548e832", "bike_id": "6cdfc46c0fb8668a17e57e6bd548e832", "is_disabled": 0, "fusion_lon": 0.0, "type": "electric_scooter", "lon": -77.01374616666666}, {"rental_uris": {"android": "https://dc.lft.to/lastmile_qr_scan", "ios": "https://dc.lft.to/lastmile_qr_scan"}, "fusion_lat": 0.0, "is_reserved": 0, "lat": 38.9154455, "name": "ce3716b7dd92c0b8bbdf75700df29486", "bike_id": "ce3716b7dd92c0b8bbdf75700df29486", "is_disabled": 0, "fusion_lon": 0.0, "type": "electric_scooter", "lon": -77.02818966666666}, {"rental_uris": {"android": "https://dc.lft.to/lastmile_qr_scan", "ios": "https://dc.lft.to/lastmile_qr_scan"}, "fusion_lat": 0.0, "is_reserved": 0, "lat": 38.9207545, "name": "d01e9ef0b7943f0344bb46238fb2e9e9", "bike_id": "d01e9ef0b7943f0344bb46238fb2e9e9", "is_disabled": 0, "fusion_lon": 0.0, "type": "electric_scooter", "lon": -77.02420566666666}, {"rental_uris": {"android": "https://dc.lft.to/lastmile_qr_scan", "ios": "https://dc.lft.to/lastmile_qr_scan"}, "fusion_lat": 0.0, "is_reserved": 0, "lat": 38.909598833333334, "name": "5ccaa738c60d62a54771b8d89986ca1b", "bike_id": "5ccaa738c60d62a54771b8d89986ca1b", "is_disabled": 0, "fusion_lon": 0.0, "type": "electric_scooter", "lon": -77.02282166666667}, {"rental_uris": {"android": "https://dc.lft.to/lastmile_qr_scan", "ios": "https://dc.lft.to/lastmile_qr_scan"}, "fusion_lat": 0.0, "is_reserved": 0, "lat": 38.927316833333336, "name": "c95c8692a343ffe97f2282245cf50ad3", "bike_id": "c95c8692a343ffe97f2282245cf50ad3", "is_disabled": 0, "fusion_lon": 0.0, "type": "electric_scooter", "lon": -77.02960883333333}, {"rental_uris": {"android": "https://dc.lft.to/lastmile_qr_scan", "ios": "https://dc.lft.to/lastmile_qr_scan"}, "fusion_lat": 0.0, "is_reserved": 0, "lat": 38.8980295, "name": "4a85108c1b9bdd446460084e9ae40d4b", "bike_id": "4a85108c1b9bdd446460084e9ae40d4b", "is_disabled": 0, "fusion_lon": 0.0, "type": "electric_scooter", "lon": -77.01213}, {"rental_uris": {"android": "https://dc.lft.to/lastmile_qr_scan", "ios": "https://dc.lft.to/lastmile_qr_scan"}, "fusion_lat": 0.0, "is_reserved": 0, "lat": 38.807309333333336, "name": "d68d3c91d67293192d1ea26e950d53e8", "bike_id": "d68d3c91d67293192d1ea26e950d53e8", "is_disabled": 0, "fusion_lon": 0.0, "type": "electric_bike", "lon": -76.99254183333333}, {"rental_uris": {"android": "https://dc.lft.to/lastmile_qr_scan", "ios": "https://dc.lft.to/lastmile_qr_scan"}, "fusion_lat": 0.0, "is_reserved": 0, "lat": 38.901618, "name": "cdc12d9887e3e4a5571a71da990d0d21", "bike_id": "cdc12d9887e3e4a5571a71da990d0d21", "is_disabled": 0, "fusion_lon": 0.0, "type": "electric_scooter", "lon": -76.93024183333333}, {"rental_uris": {"android": "https://dc.lft.to/lastmile_qr_scan", "ios": "https://dc.lft.to/lastmile_qr_scan"}, "fusion_lat": 0.0, "is_reserved": 0, "lat": 38.87998233333333, "name": "86934c93238fca6e9a4cf1dfd1bd52fc", "bike_id": "86934c93238fca6e9a4cf1dfd1bd52fc", "is_disabled": 0, "fusion_lon": 0.0, "type": "electric_scooter", "lon": -77.03741983333333}, {"rental_uris": {"android": "https://dc.lft.to/lastmile_qr_scan", "ios": "https://dc.lft.to/lastmile_qr_scan"}, "fusion_lat": 0.0, "is_reserved": 0, "lat": 38.935824, "name": "62045ed8372324afb019a345e1e67660", "bike_id": "62045ed8372324afb019a345e1e67660", "is_disabled": 0, "fusion_lon": 0.0, "type": "electric_scooter", "lon": -77.05870916666667}, {"rental_uris": {"android": "https://dc.lft.to/lastmile_qr_scan", "ios": "https://dc.lft.to/lastmile_qr_scan"}, "fusion_lat": 0.0, "is_reserved": 0, "lat": 38.918844, "name": "e83f12c1c39ba7676403ab265c90487a", "bike_id": "e83f12c1c39ba7676403ab265c90487a", "is_disabled": 0, "fusion_lon": 0.0, "type": "electric_scooter", "lon": -77.0271215}, {"rental_uris": {"android": "https://dc.lft.to/lastmile_qr_scan", "ios": "https://dc.lft.to/lastmile_qr_scan"}, "fusion_lat": 0.0, "is_reserved": 0, "lat": 38.90647766666667, "name": "15936b7d29863577d3caefe067ce9225", "bike_id": "15936b7d29863577d3caefe067ce9225", "is_disabled": 0, "fusion_lon": 0.0, "type": "electric_scooter", "lon": -77.00886616666666}, {"rental_uris": {"android": "https://dc.lft.to/lastmile_qr_scan", "ios": "https://dc.lft.to/lastmile_qr_scan"}, "fusion_lat": 0.0, "is_reserved": 0, "lat": 38.943368166666666, "name": "93ba52db4ea5c21a0e6ffe089d897856", "bike_id": "93ba52db4ea5c21a0e6ffe089d897856", "is_disabled": 0, "fusion_lon": 0.0, "type": "electric_scooter", "lon": -77.02687366666666}, {"rental_uris": {"android": "https://dc.lft.to/lastmile_qr_scan", "ios": "https://dc.lft.to/lastmile_qr_scan"}, "fusion_lat": 0.0, "is_reserved": 0, "lat": 38.9072355, "name": "6529eff7a8785900a6641f04092762af", "bike_id": "6529eff7a8785900a6641f04092762af", "is_disabled": 0, "fusion_lon": 0.0, "type": "electric_scooter", "lon": -77.02210683333334}, {"rental_uris": {"android": "https://dc.lft.to/lastmile_qr_scan", "ios": "https://dc.lft.to/lastmile_qr_scan"}, "fusion_lat": 0.0, "is_reserved": 0, "lat": 38.8850855, "name": "6709701592c074dbda76aed7a445169e", "bike_id": "6709701592c074dbda76aed7a445169e", "is_disabled": 0, "fusion_lon": 0.0, "type": "electric_bike", "lon": -76.9563645}, {"rental_uris": {"android": "https://dc.lft.to/lastmile_qr_scan", "ios": "https://dc.lft.to/lastmile_qr_scan"}, "fusion_lat": 0.0, "is_reserved": 0, "lat": 38.876580833333335, "name": "6b0b957d424235af735e8407ef2003ae", "bike_id": "6b0b957d424235af735e8407ef2003ae", "is_disabled": 0, "fusion_lon": 0.0, "type": "electric_scooter", "lon": -77.017966}, {"rental_uris": {"android": "https://dc.lft.to/lastmile_qr_scan", "ios": "https://dc.lft.to/lastmile_qr_scan"}, "fusion_lat": 0.0, "is_reserved": 0, "lat": 38.924145333333335, "name": "106f559930baf609ee230aaa10ef1fd6", "bike_id": "106f559930baf609ee230aaa10ef1fd6", "is_disabled": 0, "fusion_lon": 0.0, "type": "electric_scooter", "lon": -77.04554983333334}, {"rental_uris": {"android": "https://dc.lft.to/lastmile_qr_scan", "ios": "https://dc.lft.to/lastmile_qr_scan"}, "fusion_lat": 0.0, "is_reserved": 0, "lat": 38.8972905, "name": "331a6083291c3657828fcba6ef900035", "bike_id": "331a6083291c3657828fcba6ef900035", "is_disabled": 0, "fusion_lon": 0.0, "type": "electric_scooter", "lon": -77.03338116666667}, {"rental_uris": {"android": "https://dc.lft.to/lastmile_qr_scan", "ios": "https://dc.lft.to/lastmile_qr_scan"}, "fusion_lat": 0.0, "is_reserved": 0, "lat": 38.9007655, "name": "38feecc1d2ff6047dd9c432a2ee935d5", "bike_id": "38feecc1d2ff6047dd9c432a2ee935d5", "is_disabled": 0, "fusion_lon": 0.0, "type": "electric_scooter", "lon": -77.018654}, {"rental_uris": {"android": "https://dc.lft.to/lastmile_qr_scan", "ios": "https://dc.lft.to/lastmile_qr_scan"}, "fusion_lat": 0.0, "is_reserved": 0, "lat": 38.943939666666665, "name": "5829288e0ad5505b610020df5a0f4b5c", "bike_id": "5829288e0ad5505b610020df5a0f4b5c", "is_disabled": 0, "fusion_lon": 0.0, "type": "electric_bike", "lon": -76.96941916666667}, {"rental_uris": {"android": "https://dc.lft.to/lastmile_qr_scan", "ios": "https://dc.lft.to/lastmile_qr_scan"}, "fusion_lat": 0.0, "is_reserved": 0, "lat": 38.90669066666667, "name": "cb56d76b32474dffa08540140f78f92a", "bike_id": "cb56d76b32474dffa08540140f78f92a", "is_disabled": 0, "fusion_lon": 0.0, "type": "electric_scooter", "lon": -76.98019933333333}, {"rental_uris": {"android": "https://dc.lft.to/lastmile_qr_scan", "ios": "https://dc.lft.to/lastmile_qr_scan"}, "fusion_lat": 0.0, "is_reserved": 0, "lat": 38.89224183333333, "name": "2341bb08a73057c8b012f800924ed570", "bike_id": "2341bb08a73057c8b012f800924ed570", "is_disabled": 0, "fusion_lon": 0.0, "type": "electric_scooter", "lon": -77.0302235}, {"rental_uris": {"android": "https://dc.lft.to/lastmile_qr_scan", "ios": "https://dc.lft.to/lastmile_qr_scan"}, "fusion_lat": 0.0, "is_reserved": 0, "lat": 38.928054833333334, "name": "cd700eed7e78c33d93b11c3487ccbc35", "bike_id": "cd700eed7e78c33d93b11c3487ccbc35", "is_disabled": 0, "fusion_lon": 0.0, "type": "electric_scooter", "lon": -77.05405083333333}, {"rental_uris": {"android": "https://dc.lft.to/lastmile_qr_scan", "ios": "https://dc.lft.to/lastmile_qr_scan"}, "fusion_lat": 0.0, "is_reserved": 0, "lat": 38.9180685, "name": "4175c3613eb832d633659f3311d978db", "bike_id": "4175c3613eb832d633659f3311d978db", "is_disabled": 0, "fusion_lon": 0.0, "type": "electric_scooter", "lon": -76.99979416666666}, {"rental_uris": {"android": "https://dc.lft.to/lastmile_qr_scan", "ios": "https://dc.lft.to/lastmile_qr_scan"}, "fusion_lat": 0.0, "is_reserved": 0, "lat": 38.912557, "name": "8468321e4271378b8f947c1da0a4c74d", "bike_id": "8468321e4271378b8f947c1da0a4c74d", "is_disabled": 0, "fusion_lon": 0.0, "type": "electric_scooter", "lon": -77.03831716666667}, {"rental_uris": {"android": "https://dc.lft.to/lastmile_qr_scan", "ios": "https://dc.lft.to/lastmile_qr_scan"}, "fusion_lat": 0.0, "is_reserved": 0, "lat": 38.91314083333333, "name": "d42297d771de44dc922c7ecfbf0a23e7", "bike_id": "d42297d771de44dc922c7ecfbf0a23e7", "is_disabled": 0, "fusion_lon": 0.0, "type": "electric_scooter", "lon": -77.01441433333333}, {"rental_uris": {"android": "https://dc.lft.to/lastmile_qr_scan", "ios": "https://dc.lft.to/lastmile_qr_scan"}, "fusion_lat": 0.0, "is_reserved": 0, "lat": 38.899170833333336, "name": "acc3ac3882bd9cad675f63b46137be32", "bike_id": "acc3ac3882bd9cad675f63b46137be32", "is_disabled": 0, "fusion_lon": 0.0, "type": "electric_scooter", "lon": -76.93362933333333}, {"rental_uris": {"android": "https://dc.lft.to/lastmile_qr_scan", "ios": "https://dc.lft.to/lastmile_qr_scan"}, "fusion_lat": 0.0, "is_reserved": 0, "lat": 38.9333505, "name": "f1331da30c831f17315091d2b843bd5a", "bike_id": "f1331da30c831f17315091d2b843bd5a", "is_disabled": 0, "fusion_lon": 0.0, "type": "electric_scooter", "lon": -77.03639766666667}, {"rental_uris": {"android": "https://dc.lft.to/lastmile_qr_scan", "ios": "https://dc.lft.to/lastmile_qr_scan"}, "fusion_lat": 0.0, "is_reserved": 0, "lat": 38.899748333333335, "name": "abeb9997faabf016a7b10541b4dcff7b", "bike_id": "abeb9997faabf016a7b10541b4dcff7b", "is_disabled": 0, "fusion_lon": 0.0, "type": "electric_scooter", "lon": -77.022399}, {"rental_uris": {"android": "https://dc.lft.to/lastmile_qr_scan", "ios": "https://dc.lft.to/lastmile_qr_scan"}, "fusion_lat": 0.0, "is_reserved": 0, "lat": 38.911214333333334, "name": "d04ec428149eaa55ca0658bf2491ca7a", "bike_id": "d04ec428149eaa55ca0658bf2491ca7a", "is_disabled": 0, "fusion_lon": 0.0, "type": "electric_scooter", "lon": -77.02188333333334}, {"rental_uris": {"android": "https://dc.lft.to/lastmile_qr_scan", "ios": "https://dc.lft.to/lastmile_qr_scan"}, "fusion_lat": 0.0, "is_reserved": 0, "lat": 38.90270266666667, "name": "dc70bb590487a3fffe8ac13a8d1ad10d", "bike_id": "dc70bb590487a3fffe8ac13a8d1ad10d", "is_disabled": 0, "fusion_lon": 0.0, "type": "electric_scooter", "lon": -77.03226}, {"rental_uris": {"android": "https://dc.lft.to/lastmile_qr_scan", "ios": "https://dc.lft.to/lastmile_qr_scan"}, "fusion_lat": 0.0, "is_reserved": 0, "lat": 38.93246516666667, "name": "6ec951d2e0804973563df78b3f04d883", "bike_id": "6ec951d2e0804973563df78b3f04d883", "is_disabled": 0, "fusion_lon": 0.0, "type": "electric_scooter", "lon": -77.031998}, {"rental_uris": {"android": "https://dc.lft.to/lastmile_qr_scan", "ios": "https://dc.lft.to/lastmile_qr_scan"}, "fusion_lat": 0.0, "is_reserved": 0, "lat": 38.888791499999996, "name": "53d9bad4049f3eb13f2c0fc172653475", "bike_id": "53d9bad4049f3eb13f2c0fc172653475", "is_disabled": 0, "fusion_lon": 0.0, "type": "electric_scooter", "lon": -76.99036466666666}, {"rental_uris": {"android": "https://dc.lft.to/lastmile_qr_scan", "ios": "https://dc.lft.to/lastmile_qr_scan"}, "fusion_lat": 0.0, "is_reserved": 0, "lat": 38.89974133333333, "name": "f99abaaaa489b2903604af1e9879086d", "bike_id": "f99abaaaa489b2903604af1e9879086d", "is_disabled": 0, "fusion_lon": 0.0, "type": "electric_scooter", "lon": -77.0223855}, {"rental_uris": {"android": "https://dc.lft.to/lastmile_qr_scan", "ios": "https://dc.lft.to/lastmile_qr_scan"}, "fusion_lat": 0.0, "is_reserved": 0, "lat": 38.90566233333333, "name": "4d5d2a51c8f20ca3ba9cdf4d6edaa208", "bike_id": "4d5d2a51c8f20ca3ba9cdf4d6edaa208", "is_disabled": 0, "fusion_lon": 0.0, "type": "electric_scooter", "lon": -77.04096366666667}, {"rental_uris": {"android": "https://dc.lft.to/lastmile_qr_scan", "ios": "https://dc.lft.to/lastmile_qr_scan"}, "fusion_lat": 0.0, "is_reserved": 0, "lat": 38.88772316666667, "name": "a6dd17fce28102974902988541a9e29e", "bike_id": "a6dd17fce28102974902988541a9e29e", "is_disabled": 0, "fusion_lon": 0.0, "type": "electric_scooter", "lon": -76.932642}, {"rental_uris": {"android": "https://dc.lft.to/lastmile_qr_scan", "ios": "https://dc.lft.to/lastmile_qr_scan"}, "fusion_lat": 0.0, "is_reserved": 0, "lat": 38.927300333333335, "name": "b129aca36fe4f4c65a7e4397fa416fdb", "bike_id": "b129aca36fe4f4c65a7e4397fa416fdb", "is_disabled": 0, "fusion_lon": 0.0, "type": "electric_scooter", "lon": -77.02244783333333}, {"rental_uris": {"android": "https://dc.lft.to/lastmile_qr_scan", "ios": "https://dc.lft.to/lastmile_qr_scan"}, "fusion_lat": 0.0, "is_reserved": 0, "lat": 38.9154855, "name": "ce8b2bf1868a66299df0377b9e508ad5", "bike_id": "ce8b2bf1868a66299df0377b9e508ad5", "is_disabled": 0, "fusion_lon": 0.0, "type": "electric_scooter", "lon": -77.036614}, {"rental_uris": {"android": "https://dc.lft.to/lastmile_qr_scan", "ios": "https://dc.lft.to/lastmile_qr_scan"}, "fusion_lat": 0.0, "is_reserved": 0, "lat": 38.920666, "name": "8a29f0dcc538b6bd230cac06191d62d0", "bike_id": "8a29f0dcc538b6bd230cac06191d62d0", "is_disabled": 0, "fusion_lon": 0.0, "type": "electric_scooter", "lon": -77.02559566666666}, {"rental_uris": {"android": "https://dc.lft.to/lastmile_qr_scan", "ios": "https://dc.lft.to/lastmile_qr_scan"}, "fusion_lat": 0.0, "is_reserved": 0, "lat": 38.91543033333333, "name": "b82c944d43fb771f7bed9b599317f111", "bike_id": "b82c944d43fb771f7bed9b599317f111", "is_disabled": 0, "fusion_lon": 0.0, "type": "electric_scooter", "lon": -77.01232833333333}, {"rental_uris": {"android": "https://dc.lft.to/lastmile_qr_scan", "ios": "https://dc.lft.to/lastmile_qr_scan"}, "fusion_lat": 0.0, "is_reserved": 0, "lat": 38.887209666666664, "name": "dfe26e54955b38633697bdb53d738051", "bike_id": "dfe26e54955b38633697bdb53d738051", "is_disabled": 0, "fusion_lon": 0.0, "type": "electric_scooter", "lon": -76.996785}, {"rental_uris": {"android": "https://dc.lft.to/lastmile_qr_scan", "ios": "https://dc.lft.to/lastmile_qr_scan"}, "fusion_lat": 0.0, "is_reserved": 0, "lat": 38.912519833333334, "name": "7c3284d5aa238ec18e6bea7eb8f4006c", "bike_id": "7c3284d5aa238ec18e6bea7eb8f4006c", "is_disabled": 0, "fusion_lon": 0.0, "type": "electric_scooter", "lon": -77.03865283333333}, {"rental_uris": {"android": "https://dc.lft.to/lastmile_qr_scan", "ios": "https://dc.lft.to/lastmile_qr_scan"}, "fusion_lat": 0.0, "is_reserved": 0, "lat": 38.879425, "name": "eb57c16bd21160c12d3078f80c98ec0b", "bike_id": "eb57c16bd21160c12d3078f80c98ec0b", "is_disabled": 0, "fusion_lon": 0.0, "type": "electric_scooter", "lon": -77.007095}, {"rental_uris": {"android": "https://dc.lft.to/lastmile_qr_scan", "ios": "https://dc.lft.to/lastmile_qr_scan"}, "fusion_lat": 0.0, "is_reserved": 0, "lat": 38.901839, "name": "edb681231c7b3290dcdb9de6496243f2", "bike_id": "edb681231c7b3290dcdb9de6496243f2", "is_disabled": 0, "fusion_lon": 0.0, "type": "electric_scooter", "lon": -77.03377766666667}, {"rental_uris": {"android": "https://dc.lft.to/lastmile_qr_scan", "ios": "https://dc.lft.to/lastmile_qr_scan"}, "fusion_lat": 0.0, "is_reserved": 0, "lat": 38.89611, "name": "5b22f073af7f930d9940e5e83c0c6ec5", "bike_id": "5b22f073af7f930d9940e5e83c0c6ec5", "is_disabled": 0, "fusion_lon": 0.0, "type": "electric_scooter", "lon": -77.03041116666667}, {"rental_uris": {"android": "https://dc.lft.to/lastmile_qr_scan", "ios": "https://dc.lft.to/lastmile_qr_scan"}, "fusion_lat": 0.0, "is_reserved": 0, "lat": 38.910482333333334, "name": "e60af93f7316c83e93cddfadf02d555c", "bike_id": "e60af93f7316c83e93cddfadf02d555c", "is_disabled": 0, "fusion_lon": 0.0, "type": "electric_scooter", "lon": -77.03841283333334}, {"rental_uris": {"android": "https://dc.lft.to/lastmile_qr_scan", "ios": "https://dc.lft.to/lastmile_qr_scan"}, "fusion_lat": 0.0, "is_reserved": 0, "lat": 38.94409733333333, "name": "498fc3d9666cbb08ac85e43e8f7ee352", "bike_id": "498fc3d9666cbb08ac85e43e8f7ee352", "is_disabled": 0, "fusion_lon": 0.0, "type": "electric_scooter", "lon": -77.06320166666667}, {"rental_uris": {"android": "https://dc.lft.to/lastmile_qr_scan", "ios": "https://dc.lft.to/lastmile_qr_scan"}, "fusion_lat": 0.0, "is_reserved": 0, "lat": 38.941944, "name": "824da7fa92fad702b4c8831f273735c5", "bike_id": "824da7fa92fad702b4c8831f273735c5", "is_disabled": 0, "fusion_lon": 0.0, "type": "electric_scooter", "lon": -77.024765}, {"rental_uris": {"android": "https://dc.lft.to/lastmile_qr_scan", "ios": "https://dc.lft.to/lastmile_qr_scan"}, "fusion_lat": 0.0, "is_reserved": 0, "lat": 38.91222416666667, "name": "0ba99e8a4825d9da9cb0b2760130caad", "bike_id": "0ba99e8a4825d9da9cb0b2760130caad", "is_disabled": 0, "fusion_lon": 0.0, "type": "electric_scooter", "lon": -77.03197683333333}, {"rental_uris": {"android": "https://dc.lft.to/lastmile_qr_scan", "ios": "https://dc.lft.to/lastmile_qr_scan"}, "fusion_lat": 0.0, "is_reserved": 0, "lat": 38.91493283333333, "name": "edcfabb15f4ae09fa13c1f5616c795c7", "bike_id": "edcfabb15f4ae09fa13c1f5616c795c7", "is_disabled": 0, "fusion_lon": 0.0, "type": "electric_scooter", "lon": -77.02282116666666}, {"rental_uris": {"android": "https://dc.lft.to/lastmile_qr_scan", "ios": "https://dc.lft.to/lastmile_qr_scan"}, "fusion_lat": 0.0, "is_reserved": 0, "lat": 38.88073116666666, "name": "7a4021f3fc9c4a79d44eaaafda66b00c", "bike_id": "7a4021f3fc9c4a79d44eaaafda66b00c", "is_disabled": 0, "fusion_lon": 0.0, "type": "electric_scooter", "lon": -76.99159116666667}, {"rental_uris": {"android": "https://dc.lft.to/lastmile_qr_scan", "ios": "https://dc.lft.to/lastmile_qr_scan"}, "fusion_lat": 0.0, "is_reserved": 0, "lat": 38.935331166666664, "name": "ed4bf1a52ec90fa6ebfc8253264527da", "bike_id": "ed4bf1a52ec90fa6ebfc8253264527da", "is_disabled": 0, "fusion_lon": 0.0, "type": "electric_scooter", "lon": -77.02352}, {"rental_uris": {"android": "https://dc.lft.to/lastmile_qr_scan", "ios": "https://dc.lft.to/lastmile_qr_scan"}, "fusion_lat": 0.0, "is_reserved": 0, "lat": 38.927216666666666, "name": "71b0259d63e5e7335520bfc92ec5b615", "bike_id": "71b0259d63e5e7335520bfc92ec5b615", "is_disabled": 0, "fusion_lon": 0.0, "type": "electric_scooter", "lon": -77.02277183333334}, {"rental_uris": {"android": "https://dc.lft.to/lastmile_qr_scan", "ios": "https://dc.lft.to/lastmile_qr_scan"}, "fusion_lat": 0.0, "is_reserved": 0, "lat": 38.898238166666665, "name": "d7bfbf1909ba19dfbfb7339de2512b5b", "bike_id": "d7bfbf1909ba19dfbfb7339de2512b5b", "is_disabled": 0, "fusion_lon": 0.0, "type": "electric_scooter", "lon": -77.02816766666666}, {"rental_uris": {"android": "https://dc.lft.to/lastmile_qr_scan", "ios": "https://dc.lft.to/lastmile_qr_scan"}, "fusion_lat": 0.0, "is_reserved": 0, "lat": 38.916577333333336, "name": "425b09243d3eca7ac33803c8871eaad0", "bike_id": "425b09243d3eca7ac33803c8871eaad0", "is_disabled": 0, "fusion_lon": 0.0, "type": "electric_scooter", "lon": -77.0239965}, {"rental_uris": {"android": "https://dc.lft.to/lastmile_qr_scan", "ios": "https://dc.lft.to/lastmile_qr_scan"}, "fusion_lat": 0.0, "is_reserved": 0, "lat": 38.941478333333336, "name": "e23eb722466cde3d52d61d0c86df16f7", "bike_id": "e23eb722466cde3d52d61d0c86df16f7", "is_disabled": 0, "fusion_lon": 0.0, "type": "electric_scooter", "lon": -77.032776}, {"rental_uris": {"android": "https://dc.lft.to/lastmile_qr_scan", "ios": "https://dc.lft.to/lastmile_qr_scan"}, "fusion_lat": 0.0, "is_reserved": 0, "lat": 38.875561833333336, "name": "3b6442c80ad5a087bc201a786360d437", "bike_id": "3b6442c80ad5a087bc201a786360d437", "is_disabled": 0, "fusion_lon": 0.0, "type": "electric_scooter", "lon": -77.00607633333334}, {"rental_uris": {"android": "https://dc.lft.to/lastmile_qr_scan", "ios": "https://dc.lft.to/lastmile_qr_scan"}, "fusion_lat": 0.0, "is_reserved": 0, "lat": 38.857078666666666, "name": "001339fef658ed7ed5eadaa7df5c039d", "bike_id": "001339fef658ed7ed5eadaa7df5c039d", "is_disabled": 0, "fusion_lon": 0.0, "type": "electric_scooter", "lon": -76.98214416666667}, {"rental_uris": {"android": "https://dc.lft.to/lastmile_qr_scan", "ios": "https://dc.lft.to/lastmile_qr_scan"}, "fusion_lat": 0.0, "is_reserved": 0, "lat": 38.86507783333333, "name": "ebe6202a20594176eea74cca475dc04d", "bike_id": "ebe6202a20594176eea74cca475dc04d", "is_disabled": 0, "fusion_lon": 0.0, "type": "electric_scooter", "lon": -76.9689915}, {"rental_uris": {"android": "https://dc.lft.to/lastmile_qr_scan", "ios": "https://dc.lft.to/lastmile_qr_scan"}, "fusion_lat": 0.0, "is_reserved": 0, "lat": 38.92295683333333, "name": "99bcd96cd7adb9c4403083665239df89", "bike_id": "99bcd96cd7adb9c4403083665239df89", "is_disabled": 0, "fusion_lon": 0.0, "type": "electric_scooter", "lon": -77.04145933333334}, {"rental_uris": {"android": "https://dc.lft.to/lastmile_qr_scan", "ios": "https://dc.lft.to/lastmile_qr_scan"}, "fusion_lat": 0.0, "is_reserved": 0, "lat": 38.93893, "name": "2e85cebffa9f4c1ae589b72500a4faae", "bike_id": "2e85cebffa9f4c1ae589b72500a4faae", "is_disabled": 0, "fusion_lon": 0.0, "type": "electric_scooter", "lon": -77.017641}, {"rental_uris": {"android": "https://dc.lft.to/lastmile_qr_scan", "ios": "https://dc.lft.to/lastmile_qr_scan"}, "fusion_lat": 0.0, "is_reserved": 0, "lat": 38.960232166666664, "name": "8fc786b8b36cb45f607aa2ca98ce4c4e", "bike_id": "8fc786b8b36cb45f607aa2ca98ce4c4e", "is_disabled": 0, "fusion_lon": 0.0, "type": "electric_scooter", "lon": -77.02424416666666}, {"rental_uris": {"android": "https://dc.lft.to/lastmile_qr_scan", "ios": "https://dc.lft.to/lastmile_qr_scan"}, "fusion_lat": 0.0, "is_reserved": 0, "lat": 38.898612666666665, "name": "339c77059f32e837e5c59c3d3e405ed1", "bike_id": "339c77059f32e837e5c59c3d3e405ed1", "is_disabled": 0, "fusion_lon": 0.0, "type": "electric_scooter", "lon": -77.04878283333333}, {"rental_uris": {"android": "https://dc.lft.to/lastmile_qr_scan", "ios": "https://dc.lft.to/lastmile_qr_scan"}, "fusion_lat": 0.0, "is_reserved": 0, "lat": 38.94316966666667, "name": "0fc8a56e684a8773c7538ca60f999d9d", "bike_id": "0fc8a56e684a8773c7538ca60f999d9d", "is_disabled": 0, "fusion_lon": 0.0, "type": "electric_bike", "lon": -76.9901935}, {"rental_uris": {"android": "https://dc.lft.to/lastmile_qr_scan", "ios": "https://dc.lft.to/lastmile_qr_scan"}, "fusion_lat": 0.0, "is_reserved": 0, "lat": 38.907240333333334, "name": "ecce535a3bfe7ba968e83706a142738a", "bike_id": "ecce535a3bfe7ba968e83706a142738a", "is_disabled": 0, "fusion_lon": 0.0, "type": "electric_scooter", "lon": -77.02328966666667}, {"rental_uris": {"android": "https://dc.lft.to/lastmile_qr_scan", "ios": "https://dc.lft.to/lastmile_qr_scan"}, "fusion_lat": 0.0, "is_reserved": 0, "lat": 38.877393, "name": "cdc8780ac9464af45fe3bef511bd017c", "bike_id": "cdc8780ac9464af45fe3bef511bd017c", "is_disabled": 0, "fusion_lon": 0.0, "type": "electric_scooter", "lon": -77.0058245}, {"rental_uris": {"android": "https://dc.lft.to/lastmile_qr_scan", "ios": "https://dc.lft.to/lastmile_qr_scan"}, "fusion_lat": 0.0, "is_reserved": 0, "lat": 38.89747966666667, "name": "d8d06c3605a39022f099978c0405b8b8", "bike_id": "d8d06c3605a39022f099978c0405b8b8", "is_disabled": 0, "fusion_lon": 0.0, "type": "electric_scooter", "lon": -76.97688033333333}, {"rental_uris": {"android": "https://dc.lft.to/lastmile_qr_scan", "ios": "https://dc.lft.to/lastmile_qr_scan"}, "fusion_lat": 0.0, "is_reserved": 0, "lat": 38.92093116666667, "name": "aa66e7884ae4713a89cf20baee803fcf", "bike_id": "aa66e7884ae4713a89cf20baee803fcf", "is_disabled": 0, "fusion_lon": 0.0, "type": "electric_scooter", "lon": -77.0219945}, {"rental_uris": {"android": "https://dc.lft.to/lastmile_qr_scan", "ios": "https://dc.lft.to/lastmile_qr_scan"}, "fusion_lat": 0.0, "is_reserved": 0, "lat": 38.903730333333336, "name": "3069ca18d278e68880a45815cf44a34b", "bike_id": "3069ca18d278e68880a45815cf44a34b", "is_disabled": 0, "fusion_lon": 0.0, "type": "electric_scooter", "lon": -77.035422}, {"rental_uris": {"android": "https://dc.lft.to/lastmile_qr_scan", "ios": "https://dc.lft.to/lastmile_qr_scan"}, "fusion_lat": 0.0, "is_reserved": 0, "lat": 38.912613, "name": "d91cb5a4f4e2242405a4037d037b22b9", "bike_id": "d91cb5a4f4e2242405a4037d037b22b9", "is_disabled": 0, "fusion_lon": 0.0, "type": "electric_scooter", "lon": -77.04551466666666}, {"rental_uris": {"android": "https://dc.lft.to/lastmile_qr_scan", "ios": "https://dc.lft.to/lastmile_qr_scan"}, "fusion_lat": 0.0, "is_reserved": 0, "lat": 38.89218066666667, "name": "1f9dabbb9dbe5606283f61f5188b0fe6", "bike_id": "1f9dabbb9dbe5606283f61f5188b0fe6", "is_disabled": 0, "fusion_lon": 0.0, "type": "electric_scooter", "lon": -77.0318185}, {"rental_uris": {"android": "https://dc.lft.to/lastmile_qr_scan", "ios": "https://dc.lft.to/lastmile_qr_scan"}, "fusion_lat": 0.0, "is_reserved": 0, "lat": 38.80670216666667, "name": "691c7b6aab52cc1485d9909a62296c05", "bike_id": "691c7b6aab52cc1485d9909a62296c05", "is_disabled": 0, "fusion_lon": 0.0, "type": "electric_bike", "lon": -77.087568}, {"rental_uris": {"android": "https://dc.lft.to/lastmile_qr_scan", "ios": "https://dc.lft.to/lastmile_qr_scan"}, "fusion_lat": 0.0, "is_reserved": 0, "lat": 38.9236705, "name": "ae596d23157a9836b852cc2e4c5619e7", "bike_id": "ae596d23157a9836b852cc2e4c5619e7", "is_disabled": 0, "fusion_lon": 0.0, "type": "electric_scooter", "lon": -77.05033716666667}, {"rental_uris": {"android": "https://dc.lft.to/lastmile_qr_scan", "ios": "https://dc.lft.to/lastmile_qr_scan"}, "fusion_lat": 0.0, "is_reserved": 0, "lat": 38.925259, "name": "0eaa1e7f3eae65befb7606a97bb48844", "bike_id": "0eaa1e7f3eae65befb7606a97bb48844", "is_disabled": 0, "fusion_lon": 0.0, "type": "electric_scooter", "lon": -77.05549583333334}, {"rental_uris": {"android": "https://dc.lft.to/lastmile_qr_scan", "ios": "https://dc.lft.to/lastmile_qr_scan"}, "fusion_lat": 0.0, "is_reserved": 0, "lat": 38.8559935, "name": "f15b60c70fa97913f8399a38c03e0188", "bike_id": "f15b60c70fa97913f8399a38c03e0188", "is_disabled": 0, "fusion_lon": 0.0, "type": "electric_bike", "lon": -76.9745395}, {"rental_uris": {"android": "https://dc.lft.to/lastmile_qr_scan", "ios": "https://dc.lft.to/lastmile_qr_scan"}, "fusion_lat": 0.0, "is_reserved": 0, "lat": 38.90039483333334, "name": "bbbd80f636796981db4c69b00e7b7b9c", "bike_id": "bbbd80f636796981db4c69b00e7b7b9c", "is_disabled": 0, "fusion_lon": 0.0, "type": "electric_scooter", "lon": -77.043108}, {"rental_uris": {"android": "https://dc.lft.to/lastmile_qr_scan", "ios": "https://dc.lft.to/lastmile_qr_scan"}, "fusion_lat": 0.0, "is_reserved": 0, "lat": 38.91338233333333, "name": "cac7410128b6ab83bbab71dae212ddfa", "bike_id": "cac7410128b6ab83bbab71dae212ddfa", "is_disabled": 0, "fusion_lon": 0.0, "type": "electric_scooter", "lon": -77.03204466666666}, {"rental_uris": {"android": "https://dc.lft.to/lastmile_qr_scan", "ios": "https://dc.lft.to/lastmile_qr_scan"}, "fusion_lat": 0.0, "is_reserved": 0, "lat": 38.89812716666667, "name": "b5fd9d5d6bd7b227b5b610ba90bf01ba", "bike_id": "b5fd9d5d6bd7b227b5b610ba90bf01ba", "is_disabled": 0, "fusion_lon": 0.0, "type": "electric_scooter", "lon": -76.93009333333333}, {"rental_uris": {"android": "https://dc.lft.to/lastmile_qr_scan", "ios": "https://dc.lft.to/lastmile_qr_scan"}, "fusion_lat": 0.0, "is_reserved": 0, "lat": 38.907164, "name": "73f23772c7c8104a6a68061169630b77", "bike_id": "73f23772c7c8104a6a68061169630b77", "is_disabled": 0, "fusion_lon": 0.0, "type": "electric_scooter", "lon": -77.0279475}, {"rental_uris": {"android": "https://dc.lft.to/lastmile_qr_scan", "ios": "https://dc.lft.to/lastmile_qr_scan"}, "fusion_lat": 0.0, "is_reserved": 0, "lat": 38.93553716666667, "name": "ded5827443f4408b11dfcc7068e79f92", "bike_id": "ded5827443f4408b11dfcc7068e79f92", "is_disabled": 0, "fusion_lon": 0.0, "type": "electric_scooter", "lon": -77.07466433333333}, {"rental_uris": {"android": "https://dc.lft.to/lastmile_qr_scan", "ios": "https://dc.lft.to/lastmile_qr_scan"}, "fusion_lat": 0.0, "is_reserved": 0, "lat": 38.915255333333334, "name": "92a804aac55f9c8f8af8d6cfd938c3f4", "bike_id": "92a804aac55f9c8f8af8d6cfd938c3f4", "is_disabled": 0, "fusion_lon": 0.0, "type": "electric_scooter", "lon": -77.03187533333333}, {"rental_uris": {"android": "https://dc.lft.to/lastmile_qr_scan", "ios": "https://dc.lft.to/lastmile_qr_scan"}, "fusion_lat": 0.0, "is_reserved": 0, "lat": 38.83583483333334, "name": "6fad3943b3dba97ad4ebd7c5dd58fd07", "bike_id": "6fad3943b3dba97ad4ebd7c5dd58fd07", "is_disabled": 0, "fusion_lon": 0.0, "type": "electric_bike", "lon": -76.9902365}, {"rental_uris": {"android": "https://dc.lft.to/lastmile_qr_scan", "ios": "https://dc.lft.to/lastmile_qr_scan"}, "fusion_lat": 0.0, "is_reserved": 0, "lat": 38.92470016666667, "name": "0be5efa541202f870f981d2415ab6979", "bike_id": "0be5efa541202f870f981d2415ab6979", "is_disabled": 0, "fusion_lon": 0.0, "type": "electric_scooter", "lon": -77.022223}, {"rental_uris": {"android": "https://dc.lft.to/lastmile_qr_scan", "ios": "https://dc.lft.to/lastmile_qr_scan"}, "fusion_lat": 0.0, "is_reserved": 0, "lat": 38.89330866666667, "name": "f9ce88f45505ef8c85ddf021f46d40c2", "bike_id": "f9ce88f45505ef8c85ddf021f46d40c2", "is_disabled": 0, "fusion_lon": 0.0, "type": "electric_scooter", "lon": -77.04869883333333}, {"rental_uris": {"android": "https://dc.lft.to/lastmile_qr_scan", "ios": "https://dc.lft.to/lastmile_qr_scan"}, "fusion_lat": 0.0, "is_reserved": 0, "lat": 38.897330333333336, "name": "af264e7c146df94c7998abee9dd42490", "bike_id": "af264e7c146df94c7998abee9dd42490", "is_disabled": 0, "fusion_lon": 0.0, "type": "electric_scooter", "lon": -77.0259815}, {"rental_uris": {"android": "https://dc.lft.to/lastmile_qr_scan", "ios": "https://dc.lft.to/lastmile_qr_scan"}, "fusion_lat": 0.0, "is_reserved": 0, "lat": 38.88193733333333, "name": "c137242e715ea050a11950bb2eab9247", "bike_id": "c137242e715ea050a11950bb2eab9247", "is_disabled": 0, "fusion_lon": 0.0, "type": "electric_scooter", "lon": -76.98921016666667}, {"rental_uris": {"android": "https://dc.lft.to/lastmile_qr_scan", "ios": "https://dc.lft.to/lastmile_qr_scan"}, "fusion_lat": 0.0, "is_reserved": 0, "lat": 38.92367516666667, "name": "6f7b6ba39e182082ab3ca5e56d486eb8", "bike_id": "6f7b6ba39e182082ab3ca5e56d486eb8", "is_disabled": 0, "fusion_lon": 0.0, "type": "electric_scooter", "lon": -77.05029866666666}, {"rental_uris": {"android": "https://dc.lft.to/lastmile_qr_scan", "ios": "https://dc.lft.to/lastmile_qr_scan"}, "fusion_lat": 0.0, "is_reserved": 0, "lat": 38.8995245, "name": "00cd9e1b4bfe4f95312761700ea35e13", "bike_id": "00cd9e1b4bfe4f95312761700ea35e13", "is_disabled": 0, "fusion_lon": 0.0, "type": "electric_scooter", "lon": -77.02597783333333}, {"rental_uris": {"android": "https://dc.lft.to/lastmile_qr_scan", "ios": "https://dc.lft.to/lastmile_qr_scan"}, "fusion_lat": 0.0, "is_reserved": 0, "lat": 38.8952965, "name": "7a432f3c1d1f12b4e9a3526a37205430", "bike_id": "7a432f3c1d1f12b4e9a3526a37205430", "is_disabled": 0, "fusion_lon": 0.0, "type": "electric_scooter", "lon": -76.94887083333333}, {"rental_uris": {"android": "https://dc.lft.to/lastmile_qr_scan", "ios": "https://dc.lft.to/lastmile_qr_scan"}, "fusion_lat": 0.0, "is_reserved": 0, "lat": 38.904248833333334, "name": "8a92e911d4bf9af159728b1b38e1cc80", "bike_id": "8a92e911d4bf9af159728b1b38e1cc80", "is_disabled": 0, "fusion_lon": 0.0, "type": "electric_scooter", "lon": -77.02599833333333}, {"rental_uris": {"android": "https://dc.lft.to/lastmile_qr_scan", "ios": "https://dc.lft.to/lastmile_qr_scan"}, "fusion_lat": 0.0, "is_reserved": 0, "lat": 38.909152166666665, "name": "da6b6774ec381bf6c8a0fa7fe186cdb1", "bike_id": "da6b6774ec381bf6c8a0fa7fe186cdb1", "is_disabled": 0, "fusion_lon": 0.0, "type": "electric_scooter", "lon": -77.03098316666667}, {"rental_uris": {"android": "https://dc.lft.to/lastmile_qr_scan", "ios": "https://dc.lft.to/lastmile_qr_scan"}, "fusion_lat": 0.0, "is_reserved": 0, "lat": 38.954645666666664, "name": "ab8908edfc2c44c825f27d8e15676530", "bike_id": "ab8908edfc2c44c825f27d8e15676530", "is_disabled": 0, "fusion_lon": 0.0, "type": "electric_scooter", "lon": -77.0776845}, {"rental_uris": {"android": "https://dc.lft.to/lastmile_qr_scan", "ios": "https://dc.lft.to/lastmile_qr_scan"}, "fusion_lat": 0.0, "is_reserved": 0, "lat": 38.8788145, "name": "832d655c07acba90b4a2807a5825ed1e", "bike_id": "832d655c07acba90b4a2807a5825ed1e", "is_disabled": 0, "fusion_lon": 0.0, "type": "electric_scooter", "lon": -77.00571683333334}, {"rental_uris": {"android": "https://dc.lft.to/lastmile_qr_scan", "ios": "https://dc.lft.to/lastmile_qr_scan"}, "fusion_lat": 0.0, "is_reserved": 0, "lat": 38.91262366666667, "name": "373a6344f5473962dc3a842b2a73d7eb", "bike_id": "373a6344f5473962dc3a842b2a73d7eb", "is_disabled": 0, "fusion_lon": 0.0, "type": "electric_scooter", "lon": -77.03516916666666}, {"rental_uris": {"android": "https://dc.lft.to/lastmile_qr_scan", "ios": "https://dc.lft.to/lastmile_qr_scan"}, "fusion_lat": 0.0, "is_reserved": 0, "lat": 38.934535, "name": "34d4ccefa81fb828f4451bc212b37ae3", "bike_id": "34d4ccefa81fb828f4451bc212b37ae3", "is_disabled": 0, "fusion_lon": 0.0, "type": "electric_scooter", "lon": -77.02725016666666}, {"rental_uris": {"android": "https://dc.lft.to/lastmile_qr_scan", "ios": "https://dc.lft.to/lastmile_qr_scan"}, "fusion_lat": 0.0, "is_reserved": 0, "lat": 38.919073833333336, "name": "d0289d10129929aa92bbf6ed5bbb66ca", "bike_id": "d0289d10129929aa92bbf6ed5bbb66ca", "is_disabled": 0, "fusion_lon": 0.0, "type": "electric_scooter", "lon": -77.0415995}, {"rental_uris": {"android": "https://dc.lft.to/lastmile_qr_scan", "ios": "https://dc.lft.to/lastmile_qr_scan"}, "fusion_lat": 0.0, "is_reserved": 0, "lat": 38.9132115, "name": "921860ed01c5f60f9c5cbff662096f50", "bike_id": "921860ed01c5f60f9c5cbff662096f50", "is_disabled": 0, "fusion_lon": 0.0, "type": "electric_scooter", "lon": -77.047214}, {"rental_uris": {"android": "https://dc.lft.to/lastmile_qr_scan", "ios": "https://dc.lft.to/lastmile_qr_scan"}, "fusion_lat": 0.0, "is_reserved": 0, "lat": 38.941683166666664, "name": "0d83c56652b2335e064d7b23c8916a01", "bike_id": "0d83c56652b2335e064d7b23c8916a01", "is_disabled": 0, "fusion_lon": 0.0, "type": "electric_scooter", "lon": -77.02559066666667}, {"rental_uris": {"android": "https://dc.lft.to/lastmile_qr_scan", "ios": "https://dc.lft.to/lastmile_qr_scan"}, "fusion_lat": 0.0, "is_reserved": 0, "lat": 38.92234283333333, "name": "4d21dffafa5f647786fb8fe2ed0544c1", "bike_id": "4d21dffafa5f647786fb8fe2ed0544c1", "is_disabled": 0, "fusion_lon": 0.0, "type": "electric_scooter", "lon": -77.03663516666667}, {"rental_uris": {"android": "https://dc.lft.to/lastmile_qr_scan", "ios": "https://dc.lft.to/lastmile_qr_scan"}, "fusion_lat": 0.0, "is_reserved": 0, "lat": 38.899130666666665, "name": "2fd81201bbfd84cc863275e0afae0cb1", "bike_id": "2fd81201bbfd84cc863275e0afae0cb1", "is_disabled": 0, "fusion_lon": 0.0, "type": "electric_scooter", "lon": -76.93365283333333}, {"rental_uris": {"android": "https://dc.lft.to/lastmile_qr_scan", "ios": "https://dc.lft.to/lastmile_qr_scan"}, "fusion_lat": 0.0, "is_reserved": 0, "lat": 38.885475, "name": "022e72f2fdb1726a19f6c4b82717090e", "bike_id": "022e72f2fdb1726a19f6c4b82717090e", "is_disabled": 0, "fusion_lon": 0.0, "type": "electric_scooter", "lon": -77.02180383333334}, {"rental_uris": {"android": "https://dc.lft.to/lastmile_qr_scan", "ios": "https://dc.lft.to/lastmile_qr_scan"}, "fusion_lat": 0.0, "is_reserved": 0, "lat": 38.92931266666667, "name": "f061c10ba4a54ad226a691a81385006e", "bike_id": "f061c10ba4a54ad226a691a81385006e", "is_disabled": 0, "fusion_lon": 0.0, "type": "electric_scooter", "lon": -77.02965566666667}, {"rental_uris": {"android": "https://dc.lft.to/lastmile_qr_scan", "ios": "https://dc.lft.to/lastmile_qr_scan"}, "fusion_lat": 0.0, "is_reserved": 0, "lat": 38.92057583333333, "name": "9812a0772e60cbfd78af89f549cf131c", "bike_id": "9812a0772e60cbfd78af89f549cf131c", "is_disabled": 0, "fusion_lon": 0.0, "type": "electric_scooter", "lon": -77.03468916666667}, {"rental_uris": {"android": "https://dc.lft.to/lastmile_qr_scan", "ios": "https://dc.lft.to/lastmile_qr_scan"}, "fusion_lat": 0.0, "is_reserved": 0, "lat": 38.90573883333333, "name": "263e0db4eb1d962e1102bdc6b02bf41d", "bike_id": "263e0db4eb1d962e1102bdc6b02bf41d", "is_disabled": 0, "fusion_lon": 0.0, "type": "electric_scooter", "lon": -77.04230733333333}, {"rental_uris": {"android": "https://dc.lft.to/lastmile_qr_scan", "ios": "https://dc.lft.to/lastmile_qr_scan"}, "fusion_lat": 0.0, "is_reserved": 0, "lat": 38.85781133333333, "name": "3588c04a02ba7081bfab7dbf88e78960", "bike_id": "3588c04a02ba7081bfab7dbf88e78960", "is_disabled": 0, "fusion_lon": 0.0, "type": "electric_bike", "lon": -76.987621}, {"rental_uris": {"android": "https://dc.lft.to/lastmile_qr_scan", "ios": "https://dc.lft.to/lastmile_qr_scan"}, "fusion_lat": 0.0, "is_reserved": 0, "lat": 38.920682166666666, "name": "213d86674dc96f014add4d77994e15c2", "bike_id": "213d86674dc96f014add4d77994e15c2", "is_disabled": 0, "fusion_lon": 0.0, "type": "electric_scooter", "lon": -77.0242065}, {"rental_uris": {"android": "https://dc.lft.to/lastmile_qr_scan", "ios": "https://dc.lft.to/lastmile_qr_scan"}, "fusion_lat": 0.0, "is_reserved": 0, "lat": 38.88504366666667, "name": "66802eec09d62f7fdd33b8a2f8507dd4", "bike_id": "66802eec09d62f7fdd33b8a2f8507dd4", "is_disabled": 0, "fusion_lon": 0.0, "type": "electric_scooter", "lon": -77.00222233333334}, {"rental_uris": {"android": "https://dc.lft.to/lastmile_qr_scan", "ios": "https://dc.lft.to/lastmile_qr_scan"}, "fusion_lat": 0.0, "is_reserved": 0, "lat": 38.92447333333333, "name": "e75e8e4355bf94fe6ba303077311eccc", "bike_id": "e75e8e4355bf94fe6ba303077311eccc", "is_disabled": 0, "fusion_lon": 0.0, "type": "electric_scooter", "lon": -76.99664566666667}, {"rental_uris": {"android": "https://dc.lft.to/lastmile_qr_scan", "ios": "https://dc.lft.to/lastmile_qr_scan"}, "fusion_lat": 0.0, "is_reserved": 0, "lat": 38.92496833333333, "name": "e25afddf6afc4c564b994892f04ae564", "bike_id": "e25afddf6afc4c564b994892f04ae564", "is_disabled": 0, "fusion_lon": 0.0, "type": "electric_scooter", "lon": -77.03779483333334}, {"rental_uris": {"android": "https://dc.lft.to/lastmile_qr_scan", "ios": "https://dc.lft.to/lastmile_qr_scan"}, "fusion_lat": 0.0, "is_reserved": 0, "lat": 38.862867333333334, "name": "bb45611be1cfd67b8457e3944b4a6a0d", "bike_id": "bb45611be1cfd67b8457e3944b4a6a0d", "is_disabled": 0, "fusion_lon": 0.0, "type": "electric_bike", "lon": -76.980163}, {"rental_uris": {"android": "https://dc.lft.to/lastmile_qr_scan", "ios": "https://dc.lft.to/lastmile_qr_scan"}, "fusion_lat": 0.0, "is_reserved": 0, "lat": 38.91545266666667, "name": "5ae661e6a72ad1c860612b1b6c1abcc0", "bike_id": "5ae661e6a72ad1c860612b1b6c1abcc0", "is_disabled": 0, "fusion_lon": 0.0, "type": "electric_scooter", "lon": -77.04172033333333}, {"rental_uris": {"android": "https://dc.lft.to/lastmile_qr_scan", "ios": "https://dc.lft.to/lastmile_qr_scan"}, "fusion_lat": 0.0, "is_reserved": 0, "lat": 38.9072075, "name": "e7a91e79b440123bb950287dff21a25f", "bike_id": "e7a91e79b440123bb950287dff21a25f", "is_disabled": 0, "fusion_lon": 0.0, "type": "electric_scooter", "lon": -77.03299133333333}, {"rental_uris": {"android": "https://dc.lft.to/lastmile_qr_scan", "ios": "https://dc.lft.to/lastmile_qr_scan"}, "fusion_lat": 0.0, "is_reserved": 0, "lat": 39.010917666666664, "name": "161d7d68a0ef3aa157031075402268a6", "bike_id": "161d7d68a0ef3aa157031075402268a6", "is_disabled": 0, "fusion_lon": 0.0, "type": "electric_bike", "lon": -77.0495495}, {"rental_uris": {"android": "https://dc.lft.to/lastmile_qr_scan", "ios": "https://dc.lft.to/lastmile_qr_scan"}, "fusion_lat": 0.0, "is_reserved": 0, "lat": 38.899419, "name": "0acf79adcc027d8e22861c81390f5cdf", "bike_id": "0acf79adcc027d8e22861c81390f5cdf", "is_disabled": 0, "fusion_lon": 0.0, "type": "electric_scooter", "lon": -77.0508345}, {"rental_uris": {"android": "https://dc.lft.to/lastmile_qr_scan", "ios": "https://dc.lft.to/lastmile_qr_scan"}, "fusion_lat": 0.0, "is_reserved": 0, "lat": 38.893576333333336, "name": "6044baac827ec880cf8aa80796c1b5b5", "bike_id": "6044baac827ec880cf8aa80796c1b5b5", "is_disabled": 0, "fusion_lon": 0.0, "type": "electric_scooter", "lon": -77.00331416666667}, {"rental_uris": {"android": "https://dc.lft.to/lastmile_qr_scan", "ios": "https://dc.lft.to/lastmile_qr_scan"}, "fusion_lat": 0.0, "is_reserved": 0, "lat": 38.90318516666667, "name": "fea5f98a9582a637d5b878b2661feec3", "bike_id": "fea5f98a9582a637d5b878b2661feec3", "is_disabled": 0, "fusion_lon": 0.0, "type": "electric_scooter", "lon": -76.9815115}, {"rental_uris": {"android": "https://dc.lft.to/lastmile_qr_scan", "ios": "https://dc.lft.to/lastmile_qr_scan"}, "fusion_lat": 0.0, "is_reserved": 0, "lat": 38.9247315, "name": "08eda10b9e7d2e788dc6e79b80672bef", "bike_id": "08eda10b9e7d2e788dc6e79b80672bef", "is_disabled": 0, "fusion_lon": 0.0, "type": "electric_scooter", "lon": -77.05272566666666}, {"rental_uris": {"android": "https://dc.lft.to/lastmile_qr_scan", "ios": "https://dc.lft.to/lastmile_qr_scan"}, "fusion_lat": 0.0, "is_reserved": 0, "lat": 38.893557, "name": "99aea119edff25e98272381dce7bcc86", "bike_id": "99aea119edff25e98272381dce7bcc86", "is_disabled": 0, "fusion_lon": 0.0, "type": "electric_scooter", "lon": -77.00339183333334}, {"rental_uris": {"android": "https://dc.lft.to/lastmile_qr_scan", "ios": "https://dc.lft.to/lastmile_qr_scan"}, "fusion_lat": 0.0, "is_reserved": 0, "lat": 38.97500383333333, "name": "b524f5b73123e78b9309e6322ff35cd2", "bike_id": "b524f5b73123e78b9309e6322ff35cd2", "is_disabled": 0, "fusion_lon": 0.0, "type": "electric_scooter", "lon": -77.01693383333334}, {"rental_uris": {"android": "https://dc.lft.to/lastmile_qr_scan", "ios": "https://dc.lft.to/lastmile_qr_scan"}, "fusion_lat": 0.0, "is_reserved": 0, "lat": 38.928224, "name": "99e29d2dfe8b8c82976da7d52b2a3a37", "bike_id": "99e29d2dfe8b8c82976da7d52b2a3a37", "is_disabled": 0, "fusion_lon": 0.0, "type": "electric_scooter", "lon": -77.054247}, {"rental_uris": {"android": "https://dc.lft.to/lastmile_qr_scan", "ios": "https://dc.lft.to/lastmile_qr_scan"}, "fusion_lat": 0.0, "is_reserved": 0, "lat": 38.938537, "name": "178715e915512d5876cb85c105af45f6", "bike_id": "178715e915512d5876cb85c105af45f6", "is_disabled": 0, "fusion_lon": 0.0, "type": "electric_scooter", "lon": -77.02474633333334}, {"rental_uris": {"android": "https://dc.lft.to/lastmile_qr_scan", "ios": "https://dc.lft.to/lastmile_qr_scan"}, "fusion_lat": 0.0, "is_reserved": 0, "lat": 38.93683716666666, "name": "100a6eec4997e09eab2f2575101cf639", "bike_id": "100a6eec4997e09eab2f2575101cf639", "is_disabled": 0, "fusion_lon": 0.0, "type": "electric_scooter", "lon": -77.03627233333333}, {"rental_uris": {"android": "https://dc.lft.to/lastmile_qr_scan", "ios": "https://dc.lft.to/lastmile_qr_scan"}, "fusion_lat": 0.0, "is_reserved": 0, "lat": 38.900602166666665, "name": "edf91685f2c2fc1d61fa180d77f4bd14", "bike_id": "edf91685f2c2fc1d61fa180d77f4bd14", "is_disabled": 0, "fusion_lon": 0.0, "type": "electric_scooter", "lon": -77.04483183333333}, {"rental_uris": {"android": "https://dc.lft.to/lastmile_qr_scan", "ios": "https://dc.lft.to/lastmile_qr_scan"}, "fusion_lat": 0.0, "is_reserved": 0, "lat": 38.887961833333335, "name": "3953be4b6d1be35a7f9c8dbe53eb9808", "bike_id": "3953be4b6d1be35a7f9c8dbe53eb9808", "is_disabled": 0, "fusion_lon": 0.0, "type": "electric_scooter", "lon": -76.977108}, {"rental_uris": {"android": "https://dc.lft.to/lastmile_qr_scan", "ios": "https://dc.lft.to/lastmile_qr_scan"}, "fusion_lat": 0.0, "is_reserved": 0, "lat": 38.899029, "name": "b5af660c3bda8eb46e0d1e61a068585e", "bike_id": "b5af660c3bda8eb46e0d1e61a068585e", "is_disabled": 0, "fusion_lon": 0.0, "type": "electric_scooter", "lon": -76.9882285}, {"rental_uris": {"android": "https://dc.lft.to/lastmile_qr_scan", "ios": "https://dc.lft.to/lastmile_qr_scan"}, "fusion_lat": 0.0, "is_reserved": 0, "lat": 38.91806583333333, "name": "7fe26c2c9a93756c86f607353d4fb9af", "bike_id": "7fe26c2c9a93756c86f607353d4fb9af", "is_disabled": 0, "fusion_lon": 0.0, "type": "electric_scooter", "lon": -77.00925833333334}, {"rental_uris": {"android": "https://dc.lft.to/lastmile_qr_scan", "ios": "https://dc.lft.to/lastmile_qr_scan"}, "fusion_lat": 0.0, "is_reserved": 0, "lat": 38.82847783333333, "name": "c68f5882b06751dca09a261db4c899ac", "bike_id": "c68f5882b06751dca09a261db4c899ac", "is_disabled": 0, "fusion_lon": 0.0, "type": "electric_bike", "lon": -77.059081}, {"rental_uris": {"android": "https://dc.lft.to/lastmile_qr_scan", "ios": "https://dc.lft.to/lastmile_qr_scan"}, "fusion_lat": 0.0, "is_reserved": 0, "lat": 38.92779866666667, "name": "8bb69a74c4cc37bc16f4e256bdd4f24c", "bike_id": "8bb69a74c4cc37bc16f4e256bdd4f24c", "is_disabled": 0, "fusion_lon": 0.0, "type": "electric_scooter", "lon": -77.030781}, {"rental_uris": {"android": "https://dc.lft.to/lastmile_qr_scan", "ios": "https://dc.lft.to/lastmile_qr_scan"}, "fusion_lat": 0.0, "is_reserved": 0, "lat": 38.9056635, "name": "d0e57c649c22ead32ac859bfa82a2c3d", "bike_id": "d0e57c649c22ead32ac859bfa82a2c3d", "is_disabled": 0, "fusion_lon": 0.0, "type": "electric_scooter", "lon": -77.00595416666667}, {"rental_uris": {"android": "https://dc.lft.to/lastmile_qr_scan", "ios": "https://dc.lft.to/lastmile_qr_scan"}, "fusion_lat": 0.0, "is_reserved": 0, "lat": 38.91694966666667, "name": "6bd68160932485afb1974d1eb81aae3a", "bike_id": "6bd68160932485afb1974d1eb81aae3a", "is_disabled": 0, "fusion_lon": 0.0, "type": "electric_scooter", "lon": -77.05297166666666}, {"rental_uris": {"android": "https://dc.lft.to/lastmile_qr_scan", "ios": "https://dc.lft.to/lastmile_qr_scan"}, "fusion_lat": 0.0, "is_reserved": 0, "lat": 38.936961333333336, "name": "072490f231020d866057e23bdde58808", "bike_id": "072490f231020d866057e23bdde58808", "is_disabled": 0, "fusion_lon": 0.0, "type": "electric_scooter", "lon": -77.06017616666666}, {"rental_uris": {"android": "https://dc.lft.to/lastmile_qr_scan", "ios": "https://dc.lft.to/lastmile_qr_scan"}, "fusion_lat": 0.0, "is_reserved": 0, "lat": 38.918902833333334, "name": "e251fb3920c2b3eb211721cd2941c899", "bike_id": "e251fb3920c2b3eb211721cd2941c899", "is_disabled": 0, "fusion_lon": 0.0, "type": "electric_scooter", "lon": -77.02181716666666}, {"rental_uris": {"android": "https://dc.lft.to/lastmile_qr_scan", "ios": "https://dc.lft.to/lastmile_qr_scan"}, "fusion_lat": 0.0, "is_reserved": 0, "lat": 38.872881666666665, "name": "60e4d6ac9681a10bb68f23742109e074", "bike_id": "60e4d6ac9681a10bb68f23742109e074", "is_disabled": 0, "fusion_lon": 0.0, "type": "electric_scooter", "lon": -77.00986533333334}, {"rental_uris": {"android": "https://dc.lft.to/lastmile_qr_scan", "ios": "https://dc.lft.to/lastmile_qr_scan"}, "fusion_lat": 0.0, "is_reserved": 0, "lat": 38.923762833333335, "name": "0cee677c2edbc8be831352952dfa4686", "bike_id": "0cee677c2edbc8be831352952dfa4686", "is_disabled": 0, "fusion_lon": 0.0, "type": "electric_scooter", "lon": -76.99364766666666}, {"rental_uris": {"android": "https://dc.lft.to/lastmile_qr_scan", "ios": "https://dc.lft.to/lastmile_qr_scan"}, "fusion_lat": 0.0, "is_reserved": 0, "lat": 39.042329, "name": "5f975b6d63ef0faee4e3bcccb240ff39", "bike_id": "5f975b6d63ef0faee4e3bcccb240ff39", "is_disabled": 0, "fusion_lon": 0.0, "type": "electric_bike", "lon": -76.99732366666667}, {"rental_uris": {"android": "https://dc.lft.to/lastmile_qr_scan", "ios": "https://dc.lft.to/lastmile_qr_scan"}, "fusion_lat": 0.0, "is_reserved": 0, "lat": 38.973342833333334, "name": "e7bceee4c051e529132402d7ac7773be", "bike_id": "e7bceee4c051e529132402d7ac7773be", "is_disabled": 0, "fusion_lon": 0.0, "type": "electric_bike", "lon": -76.99568233333333}, {"rental_uris": {"android": "https://dc.lft.to/lastmile_qr_scan", "ios": "https://dc.lft.to/lastmile_qr_scan"}, "fusion_lat": 0.0, "is_reserved": 0, "lat": 38.91177733333333, "name": "8f60ce7df70dd03e0e14a500971bc6dc", "bike_id": "8f60ce7df70dd03e0e14a500971bc6dc", "is_disabled": 0, "fusion_lon": 0.0, "type": "electric_scooter", "lon": -77.05923566666667}, {"rental_uris": {"android": "https://dc.lft.to/lastmile_qr_scan", "ios": "https://dc.lft.to/lastmile_qr_scan"}, "fusion_lat": 0.0, "is_reserved": 0, "lat": 38.92323533333333, "name": "f06bf3bbc4e0f9c8bdb070cb5463c229", "bike_id": "f06bf3bbc4e0f9c8bdb070cb5463c229", "is_disabled": 0, "fusion_lon": 0.0, "type": "electric_scooter", "lon": -77.04620083333333}, {"rental_uris": {"android": "https://dc.lft.to/lastmile_qr_scan", "ios": "https://dc.lft.to/lastmile_qr_scan"}, "fusion_lat": 0.0, "is_reserved": 0, "lat": 38.918681666666664, "name": "bf2f53d32b3dcf9b3b3d7d6f3e836e48", "bike_id": "bf2f53d32b3dcf9b3b3d7d6f3e836e48", "is_disabled": 0, "fusion_lon": 0.0, "type": "electric_scooter", "lon": -77.036592}, {"rental_uris": {"android": "https://dc.lft.to/lastmile_qr_scan", "ios": "https://dc.lft.to/lastmile_qr_scan"}, "fusion_lat": 0.0, "is_reserved": 0, "lat": 38.89622133333334, "name": "3f15dab44e915566afa0bdfc4c3e0380", "bike_id": "3f15dab44e915566afa0bdfc4c3e0380", "is_disabled": 0, "fusion_lon": 0.0, "type": "electric_scooter", "lon": -77.0162955}, {"rental_uris": {"android": "https://dc.lft.to/lastmile_qr_scan", "ios": "https://dc.lft.to/lastmile_qr_scan"}, "fusion_lat": 0.0, "is_reserved": 0, "lat": 38.951797666666664, "name": "69b3bf93379546d2e6eee6c2423a9e93", "bike_id": "69b3bf93379546d2e6eee6c2423a9e93", "is_disabled": 0, "fusion_lon": 0.0, "type": "electric_scooter", "lon": -77.02615333333334}, {"rental_uris": {"android": "https://dc.lft.to/lastmile_qr_scan", "ios": "https://dc.lft.to/lastmile_qr_scan"}, "fusion_lat": 0.0, "is_reserved": 0, "lat": 38.922345, "name": "e074c2d8dd0888f4a8d32a2e249694aa", "bike_id": "e074c2d8dd0888f4a8d32a2e249694aa", "is_disabled": 0, "fusion_lon": 0.0, "type": "electric_scooter", "lon": -77.0366215}, {"rental_uris": {"android": "https://dc.lft.to/lastmile_qr_scan", "ios": "https://dc.lft.to/lastmile_qr_scan"}, "fusion_lat": 0.0, "is_reserved": 0, "lat": 38.923555666666665, "name": "cfb26cba71fbd79fd810612811e2716b", "bike_id": "cfb26cba71fbd79fd810612811e2716b", "is_disabled": 0, "fusion_lon": 0.0, "type": "electric_scooter", "lon": -77.036359}, {"rental_uris": {"android": "https://dc.lft.to/lastmile_qr_scan", "ios": "https://dc.lft.to/lastmile_qr_scan"}, "fusion_lat": 0.0, "is_reserved": 0, "lat": 38.92053033333333, "name": "9aa8b44d479abebde2fadd3ddf9342b8", "bike_id": "9aa8b44d479abebde2fadd3ddf9342b8", "is_disabled": 0, "fusion_lon": 0.0, "type": "electric_scooter", "lon": -76.984293}, {"rental_uris": {"android": "https://dc.lft.to/lastmile_qr_scan", "ios": "https://dc.lft.to/lastmile_qr_scan"}, "fusion_lat": 0.0, "is_reserved": 0, "lat": 38.89826683333333, "name": "e9995f75c9d2dc2f56442be279174351", "bike_id": "e9995f75c9d2dc2f56442be279174351", "is_disabled": 0, "fusion_lon": 0.0, "type": "electric_scooter", "lon": -77.02497283333334}, {"rental_uris": {"android": "https://dc.lft.to/lastmile_qr_scan", "ios": "https://dc.lft.to/lastmile_qr_scan"}, "fusion_lat": 0.0, "is_reserved": 0, "lat": 38.90137033333333, "name": "7c011d5154fbd847a9eed23902b5e3de", "bike_id": "7c011d5154fbd847a9eed23902b5e3de", "is_disabled": 0, "fusion_lon": 0.0, "type": "electric_scooter", "lon": -77.04689283333333}, {"rental_uris": {"android": "https://dc.lft.to/lastmile_qr_scan", "ios": "https://dc.lft.to/lastmile_qr_scan"}, "fusion_lat": 0.0, "is_reserved": 0, "lat": 38.97361766666667, "name": "08405f8005bd6b86eeb5acaf5c8f562e", "bike_id": "08405f8005bd6b86eeb5acaf5c8f562e", "is_disabled": 0, "fusion_lon": 0.0, "type": "electric_scooter", "lon": -77.01862433333334}, {"rental_uris": {"android": "https://dc.lft.to/lastmile_qr_scan", "ios": "https://dc.lft.to/lastmile_qr_scan"}, "fusion_lat": 0.0, "is_reserved": 0, "lat": 38.8942255, "name": "2e942aa510cbc81181b32b6377185676", "bike_id": "2e942aa510cbc81181b32b6377185676", "is_disabled": 0, "fusion_lon": 0.0, "type": "electric_scooter", "lon": -77.020933}, {"rental_uris": {"android": "https://dc.lft.to/lastmile_qr_scan", "ios": "https://dc.lft.to/lastmile_qr_scan"}, "fusion_lat": 0.0, "is_reserved": 0, "lat": 38.904306166666665, "name": "3851040ed82859e185f3fe5b8915e773", "bike_id": "3851040ed82859e185f3fe5b8915e773", "is_disabled": 0, "fusion_lon": 0.0, "type": "electric_scooter", "lon": -77.02575566666667}, {"rental_uris": {"android": "https://dc.lft.to/lastmile_qr_scan", "ios": "https://dc.lft.to/lastmile_qr_scan"}, "fusion_lat": 0.0, "is_reserved": 0, "lat": 38.873403833333334, "name": "e1e059f1b2ac9ece31ea41a4d4b5ac4d", "bike_id": "e1e059f1b2ac9ece31ea41a4d4b5ac4d", "is_disabled": 0, "fusion_lon": 0.0, "type": "electric_scooter", "lon": -76.99168216666666}, {"rental_uris": {"android": "https://dc.lft.to/lastmile_qr_scan", "ios": "https://dc.lft.to/lastmile_qr_scan"}, "fusion_lat": 0.0, "is_reserved": 0, "lat": 38.89337316666666, "name": "a03353275e923c39dc1aac800858e7a7", "bike_id": "a03353275e923c39dc1aac800858e7a7", "is_disabled": 0, "fusion_lon": 0.0, "type": "electric_scooter", "lon": -77.027843}, {"rental_uris": {"android": "https://dc.lft.to/lastmile_qr_scan", "ios": "https://dc.lft.to/lastmile_qr_scan"}, "fusion_lat": 0.0, "is_reserved": 0, "lat": 38.91555433333333, "name": "0a68caf21f1e7dc4572e4a79b18e14e8", "bike_id": "0a68caf21f1e7dc4572e4a79b18e14e8", "is_disabled": 0, "fusion_lon": 0.0, "type": "electric_scooter", "lon": -77.02443266666667}, {"rental_uris": {"android": "https://dc.lft.to/lastmile_qr_scan", "ios": "https://dc.lft.to/lastmile_qr_scan"}, "fusion_lat": 0.0, "is_reserved": 0, "lat": 38.9074585, "name": "f9a5da56a9f6d73ad5d4559116dd1ef2", "bike_id": "f9a5da56a9f6d73ad5d4559116dd1ef2", "is_disabled": 0, "fusion_lon": 0.0, "type": "electric_scooter", "lon": -76.99759}, {"rental_uris": {"android": "https://dc.lft.to/lastmile_qr_scan", "ios": "https://dc.lft.to/lastmile_qr_scan"}, "fusion_lat": 0.0, "is_reserved": 0, "lat": 38.87844533333333, "name": "7c4ddf38ce727acc36fab1c2c070c0d4", "bike_id": "7c4ddf38ce727acc36fab1c2c070c0d4", "is_disabled": 0, "fusion_lon": 0.0, "type": "electric_scooter", "lon": -77.02236566666667}, {"rental_uris": {"android": "https://dc.lft.to/lastmile_qr_scan", "ios": "https://dc.lft.to/lastmile_qr_scan"}, "fusion_lat": 0.0, "is_reserved": 0, "lat": 38.92638266666667, "name": "3464c78d84c88f7fdc1c615096bf4f44", "bike_id": "3464c78d84c88f7fdc1c615096bf4f44", "is_disabled": 0, "fusion_lon": 0.0, "type": "electric_scooter", "lon": -77.03464033333333}, {"rental_uris": {"android": "https://dc.lft.to/lastmile_qr_scan", "ios": "https://dc.lft.to/lastmile_qr_scan"}, "fusion_lat": 0.0, "is_reserved": 0, "lat": 38.927822666666664, "name": "29c9d703d053c3bfc93240cf6aed90be", "bike_id": "29c9d703d053c3bfc93240cf6aed90be", "is_disabled": 0, "fusion_lon": 0.0, "type": "electric_scooter", "lon": -77.027088}, {"rental_uris": {"android": "https://dc.lft.to/lastmile_qr_scan", "ios": "https://dc.lft.to/lastmile_qr_scan"}, "fusion_lat": 0.0, "is_reserved": 0, "lat": 38.90260816666667, "name": "0391aae5267508291b478174d64df2ee", "bike_id": "0391aae5267508291b478174d64df2ee", "is_disabled": 0, "fusion_lon": 0.0, "type": "electric_scooter", "lon": -77.006073}, {"rental_uris": {"android": "https://dc.lft.to/lastmile_qr_scan", "ios": "https://dc.lft.to/lastmile_qr_scan"}, "fusion_lat": 0.0, "is_reserved": 0, "lat": 38.90243366666667, "name": "39d8749baaace1aabff61cdbc408bead", "bike_id": "39d8749baaace1aabff61cdbc408bead", "is_disabled": 0, "fusion_lon": 0.0, "type": "electric_scooter", "lon": -77.01824916666666}, {"rental_uris": {"android": "https://dc.lft.to/lastmile_qr_scan", "ios": "https://dc.lft.to/lastmile_qr_scan"}, "fusion_lat": 0.0, "is_reserved": 0, "lat": 38.932628333333334, "name": "2796cff3d1f7b00576cef4fce9e2943a", "bike_id": "2796cff3d1f7b00576cef4fce9e2943a", "is_disabled": 0, "fusion_lon": 0.0, "type": "electric_scooter", "lon": -77.02091333333334}, {"rental_uris": {"android": "https://dc.lft.to/lastmile_qr_scan", "ios": "https://dc.lft.to/lastmile_qr_scan"}, "fusion_lat": 0.0, "is_reserved": 0, "lat": 38.905625, "name": "a921187454b844d8b3456c07606cdee3", "bike_id": "a921187454b844d8b3456c07606cdee3", "is_disabled": 0, "fusion_lon": 0.0, "type": "electric_scooter", "lon": -77.046786}, {"rental_uris": {"android": "https://dc.lft.to/lastmile_qr_scan", "ios": "https://dc.lft.to/lastmile_qr_scan"}, "fusion_lat": 0.0, "is_reserved": 0, "lat": 38.913521333333335, "name": "62d3d24bf85abca1b99019793e8fa004", "bike_id": "62d3d24bf85abca1b99019793e8fa004", "is_disabled": 0, "fusion_lon": 0.0, "type": "electric_scooter", "lon": -77.03345316666666}, {"rental_uris": {"android": "https://dc.lft.to/lastmile_qr_scan", "ios": "https://dc.lft.to/lastmile_qr_scan"}, "fusion_lat": 0.0, "is_reserved": 0, "lat": 38.903737166666666, "name": "0812df710b33ad679b8618da7053acb3", "bike_id": "0812df710b33ad679b8618da7053acb3", "is_disabled": 0, "fusion_lon": 0.0, "type": "electric_scooter", "lon": -77.0176615}, {"rental_uris": {"android": "https://dc.lft.to/lastmile_qr_scan", "ios": "https://dc.lft.to/lastmile_qr_scan"}, "fusion_lat": 0.0, "is_reserved": 0, "lat": 38.92125033333333, "name": "780086f7703324ea00323ba6204f4865", "bike_id": "780086f7703324ea00323ba6204f4865", "is_disabled": 0, "fusion_lon": 0.0, "type": "electric_scooter", "lon": -77.036644}, {"rental_uris": {"android": "https://dc.lft.to/lastmile_qr_scan", "ios": "https://dc.lft.to/lastmile_qr_scan"}, "fusion_lat": 0.0, "is_reserved": 0, "lat": 38.91653066666667, "name": "a8f2f6b3b87d736045bd0583f5c35a27", "bike_id": "a8f2f6b3b87d736045bd0583f5c35a27", "is_disabled": 0, "fusion_lon": 0.0, "type": "electric_scooter", "lon": -77.04824133333334}, {"rental_uris": {"android": "https://dc.lft.to/lastmile_qr_scan", "ios": "https://dc.lft.to/lastmile_qr_scan"}, "fusion_lat": 0.0, "is_reserved": 0, "lat": 38.918004333333336, "name": "9bb32b363d4c8ad59a2cb2d7d1a30442", "bike_id": "9bb32b363d4c8ad59a2cb2d7d1a30442", "is_disabled": 0, "fusion_lon": 0.0, "type": "electric_scooter", "lon": -77.0330345}, {"rental_uris": {"android": "https://dc.lft.to/lastmile_qr_scan", "ios": "https://dc.lft.to/lastmile_qr_scan"}, "fusion_lat": 0.0, "is_reserved": 0, "lat": 38.920721666666665, "name": "72ecb4db0824e861a8d48512ebead172", "bike_id": "72ecb4db0824e861a8d48512ebead172", "is_disabled": 0, "fusion_lon": 0.0, "type": "electric_scooter", "lon": -77.02317666666667}, {"rental_uris": {"android": "https://dc.lft.to/lastmile_qr_scan", "ios": "https://dc.lft.to/lastmile_qr_scan"}, "fusion_lat": 0.0, "is_reserved": 0, "lat": 38.91330633333333, "name": "90194062359f8e228de9cf96f736fb27", "bike_id": "90194062359f8e228de9cf96f736fb27", "is_disabled": 0, "fusion_lon": 0.0, "type": "electric_scooter", "lon": -77.01153416666666}, {"rental_uris": {"android": "https://dc.lft.to/lastmile_qr_scan", "ios": "https://dc.lft.to/lastmile_qr_scan"}, "fusion_lat": 0.0, "is_reserved": 0, "lat": 38.9419485, "name": "57674979f1874d65c53ebe8ab6e52126", "bike_id": "57674979f1874d65c53ebe8ab6e52126", "is_disabled": 0, "fusion_lon": 0.0, "type": "electric_scooter", "lon": -77.02379683333334}, {"rental_uris": {"android": "https://dc.lft.to/lastmile_qr_scan", "ios": "https://dc.lft.to/lastmile_qr_scan"}, "fusion_lat": 0.0, "is_reserved": 0, "lat": 38.91034533333333, "name": "21c587048b7c48c90eb4fd1cb9b1fd23", "bike_id": "21c587048b7c48c90eb4fd1cb9b1fd23", "is_disabled": 0, "fusion_lon": 0.0, "type": "electric_scooter", "lon": -77.0292965}, {"rental_uris": {"android": "https://dc.lft.to/lastmile_qr_scan", "ios": "https://dc.lft.to/lastmile_qr_scan"}, "fusion_lat": 0.0, "is_reserved": 0, "lat": 38.904746, "name": "d8eb700771e0135441011f259ac85cea", "bike_id": "d8eb700771e0135441011f259ac85cea", "is_disabled": 0, "fusion_lon": 0.0, "type": "electric_scooter", "lon": -77.03567966666667}, {"rental_uris": {"android": "https://dc.lft.to/lastmile_qr_scan", "ios": "https://dc.lft.to/lastmile_qr_scan"}, "fusion_lat": 0.0, "is_reserved": 0, "lat": 38.89725083333333, "name": "44eae53d857b73ffe29e9db0a937b347", "bike_id": "44eae53d857b73ffe29e9db0a937b347", "is_disabled": 0, "fusion_lon": 0.0, "type": "electric_scooter", "lon": -77.05527216666667}, {"rental_uris": {"android": "https://dc.lft.to/lastmile_qr_scan", "ios": "https://dc.lft.to/lastmile_qr_scan"}, "fusion_lat": 0.0, "is_reserved": 0, "lat": 38.92081183333333, "name": "54076afd067b84424388f57b475245e8", "bike_id": "54076afd067b84424388f57b475245e8", "is_disabled": 0, "fusion_lon": 0.0, "type": "electric_scooter", "lon": -77.02507333333334}, {"rental_uris": {"android": "https://dc.lft.to/lastmile_qr_scan", "ios": "https://dc.lft.to/lastmile_qr_scan"}, "fusion_lat": 0.0, "is_reserved": 0, "lat": 38.918636, "name": "004c5ae5d6b7f739ea17a98df6b8ba3a", "bike_id": "004c5ae5d6b7f739ea17a98df6b8ba3a", "is_disabled": 0, "fusion_lon": 0.0, "type": "electric_scooter", "lon": -77.01351733333334}, {"rental_uris": {"android": "https://dc.lft.to/lastmile_qr_scan", "ios": "https://dc.lft.to/lastmile_qr_scan"}, "fusion_lat": 0.0, "is_reserved": 0, "lat": 38.918501, "name": "49f7f82c6cc39b48a91856f8b89fe1a1", "bike_id": "49f7f82c6cc39b48a91856f8b89fe1a1", "is_disabled": 0, "fusion_lon": 0.0, "type": "electric_scooter", "lon": -76.96553583333333}, {"rental_uris": {"android": "https://dc.lft.to/lastmile_qr_scan", "ios": "https://dc.lft.to/lastmile_qr_scan"}, "fusion_lat": 0.0, "is_reserved": 0, "lat": 38.88244383333333, "name": "1a3fefb5876f371bf3ae2c582ec04671", "bike_id": "1a3fefb5876f371bf3ae2c582ec04671", "is_disabled": 0, "fusion_lon": 0.0, "type": "electric_bike", "lon": -76.96260933333333}, {"rental_uris": {"android": "https://dc.lft.to/lastmile_qr_scan", "ios": "https://dc.lft.to/lastmile_qr_scan"}, "fusion_lat": 0.0, "is_reserved": 0, "lat": 38.966491833333336, "name": "609b7efc369b096504933fbf43a57e18", "bike_id": "609b7efc369b096504933fbf43a57e18", "is_disabled": 0, "fusion_lon": 0.0, "type": "electric_scooter", "lon": -77.0089185}, {"rental_uris": {"android": "https://dc.lft.to/lastmile_qr_scan", "ios": "https://dc.lft.to/lastmile_qr_scan"}, "fusion_lat": 0.0, "is_reserved": 0, "lat": 38.931017833333335, "name": "edb417385c13c3bf9c2f80e9c39bfa8d", "bike_id": "edb417385c13c3bf9c2f80e9c39bfa8d", "is_disabled": 0, "fusion_lon": 0.0, "type": "electric_scooter", "lon": -77.0302365}, {"rental_uris": {"android": "https://dc.lft.to/lastmile_qr_scan", "ios": "https://dc.lft.to/lastmile_qr_scan"}, "fusion_lat": 0.0, "is_reserved": 0, "lat": 38.90565383333333, "name": "b9fe29c449da4b66aca7766ebeb9c670", "bike_id": "b9fe29c449da4b66aca7766ebeb9c670", "is_disabled": 0, "fusion_lon": 0.0, "type": "electric_scooter", "lon": -77.00680333333334}, {"rental_uris": {"android": "https://dc.lft.to/lastmile_qr_scan", "ios": "https://dc.lft.to/lastmile_qr_scan"}, "fusion_lat": 0.0, "is_reserved": 0, "lat": 38.917881, "name": "923e2a6a5e895bab6a5c415ace886822", "bike_id": "923e2a6a5e895bab6a5c415ace886822", "is_disabled": 0, "fusion_lon": 0.0, "type": "electric_scooter", "lon": -77.02318966666667}, {"rental_uris": {"android": "https://dc.lft.to/lastmile_qr_scan", "ios": "https://dc.lft.to/lastmile_qr_scan"}, "fusion_lat": 0.0, "is_reserved": 0, "lat": 38.94374283333333, "name": "8b37f30d4ab44f99a7631984461522f9", "bike_id": "8b37f30d4ab44f99a7631984461522f9", "is_disabled": 0, "fusion_lon": 0.0, "type": "electric_scooter", "lon": -77.061085}, {"rental_uris": {"android": "https://dc.lft.to/lastmile_qr_scan", "ios": "https://dc.lft.to/lastmile_qr_scan"}, "fusion_lat": 0.0, "is_reserved": 0, "lat": 38.94192183333333, "name": "b0d2e657de8b5e723857b15bdcbb3f64", "bike_id": "b0d2e657de8b5e723857b15bdcbb3f64", "is_disabled": 0, "fusion_lon": 0.0, "type": "electric_scooter", "lon": -77.0247915}, {"rental_uris": {"android": "https://dc.lft.to/lastmile_qr_scan", "ios": "https://dc.lft.to/lastmile_qr_scan"}, "fusion_lat": 0.0, "is_reserved": 0, "lat": 38.91569616666666, "name": "3b64216d6e93b57c8e8b715c034adf3e", "bike_id": "3b64216d6e93b57c8e8b715c034adf3e", "is_disabled": 0, "fusion_lon": 0.0, "type": "electric_scooter", "lon": -77.02288416666667}, {"rental_uris": {"android": "https://dc.lft.to/lastmile_qr_scan", "ios": "https://dc.lft.to/lastmile_qr_scan"}, "fusion_lat": 0.0, "is_reserved": 0, "lat": 38.90422183333333, "name": "02394776d11f05b6d5b13a118dd79c10", "bike_id": "02394776d11f05b6d5b13a118dd79c10", "is_disabled": 0, "fusion_lon": 0.0, "type": "electric_scooter", "lon": -76.981159}, {"rental_uris": {"android": "https://dc.lft.to/lastmile_qr_scan", "ios": "https://dc.lft.to/lastmile_qr_scan"}, "fusion_lat": 0.0, "is_reserved": 0, "lat": 38.9068775, "name": "79b33dfd32e5a49ab5d1283f089139b2", "bike_id": "79b33dfd32e5a49ab5d1283f089139b2", "is_disabled": 0, "fusion_lon": 0.0, "type": "electric_scooter", "lon": -77.01625166666666}, {"rental_uris": {"android": "https://dc.lft.to/lastmile_qr_scan", "ios": "https://dc.lft.to/lastmile_qr_scan"}, "fusion_lat": 0.0, "is_reserved": 0, "lat": 38.9012355, "name": "dccae8109ae43eb9a1c13e3e926d2371", "bike_id": "dccae8109ae43eb9a1c13e3e926d2371", "is_disabled": 0, "fusion_lon": 0.0, "type": "electric_scooter", "lon": -77.037864}, {"rental_uris": {"android": "https://dc.lft.to/lastmile_qr_scan", "ios": "https://dc.lft.to/lastmile_qr_scan"}, "fusion_lat": 0.0, "is_reserved": 0, "lat": 38.90112833333333, "name": "45299003a4416cdf01340fed2bcc9c1f", "bike_id": "45299003a4416cdf01340fed2bcc9c1f", "is_disabled": 0, "fusion_lon": 0.0, "type": "electric_scooter", "lon": -77.03155616666666}, {"rental_uris": {"android": "https://dc.lft.to/lastmile_qr_scan", "ios": "https://dc.lft.to/lastmile_qr_scan"}, "fusion_lat": 0.0, "is_reserved": 0, "lat": 38.921476166666665, "name": "1af750f7ddfe384712be02b5d74308af", "bike_id": "1af750f7ddfe384712be02b5d74308af", "is_disabled": 0, "fusion_lon": 0.0, "type": "electric_scooter", "lon": -77.0331405}, {"rental_uris": {"android": "https://dc.lft.to/lastmile_qr_scan", "ios": "https://dc.lft.to/lastmile_qr_scan"}, "fusion_lat": 0.0, "is_reserved": 0, "lat": 38.908280500000004, "name": "e6b108d3e62792862ba6ae90e5a11e84", "bike_id": "e6b108d3e62792862ba6ae90e5a11e84", "is_disabled": 0, "fusion_lon": 0.0, "type": "electric_bike", "lon": -76.94157016666666}, {"rental_uris": {"android": "https://dc.lft.to/lastmile_qr_scan", "ios": "https://dc.lft.to/lastmile_qr_scan"}, "fusion_lat": 0.0, "is_reserved": 0, "lat": 38.907399833333336, "name": "e7f67b206730f2db0c54a0e0a89be6f5", "bike_id": "e7f67b206730f2db0c54a0e0a89be6f5", "is_disabled": 0, "fusion_lon": 0.0, "type": "electric_scooter", "lon": -77.007986}, {"rental_uris": {"android": "https://dc.lft.to/lastmile_qr_scan", "ios": "https://dc.lft.to/lastmile_qr_scan"}, "fusion_lat": 0.0, "is_reserved": 0, "lat": 38.92316533333333, "name": "502f404b50ad90db0c767e9f250cc5f0", "bike_id": "502f404b50ad90db0c767e9f250cc5f0", "is_disabled": 0, "fusion_lon": 0.0, "type": "electric_scooter", "lon": -77.04569916666667}, {"rental_uris": {"android": "https://dc.lft.to/lastmile_qr_scan", "ios": "https://dc.lft.to/lastmile_qr_scan"},