{"data": {"bikes": [{"rental_uris": {"android": "https://dc.lft.to/lastmile_qr_scan", "ios": "https://dc.lft.to/lastmile_qr_scan"}, "type": "electric_scooter", "lon": -77.00349483333333, "name": "2ccdb2429446fc27e5d72efff2d6570e", "bike_id": "2ccdb2429446fc27e5d72efff2d6570e", "fusion_lat": 0.0, "is_reserved": 0, "lat": 38.922684833333335, "fusion_lon": 0.0, "is_disabled": 0}, {"rental_uris": {"android": "https://dc.lft.to/lastmile_qr_scan", "ios": "https://dc.lft.to/lastmile_qr_scan"}, "type": "electric_scooter", "lon": -77.04349333333333, "name": "9849936ac525110a541c4e283c1bb743", "bike_id": "9849936ac525110a541c4e283c1bb743", "fusion_lat": 0.0, "is_reserved": 0, "lat": 38.9071565, "fusion_lon": 0.0, "is_disabled": 0}, {"rental_uris": {"android": "https://dc.lft.to/lastmile_qr_scan", "ios": "https://dc.lft.to/lastmile_qr_scan"}, "type": "electric_scooter", "lon": -77.0347035, "name": "73307e47966399f93dd44fd7216c1241", "bike_id": "73307e47966399f93dd44fd7216c1241", "fusion_lat": 0.0, "is_reserved": 0, "lat": 38.93101816666667, "fusion_lon": 0.0, "is_disabled": 0}, {"rental_uris": {"android": "https://dc.lft.to/lastmile_qr_scan", "ios": "https://dc.lft.to/lastmile_qr_scan"}, "type": "electric_scooter", "lon": -77.06780466666666, "name": "49057b7d87f415e4745de228511d210f", "bike_id": "49057b7d87f415e4745de228511d210f", "fusion_lat": 0.0, "is_reserved": 0, "lat": 38.905247333333335, "fusion_lon": 0.0, "is_disabled": 0}, {"rental_uris": {"android": "https://dc.lft.to/lastmile_qr_scan", "ios": "https://dc.lft.to/lastmile_qr_scan"}, "type": "electric_bike", "lon": -77.0237665, "name": "504a230f1c2545c9de66acd0f17f45a9", "bike_id": "504a230f1c2545c9de66acd0f17f45a9", "fusion_lat": 0.0, "is_reserved": 0, "lat": 38.95296183333333, "fusion_lon": 0.0, "is_disabled": 0}, {"rental_uris": {"android": "https://dc.lft.to/lastmile_qr_scan", "ios": "https://dc.lft.to/lastmile_qr_scan"}, "type": "electric_scooter", "lon": -77.04138066666667, "name": "fa723d8e161af7fb42724bd1283084e6", "bike_id": "fa723d8e161af7fb42724bd1283084e6", "fusion_lat": 0.0, "is_reserved": 0, "lat": 38.9212815, "fusion_lon": 0.0, "is_disabled": 0}, {"rental_uris": {"android": "https://dc.lft.to/lastmile_qr_scan", "ios": "https://dc.lft.to/lastmile_qr_scan"}, "type": "electric_scooter", "lon": -77.0416935, "name": "b8c2bb8da27374659668b1e837d30094", "bike_id": "b8c2bb8da27374659668b1e837d30094", "fusion_lat": 0.0, "is_reserved": 0, "lat": 38.91345233333333, "fusion_lon": 0.0, "is_disabled": 0}, {"rental_uris": {"android": "https://dc.lft.to/lastmile_qr_scan", "ios": "https://dc.lft.to/lastmile_qr_scan"}, "type": "electric_scooter", "lon": -77.04387416666667, "name": "646486870497adcf26cc9e5329451114", "bike_id": "646486870497adcf26cc9e5329451114", "fusion_lat": 0.0, "is_reserved": 0, "lat": 38.923594666666666, "fusion_lon": 0.0, "is_disabled": 0}, {"rental_uris": {"android": "https://dc.lft.to/lastmile_qr_scan", "ios": "https://dc.lft.to/lastmile_qr_scan"}, "type": "electric_bike", "lon": -76.90960466666667, "name": "d1c2d6d870227cbd2c4924045f35d461", "bike_id": "d1c2d6d870227cbd2c4924045f35d461", "fusion_lat": 0.0, "is_reserved": 0, "lat": 38.854249833333334, "fusion_lon": 0.0, "is_disabled": 0}, {"rental_uris": {"android": "https://dc.lft.to/lastmile_qr_scan", "ios": "https://dc.lft.to/lastmile_qr_scan"}, "type": "electric_scooter", "lon": -77.06567266666667, "name": "3fcb602386103e8852e07d551bf277ed", "bike_id": "3fcb602386103e8852e07d551bf277ed", "fusion_lat": 0.0, "is_reserved": 0, "lat": 38.905196333333336, "fusion_lon": 0.0, "is_disabled": 0}, {"rental_uris": {"android": "https://dc.lft.to/lastmile_qr_scan", "ios": "https://dc.lft.to/lastmile_qr_scan"}, "type": "electric_scooter", "lon": -76.93750883333334, "name": "e536d1f3aa6bea4ea1465e4f3e0206a9", "bike_id": "e536d1f3aa6bea4ea1465e4f3e0206a9", "fusion_lat": 0.0, "is_reserved": 0, "lat": 38.89044033333333, "fusion_lon": 0.0, "is_disabled": 0}, {"rental_uris": {"android": "https://dc.lft.to/lastmile_qr_scan", "ios": "https://dc.lft.to/lastmile_qr_scan"}, "type": "electric_scooter", "lon": -76.97622533333333, "name": "59ae9a834db33fdb7075691aee2a1bad", "bike_id": "59ae9a834db33fdb7075691aee2a1bad", "fusion_lat": 0.0, "is_reserved": 0, "lat": 38.93146, "fusion_lon": 0.0, "is_disabled": 0}, {"rental_uris": {"android": "https://dc.lft.to/lastmile_qr_scan", "ios": "https://dc.lft.to/lastmile_qr_scan"}, "type": "electric_scooter", "lon": -76.98233633333334, "name": "9cbeb1dc16c2fd479204b380aeef01fb", "bike_id": "9cbeb1dc16c2fd479204b380aeef01fb", "fusion_lat": 0.0, "is_reserved": 0, "lat": 38.86475766666667, "fusion_lon": 0.0, "is_disabled": 0}, {"rental_uris": {"android": "https://dc.lft.to/lastmile_qr_scan", "ios": "https://dc.lft.to/lastmile_qr_scan"}, "type": "electric_scooter", "lon": -76.9847325, "name": "35dba5bdc7425130ed113b61b9597f7e", "bike_id": "35dba5bdc7425130ed113b61b9597f7e", "fusion_lat": 0.0, "is_reserved": 0, "lat": 38.928963833333334, "fusion_lon": 0.0, "is_disabled": 0}, {"rental_uris": {"android": "https://dc.lft.to/lastmile_qr_scan", "ios": "https://dc.lft.to/lastmile_qr_scan"}, "type": "electric_scooter", "lon": -77.00208, "name": "5f93facf5dde6468a1d8fb4fa52ec45b", "bike_id": "5f93facf5dde6468a1d8fb4fa52ec45b", "fusion_lat": 0.0, "is_reserved": 0, "lat": 38.902893166666665, "fusion_lon": 0.0, "is_disabled": 0}, {"rental_uris": {"android": "https://dc.lft.to/lastmile_qr_scan", "ios": "https://dc.lft.to/lastmile_qr_scan"}, "type": "electric_scooter", "lon": -77.02688633333334, "name": "a6461e12ed224e7b03d53d0ba689d3cb", "bike_id": "a6461e12ed224e7b03d53d0ba689d3cb", "fusion_lat": 0.0, "is_reserved": 0, "lat": 38.9035065, "fusion_lon": 0.0, "is_disabled": 0}, {"rental_uris": {"android": "https://dc.lft.to/lastmile_qr_scan", "ios": "https://dc.lft.to/lastmile_qr_scan"}, "type": "electric_scooter", "lon": -76.99054333333333, "name": "b425a5728e25b55e5454f0d9b770d353", "bike_id": "b425a5728e25b55e5454f0d9b770d353", "fusion_lat": 0.0, "is_reserved": 0, "lat": 38.858962166666664, "fusion_lon": 0.0, "is_disabled": 0}, {"rental_uris": {"android": "https://dc.lft.to/lastmile_qr_scan", "ios": "https://dc.lft.to/lastmile_qr_scan"}, "type": "electric_scooter", "lon": -77.01746333333334, "name": "56c0672d32cea352d9a7ee7c03ecaeab", "bike_id": "56c0672d32cea352d9a7ee7c03ecaeab", "fusion_lat": 0.0, "is_reserved": 0, "lat": 38.877909833333334, "fusion_lon": 0.0, "is_disabled": 0}, {"rental_uris": {"android": "https://dc.lft.to/lastmile_qr_scan", "ios": "https://dc.lft.to/lastmile_qr_scan"}, "type": "electric_scooter", "lon": -77.00482566666666, "name": "b0ae01e3a1bb0fe87883db6eb75c8f5c", "bike_id": "b0ae01e3a1bb0fe87883db6eb75c8f5c", "fusion_lat": 0.0, "is_reserved": 0, "lat": 38.92591133333333, "fusion_lon": 0.0, "is_disabled": 0}, {"rental_uris": {"android": "https://dc.lft.to/lastmile_qr_scan", "ios": "https://dc.lft.to/lastmile_qr_scan"}, "type": "electric_bike", "lon": -76.98879916666667, "name": "177a02ce0c6bc880a59b7be907f302bb", "bike_id": "177a02ce0c6bc880a59b7be907f302bb", "fusion_lat": 0.0, "is_reserved": 0, "lat": 38.921139, "fusion_lon": 0.0, "is_disabled": 0}, {"rental_uris": {"android": "https://dc.lft.to/lastmile_qr_scan", "ios": "https://dc.lft.to/lastmile_qr_scan"}, "type": "electric_scooter", "lon": -77.04024783333334, "name": "7a151396818f573b182fc3a60e261086", "bike_id": "7a151396818f573b182fc3a60e261086", "fusion_lat": 0.0, "is_reserved": 0, "lat": 38.918383, "fusion_lon": 0.0, "is_disabled": 0}, {"rental_uris": {"android": "https://dc.lft.to/lastmile_qr_scan", "ios": "https://dc.lft.to/lastmile_qr_scan"}, "type": "electric_bike", "lon": -76.95464033333333, "name": "8bb5546d3edf2ae58777a520ecf80c05", "bike_id": "8bb5546d3edf2ae58777a520ecf80c05", "fusion_lat": 0.0, "is_reserved": 0, "lat": 38.935739833333336, "fusion_lon": 0.0, "is_disabled": 0}, {"rental_uris": {"android": "https://dc.lft.to/lastmile_qr_scan", "ios": "https://dc.lft.to/lastmile_qr_scan"}, "type": "electric_scooter", "lon": -76.97723983333333, "name": "fa3664f80094d0e7bc60dab37876dd62", "bike_id": "fa3664f80094d0e7bc60dab37876dd62", "fusion_lat": 0.0, "is_reserved": 0, "lat": 38.87292016666667, "fusion_lon": 0.0, "is_disabled": 0}, {"rental_uris": {"android": "https://dc.lft.to/lastmile_qr_scan", "ios": "https://dc.lft.to/lastmile_qr_scan"}, "type": "electric_scooter", "lon": -77.00971583333333, "name": "6f4ae2b5fb5233bbab6318710a3446df", "bike_id": "6f4ae2b5fb5233bbab6318710a3446df", "fusion_lat": 0.0, "is_reserved": 0, "lat": 38.88129133333333, "fusion_lon": 0.0, "is_disabled": 0}, {"rental_uris": {"android": "https://dc.lft.to/lastmile_qr_scan", "ios": "https://dc.lft.to/lastmile_qr_scan"}, "type": "electric_scooter", "lon": -77.0388525, "name": "ec45a3d9b79422dd2fc5a8ab16100977", "bike_id": "ec45a3d9b79422dd2fc5a8ab16100977", "fusion_lat": 0.0, "is_reserved": 0, "lat": 38.917589666666665, "fusion_lon": 0.0, "is_disabled": 0}, {"rental_uris": {"android": "https://dc.lft.to/lastmile_qr_scan", "ios": "https://dc.lft.to/lastmile_qr_scan"}, "type": "electric_scooter", "lon": -77.032766, "name": "59b297d5b3e9d7c9378767a2f061bba6", "bike_id": "59b297d5b3e9d7c9378767a2f061bba6", "fusion_lat": 0.0, "is_reserved": 0, "lat": 38.91922066666667, "fusion_lon": 0.0, "is_disabled": 0}, {"rental_uris": {"android": "https://dc.lft.to/lastmile_qr_scan", "ios": "https://dc.lft.to/lastmile_qr_scan"}, "type": "electric_scooter", "lon": -77.02013133333334, "name": "5e304e7d7cd8569d92a2749708ead21c", "bike_id": "5e304e7d7cd8569d92a2749708ead21c", "fusion_lat": 0.0, "is_reserved": 0, "lat": 38.92419116666667, "fusion_lon": 0.0, "is_disabled": 0}, {"rental_uris": {"android": "https://dc.lft.to/lastmile_qr_scan", "ios": "https://dc.lft.to/lastmile_qr_scan"}, "type": "electric_scooter", "lon": -77.0297825, "name": "c86071a41d2917c5472690da749a6781", "bike_id": "c86071a41d2917c5472690da749a6781", "fusion_lat": 0.0, "is_reserved": 0, "lat": 38.9074685, "fusion_lon": 0.0, "is_disabled": 0}, {"rental_uris": {"android": "https://dc.lft.to/lastmile_qr_scan", "ios": "https://dc.lft.to/lastmile_qr_scan"}, "type": "electric_scooter", "lon": -76.98995733333334, "name": "cb7a32bdb3104115dcf3164ee201c32f", "bike_id": "cb7a32bdb3104115dcf3164ee201c32f", "fusion_lat": 0.0, "is_reserved": 0, "lat": 38.924512166666666, "fusion_lon": 0.0, "is_disabled": 0}, {"rental_uris": {"android": "https://dc.lft.to/lastmile_qr_scan", "ios": "https://dc.lft.to/lastmile_qr_scan"}, "type": "electric_scooter", "lon": -77.06348983333334, "name": "36709b3bb8d4adbf9364de1313d7ffb2", "bike_id": "36709b3bb8d4adbf9364de1313d7ffb2", "fusion_lat": 0.0, "is_reserved": 0, "lat": 38.944442333333335, "fusion_lon": 0.0, "is_disabled": 0}, {"rental_uris": {"android": "https://dc.lft.to/lastmile_qr_scan", "ios": "https://dc.lft.to/lastmile_qr_scan"}, "type": "electric_scooter", "lon": -77.00739083333333, "name": "7d3abfd612804d75286164fd48afdeb0", "bike_id": "7d3abfd612804d75286164fd48afdeb0", "fusion_lat": 0.0, "is_reserved": 0, "lat": 38.95524916666667, "fusion_lon": 0.0, "is_disabled": 0}, {"rental_uris": {"android": "https://dc.lft.to/lastmile_qr_scan", "ios": "https://dc.lft.to/lastmile_qr_scan"}, "type": "electric_scooter", "lon": -77.0334955, "name": "3381fcafdc59037238879b61918e9c08", "bike_id": "3381fcafdc59037238879b61918e9c08", "fusion_lat": 0.0, "is_reserved": 0, "lat": 38.922517166666665, "fusion_lon": 0.0, "is_disabled": 0}, {"rental_uris": {"android": "https://dc.lft.to/lastmile_qr_scan", "ios": "https://dc.lft.to/lastmile_qr_scan"}, "type": "electric_bike", "lon": -77.091615, "name": "e1f1714147feeea0766f466a5d51aa01", "bike_id": "e1f1714147feeea0766f466a5d51aa01", "fusion_lat": 0.0, "is_reserved": 0, "lat": 38.96757983333333, "fusion_lon": 0.0, "is_disabled": 0}, {"rental_uris": {"android": "https://dc.lft.to/lastmile_qr_scan", "ios": "https://dc.lft.to/lastmile_qr_scan"}, "type": "electric_scooter", "lon": -77.03728516666666, "name": "263eee9173645a33a529ef5c11224d17", "bike_id": "263eee9173645a33a529ef5c11224d17", "fusion_lat": 0.0, "is_reserved": 0, "lat": 38.918248, "fusion_lon": 0.0, "is_disabled": 0}, {"rental_uris": {"android": "https://dc.lft.to/lastmile_qr_scan", "ios": "https://dc.lft.to/lastmile_qr_scan"}, "type": "electric_scooter", "lon": -77.03118316666666, "name": "7d72e6cbc4c249603119a3d73723f37a", "bike_id": "7d72e6cbc4c249603119a3d73723f37a", "fusion_lat": 0.0, "is_reserved": 0, "lat": 38.97376033333333, "fusion_lon": 0.0, "is_disabled": 0}, {"rental_uris": {"android": "https://dc.lft.to/lastmile_qr_scan", "ios": "https://dc.lft.to/lastmile_qr_scan"}, "type": "electric_scooter", "lon": -77.0422625, "name": "ff31170f3e619f22373e8970266e85a7", "bike_id": "ff31170f3e619f22373e8970266e85a7", "fusion_lat": 0.0, "is_reserved": 0, "lat": 38.921175, "fusion_lon": 0.0, "is_disabled": 0}, {"rental_uris": {"android": "https://dc.lft.to/lastmile_qr_scan", "ios": "https://dc.lft.to/lastmile_qr_scan"}, "type": "electric_scooter", "lon": -77.04655416666667, "name": "c6d83fc397d35c2827b3f2c97f5c39d3", "bike_id": "c6d83fc397d35c2827b3f2c97f5c39d3", "fusion_lat": 0.0, "is_reserved": 0, "lat": 38.893051666666665, "fusion_lon": 0.0, "is_disabled": 0}, {"rental_uris": {"android": "https://dc.lft.to/lastmile_qr_scan", "ios": "https://dc.lft.to/lastmile_qr_scan"}, "type": "electric_scooter", "lon": -77.044259, "name": "4566e17d256d44a4d47b80a30e387445", "bike_id": "4566e17d256d44a4d47b80a30e387445", "fusion_lat": 0.0, "is_reserved": 0, "lat": 38.874380333333335, "fusion_lon": 0.0, "is_disabled": 0}, {"rental_uris": {"android": "https://dc.lft.to/lastmile_qr_scan", "ios": "https://dc.lft.to/lastmile_qr_scan"}, "type": "electric_scooter", "lon": -76.96705916666667, "name": "9da99c71980806f58c121dc4c7658001", "bike_id": "9da99c71980806f58c121dc4c7658001", "fusion_lat": 0.0, "is_reserved": 0, "lat": 38.85894416666667, "fusion_lon": 0.0, "is_disabled": 0}, {"rental_uris": {"android": "https://dc.lft.to/lastmile_qr_scan", "ios": "https://dc.lft.to/lastmile_qr_scan"}, "type": "electric_bike", "lon": -77.05035616666666, "name": "fad4c53a8910ffa2609631b2fdc35443", "bike_id": "fad4c53a8910ffa2609631b2fdc35443", "fusion_lat": 0.0, "is_reserved": 0, "lat": 38.911132333333335, "fusion_lon": 0.0, "is_disabled": 0}, {"rental_uris": {"android": "https://dc.lft.to/lastmile_qr_scan", "ios": "https://dc.lft.to/lastmile_qr_scan"}, "type": "electric_bike", "lon": -77.15292783333334, "name": "66e018c647fcd9bf57ad94221819c63a", "bike_id": "66e018c647fcd9bf57ad94221819c63a", "fusion_lat": 0.0, "is_reserved": 0, "lat": 39.093580833333334, "fusion_lon": 0.0, "is_disabled": 0}, {"rental_uris": {"android": "https://dc.lft.to/lastmile_qr_scan", "ios": "https://dc.lft.to/lastmile_qr_scan"}, "type": "electric_bike", "lon": -77.12626433333334, "name": "aaa3fbc69cf585ec21a098c45c1e4328", "bike_id": "aaa3fbc69cf585ec21a098c45c1e4328", "fusion_lat": 0.0, "is_reserved": 0, "lat": 39.058133833333336, "fusion_lon": 0.0, "is_disabled": 0}, {"rental_uris": {"android": "https://dc.lft.to/lastmile_qr_scan", "ios": "https://dc.lft.to/lastmile_qr_scan"}, "type": "electric_scooter", "lon": -76.99819466666666, "name": "6ebf2054b72f84e6687a76068ee22a2d", "bike_id": "6ebf2054b72f84e6687a76068ee22a2d", "fusion_lat": 0.0, "is_reserved": 0, "lat": 38.84433666666666, "fusion_lon": 0.0, "is_disabled": 0}, {"rental_uris": {"android": "https://dc.lft.to/lastmile_qr_scan", "ios": "https://dc.lft.to/lastmile_qr_scan"}, "type": "electric_scooter", "lon": -77.04806, "name": "c8d83ebeb2f8c08e800276f3b7e2c7a0", "bike_id": "c8d83ebeb2f8c08e800276f3b7e2c7a0", "fusion_lat": 0.0, "is_reserved": 0, "lat": 38.9191085, "fusion_lon": 0.0, "is_disabled": 0}, {"rental_uris": {"android": "https://dc.lft.to/lastmile_qr_scan", "ios": "https://dc.lft.to/lastmile_qr_scan"}, "type": "electric_bike", "lon": -76.9882085, "name": "a3662554912ec8e83db84c14c719a465", "bike_id": "a3662554912ec8e83db84c14c719a465", "fusion_lat": 0.0, "is_reserved": 0, "lat": 38.842628500000004, "fusion_lon": 0.0, "is_disabled": 0}, {"rental_uris": {"android": "https://dc.lft.to/lastmile_qr_scan", "ios": "https://dc.lft.to/lastmile_qr_scan"}, "type": "electric_scooter", "lon": -77.02971933333333, "name": "19bada276fd660a36962c5ec9673da09", "bike_id": "19bada276fd660a36962c5ec9673da09", "fusion_lat": 0.0, "is_reserved": 0, "lat": 38.8921655, "fusion_lon": 0.0, "is_disabled": 0}, {"rental_uris": {"android": "https://dc.lft.to/lastmile_qr_scan", "ios": "https://dc.lft.to/lastmile_qr_scan"}, "type": "electric_scooter", "lon": -77.05344633333333, "name": "457a30a701a72b8bdfc0da44d09a0113", "bike_id": "457a30a701a72b8bdfc0da44d09a0113", "fusion_lat": 0.0, "is_reserved": 0, "lat": 38.902405333333334, "fusion_lon": 0.0, "is_disabled": 0}, {"rental_uris": {"android": "https://dc.lft.to/lastmile_qr_scan", "ios": "https://dc.lft.to/lastmile_qr_scan"}, "type": "electric_scooter", "lon": -77.01734, "name": "69954bd46bc43aa544c0303226e9e115", "bike_id": "69954bd46bc43aa544c0303226e9e115", "fusion_lat": 0.0, "is_reserved": 0, "lat": 38.94209083333333, "fusion_lon": 0.0, "is_disabled": 0}, {"rental_uris": {"android": "https://dc.lft.to/lastmile_qr_scan", "ios": "https://dc.lft.to/lastmile_qr_scan"}, "type": "electric_scooter", "lon": -77.00760433333333, "name": "4c584de9f38ef4ea0a2020b06e4a2112", "bike_id": "4c584de9f38ef4ea0a2020b06e4a2112", "fusion_lat": 0.0, "is_reserved": 0, "lat": 38.915563666666664, "fusion_lon": 0.0, "is_disabled": 0}, {"rental_uris": {"android": "https://dc.lft.to/lastmile_qr_scan", "ios": "https://dc.lft.to/lastmile_qr_scan"}, "type": "electric_scooter", "lon": -77.022246, "name": "d5e138d956a08687fe5071d35248379c", "bike_id": "d5e138d956a08687fe5071d35248379c", "fusion_lat": 0.0, "is_reserved": 0, "lat": 38.9156605, "fusion_lon": 0.0, "is_disabled": 0}, {"rental_uris": {"android": "https://dc.lft.to/lastmile_qr_scan", "ios": "https://dc.lft.to/lastmile_qr_scan"}, "type": "electric_scooter", "lon": -77.02618666666666, "name": "a81bd95505b3f7706f3dafe773d57107", "bike_id": "a81bd95505b3f7706f3dafe773d57107", "fusion_lat": 0.0, "is_reserved": 0, "lat": 38.88599933333333, "fusion_lon": 0.0, "is_disabled": 0}, {"rental_uris": {"android": "https://dc.lft.to/lastmile_qr_scan", "ios": "https://dc.lft.to/lastmile_qr_scan"}, "type": "electric_scooter", "lon": -77.03350116666667, "name": "6c6ca60098e2beb4aeefb6558c0d2561", "bike_id": "6c6ca60098e2beb4aeefb6558c0d2561", "fusion_lat": 0.0, "is_reserved": 0, "lat": 38.922435, "fusion_lon": 0.0, "is_disabled": 0}, {"rental_uris": {"android": "https://dc.lft.to/lastmile_qr_scan", "ios": "https://dc.lft.to/lastmile_qr_scan"}, "type": "electric_scooter", "lon": -77.0058845, "name": "727a058aa53864a132701689da7fa9f1", "bike_id": "727a058aa53864a132701689da7fa9f1", "fusion_lat": 0.0, "is_reserved": 0, "lat": 38.876404666666666, "fusion_lon": 0.0, "is_disabled": 0}, {"rental_uris": {"android": "https://dc.lft.to/lastmile_qr_scan", "ios": "https://dc.lft.to/lastmile_qr_scan"}, "type": "electric_scooter", "lon": -77.05051666666667, "name": "d88255247556da3aa852fb5e080fa62e", "bike_id": "d88255247556da3aa852fb5e080fa62e", "fusion_lat": 0.0, "is_reserved": 0, "lat": 38.923671, "fusion_lon": 0.0, "is_disabled": 0}, {"rental_uris": {"android": "https://dc.lft.to/lastmile_qr_scan", "ios": "https://dc.lft.to/lastmile_qr_scan"}, "type": "electric_scooter", "lon": -77.01176116666667, "name": "03f3d1994357a2263c25826e082a73c0", "bike_id": "03f3d1994357a2263c25826e082a73c0", "fusion_lat": 0.0, "is_reserved": 0, "lat": 38.89748016666667, "fusion_lon": 0.0, "is_disabled": 0}, {"rental_uris": {"android": "https://dc.lft.to/lastmile_qr_scan", "ios": "https://dc.lft.to/lastmile_qr_scan"}, "type": "electric_scooter", "lon": -77.03058216666666, "name": "adddb06c3b88437ae7865ed39fd4e002", "bike_id": "adddb06c3b88437ae7865ed39fd4e002", "fusion_lat": 0.0, "is_reserved": 0, "lat": 38.8842125, "fusion_lon": 0.0, "is_disabled": 0}, {"rental_uris": {"android": "https://dc.lft.to/lastmile_qr_scan", "ios": "https://dc.lft.to/lastmile_qr_scan"}, "type": "electric_scooter", "lon": -77.03403533333334, "name": "a79e49b84477c288f87b573e248c64e2", "bike_id": "a79e49b84477c288f87b573e248c64e2", "fusion_lat": 0.0, "is_reserved": 0, "lat": 38.93536783333333, "fusion_lon": 0.0, "is_disabled": 0}, {"rental_uris": {"android": "https://dc.lft.to/lastmile_qr_scan", "ios": "https://dc.lft.to/lastmile_qr_scan"}, "type": "electric_scooter", "lon": -77.03541816666667, "name": "7a34882534698eb7af48bf5b11360f14", "bike_id": "7a34882534698eb7af48bf5b11360f14", "fusion_lat": 0.0, "is_reserved": 0, "lat": 38.92498, "fusion_lon": 0.0, "is_disabled": 0}, {"rental_uris": {"android": "https://dc.lft.to/lastmile_qr_scan", "ios": "https://dc.lft.to/lastmile_qr_scan"}, "type": "electric_bike", "lon": -77.00820416666667, "name": "81505d9102565cf3f2f564f3b7449d5c", "bike_id": "81505d9102565cf3f2f564f3b7449d5c", "fusion_lat": 0.0, "is_reserved": 0, "lat": 38.8750715, "fusion_lon": 0.0, "is_disabled": 0}, {"rental_uris": {"android": "https://dc.lft.to/lastmile_qr_scan", "ios": "https://dc.lft.to/lastmile_qr_scan"}, "type": "electric_scooter", "lon": -77.0592315, "name": "4724d867f02a63ccd17ac9e8f8d1a3a1", "bike_id": "4724d867f02a63ccd17ac9e8f8d1a3a1", "fusion_lat": 0.0, "is_reserved": 0, "lat": 38.91005533333333, "fusion_lon": 0.0, "is_disabled": 0}, {"rental_uris": {"android": "https://dc.lft.to/lastmile_qr_scan", "ios": "https://dc.lft.to/lastmile_qr_scan"}, "type": "electric_scooter", "lon": -77.01903083333333, "name": "45db4e973d41acf64590160f7ca2d7d4", "bike_id": "45db4e973d41acf64590160f7ca2d7d4", "fusion_lat": 0.0, "is_reserved": 0, "lat": 38.92339283333333, "fusion_lon": 0.0, "is_disabled": 0}, {"rental_uris": {"android": "https://dc.lft.to/lastmile_qr_scan", "ios": "https://dc.lft.to/lastmile_qr_scan"}, "type": "electric_scooter", "lon": -77.04482283333333, "name": "4b4dea2d300f4aeed6e6e5c6f4f6dd19", "bike_id": "4b4dea2d300f4aeed6e6e5c6f4f6dd19", "fusion_lat": 0.0, "is_reserved": 0, "lat": 38.918609333333336, "fusion_lon": 0.0, "is_disabled": 0}, {"rental_uris": {"android": "https://dc.lft.to/lastmile_qr_scan", "ios": "https://dc.lft.to/lastmile_qr_scan"}, "type": "electric_bike", "lon": -77.0490285, "name": "4b7f4a90d8fe9f504d18971c768c9059", "bike_id": "4b7f4a90d8fe9f504d18971c768c9059", "fusion_lat": 0.0, "is_reserved": 0, "lat": 38.8749555, "fusion_lon": 0.0, "is_disabled": 0}, {"rental_uris": {"android": "https://dc.lft.to/lastmile_qr_scan", "ios": "https://dc.lft.to/lastmile_qr_scan"}, "type": "electric_scooter", "lon": -77.0161585, "name": "d5b85adf3f4a102505f46651024c04e7", "bike_id": "d5b85adf3f4a102505f46651024c04e7", "fusion_lat": 0.0, "is_reserved": 0, "lat": 38.9058945, "fusion_lon": 0.0, "is_disabled": 0}, {"rental_uris": {"android": "https://dc.lft.to/lastmile_qr_scan", "ios": "https://dc.lft.to/lastmile_qr_scan"}, "type": "electric_bike", "lon": -77.100291, "name": "4be9f9c104829bda9ef5c15d084bc18d", "bike_id": "4be9f9c104829bda9ef5c15d084bc18d", "fusion_lat": 0.0, "is_reserved": 0, "lat": 38.99066933333334, "fusion_lon": 0.0, "is_disabled": 0}, {"rental_uris": {"android": "https://dc.lft.to/lastmile_qr_scan", "ios": "https://dc.lft.to/lastmile_qr_scan"}, "type": "electric_scooter", "lon": -77.02279183333333, "name": "28c7144213f0dda671f7741bf09600f6", "bike_id": "28c7144213f0dda671f7741bf09600f6", "fusion_lat": 0.0, "is_reserved": 0, "lat": 38.87837433333333, "fusion_lon": 0.0, "is_disabled": 0}, {"rental_uris": {"android": "https://dc.lft.to/lastmile_qr_scan", "ios": "https://dc.lft.to/lastmile_qr_scan"}, "type": "electric_scooter", "lon": -77.039809, "name": "786849f007901d6b652d306e675470bb", "bike_id": "786849f007901d6b652d306e675470bb", "fusion_lat": 0.0, "is_reserved": 0, "lat": 38.91332416666667, "fusion_lon": 0.0, "is_disabled": 0}, {"rental_uris": {"android": "https://dc.lft.to/lastmile_qr_scan", "ios": "https://dc.lft.to/lastmile_qr_scan"}, "type": "electric_scooter", "lon": -77.01339716666666, "name": "426ff25bc9d20f5d20be6965fc07172e", "bike_id": "426ff25bc9d20f5d20be6965fc07172e", "fusion_lat": 0.0, "is_reserved": 0, "lat": 38.88127466666667, "fusion_lon": 0.0, "is_disabled": 0}, {"rental_uris": {"android": "https://dc.lft.to/lastmile_qr_scan", "ios": "https://dc.lft.to/lastmile_qr_scan"}, "type": "electric_scooter", "lon": -77.03397633333333, "name": "30a3fa6d13af9cac555a99b391e92253", "bike_id": "30a3fa6d13af9cac555a99b391e92253", "fusion_lat": 0.0, "is_reserved": 0, "lat": 38.909782, "fusion_lon": 0.0, "is_disabled": 0}, {"rental_uris": {"android": "https://dc.lft.to/lastmile_qr_scan", "ios": "https://dc.lft.to/lastmile_qr_scan"}, "type": "electric_scooter", "lon": -77.0248175, "name": "672bebb958e1a7df1e8921b15beec88e", "bike_id": "672bebb958e1a7df1e8921b15beec88e", "fusion_lat": 0.0, "is_reserved": 0, "lat": 38.93900716666667, "fusion_lon": 0.0, "is_disabled": 0}, {"rental_uris": {"android": "https://dc.lft.to/lastmile_qr_scan", "ios": "https://dc.lft.to/lastmile_qr_scan"}, "type": "electric_bike", "lon": -77.1829685, "name": "b5a501e5e1af5d613b2154e850d2066b", "bike_id": "b5a501e5e1af5d613b2154e850d2066b", "fusion_lat": 0.0, "is_reserved": 0, "lat": 38.88345566666667, "fusion_lon": 0.0, "is_disabled": 0}, {"rental_uris": {"android": "https://dc.lft.to/lastmile_qr_scan", "ios": "https://dc.lft.to/lastmile_qr_scan"}, "type": "electric_scooter", "lon": -76.984964, "name": "370487e6e3e4c6ce88c3918fee1a7382", "bike_id": "370487e6e3e4c6ce88c3918fee1a7382", "fusion_lat": 0.0, "is_reserved": 0, "lat": 38.8604935, "fusion_lon": 0.0, "is_disabled": 0}, {"rental_uris": {"android": "https://dc.lft.to/lastmile_qr_scan", "ios": "https://dc.lft.to/lastmile_qr_scan"}, "type": "electric_scooter", "lon": -77.03428583333333, "name": "f85f65662a9ddaf9412d3551616a58fe", "bike_id": "f85f65662a9ddaf9412d3551616a58fe", "fusion_lat": 0.0, "is_reserved": 0, "lat": 38.90747266666666, "fusion_lon": 0.0, "is_disabled": 0}, {"rental_uris": {"android": "https://dc.lft.to/lastmile_qr_scan", "ios": "https://dc.lft.to/lastmile_qr_scan"}, "type": "electric_scooter", "lon": -76.93748116666667, "name": "6ed55abbe35c305fb5406a758e8395ba", "bike_id": "6ed55abbe35c305fb5406a758e8395ba", "fusion_lat": 0.0, "is_reserved": 0, "lat": 38.89014533333334, "fusion_lon": 0.0, "is_disabled": 0}, {"rental_uris": {"android": "https://dc.lft.to/lastmile_qr_scan", "ios": "https://dc.lft.to/lastmile_qr_scan"}, "type": "electric_scooter", "lon": -77.02553283333333, "name": "c0db9f2e425cfef9aae71d4860d15071", "bike_id": "c0db9f2e425cfef9aae71d4860d15071", "fusion_lat": 0.0, "is_reserved": 0, "lat": 38.892211833333334, "fusion_lon": 0.0, "is_disabled": 0}, {"rental_uris": {"android": "https://dc.lft.to/lastmile_qr_scan", "ios": "https://dc.lft.to/lastmile_qr_scan"}, "type": "electric_scooter", "lon": -76.99019516666667, "name": "4a40b5193b0cbd1d0c78ac71b8574e42", "bike_id": "4a40b5193b0cbd1d0c78ac71b8574e42", "fusion_lat": 0.0, "is_reserved": 0, "lat": 38.858711666666665, "fusion_lon": 0.0, "is_disabled": 0}, {"rental_uris": {"android": "https://dc.lft.to/lastmile_qr_scan", "ios": "https://dc.lft.to/lastmile_qr_scan"}, "type": "electric_scooter", "lon": -76.9976445, "name": "403b6c11fd06c19cc4854e8814c1948e", "bike_id": "403b6c11fd06c19cc4854e8814c1948e", "fusion_lat": 0.0, "is_reserved": 0, "lat": 38.92185966666667, "fusion_lon": 0.0, "is_disabled": 0}, {"rental_uris": {"android": "https://dc.lft.to/lastmile_qr_scan", "ios": "https://dc.lft.to/lastmile_qr_scan"}, "type": "electric_scooter", "lon": -77.06163233333334, "name": "76db84300fbf9c7620f6f5930068aaf0", "bike_id": "76db84300fbf9c7620f6f5930068aaf0", "fusion_lat": 0.0, "is_reserved": 0, "lat": 38.90534366666667, "fusion_lon": 0.0, "is_disabled": 0}, {"rental_uris": {"android": "https://dc.lft.to/lastmile_qr_scan", "ios": "https://dc.lft.to/lastmile_qr_scan"}, "type": "electric_scooter", "lon": -77.06112383333334, "name": "77b00f6f01b4b2cf1170a3532bdcdd35", "bike_id": "77b00f6f01b4b2cf1170a3532bdcdd35", "fusion_lat": 0.0, "is_reserved": 0, "lat": 38.943225166666664, "fusion_lon": 0.0, "is_disabled": 0}, {"rental_uris": {"android": "https://dc.lft.to/lastmile_qr_scan", "ios": "https://dc.lft.to/lastmile_qr_scan"}, "type": "electric_scooter", "lon": -77.01704516666666, "name": "dafeb32aaeaa078ef9257818d83740ed", "bike_id": "dafeb32aaeaa078ef9257818d83740ed", "fusion_lat": 0.0, "is_reserved": 0, "lat": 38.907282, "fusion_lon": 0.0, "is_disabled": 0}, {"rental_uris": {"android": "https://dc.lft.to/lastmile_qr_scan", "ios": "https://dc.lft.to/lastmile_qr_scan"}, "type": "electric_scooter", "lon": -77.04748833333333, "name": "47387cef1950da23b3b849f3e15db37b", "bike_id": "47387cef1950da23b3b849f3e15db37b", "fusion_lat": 0.0, "is_reserved": 0, "lat": 38.905406166666666, "fusion_lon": 0.0, "is_disabled": 0}, {"rental_uris": {"android": "https://dc.lft.to/lastmile_qr_scan", "ios": "https://dc.lft.to/lastmile_qr_scan"}, "type": "electric_scooter", "lon": -77.03665683333334, "name": "f3e0dcf463945bad68488732936561db", "bike_id": "f3e0dcf463945bad68488732936561db", "fusion_lat": 0.0, "is_reserved": 0, "lat": 38.9128055, "fusion_lon": 0.0, "is_disabled": 0}, {"rental_uris": {"android": "https://dc.lft.to/lastmile_qr_scan", "ios": "https://dc.lft.to/lastmile_qr_scan"}, "type": "electric_scooter", "lon": -77.02285616666667, "name": "ea062f1259b9d1af0fbba09fd7f3a811", "bike_id": "ea062f1259b9d1af0fbba09fd7f3a811", "fusion_lat": 0.0, "is_reserved": 0, "lat": 38.916181333333334, "fusion_lon": 0.0, "is_disabled": 0}, {"rental_uris": {"android": "https://dc.lft.to/lastmile_qr_scan", "ios": "https://dc.lft.to/lastmile_qr_scan"}, "type": "electric_scooter", "lon": -77.006944, "name": "0a7933032adc76a10b444e5ae735fe4e", "bike_id": "0a7933032adc76a10b444e5ae735fe4e", "fusion_lat": 0.0, "is_reserved": 0, "lat": 38.895990833333336, "fusion_lon": 0.0, "is_disabled": 0}, {"rental_uris": {"android": "https://dc.lft.to/lastmile_qr_scan", "ios": "https://dc.lft.to/lastmile_qr_scan"}, "type": "electric_scooter", "lon": -77.03764316666667, "name": "e2b5faf81364230deab9b4455947f30f", "bike_id": "e2b5faf81364230deab9b4455947f30f", "fusion_lat": 0.0, "is_reserved": 0, "lat": 38.916924333333334, "fusion_lon": 0.0, "is_disabled": 0}, {"rental_uris": {"android": "https://dc.lft.to/lastmile_qr_scan", "ios": "https://dc.lft.to/lastmile_qr_scan"}, "type": "electric_scooter", "lon": -77.06046633333334, "name": "5d03bfeae2ef3ed0d72d2148ad6fe02f", "bike_id": "5d03bfeae2ef3ed0d72d2148ad6fe02f", "fusion_lat": 0.0, "is_reserved": 0, "lat": 38.939213333333335, "fusion_lon": 0.0, "is_disabled": 0}, {"rental_uris": {"android": "https://dc.lft.to/lastmile_qr_scan", "ios": "https://dc.lft.to/lastmile_qr_scan"}, "type": "electric_scooter", "lon": -76.94123583333334, "name": "5949d3ad1deeb59eb7672c461eb4517b", "bike_id": "5949d3ad1deeb59eb7672c461eb4517b", "fusion_lat": 0.0, "is_reserved": 0, "lat": 38.9079785, "fusion_lon": 0.0, "is_disabled": 0}, {"rental_uris": {"android": "https://dc.lft.to/lastmile_qr_scan", "ios": "https://dc.lft.to/lastmile_qr_scan"}, "type": "electric_scooter", "lon": -77.05149133333333, "name": "66084782250a82ddc30d26070629ba7d", "bike_id": "66084782250a82ddc30d26070629ba7d", "fusion_lat": 0.0, "is_reserved": 0, "lat": 38.904431, "fusion_lon": 0.0, "is_disabled": 0}, {"rental_uris": {"android": "https://dc.lft.to/lastmile_qr_scan", "ios": "https://dc.lft.to/lastmile_qr_scan"}, "type": "electric_scooter", "lon": -77.042411, "name": "e44d9159517fed2f7b8f86aba29f2f8a", "bike_id": "e44d9159517fed2f7b8f86aba29f2f8a", "fusion_lat": 0.0, "is_reserved": 0, "lat": 38.9455015, "fusion_lon": 0.0, "is_disabled": 0}, {"rental_uris": {"android": "https://dc.lft.to/lastmile_qr_scan", "ios": "https://dc.lft.to/lastmile_qr_scan"}, "type": "electric_scooter", "lon": -77.063915, "name": "64264d8ef045619395e5eb42929ec11a", "bike_id": "64264d8ef045619395e5eb42929ec11a", "fusion_lat": 0.0, "is_reserved": 0, "lat": 38.92907566666667, "fusion_lon": 0.0, "is_disabled": 0}, {"rental_uris": {"android": "https://dc.lft.to/lastmile_qr_scan", "ios": "https://dc.lft.to/lastmile_qr_scan"}, "type": "electric_scooter", "lon": -77.04195766666666, "name": "6d4419310ea9777a6eed0ccf4e0453ee", "bike_id": "6d4419310ea9777a6eed0ccf4e0453ee", "fusion_lat": 0.0, "is_reserved": 0, "lat": 38.923368833333335, "fusion_lon": 0.0, "is_disabled": 0}, {"rental_uris": {"android": "https://dc.lft.to/lastmile_qr_scan", "ios": "https://dc.lft.to/lastmile_qr_scan"}, "type": "electric_scooter", "lon": -76.94842366666667, "name": "02965108cea4e352537cae08fbdf3434", "bike_id": "02965108cea4e352537cae08fbdf3434", "fusion_lat": 0.0, "is_reserved": 0, "lat": 38.894846666666666, "fusion_lon": 0.0, "is_disabled": 0}, {"rental_uris": {"android": "https://dc.lft.to/lastmile_qr_scan", "ios": "https://dc.lft.to/lastmile_qr_scan"}, "type": "electric_scooter", "lon": -77.032211, "name": "55180e20d3c7de9f69292767e96130bd", "bike_id": "55180e20d3c7de9f69292767e96130bd", "fusion_lat": 0.0, "is_reserved": 0, "lat": 38.89836366666667, "fusion_lon": 0.0, "is_disabled": 0}, {"rental_uris": {"android": "https://dc.lft.to/lastmile_qr_scan", "ios": "https://dc.lft.to/lastmile_qr_scan"}, "type": "electric_scooter", "lon": -76.94855366666667, "name": "2fc2a7cbadda43d0c701c5c465d3a40c", "bike_id": "2fc2a7cbadda43d0c701c5c465d3a40c", "fusion_lat": 0.0, "is_reserved": 0, "lat": 38.88304216666667, "fusion_lon": 0.0, "is_disabled": 0}, {"rental_uris": {"android": "https://dc.lft.to/lastmile_qr_scan", "ios": "https://dc.lft.to/lastmile_qr_scan"}, "type": "electric_scooter", "lon": -77.0551905, "name": "38e98c0d19873aa8b8a5676b82dc7c0b", "bike_id": "38e98c0d19873aa8b8a5676b82dc7c0b", "fusion_lat": 0.0, "is_reserved": 0, "lat": 38.94417516666667, "fusion_lon": 0.0, "is_disabled": 0}, {"rental_uris": {"android": "https://dc.lft.to/lastmile_qr_scan", "ios": "https://dc.lft.to/lastmile_qr_scan"}, "type": "electric_scooter", "lon": -77.03155416666667, "name": "3cda6a6b30febe8b0778423ea437e147", "bike_id": "3cda6a6b30febe8b0778423ea437e147", "fusion_lat": 0.0, "is_reserved": 0, "lat": 38.88749583333333, "fusion_lon": 0.0, "is_disabled": 0}, {"rental_uris": {"android": "https://dc.lft.to/lastmile_qr_scan", "ios": "https://dc.lft.to/lastmile_qr_scan"}, "type": "electric_bike", "lon": -77.02985066666666, "name": "d33e25b89b2b5da53baf1355cfc65e0f", "bike_id": "d33e25b89b2b5da53baf1355cfc65e0f", "fusion_lat": 0.0, "is_reserved": 0, "lat": 38.9344695, "fusion_lon": 0.0, "is_disabled": 0}, {"rental_uris": {"android": "https://dc.lft.to/lastmile_qr_scan", "ios": "https://dc.lft.to/lastmile_qr_scan"}, "type": "electric_scooter", "lon": -77.06296566666667, "name": "7857ddc5b865c773f116dca64f814d9e", "bike_id": "7857ddc5b865c773f116dca64f814d9e", "fusion_lat": 0.0, "is_reserved": 0, "lat": 38.90397766666667, "fusion_lon": 0.0, "is_disabled": 0}, {"rental_uris": {"android": "https://dc.lft.to/lastmile_qr_scan", "ios": "https://dc.lft.to/lastmile_qr_scan"}, "type": "electric_scooter", "lon": -77.04245983333334, "name": "98e4741b2643fabc6b8335da2b2db0f8", "bike_id": "98e4741b2643fabc6b8335da2b2db0f8", "fusion_lat": 0.0, "is_reserved": 0, "lat": 38.92241166666667, "fusion_lon": 0.0, "is_disabled": 0}, {"rental_uris": {"android": "https://dc.lft.to/lastmile_qr_scan", "ios": "https://dc.lft.to/lastmile_qr_scan"}, "type": "electric_scooter", "lon": -77.022211, "name": "fc7562b4132a9df15412796e6c906219", "bike_id": "fc7562b4132a9df15412796e6c906219", "fusion_lat": 0.0, "is_reserved": 0, "lat": 38.9009685, "fusion_lon": 0.0, "is_disabled": 0}, {"rental_uris": {"android": "https://dc.lft.to/lastmile_qr_scan", "ios": "https://dc.lft.to/lastmile_qr_scan"}, "type": "electric_scooter", "lon": -77.03895883333334, "name": "482a89edefb590f8ed5891642aa70317", "bike_id": "482a89edefb590f8ed5891642aa70317", "fusion_lat": 0.0, "is_reserved": 0, "lat": 38.922239, "fusion_lon": 0.0, "is_disabled": 0}, {"rental_uris": {"android": "https://dc.lft.to/lastmile_qr_scan", "ios": "https://dc.lft.to/lastmile_qr_scan"}, "type": "electric_bike", "lon": -77.03249266666667, "name": "69255608489729aadf87215f03c01d95", "bike_id": "69255608489729aadf87215f03c01d95", "fusion_lat": 0.0, "is_reserved": 0, "lat": 38.928276833333335, "fusion_lon": 0.0, "is_disabled": 0}, {"rental_uris": {"android": "https://dc.lft.to/lastmile_qr_scan", "ios": "https://dc.lft.to/lastmile_qr_scan"}, "type": "electric_scooter", "lon": -77.02939466666666, "name": "1789e4d067bb232f03c03d3365020d49", "bike_id": "1789e4d067bb232f03c03d3365020d49", "fusion_lat": 0.0, "is_reserved": 0, "lat": 38.898365, "fusion_lon": 0.0, "is_disabled": 0}, {"rental_uris": {"android": "https://dc.lft.to/lastmile_qr_scan", "ios": "https://dc.lft.to/lastmile_qr_scan"}, "type": "electric_scooter", "lon": -77.02454483333334, "name": "38d946ae936c431c363fb7bd918214dd", "bike_id": "38d946ae936c431c363fb7bd918214dd", "fusion_lat": 0.0, "is_reserved": 0, "lat": 38.928971, "fusion_lon": 0.0, "is_disabled": 0}, {"rental_uris": {"android": "https://dc.lft.to/lastmile_qr_scan", "ios": "https://dc.lft.to/lastmile_qr_scan"}, "type": "electric_scooter", "lon": -77.0236755, "name": "f8af0be260baabb3cc5de251537543bd", "bike_id": "f8af0be260baabb3cc5de251537543bd", "fusion_lat": 0.0, "is_reserved": 0, "lat": 38.9310015, "fusion_lon": 0.0, "is_disabled": 0}, {"rental_uris": {"android": "https://dc.lft.to/lastmile_qr_scan", "ios": "https://dc.lft.to/lastmile_qr_scan"}, "type": "electric_scooter", "lon": -76.98911016666666, "name": "c2484f24fe51ebe6d9416b76a47d8939", "bike_id": "c2484f24fe51ebe6d9416b76a47d8939", "fusion_lat": 0.0, "is_reserved": 0, "lat": 38.902370166666664, "fusion_lon": 0.0, "is_disabled": 0}, {"rental_uris": {"android": "https://dc.lft.to/lastmile_qr_scan", "ios": "https://dc.lft.to/lastmile_qr_scan"}, "type": "electric_scooter", "lon": -77.046641, "name": "94fce88647f1e07e42d3f3bb9f8435a6", "bike_id": "94fce88647f1e07e42d3f3bb9f8435a6", "fusion_lat": 0.0, "is_reserved": 0, "lat": 38.904096, "fusion_lon": 0.0, "is_disabled": 0}, {"rental_uris": {"android": "https://dc.lft.to/lastmile_qr_scan", "ios": "https://dc.lft.to/lastmile_qr_scan"}, "type": "electric_scooter", "lon": -77.0249615, "name": "23eb83f560784022cb1a300b1c6a24cf", "bike_id": "23eb83f560784022cb1a300b1c6a24cf", "fusion_lat": 0.0, "is_reserved": 0, "lat": 38.9063405, "fusion_lon": 0.0, "is_disabled": 0}, {"rental_uris": {"android": "https://dc.lft.to/lastmile_qr_scan", "ios": "https://dc.lft.to/lastmile_qr_scan"}, "type": "electric_bike", "lon": -77.1290595, "name": "8a5f2a797e4b3f17c10be2e63ada9b52", "bike_id": "8a5f2a797e4b3f17c10be2e63ada9b52", "fusion_lat": 0.0, "is_reserved": 0, "lat": 38.863771, "fusion_lon": 0.0, "is_disabled": 0}, {"rental_uris": {"android": "https://dc.lft.to/lastmile_qr_scan", "ios": "https://dc.lft.to/lastmile_qr_scan"}, "type": "electric_scooter", "lon": -77.03370966666667, "name": "e2b7e68a606f4600f10a1aa4e8ceb758", "bike_id": "e2b7e68a606f4600f10a1aa4e8ceb758", "fusion_lat": 0.0, "is_reserved": 0, "lat": 38.909861666666664, "fusion_lon": 0.0, "is_disabled": 0}, {"rental_uris": {"android": "https://dc.lft.to/lastmile_qr_scan", "ios": "https://dc.lft.to/lastmile_qr_scan"}, "type": "electric_scooter", "lon": -77.07429666666667, "name": "8b9450e0ec5f11fbd1ed5b221511988e", "bike_id": "8b9450e0ec5f11fbd1ed5b221511988e", "fusion_lat": 0.0, "is_reserved": 0, "lat": 38.9108775, "fusion_lon": 0.0, "is_disabled": 0}, {"rental_uris": {"android": "https://dc.lft.to/lastmile_qr_scan", "ios": "https://dc.lft.to/lastmile_qr_scan"}, "type": "electric_scooter", "lon": -76.9939005, "name": "2f26bfcc3d12fc13bba57629ef288e4d", "bike_id": "2f26bfcc3d12fc13bba57629ef288e4d", "fusion_lat": 0.0, "is_reserved": 0, "lat": 38.884503, "fusion_lon": 0.0, "is_disabled": 0}, {"rental_uris": {"android": "https://dc.lft.to/lastmile_qr_scan", "ios": "https://dc.lft.to/lastmile_qr_scan"}, "type": "electric_scooter", "lon": -77.02231883333333, "name": "7915437451f061bed6ae867188666d22", "bike_id": "7915437451f061bed6ae867188666d22", "fusion_lat": 0.0, "is_reserved": 0, "lat": 38.88771533333333, "fusion_lon": 0.0, "is_disabled": 0}, {"rental_uris": {"android": "https://dc.lft.to/lastmile_qr_scan", "ios": "https://dc.lft.to/lastmile_qr_scan"}, "type": "electric_scooter", "lon": -77.03422483333334, "name": "5a0138549603f8aa5f8734527041934d", "bike_id": "5a0138549603f8aa5f8734527041934d", "fusion_lat": 0.0, "is_reserved": 0, "lat": 38.90727, "fusion_lon": 0.0, "is_disabled": 0}, {"rental_uris": {"android": "https://dc.lft.to/lastmile_qr_scan", "ios": "https://dc.lft.to/lastmile_qr_scan"}, "type": "electric_scooter", "lon": -77.06263966666667, "name": "096b878ab2b4a4d48032811adbe3a6f7", "bike_id": "096b878ab2b4a4d48032811adbe3a6f7", "fusion_lat": 0.0, "is_reserved": 0, "lat": 38.905159166666664, "fusion_lon": 0.0, "is_disabled": 0}, {"rental_uris": {"android": "https://dc.lft.to/lastmile_qr_scan", "ios": "https://dc.lft.to/lastmile_qr_scan"}, "type": "electric_scooter", "lon": -77.02899316666667, "name": "d997634a0573021ca20cfa636d8b6ef9", "bike_id": "d997634a0573021ca20cfa636d8b6ef9", "fusion_lat": 0.0, "is_reserved": 0, "lat": 38.918136833333335, "fusion_lon": 0.0, "is_disabled": 0}, {"rental_uris": {"android": "https://dc.lft.to/lastmile_qr_scan", "ios": "https://dc.lft.to/lastmile_qr_scan"}, "type": "electric_scooter", "lon": -77.04234733333334, "name": "3cbab2d9166c8b4332cc277781d19cc4", "bike_id": "3cbab2d9166c8b4332cc277781d19cc4", "fusion_lat": 0.0, "is_reserved": 0, "lat": 38.909747333333335, "fusion_lon": 0.0, "is_disabled": 0}, {"rental_uris": {"android": "https://dc.lft.to/lastmile_qr_scan", "ios": "https://dc.lft.to/lastmile_qr_scan"}, "type": "electric_scooter", "lon": -77.03254, "name": "a4751e4e01925e00bdfa4c934e3349c3", "bike_id": "a4751e4e01925e00bdfa4c934e3349c3", "fusion_lat": 0.0, "is_reserved": 0, "lat": 38.933847, "fusion_lon": 0.0, "is_disabled": 0}, {"rental_uris": {"android": "https://dc.lft.to/lastmile_qr_scan", "ios": "https://dc.lft.to/lastmile_qr_scan"}, "type": "electric_bike", "lon": -77.02105666666667, "name": "de2b4fdf398362567087bee535c2d741", "bike_id": "de2b4fdf398362567087bee535c2d741", "fusion_lat": 0.0, "is_reserved": 0, "lat": 39.02297466666667, "fusion_lon": 0.0, "is_disabled": 0}, {"rental_uris": {"android": "https://dc.lft.to/lastmile_qr_scan", "ios": "https://dc.lft.to/lastmile_qr_scan"}, "type": "electric_scooter", "lon": -77.03976266666666, "name": "5d6322ef7fa7b21cc05eb710f7cb3f3e", "bike_id": "5d6322ef7fa7b21cc05eb710f7cb3f3e", "fusion_lat": 0.0, "is_reserved": 0, "lat": 38.90912983333333, "fusion_lon": 0.0, "is_disabled": 0}, {"rental_uris": {"android": "https://dc.lft.to/lastmile_qr_scan", "ios": "https://dc.lft.to/lastmile_qr_scan"}, "type": "electric_scooter", "lon": -77.04680983333333, "name": "25ce59babda8945b976cefaf90940b75", "bike_id": "25ce59babda8945b976cefaf90940b75", "fusion_lat": 0.0, "is_reserved": 0, "lat": 38.89559666666667, "fusion_lon": 0.0, "is_disabled": 0}, {"rental_uris": {"android": "https://dc.lft.to/lastmile_qr_scan", "ios": "https://dc.lft.to/lastmile_qr_scan"}, "type": "electric_scooter", "lon": -77.06060133333334, "name": "e22d38b94291dd77ca4a090fdf9df946", "bike_id": "e22d38b94291dd77ca4a090fdf9df946", "fusion_lat": 0.0, "is_reserved": 0, "lat": 38.939113, "fusion_lon": 0.0, "is_disabled": 0}, {"rental_uris": {"android": "https://dc.lft.to/lastmile_qr_scan", "ios": "https://dc.lft.to/lastmile_qr_scan"}, "type": "electric_scooter", "lon": -77.02882183333334, "name": "bc606cd5461623bfa15df276d3a56c85", "bike_id": "bc606cd5461623bfa15df276d3a56c85", "fusion_lat": 0.0, "is_reserved": 0, "lat": 38.9171195, "fusion_lon": 0.0, "is_disabled": 0}, {"rental_uris": {"android": "https://dc.lft.to/lastmile_qr_scan", "ios": "https://dc.lft.to/lastmile_qr_scan"}, "type": "electric_scooter", "lon": -77.00593483333333, "name": "5a658cd4412983ccb098e26972943087", "bike_id": "5a658cd4412983ccb098e26972943087", "fusion_lat": 0.0, "is_reserved": 0, "lat": 38.88380266666667, "fusion_lon": 0.0, "is_disabled": 0}, {"rental_uris": {"android": "https://dc.lft.to/lastmile_qr_scan", "ios": "https://dc.lft.to/lastmile_qr_scan"}, "type": "electric_scooter", "lon": -77.00584633333334, "name": "ddb8b2b473b5182f9835135889125892", "bike_id": "ddb8b2b473b5182f9835135889125892", "fusion_lat": 0.0, "is_reserved": 0, "lat": 38.88535483333333, "fusion_lon": 0.0, "is_disabled": 0}, {"rental_uris": {"android": "https://dc.lft.to/lastmile_qr_scan", "ios": "https://dc.lft.to/lastmile_qr_scan"}, "type": "electric_scooter", "lon": -77.02182766666667, "name": "b91dbd30fb5f0f38238f74cc97d5abb2", "bike_id": "b91dbd30fb5f0f38238f74cc97d5abb2", "fusion_lat": 0.0, "is_reserved": 0, "lat": 38.89233516666667, "fusion_lon": 0.0, "is_disabled": 0}, {"rental_uris": {"android": "https://dc.lft.to/lastmile_qr_scan", "ios": "https://dc.lft.to/lastmile_qr_scan"}, "type": "electric_bike", "lon": -77.35309083333334, "name": "db6ca10feae466b2402194d4aaf348ff", "bike_id": "db6ca10feae466b2402194d4aaf348ff", "fusion_lat": 0.0, "is_reserved": 0, "lat": 38.95005366666667, "fusion_lon": 0.0, "is_disabled": 0}, {"rental_uris": {"android": "https://dc.lft.to/lastmile_qr_scan", "ios": "https://dc.lft.to/lastmile_qr_scan"}, "type": "electric_scooter", "lon": -77.03213183333334, "name": "e9d53d042b6bea3ed51fc36fadaa1131", "bike_id": "e9d53d042b6bea3ed51fc36fadaa1131", "fusion_lat": 0.0, "is_reserved": 0, "lat": 38.91186183333333, "fusion_lon": 0.0, "is_disabled": 0}, {"rental_uris": {"android": "https://dc.lft.to/lastmile_qr_scan", "ios": "https://dc.lft.to/lastmile_qr_scan"}, "type": "electric_scooter", "lon": -76.99710116666667, "name": "9f5cf6461d3667616caabfd03d981afc", "bike_id": "9f5cf6461d3667616caabfd03d981afc", "fusion_lat": 0.0, "is_reserved": 0, "lat": 38.910807166666665, "fusion_lon": 0.0, "is_disabled": 0}, {"rental_uris": {"android": "https://dc.lft.to/lastmile_qr_scan", "ios": "https://dc.lft.to/lastmile_qr_scan"}, "type": "electric_bike", "lon": -77.03331233333333, "name": "5bf95a44d3778d13fd65eee3dae0e989", "bike_id": "5bf95a44d3778d13fd65eee3dae0e989", "fusion_lat": 0.0, "is_reserved": 0, "lat": 38.9569265, "fusion_lon": 0.0, "is_disabled": 0}, {"rental_uris": {"android": "https://dc.lft.to/lastmile_qr_scan", "ios": "https://dc.lft.to/lastmile_qr_scan"}, "type": "electric_scooter", "lon": -76.9465375, "name": "eee5f4cf571b8249bf829d2e0b66b148", "bike_id": "eee5f4cf571b8249bf829d2e0b66b148", "fusion_lat": 0.0, "is_reserved": 0, "lat": 38.89827583333334, "fusion_lon": 0.0, "is_disabled": 0}, {"rental_uris": {"android": "https://dc.lft.to/lastmile_qr_scan", "ios": "https://dc.lft.to/lastmile_qr_scan"}, "type": "electric_scooter", "lon": -77.0338265, "name": "9fa0e31ffb6f0b6cb8bd1c6b623b42ea", "bike_id": "9fa0e31ffb6f0b6cb8bd1c6b623b42ea", "fusion_lat": 0.0, "is_reserved": 0, "lat": 38.909548666666666, "fusion_lon": 0.0, "is_disabled": 0}, {"rental_uris": {"android": "https://dc.lft.to/lastmile_qr_scan", "ios": "https://dc.lft.to/lastmile_qr_scan"}, "type": "electric_scooter", "lon": -77.0300065, "name": "320450d6e68ce1daf28d3c9b679d2b01", "bike_id": "320450d6e68ce1daf28d3c9b679d2b01", "fusion_lat": 0.0, "is_reserved": 0, "lat": 38.9280085, "fusion_lon": 0.0, "is_disabled": 0}, {"rental_uris": {"android": "https://dc.lft.to/lastmile_qr_scan", "ios": "https://dc.lft.to/lastmile_qr_scan"}, "type": "electric_scooter", "lon": -77.06345416666667, "name": "8e261cd49d733ddeb0e58b6544203dbc", "bike_id": "8e261cd49d733ddeb0e58b6544203dbc", "fusion_lat": 0.0, "is_reserved": 0, "lat": 38.91338533333333, "fusion_lon": 0.0, "is_disabled": 0}, {"rental_uris": {"android": "https://dc.lft.to/lastmile_qr_scan", "ios": "https://dc.lft.to/lastmile_qr_scan"}, "type": "electric_scooter", "lon": -77.03076283333333, "name": "4b9b975d126a4184bf2becebbcf43b18", "bike_id": "4b9b975d126a4184bf2becebbcf43b18", "fusion_lat": 0.0, "is_reserved": 0, "lat": 38.922510333333335, "fusion_lon": 0.0, "is_disabled": 0}, {"rental_uris": {"android": "https://dc.lft.to/lastmile_qr_scan", "ios": "https://dc.lft.to/lastmile_qr_scan"}, "type": "electric_scooter", "lon": -76.9856895, "name": "61167210bfef830ec9212b845321bb35", "bike_id": "61167210bfef830ec9212b845321bb35", "fusion_lat": 0.0, "is_reserved": 0, "lat": 38.85585966666667, "fusion_lon": 0.0, "is_disabled": 0}, {"rental_uris": {"android": "https://dc.lft.to/lastmile_qr_scan", "ios": "https://dc.lft.to/lastmile_qr_scan"}, "type": "electric_scooter", "lon": -77.03466083333333, "name": "419c82d8c4aa6a2dc5ded943d301e51a", "bike_id": "419c82d8c4aa6a2dc5ded943d301e51a", "fusion_lat": 0.0, "is_reserved": 0, "lat": 38.909054166666664, "fusion_lon": 0.0, "is_disabled": 0}, {"rental_uris": {"android": "https://dc.lft.to/lastmile_qr_scan", "ios": "https://dc.lft.to/lastmile_qr_scan"}, "type": "electric_scooter", "lon": -77.038563, "name": "018fcf6ca8947314d1a2f40349c73470", "bike_id": "018fcf6ca8947314d1a2f40349c73470", "fusion_lat": 0.0, "is_reserved": 0, "lat": 38.91168733333333, "fusion_lon": 0.0, "is_disabled": 0}, {"rental_uris": {"android": "https://dc.lft.to/lastmile_qr_scan", "ios": "https://dc.lft.to/lastmile_qr_scan"}, "type": "electric_bike", "lon": -77.008645, "name": "ef9b8ea0d7ea8c979b413aa9955cf253", "bike_id": "ef9b8ea0d7ea8c979b413aa9955cf253", "fusion_lat": 0.0, "is_reserved": 0, "lat": 38.82725833333333, "fusion_lon": 0.0, "is_disabled": 0}, {"rental_uris": {"android": "https://dc.lft.to/lastmile_qr_scan", "ios": "https://dc.lft.to/lastmile_qr_scan"}, "type": "electric_scooter", "lon": -76.98617966666667, "name": "dac41960720cd9b1ec8c7beac0998c55", "bike_id": "dac41960720cd9b1ec8c7beac0998c55", "fusion_lat": 0.0, "is_reserved": 0, "lat": 38.9059105, "fusion_lon": 0.0, "is_disabled": 0}, {"rental_uris": {"android": "https://dc.lft.to/lastmile_qr_scan", "ios": "https://dc.lft.to/lastmile_qr_scan"}, "type": "electric_scooter", "lon": -76.98457316666666, "name": "989999801d106132b88dc533a56507a0", "bike_id": "989999801d106132b88dc533a56507a0", "fusion_lat": 0.0, "is_reserved": 0, "lat": 38.88017383333333, "fusion_lon": 0.0, "is_disabled": 0}, {"rental_uris": {"android": "https://dc.lft.to/lastmile_qr_scan", "ios": "https://dc.lft.to/lastmile_qr_scan"}, "type": "electric_scooter", "lon": -77.00741216666667, "name": "f56eb3a737f6750ee015c8bd60878e1c", "bike_id": "f56eb3a737f6750ee015c8bd60878e1c", "fusion_lat": 0.0, "is_reserved": 0, "lat": 38.91187683333333, "fusion_lon": 0.0, "is_disabled": 0}, {"rental_uris": {"android": "https://dc.lft.to/lastmile_qr_scan", "ios": "https://dc.lft.to/lastmile_qr_scan"}, "type": "electric_scooter", "lon": -77.01172166666667, "name": "4b4451077c5beb9e111138c5e37c8375", "bike_id": "4b4451077c5beb9e111138c5e37c8375", "fusion_lat": 0.0, "is_reserved": 0, "lat": 38.90019683333333, "fusion_lon": 0.0, "is_disabled": 0}, {"rental_uris": {"android": "https://dc.lft.to/lastmile_qr_scan", "ios": "https://dc.lft.to/lastmile_qr_scan"}, "type": "electric_scooter", "lon": -77.00752, "name": "f5f5855a5cd520daf9ffcd518ef36bf4", "bike_id": "f5f5855a5cd520daf9ffcd518ef36bf4", "fusion_lat": 0.0, "is_reserved": 0, "lat": 38.87666433333333, "fusion_lon": 0.0, "is_disabled": 0}, {"rental_uris": {"android": "https://dc.lft.to/lastmile_qr_scan", "ios": "https://dc.lft.to/lastmile_qr_scan"}, "type": "electric_scooter", "lon": -76.99373333333334, "name": "8d6214410b92a73a3e853b544a386e03", "bike_id": "8d6214410b92a73a3e853b544a386e03", "fusion_lat": 0.0, "is_reserved": 0, "lat": 38.9240185, "fusion_lon": 0.0, "is_disabled": 0}, {"rental_uris": {"android": "https://dc.lft.to/lastmile_qr_scan", "ios": "https://dc.lft.to/lastmile_qr_scan"}, "type": "electric_scooter", "lon": -77.07368083333333, "name": "a97532ad42f39592e63cece4527b43c8", "bike_id": "a97532ad42f39592e63cece4527b43c8", "fusion_lat": 0.0, "is_reserved": 0, "lat": 38.94327366666667, "fusion_lon": 0.0, "is_disabled": 0}, {"rental_uris": {"android": "https://dc.lft.to/lastmile_qr_scan", "ios": "https://dc.lft.to/lastmile_qr_scan"}, "type": "electric_scooter", "lon": -77.054096, "name": "0421bd89f31611d448ffb55e7dd15ca0", "bike_id": "0421bd89f31611d448ffb55e7dd15ca0", "fusion_lat": 0.0, "is_reserved": 0, "lat": 38.86894, "fusion_lon": 0.0, "is_disabled": 0}, {"rental_uris": {"android": "https://dc.lft.to/lastmile_qr_scan", "ios": "https://dc.lft.to/lastmile_qr_scan"}, "type": "electric_scooter", "lon": -77.02009566666666, "name": "b04c0a125f17ef064c501fffebe131d2", "bike_id": "b04c0a125f17ef064c501fffebe131d2", "fusion_lat": 0.0, "is_reserved": 0, "lat": 38.87945066666666, "fusion_lon": 0.0, "is_disabled": 0}, {"rental_uris": {"android": "https://dc.lft.to/lastmile_qr_scan", "ios": "https://dc.lft.to/lastmile_qr_scan"}, "type": "electric_scooter", "lon": -77.0254085, "name": "bf2914a9f5f6b92a3b7b4f90e2c8a9d4", "bike_id": "bf2914a9f5f6b92a3b7b4f90e2c8a9d4", "fusion_lat": 0.0, "is_reserved": 0, "lat": 38.90097, "fusion_lon": 0.0, "is_disabled": 0}, {"rental_uris": {"android": "https://dc.lft.to/lastmile_qr_scan", "ios": "https://dc.lft.to/lastmile_qr_scan"}, "type": "electric_scooter", "lon": -76.99729483333333, "name": "0e16aac4a7b1a57b294130b0df313e25", "bike_id": "0e16aac4a7b1a57b294130b0df313e25", "fusion_lat": 0.0, "is_reserved": 0, "lat": 38.907924333333334, "fusion_lon": 0.0, "is_disabled": 0}, {"rental_uris": {"android": "https://dc.lft.to/lastmile_qr_scan", "ios": "https://dc.lft.to/lastmile_qr_scan"}, "type": "electric_bike", "lon": -76.99760716666667, "name": "171a3216654b924f12a74941c5a212b6", "bike_id": "171a3216654b924f12a74941c5a212b6", "fusion_lat": 0.0, "is_reserved": 0, "lat": 39.00596133333333, "fusion_lon": 0.0, "is_disabled": 0}, {"rental_uris": {"android": "https://dc.lft.to/lastmile_qr_scan", "ios": "https://dc.lft.to/lastmile_qr_scan"}, "type": "electric_scooter", "lon": -76.99756116666667, "name": "e179227637da024b75bda9df50c07655", "bike_id": "e179227637da024b75bda9df50c07655", "fusion_lat": 0.0, "is_reserved": 0, "lat": 38.92272533333333, "fusion_lon": 0.0, "is_disabled": 0}, {"rental_uris": {"android": "https://dc.lft.to/lastmile_qr_scan", "ios": "https://dc.lft.to/lastmile_qr_scan"}, "type": "electric_scooter", "lon": -77.03499366666667, "name": "5798ab8df1cf0830745501e57711d243", "bike_id": "5798ab8df1cf0830745501e57711d243", "fusion_lat": 0.0, "is_reserved": 0, "lat": 38.923409666666664, "fusion_lon": 0.0, "is_disabled": 0}, {"rental_uris": {"android": "https://dc.lft.to/lastmile_qr_scan", "ios": "https://dc.lft.to/lastmile_qr_scan"}, "type": "electric_scooter", "lon": -76.99975683333334, "name": "ccb64c983f4527a325603af6bf4368ff", "bike_id": "ccb64c983f4527a325603af6bf4368ff", "fusion_lat": 0.0, "is_reserved": 0, "lat": 38.90013666666667, "fusion_lon": 0.0, "is_disabled": 0}, {"rental_uris": {"android": "https://dc.lft.to/lastmile_qr_scan", "ios": "https://dc.lft.to/lastmile_qr_scan"}, "type": "electric_scooter", "lon": -77.07009233333333, "name": "2a06a36ce326cf9b81b1b5970e1da109", "bike_id": "2a06a36ce326cf9b81b1b5970e1da109", "fusion_lat": 0.0, "is_reserved": 0, "lat": 38.9059995, "fusion_lon": 0.0, "is_disabled": 0}, {"rental_uris": {"android": "https://dc.lft.to/lastmile_qr_scan", "ios": "https://dc.lft.to/lastmile_qr_scan"}, "type": "electric_scooter", "lon": -77.00201516666667, "name": "cd1e8afb3624f431ac909071d0693bd5", "bike_id": "cd1e8afb3624f431ac909071d0693bd5", "fusion_lat": 0.0, "is_reserved": 0, "lat": 38.902413333333335, "fusion_lon": 0.0, "is_disabled": 0}, {"rental_uris": {"android": "https://dc.lft.to/lastmile_qr_scan", "ios": "https://dc.lft.to/lastmile_qr_scan"}, "type": "electric_scooter", "lon": -76.981301, "name": "c77e0d1d393703a4f9265b6b9109ac6f", "bike_id": "c77e0d1d393703a4f9265b6b9109ac6f", "fusion_lat": 0.0, "is_reserved": 0, "lat": 38.884182833333334, "fusion_lon": 0.0, "is_disabled": 0}, {"rental_uris": {"android": "https://dc.lft.to/lastmile_qr_scan", "ios": "https://dc.lft.to/lastmile_qr_scan"}, "type": "electric_bike", "lon": -77.11428366666667, "name": "f27379c98062c190888d41e4f6bc9aad", "bike_id": "f27379c98062c190888d41e4f6bc9aad", "fusion_lat": 0.0, "is_reserved": 0, "lat": 38.85250933333333, "fusion_lon": 0.0, "is_disabled": 0}, {"rental_uris": {"android": "https://dc.lft.to/lastmile_qr_scan", "ios": "https://dc.lft.to/lastmile_qr_scan"}, "type": "electric_scooter", "lon": -76.99492783333334, "name": "6f21ef17f095b73b1bf6e46da49b65c9", "bike_id": "6f21ef17f095b73b1bf6e46da49b65c9", "fusion_lat": 0.0, "is_reserved": 0, "lat": 38.8769135, "fusion_lon": 0.0, "is_disabled": 0}, {"rental_uris": {"android": "https://dc.lft.to/lastmile_qr_scan", "ios": "https://dc.lft.to/lastmile_qr_scan"}, "type": "electric_scooter", "lon": -77.0203085, "name": "4e4ce30f2dbce68503afdae0776b7bb2", "bike_id": "4e4ce30f2dbce68503afdae0776b7bb2", "fusion_lat": 0.0, "is_reserved": 0, "lat": 38.8926825, "fusion_lon": 0.0, "is_disabled": 0}, {"rental_uris": {"android": "https://dc.lft.to/lastmile_qr_scan", "ios": "https://dc.lft.to/lastmile_qr_scan"}, "type": "electric_scooter", "lon": -77.0216925, "name": "1e3e5950ec767d5aee26275c3c19e420", "bike_id": "1e3e5950ec767d5aee26275c3c19e420", "fusion_lat": 0.0, "is_reserved": 0, "lat": 38.94087866666667, "fusion_lon": 0.0, "is_disabled": 0}, {"rental_uris": {"android": "https://dc.lft.to/lastmile_qr_scan", "ios": "https://dc.lft.to/lastmile_qr_scan"}, "type": "electric_scooter", "lon": -77.0318335, "name": "fe22a576d8cfd2147fe4972cedcad876", "bike_id": "fe22a576d8cfd2147fe4972cedcad876", "fusion_lat": 0.0, "is_reserved": 0, "lat": 38.897512, "fusion_lon": 0.0, "is_disabled": 0}, {"rental_uris": {"android": "https://dc.lft.to/lastmile_qr_scan", "ios": "https://dc.lft.to/lastmile_qr_scan"}, "type": "electric_scooter", "lon": -77.06347166666667, "name": "9ef77c945a4af0d569f59c1280c32dec", "bike_id": "9ef77c945a4af0d569f59c1280c32dec", "fusion_lat": 0.0, "is_reserved": 0, "lat": 38.90849566666667, "fusion_lon": 0.0, "is_disabled": 0}, {"rental_uris": {"android": "https://dc.lft.to/lastmile_qr_scan", "ios": "https://dc.lft.to/lastmile_qr_scan"}, "type": "electric_scooter", "lon": -77.03968066666667, "name": "f4963e3cde56e07e9d78a669646eccdf", "bike_id": "f4963e3cde56e07e9d78a669646eccdf", "fusion_lat": 0.0, "is_reserved": 0, "lat": 38.90254066666667, "fusion_lon": 0.0, "is_disabled": 0}, {"rental_uris": {"android": "https://dc.lft.to/lastmile_qr_scan", "ios": "https://dc.lft.to/lastmile_qr_scan"}, "type": "electric_scooter", "lon": -77.03336316666666, "name": "7b481eb202177f2a76cb37f1ac3e26c5", "bike_id": "7b481eb202177f2a76cb37f1ac3e26c5", "fusion_lat": 0.0, "is_reserved": 0, "lat": 38.898257, "fusion_lon": 0.0, "is_disabled": 0}, {"rental_uris": {"android": "https://dc.lft.to/lastmile_qr_scan", "ios": "https://dc.lft.to/lastmile_qr_scan"}, "type": "electric_scooter", "lon": -77.03803516666666, "name": "5207e2c78a4fed47ac23cc7b305c6af7", "bike_id": "5207e2c78a4fed47ac23cc7b305c6af7", "fusion_lat": 0.0, "is_reserved": 0, "lat": 38.91038366666667, "fusion_lon": 0.0, "is_disabled": 0}, {"rental_uris": {"android": "https://dc.lft.to/lastmile_qr_scan", "ios": "https://dc.lft.to/lastmile_qr_scan"}, "type": "electric_scooter", "lon": -76.99497183333334, "name": "95250ab6722b727a24f5211d5ca315a2", "bike_id": "95250ab6722b727a24f5211d5ca315a2", "fusion_lat": 0.0, "is_reserved": 0, "lat": 38.862252833333336, "fusion_lon": 0.0, "is_disabled": 0}, {"rental_uris": {"android": "https://dc.lft.to/lastmile_qr_scan", "ios": "https://dc.lft.to/lastmile_qr_scan"}, "type": "electric_scooter", "lon": -77.02847733333333, "name": "80a52a40c310fab91447fba01fe671f9", "bike_id": "80a52a40c310fab91447fba01fe671f9", "fusion_lat": 0.0, "is_reserved": 0, "lat": 38.917205833333334, "fusion_lon": 0.0, "is_disabled": 0}, {"rental_uris": {"android": "https://dc.lft.to/lastmile_qr_scan", "ios": "https://dc.lft.to/lastmile_qr_scan"}, "type": "electric_scooter", "lon": -77.00202033333333, "name": "9b18a84661715ba112bda4df22696e73", "bike_id": "9b18a84661715ba112bda4df22696e73", "fusion_lat": 0.0, "is_reserved": 0, "lat": 38.90034133333333, "fusion_lon": 0.0, "is_disabled": 0}, {"rental_uris": {"android": "https://dc.lft.to/lastmile_qr_scan", "ios": "https://dc.lft.to/lastmile_qr_scan"}, "type": "electric_bike", "lon": -76.98389616666667, "name": "a2ac7b8742660b6882ed486614213b14", "bike_id": "a2ac7b8742660b6882ed486614213b14", "fusion_lat": 0.0, "is_reserved": 0, "lat": 38.89888766666667, "fusion_lon": 0.0, "is_disabled": 0}, {"rental_uris": {"android": "https://dc.lft.to/lastmile_qr_scan", "ios": "https://dc.lft.to/lastmile_qr_scan"}, "type": "electric_scooter", "lon": -77.02417083333333, "name": "5140d3328179cdbaaf249a7d2a637231", "bike_id": "5140d3328179cdbaaf249a7d2a637231", "fusion_lat": 0.0, "is_reserved": 0, "lat": 38.892413, "fusion_lon": 0.0, "is_disabled": 0}, {"rental_uris": {"android": "https://dc.lft.to/lastmile_qr_scan", "ios": "https://dc.lft.to/lastmile_qr_scan"}, "type": "electric_bike", "lon": -77.10127283333334, "name": "c16e7f1367da913a4672630733f55d3b", "bike_id": "c16e7f1367da913a4672630733f55d3b", "fusion_lat": 0.0, "is_reserved": 0, "lat": 38.8521535, "fusion_lon": 0.0, "is_disabled": 0}, {"rental_uris": {"android": "https://dc.lft.to/lastmile_qr_scan", "ios": "https://dc.lft.to/lastmile_qr_scan"}, "type": "electric_scooter", "lon": -77.01976366666666, "name": "de85f4da76dcd2bdc15485295262cf90", "bike_id": "de85f4da76dcd2bdc15485295262cf90", "fusion_lat": 0.0, "is_reserved": 0, "lat": 38.9129115, "fusion_lon": 0.0, "is_disabled": 0}, {"rental_uris": {"android": "https://dc.lft.to/lastmile_qr_scan", "ios": "https://dc.lft.to/lastmile_qr_scan"}, "type": "electric_scooter", "lon": -77.02919983333334, "name": "607923e00b51d3ab21ac5aef1cdcead1", "bike_id": "607923e00b51d3ab21ac5aef1cdcead1", "fusion_lat": 0.0, "is_reserved": 0, "lat": 38.93877033333333, "fusion_lon": 0.0, "is_disabled": 0}, {"rental_uris": {"android": "https://dc.lft.to/lastmile_qr_scan", "ios": "https://dc.lft.to/lastmile_qr_scan"}, "type": "electric_bike", "lon": -77.12585316666667, "name": "8465fbc61755073d92b8e5852dd9f479", "bike_id": "8465fbc61755073d92b8e5852dd9f479", "fusion_lat": 0.0, "is_reserved": 0, "lat": 38.851482, "fusion_lon": 0.0, "is_disabled": 0}, {"rental_uris": {"android": "https://dc.lft.to/lastmile_qr_scan", "ios": "https://dc.lft.to/lastmile_qr_scan"}, "type": "electric_scooter", "lon": -77.04281016666667, "name": "0b8588b02a68980d2716dd40c3cb9c9d", "bike_id": "0b8588b02a68980d2716dd40c3cb9c9d", "fusion_lat": 0.0, "is_reserved": 0, "lat": 38.907954333333336, "fusion_lon": 0.0, "is_disabled": 0}, {"rental_uris": {"android": "https://dc.lft.to/lastmile_qr_scan", "ios": "https://dc.lft.to/lastmile_qr_scan"}, "type": "electric_scooter", "lon": -77.027148, "name": "8ccfd723a555fb8a54f661c566583e32", "bike_id": "8ccfd723a555fb8a54f661c566583e32", "fusion_lat": 0.0, "is_reserved": 0, "lat": 38.90752833333333, "fusion_lon": 0.0, "is_disabled": 0}, {"rental_uris": {"android": "https://dc.lft.to/lastmile_qr_scan", "ios": "https://dc.lft.to/lastmile_qr_scan"}, "type": "electric_scooter", "lon": -77.01808383333334, "name": "0c909ae92353370466dfdd765b0ce057", "bike_id": "0c909ae92353370466dfdd765b0ce057", "fusion_lat": 0.0, "is_reserved": 0, "lat": 38.92221983333334, "fusion_lon": 0.0, "is_disabled": 0}, {"rental_uris": {"android": "https://dc.lft.to/lastmile_qr_scan", "ios": "https://dc.lft.to/lastmile_qr_scan"}, "type": "electric_bike", "lon": -76.93230633333333, "name": "85b0a9a5ac26e0d3bcd9deaf467ff244", "bike_id": "85b0a9a5ac26e0d3bcd9deaf467ff244", "fusion_lat": 0.0, "is_reserved": 0, "lat": 38.865953, "fusion_lon": 0.0, "is_disabled": 0}, {"rental_uris": {"android": "https://dc.lft.to/lastmile_qr_scan", "ios": "https://dc.lft.to/lastmile_qr_scan"}, "type": "electric_scooter", "lon": -77.03064366666666, "name": "01e6356dc2e8ce4ba4ce4a06482f82a0", "bike_id": "01e6356dc2e8ce4ba4ce4a06482f82a0", "fusion_lat": 0.0, "is_reserved": 0, "lat": 38.916768166666664, "fusion_lon": 0.0, "is_disabled": 0}, {"rental_uris": {"android": "https://dc.lft.to/lastmile_qr_scan", "ios": "https://dc.lft.to/lastmile_qr_scan"}, "type": "electric_scooter", "lon": -77.027583, "name": "9e386198b76b9613f53387201a0e70c2", "bike_id": "9e386198b76b9613f53387201a0e70c2", "fusion_lat": 0.0, "is_reserved": 0, "lat": 38.96508766666667, "fusion_lon": 0.0, "is_disabled": 0}, {"rental_uris": {"android": "https://dc.lft.to/lastmile_qr_scan", "ios": "https://dc.lft.to/lastmile_qr_scan"}, "type": "electric_scooter", "lon": -77.02602833333333, "name": "650b78ecf865a1d487e510b61925db3b", "bike_id": "650b78ecf865a1d487e510b61925db3b", "fusion_lat": 0.0, "is_reserved": 0, "lat": 38.9163695, "fusion_lon": 0.0, "is_disabled": 0}, {"rental_uris": {"android": "https://dc.lft.to/lastmile_qr_scan", "ios": "https://dc.lft.to/lastmile_qr_scan"}, "type": "electric_scooter", "lon": -77.02272216666667, "name": "1afbb9d9f64772f55bb075b527db152d", "bike_id": "1afbb9d9f64772f55bb075b527db152d", "fusion_lat": 0.0, "is_reserved": 0, "lat": 38.8973505, "fusion_lon": 0.0, "is_disabled": 0}, {"rental_uris": {"android": "https://dc.lft.to/lastmile_qr_scan", "ios": "https://dc.lft.to/lastmile_qr_scan"}, "type": "electric_scooter", "lon": -77.01980066666667, "name": "2147d33edd335fedb3b37233749a9464", "bike_id": "2147d33edd335fedb3b37233749a9464", "fusion_lat": 0.0, "is_reserved": 0, "lat": 38.91290633333333, "fusion_lon": 0.0, "is_disabled": 0}, {"rental_uris": {"android": "https://dc.lft.to/lastmile_qr_scan", "ios": "https://dc.lft.to/lastmile_qr_scan"}, "type": "electric_scooter", "lon": -77.02111566666666, "name": "02e992df86bf56d8ce0c1364e8273dd7", "bike_id": "02e992df86bf56d8ce0c1364e8273dd7", "fusion_lat": 0.0, "is_reserved": 0, "lat": 38.912589833333335, "fusion_lon": 0.0, "is_disabled": 0}, {"rental_uris": {"android": "https://dc.lft.to/lastmile_qr_scan", "ios": "https://dc.lft.to/lastmile_qr_scan"}, "type": "electric_scooter", "lon": -77.00899566666666, "name": "0b68cec690794accce1274a2ad6aea12", "bike_id": "0b68cec690794accce1274a2ad6aea12", "fusion_lat": 0.0, "is_reserved": 0, "lat": 38.87341083333333, "fusion_lon": 0.0, "is_disabled": 0}, {"rental_uris": {"android": "https://dc.lft.to/lastmile_qr_scan", "ios": "https://dc.lft.to/lastmile_qr_scan"}, "type": "electric_scooter", "lon": -77.04510116666667, "name": "791bd171a491523305a41e3cab37150f", "bike_id": "791bd171a491523305a41e3cab37150f", "fusion_lat": 0.0, "is_reserved": 0, "lat": 38.892267833333335, "fusion_lon": 0.0, "is_disabled": 0}, {"rental_uris": {"android": "https://dc.lft.to/lastmile_qr_scan", "ios": "https://dc.lft.to/lastmile_qr_scan"}, "type": "electric_scooter", "lon": -77.03450183333334, "name": "6aa4929656cb5a8cf813a1a1492151ce", "bike_id": "6aa4929656cb5a8cf813a1a1492151ce", "fusion_lat": 0.0, "is_reserved": 0, "lat": 38.904092166666665, "fusion_lon": 0.0, "is_disabled": 0}, {"rental_uris": {"android": "https://dc.lft.to/lastmile_qr_scan", "ios": "https://dc.lft.to/lastmile_qr_scan"}, "type": "electric_scooter", "lon": -77.03821533333333, "name": "9ff7b395e4710911d296e8b298610cb0", "bike_id": "9ff7b395e4710911d296e8b298610cb0", "fusion_lat": 0.0, "is_reserved": 0, "lat": 38.920622333333334, "fusion_lon": 0.0, "is_disabled": 0}, {"rental_uris": {"android": "https://dc.lft.to/lastmile_qr_scan", "ios": "https://dc.lft.to/lastmile_qr_scan"}, "type": "electric_bike", "lon": -77.01802483333333, "name": "02222108d179b9a697f8d221d3ab9bc7", "bike_id": "02222108d179b9a697f8d221d3ab9bc7", "fusion_lat": 0.0, "is_reserved": 0, "lat": 38.98993466666667, "fusion_lon": 0.0, "is_disabled": 0}, {"rental_uris": {"android": "https://dc.lft.to/lastmile_qr_scan", "ios": "https://dc.lft.to/lastmile_qr_scan"}, "type": "electric_scooter", "lon": -77.01233566666667, "name": "3673d02e20c3784b402e365bf9a19039", "bike_id": "3673d02e20c3784b402e365bf9a19039", "fusion_lat": 0.0, "is_reserved": 0, "lat": 38.89341666666667, "fusion_lon": 0.0, "is_disabled": 0}, {"rental_uris": {"android": "https://dc.lft.to/lastmile_qr_scan", "ios": "https://dc.lft.to/lastmile_qr_scan"}, "type": "electric_scooter", "lon": -77.05987233333333, "name": "74a15fa590115a4e7e2dd9179bcb2682", "bike_id": "74a15fa590115a4e7e2dd9179bcb2682", "fusion_lat": 0.0, "is_reserved": 0, "lat": 38.9119525, "fusion_lon": 0.0, "is_disabled": 0}, {"rental_uris": {"android": "https://dc.lft.to/lastmile_qr_scan", "ios": "https://dc.lft.to/lastmile_qr_scan"}, "type": "electric_scooter", "lon": -77.02420983333333, "name": "3fbfe3e9da58cc0b030a770a0e7f1635", "bike_id": "3fbfe3e9da58cc0b030a770a0e7f1635", "fusion_lat": 0.0, "is_reserved": 0, "lat": 38.903016666666666, "fusion_lon": 0.0, "is_disabled": 0}, {"rental_uris": {"android": "https://dc.lft.to/lastmile_qr_scan", "ios": "https://dc.lft.to/lastmile_qr_scan"}, "type": "electric_scooter", "lon": -77.02397516666667, "name": "854f2cf4c1b6a9d91b012c444554fd9e", "bike_id": "854f2cf4c1b6a9d91b012c444554fd9e", "fusion_lat": 0.0, "is_reserved": 0, "lat": 38.89887783333333, "fusion_lon": 0.0, "is_disabled": 0}, {"rental_uris": {"android": "https://dc.lft.to/lastmile_qr_scan", "ios": "https://dc.lft.to/lastmile_qr_scan"}, "type": "electric_scooter", "lon": -77.03637966666666, "name": "e04a6cff7e4e304792328948932ceb53", "bike_id": "e04a6cff7e4e304792328948932ceb53", "fusion_lat": 0.0, "is_reserved": 0, "lat": 38.93173083333333, "fusion_lon": 0.0, "is_disabled": 0}, {"rental_uris": {"android": "https://dc.lft.to/lastmile_qr_scan", "ios": "https://dc.lft.to/lastmile_qr_scan"}, "type": "electric_scooter", "lon": -77.05296966666667, "name": "6dec74348075592457fc9ad21eebc428", "bike_id": "6dec74348075592457fc9ad21eebc428", "fusion_lat": 0.0, "is_reserved": 0, "lat": 38.91705616666667, "fusion_lon": 0.0, "is_disabled": 0}, {"rental_uris": {"android": "https://dc.lft.to/lastmile_qr_scan", "ios": "https://dc.lft.to/lastmile_qr_scan"}, "type": "electric_bike", "lon": -77.02122083333333, "name": "1b3e1f953216e6fed6e5396aa418c87d", "bike_id": "1b3e1f953216e6fed6e5396aa418c87d", "fusion_lat": 0.0, "is_reserved": 0, "lat": 38.936986833333336, "fusion_lon": 0.0, "is_disabled": 0}, {"rental_uris": {"android": "https://dc.lft.to/lastmile_qr_scan", "ios": "https://dc.lft.to/lastmile_qr_scan"}, "type": "electric_scooter", "lon": -77.02695316666667, "name": "d58232fb0e5d07a5fa0a182ab2e70275", "bike_id": "d58232fb0e5d07a5fa0a182ab2e70275", "fusion_lat": 0.0, "is_reserved": 0, "lat": 38.908528, "fusion_lon": 0.0, "is_disabled": 0}, {"rental_uris": {"android": "https://dc.lft.to/lastmile_qr_scan", "ios": "https://dc.lft.to/lastmile_qr_scan"}, "type": "electric_scooter", "lon": -77.03842583333333, "name": "cfdc243796f4133db658afc5b1be611c", "bike_id": "cfdc243796f4133db658afc5b1be611c", "fusion_lat": 0.0, "is_reserved": 0, "lat": 38.931138, "fusion_lon": 0.0, "is_disabled": 0}, {"rental_uris": {"android": "https://dc.lft.to/lastmile_qr_scan", "ios": "https://dc.lft.to/lastmile_qr_scan"}, "type": "electric_scooter", "lon": -77.00225233333333, "name": "05fe8275989531820ceb9e19267c8f52", "bike_id": "05fe8275989531820ceb9e19267c8f52", "fusion_lat": 0.0, "is_reserved": 0, "lat": 38.89503216666667, "fusion_lon": 0.0, "is_disabled": 0}, {"rental_uris": {"android": "https://dc.lft.to/lastmile_qr_scan", "ios": "https://dc.lft.to/lastmile_qr_scan"}, "type": "electric_scooter", "lon": -77.00227316666667, "name": "d47603f0d7f7d3beca0f5d8ffcdd66dd", "bike_id": "d47603f0d7f7d3beca0f5d8ffcdd66dd", "fusion_lat": 0.0, "is_reserved": 0, "lat": 38.90292383333333, "fusion_lon": 0.0, "is_disabled": 0}, {"rental_uris": {"android": "https://dc.lft.to/lastmile_qr_scan", "ios": "https://dc.lft.to/lastmile_qr_scan"}, "type": "electric_scooter", "lon": -77.032117, "name": "0941bb824acc7c7f18d1fcbe558229a8", "bike_id": "0941bb824acc7c7f18d1fcbe558229a8", "fusion_lat": 0.0, "is_reserved": 0, "lat": 38.9078935, "fusion_lon": 0.0, "is_disabled": 0}, {"rental_uris": {"android": "https://dc.lft.to/lastmile_qr_scan", "ios": "https://dc.lft.to/lastmile_qr_scan"}, "type": "electric_scooter", "lon": -76.98570483333333, "name": "46abd00684296a5140354690146a08c3", "bike_id": "46abd00684296a5140354690146a08c3", "fusion_lat": 0.0, "is_reserved": 0, "lat": 38.909322, "fusion_lon": 0.0, "is_disabled": 0}, {"rental_uris": {"android": "https://dc.lft.to/lastmile_qr_scan", "ios": "https://dc.lft.to/lastmile_qr_scan"}, "type": "electric_scooter", "lon": -77.03180566666667, "name": "8587ba486d633fe0d8a3f5ce5e26f149", "bike_id": "8587ba486d633fe0d8a3f5ce5e26f149", "fusion_lat": 0.0, "is_reserved": 0, "lat": 38.897716, "fusion_lon": 0.0, "is_disabled": 0}, {"rental_uris": {"android": "https://dc.lft.to/lastmile_qr_scan", "ios": "https://dc.lft.to/lastmile_qr_scan"}, "type": "electric_scooter", "lon": -77.02376133333334, "name": "71a7f46886cb82a968e0cab8963b21f2", "bike_id": "71a7f46886cb82a968e0cab8963b21f2", "fusion_lat": 0.0, "is_reserved": 0, "lat": 38.902229, "fusion_lon": 0.0, "is_disabled": 0}, {"rental_uris": {"android": "https://dc.lft.to/lastmile_qr_scan", "ios": "https://dc.lft.to/lastmile_qr_scan"}, "type": "electric_scooter", "lon": -76.91922583333333, "name": "2a83a637f42ea4ea22f93c22089b8a78", "bike_id": "2a83a637f42ea4ea22f93c22089b8a78", "fusion_lat": 0.0, "is_reserved": 0, "lat": 38.89077666666667, "fusion_lon": 0.0, "is_disabled": 0}, {"rental_uris": {"android": "https://dc.lft.to/lastmile_qr_scan", "ios": "https://dc.lft.to/lastmile_qr_scan"}, "type": "electric_scooter", "lon": -76.97667883333334, "name": "7e8e51a8160a5cbf641f2806523dbdfc", "bike_id": "7e8e51a8160a5cbf641f2806523dbdfc", "fusion_lat": 0.0, "is_reserved": 0, "lat": 38.898650333333336, "fusion_lon": 0.0, "is_disabled": 0}, {"rental_uris": {"android": "https://dc.lft.to/lastmile_qr_scan", "ios": "https://dc.lft.to/lastmile_qr_scan"}, "type": "electric_scooter", "lon": -77.01774216666666, "name": "71bc8b79220750f36db683c899c765a1", "bike_id": "71bc8b79220750f36db683c899c765a1", "fusion_lat": 0.0, "is_reserved": 0, "lat": 38.921092, "fusion_lon": 0.0, "is_disabled": 0}, {"rental_uris": {"android": "https://dc.lft.to/lastmile_qr_scan", "ios": "https://dc.lft.to/lastmile_qr_scan"}, "type": "electric_scooter", "lon": -77.0344, "name": "979402bd394f3d0ca763c995d1f05114", "bike_id": "979402bd394f3d0ca763c995d1f05114", "fusion_lat": 0.0, "is_reserved": 0, "lat": 38.902682166666665, "fusion_lon": 0.0, "is_disabled": 0}, {"rental_uris": {"android": "https://dc.lft.to/lastmile_qr_scan", "ios": "https://dc.lft.to/lastmile_qr_scan"}, "type": "electric_scooter", "lon": -77.064934, "name": "4488552b9f1a1c26a788ba160f8237b2", "bike_id": "4488552b9f1a1c26a788ba160f8237b2", "fusion_lat": 0.0, "is_reserved": 0, "lat": 38.9649715, "fusion_lon": 0.0, "is_disabled": 0}, {"rental_uris": {"android": "https://dc.lft.to/lastmile_qr_scan", "ios": "https://dc.lft.to/lastmile_qr_scan"}, "type": "electric_scooter", "lon": -76.97379616666667, "name": "baadb46766cec562a7ec9e272e7d3c4d", "bike_id": "baadb46766cec562a7ec9e272e7d3c4d", "fusion_lat": 0.0, "is_reserved": 0, "lat": 38.8837765, "fusion_lon": 0.0, "is_disabled": 0}, {"rental_uris": {"android": "https://dc.lft.to/lastmile_qr_scan", "ios": "https://dc.lft.to/lastmile_qr_scan"}, "type": "electric_scooter", "lon": -76.9472465, "name": "10facace24c49b67dc478e3e2ee3ac45", "bike_id": "10facace24c49b67dc478e3e2ee3ac45", "fusion_lat": 0.0, "is_reserved": 0, "lat": 38.89740483333333, "fusion_lon": 0.0, "is_disabled": 0}, {"rental_uris": {"android": "https://dc.lft.to/lastmile_qr_scan", "ios": "https://dc.lft.to/lastmile_qr_scan"}, "type": "electric_scooter", "lon": -77.04328016666666, "name": "ec5f88175540783651c45257a12e0867", "bike_id": "ec5f88175540783651c45257a12e0867", "fusion_lat": 0.0, "is_reserved": 0, "lat": 38.892277, "fusion_lon": 0.0, "is_disabled": 0}, {"rental_uris": {"android": "https://dc.lft.to/lastmile_qr_scan", "ios": "https://dc.lft.to/lastmile_qr_scan"}, "type": "electric_bike", "lon": -77.02598566666667, "name": "97b8db3f1d8fe96973456ffe0aed1b03", "bike_id": "97b8db3f1d8fe96973456ffe0aed1b03", "fusion_lat": 0.0, "is_reserved": 0, "lat": 38.9824005, "fusion_lon": 0.0, "is_disabled": 0}, {"rental_uris": {"android": "https://dc.lft.to/lastmile_qr_scan", "ios": "https://dc.lft.to/lastmile_qr_scan"}, "type": "electric_scooter", "lon": -77.03225866666666, "name": "1831a3e5a8aebfafdbb698c79c468ebf", "bike_id": "1831a3e5a8aebfafdbb698c79c468ebf", "fusion_lat": 0.0, "is_reserved": 0, "lat": 38.904283666666664, "fusion_lon": 0.0, "is_disabled": 0}, {"rental_uris": {"android": "https://dc.lft.to/lastmile_qr_scan", "ios": "https://dc.lft.to/lastmile_qr_scan"}, "type": "electric_scooter", "lon": -77.01055316666667, "name": "16535c26356495fce50ed86ddb86ae20", "bike_id": "16535c26356495fce50ed86ddb86ae20", "fusion_lat": 0.0, "is_reserved": 0, "lat": 38.929903333333336, "fusion_lon": 0.0, "is_disabled": 0}, {"rental_uris": {"android": "https://dc.lft.to/lastmile_qr_scan", "ios": "https://dc.lft.to/lastmile_qr_scan"}, "type": "electric_scooter", "lon": -77.041588, "name": "032f2ec818a52c2a91de23f9dd6b2ea3", "bike_id": "032f2ec818a52c2a91de23f9dd6b2ea3", "fusion_lat": 0.0, "is_reserved": 0, "lat": 38.91649616666667, "fusion_lon": 0.0, "is_disabled": 0}, {"rental_uris": {"android": "https://dc.lft.to/lastmile_qr_scan", "ios": "https://dc.lft.to/lastmile_qr_scan"}, "type": "electric_scooter", "lon": -76.99485783333333, "name": "e9ba87995681ed7743e64760dab87545", "bike_id": "e9ba87995681ed7743e64760dab87545", "fusion_lat": 0.0, "is_reserved": 0, "lat": 38.88350916666667, "fusion_lon": 0.0, "is_disabled": 0}, {"rental_uris": {"android": "https://dc.lft.to/lastmile_qr_scan", "ios": "https://dc.lft.to/lastmile_qr_scan"}, "type": "electric_scooter", "lon": -76.995117, "name": "b2c7c76c3fd4015e6b0a24471f32a462", "bike_id": "b2c7c76c3fd4015e6b0a24471f32a462", "fusion_lat": 0.0, "is_reserved": 0, "lat": 38.877773833333336, "fusion_lon": 0.0, "is_disabled": 0}, {"rental_uris": {"android": "https://dc.lft.to/lastmile_qr_scan", "ios": "https://dc.lft.to/lastmile_qr_scan"}, "type": "electric_scooter", "lon": -76.99615383333334, "name": "c9d5d54d349733d1da4c2dce705114d1", "bike_id": "c9d5d54d349733d1da4c2dce705114d1", "fusion_lat": 0.0, "is_reserved": 0, "lat": 38.926168833333335, "fusion_lon": 0.0, "is_disabled": 0}, {"rental_uris": {"android": "https://dc.lft.to/lastmile_qr_scan", "ios": "https://dc.lft.to/lastmile_qr_scan"}, "type": "electric_bike", "lon": -77.06477366666667, "name": "10919f9efedadac1894bc24510b6816c", "bike_id": "10919f9efedadac1894bc24510b6816c", "fusion_lat": 0.0, "is_reserved": 0, "lat": 38.97385216666667, "fusion_lon": 0.0, "is_disabled": 0}, {"rental_uris": {"android": "https://dc.lft.to/lastmile_qr_scan", "ios": "https://dc.lft.to/lastmile_qr_scan"}, "type": "electric_scooter", "lon": -77.03334816666667, "name": "2d55408f250bffd99a1a43ef661f0935", "bike_id": "2d55408f250bffd99a1a43ef661f0935", "fusion_lat": 0.0, "is_reserved": 0, "lat": 38.90379083333333, "fusion_lon": 0.0, "is_disabled": 0}, {"rental_uris": {"android": "https://dc.lft.to/lastmile_qr_scan", "ios": "https://dc.lft.to/lastmile_qr_scan"}, "type": "electric_scooter", "lon": -77.03678266666667, "name": "505cc14b0d37d49315285955025d3d0e", "bike_id": "505cc14b0d37d49315285955025d3d0e", "fusion_lat": 0.0, "is_reserved": 0, "lat": 38.90573166666667, "fusion_lon": 0.0, "is_disabled": 0}, {"rental_uris": {"android": "https://dc.lft.to/lastmile_qr_scan", "ios": "https://dc.lft.to/lastmile_qr_scan"}, "type": "electric_bike", "lon": -77.36094933333334, "name": "e17986cccd90665ef3ff3ce6498d65f1", "bike_id": "e17986cccd90665ef3ff3ce6498d65f1", "fusion_lat": 0.0, "is_reserved": 0, "lat": 38.93961633333333, "fusion_lon": 0.0, "is_disabled": 0}, {"rental_uris": {"android": "https://dc.lft.to/lastmile_qr_scan", "ios": "https://dc.lft.to/lastmile_qr_scan"}, "type": "electric_scooter", "lon": -77.00749483333334, "name": "e97aa273390fdda8c93af6feda206a8f", "bike_id": "e97aa273390fdda8c93af6feda206a8f", "fusion_lat": 0.0, "is_reserved": 0, "lat": 38.876469666666665, "fusion_lon": 0.0, "is_disabled": 0}, {"rental_uris": {"android": "https://dc.lft.to/lastmile_qr_scan", "ios": "https://dc.lft.to/lastmile_qr_scan"}, "type": "electric_scooter", "lon": -77.02121683333333, "name": "27c0f30d22936c6f7469d6b754188e5f", "bike_id": "27c0f30d22936c6f7469d6b754188e5f", "fusion_lat": 0.0, "is_reserved": 0, "lat": 38.91739116666667, "fusion_lon": 0.0, "is_disabled": 0}, {"rental_uris": {"android": "https://dc.lft.to/lastmile_qr_scan", "ios": "https://dc.lft.to/lastmile_qr_scan"}, "type": "electric_scooter", "lon": -77.01834866666667, "name": "9b4bb56452d0a47d8481accc6131ee21", "bike_id": "9b4bb56452d0a47d8481accc6131ee21", "fusion_lat": 0.0, "is_reserved": 0, "lat": 38.91508966666667, "fusion_lon": 0.0, "is_disabled": 0}, {"rental_uris": {"android": "https://dc.lft.to/lastmile_qr_scan", "ios": "https://dc.lft.to/lastmile_qr_scan"}, "type": "electric_scooter", "lon": -77.0434245, "name": "aee4751830d5400e5f1fee122773c47e", "bike_id": "aee4751830d5400e5f1fee122773c47e", "fusion_lat": 0.0, "is_reserved": 0, "lat": 38.910533666666666, "fusion_lon": 0.0, "is_disabled": 0}, {"rental_uris": {"android": "https://dc.lft.to/lastmile_qr_scan", "ios": "https://dc.lft.to/lastmile_qr_scan"}, "type": "electric_scooter", "lon": -77.02971333333333, "name": "7556a5c3b752e0aea8fc59301165c3f3", "bike_id": "7556a5c3b752e0aea8fc59301165c3f3", "fusion_lat": 0.0, "is_reserved": 0, "lat": 38.940655, "fusion_lon": 0.0, "is_disabled": 0}, {"rental_uris": {"android": "https://dc.lft.to/lastmile_qr_scan", "ios": "https://dc.lft.to/lastmile_qr_scan"}, "type": "electric_scooter", "lon": -77.04172716666666, "name": "2ce9f0b442c51762e1b8293aaf2334c7", "bike_id": "2ce9f0b442c51762e1b8293aaf2334c7", "fusion_lat": 0.0, "is_reserved": 0, "lat": 38.91147483333334, "fusion_lon": 0.0, "is_disabled": 0}, {"rental_uris": {"android": "https://dc.lft.to/lastmile_qr_scan", "ios": "https://dc.lft.to/lastmile_qr_scan"}, "type": "electric_scooter", "lon": -76.99964216666666, "name": "8b4b5a03ae7190f098c20ef9e20c2554", "bike_id": "8b4b5a03ae7190f098c20ef9e20c2554", "fusion_lat": 0.0, "is_reserved": 0, "lat": 38.89324966666667, "fusion_lon": 0.0, "is_disabled": 0}, {"rental_uris": {"android": "https://dc.lft.to/lastmile_qr_scan", "ios": "https://dc.lft.to/lastmile_qr_scan"}, "type": "electric_scooter", "lon": -77.01431466666666, "name": "640371ba333bfe0dcf418879f47d147c", "bike_id": "640371ba333bfe0dcf418879f47d147c", "fusion_lat": 0.0, "is_reserved": 0, "lat": 38.878904666666664, "fusion_lon": 0.0, "is_disabled": 0}, {"rental_uris": {"android": "https://dc.lft.to/lastmile_qr_scan", "ios": "https://dc.lft.to/lastmile_qr_scan"}, "type": "electric_scooter", "lon": -77.03949633333333, "name": "395664cd778a5c34fa0805becafd3a06", "bike_id": "395664cd778a5c34fa0805becafd3a06", "fusion_lat": 0.0, "is_reserved": 0, "lat": 38.916982, "fusion_lon": 0.0, "is_disabled": 0}, {"rental_uris": {"android": "https://dc.lft.to/lastmile_qr_scan", "ios": "https://dc.lft.to/lastmile_qr_scan"}, "type": "electric_scooter", "lon": -77.0217455, "name": "fa6505cc3ebd189747494e37cd16c74c", "bike_id": "fa6505cc3ebd189747494e37cd16c74c", "fusion_lat": 0.0, "is_reserved": 0, "lat": 38.942941, "fusion_lon": 0.0, "is_disabled": 0}, {"rental_uris": {"android": "https://dc.lft.to/lastmile_qr_scan", "ios": "https://dc.lft.to/lastmile_qr_scan"}, "type": "electric_bike", "lon": -77.026905, "name": "842e4b0ccb013964b12d7adbb6fb96ed", "bike_id": "842e4b0ccb013964b12d7adbb6fb96ed", "fusion_lat": 0.0, "is_reserved": 0, "lat": 38.91136783333334, "fusion_lon": 0.0, "is_disabled": 0}, {"rental_uris": {"android": "https://dc.lft.to/lastmile_qr_scan", "ios": "https://dc.lft.to/lastmile_qr_scan"}, "type": "electric_scooter", "lon": -77.04026216666666, "name": "978527c5bc9e1635ddeaeb4ea8435586", "bike_id": "978527c5bc9e1635ddeaeb4ea8435586", "fusion_lat": 0.0, "is_reserved": 0, "lat": 38.89992133333333, "fusion_lon": 0.0, "is_disabled": 0}, {"rental_uris": {"android": "https://dc.lft.to/lastmile_qr_scan", "ios": "https://dc.lft.to/lastmile_qr_scan"}, "type": "electric_scooter", "lon": -77.03151783333334, "name": "1236b0712cf56d04dee44eebcb0549ec", "bike_id": "1236b0712cf56d04dee44eebcb0549ec", "fusion_lat": 0.0, "is_reserved": 0, "lat": 38.927237166666664, "fusion_lon": 0.0, "is_disabled": 0}, {"rental_uris": {"android": "https://dc.lft.to/lastmile_qr_scan", "ios": "https://dc.lft.to/lastmile_qr_scan"}, "type": "electric_scooter", "lon": -77.03581283333334, "name": "9efa7023a96c4314539f6ca3871ba48f", "bike_id": "9efa7023a96c4314539f6ca3871ba48f", "fusion_lat": 0.0, "is_reserved": 0, "lat": 38.934766, "fusion_lon": 0.0, "is_disabled": 0}, {"rental_uris": {"android": "https://dc.lft.to/lastmile_qr_scan", "ios": "https://dc.lft.to/lastmile_qr_scan"}, "type": "electric_scooter", "lon": -76.98364016666666, "name": "47900ddd94dce0f7bc82494cf7a79120", "bike_id": "47900ddd94dce0f7bc82494cf7a79120", "fusion_lat": 0.0, "is_reserved": 0, "lat": 38.86107333333333, "fusion_lon": 0.0, "is_disabled": 0}, {"rental_uris": {"android": "https://dc.lft.to/lastmile_qr_scan", "ios": "https://dc.lft.to/lastmile_qr_scan"}, "type": "electric_scooter", "lon": -77.02356383333333, "name": "d7327111516e240122c56376c3f70915", "bike_id": "d7327111516e240122c56376c3f70915", "fusion_lat": 0.0, "is_reserved": 0, "lat": 38.89222766666666, "fusion_lon": 0.0, "is_disabled": 0}, {"rental_uris": {"android": "https://dc.lft.to/lastmile_qr_scan", "ios": "https://dc.lft.to/lastmile_qr_scan"}, "type": "electric_scooter", "lon": -77.00826233333333, "name": "ec7408f5effe5a668502cfafdbdda646", "bike_id": "ec7408f5effe5a668502cfafdbdda646", "fusion_lat": 0.0, "is_reserved": 0, "lat": 38.8794185, "fusion_lon": 0.0, "is_disabled": 0}, {"rental_uris": {"android": "https://dc.lft.to/lastmile_qr_scan", "ios": "https://dc.lft.to/lastmile_qr_scan"}, "type": "electric_scooter", "lon": -77.04042916666667, "name": "45b988c77bf94377b0f9ef766ad9c74f", "bike_id": "45b988c77bf94377b0f9ef766ad9c74f", "fusion_lat": 0.0, "is_reserved": 0, "lat": 38.9060955, "fusion_lon": 0.0, "is_disabled": 0}, {"rental_uris": {"android": "https://dc.lft.to/lastmile_qr_scan", "ios": "https://dc.lft.to/lastmile_qr_scan"}, "type": "electric_bike", "lon": -76.94472183333333, "name": "4bdad43d003ef7feae7cc9a048425aeb", "bike_id": "4bdad43d003ef7feae7cc9a048425aeb", "fusion_lat": 0.0, "is_reserved": 0, "lat": 38.945591666666665, "fusion_lon": 0.0, "is_disabled": 0}, {"rental_uris": {"android": "https://dc.lft.to/lastmile_qr_scan", "ios": "https://dc.lft.to/lastmile_qr_scan"}, "type": "electric_bike", "lon": -77.07901733333334, "name": "f2d68a45301378bc6c56dc89cb32e385", "bike_id": "f2d68a45301378bc6c56dc89cb32e385", "fusion_lat": 0.0, "is_reserved": 0, "lat": 38.83934816666667, "fusion_lon": 0.0, "is_disabled": 0}, {"rental_uris": {"android": "https://dc.lft.to/lastmile_qr_scan", "ios": "https://dc.lft.to/lastmile_qr_scan"}, "type": "electric_scooter", "lon": -77.04167166666667, "name": "54b4febaf085d50bcc2a57a02745ddce", "bike_id": "54b4febaf085d50bcc2a57a02745ddce", "fusion_lat": 0.0, "is_reserved": 0, "lat": 38.909274833333335, "fusion_lon": 0.0, "is_disabled": 0}, {"rental_uris": {"android": "https://dc.lft.to/lastmile_qr_scan", "ios": "https://dc.lft.to/lastmile_qr_scan"}, "type": "electric_scooter", "lon": -77.03404716666667, "name": "211f74c03e7a268dfad2591c0dbe5553", "bike_id": "211f74c03e7a268dfad2591c0dbe5553", "fusion_lat": 0.0, "is_reserved": 0, "lat": 38.91969666666667, "fusion_lon": 0.0, "is_disabled": 0}, {"rental_uris": {"android": "https://dc.lft.to/lastmile_qr_scan", "ios": "https://dc.lft.to/lastmile_qr_scan"}, "type": "electric_bike", "lon": -77.0509035, "name": "015a92e6e31f4e117317d5e00a1913ae", "bike_id": "015a92e6e31f4e117317d5e00a1913ae", "fusion_lat": 0.0, "is_reserved": 0, "lat": 38.813265333333334, "fusion_lon": 0.0, "is_disabled": 0}, {"rental_uris": {"android": "https://dc.lft.to/lastmile_qr_scan", "ios": "https://dc.lft.to/lastmile_qr_scan"}, "type": "electric_scooter", "lon": -76.97307233333333, "name": "39df2841c876e2d083cb0be3a0388967", "bike_id": "39df2841c876e2d083cb0be3a0388967", "fusion_lat": 0.0, "is_reserved": 0, "lat": 38.91990166666667, "fusion_lon": 0.0, "is_disabled": 0}, {"rental_uris": {"android": "https://dc.lft.to/lastmile_qr_scan", "ios": "https://dc.lft.to/lastmile_qr_scan"}, "type": "electric_scooter", "lon": -77.00820983333334, "name": "24b685f351a24bdb0ee621884d4bd8f0", "bike_id": "24b685f351a24bdb0ee621884d4bd8f0", "fusion_lat": 0.0, "is_reserved": 0, "lat": 38.87647916666667, "fusion_lon": 0.0, "is_disabled": 0}, {"rental_uris": {"android": "https://dc.lft.to/lastmile_qr_scan", "ios": "https://dc.lft.to/lastmile_qr_scan"}, "type": "electric_bike", "lon": -77.109137, "name": "55b17a3059bbe39e6edede75d3105006", "bike_id": "55b17a3059bbe39e6edede75d3105006", "fusion_lat": 0.0, "is_reserved": 0, "lat": 39.052036666666666, "fusion_lon": 0.0, "is_disabled": 0}, {"rental_uris": {"android": "https://dc.lft.to/lastmile_qr_scan", "ios": "https://dc.lft.to/lastmile_qr_scan"}, "type": "electric_scooter", "lon": -76.96512216666666, "name": "c4897d35dc86146588fa76a2f6b16020", "bike_id": "c4897d35dc86146588fa76a2f6b16020", "fusion_lat": 0.0, "is_reserved": 0, "lat": 38.8764925, "fusion_lon": 0.0, "is_disabled": 0}, {"rental_uris": {"android": "https://dc.lft.to/lastmile_qr_scan", "ios": "https://dc.lft.to/lastmile_qr_scan"}, "type": "electric_scooter", "lon": -77.04666783333333, "name": "a443b49ecbfd0e6dee01e964c48bd352", "bike_id": "a443b49ecbfd0e6dee01e964c48bd352", "fusion_lat": 0.0, "is_reserved": 0, "lat": 38.904113333333335, "fusion_lon": 0.0, "is_disabled": 0}, {"rental_uris": {"android": "https://dc.lft.to/lastmile_qr_scan", "ios": "https://dc.lft.to/lastmile_qr_scan"}, "type": "electric_scooter", "lon": -77.04392716666666, "name": "bf2f1cae37790859735496fc67729d48", "bike_id": "bf2f1cae37790859735496fc67729d48", "fusion_lat": 0.0, "is_reserved": 0, "lat": 38.92275866666667, "fusion_lon": 0.0, "is_disabled": 0}, {"rental_uris": {"android": "https://dc.lft.to/lastmile_qr_scan", "ios": "https://dc.lft.to/lastmile_qr_scan"}, "type": "electric_scooter", "lon": -77.02375116666667, "name": "85a2b388685f681274c9adfb09b34437", "bike_id": "85a2b388685f681274c9adfb09b34437", "fusion_lat": 0.0, "is_reserved": 0, "lat": 38.89221666666667, "fusion_lon": 0.0, "is_disabled": 0}, {"rental_uris": {"android": "https://dc.lft.to/lastmile_qr_scan", "ios": "https://dc.lft.to/lastmile_qr_scan"}, "type": "electric_scooter", "lon": -77.01757083333334, "name": "6748e9e3642127166f27def60fa7ec6d", "bike_id": "6748e9e3642127166f27def60fa7ec6d", "fusion_lat": 0.0, "is_reserved": 0, "lat": 38.908702166666664, "fusion_lon": 0.0, "is_disabled": 0}, {"rental_uris": {"android": "https://dc.lft.to/lastmile_qr_scan", "ios": "https://dc.lft.to/lastmile_qr_scan"}, "type": "electric_scooter", "lon": -77.04328, "name": "7954351087112ed59e89046251d6140f", "bike_id": "7954351087112ed59e89046251d6140f", "fusion_lat": 0.0, "is_reserved": 0, "lat": 38.90329916666666, "fusion_lon": 0.0, "is_disabled": 0}, {"rental_uris": {"android": "https://dc.lft.to/lastmile_qr_scan", "ios": "https://dc.lft.to/lastmile_qr_scan"}, "type": "electric_scooter", "lon": -77.04340616666667, "name": "d7a2daf0453b8e2a4f483ca044ee50c6", "bike_id": "d7a2daf0453b8e2a4f483ca044ee50c6", "fusion_lat": 0.0, "is_reserved": 0, "lat": 38.9038125, "fusion_lon": 0.0, "is_disabled": 0}, {"rental_uris": {"android": "https://dc.lft.to/lastmile_qr_scan", "ios": "https://dc.lft.to/lastmile_qr_scan"}, "type": "electric_scooter", "lon": -76.99035633333334, "name": "c3ba5aceae64fe30e14dcac9d732927e", "bike_id": "c3ba5aceae64fe30e14dcac9d732927e", "fusion_lat": 0.0, "is_reserved": 0, "lat": 38.8587475, "fusion_lon": 0.0, "is_disabled": 0}, {"rental_uris": {"android": "https://dc.lft.to/lastmile_qr_scan", "ios": "https://dc.lft.to/lastmile_qr_scan"}, "type": "electric_scooter", "lon": -77.04898483333334, "name": "7cb5a2f4fdfb44128f577c5c9fa18565", "bike_id": "7cb5a2f4fdfb44128f577c5c9fa18565", "fusion_lat": 0.0, "is_reserved": 0, "lat": 38.8925445, "fusion_lon": 0.0, "is_disabled": 0}, {"rental_uris": {"android": "https://dc.lft.to/lastmile_qr_scan", "ios": "https://dc.lft.to/lastmile_qr_scan"}, "type": "electric_scooter", "lon": -77.04085666666667, "name": "4b69a479c63816bab419126581961d86", "bike_id": "4b69a479c63816bab419126581961d86", "fusion_lat": 0.0, "is_reserved": 0, "lat": 38.914891, "fusion_lon": 0.0, "is_disabled": 0}, {"rental_uris": {"android": "https://dc.lft.to/lastmile_qr_scan", "ios": "https://dc.lft.to/lastmile_qr_scan"}, "type": "electric_scooter", "lon": -76.99492633333334, "name": "eb49ce303dc066a783d6f58ce9102009", "bike_id": "eb49ce303dc066a783d6f58ce9102009", "fusion_lat": 0.0, "is_reserved": 0, "lat": 38.86244716666667, "fusion_lon": 0.0, "is_disabled": 0}, {"rental_uris": {"android": "https://dc.lft.to/lastmile_qr_scan", "ios": "https://dc.lft.to/lastmile_qr_scan"}, "type": "electric_scooter", "lon": -77.02544666666667, "name": "94a479424bb508a4128b829f0e80398a", "bike_id": "94a479424bb508a4128b829f0e80398a", "fusion_lat": 0.0, "is_reserved": 0, "lat": 38.90727116666667, "fusion_lon": 0.0, "is_disabled": 0}, {"rental_uris": {"android": "https://dc.lft.to/lastmile_qr_scan", "ios": "https://dc.lft.to/lastmile_qr_scan"}, "type": "electric_scooter", "lon": -77.0921495, "name": "7f70aef4c98be99c2525ef4cf2bc47c2", "bike_id": "7f70aef4c98be99c2525ef4cf2bc47c2", "fusion_lat": 0.0, "is_reserved": 0, "lat": 38.917069, "fusion_lon": 0.0, "is_disabled": 0}, {"rental_uris": {"android": "https://dc.lft.to/lastmile_qr_scan", "ios": "https://dc.lft.to/lastmile_qr_scan"}, "type": "electric_scooter", "lon": -77.03257916666666, "name": "2e892ba71e335fae66ecf5f26fee553a", "bike_id": "2e892ba71e335fae66ecf5f26fee553a", "fusion_lat": 0.0, "is_reserved": 0, "lat": 38.929063166666666, "fusion_lon": 0.0, "is_disabled": 0}, {"rental_uris": {"android": "https://dc.lft.to/lastmile_qr_scan", "ios": "https://dc.lft.to/lastmile_qr_scan"}, "type": "electric_scooter", "lon": -77.02125516666666, "name": "43ee1ac8e3d66028043df52d2f099755", "bike_id": "43ee1ac8e3d66028043df52d2f099755", "fusion_lat": 0.0, "is_reserved": 0, "lat": 38.899638333333336, "fusion_lon": 0.0, "is_disabled": 0}, {"rental_uris": {"android": "https://dc.lft.to/lastmile_qr_scan", "ios": "https://dc.lft.to/lastmile_qr_scan"}, "type": "electric_scooter", "lon": -77.02430383333333, "name": "74dda6f47cbe8ccf4b93a41613b644eb", "bike_id": "74dda6f47cbe8ccf4b93a41613b644eb", "fusion_lat": 0.0, "is_reserved": 0, "lat": 38.92758583333333, "fusion_lon": 0.0, "is_disabled": 0}, {"rental_uris": {"android": "https://dc.lft.to/lastmile_qr_scan", "ios": "https://dc.lft.to/lastmile_qr_scan"}, "type": "electric_scooter", "lon": -77.03023383333333, "name": "3ab0d3bec158b8246eeb1054c1e1cba6", "bike_id": "3ab0d3bec158b8246eeb1054c1e1cba6", "fusion_lat": 0.0, "is_reserved": 0, "lat": 38.89611, "fusion_lon": 0.0, "is_disabled": 0}, {"rental_uris": {"android": "https://dc.lft.to/lastmile_qr_scan", "ios": "https://dc.lft.to/lastmile_qr_scan"}, "type": "electric_bike", "lon": -77.02755516666667, "name": "7e63824119c11857910cd44a6039b322", "bike_id": "7e63824119c11857910cd44a6039b322", "fusion_lat": 0.0, "is_reserved": 0, "lat": 38.93274616666667, "fusion_lon": 0.0, "is_disabled": 0}, {"rental_uris": {"android": "https://dc.lft.to/lastmile_qr_scan", "ios": "https://dc.lft.to/lastmile_qr_scan"}, "type": "electric_scooter", "lon": -77.004548, "name": "e7b4dd246b0e7bb094405158121f41f4", "bike_id": "e7b4dd246b0e7bb094405158121f41f4", "fusion_lat": 0.0, "is_reserved": 0, "lat": 38.9289755, "fusion_lon": 0.0, "is_disabled": 0}, {"rental_uris": {"android": "https://dc.lft.to/lastmile_qr_scan", "ios": "https://dc.lft.to/lastmile_qr_scan"}, "type": "electric_scooter", "lon": -77.01301916666667, "name": "4337abc9d5a10f9f12f6bfa09a3e294a", "bike_id": "4337abc9d5a10f9f12f6bfa09a3e294a", "fusion_lat": 0.0, "is_reserved": 0, "lat": 38.90185133333333, "fusion_lon": 0.0, "is_disabled": 0}, {"rental_uris": {"android": "https://dc.lft.to/lastmile_qr_scan", "ios": "https://dc.lft.to/lastmile_qr_scan"}, "type": "electric_scooter", "lon": -77.02182916666666, "name": "069c287cbc3a768f7dc542c261802350", "bike_id": "069c287cbc3a768f7dc542c261802350", "fusion_lat": 0.0, "is_reserved": 0, "lat": 38.90603766666667, "fusion_lon": 0.0, "is_disabled": 0}, {"rental_uris": {"android": "https://dc.lft.to/lastmile_qr_scan", "ios": "https://dc.lft.to/lastmile_qr_scan"}, "type": "electric_scooter", "lon": -77.03951283333333, "name": "f9b68420749dc8d8bc9c43142ae9933d", "bike_id": "f9b68420749dc8d8bc9c43142ae9933d", "fusion_lat": 0.0, "is_reserved": 0, "lat": 38.90447016666667, "fusion_lon": 0.0, "is_disabled": 0}, {"rental_uris": {"android": "https://dc.lft.to/lastmile_qr_scan", "ios": "https://dc.lft.to/lastmile_qr_scan"}, "type": "electric_scooter", "lon": -77.0023515, "name": "42b3ea3b1d3c304c6622d6d60ba2a3ee", "bike_id": "42b3ea3b1d3c304c6622d6d60ba2a3ee", "fusion_lat": 0.0, "is_reserved": 0, "lat": 38.873123, "fusion_lon": 0.0, "is_disabled": 0}, {"rental_uris": {"android": "https://dc.lft.to/lastmile_qr_scan", "ios": "https://dc.lft.to/lastmile_qr_scan"}, "type": "electric_scooter", "lon": -77.0476705, "name": "46d58007f056a062e1c8aa83b98bc05b", "bike_id": "46d58007f056a062e1c8aa83b98bc05b", "fusion_lat": 0.0, "is_reserved": 0, "lat": 38.91648633333333, "fusion_lon": 0.0, "is_disabled": 0}, {"rental_uris": {"android": "https://dc.lft.to/lastmile_qr_scan", "ios": "https://dc.lft.to/lastmile_qr_scan"}, "type": "electric_scooter", "lon": -77.0260165, "name": "8f2c60db2a8913b74ccea70e23f752c7", "bike_id": "8f2c60db2a8913b74ccea70e23f752c7", "fusion_lat": 0.0, "is_reserved": 0, "lat": 38.9048565, "fusion_lon": 0.0, "is_disabled": 0}, {"rental_uris": {"android": "https://dc.lft.to/lastmile_qr_scan", "ios": "https://dc.lft.to/lastmile_qr_scan"}, "type": "electric_scooter", "lon": -77.03112366666667, "name": "fbb5e59af3b9850901ee336f7b329385", "bike_id": "fbb5e59af3b9850901ee336f7b329385", "fusion_lat": 0.0, "is_reserved": 0, "lat": 38.89228266666667, "fusion_lon": 0.0, "is_disabled": 0}, {"rental_uris": {"android": "https://dc.lft.to/lastmile_qr_scan", "ios": "https://dc.lft.to/lastmile_qr_scan"}, "type": "electric_scooter", "lon": -77.03664916666666, "name": "ca0a747e4d75935b586c0b0a3ab15d23", "bike_id": "ca0a747e4d75935b586c0b0a3ab15d23", "fusion_lat": 0.0, "is_reserved": 0, "lat": 38.9126915, "fusion_lon": 0.0, "is_disabled": 0}, {"rental_uris": {"android": "https://dc.lft.to/lastmile_qr_scan", "ios": "https://dc.lft.to/lastmile_qr_scan"}, "type": "electric_scooter", "lon": -76.98724833333333, "name": "665f4fdc9d2f9c18c68b30e6c047cafe", "bike_id": "665f4fdc9d2f9c18c68b30e6c047cafe", "fusion_lat": 0.0, "is_reserved": 0, "lat": 38.86724983333333, "fusion_lon": 0.0, "is_disabled": 0}, {"rental_uris": {"android": "https://dc.lft.to/lastmile_qr_scan", "ios": "https://dc.lft.to/lastmile_qr_scan"}, "type": "electric_scooter", "lon": -77.02487283333333, "name": "d63a22fd65a7647ab1b0ec0bafef3d9c", "bike_id": "d63a22fd65a7647ab1b0ec0bafef3d9c", "fusion_lat": 0.0, "is_reserved": 0, "lat": 38.93281016666667, "fusion_lon": 0.0, "is_disabled": 0}, {"rental_uris": {"android": "https://dc.lft.to/lastmile_qr_scan", "ios": "https://dc.lft.to/lastmile_qr_scan"}, "type": "electric_scooter", "lon": -77.0281975, "name": "ba1d1df04bfee7c8b2006f1130be03bd", "bike_id": "ba1d1df04bfee7c8b2006f1130be03bd", "fusion_lat": 0.0, "is_reserved": 0, "lat": 38.914204, "fusion_lon": 0.0, "is_disabled": 0}, {"rental_uris": {"android": "https://dc.lft.to/lastmile_qr_scan", "ios": "https://dc.lft.to/lastmile_qr_scan"}, "type": "electric_scooter", "lon": -77.022975, "name": "375c1e7a949a859c12339479c6c9ebd6", "bike_id": "375c1e7a949a859c12339479c6c9ebd6", "fusion_lat": 0.0, "is_reserved": 0, "lat": 38.909055333333335, "fusion_lon": 0.0, "is_disabled": 0}, {"rental_uris": {"android": "https://dc.lft.to/lastmile_qr_scan", "ios": "https://dc.lft.to/lastmile_qr_scan"}, "type": "electric_scooter", "lon": -76.980295, "name": "a38c0e56d9c0d6d34881555f830c7caf", "bike_id": "a38c0e56d9c0d6d34881555f830c7caf", "fusion_lat": 0.0, "is_reserved": 0, "lat": 38.857288, "fusion_lon": 0.0, "is_disabled": 0},