{"data": {"bikes": [{"rental_uris": {"ios": "https://dc.lft.to/lastmile_qr_scan", "android": "https://dc.lft.to/lastmile_qr_scan"}, "lat": 38.874212, "lon": -76.969095, "fusion_lat": 0.0, "name": "0607afa7827f9b8eeba0d107c7d9d341", "is_disabled": 0, "is_reserved": 0, "bike_id": "0607afa7827f9b8eeba0d107c7d9d341", "fusion_lon": 0.0, "type": "electric_scooter"}, {"rental_uris": {"ios": "https://dc.lft.to/lastmile_qr_scan", "android": "https://dc.lft.to/lastmile_qr_scan"}, "lat": 38.91959966666667, "lon": -77.00330966666667, "fusion_lat": 0.0, "name": "782ef1a72605e09c1ba7e3add902b339", "is_disabled": 0, "is_reserved": 0, "bike_id": "782ef1a72605e09c1ba7e3add902b339", "fusion_lon": 0.0, "type": "electric_scooter"}, {"rental_uris": {"ios": "https://dc.lft.to/lastmile_qr_scan", "android": "https://dc.lft.to/lastmile_qr_scan"}, "lat": 38.91561933333333, "lon": -77.01201366666666, "fusion_lat": 0.0, "name": "9ea136ca896cc88dc9479191ae82699d", "is_disabled": 0, "is_reserved": 0, "bike_id": "9ea136ca896cc88dc9479191ae82699d", "fusion_lon": 0.0, "type": "electric_scooter"}, {"rental_uris": {"ios": "https://dc.lft.to/lastmile_qr_scan", "android": "https://dc.lft.to/lastmile_qr_scan"}, "lat": 38.8786955, "lon": -76.9698535, "fusion_lat": 0.0, "name": "6759094e46b71fe8b94cfa2df48737d8", "is_disabled": 0, "is_reserved": 0, "bike_id": "6759094e46b71fe8b94cfa2df48737d8", "fusion_lon": 0.0, "type": "electric_scooter"}, {"rental_uris": {"ios": "https://dc.lft.to/lastmile_qr_scan", "android": "https://dc.lft.to/lastmile_qr_scan"}, "lat": 38.88742466666667, "lon": -77.025746, "fusion_lat": 0.0, "name": "76fb01a6fca88608e86e45bab62df35d", "is_disabled": 0, "is_reserved": 0, "bike_id": "76fb01a6fca88608e86e45bab62df35d", "fusion_lon": 0.0, "type": "electric_scooter"}, {"rental_uris": {"ios": "https://dc.lft.to/lastmile_qr_scan", "android": "https://dc.lft.to/lastmile_qr_scan"}, "lat": 38.881374, "lon": -77.0226245, "fusion_lat": 0.0, "name": "e05562f15200d3451657f1a50e63704b", "is_disabled": 0, "is_reserved": 0, "bike_id": "e05562f15200d3451657f1a50e63704b", "fusion_lon": 0.0, "type": "electric_scooter"}, {"rental_uris": {"ios": "https://dc.lft.to/lastmile_qr_scan", "android": "https://dc.lft.to/lastmile_qr_scan"}, "lat": 38.888489, "lon": -76.92678683333334, "fusion_lat": 0.0, "name": "445f3ccf2fd38a08488f59a19ddec16b", "is_disabled": 0, "is_reserved": 0, "bike_id": "445f3ccf2fd38a08488f59a19ddec16b", "fusion_lon": 0.0, "type": "electric_scooter"}, {"rental_uris": {"ios": "https://dc.lft.to/lastmile_qr_scan", "android": "https://dc.lft.to/lastmile_qr_scan"}, "lat": 38.926965833333334, "lon": -77.02275016666667, "fusion_lat": 0.0, "name": "f10e93220fee84b4c2e181d6ec78355d", "is_disabled": 0, "is_reserved": 0, "bike_id": "f10e93220fee84b4c2e181d6ec78355d", "fusion_lon": 0.0, "type": "electric_scooter"}, {"rental_uris": {"ios": "https://dc.lft.to/lastmile_qr_scan", "android": "https://dc.lft.to/lastmile_qr_scan"}, "lat": 38.91268783333334, "lon": -77.01675033333333, "fusion_lat": 0.0, "name": "65af164629c25ab869af03bc744a7991", "is_disabled": 0, "is_reserved": 0, "bike_id": "65af164629c25ab869af03bc744a7991", "fusion_lon": 0.0, "type": "electric_scooter"}, {"rental_uris": {"ios": "https://dc.lft.to/lastmile_qr_scan", "android": "https://dc.lft.to/lastmile_qr_scan"}, "lat": 38.868149, "lon": -76.980292, "fusion_lat": 0.0, "name": "70b7a3170e58c6e83a8950678edb1c12", "is_disabled": 0, "is_reserved": 0, "bike_id": "70b7a3170e58c6e83a8950678edb1c12", "fusion_lon": 0.0, "type": "electric_scooter"}, {"rental_uris": {"ios": "https://dc.lft.to/lastmile_qr_scan", "android": "https://dc.lft.to/lastmile_qr_scan"}, "lat": 38.9053435, "lon": -77.017142, "fusion_lat": 0.0, "name": "437d5ca960c1168eab0baec0c49de4ee", "is_disabled": 0, "is_reserved": 0, "bike_id": "437d5ca960c1168eab0baec0c49de4ee", "fusion_lon": 0.0, "type": "electric_scooter"}, {"rental_uris": {"ios": "https://dc.lft.to/lastmile_qr_scan", "android": "https://dc.lft.to/lastmile_qr_scan"}, "lat": 38.86684, "lon": -76.98577116666667, "fusion_lat": 0.0, "name": "b6016170f1eda77c627e905f9e4c6495", "is_disabled": 0, "is_reserved": 0, "bike_id": "b6016170f1eda77c627e905f9e4c6495", "fusion_lon": 0.0, "type": "electric_scooter"}, {"rental_uris": {"ios": "https://dc.lft.to/lastmile_qr_scan", "android": "https://dc.lft.to/lastmile_qr_scan"}, "lat": 38.90724633333333, "lon": -77.02382766666666, "fusion_lat": 0.0, "name": "e193b8028acacdeedf872da4d79681ba", "is_disabled": 0, "is_reserved": 0, "bike_id": "e193b8028acacdeedf872da4d79681ba", "fusion_lon": 0.0, "type": "electric_scooter"}, {"rental_uris": {"ios": "https://dc.lft.to/lastmile_qr_scan", "android": "https://dc.lft.to/lastmile_qr_scan"}, "lat": 39.024345, "lon": -77.1310205, "fusion_lat": 0.0, "name": "8559e73467df295303b421c5ee03be40", "is_disabled": 0, "is_reserved": 0, "bike_id": "8559e73467df295303b421c5ee03be40", "fusion_lon": 0.0, "type": "electric_bike"}, {"rental_uris": {"ios": "https://dc.lft.to/lastmile_qr_scan", "android": "https://dc.lft.to/lastmile_qr_scan"}, "lat": 38.90868533333333, "lon": -76.999649, "fusion_lat": 0.0, "name": "098654e2d4c17334e1f7409be7ec30aa", "is_disabled": 0, "is_reserved": 0, "bike_id": "098654e2d4c17334e1f7409be7ec30aa", "fusion_lon": 0.0, "type": "electric_scooter"}, {"rental_uris": {"ios": "https://dc.lft.to/lastmile_qr_scan", "android": "https://dc.lft.to/lastmile_qr_scan"}, "lat": 38.90429233333333, "lon": -77.04834566666666, "fusion_lat": 0.0, "name": "3691e4b7459584f8dcaa7727d795581d", "is_disabled": 0, "is_reserved": 0, "bike_id": "3691e4b7459584f8dcaa7727d795581d", "fusion_lon": 0.0, "type": "electric_scooter"}, {"rental_uris": {"ios": "https://dc.lft.to/lastmile_qr_scan", "android": "https://dc.lft.to/lastmile_qr_scan"}, "lat": 38.93459433333334, "lon": -76.96443133333334, "fusion_lat": 0.0, "name": "83585f9de4bd9df42380e354bfa97367", "is_disabled": 0, "is_reserved": 0, "bike_id": "83585f9de4bd9df42380e354bfa97367", "fusion_lon": 0.0, "type": "electric_scooter"}, {"rental_uris": {"ios": "https://dc.lft.to/lastmile_qr_scan", "android": "https://dc.lft.to/lastmile_qr_scan"}, "lat": 38.9146695, "lon": -77.04523133333333, "fusion_lat": 0.0, "name": "70ffb184c603b6bd9077287f04352f4a", "is_disabled": 0, "is_reserved": 0, "bike_id": "70ffb184c603b6bd9077287f04352f4a", "fusion_lon": 0.0, "type": "electric_scooter"}, {"rental_uris": {"ios": "https://dc.lft.to/lastmile_qr_scan", "android": "https://dc.lft.to/lastmile_qr_scan"}, "lat": 38.9308575, "lon": -77.037514, "fusion_lat": 0.0, "name": "9056afbb0541fbfb8e5ae13465df5719", "is_disabled": 0, "is_reserved": 0, "bike_id": "9056afbb0541fbfb8e5ae13465df5719", "fusion_lon": 0.0, "type": "electric_scooter"}, {"rental_uris": {"ios": "https://dc.lft.to/lastmile_qr_scan", "android": "https://dc.lft.to/lastmile_qr_scan"}, "lat": 38.89846166666667, "lon": -77.05301916666667, "fusion_lat": 0.0, "name": "ff5aa0b471559c71221821166cafcb08", "is_disabled": 0, "is_reserved": 0, "bike_id": "ff5aa0b471559c71221821166cafcb08", "fusion_lon": 0.0, "type": "electric_bike"}, {"rental_uris": {"ios": "https://dc.lft.to/lastmile_qr_scan", "android": "https://dc.lft.to/lastmile_qr_scan"}, "lat": 38.91772116666667, "lon": -77.02316566666667, "fusion_lat": 0.0, "name": "972579871b6a8d1195eed91a868f96c4", "is_disabled": 0, "is_reserved": 0, "bike_id": "972579871b6a8d1195eed91a868f96c4", "fusion_lon": 0.0, "type": "electric_scooter"}, {"rental_uris": {"ios": "https://dc.lft.to/lastmile_qr_scan", "android": "https://dc.lft.to/lastmile_qr_scan"}, "lat": 38.904746333333335, "lon": -77.02806766666667, "fusion_lat": 0.0, "name": "82f7a32302296f31264199d14e2486f8", "is_disabled": 0, "is_reserved": 0, "bike_id": "82f7a32302296f31264199d14e2486f8", "fusion_lon": 0.0, "type": "electric_scooter"}, {"rental_uris": {"ios": "https://dc.lft.to/lastmile_qr_scan", "android": "https://dc.lft.to/lastmile_qr_scan"}, "lat": 38.93144816666667, "lon": -77.0425775, "fusion_lat": 0.0, "name": "15399296ab50ca25e142b4e2985bc7b6", "is_disabled": 0, "is_reserved": 0, "bike_id": "15399296ab50ca25e142b4e2985bc7b6", "fusion_lon": 0.0, "type": "electric_scooter"}, {"rental_uris": {"ios": "https://dc.lft.to/lastmile_qr_scan", "android": "https://dc.lft.to/lastmile_qr_scan"}, "lat": 38.896164, "lon": -77.0444915, "fusion_lat": 0.0, "name": "a161f9d258aa48fc2590fc94aa3f8159", "is_disabled": 0, "is_reserved": 0, "bike_id": "a161f9d258aa48fc2590fc94aa3f8159", "fusion_lon": 0.0, "type": "electric_scooter"}, {"rental_uris": {"ios": "https://dc.lft.to/lastmile_qr_scan", "android": "https://dc.lft.to/lastmile_qr_scan"}, "lat": 38.86703166666667, "lon": -76.9871545, "fusion_lat": 0.0, "name": "9e0545b6ae892d0f3a9e17a89b118142", "is_disabled": 0, "is_reserved": 0, "bike_id": "9e0545b6ae892d0f3a9e17a89b118142", "fusion_lon": 0.0, "type": "electric_scooter"}, {"rental_uris": {"ios": "https://dc.lft.to/lastmile_qr_scan", "android": "https://dc.lft.to/lastmile_qr_scan"}, "lat": 38.918350833333335, "lon": -77.03520966666666, "fusion_lat": 0.0, "name": "cf1b01841092b3dfc423aadef78084da", "is_disabled": 0, "is_reserved": 0, "bike_id": "cf1b01841092b3dfc423aadef78084da", "fusion_lon": 0.0, "type": "electric_scooter"}, {"rental_uris": {"ios": "https://dc.lft.to/lastmile_qr_scan", "android": "https://dc.lft.to/lastmile_qr_scan"}, "lat": 38.916877, "lon": -77.02881683333334, "fusion_lat": 0.0, "name": "bea5ab823639718782d492290c625eeb", "is_disabled": 0, "is_reserved": 0, "bike_id": "bea5ab823639718782d492290c625eeb", "fusion_lon": 0.0, "type": "electric_scooter"}, {"rental_uris": {"ios": "https://dc.lft.to/lastmile_qr_scan", "android": "https://dc.lft.to/lastmile_qr_scan"}, "lat": 38.92051516666667, "lon": -77.04189316666667, "fusion_lat": 0.0, "name": "e239dff1a6bf4bea26be21d67aef97b6", "is_disabled": 0, "is_reserved": 0, "bike_id": "e239dff1a6bf4bea26be21d67aef97b6", "fusion_lon": 0.0, "type": "electric_scooter"}, {"rental_uris": {"ios": "https://dc.lft.to/lastmile_qr_scan", "android": "https://dc.lft.to/lastmile_qr_scan"}, "lat": 38.91544116666667, "lon": -77.044511, "fusion_lat": 0.0, "name": "47e7cddc9a183fa8ae30f407421ca070", "is_disabled": 0, "is_reserved": 0, "bike_id": "47e7cddc9a183fa8ae30f407421ca070", "fusion_lon": 0.0, "type": "electric_scooter"}, {"rental_uris": {"ios": "https://dc.lft.to/lastmile_qr_scan", "android": "https://dc.lft.to/lastmile_qr_scan"}, "lat": 38.871708166666664, "lon": -77.00682266666666, "fusion_lat": 0.0, "name": "6f6c6adc41e96b948fc919922b3d2235", "is_disabled": 0, "is_reserved": 0, "bike_id": "6f6c6adc41e96b948fc919922b3d2235", "fusion_lon": 0.0, "type": "electric_scooter"}, {"rental_uris": {"ios": "https://dc.lft.to/lastmile_qr_scan", "android": "https://dc.lft.to/lastmile_qr_scan"}, "lat": 38.92231966666667, "lon": -77.03888183333333, "fusion_lat": 0.0, "name": "a43265bd410c3de93c86288a13a4de8a", "is_disabled": 0, "is_reserved": 0, "bike_id": "a43265bd410c3de93c86288a13a4de8a", "fusion_lon": 0.0, "type": "electric_scooter"}, {"rental_uris": {"ios": "https://dc.lft.to/lastmile_qr_scan", "android": "https://dc.lft.to/lastmile_qr_scan"}, "lat": 38.906806, "lon": -77.02375916666666, "fusion_lat": 0.0, "name": "da77c3d00af6cfe3d8c14209b5d33140", "is_disabled": 0, "is_reserved": 0, "bike_id": "da77c3d00af6cfe3d8c14209b5d33140", "fusion_lon": 0.0, "type": "electric_scooter"}, {"rental_uris": {"ios": "https://dc.lft.to/lastmile_qr_scan", "android": "https://dc.lft.to/lastmile_qr_scan"}, "lat": 38.900309, "lon": -77.01177983333334, "fusion_lat": 0.0, "name": "e90b78e817633bf5b0262debfb6a10dc", "is_disabled": 0, "is_reserved": 0, "bike_id": "e90b78e817633bf5b0262debfb6a10dc", "fusion_lon": 0.0, "type": "electric_scooter"}, {"rental_uris": {"ios": "https://dc.lft.to/lastmile_qr_scan", "android": "https://dc.lft.to/lastmile_qr_scan"}, "lat": 38.93225016666667, "lon": -77.0386835, "fusion_lat": 0.0, "name": "a90266187ff833a1315cb7374980b5b7", "is_disabled": 0, "is_reserved": 0, "bike_id": "a90266187ff833a1315cb7374980b5b7", "fusion_lon": 0.0, "type": "electric_scooter"}, {"rental_uris": {"ios": "https://dc.lft.to/lastmile_qr_scan", "android": "https://dc.lft.to/lastmile_qr_scan"}, "lat": 38.86682066666667, "lon": -76.98569433333333, "fusion_lat": 0.0, "name": "394099ad27e57717a5a4d451e59474ff", "is_disabled": 0, "is_reserved": 0, "bike_id": "394099ad27e57717a5a4d451e59474ff", "fusion_lon": 0.0, "type": "electric_scooter"}, {"rental_uris": {"ios": "https://dc.lft.to/lastmile_qr_scan", "android": "https://dc.lft.to/lastmile_qr_scan"}, "lat": 38.92266166666667, "lon": -77.036802, "fusion_lat": 0.0, "name": "d823d021b538dfad84094499637ff2ef", "is_disabled": 0, "is_reserved": 0, "bike_id": "d823d021b538dfad84094499637ff2ef", "fusion_lon": 0.0, "type": "electric_scooter"}, {"rental_uris": {"ios": "https://dc.lft.to/lastmile_qr_scan", "android": "https://dc.lft.to/lastmile_qr_scan"}, "lat": 38.90066433333333, "lon": -77.02707766666667, "fusion_lat": 0.0, "name": "3610c58adc6e5291e3c9e24e5d7940c8", "is_disabled": 0, "is_reserved": 0, "bike_id": "3610c58adc6e5291e3c9e24e5d7940c8", "fusion_lon": 0.0, "type": "electric_scooter"}, {"rental_uris": {"ios": "https://dc.lft.to/lastmile_qr_scan", "android": "https://dc.lft.to/lastmile_qr_scan"}, "lat": 38.90551166666667, "lon": -77.02693333333333, "fusion_lat": 0.0, "name": "cf3e46e44b1abc9432bb04c517e68d11", "is_disabled": 0, "is_reserved": 0, "bike_id": "cf3e46e44b1abc9432bb04c517e68d11", "fusion_lon": 0.0, "type": "electric_scooter"}, {"rental_uris": {"ios": "https://dc.lft.to/lastmile_qr_scan", "android": "https://dc.lft.to/lastmile_qr_scan"}, "lat": 38.8668525, "lon": -76.98580749999999, "fusion_lat": 0.0, "name": "915061f9cbbbb90e6e3258b17c4b5303", "is_disabled": 0, "is_reserved": 0, "bike_id": "915061f9cbbbb90e6e3258b17c4b5303", "fusion_lon": 0.0, "type": "electric_scooter"}, {"rental_uris": {"ios": "https://dc.lft.to/lastmile_qr_scan", "android": "https://dc.lft.to/lastmile_qr_scan"}, "lat": 38.933573333333335, "lon": -77.062071, "fusion_lat": 0.0, "name": "14f18fd0ef2637d14402ca615a5cef30", "is_disabled": 0, "is_reserved": 0, "bike_id": "14f18fd0ef2637d14402ca615a5cef30", "fusion_lon": 0.0, "type": "electric_scooter"}, {"rental_uris": {"ios": "https://dc.lft.to/lastmile_qr_scan", "android": "https://dc.lft.to/lastmile_qr_scan"}, "lat": 38.91699916666666, "lon": -77.04088483333334, "fusion_lat": 0.0, "name": "dd74fb276a0af77a6134567386094ae0", "is_disabled": 0, "is_reserved": 0, "bike_id": "dd74fb276a0af77a6134567386094ae0", "fusion_lon": 0.0, "type": "electric_scooter"}, {"rental_uris": {"ios": "https://dc.lft.to/lastmile_qr_scan", "android": "https://dc.lft.to/lastmile_qr_scan"}, "lat": 38.925402166666665, "lon": -77.02132983333334, "fusion_lat": 0.0, "name": "f1a339f7be6b6e13c84ad797324084b8", "is_disabled": 0, "is_reserved": 0, "bike_id": "f1a339f7be6b6e13c84ad797324084b8", "fusion_lon": 0.0, "type": "electric_scooter"}, {"rental_uris": {"ios": "https://dc.lft.to/lastmile_qr_scan", "android": "https://dc.lft.to/lastmile_qr_scan"}, "lat": 38.93701466666667, "lon": -77.0560855, "fusion_lat": 0.0, "name": "dfa2d3a21c0e558d04a39ffe7ddbea66", "is_disabled": 0, "is_reserved": 0, "bike_id": "dfa2d3a21c0e558d04a39ffe7ddbea66", "fusion_lon": 0.0, "type": "electric_bike"}, {"rental_uris": {"ios": "https://dc.lft.to/lastmile_qr_scan", "android": "https://dc.lft.to/lastmile_qr_scan"}, "lat": 38.899117333333336, "lon": -77.02174666666667, "fusion_lat": 0.0, "name": "3986f86405027165829b86cc10490543", "is_disabled": 0, "is_reserved": 0, "bike_id": "3986f86405027165829b86cc10490543", "fusion_lon": 0.0, "type": "electric_scooter"}, {"rental_uris": {"ios": "https://dc.lft.to/lastmile_qr_scan", "android": "https://dc.lft.to/lastmile_qr_scan"}, "lat": 38.90101083333333, "lon": -77.0121805, "fusion_lat": 0.0, "name": "bec7e2672fd2cb38db26845729fd8d4d", "is_disabled": 0, "is_reserved": 0, "bike_id": "bec7e2672fd2cb38db26845729fd8d4d", "fusion_lon": 0.0, "type": "electric_scooter"}, {"rental_uris": {"ios": "https://dc.lft.to/lastmile_qr_scan", "android": "https://dc.lft.to/lastmile_qr_scan"}, "lat": 38.915375, "lon": -77.01227066666667, "fusion_lat": 0.0, "name": "5a0f7dc321135c6c7e304efbaa44a5ed", "is_disabled": 0, "is_reserved": 0, "bike_id": "5a0f7dc321135c6c7e304efbaa44a5ed", "fusion_lon": 0.0, "type": "electric_scooter"}, {"rental_uris": {"ios": "https://dc.lft.to/lastmile_qr_scan", "android": "https://dc.lft.to/lastmile_qr_scan"}, "lat": 38.887142, "lon": -77.01778016666667, "fusion_lat": 0.0, "name": "51bc5d27629f6a1331ffce4c565f53b8", "is_disabled": 0, "is_reserved": 0, "bike_id": "51bc5d27629f6a1331ffce4c565f53b8", "fusion_lon": 0.0, "type": "electric_scooter"}, {"rental_uris": {"ios": "https://dc.lft.to/lastmile_qr_scan", "android": "https://dc.lft.to/lastmile_qr_scan"}, "lat": 38.9548555, "lon": -77.07707616666667, "fusion_lat": 0.0, "name": "45051e75a809cd846672e729fa8889c4", "is_disabled": 0, "is_reserved": 0, "bike_id": "45051e75a809cd846672e729fa8889c4", "fusion_lon": 0.0, "type": "electric_bike"}, {"rental_uris": {"ios": "https://dc.lft.to/lastmile_qr_scan", "android": "https://dc.lft.to/lastmile_qr_scan"}, "lat": 38.917919499999996, "lon": -77.04359133333334, "fusion_lat": 0.0, "name": "8262ceb1c61a11840cb0e55906718782", "is_disabled": 0, "is_reserved": 0, "bike_id": "8262ceb1c61a11840cb0e55906718782", "fusion_lon": 0.0, "type": "electric_scooter"}, {"rental_uris": {"ios": "https://dc.lft.to/lastmile_qr_scan", "android": "https://dc.lft.to/lastmile_qr_scan"}, "lat": 38.92047183333333, "lon": -77.03412366666667, "fusion_lat": 0.0, "name": "ccc51159bfdb036601bb922071b4e66c", "is_disabled": 0, "is_reserved": 0, "bike_id": "ccc51159bfdb036601bb922071b4e66c", "fusion_lon": 0.0, "type": "electric_scooter"}, {"rental_uris": {"ios": "https://dc.lft.to/lastmile_qr_scan", "android": "https://dc.lft.to/lastmile_qr_scan"}, "lat": 38.83158533333334, "lon": -76.9954505, "fusion_lat": 0.0, "name": "1461a54a814e95811aa25ae0fe87aba9", "is_disabled": 0, "is_reserved": 0, "bike_id": "1461a54a814e95811aa25ae0fe87aba9", "fusion_lon": 0.0, "type": "electric_bike"}, {"rental_uris": {"ios": "https://dc.lft.to/lastmile_qr_scan", "android": "https://dc.lft.to/lastmile_qr_scan"}, "lat": 38.90502, "lon": -77.06885783333334, "fusion_lat": 0.0, "name": "0724e71081ab37fe29e4cdcd605760cd", "is_disabled": 0, "is_reserved": 0, "bike_id": "0724e71081ab37fe29e4cdcd605760cd", "fusion_lon": 0.0, "type": "electric_scooter"}, {"rental_uris": {"ios": "https://dc.lft.to/lastmile_qr_scan", "android": "https://dc.lft.to/lastmile_qr_scan"}, "lat": 38.901102333333334, "lon": -76.98337033333334, "fusion_lat": 0.0, "name": "29e23e054e2257ea0314e9227db1befa", "is_disabled": 0, "is_reserved": 0, "bike_id": "29e23e054e2257ea0314e9227db1befa", "fusion_lon": 0.0, "type": "electric_scooter"}, {"rental_uris": {"ios": "https://dc.lft.to/lastmile_qr_scan", "android": "https://dc.lft.to/lastmile_qr_scan"}, "lat": 38.8971705, "lon": -77.02747283333333, "fusion_lat": 0.0, "name": "c20bb1ebea3f86e01abcfc1fba18ad13", "is_disabled": 0, "is_reserved": 0, "bike_id": "c20bb1ebea3f86e01abcfc1fba18ad13", "fusion_lon": 0.0, "type": "electric_scooter"}, {"rental_uris": {"ios": "https://dc.lft.to/lastmile_qr_scan", "android": "https://dc.lft.to/lastmile_qr_scan"}, "lat": 38.9331205, "lon": -77.07263466666667, "fusion_lat": 0.0, "name": "328ab5ebdd8bd7f07804b0ac9be27126", "is_disabled": 0, "is_reserved": 0, "bike_id": "328ab5ebdd8bd7f07804b0ac9be27126", "fusion_lon": 0.0, "type": "electric_scooter"}, {"rental_uris": {"ios": "https://dc.lft.to/lastmile_qr_scan", "android": "https://dc.lft.to/lastmile_qr_scan"}, "lat": 38.89822566666667, "lon": -77.02795933333333, "fusion_lat": 0.0, "name": "188adba9d6e336bb6eeb72b98e176123", "is_disabled": 0, "is_reserved": 0, "bike_id": "188adba9d6e336bb6eeb72b98e176123", "fusion_lon": 0.0, "type": "electric_scooter"}, {"rental_uris": {"ios": "https://dc.lft.to/lastmile_qr_scan", "android": "https://dc.lft.to/lastmile_qr_scan"}, "lat": 38.89968266666666, "lon": -77.031926, "fusion_lat": 0.0, "name": "aa8ba97d8f872842bf8a27f4d915b0f1", "is_disabled": 0, "is_reserved": 0, "bike_id": "aa8ba97d8f872842bf8a27f4d915b0f1", "fusion_lon": 0.0, "type": "electric_scooter"}, {"rental_uris": {"ios": "https://dc.lft.to/lastmile_qr_scan", "android": "https://dc.lft.to/lastmile_qr_scan"}, "lat": 38.917172666666666, "lon": -77.03176183333333, "fusion_lat": 0.0, "name": "ce039974e26342cf54663944227d1402", "is_disabled": 0, "is_reserved": 0, "bike_id": "ce039974e26342cf54663944227d1402", "fusion_lon": 0.0, "type": "electric_scooter"}, {"rental_uris": {"ios": "https://dc.lft.to/lastmile_qr_scan", "android": "https://dc.lft.to/lastmile_qr_scan"}, "lat": 38.89743816666667, "lon": -76.920429, "fusion_lat": 0.0, "name": "bd0273834e58d996ce538df638af6489", "is_disabled": 0, "is_reserved": 0, "bike_id": "bd0273834e58d996ce538df638af6489", "fusion_lon": 0.0, "type": "electric_bike"}, {"rental_uris": {"ios": "https://dc.lft.to/lastmile_qr_scan", "android": "https://dc.lft.to/lastmile_qr_scan"}, "lat": 38.91714616666667, "lon": -77.02893066666667, "fusion_lat": 0.0, "name": "18dbfe026c6fb2d82c7bdbad9610fb29", "is_disabled": 0, "is_reserved": 0, "bike_id": "18dbfe026c6fb2d82c7bdbad9610fb29", "fusion_lon": 0.0, "type": "electric_scooter"}, {"rental_uris": {"ios": "https://dc.lft.to/lastmile_qr_scan", "android": "https://dc.lft.to/lastmile_qr_scan"}, "lat": 38.90259366666667, "lon": -77.05451183333334, "fusion_lat": 0.0, "name": "f4f809e7b0bd877f06e51eb28becd39c", "is_disabled": 0, "is_reserved": 0, "bike_id": "f4f809e7b0bd877f06e51eb28becd39c", "fusion_lon": 0.0, "type": "electric_scooter"}, {"rental_uris": {"ios": "https://dc.lft.to/lastmile_qr_scan", "android": "https://dc.lft.to/lastmile_qr_scan"}, "lat": 38.8871105, "lon": -77.017771, "fusion_lat": 0.0, "name": "95bbb23edffbb26e56d906194ee007d7", "is_disabled": 0, "is_reserved": 0, "bike_id": "95bbb23edffbb26e56d906194ee007d7", "fusion_lon": 0.0, "type": "electric_scooter"}, {"rental_uris": {"ios": "https://dc.lft.to/lastmile_qr_scan", "android": "https://dc.lft.to/lastmile_qr_scan"}, "lat": 38.918221, "lon": -77.04945533333333, "fusion_lat": 0.0, "name": "713380cfd7c0a10c42506a562bf87e0c", "is_disabled": 0, "is_reserved": 0, "bike_id": "713380cfd7c0a10c42506a562bf87e0c", "fusion_lon": 0.0, "type": "electric_scooter"}, {"rental_uris": {"ios": "https://dc.lft.to/lastmile_qr_scan", "android": "https://dc.lft.to/lastmile_qr_scan"}, "lat": 38.87469633333333, "lon": -77.00558966666667, "fusion_lat": 0.0, "name": "8cde0f949a24b2f2d67a6886ab8b3378", "is_disabled": 0, "is_reserved": 0, "bike_id": "8cde0f949a24b2f2d67a6886ab8b3378", "fusion_lon": 0.0, "type": "electric_scooter"}, {"rental_uris": {"ios": "https://dc.lft.to/lastmile_qr_scan", "android": "https://dc.lft.to/lastmile_qr_scan"}, "lat": 38.90284116666667, "lon": -77.03314116666667, "fusion_lat": 0.0, "name": "54b82209e73db57bb43a78791dfa84c8", "is_disabled": 0, "is_reserved": 0, "bike_id": "54b82209e73db57bb43a78791dfa84c8", "fusion_lon": 0.0, "type": "electric_scooter"}, {"rental_uris": {"ios": "https://dc.lft.to/lastmile_qr_scan", "android": "https://dc.lft.to/lastmile_qr_scan"}, "lat": 38.909731666666666, "lon": -77.03395683333333, "fusion_lat": 0.0, "name": "1b26caccf18a9566e4bfaf67dccb9c2f", "is_disabled": 0, "is_reserved": 0, "bike_id": "1b26caccf18a9566e4bfaf67dccb9c2f", "fusion_lon": 0.0, "type": "electric_scooter"}, {"rental_uris": {"ios": "https://dc.lft.to/lastmile_qr_scan", "android": "https://dc.lft.to/lastmile_qr_scan"}, "lat": 38.89947083333333, "lon": -77.00346316666666, "fusion_lat": 0.0, "name": "20defe34b0c845958565b95a78a8e8c4", "is_disabled": 0, "is_reserved": 0, "bike_id": "20defe34b0c845958565b95a78a8e8c4", "fusion_lon": 0.0, "type": "electric_scooter"}, {"rental_uris": {"ios": "https://dc.lft.to/lastmile_qr_scan", "android": "https://dc.lft.to/lastmile_qr_scan"}, "lat": 38.90614433333333, "lon": -77.01281866666666, "fusion_lat": 0.0, "name": "1ca8d663a1198af7f402220226a7d559", "is_disabled": 0, "is_reserved": 0, "bike_id": "1ca8d663a1198af7f402220226a7d559", "fusion_lon": 0.0, "type": "electric_scooter"}, {"rental_uris": {"ios": "https://dc.lft.to/lastmile_qr_scan", "android": "https://dc.lft.to/lastmile_qr_scan"}, "lat": 38.8874395, "lon": -77.01729233333333, "fusion_lat": 0.0, "name": "5027460539990df0496076309f6e8f37", "is_disabled": 0, "is_reserved": 0, "bike_id": "5027460539990df0496076309f6e8f37", "fusion_lon": 0.0, "type": "electric_scooter"}, {"rental_uris": {"ios": "https://dc.lft.to/lastmile_qr_scan", "android": "https://dc.lft.to/lastmile_qr_scan"}, "lat": 38.939536, "lon": -77.0724125, "fusion_lat": 0.0, "name": "b4ce318aa10d3d547007f888f98502f3", "is_disabled": 0, "is_reserved": 0, "bike_id": "b4ce318aa10d3d547007f888f98502f3", "fusion_lon": 0.0, "type": "electric_scooter"}, {"rental_uris": {"ios": "https://dc.lft.to/lastmile_qr_scan", "android": "https://dc.lft.to/lastmile_qr_scan"}, "lat": 38.924926666666664, "lon": -77.037345, "fusion_lat": 0.0, "name": "ad3d186f41b1b3eea89da298c9805d39", "is_disabled": 0, "is_reserved": 0, "bike_id": "ad3d186f41b1b3eea89da298c9805d39", "fusion_lon": 0.0, "type": "electric_scooter"}, {"rental_uris": {"ios": "https://dc.lft.to/lastmile_qr_scan", "android": "https://dc.lft.to/lastmile_qr_scan"}, "lat": 38.90436916666667, "lon": -77.02817366666666, "fusion_lat": 0.0, "name": "9e388b40a3892bf1df7f7c28599bbedd", "is_disabled": 0, "is_reserved": 0, "bike_id": "9e388b40a3892bf1df7f7c28599bbedd", "fusion_lon": 0.0, "type": "electric_scooter"}, {"rental_uris": {"ios": "https://dc.lft.to/lastmile_qr_scan", "android": "https://dc.lft.to/lastmile_qr_scan"}, "lat": 38.91680083333333, "lon": -77.02301683333333, "fusion_lat": 0.0, "name": "8858d728c128538bc7271d682f454b87", "is_disabled": 0, "is_reserved": 0, "bike_id": "8858d728c128538bc7271d682f454b87", "fusion_lon": 0.0, "type": "electric_scooter"}, {"rental_uris": {"ios": "https://dc.lft.to/lastmile_qr_scan", "android": "https://dc.lft.to/lastmile_qr_scan"}, "lat": 38.9156975, "lon": -77.033902, "fusion_lat": 0.0, "name": "31e33a85dfd1daccaa4bea6208b3e032", "is_disabled": 0, "is_reserved": 0, "bike_id": "31e33a85dfd1daccaa4bea6208b3e032", "fusion_lon": 0.0, "type": "electric_scooter"}, {"rental_uris": {"ios": "https://dc.lft.to/lastmile_qr_scan", "android": "https://dc.lft.to/lastmile_qr_scan"}, "lat": 38.90146433333334, "lon": -77.000911, "fusion_lat": 0.0, "name": "707c7cb84e3da3fa6bd36af7b72686ff", "is_disabled": 0, "is_reserved": 0, "bike_id": "707c7cb84e3da3fa6bd36af7b72686ff", "fusion_lon": 0.0, "type": "electric_scooter"}, {"rental_uris": {"ios": "https://dc.lft.to/lastmile_qr_scan", "android": "https://dc.lft.to/lastmile_qr_scan"}, "lat": 38.8877175, "lon": -77.02618766666667, "fusion_lat": 0.0, "name": "fb68e1ee4bec158119f660e34ce85e43", "is_disabled": 0, "is_reserved": 0, "bike_id": "fb68e1ee4bec158119f660e34ce85e43", "fusion_lon": 0.0, "type": "electric_scooter"}, {"rental_uris": {"ios": "https://dc.lft.to/lastmile_qr_scan", "android": "https://dc.lft.to/lastmile_qr_scan"}, "lat": 38.930752, "lon": -77.02836833333333, "fusion_lat": 0.0, "name": "a479ecbb57eb5f42e4080eec050220be", "is_disabled": 0, "is_reserved": 0, "bike_id": "a479ecbb57eb5f42e4080eec050220be", "fusion_lon": 0.0, "type": "electric_scooter"}, {"rental_uris": {"ios": "https://dc.lft.to/lastmile_qr_scan", "android": "https://dc.lft.to/lastmile_qr_scan"}, "lat": 38.90259666666667, "lon": -77.03448266666666, "fusion_lat": 0.0, "name": "5555b9e377008bfa4eb3d38dd1346933", "is_disabled": 0, "is_reserved": 0, "bike_id": "5555b9e377008bfa4eb3d38dd1346933", "fusion_lon": 0.0, "type": "electric_scooter"}, {"rental_uris": {"ios": "https://dc.lft.to/lastmile_qr_scan", "android": "https://dc.lft.to/lastmile_qr_scan"}, "lat": 38.90125833333333, "lon": -77.0324145, "fusion_lat": 0.0, "name": "915a758e99ff749f30524070eafc20ef", "is_disabled": 0, "is_reserved": 0, "bike_id": "915a758e99ff749f30524070eafc20ef", "fusion_lon": 0.0, "type": "electric_scooter"}, {"rental_uris": {"ios": "https://dc.lft.to/lastmile_qr_scan", "android": "https://dc.lft.to/lastmile_qr_scan"}, "lat": 38.86698483333333, "lon": -76.9871115, "fusion_lat": 0.0, "name": "e527f61ccac5dd3cc18a3b310d9d42f2", "is_disabled": 0, "is_reserved": 0, "bike_id": "e527f61ccac5dd3cc18a3b310d9d42f2", "fusion_lon": 0.0, "type": "electric_scooter"}, {"rental_uris": {"ios": "https://dc.lft.to/lastmile_qr_scan", "android": "https://dc.lft.to/lastmile_qr_scan"}, "lat": 38.97858566666667, "lon": -76.94047633333334, "fusion_lat": 0.0, "name": "b7947e586c3c1630d7f074ae3940031a", "is_disabled": 0, "is_reserved": 0, "bike_id": "b7947e586c3c1630d7f074ae3940031a", "fusion_lon": 0.0, "type": "electric_bike"}, {"rental_uris": {"ios": "https://dc.lft.to/lastmile_qr_scan", "android": "https://dc.lft.to/lastmile_qr_scan"}, "lat": 38.902596333333335, "lon": -77.03972066666667, "fusion_lat": 0.0, "name": "cad7ed77b64eba34bd143a67e643d5fc", "is_disabled": 0, "is_reserved": 0, "bike_id": "cad7ed77b64eba34bd143a67e643d5fc", "fusion_lon": 0.0, "type": "electric_scooter"}, {"rental_uris": {"ios": "https://dc.lft.to/lastmile_qr_scan", "android": "https://dc.lft.to/lastmile_qr_scan"}, "lat": 38.867002, "lon": -76.98716783333333, "fusion_lat": 0.0, "name": "b14990aeaa355b174e89626e010f140c", "is_disabled": 0, "is_reserved": 0, "bike_id": "b14990aeaa355b174e89626e010f140c", "fusion_lon": 0.0, "type": "electric_scooter"}, {"rental_uris": {"ios": "https://dc.lft.to/lastmile_qr_scan", "android": "https://dc.lft.to/lastmile_qr_scan"}, "lat": 38.8788615, "lon": -77.0191805, "fusion_lat": 0.0, "name": "c753ad12b1cbde345ae351b814229adb", "is_disabled": 0, "is_reserved": 0, "bike_id": "c753ad12b1cbde345ae351b814229adb", "fusion_lon": 0.0, "type": "electric_scooter"}, {"rental_uris": {"ios": "https://dc.lft.to/lastmile_qr_scan", "android": "https://dc.lft.to/lastmile_qr_scan"}, "lat": 38.928233, "lon": -77.02255816666667, "fusion_lat": 0.0, "name": "26b6d26ff3b8f171385cd7ee1a28f948", "is_disabled": 0, "is_reserved": 0, "bike_id": "26b6d26ff3b8f171385cd7ee1a28f948", "fusion_lon": 0.0, "type": "electric_scooter"}, {"rental_uris": {"ios": "https://dc.lft.to/lastmile_qr_scan", "android": "https://dc.lft.to/lastmile_qr_scan"}, "lat": 38.89867316666667, "lon": -76.94637166666666, "fusion_lat": 0.0, "name": "cb6280a2b20268c64f22f18e11183167", "is_disabled": 0, "is_reserved": 0, "bike_id": "cb6280a2b20268c64f22f18e11183167", "fusion_lon": 0.0, "type": "electric_scooter"}, {"rental_uris": {"ios": "https://dc.lft.to/lastmile_qr_scan", "android": "https://dc.lft.to/lastmile_qr_scan"}, "lat": 38.90009583333333, "lon": -77.021879, "fusion_lat": 0.0, "name": "e8b1301c9d14ff527058c42bc63905f6", "is_disabled": 0, "is_reserved": 0, "bike_id": "e8b1301c9d14ff527058c42bc63905f6", "fusion_lon": 0.0, "type": "electric_scooter"}, {"rental_uris": {"ios": "https://dc.lft.to/lastmile_qr_scan", "android": "https://dc.lft.to/lastmile_qr_scan"}, "lat": 38.99101733333333, "lon": -76.99367616666666, "fusion_lat": 0.0, "name": "7b8d2e61db08d20995c369be947e43a5", "is_disabled": 0, "is_reserved": 0, "bike_id": "7b8d2e61db08d20995c369be947e43a5", "fusion_lon": 0.0, "type": "electric_bike"}, {"rental_uris": {"ios": "https://dc.lft.to/lastmile_qr_scan", "android": "https://dc.lft.to/lastmile_qr_scan"}, "lat": 38.858943833333335, "lon": -76.997253, "fusion_lat": 0.0, "name": "c20c7adbe73a857b3e2f101fc9cfc6df", "is_disabled": 0, "is_reserved": 0, "bike_id": "c20c7adbe73a857b3e2f101fc9cfc6df", "fusion_lon": 0.0, "type": "electric_scooter"}, {"rental_uris": {"ios": "https://dc.lft.to/lastmile_qr_scan", "android": "https://dc.lft.to/lastmile_qr_scan"}, "lat": 38.915642166666665, "lon": -77.031416, "fusion_lat": 0.0, "name": "2df9a91f94ba0b80c6008616ce6f2d42", "is_disabled": 0, "is_reserved": 0, "bike_id": "2df9a91f94ba0b80c6008616ce6f2d42", "fusion_lon": 0.0, "type": "electric_scooter"}, {"rental_uris": {"ios": "https://dc.lft.to/lastmile_qr_scan", "android": "https://dc.lft.to/lastmile_qr_scan"}, "lat": 38.89220783333333, "lon": -77.04865016666666, "fusion_lat": 0.0, "name": "ad9871fb74cec0a5b72eb4bebc0f9757", "is_disabled": 0, "is_reserved": 0, "bike_id": "ad9871fb74cec0a5b72eb4bebc0f9757", "fusion_lon": 0.0, "type": "electric_scooter"}, {"rental_uris": {"ios": "https://dc.lft.to/lastmile_qr_scan", "android": "https://dc.lft.to/lastmile_qr_scan"}, "lat": 38.883125666666665, "lon": -77.00342816666667, "fusion_lat": 0.0, "name": "2622bdcc20789c6c279f999caf826d63", "is_disabled": 0, "is_reserved": 0, "bike_id": "2622bdcc20789c6c279f999caf826d63", "fusion_lon": 0.0, "type": "electric_scooter"}, {"rental_uris": {"ios": "https://dc.lft.to/lastmile_qr_scan", "android": "https://dc.lft.to/lastmile_qr_scan"}, "lat": 38.884980666666664, "lon": -77.00729266666667, "fusion_lat": 0.0, "name": "219ff6e194a377a3a681c71dcc89df94", "is_disabled": 0, "is_reserved": 0, "bike_id": "219ff6e194a377a3a681c71dcc89df94", "fusion_lon": 0.0, "type": "electric_scooter"}, {"rental_uris": {"ios": "https://dc.lft.to/lastmile_qr_scan", "android": "https://dc.lft.to/lastmile_qr_scan"}, "lat": 38.90891516666667, "lon": -77.03203733333334, "fusion_lat": 0.0, "name": "267fac4bbe626ef9503322794031aff8", "is_disabled": 0, "is_reserved": 0, "bike_id": "267fac4bbe626ef9503322794031aff8", "fusion_lon": 0.0, "type": "electric_scooter"}, {"rental_uris": {"ios": "https://dc.lft.to/lastmile_qr_scan", "android": "https://dc.lft.to/lastmile_qr_scan"}, "lat": 38.916706166666664, "lon": -76.981767, "fusion_lat": 0.0, "name": "7625c783526de0978c00507ccb704853", "is_disabled": 0, "is_reserved": 0, "bike_id": "7625c783526de0978c00507ccb704853", "fusion_lon": 0.0, "type": "electric_scooter"}, {"rental_uris": {"ios": "https://dc.lft.to/lastmile_qr_scan", "android": "https://dc.lft.to/lastmile_qr_scan"}, "lat": 38.907207, "lon": -77.0023285, "fusion_lat": 0.0, "name": "5279ff0cfd208549660c0f509d024b88", "is_disabled": 0, "is_reserved": 0, "bike_id": "5279ff0cfd208549660c0f509d024b88", "fusion_lon": 0.0, "type": "electric_scooter"}, {"rental_uris": {"ios": "https://dc.lft.to/lastmile_qr_scan", "android": "https://dc.lft.to/lastmile_qr_scan"}, "lat": 38.892403333333334, "lon": -77.04499383333334, "fusion_lat": 0.0, "name": "9ac3bb2b61fe6b760cc50a3cd1d257d9", "is_disabled": 0, "is_reserved": 0, "bike_id": "9ac3bb2b61fe6b760cc50a3cd1d257d9", "fusion_lon": 0.0, "type": "electric_scooter"}, {"rental_uris": {"ios": "https://dc.lft.to/lastmile_qr_scan", "android": "https://dc.lft.to/lastmile_qr_scan"}, "lat": 38.87814516666667, "lon": -76.97172383333333, "fusion_lat": 0.0, "name": "902402f6992dd6c95a9f138d90ecc7f3", "is_disabled": 0, "is_reserved": 0, "bike_id": "902402f6992dd6c95a9f138d90ecc7f3", "fusion_lon": 0.0, "type": "electric_scooter"}, {"rental_uris": {"ios": "https://dc.lft.to/lastmile_qr_scan", "android": "https://dc.lft.to/lastmile_qr_scan"}, "lat": 38.92630883333333, "lon": -77.03785733333333, "fusion_lat": 0.0, "name": "b4deadaf161074edea5f71fd2984ca21", "is_disabled": 0, "is_reserved": 0, "bike_id": "b4deadaf161074edea5f71fd2984ca21", "fusion_lon": 0.0, "type": "electric_scooter"}, {"rental_uris": {"ios": "https://dc.lft.to/lastmile_qr_scan", "android": "https://dc.lft.to/lastmile_qr_scan"}, "lat": 38.89789233333333, "lon": -77.03197833333333, "fusion_lat": 0.0, "name": "c75237906abec548dee5941925819e3b", "is_disabled": 0, "is_reserved": 0, "bike_id": "c75237906abec548dee5941925819e3b", "fusion_lon": 0.0, "type": "electric_scooter"}, {"rental_uris": {"ios": "https://dc.lft.to/lastmile_qr_scan", "android": "https://dc.lft.to/lastmile_qr_scan"}, "lat": 38.91863416666666, "lon": -77.04028916666667, "fusion_lat": 0.0, "name": "2f411a214082c44ec4b45a8b26827931", "is_disabled": 0, "is_reserved": 0, "bike_id": "2f411a214082c44ec4b45a8b26827931", "fusion_lon": 0.0, "type": "electric_scooter"}, {"rental_uris": {"ios": "https://dc.lft.to/lastmile_qr_scan", "android": "https://dc.lft.to/lastmile_qr_scan"}, "lat": 38.902573, "lon": -77.02681883333334, "fusion_lat": 0.0, "name": "30770cadebed5bed7a4b8983f092b571", "is_disabled": 0, "is_reserved": 0, "bike_id": "30770cadebed5bed7a4b8983f092b571", "fusion_lon": 0.0, "type": "electric_scooter"}, {"rental_uris": {"ios": "https://dc.lft.to/lastmile_qr_scan", "android": "https://dc.lft.to/lastmile_qr_scan"}, "lat": 38.879078, "lon": -77.00728933333333, "fusion_lat": 0.0, "name": "05f15c46bf21ea134c2bcdf70fca9802", "is_disabled": 0, "is_reserved": 0, "bike_id": "05f15c46bf21ea134c2bcdf70fca9802", "fusion_lon": 0.0, "type": "electric_scooter"}, {"rental_uris": {"ios": "https://dc.lft.to/lastmile_qr_scan", "android": "https://dc.lft.to/lastmile_qr_scan"}, "lat": 38.9001005, "lon": -77.04035533333334, "fusion_lat": 0.0, "name": "e48c5687def70deecf22b7b3fb8fb8d9", "is_disabled": 0, "is_reserved": 0, "bike_id": "e48c5687def70deecf22b7b3fb8fb8d9", "fusion_lon": 0.0, "type": "electric_scooter"}, {"rental_uris": {"ios": "https://dc.lft.to/lastmile_qr_scan", "android": "https://dc.lft.to/lastmile_qr_scan"}, "lat": 38.897383166666664, "lon": -76.94724233333334, "fusion_lat": 0.0, "name": "e71eec37a511428fdff28b61b125e955", "is_disabled": 0, "is_reserved": 0, "bike_id": "e71eec37a511428fdff28b61b125e955", "fusion_lon": 0.0, "type": "electric_scooter"}, {"rental_uris": {"ios": "https://dc.lft.to/lastmile_qr_scan", "android": "https://dc.lft.to/lastmile_qr_scan"}, "lat": 38.91173633333333, "lon": -77.02830583333333, "fusion_lat": 0.0, "name": "5146c3942bc9b4458ea855ff32765a67", "is_disabled": 0, "is_reserved": 0, "bike_id": "5146c3942bc9b4458ea855ff32765a67", "fusion_lon": 0.0, "type": "electric_scooter"}, {"rental_uris": {"ios": "https://dc.lft.to/lastmile_qr_scan", "android": "https://dc.lft.to/lastmile_qr_scan"}, "lat": 38.87462566666667, "lon": -77.0049155, "fusion_lat": 0.0, "name": "300cc8b0960be64dbda1b8231e211ec0", "is_disabled": 0, "is_reserved": 0, "bike_id": "300cc8b0960be64dbda1b8231e211ec0", "fusion_lon": 0.0, "type": "electric_scooter"}, {"rental_uris": {"ios": "https://dc.lft.to/lastmile_qr_scan", "android": "https://dc.lft.to/lastmile_qr_scan"}, "lat": 38.91384866666667, "lon": -77.032082, "fusion_lat": 0.0, "name": "4566c93da7027041490a717f56227a1e", "is_disabled": 0, "is_reserved": 0, "bike_id": "4566c93da7027041490a717f56227a1e", "fusion_lon": 0.0, "type": "electric_scooter"}, {"rental_uris": {"ios": "https://dc.lft.to/lastmile_qr_scan", "android": "https://dc.lft.to/lastmile_qr_scan"}, "lat": 38.88674016666667, "lon": -77.019828, "fusion_lat": 0.0, "name": "337c9cb4949165d572681f2cd9856a9e", "is_disabled": 0, "is_reserved": 0, "bike_id": "337c9cb4949165d572681f2cd9856a9e", "fusion_lon": 0.0, "type": "electric_scooter"}, {"rental_uris": {"ios": "https://dc.lft.to/lastmile_qr_scan", "android": "https://dc.lft.to/lastmile_qr_scan"}, "lat": 38.858942166666665, "lon": -77.11864533333333, "fusion_lat": 0.0, "name": "b3132f99f527ccdbb8681d1855e0d2ef", "is_disabled": 0, "is_reserved": 0, "bike_id": "b3132f99f527ccdbb8681d1855e0d2ef", "fusion_lon": 0.0, "type": "electric_bike"}, {"rental_uris": {"ios": "https://dc.lft.to/lastmile_qr_scan", "android": "https://dc.lft.to/lastmile_qr_scan"}, "lat": 38.916972666666666, "lon": -77.02316283333333, "fusion_lat": 0.0, "name": "209c5c090c4af39803d587c6246af4d7", "is_disabled": 0, "is_reserved": 0, "bike_id": "209c5c090c4af39803d587c6246af4d7", "fusion_lon": 0.0, "type": "electric_scooter"}, {"rental_uris": {"ios": "https://dc.lft.to/lastmile_qr_scan", "android": "https://dc.lft.to/lastmile_qr_scan"}, "lat": 38.89542733333333, "lon": -77.00384533333333, "fusion_lat": 0.0, "name": "a83b13a01c5e83a74ca500d15c6a190f", "is_disabled": 0, "is_reserved": 0, "bike_id": "a83b13a01c5e83a74ca500d15c6a190f", "fusion_lon": 0.0, "type": "electric_scooter"}, {"rental_uris": {"ios": "https://dc.lft.to/lastmile_qr_scan", "android": "https://dc.lft.to/lastmile_qr_scan"}, "lat": 38.88742966666667, "lon": -77.02575583333333, "fusion_lat": 0.0, "name": "7cf8cd68fb3cb47935256a97d66855a9", "is_disabled": 0, "is_reserved": 0, "bike_id": "7cf8cd68fb3cb47935256a97d66855a9", "fusion_lon": 0.0, "type": "electric_scooter"}, {"rental_uris": {"ios": "https://dc.lft.to/lastmile_qr_scan", "android": "https://dc.lft.to/lastmile_qr_scan"}, "lat": 38.898663666666664, "lon": -76.946407, "fusion_lat": 0.0, "name": "7efd95fe83fc3dd1569aa32f49217938", "is_disabled": 0, "is_reserved": 0, "bike_id": "7efd95fe83fc3dd1569aa32f49217938", "fusion_lon": 0.0, "type": "electric_scooter"}, {"rental_uris": {"ios": "https://dc.lft.to/lastmile_qr_scan", "android": "https://dc.lft.to/lastmile_qr_scan"}, "lat": 38.8970155, "lon": -77.02143033333333, "fusion_lat": 0.0, "name": "9a16393ffcc4e7cc5cb2911819f36bd2", "is_disabled": 0, "is_reserved": 0, "bike_id": "9a16393ffcc4e7cc5cb2911819f36bd2", "fusion_lon": 0.0, "type": "electric_scooter"}, {"rental_uris": {"ios": "https://dc.lft.to/lastmile_qr_scan", "android": "https://dc.lft.to/lastmile_qr_scan"}, "lat": 38.896383, "lon": -77.02209033333334, "fusion_lat": 0.0, "name": "970582083af84cb6d63d69d89b61f2ac", "is_disabled": 0, "is_reserved": 0, "bike_id": "970582083af84cb6d63d69d89b61f2ac", "fusion_lon": 0.0, "type": "electric_scooter"}, {"rental_uris": {"ios": "https://dc.lft.to/lastmile_qr_scan", "android": "https://dc.lft.to/lastmile_qr_scan"}, "lat": 38.92903233333333, "lon": -77.01634916666667, "fusion_lat": 0.0, "name": "bfb83207bb5ce7ae0c7454146712b6e0", "is_disabled": 0, "is_reserved": 0, "bike_id": "bfb83207bb5ce7ae0c7454146712b6e0", "fusion_lon": 0.0, "type": "electric_scooter"}, {"rental_uris": {"ios": "https://dc.lft.to/lastmile_qr_scan", "android": "https://dc.lft.to/lastmile_qr_scan"}, "lat": 38.911196, "lon": -77.044609, "fusion_lat": 0.0, "name": "3b86e29c7d507b15b39c2f64011b3814", "is_disabled": 0, "is_reserved": 0, "bike_id": "3b86e29c7d507b15b39c2f64011b3814", "fusion_lon": 0.0, "type": "electric_scooter"}, {"rental_uris": {"ios": "https://dc.lft.to/lastmile_qr_scan", "android": "https://dc.lft.to/lastmile_qr_scan"}, "lat": 39.0148175, "lon": -77.054958, "fusion_lat": 0.0, "name": "024478fcfa7c1533c257c54e9ab67c68", "is_disabled": 0, "is_reserved": 0, "bike_id": "024478fcfa7c1533c257c54e9ab67c68", "fusion_lon": 0.0, "type": "electric_bike"}, {"rental_uris": {"ios": "https://dc.lft.to/lastmile_qr_scan", "android": "https://dc.lft.to/lastmile_qr_scan"}, "lat": 38.90255783333333, "lon": -77.01761, "fusion_lat": 0.0, "name": "c084c1a8cf68a04da0bdf5adc131ae4f", "is_disabled": 0, "is_reserved": 0, "bike_id": "c084c1a8cf68a04da0bdf5adc131ae4f", "fusion_lon": 0.0, "type": "electric_scooter"}, {"rental_uris": {"ios": "https://dc.lft.to/lastmile_qr_scan", "android": "https://dc.lft.to/lastmile_qr_scan"}, "lat": 38.91473366666666, "lon": -77.04555416666666, "fusion_lat": 0.0, "name": "7697797de30ba45ade26dae24d70d5c1", "is_disabled": 0, "is_reserved": 0, "bike_id": "7697797de30ba45ade26dae24d70d5c1", "fusion_lon": 0.0, "type": "electric_scooter"}, {"rental_uris": {"ios": "https://dc.lft.to/lastmile_qr_scan", "android": "https://dc.lft.to/lastmile_qr_scan"}, "lat": 38.862594, "lon": -76.98352266666667, "fusion_lat": 0.0, "name": "a7709f0cf26b68e64a307f85798d9dbc", "is_disabled": 0, "is_reserved": 0, "bike_id": "a7709f0cf26b68e64a307f85798d9dbc", "fusion_lon": 0.0, "type": "electric_bike"}, {"rental_uris": {"ios": "https://dc.lft.to/lastmile_qr_scan", "android": "https://dc.lft.to/lastmile_qr_scan"}, "lat": 38.8764735, "lon": -76.9650755, "fusion_lat": 0.0, "name": "0b81aa73979dba0d227d28aaa6ddd3c6", "is_disabled": 0, "is_reserved": 0, "bike_id": "0b81aa73979dba0d227d28aaa6ddd3c6", "fusion_lon": 0.0, "type": "electric_scooter"}, {"rental_uris": {"ios": "https://dc.lft.to/lastmile_qr_scan", "android": "https://dc.lft.to/lastmile_qr_scan"}, "lat": 38.907266, "lon": -77.0237935, "fusion_lat": 0.0, "name": "3ecb68e67793083c5b3595e609ced0bb", "is_disabled": 0, "is_reserved": 0, "bike_id": "3ecb68e67793083c5b3595e609ced0bb", "fusion_lon": 0.0, "type": "electric_scooter"}, {"rental_uris": {"ios": "https://dc.lft.to/lastmile_qr_scan", "android": "https://dc.lft.to/lastmile_qr_scan"}, "lat": 38.907673333333335, "lon": -77.034695, "fusion_lat": 0.0, "name": "89ba93077d128a52db86be2f816179be", "is_disabled": 0, "is_reserved": 0, "bike_id": "89ba93077d128a52db86be2f816179be", "fusion_lon": 0.0, "type": "electric_scooter"}, {"rental_uris": {"ios": "https://dc.lft.to/lastmile_qr_scan", "android": "https://dc.lft.to/lastmile_qr_scan"}, "lat": 38.901397, "lon": -76.99159366666666, "fusion_lat": 0.0, "name": "ca160f3c539a2aa21f836a28545a843f", "is_disabled": 0, "is_reserved": 0, "bike_id": "ca160f3c539a2aa21f836a28545a843f", "fusion_lon": 0.0, "type": "electric_scooter"}, {"rental_uris": {"ios": "https://dc.lft.to/lastmile_qr_scan", "android": "https://dc.lft.to/lastmile_qr_scan"}, "lat": 38.9284585, "lon": -77.01419583333333, "fusion_lat": 0.0, "name": "6a6b1156eeee2d409a306371cb56f64a", "is_disabled": 0, "is_reserved": 0, "bike_id": "6a6b1156eeee2d409a306371cb56f64a", "fusion_lon": 0.0, "type": "electric_scooter"}, {"rental_uris": {"ios": "https://dc.lft.to/lastmile_qr_scan", "android": "https://dc.lft.to/lastmile_qr_scan"}, "lat": 38.915577666666664, "lon": -77.03342933333333, "fusion_lat": 0.0, "name": "0931961030852fce49485da3ed91ca19", "is_disabled": 0, "is_reserved": 0, "bike_id": "0931961030852fce49485da3ed91ca19", "fusion_lon": 0.0, "type": "electric_scooter"}, {"rental_uris": {"ios": "https://dc.lft.to/lastmile_qr_scan", "android": "https://dc.lft.to/lastmile_qr_scan"}, "lat": 38.88755733333333, "lon": -76.90085583333334, "fusion_lat": 0.0, "name": "1c57db7f37949740dffd1db5051c2beb", "is_disabled": 0, "is_reserved": 0, "bike_id": "1c57db7f37949740dffd1db5051c2beb", "fusion_lon": 0.0, "type": "electric_bike"}, {"rental_uris": {"ios": "https://dc.lft.to/lastmile_qr_scan", "android": "https://dc.lft.to/lastmile_qr_scan"}, "lat": 38.905553833333336, "lon": -77.02726366666667, "fusion_lat": 0.0, "name": "9f037f9b6790acf50b23fd51cb80a25b", "is_disabled": 0, "is_reserved": 0, "bike_id": "9f037f9b6790acf50b23fd51cb80a25b", "fusion_lon": 0.0, "type": "electric_scooter"}, {"rental_uris": {"ios": "https://dc.lft.to/lastmile_qr_scan", "android": "https://dc.lft.to/lastmile_qr_scan"}, "lat": 38.90880966666667, "lon": -76.99131516666667, "fusion_lat": 0.0, "name": "d56de073346c121d35dfa1084c9b0185", "is_disabled": 0, "is_reserved": 0, "bike_id": "d56de073346c121d35dfa1084c9b0185", "fusion_lon": 0.0, "type": "electric_bike"}, {"rental_uris": {"ios": "https://dc.lft.to/lastmile_qr_scan", "android": "https://dc.lft.to/lastmile_qr_scan"}, "lat": 38.927301666666665, "lon": -77.0343105, "fusion_lat": 0.0, "name": "65ec7134e48d84c4d3ff6884f93e6497", "is_disabled": 0, "is_reserved": 0, "bike_id": "65ec7134e48d84c4d3ff6884f93e6497", "fusion_lon": 0.0, "type": "electric_scooter"}, {"rental_uris": {"ios": "https://dc.lft.to/lastmile_qr_scan", "android": "https://dc.lft.to/lastmile_qr_scan"}, "lat": 38.914655833333335, "lon": -77.02179216666667, "fusion_lat": 0.0, "name": "1c701252f2c223379965f850bab52ff7", "is_disabled": 0, "is_reserved": 0, "bike_id": "1c701252f2c223379965f850bab52ff7", "fusion_lon": 0.0, "type": "electric_scooter"}, {"rental_uris": {"ios": "https://dc.lft.to/lastmile_qr_scan", "android": "https://dc.lft.to/lastmile_qr_scan"}, "lat": 38.9175505, "lon": -77.02717683333333, "fusion_lat": 0.0, "name": "bb38d8643b13d3479ae90bf3c0678659", "is_disabled": 0, "is_reserved": 0, "bike_id": "bb38d8643b13d3479ae90bf3c0678659", "fusion_lon": 0.0, "type": "electric_scooter"}, {"rental_uris": {"ios": "https://dc.lft.to/lastmile_qr_scan", "android": "https://dc.lft.to/lastmile_qr_scan"}, "lat": 38.93229933333333, "lon": -76.99521383333334, "fusion_lat": 0.0, "name": "d88408222f34d60c15297d08e6bdf3b4", "is_disabled": 0, "is_reserved": 0, "bike_id": "d88408222f34d60c15297d08e6bdf3b4", "fusion_lon": 0.0, "type": "electric_scooter"}, {"rental_uris": {"ios": "https://dc.lft.to/lastmile_qr_scan", "android": "https://dc.lft.to/lastmile_qr_scan"}, "lat": 38.883727, "lon": -76.99544683333333, "fusion_lat": 0.0, "name": "04b132f06e2bc19b4d1aea8988913bbf", "is_disabled": 0, "is_reserved": 0, "bike_id": "04b132f06e2bc19b4d1aea8988913bbf", "fusion_lon": 0.0, "type": "electric_scooter"}, {"rental_uris": {"ios": "https://dc.lft.to/lastmile_qr_scan", "android": "https://dc.lft.to/lastmile_qr_scan"}, "lat": 38.89610316666667, "lon": -77.012185, "fusion_lat": 0.0, "name": "cbf8fc446a92128174339e9978f9fdcf", "is_disabled": 0, "is_reserved": 0, "bike_id": "cbf8fc446a92128174339e9978f9fdcf", "fusion_lon": 0.0, "type": "electric_scooter"}, {"rental_uris": {"ios": "https://dc.lft.to/lastmile_qr_scan", "android": "https://dc.lft.to/lastmile_qr_scan"}, "lat": 38.900458666666665, "lon": -76.9828785, "fusion_lat": 0.0, "name": "369edc099ec718a4ff448e32437e9252", "is_disabled": 0, "is_reserved": 0, "bike_id": "369edc099ec718a4ff448e32437e9252", "fusion_lon": 0.0, "type": "electric_scooter"}, {"rental_uris": {"ios": "https://dc.lft.to/lastmile_qr_scan", "android": "https://dc.lft.to/lastmile_qr_scan"}, "lat": 38.907721, "lon": -77.037678, "fusion_lat": 0.0, "name": "7cc5cc2685cd663f424c0ae446763c6d", "is_disabled": 0, "is_reserved": 0, "bike_id": "7cc5cc2685cd663f424c0ae446763c6d", "fusion_lon": 0.0, "type": "electric_scooter"}, {"rental_uris": {"ios": "https://dc.lft.to/lastmile_qr_scan", "android": "https://dc.lft.to/lastmile_qr_scan"}, "lat": 38.844699, "lon": -76.97857233333333, "fusion_lat": 0.0, "name": "8eb38bada7e6c19b47efa9349500b356", "is_disabled": 0, "is_reserved": 0, "bike_id": "8eb38bada7e6c19b47efa9349500b356", "fusion_lon": 0.0, "type": "electric_bike"}, {"rental_uris": {"ios": "https://dc.lft.to/lastmile_qr_scan", "android": "https://dc.lft.to/lastmile_qr_scan"}, "lat": 38.884833, "lon": -77.03475833333333, "fusion_lat": 0.0, "name": "3ac091eb16d3e7d59599ad436899b4a2", "is_disabled": 0, "is_reserved": 0, "bike_id": "3ac091eb16d3e7d59599ad436899b4a2", "fusion_lon": 0.0, "type": "electric_scooter"}, {"rental_uris": {"ios": "https://dc.lft.to/lastmile_qr_scan", "android": "https://dc.lft.to/lastmile_qr_scan"}, "lat": 38.96677716666667, "lon": -77.0225025, "fusion_lat": 0.0, "name": "1a32a4b6fc330fee20f97f86ba8bb333", "is_disabled": 0, "is_reserved": 0, "bike_id": "1a32a4b6fc330fee20f97f86ba8bb333", "fusion_lon": 0.0, "type": "electric_bike"}, {"rental_uris": {"ios": "https://dc.lft.to/lastmile_qr_scan", "android": "https://dc.lft.to/lastmile_qr_scan"}, "lat": 38.9234005, "lon": -77.0350595, "fusion_lat": 0.0, "name": "11f19e98844c09c9ae53bd418ae6a0d4", "is_disabled": 0, "is_reserved": 0, "bike_id": "11f19e98844c09c9ae53bd418ae6a0d4", "fusion_lon": 0.0, "type": "electric_scooter"}, {"rental_uris": {"ios": "https://dc.lft.to/lastmile_qr_scan", "android": "https://dc.lft.to/lastmile_qr_scan"}, "lat": 38.90577483333333, "lon": -77.03427416666666, "fusion_lat": 0.0, "name": "d39fbaf86cdde5c7fbfd421bc2b32dfe", "is_disabled": 0, "is_reserved": 0, "bike_id": "d39fbaf86cdde5c7fbfd421bc2b32dfe", "fusion_lon": 0.0, "type": "electric_scooter"}, {"rental_uris": {"ios": "https://dc.lft.to/lastmile_qr_scan", "android": "https://dc.lft.to/lastmile_qr_scan"}, "lat": 38.901913666666665, "lon": -76.978799, "fusion_lat": 0.0, "name": "eb4afc1fb6e9f4c4e649ec33f1699699", "is_disabled": 0, "is_reserved": 0, "bike_id": "eb4afc1fb6e9f4c4e649ec33f1699699", "fusion_lon": 0.0, "type": "electric_scooter"}, {"rental_uris": {"ios": "https://dc.lft.to/lastmile_qr_scan", "android": "https://dc.lft.to/lastmile_qr_scan"}, "lat": 38.91418433333333, "lon": -77.02411516666666, "fusion_lat": 0.0, "name": "0727998ec98368b77c5fd158017fb6dd", "is_disabled": 0, "is_reserved": 0, "bike_id": "0727998ec98368b77c5fd158017fb6dd", "fusion_lon": 0.0, "type": "electric_scooter"}, {"rental_uris": {"ios": "https://dc.lft.to/lastmile_qr_scan", "android": "https://dc.lft.to/lastmile_qr_scan"}, "lat": 38.914144666666665, "lon": -77.04165466666667, "fusion_lat": 0.0, "name": "c009591d055810a9fb994fdb174ab5e1", "is_disabled": 0, "is_reserved": 0, "bike_id": "c009591d055810a9fb994fdb174ab5e1", "fusion_lon": 0.0, "type": "electric_scooter"}, {"rental_uris": {"ios": "https://dc.lft.to/lastmile_qr_scan", "android": "https://dc.lft.to/lastmile_qr_scan"}, "lat": 38.92114483333334, "lon": -77.01768033333333, "fusion_lat": 0.0, "name": "4cdbadf46419a194f9710f853b192fb1", "is_disabled": 0, "is_reserved": 0, "bike_id": "4cdbadf46419a194f9710f853b192fb1", "fusion_lon": 0.0, "type": "electric_scooter"}, {"rental_uris": {"ios": "https://dc.lft.to/lastmile_qr_scan", "android": "https://dc.lft.to/lastmile_qr_scan"}, "lat": 38.83248533333333, "lon": -76.94633233333333, "fusion_lat": 0.0, "name": "3d46526c234a2cb88e8fe25eae021b74", "is_disabled": 0, "is_reserved": 0, "bike_id": "3d46526c234a2cb88e8fe25eae021b74", "fusion_lon": 0.0, "type": "electric_bike"}, {"rental_uris": {"ios": "https://dc.lft.to/lastmile_qr_scan", "android": "https://dc.lft.to/lastmile_qr_scan"}, "lat": 38.884401833333335, "lon": -76.9962, "fusion_lat": 0.0, "name": "9d82892023bca73605d8f93015878a09", "is_disabled": 0, "is_reserved": 0, "bike_id": "9d82892023bca73605d8f93015878a09", "fusion_lon": 0.0, "type": "electric_scooter"}, {"rental_uris": {"ios": "https://dc.lft.to/lastmile_qr_scan", "android": "https://dc.lft.to/lastmile_qr_scan"}, "lat": 38.91985016666667, "lon": -77.02505833333333, "fusion_lat": 0.0, "name": "014df399594695467eca92fc81437fcf", "is_disabled": 0, "is_reserved": 0, "bike_id": "014df399594695467eca92fc81437fcf", "fusion_lon": 0.0, "type": "electric_scooter"}, {"rental_uris": {"ios": "https://dc.lft.to/lastmile_qr_scan", "android": "https://dc.lft.to/lastmile_qr_scan"}, "lat": 38.903881166666665, "lon": -77.048527, "fusion_lat": 0.0, "name": "2b21aed19ecf243928ea8281f2a4e168", "is_disabled": 0, "is_reserved": 0, "bike_id": "2b21aed19ecf243928ea8281f2a4e168", "fusion_lon": 0.0, "type": "electric_scooter"}, {"rental_uris": {"ios": "https://dc.lft.to/lastmile_qr_scan", "android": "https://dc.lft.to/lastmile_qr_scan"}, "lat": 38.89822566666667, "lon": -77.03050566666667, "fusion_lat": 0.0, "name": "5b39873e7b93707d73859aced47d18ca", "is_disabled": 0, "is_reserved": 0, "bike_id": "5b39873e7b93707d73859aced47d18ca", "fusion_lon": 0.0, "type": "electric_scooter"}, {"rental_uris": {"ios": "https://dc.lft.to/lastmile_qr_scan", "android": "https://dc.lft.to/lastmile_qr_scan"}, "lat": 39.03430783333334, "lon": -77.043096, "fusion_lat": 0.0, "name": "c490d754f63a2763cd2673acd52b2e8f", "is_disabled": 0, "is_reserved": 0, "bike_id": "c490d754f63a2763cd2673acd52b2e8f", "fusion_lon": 0.0, "type": "electric_bike"}, {"rental_uris": {"ios": "https://dc.lft.to/lastmile_qr_scan", "android": "https://dc.lft.to/lastmile_qr_scan"}, "lat": 38.9232025, "lon": -77.045175, "fusion_lat": 0.0, "name": "e4bf625502926d153a330155caf74906", "is_disabled": 0, "is_reserved": 0, "bike_id": "e4bf625502926d153a330155caf74906", "fusion_lon": 0.0, "type": "electric_scooter"}, {"rental_uris": {"ios": "https://dc.lft.to/lastmile_qr_scan", "android": "https://dc.lft.to/lastmile_qr_scan"}, "lat": 38.9291175, "lon": -77.0325975, "fusion_lat": 0.0, "name": "c8ee8c7b80381c30722006c8ce1e3fc3", "is_disabled": 0, "is_reserved": 0, "bike_id": "c8ee8c7b80381c30722006c8ce1e3fc3", "fusion_lon": 0.0, "type": "electric_scooter"}, {"rental_uris": {"ios": "https://dc.lft.to/lastmile_qr_scan", "android": "https://dc.lft.to/lastmile_qr_scan"}, "lat": 38.908546, "lon": -76.99796733333334, "fusion_lat": 0.0, "name": "8e818228a9f713e41a3d4a03104776b5", "is_disabled": 0, "is_reserved": 0, "bike_id": "8e818228a9f713e41a3d4a03104776b5", "fusion_lon": 0.0, "type": "electric_scooter"}, {"rental_uris": {"ios": "https://dc.lft.to/lastmile_qr_scan", "android": "https://dc.lft.to/lastmile_qr_scan"}, "lat": 38.884705333333336, "lon": -76.95666, "fusion_lat": 0.0, "name": "93403c260c19a5af6e4964a7e81defb0", "is_disabled": 0, "is_reserved": 0, "bike_id": "93403c260c19a5af6e4964a7e81defb0", "fusion_lon": 0.0, "type": "electric_bike"}, {"rental_uris": {"ios": "https://dc.lft.to/lastmile_qr_scan", "android": "https://dc.lft.to/lastmile_qr_scan"}, "lat": 38.90075933333333, "lon": -77.02711116666667, "fusion_lat": 0.0, "name": "cbf4cd1e9fdfbaf8bfd0d640745dd8de", "is_disabled": 0, "is_reserved": 0, "bike_id": "cbf4cd1e9fdfbaf8bfd0d640745dd8de", "fusion_lon": 0.0, "type": "electric_scooter"}, {"rental_uris": {"ios": "https://dc.lft.to/lastmile_qr_scan", "android": "https://dc.lft.to/lastmile_qr_scan"}, "lat": 38.90615233333333, "lon": -77.01210216666666, "fusion_lat": 0.0, "name": "5c23196ee304821859ab1b2523db7f04", "is_disabled": 0, "is_reserved": 0, "bike_id": "5c23196ee304821859ab1b2523db7f04", "fusion_lon": 0.0, "type": "electric_scooter"}, {"rental_uris": {"ios": "https://dc.lft.to/lastmile_qr_scan", "android": "https://dc.lft.to/lastmile_qr_scan"}, "lat": 38.9147215, "lon": -77.0435125, "fusion_lat": 0.0, "name": "0f5d8813096c5e557cd76d7ecb4f3fd4", "is_disabled": 0, "is_reserved": 0, "bike_id": "0f5d8813096c5e557cd76d7ecb4f3fd4", "fusion_lon": 0.0, "type": "electric_scooter"}, {"rental_uris": {"ios": "https://dc.lft.to/lastmile_qr_scan", "android": "https://dc.lft.to/lastmile_qr_scan"}, "lat": 38.92863466666667, "lon": -77.00555816666666, "fusion_lat": 0.0, "name": "e85d26a23dc90e51cfb3d01639a2c58a", "is_disabled": 0, "is_reserved": 0, "bike_id": "e85d26a23dc90e51cfb3d01639a2c58a", "fusion_lon": 0.0, "type": "electric_scooter"}, {"rental_uris": {"ios": "https://dc.lft.to/lastmile_qr_scan", "android": "https://dc.lft.to/lastmile_qr_scan"}, "lat": 38.90966016666667, "lon": -77.03416416666667, "fusion_lat": 0.0, "name": "adc0505f41257f6cea8522716800c180", "is_disabled": 0, "is_reserved": 0, "bike_id": "adc0505f41257f6cea8522716800c180", "fusion_lon": 0.0, "type": "electric_scooter"}, {"rental_uris": {"ios": "https://dc.lft.to/lastmile_qr_scan", "android": "https://dc.lft.to/lastmile_qr_scan"}, "lat": 38.905672833333334, "lon": -76.97785033333334, "fusion_lat": 0.0, "name": "0d14179cb68da138ce13a878e2139f67", "is_disabled": 0, "is_reserved": 0, "bike_id": "0d14179cb68da138ce13a878e2139f67", "fusion_lon": 0.0, "type": "electric_scooter"}, {"rental_uris": {"ios": "https://dc.lft.to/lastmile_qr_scan", "android": "https://dc.lft.to/lastmile_qr_scan"}, "lat": 38.8957005, "lon": -76.93027216666667, "fusion_lat": 0.0, "name": "1132c100869c5d123f8620b14ed34db4", "is_disabled": 0, "is_reserved": 0, "bike_id": "1132c100869c5d123f8620b14ed34db4", "fusion_lon": 0.0, "type": "electric_scooter"}, {"rental_uris": {"ios": "https://dc.lft.to/lastmile_qr_scan", "android": "https://dc.lft.to/lastmile_qr_scan"}, "lat": 38.87757766666667, "lon": -76.98682166666667, "fusion_lat": 0.0, "name": "7ae63c4efca2494c72f90b0f9060764f", "is_disabled": 0, "is_reserved": 0, "bike_id": "7ae63c4efca2494c72f90b0f9060764f", "fusion_lon": 0.0, "type": "electric_scooter"}, {"rental_uris": {"ios": "https://dc.lft.to/lastmile_qr_scan", "android": "https://dc.lft.to/lastmile_qr_scan"}, "lat": 38.89530883333333, "lon": -77.03352866666667, "fusion_lat": 0.0, "name": "63bbabf4590e405c8a377d77cabdb8c4", "is_disabled": 0, "is_reserved": 0, "bike_id": "63bbabf4590e405c8a377d77cabdb8c4", "fusion_lon": 0.0, "type": "electric_scooter"}, {"rental_uris": {"ios": "https://dc.lft.to/lastmile_qr_scan", "android": "https://dc.lft.to/lastmile_qr_scan"}, "lat": 38.8924525, "lon": -77.05028166666666, "fusion_lat": 0.0, "name": "c67b2fdef19bf3045fe2648e51cca477", "is_disabled": 0, "is_reserved": 0, "bike_id": "c67b2fdef19bf3045fe2648e51cca477", "fusion_lon": 0.0, "type": "electric_scooter"}, {"rental_uris": {"ios": "https://dc.lft.to/lastmile_qr_scan", "android": "https://dc.lft.to/lastmile_qr_scan"}, "lat": 38.898648666666666, "lon": -76.94640983333333, "fusion_lat": 0.0, "name": "3ee8a9d3dbc219ec2f69215941f7a807", "is_disabled": 0, "is_reserved": 0, "bike_id": "3ee8a9d3dbc219ec2f69215941f7a807", "fusion_lon": 0.0, "type": "electric_scooter"}, {"rental_uris": {"ios": "https://dc.lft.to/lastmile_qr_scan", "android": "https://dc.lft.to/lastmile_qr_scan"}, "lat": 38.952805, "lon": -77.01796733333333, "fusion_lat": 0.0, "name": "994c1020e72908d7e9d848327a538b7a", "is_disabled": 0, "is_reserved": 0, "bike_id": "994c1020e72908d7e9d848327a538b7a", "fusion_lon": 0.0, "type": "electric_scooter"}, {"rental_uris": {"ios": "https://dc.lft.to/lastmile_qr_scan", "android": "https://dc.lft.to/lastmile_qr_scan"}, "lat": 38.874835833333336, "lon": -76.96531633333333, "fusion_lat": 0.0, "name": "a46149abb9139af76f664e81900cdc58", "is_disabled": 0, "is_reserved": 0, "bike_id": "a46149abb9139af76f664e81900cdc58", "fusion_lon": 0.0, "type": "electric_bike"}, {"rental_uris": {"ios": "https://dc.lft.to/lastmile_qr_scan", "android": "https://dc.lft.to/lastmile_qr_scan"}, "lat": 38.91911133333333, "lon": -77.0333755, "fusion_lat": 0.0, "name": "628372c720aa84387e1b34d82a07e16e", "is_disabled": 0, "is_reserved": 0, "bike_id": "628372c720aa84387e1b34d82a07e16e", "fusion_lon": 0.0, "type": "electric_scooter"}, {"rental_uris": {"ios": "https://dc.lft.to/lastmile_qr_scan", "android": "https://dc.lft.to/lastmile_qr_scan"}, "lat": 38.9156665, "lon": -77.02006833333333, "fusion_lat": 0.0, "name": "28a1d4807008e93cd8c9f4e75a5b48a3", "is_disabled": 0, "is_reserved": 0, "bike_id": "28a1d4807008e93cd8c9f4e75a5b48a3", "fusion_lon": 0.0, "type": "electric_scooter"}, {"rental_uris": {"ios": "https://dc.lft.to/lastmile_qr_scan", "android": "https://dc.lft.to/lastmile_qr_scan"}, "lat": 38.89479566666667, "lon": -76.94859533333333, "fusion_lat": 0.0, "name": "d2ffbfd514990ded19547ecbe0d82ffe", "is_disabled": 0, "is_reserved": 0, "bike_id": "d2ffbfd514990ded19547ecbe0d82ffe", "fusion_lon": 0.0, "type": "electric_scooter"}, {"rental_uris": {"ios": "https://dc.lft.to/lastmile_qr_scan", "android": "https://dc.lft.to/lastmile_qr_scan"}, "lat": 38.8954425, "lon": -77.01099416666666, "fusion_lat": 0.0, "name": "57eeb2a39e7e58f6a75d1be396633fda", "is_disabled": 0, "is_reserved": 0, "bike_id": "57eeb2a39e7e58f6a75d1be396633fda", "fusion_lon": 0.0, "type": "electric_scooter"}, {"rental_uris": {"ios": "https://dc.lft.to/lastmile_qr_scan", "android": "https://dc.lft.to/lastmile_qr_scan"}, "lat": 38.887451, "lon": -77.01728933333334, "fusion_lat": 0.0, "name": "7b71eafa7d7a11aedeaa9b0a0c9374e8", "is_disabled": 0, "is_reserved": 0, "bike_id": "7b71eafa7d7a11aedeaa9b0a0c9374e8", "fusion_lon": 0.0, "type": "electric_scooter"}, {"rental_uris": {"ios": "https://dc.lft.to/lastmile_qr_scan", "android": "https://dc.lft.to/lastmile_qr_scan"}, "lat": 38.916079333333336, "lon": -77.02298716666667, "fusion_lat": 0.0, "name": "a4ed5dc2fecd6324432a202d7425edf9", "is_disabled": 0, "is_reserved": 0, "bike_id": "a4ed5dc2fecd6324432a202d7425edf9", "fusion_lon": 0.0, "type": "electric_scooter"}, {"rental_uris": {"ios": "https://dc.lft.to/lastmile_qr_scan", "android": "https://dc.lft.to/lastmile_qr_scan"}, "lat": 38.90140566666667, "lon": -77.04244516666667, "fusion_lat": 0.0, "name": "84b80fbbfa3f81110ad137506fb4ef64", "is_disabled": 0, "is_reserved": 0, "bike_id": "84b80fbbfa3f81110ad137506fb4ef64", "fusion_lon": 0.0, "type": "electric_scooter"}, {"rental_uris": {"ios": "https://dc.lft.to/lastmile_qr_scan", "android": "https://dc.lft.to/lastmile_qr_scan"}, "lat": 38.90622033333333, "lon": -77.04885633333333, "fusion_lat": 0.0, "name": "95dbdd89c1f7c0bb8b329defe8984992", "is_disabled": 0, "is_reserved": 0, "bike_id": "95dbdd89c1f7c0bb8b329defe8984992", "fusion_lon": 0.0, "type": "electric_scooter"}, {"rental_uris": {"ios": "https://dc.lft.to/lastmile_qr_scan", "android": "https://dc.lft.to/lastmile_qr_scan"}, "lat": 38.90424516666667, "lon": -76.97907816666667, "fusion_lat": 0.0, "name": "3d0bd5fb2adea752e2308a05773a05eb", "is_disabled": 0, "is_reserved": 0, "bike_id": "3d0bd5fb2adea752e2308a05773a05eb", "fusion_lon": 0.0, "type": "electric_scooter"}, {"rental_uris": {"ios": "https://dc.lft.to/lastmile_qr_scan", "android": "https://dc.lft.to/lastmile_qr_scan"}, "lat": 38.928812, "lon": -77.033516, "fusion_lat": 0.0, "name": "bd6427f2fb50e7e3377eb4ffc02fdd5c", "is_disabled": 0, "is_reserved": 0, "bike_id": "bd6427f2fb50e7e3377eb4ffc02fdd5c", "fusion_lon": 0.0, "type": "electric_scooter"}, {"rental_uris": {"ios": "https://dc.lft.to/lastmile_qr_scan", "android": "https://dc.lft.to/lastmile_qr_scan"}, "lat": 38.899486333333336, "lon": -77.07178816666666, "fusion_lat": 0.0, "name": "8fa4d1c7d9133b639edecd0beb15d191", "is_disabled": 0, "is_reserved": 0, "bike_id": "8fa4d1c7d9133b639edecd0beb15d191", "fusion_lon": 0.0, "type": "electric_scooter"}, {"rental_uris": {"ios": "https://dc.lft.to/lastmile_qr_scan", "android": "https://dc.lft.to/lastmile_qr_scan"}, "lat": 38.932148166666664, "lon": -77.0326905, "fusion_lat": 0.0, "name": "a4ad7669641a74f9739a22c28f87df52", "is_disabled": 0, "is_reserved": 0, "bike_id": "a4ad7669641a74f9739a22c28f87df52", "fusion_lon": 0.0, "type": "electric_scooter"}, {"rental_uris": {"ios": "https://dc.lft.to/lastmile_qr_scan", "android": "https://dc.lft.to/lastmile_qr_scan"}, "lat": 38.907601166666666, "lon": -77.01696783333334, "fusion_lat": 0.0, "name": "f5adfcd6e53b9bc77e031228b6d8dfd0", "is_disabled": 0, "is_reserved": 0, "bike_id": "f5adfcd6e53b9bc77e031228b6d8dfd0", "fusion_lon": 0.0, "type": "electric_scooter"}, {"rental_uris": {"ios": "https://dc.lft.to/lastmile_qr_scan", "android": "https://dc.lft.to/lastmile_qr_scan"}, "lat": 38.87562466666667, "lon": -76.95866433333333, "fusion_lat": 0.0, "name": "4aa8047af8c163886664b58b431066cd", "is_disabled": 0, "is_reserved": 0, "bike_id": "4aa8047af8c163886664b58b431066cd", "fusion_lon": 0.0, "type": "electric_scooter"}, {"rental_uris": {"ios": "https://dc.lft.to/lastmile_qr_scan", "android": "https://dc.lft.to/lastmile_qr_scan"}, "lat": 38.919822333333336, "lon": -77.02503883333333, "fusion_lat": 0.0, "name": "e0776b75d5db437ea10c2fd87d905062", "is_disabled": 0, "is_reserved": 0, "bike_id": "e0776b75d5db437ea10c2fd87d905062", "fusion_lon": 0.0, "type": "electric_scooter"}, {"rental_uris": {"ios": "https://dc.lft.to/lastmile_qr_scan", "android": "https://dc.lft.to/lastmile_qr_scan"}, "lat": 38.919603, "lon": -77.01394883333333, "fusion_lat": 0.0, "name": "f56d6d9122077d9c4e453eec523015ef", "is_disabled": 0, "is_reserved": 0, "bike_id": "f56d6d9122077d9c4e453eec523015ef", "fusion_lon": 0.0, "type": "electric_scooter"}, {"rental_uris": {"ios": "https://dc.lft.to/lastmile_qr_scan", "android": "https://dc.lft.to/lastmile_qr_scan"}, "lat": 38.93916866666667, "lon": -77.06046566666667, "fusion_lat": 0.0, "name": "3ec2b93f52289d9b179307e9b3de1ed1", "is_disabled": 0, "is_reserved": 0, "bike_id": "3ec2b93f52289d9b179307e9b3de1ed1", "fusion_lon": 0.0, "type": "electric_scooter"}, {"rental_uris": {"ios": "https://dc.lft.to/lastmile_qr_scan", "android": "https://dc.lft.to/lastmile_qr_scan"}, "lat": 38.91594383333333, "lon": -77.02302816666666, "fusion_lat": 0.0, "name": "9c817306dab41cb15a83b8a8a8e993c6", "is_disabled": 0, "is_reserved": 0, "bike_id": "9c817306dab41cb15a83b8a8a8e993c6", "fusion_lon": 0.0, "type": "electric_scooter"}, {"rental_uris": {"ios": "https://dc.lft.to/lastmile_qr_scan", "android": "https://dc.lft.to/lastmile_qr_scan"}, "lat": 38.914151833333335, "lon": -77.02611016666667, "fusion_lat": 0.0, "name": "2dd80ab5cd03e6fe2a58a219d464b5ff", "is_disabled": 0, "is_reserved": 0, "bike_id": "2dd80ab5cd03e6fe2a58a219d464b5ff", "fusion_lon": 0.0, "type": "electric_scooter"}, {"rental_uris": {"ios": "https://dc.lft.to/lastmile_qr_scan", "android": "https://dc.lft.to/lastmile_qr_scan"}, "lat": 38.91445016666667, "lon": -77.04156166666667, "fusion_lat": 0.0, "name": "db0f5bfea16845e103040abc887aaec3", "is_disabled": 0, "is_reserved": 0, "bike_id": "db0f5bfea16845e103040abc887aaec3", "fusion_lon": 0.0, "type": "electric_scooter"}, {"rental_uris": {"ios": "https://dc.lft.to/lastmile_qr_scan", "android": "https://dc.lft.to/lastmile_qr_scan"}, "lat": 38.898269, "lon": -77.0175285, "fusion_lat": 0.0, "name": "1bd1561b1ee4b899922eeee04b44455f", "is_disabled": 0, "is_reserved": 0, "bike_id": "1bd1561b1ee4b899922eeee04b44455f", "fusion_lon": 0.0, "type": "electric_scooter"}, {"rental_uris": {"ios": "https://dc.lft.to/lastmile_qr_scan", "android": "https://dc.lft.to/lastmile_qr_scan"}, "lat": 38.89718633333333, "lon": -76.98357683333333, "fusion_lat": 0.0, "name": "8e33b8eb76213a6ca647d840c0d0a29c", "is_disabled": 0, "is_reserved": 0, "bike_id": "8e33b8eb76213a6ca647d840c0d0a29c", "fusion_lon": 0.0, "type": "electric_scooter"}, {"rental_uris": {"ios": "https://dc.lft.to/lastmile_qr_scan", "android": "https://dc.lft.to/lastmile_qr_scan"}, "lat": 38.95094183333333, "lon": -77.080926, "fusion_lat": 0.0, "name": "7d50111857872187655a9cc7dddaa7d6", "is_disabled": 0, "is_reserved": 0, "bike_id": "7d50111857872187655a9cc7dddaa7d6", "fusion_lon": 0.0, "type": "electric_bike"}, {"rental_uris": {"ios": "https://dc.lft.to/lastmile_qr_scan", "android": "https://dc.lft.to/lastmile_qr_scan"}, "lat": 38.91483516666667, "lon": -77.02581866666667, "fusion_lat": 0.0, "name": "d9c0930ed24446d1aeac1cb3cb6b3276", "is_disabled": 0, "is_reserved": 0, "bike_id": "d9c0930ed24446d1aeac1cb3cb6b3276", "fusion_lon": 0.0, "type": "electric_scooter"}, {"rental_uris": {"ios": "https://dc.lft.to/lastmile_qr_scan", "android": "https://dc.lft.to/lastmile_qr_scan"}, "lat": 38.937726833333336, "lon": -77.01914383333333, "fusion_lat": 0.0, "name": "a09c5c9a48d498a789fd3adf8c31f091", "is_disabled": 0, "is_reserved": 0, "bike_id": "a09c5c9a48d498a789fd3adf8c31f091", "fusion_lon": 0.0, "type": "electric_bike"}, {"rental_uris": {"ios": "https://dc.lft.to/lastmile_qr_scan", "android": "https://dc.lft.to/lastmile_qr_scan"}, "lat": 38.9007625, "lon": -77.0467985, "fusion_lat": 0.0, "name": "3f7acae6f013ab96b57e3e827d14d51f", "is_disabled": 0, "is_reserved": 0, "bike_id": "3f7acae6f013ab96b57e3e827d14d51f", "fusion_lon": 0.0, "type": "electric_scooter"}, {"rental_uris": {"ios": "https://dc.lft.to/lastmile_qr_scan", "android": "https://dc.lft.to/lastmile_qr_scan"}, "lat": 38.9126485, "lon": -77.07216883333334, "fusion_lat": 0.0, "name": "1dc216974b17b731fadc6e0aea88b2ca", "is_disabled": 0, "is_reserved": 0, "bike_id": "1dc216974b17b731fadc6e0aea88b2ca", "fusion_lon": 0.0, "type": "electric_scooter"}, {"rental_uris": {"ios": "https://dc.lft.to/lastmile_qr_scan", "android": "https://dc.lft.to/lastmile_qr_scan"}, "lat": 39.0370555, "lon": -77.02860616666666, "fusion_lat": 0.0, "name": "09fd78b556c56dd57e5b40e3080aead2", "is_disabled": 0, "is_reserved": 0, "bike_id": "09fd78b556c56dd57e5b40e3080aead2", "fusion_lon": 0.0, "type": "electric_bike"}, {"rental_uris": {"ios": "https://dc.lft.to/lastmile_qr_scan", "android": "https://dc.lft.to/lastmile_qr_scan"}, "lat": 38.91532133333333, "lon": -77.01840666666666, "fusion_lat": 0.0, "name": "329dd3718af9312c1c4637225345302b", "is_disabled": 0, "is_reserved": 0, "bike_id": "329dd3718af9312c1c4637225345302b", "fusion_lon": 0.0, "type": "electric_scooter"}, {"rental_uris": {"ios": "https://dc.lft.to/lastmile_qr_scan", "android": "https://dc.lft.to/lastmile_qr_scan"}, "lat": 38.871739833333336, "lon": -77.0062485, "fusion_lat": 0.0, "name": "11ab04bbd5dc9800c47ec88ab69be5a0", "is_disabled": 0, "is_reserved": 0, "bike_id": "11ab04bbd5dc9800c47ec88ab69be5a0", "fusion_lon": 0.0, "type": "electric_scooter"}, {"rental_uris": {"ios": "https://dc.lft.to/lastmile_qr_scan", "android": "https://dc.lft.to/lastmile_qr_scan"}, "lat": 38.915742333333334, "lon": -77.019602, "fusion_lat": 0.0, "name": "f97027b778cb3202f460a82c519bd406", "is_disabled": 0, "is_reserved": 0, "bike_id": "f97027b778cb3202f460a82c519bd406", "fusion_lon": 0.0, "type": "electric_scooter"}, {"rental_uris": {"ios": "https://dc.lft.to/lastmile_qr_scan", "android": "https://dc.lft.to/lastmile_qr_scan"}, "lat": 38.85810083333333, "lon": -76.98926516666667, "fusion_lat": 0.0, "name": "6ffe27d44fc70cdcb11cf9c68d0083c9", "is_disabled": 0, "is_reserved": 0, "bike_id": "6ffe27d44fc70cdcb11cf9c68d0083c9", "fusion_lon": 0.0, "type": "electric_scooter"}, {"rental_uris": {"ios": "https://dc.lft.to/lastmile_qr_scan", "android": "https://dc.lft.to/lastmile_qr_scan"}, "lat": 38.88637716666667, "lon": -77.01360416666667, "fusion_lat": 0.0, "name": "1e446d8f338a9fb9c12089b3990a74c1", "is_disabled": 0, "is_reserved": 0, "bike_id": "1e446d8f338a9fb9c12089b3990a74c1", "fusion_lon": 0.0, "type": "electric_scooter"}, {"rental_uris": {"ios": "https://dc.lft.to/lastmile_qr_scan", "android": "https://dc.lft.to/lastmile_qr_scan"}, "lat": 38.901421166666665, "lon": -77.028898, "fusion_lat": 0.0, "name": "6e308e444ba8f6fa43d99791a50c19f6", "is_disabled": 0, "is_reserved": 0, "bike_id": "6e308e444ba8f6fa43d99791a50c19f6", "fusion_lon": 0.0, "type": "electric_scooter"}, {"rental_uris": {"ios": "https://dc.lft.to/lastmile_qr_scan", "android": "https://dc.lft.to/lastmile_qr_scan"}, "lat": 38.907871666666665, "lon": -76.98031416666667, "fusion_lat": 0.0, "name": "64ddc8790b89d4aa460a2190f7875275", "is_disabled": 0, "is_reserved": 0, "bike_id": "64ddc8790b89d4aa460a2190f7875275", "fusion_lon": 0.0, "type": "electric_scooter"}, {"rental_uris": {"ios": "https://dc.lft.to/lastmile_qr_scan", "android": "https://dc.lft.to/lastmile_qr_scan"}, "lat": 38.8978985, "lon": -77.03196933333334, "fusion_lat": 0.0, "name": "0201c20db912d2ef6c7177cb9c3161e2", "is_disabled": 0, "is_reserved": 0, "bike_id": "0201c20db912d2ef6c7177cb9c3161e2", "fusion_lon": 0.0, "type": "electric_scooter"}, {"rental_uris": {"ios": "https://dc.lft.to/lastmile_qr_scan", "android": "https://dc.lft.to/lastmile_qr_scan"}, "lat": 38.91757283333333, "lon": -77.0476445, "fusion_lat": 0.0, "name": "d96996a44ce2da34bde3399059c206c1", "is_disabled": 0, "is_reserved": 0, "bike_id": "d96996a44ce2da34bde3399059c206c1", "fusion_lon": 0.0, "type": "electric_scooter"}, {"rental_uris": {"ios": "https://dc.lft.to/lastmile_qr_scan", "android": "https://dc.lft.to/lastmile_qr_scan"}, "lat": 38.901531, "lon": -77.05906916666666, "fusion_lat": 0.0, "name": "ced6f8c15218c5b6671c4747e0a22a58", "is_disabled": 0, "is_reserved": 0, "bike_id": "ced6f8c15218c5b6671c4747e0a22a58", "fusion_lon": 0.0, "type": "electric_scooter"}, {"rental_uris": {"ios": "https://dc.lft.to/lastmile_qr_scan", "android": "https://dc.lft.to/lastmile_qr_scan"}, "lat": 38.86683333333333, "lon": -76.98574433333333, "fusion_lat": 0.0, "name": "7393f90a18c1f396b7f0a592d3c5920e", "is_disabled": 0, "is_reserved": 0, "bike_id": "7393f90a18c1f396b7f0a592d3c5920e", "fusion_lon": 0.0, "type": "electric_scooter"}, {"rental_uris": {"ios": "https://dc.lft.to/lastmile_qr_scan", "android": "https://dc.lft.to/lastmile_qr_scan"}, "lat": 38.90070566666667, "lon": -77.00880983333333, "fusion_lat": 0.0, "name": "4f591032f7e5207be8d8f79c970396b6", "is_disabled": 0, "is_reserved": 0, "bike_id": "4f591032f7e5207be8d8f79c970396b6", "fusion_lon": 0.0, "type": "electric_scooter"}, {"rental_uris": {"ios": "https://dc.lft.to/lastmile_qr_scan", "android": "https://dc.lft.to/lastmile_qr_scan"}, "lat": 38.870717166666665, "lon": -76.98134216666666, "fusion_lat": 0.0, "name": "766a62c539fdc7f41f26177b93f4a768", "is_disabled": 0, "is_reserved": 0, "bike_id": "766a62c539fdc7f41f26177b93f4a768", "fusion_lon": 0.0, "type": "electric_scooter"}, {"rental_uris": {"ios": "https://dc.lft.to/lastmile_qr_scan", "android": "https://dc.lft.to/lastmile_qr_scan"}, "lat": 38.9058495, "lon": -77.04612983333334, "fusion_lat": 0.0, "name": "49519e5d4dee0ef9dc7d9e9fc6dd9c4f", "is_disabled": 0, "is_reserved": 0, "bike_id": "49519e5d4dee0ef9dc7d9e9fc6dd9c4f", "fusion_lon": 0.0, "type": "electric_scooter"}, {"rental_uris": {"ios": "https://dc.lft.to/lastmile_qr_scan", "android": "https://dc.lft.to/lastmile_qr_scan"}, "lat": 38.908118, "lon": -77.03441433333333, "fusion_lat": 0.0, "name": "8bd9bb113835d935b324680bccb6b82a", "is_disabled": 0, "is_reserved": 0, "bike_id": "8bd9bb113835d935b324680bccb6b82a", "fusion_lon": 0.0, "type": "electric_scooter"}, {"rental_uris": {"ios": "https://dc.lft.to/lastmile_qr_scan", "android": "https://dc.lft.to/lastmile_qr_scan"}, "lat": 38.89480433333333, "lon": -76.98787916666667, "fusion_lat": 0.0, "name": "936f620c93a52712b9552789ea48f92b", "is_disabled": 0, "is_reserved": 0, "bike_id": "936f620c93a52712b9552789ea48f92b", "fusion_lon": 0.0, "type": "electric_scooter"}, {"rental_uris": {"ios": "https://dc.lft.to/lastmile_qr_scan", "android": "https://dc.lft.to/lastmile_qr_scan"}, "lat": 38.89698883333333, "lon": -77.02295866666667, "fusion_lat": 0.0, "name": "adb9e4a1c389c6a89dca04c9fc5c7674", "is_disabled": 0, "is_reserved": 0, "bike_id": "adb9e4a1c389c6a89dca04c9fc5c7674", "fusion_lon": 0.0, "type": "electric_scooter"}, {"rental_uris": {"ios": "https://dc.lft.to/lastmile_qr_scan", "android": "https://dc.lft.to/lastmile_qr_scan"}, "lat": 38.90747916666667, "lon": -77.000089, "fusion_lat": 0.0, "name": "dfe1cc50b5a145dee1d06858bd803a2c", "is_disabled": 0, "is_reserved": 0, "bike_id": "dfe1cc50b5a145dee1d06858bd803a2c", "fusion_lon": 0.0, "type": "electric_scooter"}, {"rental_uris": {"ios": "https://dc.lft.to/lastmile_qr_scan", "android": "https://dc.lft.to/lastmile_qr_scan"}, "lat": 38.866287666666665, "lon": -76.98718066666666, "fusion_lat": 0.0, "name": "15bde8859769dfe1239b3deb5de55a95", "is_disabled": 0, "is_reserved": 0, "bike_id": "15bde8859769dfe1239b3deb5de55a95", "fusion_lon": 0.0, "type": "electric_scooter"}, {"rental_uris": {"ios": "https://dc.lft.to/lastmile_qr_scan", "android": "https://dc.lft.to/lastmile_qr_scan"}, "lat": 38.94841533333334, "lon": -77.02547516666667, "fusion_lat": 0.0, "name": "13f8caa64627b7186aca44c8afa0dd63", "is_disabled": 0, "is_reserved": 0, "bike_id": "13f8caa64627b7186aca44c8afa0dd63", "fusion_lon": 0.0, "type": "electric_scooter"}, {"rental_uris": {"ios": "https://dc.lft.to/lastmile_qr_scan", "android": "https://dc.lft.to/lastmile_qr_scan"}, "lat": 38.908520833333334, "lon": -77.00131883333333, "fusion_lat": 0.0, "name": "062330cae02e7329c4e55fb1dac81ee1", "is_disabled": 0, "is_reserved": 0, "bike_id": "062330cae02e7329c4e55fb1dac81ee1", "fusion_lon": 0.0, "type": "electric_scooter"}, {"rental_uris": {"ios": "https://dc.lft.to/lastmile_qr_scan", "android": "https://dc.lft.to/lastmile_qr_scan"}, "lat": 38.9246665, "lon": -77.052379, "fusion_lat": 0.0, "name": "0c989df24c75d447e1fc0dd766ebfd6c", "is_disabled": 0, "is_reserved": 0, "bike_id": "0c989df24c75d447e1fc0dd766ebfd6c", "fusion_lon": 0.0, "type": "electric_scooter"}, {"rental_uris": {"ios": "https://dc.lft.to/lastmile_qr_scan", "android": "https://dc.lft.to/lastmile_qr_scan"}, "lat": 38.898842, "lon": -76.93179833333333, "fusion_lat": 0.0, "name": "a147dc6bc131e5ef7ab360186abfc4a7", "is_disabled": 0, "is_reserved": 0, "bike_id": "a147dc6bc131e5ef7ab360186abfc4a7", "fusion_lon": 0.0, "type": "electric_scooter"}, {"rental_uris": {"ios": "https://dc.lft.to/lastmile_qr_scan", "android": "https://dc.lft.to/lastmile_qr_scan"}, "lat": 38.903369, "lon": -77.0618765, "fusion_lat": 0.0, "name": "64b37ce93e1de79d5bcfcb8c1e98e106", "is_disabled": 0, "is_reserved": 0, "bike_id": "64b37ce93e1de79d5bcfcb8c1e98e106", "fusion_lon": 0.0, "type": "electric_scooter"}, {"rental_uris": {"ios": "https://dc.lft.to/lastmile_qr_scan", "android": "https://dc.lft.to/lastmile_qr_scan"}, "lat": 38.882668833333334, "lon": -77.0051485, "fusion_lat": 0.0, "name": "ea63593f4a0b7044df1cd1e9b2d4eb91", "is_disabled": 0, "is_reserved": 0, "bike_id": "ea63593f4a0b7044df1cd1e9b2d4eb91", "fusion_lon": 0.0, "type": "electric_scooter"}, {"rental_uris": {"ios": "https://dc.lft.to/lastmile_qr_scan", "android": "https://dc.lft.to/lastmile_qr_scan"}, "lat": 38.867534666666664, "lon": -76.94532733333334, "fusion_lat": 0.0, "name": "71b3727a57c604464106db3b840d4bd2", "is_disabled": 0, "is_reserved": 0, "bike_id": "71b3727a57c604464106db3b840d4bd2", "fusion_lon": 0.0, "type": "electric_bike"}, {"rental_uris": {"ios": "https://dc.lft.to/lastmile_qr_scan", "android": "https://dc.lft.to/lastmile_qr_scan"}, "lat": 38.90144083333333, "lon": -77.029481, "fusion_lat": 0.0, "name": "c165967bf4ab3edf95b8deff314fd64c", "is_disabled": 0, "is_reserved": 0, "bike_id": "c165967bf4ab3edf95b8deff314fd64c", "fusion_lon": 0.0, "type": "electric_scooter"}, {"rental_uris": {"ios": "https://dc.lft.to/lastmile_qr_scan", "android": "https://dc.lft.to/lastmile_qr_scan"}, "lat": 38.938965333333336, "lon": -77.03326766666666, "fusion_lat": 0.0, "name": "a2a9860d1b6d980aed8db3a5195fb8bd", "is_disabled": 0, "is_reserved": 0, "bike_id": "a2a9860d1b6d980aed8db3a5195fb8bd", "fusion_lon": 0.0, "type": "electric_scooter"}, {"rental_uris": {"ios": "https://dc.lft.to/lastmile_qr_scan", "android": "https://dc.lft.to/lastmile_qr_scan"}, "lat": 38.90873933333334, "lon": -76.99789366666667, "fusion_lat": 0.0, "name": "ecf16ed47d5096747dc82713d5552bee", "is_disabled": 0, "is_reserved": 0, "bike_id": "ecf16ed47d5096747dc82713d5552bee", "fusion_lon": 0.0, "type": "electric_scooter"}, {"rental_uris": {"ios": "https://dc.lft.to/lastmile_qr_scan", "android": "https://dc.lft.to/lastmile_qr_scan"}, "lat": 38.88744583333333, "lon": -77.031644, "fusion_lat": 0.0, "name": "7c2682b9eb8274bbba6630e58eacc9f8", "is_disabled": 0, "is_reserved": 0, "bike_id": "7c2682b9eb8274bbba6630e58eacc9f8", "fusion_lon": 0.0, "type": "electric_scooter"}, {"rental_uris": {"ios": "https://dc.lft.to/lastmile_qr_scan", "android": "https://dc.lft.to/lastmile_qr_scan"}, "lat": 38.937368166666666, "lon": -77.03256683333333, "fusion_lat": 0.0, "name": "9192738c6b054072b49145d817d62383", "is_disabled": 0, "is_reserved": 0, "bike_id": "9192738c6b054072b49145d817d62383", "fusion_lon": 0.0, "type": "electric_scooter"}, {"rental_uris": {"ios": "https://dc.lft.to/lastmile_qr_scan", "android": "https://dc.lft.to/lastmile_qr_scan"}, "lat": 38.92921033333333, "lon": -77.02093266666667, "fusion_lat": 0.0, "name": "b4bc81aaff94b70443ed33ad50d9f2ea", "is_disabled": 0, "is_reserved": 0, "bike_id": "b4bc81aaff94b70443ed33ad50d9f2ea", "fusion_lon": 0.0, "type": "electric_scooter"}, {"rental_uris": {"ios": "https://dc.lft.to/lastmile_qr_scan", "android": "https://dc.lft.to/lastmile_qr_scan"}, "lat": 38.927756, "lon": -77.02789283333334, "fusion_lat": 0.0, "name": "c2d62bf0d3d6ee87ad2d17df76117a4f", "is_disabled": 0, "is_reserved": 0, "bike_id": "c2d62bf0d3d6ee87ad2d17df76117a4f", "fusion_lon": 0.0, "type": "electric_scooter"}, {"rental_uris": {"ios": "https://dc.lft.to/lastmile_qr_scan", "android": "https://dc.lft.to/lastmile_qr_scan"}, "lat": 38.85884733333333, "lon": -76.995419, "fusion_lat": 0.0, "name": "3ce97fd8e24becc220b62c2acd00c22a", "is_disabled": 0, "is_reserved": 0, "bike_id": "3ce97fd8e24becc220b62c2acd00c22a", "fusion_lon": 0.0, "type": "electric_scooter"}, {"rental_uris": {"ios": "https://dc.lft.to/lastmile_qr_scan", "android": "https://dc.lft.to/lastmile_qr_scan"}, "lat": 38.92035033333333, "lon": -77.00305933333334, "fusion_lat": 0.0, "name": "60cb1bc3e947d026e8a650191fae3abd", "is_disabled": 0, "is_reserved": 0, "bike_id": "60cb1bc3e947d026e8a650191fae3abd", "fusion_lon": 0.0, "type": "electric_scooter"}, {"rental_uris": {"ios": "https://dc.lft.to/lastmile_qr_scan", "android": "https://dc.lft.to/lastmile_qr_scan"}, "lat": 38.91999783333333, "lon": -77.022052, "fusion_lat": 0.0, "name": "46ae50fce7cd0c327e43019f7037a7e4", "is_disabled": 0, "is_reserved": 0, "bike_id": "46ae50fce7cd0c327e43019f7037a7e4", "fusion_lon": 0.0, "type": "electric_scooter"}, {"rental_uris": {"ios": "https://dc.lft.to/lastmile_qr_scan", "android": "https://dc.lft.to/lastmile_qr_scan"}, "lat": 38.8922515, "lon": -77.01610783333334, "fusion_lat": 0.0, "name": "0a339b1a80c5faff80c1548bac1cc022", "is_disabled": 0, "is_reserved": 0, "bike_id": "0a339b1a80c5faff80c1548bac1cc022", "fusion_lon": 0.0, "type": "electric_scooter"}, {"rental_uris": {"ios": "https://dc.lft.to/lastmile_qr_scan", "android": "https://dc.lft.to/lastmile_qr_scan"}, "lat": 38.884919333333336, "lon": -77.00727866666666, "fusion_lat": 0.0, "name": "90df19154fd89471c57a61e689290b50", "is_disabled": 0, "is_reserved": 0, "bike_id": "90df19154fd89471c57a61e689290b50", "fusion_lon": 0.0, "type": "electric_scooter"}, {"rental_uris": {"ios": "https://dc.lft.to/lastmile_qr_scan", "android": "https://dc.lft.to/lastmile_qr_scan"}, "lat": 38.92328716666667, "lon": -77.00885, "fusion_lat": 0.0, "name": "750bc24924a6438ab907009b3fd67fba", "is_disabled": 0, "is_reserved": 0, "bike_id": "750bc24924a6438ab907009b3fd67fba", "fusion_lon": 0.0, "type": "electric_scooter"}, {"rental_uris": {"ios": "https://dc.lft.to/lastmile_qr_scan", "android": "https://dc.lft.to/lastmile_qr_scan"}, "lat": 38.9877045, "lon": -77.140574, "fusion_lat": 0.0, "name": "12f5fea09fffe3a4f5c20924553afd2f", "is_disabled": 0, "is_reserved": 0, "bike_id": "12f5fea09fffe3a4f5c20924553afd2f", "fusion_lon": 0.0, "type": "electric_bike"}, {"rental_uris": {"ios": "https://dc.lft.to/lastmile_qr_scan", "android": "https://dc.lft.to/lastmile_qr_scan"}, "lat": 38.93531133333333, "lon": -77.02350566666667, "fusion_lat": 0.0, "name": "1e374687261c3bf4399fea3412d932c5", "is_disabled": 0, "is_reserved": 0, "bike_id": "1e374687261c3bf4399fea3412d932c5", "fusion_lon": 0.0, "type": "electric_scooter"}, {"rental_uris": {"ios": "https://dc.lft.to/lastmile_qr_scan", "android": "https://dc.lft.to/lastmile_qr_scan"}, "lat": 38.92482916666667, "lon": -77.03178716666666, "fusion_lat": 0.0, "name": "c5da1eb9910ed880a6a2248956fa1d3b", "is_disabled": 0, "is_reserved": 0, "bike_id": "c5da1eb9910ed880a6a2248956fa1d3b", "fusion_lon": 0.0, "type": "electric_scooter"}, {"rental_uris": {"ios": "https://dc.lft.to/lastmile_qr_scan", "android": "https://dc.lft.to/lastmile_qr_scan"}, "lat": 38.916543, "lon": -76.97915083333334, "fusion_lat": 0.0, "name": "9c1c381ffd5dbf77915947d5f93bca49", "is_disabled": 0, "is_reserved": 0, "bike_id": "9c1c381ffd5dbf77915947d5f93bca49", "fusion_lon": 0.0, "type": "electric_scooter"}, {"rental_uris": {"ios": "https://dc.lft.to/lastmile_qr_scan", "android": "https://dc.lft.to/lastmile_qr_scan"}, "lat": 38.91837916666667, "lon": -77.03213466666666, "fusion_lat": 0.0, "name": "882d199576b3243bf3f810da84bc85fd", "is_disabled": 0, "is_reserved": 0, "bike_id": "882d199576b3243bf3f810da84bc85fd", "fusion_lon": 0.0, "type": "electric_scooter"}, {"rental_uris": {"ios": "https://dc.lft.to/lastmile_qr_scan", "android": "https://dc.lft.to/lastmile_qr_scan"}, "lat": 38.796045166666666, "lon": -76.99743066666667, "fusion_lat": 0.0, "name": "1e8181c54759e9a49f2b3b2d8cb1e539", "is_disabled": 0, "is_reserved": 0, "bike_id": "1e8181c54759e9a49f2b3b2d8cb1e539", "fusion_lon": 0.0, "type": "electric_bike"}, {"rental_uris": {"ios": "https://dc.lft.to/lastmile_qr_scan", "android": "https://dc.lft.to/lastmile_qr_scan"}, "lat": 38.898650333333336, "lon": -76.94638433333333, "fusion_lat": 0.0, "name": "38d3072eb96dd83da81160fde5489888", "is_disabled": 0, "is_reserved": 0, "bike_id": "38d3072eb96dd83da81160fde5489888", "fusion_lon": 0.0, "type": "electric_scooter"}, {"rental_uris": {"ios": "https://dc.lft.to/lastmile_qr_scan", "android": "https://dc.lft.to/lastmile_qr_scan"}, "lat": 38.908211, "lon": -77.021918, "fusion_lat": 0.0, "name": "b2ff395e9ded36b497e1a88d02f11bf7", "is_disabled": 0, "is_reserved": 0, "bike_id": "b2ff395e9ded36b497e1a88d02f11bf7", "fusion_lon": 0.0, "type": "electric_scooter"}, {"rental_uris": {"ios": "https://dc.lft.to/lastmile_qr_scan", "android": "https://dc.lft.to/lastmile_qr_scan"}, "lat": 38.903138, "lon": -77.05018166666666, "fusion_lat": 0.0, "name": "ff502cc38fb907a29e35dad1d789dfec", "is_disabled": 0, "is_reserved": 0, "bike_id": "ff502cc38fb907a29e35dad1d789dfec", "fusion_lon": 0.0, "type": "electric_scooter"}, {"rental_uris": {"ios": "https://dc.lft.to/lastmile_qr_scan", "android": "https://dc.lft.to/lastmile_qr_scan"}, "lat": 38.89598816666667, "lon": -77.006931, "fusion_lat": 0.0, "name": "f5f3c93d8816b61a7e827caf83b0d7e2", "is_disabled": 0, "is_reserved": 0, "bike_id": "f5f3c93d8816b61a7e827caf83b0d7e2", "fusion_lon": 0.0, "type": "electric_scooter"}, {"rental_uris": {"ios": "https://dc.lft.to/lastmile_qr_scan", "android": "https://dc.lft.to/lastmile_qr_scan"}, "lat": 38.9145265, "lon": -77.02184783333334, "fusion_lat": 0.0, "name": "a7b0a0fa62ebe8a01039ebd650308111", "is_disabled": 0, "is_reserved": 0, "bike_id": "a7b0a0fa62ebe8a01039ebd650308111", "fusion_lon": 0.0, "type": "electric_scooter"}, {"rental_uris": {"ios": "https://dc.lft.to/lastmile_qr_scan", "android": "https://dc.lft.to/lastmile_qr_scan"}, "lat": 38.903986833333335, "lon": -77.024775, "fusion_lat": 0.0, "name": "64ff4dc8b92d50ae28f11bbdb9b0e9c0", "is_disabled": 0, "is_reserved": 0, "bike_id": "64ff4dc8b92d50ae28f11bbdb9b0e9c0", "fusion_lon": 0.0, "type": "electric_scooter"}, {"rental_uris": {"ios": "https://dc.lft.to/lastmile_qr_scan", "android": "https://dc.lft.to/lastmile_qr_scan"}, "lat": 38.91850483333333, "lon": -77.03190516666666, "fusion_lat": 0.0, "name": "ccc68042fbde0e58eb44830745a40025", "is_disabled": 0, "is_reserved": 0, "bike_id": "ccc68042fbde0e58eb44830745a40025", "fusion_lon": 0.0, "type": "electric_scooter"}, {"rental_uris": {"ios": "https://dc.lft.to/lastmile_qr_scan", "android": "https://dc.lft.to/lastmile_qr_scan"}, "lat": 38.914175, "lon": -77.0180195, "fusion_lat": 0.0, "name": "a7070a7e954b9b139f79ffb41f5a5a3a", "is_disabled": 0, "is_reserved": 0, "bike_id": "a7070a7e954b9b139f79ffb41f5a5a3a", "fusion_lon": 0.0, "type": "electric_scooter"}, {"rental_uris": {"ios": "https://dc.lft.to/lastmile_qr_scan", "android": "https://dc.lft.to/lastmile_qr_scan"}, "lat": 38.81509466666667, "lon": -77.126568, "fusion_lat": 0.0, "name": "e5611279d14a30d72ad91bb789d08c63", "is_disabled": 0, "is_reserved": 0, "bike_id": "e5611279d14a30d72ad91bb789d08c63", "fusion_lon": 0.0, "type": "electric_bike"}, {"rental_uris": {"ios": "https://dc.lft.to/lastmile_qr_scan", "android": "https://dc.lft.to/lastmile_qr_scan"}, "lat": 38.92391583333333, "lon": -77.04450916666667, "fusion_lat": 0.0, "name": "ad1ffc60d2c36e8945207fffe9f203a6", "is_disabled": 0, "is_reserved": 0, "bike_id": "ad1ffc60d2c36e8945207fffe9f203a6", "fusion_lon": 0.0, "type": "electric_scooter"}, {"rental_uris": {"ios": "https://dc.lft.to/lastmile_qr_scan", "android": "https://dc.lft.to/lastmile_qr_scan"}, "lat": 38.8731, "lon": -77.00146633333334, "fusion_lat": 0.0, "name": "ba204109b35bdca88e1ccc02d34143bb", "is_disabled": 0, "is_reserved": 0, "bike_id": "ba204109b35bdca88e1ccc02d34143bb", "fusion_lon": 0.0, "type": "electric_scooter"}, {"rental_uris": {"ios": "https://dc.lft.to/lastmile_qr_scan", "android": "https://dc.lft.to/lastmile_qr_scan"}, "lat": 38.921064666666666, "lon": -77.04168666666666, "fusion_lat": 0.0, "name": "605927080dc44a210e777f960158dce1", "is_disabled": 0, "is_reserved": 0, "bike_id": "605927080dc44a210e777f960158dce1", "fusion_lon": 0.0, "type": "electric_scooter"}, {"rental_uris": {"ios": "https://dc.lft.to/lastmile_qr_scan", "android": "https://dc.lft.to/lastmile_qr_scan"}, "lat": 38.90331916666667, "lon": -76.99131783333333, "fusion_lat": 0.0, "name": "05342d3b35b29081136242987646078e", "is_disabled": 0, "is_reserved": 0, "bike_id": "05342d3b35b29081136242987646078e", "fusion_lon": 0.0, "type": "electric_scooter"}, {"rental_uris": {"ios": "https://dc.lft.to/lastmile_qr_scan", "android": "https://dc.lft.to/lastmile_qr_scan"}, "lat": 38.86058966666667, "lon": -76.98511316666666, "fusion_lat": 0.0, "name": "d600613d9a2c7c33f00bd336ee915cae", "is_disabled": 0, "is_reserved": 0, "bike_id": "d600613d9a2c7c33f00bd336ee915cae", "fusion_lon": 0.0, "type": "electric_scooter"}, {"rental_uris": {"ios": "https://dc.lft.to/lastmile_qr_scan", "android": "https://dc.lft.to/lastmile_qr_scan"}, "lat": 38.886625, "lon": -77.02834016666667, "fusion_lat": 0.0, "name": "69fb275a2813e387186e21f5abaa7f6c", "is_disabled": 0, "is_reserved": 0, "bike_id": "69fb275a2813e387186e21f5abaa7f6c", "fusion_lon": 0.0, "type": "electric_scooter"}, {"rental_uris": {"ios": "https://dc.lft.to/lastmile_qr_scan", "android": "https://dc.lft.to/lastmile_qr_scan"}, "lat": 38.91808, "lon": -77.00924766666667, "fusion_lat": 0.0, "name": "46342730e02771523f3806be3b360f71", "is_disabled": 0, "is_reserved": 0, "bike_id": "46342730e02771523f3806be3b360f71", "fusion_lon": 0.0, "type": "electric_scooter"}, {"rental_uris": {"ios": "https://dc.lft.to/lastmile_qr_scan", "android": "https://dc.lft.to/lastmile_qr_scan"}, "lat": 38.89936766666667, "lon": -77.01498466666666, "fusion_lat": 0.0, "name": "1457add149d792b52ee3b75a52050d3c", "is_disabled": 0, "is_reserved": 0, "bike_id": "1457add149d792b52ee3b75a52050d3c", "fusion_lon": 0.0, "type": "electric_scooter"}, {"rental_uris": {"ios": "https://dc.lft.to/lastmile_qr_scan", "android": "https://dc.lft.to/lastmile_qr_scan"}, "lat": 38.907365666666664, "lon": -77.0454565, "fusion_lat": 0.0, "name": "88de296399c8f2f124ea12521b59ea25", "is_disabled": 0, "is_reserved": 0, "bike_id": "88de296399c8f2f124ea12521b59ea25", "fusion_lon": 0.0, "type": "electric_scooter"}, {"rental_uris": {"ios": "https://dc.lft.to/lastmile_qr_scan", "android": "https://dc.lft.to/lastmile_qr_scan"}, "lat": 38.9175825, "lon": -77.0476835, "fusion_lat": 0.0, "name": "ea14bbc4f2cf837cec27214561585cda", "is_disabled": 0, "is_reserved": 0, "bike_id": "ea14bbc4f2cf837cec27214561585cda", "fusion_lon": 0.0, "type": "electric_scooter"}, {"rental_uris": {"ios": "https://dc.lft.to/lastmile_qr_scan", "android": "https://dc.lft.to/lastmile_qr_scan"}, "lat": 38.80970216666667, "lon": -77.08627966666667, "fusion_lat": 0.0, "name": "6349cfd35233db3bb34c3a267b5a47df", "is_disabled": 0, "is_reserved": 0, "bike_id": "6349cfd35233db3bb34c3a267b5a47df", "fusion_lon": 0.0, "type": "electric_bike"}, {"rental_uris": {"ios": "https://dc.lft.to/lastmile_qr_scan", "android": "https://dc.lft.to/lastmile_qr_scan"}, "lat": 38.89393166666667, "lon": -77.01099366666666, "fusion_lat": 0.0, "name": "b23931970980853eed9da942db10b0b4", "is_disabled": 0, "is_reserved": 0, "bike_id": "b23931970980853eed9da942db10b0b4", "fusion_lon": 0.0, "type": "electric_scooter"}, {"rental_uris": {"ios": "https://dc.lft.to/lastmile_qr_scan", "android": "https://dc.lft.to/lastmile_qr_scan"}, "lat": 38.92478966666667, "lon": -77.02207816666666, "fusion_lat": 0.0, "name": "0c7faeccbadac7c9f217c72745c26fc6", "is_disabled": 0, "is_reserved": 0, "bike_id": "0c7faeccbadac7c9f217c72745c26fc6", "fusion_lon": 0.0, "type": "electric_scooter"}, {"rental_uris": {"ios": "https://dc.lft.to/lastmile_qr_scan", "android": "https://dc.lft.to/lastmile_qr_scan"}, "lat": 38.935234666666666, "lon": -76.96447333333333, "fusion_lat": 0.0, "name": "4fd72edff3543fd70bee87c3e0b67ab2", "is_disabled": 0, "is_reserved": 0, "bike_id": "4fd72edff3543fd70bee87c3e0b67ab2", "fusion_lon": 0.0, "type": "electric_bike"}, {"rental_uris": {"ios": "https://dc.lft.to/lastmile_qr_scan", "android": "https://dc.lft.to/lastmile_qr_scan"}, "lat": 38.9215835, "lon": -77.0323065, "fusion_lat": 0.0, "name": "9fdc97c69d87798034f7c733a5d36f0a", "is_disabled": 0, "is_reserved": 0, "bike_id": "9fdc97c69d87798034f7c733a5d36f0a", "fusion_lon": 0.0, "type": "electric_scooter"}, {"rental_uris": {"ios": "https://dc.lft.to/lastmile_qr_scan", "android": "https://dc.lft.to/lastmile_qr_scan"}, "lat": 38.922784, "lon": -77.03661183333334, "fusion_lat": 0.0, "name": "0bf1363438a8ac69e85414fed982b490", "is_disabled": 0, "is_reserved": 0, "bike_id": "0bf1363438a8ac69e85414fed982b490", "fusion_lon": 0.0, "type": "electric_scooter"}, {"rental_uris": {"ios": "https://dc.lft.to/lastmile_qr_scan", "android": "https://dc.lft.to/lastmile_qr_scan"}, "lat": 38.911146, "lon": -77.03150683333334, "fusion_lat": 0.0, "name": "8917add79b55eb4b742a3ba99f0ab5a5", "is_disabled": 0, "is_reserved": 0, "bike_id": "8917add79b55eb4b742a3ba99f0ab5a5", "fusion_lon": 0.0, "type": "electric_scooter"}, {"rental_uris": {"ios": "https://dc.lft.to/lastmile_qr_scan", "android": "https://dc.lft.to/lastmile_qr_scan"}, "lat": 38.909512166666666, "lon": -77.0318455, "fusion_lat": 0.0, "name": "6b224bbb7c0dc38279d8fb9134c4204a", "is_disabled": 0, "is_reserved": 0, "bike_id": "6b224bbb7c0dc38279d8fb9134c4204a", "fusion_lon": 0.0, "type": "electric_scooter"}, {"rental_uris": {"ios": "https://dc.lft.to/lastmile_qr_scan", "android": "https://dc.lft.to/lastmile_qr_scan"}, "lat": 38.904681, "lon": -77.04482233333333, "fusion_lat": 0.0, "name": "34edbf35900f2da9605b913ed350cd97", "is_disabled": 0, "is_reserved": 0, "bike_id": "34edbf35900f2da9605b913ed350cd97", "fusion_lon": 0.0, "type": "electric_scooter"}, {"rental_uris": {"ios": "https://dc.lft.to/lastmile_qr_scan", "android": "https://dc.lft.to/lastmile_qr_scan"}, "lat": 38.915421333333335, "lon": -77.0445595, "fusion_lat": 0.0, "name": "3c3f285d7072293feef7a663f11996d9", "is_disabled": 0, "is_reserved": 0, "bike_id": "3c3f285d7072293feef7a663f11996d9", "fusion_lon": 0.0, "type": "electric_scooter"}, {"rental_uris": {"ios": "https://dc.lft.to/lastmile_qr_scan", "android": "https://dc.lft.to/lastmile_qr_scan"}, "lat": 38.916833833333335, "lon": -77.0237695, "fusion_lat": 0.0, "name": "7745b8e33907d30b7ae25a51396611d4", "is_disabled": 0, "is_reserved": 0, "bike_id": "7745b8e33907d30b7ae25a51396611d4", "fusion_lon": 0.0, "type": "electric_scooter"}, {"rental_uris": {"ios": "https://dc.lft.to/lastmile_qr_scan", "android": "https://dc.lft.to/lastmile_qr_scan"}, "lat": 38.902321, "lon": -77.0295095, "fusion_lat": 0.0, "name": "14a48ac52b08015796f2d1bbd926d6f8", "is_disabled": 0, "is_reserved": 0, "bike_id": "14a48ac52b08015796f2d1bbd926d6f8", "fusion_lon": 0.0, "type": "electric_scooter"}, {"rental_uris": {"ios": "https://dc.lft.to/lastmile_qr_scan", "android": "https://dc.lft.to/lastmile_qr_scan"}, "lat": 38.89729066666666, "lon": -77.00941383333333, "fusion_lat": 0.0, "name": "b3b581f6e2645ed86181ebef78bccce2", "is_disabled": 0, "is_reserved": 0, "bike_id": "b3b581f6e2645ed86181ebef78bccce2", "fusion_lon": 0.0, "type": "electric_scooter"}, {"rental_uris": {"ios": "https://dc.lft.to/lastmile_qr_scan", "android": "https://dc.lft.to/lastmile_qr_scan"}, "lat": 38.906521166666664, "lon": -77.01441933333334, "fusion_lat": 0.0, "name": "8e3cbf5118b59c3febdea6c3e4b9d510", "is_disabled": 0, "is_reserved": 0, "bike_id": "8e3cbf5118b59c3febdea6c3e4b9d510", "fusion_lon": 0.0, "type": "electric_scooter"}, {"rental_uris": {"ios": "https://dc.lft.to/lastmile_qr_scan", "android": "https://dc.lft.to/lastmile_qr_scan"}, "lat": 38.901402833333336, "lon": -77.02452383333333, "fusion_lat": 0.0, "name": "53477db9cfeb5b8cae67ea0dca19d5e7", "is_disabled": 0, "is_reserved": 0, "bike_id": "53477db9cfeb5b8cae67ea0dca19d5e7", "fusion_lon": 0.0, "type": "electric_scooter"}, {"rental_uris": {"ios": "https://dc.lft.to/lastmile_qr_scan", "android": "https://dc.lft.to/lastmile_qr_scan"}, "lat": 38.92156583333333, "lon": -77.03383366666667, "fusion_lat": 0.0, "name": "36c8132539a94fb034fe24f3551e5b3e", "is_disabled": 0, "is_reserved": 0, "bike_id": "36c8132539a94fb034fe24f3551e5b3e", "fusion_lon": 0.0, "type": "electric_scooter"}, {"rental_uris": {"ios": "https://dc.lft.to/lastmile_qr_scan", "android": "https://dc.lft.to/lastmile_qr_scan"}, "lat": 38.90516216666666, "lon": -77.05993983333333, "fusion_lat": 0.0, "name": "5b855242ad4d555492601237d969cbad", "is_disabled": 0, "is_reserved": 0, "bike_id": "5b855242ad4d555492601237d969cbad", "fusion_lon": 0.0, "type": "electric_scooter"}, {"rental_uris": {"ios": "https://dc.lft.to/lastmile_qr_scan", "android": "https://dc.lft.to/lastmile_qr_scan"}, "lat": 38.904059, "lon": -77.01846916666666, "fusion_lat": 0.0, "name": "95643eae5aeadc9c5fb159e40e25c41b", "is_disabled": 0, "is_reserved": 0, "bike_id": "95643eae5aeadc9c5fb159e40e25c41b", "fusion_lon": 0.0, "type": "electric_scooter"}, {"rental_uris": {"ios": "https://dc.lft.to/lastmile_qr_scan", "android": "https://dc.lft.to/lastmile_qr_scan"}, "lat": 38.9066645, "lon": -77.02691766666666, "fusion_lat": 0.0, "name": "542031264fb12b4ddff275c4e8dcd03c", "is_disabled": 0, "is_reserved": 0, "bike_id": "542031264fb12b4ddff275c4e8dcd03c", "fusion_lon": 0.0, "type": "electric_scooter"}, {"rental_uris": {"ios": "https://dc.lft.to/lastmile_qr_scan", "android": "https://dc.lft.to/lastmile_qr_scan"},