{"data": {"bikes": [{"name": "e5c9025784355306926474229277cdfe", "is_reserved": 0, "is_disabled": 0, "lon": -77.04081533333333, "rental_uris": {"android": "https://dc.lft.to/lastmile_qr_scan", "ios": "https://dc.lft.to/lastmile_qr_scan"}, "fusion_lon": 0.0, "lat": 38.89837333333333, "type": "electric_scooter", "fusion_lat": 0.0, "bike_id": "e5c9025784355306926474229277cdfe"}, {"name": "8806096e41dc0abd534423d5c26cef7a", "is_reserved": 0, "is_disabled": 0, "lon": -76.98603833333334, "rental_uris": {"android": "https://dc.lft.to/lastmile_qr_scan", "ios": "https://dc.lft.to/lastmile_qr_scan"}, "fusion_lon": 0.0, "lat": 38.90015283333334, "type": "electric_scooter", "fusion_lat": 0.0, "bike_id": "8806096e41dc0abd534423d5c26cef7a"}, {"name": "f5b06c3c5b96fa6f4128ff1035046d3e", "is_reserved": 0, "is_disabled": 0, "lon": -76.9482355, "rental_uris": {"android": "https://dc.lft.to/lastmile_qr_scan", "ios": "https://dc.lft.to/lastmile_qr_scan"}, "fusion_lon": 0.0, "lat": 38.885177, "type": "electric_scooter", "fusion_lat": 0.0, "bike_id": "f5b06c3c5b96fa6f4128ff1035046d3e"}, {"name": "3473a8513b8e64cd0ae4f8fc2be4e978", "is_reserved": 0, "is_disabled": 0, "lon": -77.02775716666666, "rental_uris": {"android": "https://dc.lft.to/lastmile_qr_scan", "ios": "https://dc.lft.to/lastmile_qr_scan"}, "fusion_lon": 0.0, "lat": 38.89222933333333, "type": "electric_scooter", "fusion_lat": 0.0, "bike_id": "3473a8513b8e64cd0ae4f8fc2be4e978"}, {"name": "2e4896008c96f430458950d9a6a0f3da", "is_reserved": 0, "is_disabled": 0, "lon": -77.03843133333334, "rental_uris": {"android": "https://dc.lft.to/lastmile_qr_scan", "ios": "https://dc.lft.to/lastmile_qr_scan"}, "fusion_lon": 0.0, "lat": 38.912148, "type": "electric_scooter", "fusion_lat": 0.0, "bike_id": "2e4896008c96f430458950d9a6a0f3da"}, {"name": "07f436f0e06f44107dee6c2179a54b5b", "is_reserved": 0, "is_disabled": 0, "lon": -77.04578316666667, "rental_uris": {"android": "https://dc.lft.to/lastmile_qr_scan", "ios": "https://dc.lft.to/lastmile_qr_scan"}, "fusion_lon": 0.0, "lat": 38.91393883333333, "type": "electric_scooter", "fusion_lat": 0.0, "bike_id": "07f436f0e06f44107dee6c2179a54b5b"}, {"name": "c932c89272dd1bbbd02c5a3c19c2410b", "is_reserved": 0, "is_disabled": 0, "lon": -77.02280266666666, "rental_uris": {"android": "https://dc.lft.to/lastmile_qr_scan", "ios": "https://dc.lft.to/lastmile_qr_scan"}, "fusion_lon": 0.0, "lat": 38.91656716666667, "type": "electric_scooter", "fusion_lat": 0.0, "bike_id": "c932c89272dd1bbbd02c5a3c19c2410b"}, {"name": "aac62a078ff929e17ce8962c1d6915e7", "is_reserved": 0, "is_disabled": 0, "lon": -77.00290683333333, "rental_uris": {"android": "https://dc.lft.to/lastmile_qr_scan", "ios": "https://dc.lft.to/lastmile_qr_scan"}, "fusion_lon": 0.0, "lat": 38.893579333333335, "type": "electric_scooter", "fusion_lat": 0.0, "bike_id": "aac62a078ff929e17ce8962c1d6915e7"}, {"name": "de0349c7eaf1ebd29e6f71a41f1a7a56", "is_reserved": 0, "is_disabled": 0, "lon": -77.01947883333334, "rental_uris": {"android": "https://dc.lft.to/lastmile_qr_scan", "ios": "https://dc.lft.to/lastmile_qr_scan"}, "fusion_lon": 0.0, "lat": 38.922836333333336, "type": "electric_scooter", "fusion_lat": 0.0, "bike_id": "de0349c7eaf1ebd29e6f71a41f1a7a56"}, {"name": "462bb1f91cf71cc761f1fb49d5cf1239", "is_reserved": 0, "is_disabled": 0, "lon": -77.03440666666667, "rental_uris": {"android": "https://dc.lft.to/lastmile_qr_scan", "ios": "https://dc.lft.to/lastmile_qr_scan"}, "fusion_lon": 0.0, "lat": 38.906416666666665, "type": "electric_scooter", "fusion_lat": 0.0, "bike_id": "462bb1f91cf71cc761f1fb49d5cf1239"}, {"name": "a6a8a6a7742ff0545aa8a3c1fac25ccc", "is_reserved": 0, "is_disabled": 0, "lon": -77.06267016666666, "rental_uris": {"android": "https://dc.lft.to/lastmile_qr_scan", "ios": "https://dc.lft.to/lastmile_qr_scan"}, "fusion_lon": 0.0, "lat": 38.906281, "type": "electric_scooter", "fusion_lat": 0.0, "bike_id": "a6a8a6a7742ff0545aa8a3c1fac25ccc"}, {"name": "a9d77dc3a8392322fe922b6624049dac", "is_reserved": 0, "is_disabled": 0, "lon": -77.041825, "rental_uris": {"android": "https://dc.lft.to/lastmile_qr_scan", "ios": "https://dc.lft.to/lastmile_qr_scan"}, "fusion_lon": 0.0, "lat": 38.91408633333333, "type": "electric_scooter", "fusion_lat": 0.0, "bike_id": "a9d77dc3a8392322fe922b6624049dac"}, {"name": "d3fb8bcbe1ea52cb06f68febf5e4ac41", "is_reserved": 0, "is_disabled": 0, "lon": -77.05438683333334, "rental_uris": {"android": "https://dc.lft.to/lastmile_qr_scan", "ios": "https://dc.lft.to/lastmile_qr_scan"}, "fusion_lon": 0.0, "lat": 38.89604216666667, "type": "electric_scooter", "fusion_lat": 0.0, "bike_id": "d3fb8bcbe1ea52cb06f68febf5e4ac41"}, {"name": "1cbaa33ba748e9c7c8bd1556072a4d8c", "is_reserved": 0, "is_disabled": 0, "lon": -76.9936585, "rental_uris": {"android": "https://dc.lft.to/lastmile_qr_scan", "ios": "https://dc.lft.to/lastmile_qr_scan"}, "fusion_lon": 0.0, "lat": 38.92400266666667, "type": "electric_bike", "fusion_lat": 0.0, "bike_id": "1cbaa33ba748e9c7c8bd1556072a4d8c"}, {"name": "0090f937877f06ffd0746dadb518e086", "is_reserved": 0, "is_disabled": 0, "lon": -77.03656933333333, "rental_uris": {"android": "https://dc.lft.to/lastmile_qr_scan", "ios": "https://dc.lft.to/lastmile_qr_scan"}, "fusion_lon": 0.0, "lat": 38.95643333333334, "type": "electric_scooter", "fusion_lat": 0.0, "bike_id": "0090f937877f06ffd0746dadb518e086"}, {"name": "4f459dd39a102868a53d72c45bcd890b", "is_reserved": 0, "is_disabled": 0, "lon": -77.02625183333333, "rental_uris": {"android": "https://dc.lft.to/lastmile_qr_scan", "ios": "https://dc.lft.to/lastmile_qr_scan"}, "fusion_lon": 0.0, "lat": 38.887405333333334, "type": "electric_scooter", "fusion_lat": 0.0, "bike_id": "4f459dd39a102868a53d72c45bcd890b"}, {"name": "b84edbf89643eb48f16f325017f01286", "is_reserved": 0, "is_disabled": 0, "lon": -77.03861633333334, "rental_uris": {"android": "https://dc.lft.to/lastmile_qr_scan", "ios": "https://dc.lft.to/lastmile_qr_scan"}, "fusion_lon": 0.0, "lat": 38.9160695, "type": "electric_scooter", "fusion_lat": 0.0, "bike_id": "b84edbf89643eb48f16f325017f01286"}, {"name": "62707b9d840aebff4fdc513444897545", "is_reserved": 0, "is_disabled": 0, "lon": -77.02778683333334, "rental_uris": {"android": "https://dc.lft.to/lastmile_qr_scan", "ios": "https://dc.lft.to/lastmile_qr_scan"}, "fusion_lon": 0.0, "lat": 38.892209333333334, "type": "electric_scooter", "fusion_lat": 0.0, "bike_id": "62707b9d840aebff4fdc513444897545"}, {"name": "08ecdbf940970b894af4c099d2ca7135", "is_reserved": 0, "is_disabled": 0, "lon": -77.02614316666667, "rental_uris": {"android": "https://dc.lft.to/lastmile_qr_scan", "ios": "https://dc.lft.to/lastmile_qr_scan"}, "fusion_lon": 0.0, "lat": 38.91622566666667, "type": "electric_scooter", "fusion_lat": 0.0, "bike_id": "08ecdbf940970b894af4c099d2ca7135"}, {"name": "fcf98a7923aea3ddd7489bebc343ea2d", "is_reserved": 0, "is_disabled": 0, "lon": -77.03206933333334, "rental_uris": {"android": "https://dc.lft.to/lastmile_qr_scan", "ios": "https://dc.lft.to/lastmile_qr_scan"}, "fusion_lon": 0.0, "lat": 38.914296666666665, "type": "electric_scooter", "fusion_lat": 0.0, "bike_id": "fcf98a7923aea3ddd7489bebc343ea2d"}, {"name": "f15240cf88d8c901f8e03d069f0e7c90", "is_reserved": 0, "is_disabled": 0, "lon": -77.04300433333333, "rental_uris": {"android": "https://dc.lft.to/lastmile_qr_scan", "ios": "https://dc.lft.to/lastmile_qr_scan"}, "fusion_lon": 0.0, "lat": 38.922596666666664, "type": "electric_scooter", "fusion_lat": 0.0, "bike_id": "f15240cf88d8c901f8e03d069f0e7c90"}, {"name": "c9aaa72ff05b000710614784ac1d2ffc", "is_reserved": 0, "is_disabled": 0, "lon": -77.02201, "rental_uris": {"android": "https://dc.lft.to/lastmile_qr_scan", "ios": "https://dc.lft.to/lastmile_qr_scan"}, "fusion_lon": 0.0, "lat": 38.92111, "type": "electric_scooter", "fusion_lat": 0.0, "bike_id": "c9aaa72ff05b000710614784ac1d2ffc"}, {"name": "e6131eee7cdc9cb51e1444166208e6c0", "is_reserved": 0, "is_disabled": 0, "lon": -77.04255116666667, "rental_uris": {"android": "https://dc.lft.to/lastmile_qr_scan", "ios": "https://dc.lft.to/lastmile_qr_scan"}, "fusion_lon": 0.0, "lat": 38.920675833333334, "type": "electric_scooter", "fusion_lat": 0.0, "bike_id": "e6131eee7cdc9cb51e1444166208e6c0"}, {"name": "0bcde23e82182c9493aec80fd44a4c4a", "is_reserved": 0, "is_disabled": 0, "lon": -76.9320065, "rental_uris": {"android": "https://dc.lft.to/lastmile_qr_scan", "ios": "https://dc.lft.to/lastmile_qr_scan"}, "fusion_lon": 0.0, "lat": 38.87234266666667, "type": "electric_bike", "fusion_lat": 0.0, "bike_id": "0bcde23e82182c9493aec80fd44a4c4a"}, {"name": "f155f2ab0c3bd8c6b97bd1d9dd1dd281", "is_reserved": 0, "is_disabled": 0, "lon": -77.09964016666666, "rental_uris": {"android": "https://dc.lft.to/lastmile_qr_scan", "ios": "https://dc.lft.to/lastmile_qr_scan"}, "fusion_lon": 0.0, "lat": 38.8579205, "type": "electric_bike", "fusion_lat": 0.0, "bike_id": "f155f2ab0c3bd8c6b97bd1d9dd1dd281"}, {"name": "ae3be93c837cae65e8b7798bcf5dba5c", "is_reserved": 0, "is_disabled": 0, "lon": -77.076625, "rental_uris": {"android": "https://dc.lft.to/lastmile_qr_scan", "ios": "https://dc.lft.to/lastmile_qr_scan"}, "fusion_lon": 0.0, "lat": 38.910840666666665, "type": "electric_scooter", "fusion_lat": 0.0, "bike_id": "ae3be93c837cae65e8b7798bcf5dba5c"}, {"name": "70b159f0424f5a4450fee52b223965a6", "is_reserved": 0, "is_disabled": 0, "lon": -77.04662166666667, "rental_uris": {"android": "https://dc.lft.to/lastmile_qr_scan", "ios": "https://dc.lft.to/lastmile_qr_scan"}, "fusion_lon": 0.0, "lat": 38.905067333333335, "type": "electric_scooter", "fusion_lat": 0.0, "bike_id": "70b159f0424f5a4450fee52b223965a6"}, {"name": "5aca344324196769e90d20182af9609a", "is_reserved": 0, "is_disabled": 0, "lon": -77.079905, "rental_uris": {"android": "https://dc.lft.to/lastmile_qr_scan", "ios": "https://dc.lft.to/lastmile_qr_scan"}, "fusion_lon": 0.0, "lat": 38.9237485, "type": "electric_scooter", "fusion_lat": 0.0, "bike_id": "5aca344324196769e90d20182af9609a"}, {"name": "303fc272c1c37e5c8a189eaa17e7317d", "is_reserved": 0, "is_disabled": 0, "lon": -77.03297866666666, "rental_uris": {"android": "https://dc.lft.to/lastmile_qr_scan", "ios": "https://dc.lft.to/lastmile_qr_scan"}, "fusion_lon": 0.0, "lat": 38.909726166666665, "type": "electric_scooter", "fusion_lat": 0.0, "bike_id": "303fc272c1c37e5c8a189eaa17e7317d"}, {"name": "f1dcb5ed028fcb476d8d3e4b45fe43b8", "is_reserved": 0, "is_disabled": 0, "lon": -77.03331133333333, "rental_uris": {"android": "https://dc.lft.to/lastmile_qr_scan", "ios": "https://dc.lft.to/lastmile_qr_scan"}, "fusion_lon": 0.0, "lat": 38.92881883333333, "type": "electric_scooter", "fusion_lat": 0.0, "bike_id": "f1dcb5ed028fcb476d8d3e4b45fe43b8"}, {"name": "8c712275114ccfbbf93f96b6c7a8c6d5", "is_reserved": 0, "is_disabled": 0, "lon": -77.03958816666666, "rental_uris": {"android": "https://dc.lft.to/lastmile_qr_scan", "ios": "https://dc.lft.to/lastmile_qr_scan"}, "fusion_lon": 0.0, "lat": 38.90614766666667, "type": "electric_scooter", "fusion_lat": 0.0, "bike_id": "8c712275114ccfbbf93f96b6c7a8c6d5"}, {"name": "6009c7967a71dfbd1721b88571736075", "is_reserved": 0, "is_disabled": 0, "lon": -77.02455933333333, "rental_uris": {"android": "https://dc.lft.to/lastmile_qr_scan", "ios": "https://dc.lft.to/lastmile_qr_scan"}, "fusion_lon": 0.0, "lat": 38.923799833333334, "type": "electric_scooter", "fusion_lat": 0.0, "bike_id": "6009c7967a71dfbd1721b88571736075"}, {"name": "738c30bc46533437b82738fff0fcdb59", "is_reserved": 0, "is_disabled": 0, "lon": -76.973311, "rental_uris": {"android": "https://dc.lft.to/lastmile_qr_scan", "ios": "https://dc.lft.to/lastmile_qr_scan"}, "fusion_lon": 0.0, "lat": 38.850685, "type": "electric_bike", "fusion_lat": 0.0, "bike_id": "738c30bc46533437b82738fff0fcdb59"}, {"name": "ca879639e2690f6eef375b3471983b66", "is_reserved": 0, "is_disabled": 0, "lon": -77.00844133333334, "rental_uris": {"android": "https://dc.lft.to/lastmile_qr_scan", "ios": "https://dc.lft.to/lastmile_qr_scan"}, "fusion_lon": 0.0, "lat": 38.906731, "type": "electric_scooter", "fusion_lat": 0.0, "bike_id": "ca879639e2690f6eef375b3471983b66"}, {"name": "134e620a3f46757dcddc59084405811c", "is_reserved": 0, "is_disabled": 0, "lon": -77.04671416666666, "rental_uris": {"android": "https://dc.lft.to/lastmile_qr_scan", "ios": "https://dc.lft.to/lastmile_qr_scan"}, "fusion_lon": 0.0, "lat": 38.9036895, "type": "electric_scooter", "fusion_lat": 0.0, "bike_id": "134e620a3f46757dcddc59084405811c"}, {"name": "e5cc54e43ae1aad69583e9f417700ec9", "is_reserved": 0, "is_disabled": 0, "lon": -77.02174483333333, "rental_uris": {"android": "https://dc.lft.to/lastmile_qr_scan", "ios": "https://dc.lft.to/lastmile_qr_scan"}, "fusion_lon": 0.0, "lat": 38.887454166666664, "type": "electric_scooter", "fusion_lat": 0.0, "bike_id": "e5cc54e43ae1aad69583e9f417700ec9"}, {"name": "9880fb5b00adec228ea558fc2bba19c7", "is_reserved": 0, "is_disabled": 0, "lon": -77.03345583333333, "rental_uris": {"android": "https://dc.lft.to/lastmile_qr_scan", "ios": "https://dc.lft.to/lastmile_qr_scan"}, "fusion_lon": 0.0, "lat": 38.919134, "type": "electric_scooter", "fusion_lat": 0.0, "bike_id": "9880fb5b00adec228ea558fc2bba19c7"}, {"name": "f4f8c181bc6c6bac6a60f2431723ca4a", "is_reserved": 0, "is_disabled": 0, "lon": -76.9948435, "rental_uris": {"android": "https://dc.lft.to/lastmile_qr_scan", "ios": "https://dc.lft.to/lastmile_qr_scan"}, "fusion_lon": 0.0, "lat": 38.862186333333334, "type": "electric_scooter", "fusion_lat": 0.0, "bike_id": "f4f8c181bc6c6bac6a60f2431723ca4a"}, {"name": "7732f9c646ad6e0564f8bc071c1dc253", "is_reserved": 0, "is_disabled": 0, "lon": -77.01963766666667, "rental_uris": {"android": "https://dc.lft.to/lastmile_qr_scan", "ios": "https://dc.lft.to/lastmile_qr_scan"}, "fusion_lon": 0.0, "lat": 38.93581733333333, "type": "electric_scooter", "fusion_lat": 0.0, "bike_id": "7732f9c646ad6e0564f8bc071c1dc253"}, {"name": "f9e08092a8763b63e7bfd933d22b5801", "is_reserved": 0, "is_disabled": 0, "lon": -77.03340133333333, "rental_uris": {"android": "https://dc.lft.to/lastmile_qr_scan", "ios": "https://dc.lft.to/lastmile_qr_scan"}, "fusion_lon": 0.0, "lat": 38.91915916666667, "type": "electric_scooter", "fusion_lat": 0.0, "bike_id": "f9e08092a8763b63e7bfd933d22b5801"}, {"name": "b8ed0675f962a084b9e1fb5e4756e417", "is_reserved": 0, "is_disabled": 0, "lon": -77.01454883333334, "rental_uris": {"android": "https://dc.lft.to/lastmile_qr_scan", "ios": "https://dc.lft.to/lastmile_qr_scan"}, "fusion_lon": 0.0, "lat": 38.868033, "type": "electric_bike", "fusion_lat": 0.0, "bike_id": "b8ed0675f962a084b9e1fb5e4756e417"}, {"name": "29354394ae7868dccecf37de2ea3b15b", "is_reserved": 0, "is_disabled": 0, "lon": -77.01082866666667, "rental_uris": {"android": "https://dc.lft.to/lastmile_qr_scan", "ios": "https://dc.lft.to/lastmile_qr_scan"}, "fusion_lon": 0.0, "lat": 38.89613816666667, "type": "electric_scooter", "fusion_lat": 0.0, "bike_id": "29354394ae7868dccecf37de2ea3b15b"}, {"name": "aeacd41322608be2b15a15dc594909f6", "is_reserved": 0, "is_disabled": 0, "lon": -77.0076885, "rental_uris": {"android": "https://dc.lft.to/lastmile_qr_scan", "ios": "https://dc.lft.to/lastmile_qr_scan"}, "fusion_lon": 0.0, "lat": 38.90718066666667, "type": "electric_scooter", "fusion_lat": 0.0, "bike_id": "aeacd41322608be2b15a15dc594909f6"}, {"name": "bc381e39190750e42f5ad62b640acfcb", "is_reserved": 0, "is_disabled": 0, "lon": -77.04150266666667, "rental_uris": {"android": "https://dc.lft.to/lastmile_qr_scan", "ios": "https://dc.lft.to/lastmile_qr_scan"}, "fusion_lon": 0.0, "lat": 38.923553, "type": "electric_scooter", "fusion_lat": 0.0, "bike_id": "bc381e39190750e42f5ad62b640acfcb"}, {"name": "4cce5c5bd067eaae31a41fb799d0686e", "is_reserved": 0, "is_disabled": 0, "lon": -77.0770885, "rental_uris": {"android": "https://dc.lft.to/lastmile_qr_scan", "ios": "https://dc.lft.to/lastmile_qr_scan"}, "fusion_lon": 0.0, "lat": 38.942939333333335, "type": "electric_scooter", "fusion_lat": 0.0, "bike_id": "4cce5c5bd067eaae31a41fb799d0686e"}, {"name": "cd6232857c82ce669b446fee09e455bd", "is_reserved": 0, "is_disabled": 0, "lon": -77.006456, "rental_uris": {"android": "https://dc.lft.to/lastmile_qr_scan", "ios": "https://dc.lft.to/lastmile_qr_scan"}, "fusion_lon": 0.0, "lat": 38.88336183333333, "type": "electric_scooter", "fusion_lat": 0.0, "bike_id": "cd6232857c82ce669b446fee09e455bd"}, {"name": "4f1526b5a28b09c044395f21e9c90bc9", "is_reserved": 0, "is_disabled": 0, "lon": -77.0209585, "rental_uris": {"android": "https://dc.lft.to/lastmile_qr_scan", "ios": "https://dc.lft.to/lastmile_qr_scan"}, "fusion_lon": 0.0, "lat": 38.92916316666667, "type": "electric_scooter", "fusion_lat": 0.0, "bike_id": "4f1526b5a28b09c044395f21e9c90bc9"}, {"name": "1d4cd38519372b45a77122c612e2aeed", "is_reserved": 0, "is_disabled": 0, "lon": -77.04033366666667, "rental_uris": {"android": "https://dc.lft.to/lastmile_qr_scan", "ios": "https://dc.lft.to/lastmile_qr_scan"}, "fusion_lon": 0.0, "lat": 38.905964833333336, "type": "electric_scooter", "fusion_lat": 0.0, "bike_id": "1d4cd38519372b45a77122c612e2aeed"}, {"name": "98b8f85369ac8920c078219a4104639b", "is_reserved": 0, "is_disabled": 0, "lon": -76.98541516666667, "rental_uris": {"android": "https://dc.lft.to/lastmile_qr_scan", "ios": "https://dc.lft.to/lastmile_qr_scan"}, "fusion_lon": 0.0, "lat": 38.88594783333333, "type": "electric_scooter", "fusion_lat": 0.0, "bike_id": "98b8f85369ac8920c078219a4104639b"}, {"name": "93fdfdc4131b70f54ad7b16396e29f40", "is_reserved": 0, "is_disabled": 0, "lon": -77.0177425, "rental_uris": {"android": "https://dc.lft.to/lastmile_qr_scan", "ios": "https://dc.lft.to/lastmile_qr_scan"}, "fusion_lon": 0.0, "lat": 38.877945, "type": "electric_scooter", "fusion_lat": 0.0, "bike_id": "93fdfdc4131b70f54ad7b16396e29f40"}, {"name": "f6ca61e5ea184ba6cc9c087819a26fb5", "is_reserved": 0, "is_disabled": 0, "lon": -77.06516183333333, "rental_uris": {"android": "https://dc.lft.to/lastmile_qr_scan", "ios": "https://dc.lft.to/lastmile_qr_scan"}, "fusion_lon": 0.0, "lat": 38.90531383333333, "type": "electric_scooter", "fusion_lat": 0.0, "bike_id": "f6ca61e5ea184ba6cc9c087819a26fb5"}, {"name": "7b6d8c3427be99239fa264a5d82b0dc8", "is_reserved": 0, "is_disabled": 0, "lon": -77.00338116666667, "rental_uris": {"android": "https://dc.lft.to/lastmile_qr_scan", "ios": "https://dc.lft.to/lastmile_qr_scan"}, "fusion_lon": 0.0, "lat": 38.8950815, "type": "electric_scooter", "fusion_lat": 0.0, "bike_id": "7b6d8c3427be99239fa264a5d82b0dc8"}, {"name": "73cb330a7141bc2082b08ca84cb2fe23", "is_reserved": 0, "is_disabled": 0, "lon": -77.0322555, "rental_uris": {"android": "https://dc.lft.to/lastmile_qr_scan", "ios": "https://dc.lft.to/lastmile_qr_scan"}, "fusion_lon": 0.0, "lat": 38.892211, "type": "electric_scooter", "fusion_lat": 0.0, "bike_id": "73cb330a7141bc2082b08ca84cb2fe23"}, {"name": "015184ad63d3a527502efb699743a18a", "is_reserved": 0, "is_disabled": 0, "lon": -77.01787283333333, "rental_uris": {"android": "https://dc.lft.to/lastmile_qr_scan", "ios": "https://dc.lft.to/lastmile_qr_scan"}, "fusion_lon": 0.0, "lat": 38.87753716666667, "type": "electric_scooter", "fusion_lat": 0.0, "bike_id": "015184ad63d3a527502efb699743a18a"}, {"name": "7ab54f75c26c3373e1a06ac5ac308d4e", "is_reserved": 0, "is_disabled": 0, "lon": -77.00213116666667, "rental_uris": {"android": "https://dc.lft.to/lastmile_qr_scan", "ios": "https://dc.lft.to/lastmile_qr_scan"}, "fusion_lon": 0.0, "lat": 38.87751383333333, "type": "electric_scooter", "fusion_lat": 0.0, "bike_id": "7ab54f75c26c3373e1a06ac5ac308d4e"}, {"name": "f54d1d1c705b806d4b5736fa16093997", "is_reserved": 0, "is_disabled": 0, "lon": -77.05135583333333, "rental_uris": {"android": "https://dc.lft.to/lastmile_qr_scan", "ios": "https://dc.lft.to/lastmile_qr_scan"}, "fusion_lon": 0.0, "lat": 38.9058375, "type": "electric_scooter", "fusion_lat": 0.0, "bike_id": "f54d1d1c705b806d4b5736fa16093997"}, {"name": "0a819be96294b03ee66c05a535c1fb2b", "is_reserved": 0, "is_disabled": 0, "lon": -77.00124916666667, "rental_uris": {"android": "https://dc.lft.to/lastmile_qr_scan", "ios": "https://dc.lft.to/lastmile_qr_scan"}, "fusion_lon": 0.0, "lat": 38.89988016666667, "type": "electric_scooter", "fusion_lat": 0.0, "bike_id": "0a819be96294b03ee66c05a535c1fb2b"}, {"name": "db30481a6c9b4e0e0c5f22a1158fbeba", "is_reserved": 0, "is_disabled": 0, "lon": -77.01100283333334, "rental_uris": {"android": "https://dc.lft.to/lastmile_qr_scan", "ios": "https://dc.lft.to/lastmile_qr_scan"}, "fusion_lon": 0.0, "lat": 38.905583166666666, "type": "electric_scooter", "fusion_lat": 0.0, "bike_id": "db30481a6c9b4e0e0c5f22a1158fbeba"}, {"name": "5185659ae9cad33e81b15b280f31a05f", "is_reserved": 0, "is_disabled": 0, "lon": -77.04127183333334, "rental_uris": {"android": "https://dc.lft.to/lastmile_qr_scan", "ios": "https://dc.lft.to/lastmile_qr_scan"}, "fusion_lon": 0.0, "lat": 38.91632366666666, "type": "electric_scooter", "fusion_lat": 0.0, "bike_id": "5185659ae9cad33e81b15b280f31a05f"}, {"name": "f17b277bbe6f03b7246a9a24d5741728", "is_reserved": 0, "is_disabled": 0, "lon": -76.987343, "rental_uris": {"android": "https://dc.lft.to/lastmile_qr_scan", "ios": "https://dc.lft.to/lastmile_qr_scan"}, "fusion_lon": 0.0, "lat": 38.944335, "type": "electric_bike", "fusion_lat": 0.0, "bike_id": "f17b277bbe6f03b7246a9a24d5741728"}, {"name": "3c5de491e17a4841a23d0ec4834e7980", "is_reserved": 0, "is_disabled": 0, "lon": -76.991594, "rental_uris": {"android": "https://dc.lft.to/lastmile_qr_scan", "ios": "https://dc.lft.to/lastmile_qr_scan"}, "fusion_lon": 0.0, "lat": 38.879214833333336, "type": "electric_scooter", "fusion_lat": 0.0, "bike_id": "3c5de491e17a4841a23d0ec4834e7980"}, {"name": "3fa07f981e90aebc6c925b0644ad7a97", "is_reserved": 0, "is_disabled": 0, "lon": -77.02814466666666, "rental_uris": {"android": "https://dc.lft.to/lastmile_qr_scan", "ios": "https://dc.lft.to/lastmile_qr_scan"}, "fusion_lon": 0.0, "lat": 38.956162, "type": "electric_scooter", "fusion_lat": 0.0, "bike_id": "3fa07f981e90aebc6c925b0644ad7a97"}, {"name": "fd09b1d805d257a19d5756f55e8d69c9", "is_reserved": 0, "is_disabled": 0, "lon": -77.047454, "rental_uris": {"android": "https://dc.lft.to/lastmile_qr_scan", "ios": "https://dc.lft.to/lastmile_qr_scan"}, "fusion_lon": 0.0, "lat": 38.902174333333335, "type": "electric_scooter", "fusion_lat": 0.0, "bike_id": "fd09b1d805d257a19d5756f55e8d69c9"}, {"name": "6aba98d01f974862078aef587050115a", "is_reserved": 0, "is_disabled": 0, "lon": -77.04773583333333, "rental_uris": {"android": "https://dc.lft.to/lastmile_qr_scan", "ios": "https://dc.lft.to/lastmile_qr_scan"}, "fusion_lon": 0.0, "lat": 38.902310666666665, "type": "electric_scooter", "fusion_lat": 0.0, "bike_id": "6aba98d01f974862078aef587050115a"}, {"name": "94087493cedcd5b4b5031376f775c2c8", "is_reserved": 0, "is_disabled": 0, "lon": -77.07864533333333, "rental_uris": {"android": "https://dc.lft.to/lastmile_qr_scan", "ios": "https://dc.lft.to/lastmile_qr_scan"}, "fusion_lon": 0.0, "lat": 38.924620166666664, "type": "electric_scooter", "fusion_lat": 0.0, "bike_id": "94087493cedcd5b4b5031376f775c2c8"}, {"name": "1d834ab2d4e9a1bdc124bbae650a7b58", "is_reserved": 0, "is_disabled": 0, "lon": -77.02853, "rental_uris": {"android": "https://dc.lft.to/lastmile_qr_scan", "ios": "https://dc.lft.to/lastmile_qr_scan"}, "fusion_lon": 0.0, "lat": 38.9004475, "type": "electric_scooter", "fusion_lat": 0.0, "bike_id": "1d834ab2d4e9a1bdc124bbae650a7b58"}, {"name": "6d953ffcdb32ac7ea5eeceb5922243c1", "is_reserved": 0, "is_disabled": 0, "lon": -77.02422166666666, "rental_uris": {"android": "https://dc.lft.to/lastmile_qr_scan", "ios": "https://dc.lft.to/lastmile_qr_scan"}, "fusion_lon": 0.0, "lat": 38.89226583333333, "type": "electric_scooter", "fusion_lat": 0.0, "bike_id": "6d953ffcdb32ac7ea5eeceb5922243c1"}, {"name": "7eb8bbbe4bcdc6cabcfb1de871524660", "is_reserved": 0, "is_disabled": 0, "lon": -77.12260383333333, "rental_uris": {"android": "https://dc.lft.to/lastmile_qr_scan", "ios": "https://dc.lft.to/lastmile_qr_scan"}, "fusion_lon": 0.0, "lat": 38.89193866666667, "type": "electric_bike", "fusion_lat": 0.0, "bike_id": "7eb8bbbe4bcdc6cabcfb1de871524660"}, {"name": "9d7deb2aeb33889c4c6c167797d84121", "is_reserved": 0, "is_disabled": 0, "lon": -77.07684666666667, "rental_uris": {"android": "https://dc.lft.to/lastmile_qr_scan", "ios": "https://dc.lft.to/lastmile_qr_scan"}, "fusion_lon": 0.0, "lat": 38.83197216666667, "type": "electric_bike", "fusion_lat": 0.0, "bike_id": "9d7deb2aeb33889c4c6c167797d84121"}, {"name": "ad1554eeb58c34efdbb3c733e61d74e1", "is_reserved": 0, "is_disabled": 0, "lon": -77.01538983333333, "rental_uris": {"android": "https://dc.lft.to/lastmile_qr_scan", "ios": "https://dc.lft.to/lastmile_qr_scan"}, "fusion_lon": 0.0, "lat": 38.9145475, "type": "electric_scooter", "fusion_lat": 0.0, "bike_id": "ad1554eeb58c34efdbb3c733e61d74e1"}, {"name": "ff34a58a6ae39d0b2394325272c5262f", "is_reserved": 0, "is_disabled": 0, "lon": -76.9354275, "rental_uris": {"android": "https://dc.lft.to/lastmile_qr_scan", "ios": "https://dc.lft.to/lastmile_qr_scan"}, "fusion_lon": 0.0, "lat": 38.95559, "type": "electric_bike", "fusion_lat": 0.0, "bike_id": "ff34a58a6ae39d0b2394325272c5262f"}, {"name": "70f9dd15057cd63607b91a67ef874c90", "is_reserved": 0, "is_disabled": 0, "lon": -77.112159, "rental_uris": {"android": "https://dc.lft.to/lastmile_qr_scan", "ios": "https://dc.lft.to/lastmile_qr_scan"}, "fusion_lon": 0.0, "lat": 38.82886766666667, "type": "electric_bike", "fusion_lat": 0.0, "bike_id": "70f9dd15057cd63607b91a67ef874c90"}, {"name": "88aa86389e1994d029fe9dc8a9ca97a9", "is_reserved": 0, "is_disabled": 0, "lon": -77.01194816666667, "rental_uris": {"android": "https://dc.lft.to/lastmile_qr_scan", "ios": "https://dc.lft.to/lastmile_qr_scan"}, "fusion_lon": 0.0, "lat": 38.921917666666666, "type": "electric_scooter", "fusion_lat": 0.0, "bike_id": "88aa86389e1994d029fe9dc8a9ca97a9"}, {"name": "8ef410256e2f01a3b0e2dca5247d7284", "is_reserved": 0, "is_disabled": 0, "lon": -77.04658966666666, "rental_uris": {"android": "https://dc.lft.to/lastmile_qr_scan", "ios": "https://dc.lft.to/lastmile_qr_scan"}, "fusion_lon": 0.0, "lat": 38.89341816666666, "type": "electric_scooter", "fusion_lat": 0.0, "bike_id": "8ef410256e2f01a3b0e2dca5247d7284"}, {"name": "fb2a65316dbcf729c8cd72b07d1f0d35", "is_reserved": 0, "is_disabled": 0, "lon": -76.98165666666667, "rental_uris": {"android": "https://dc.lft.to/lastmile_qr_scan", "ios": "https://dc.lft.to/lastmile_qr_scan"}, "fusion_lon": 0.0, "lat": 38.95972916666667, "type": "electric_bike", "fusion_lat": 0.0, "bike_id": "fb2a65316dbcf729c8cd72b07d1f0d35"}, {"name": "d1eb6b60d60f64980636112e0abd3b76", "is_reserved": 0, "is_disabled": 0, "lon": -77.03832383333334, "rental_uris": {"android": "https://dc.lft.to/lastmile_qr_scan", "ios": "https://dc.lft.to/lastmile_qr_scan"}, "fusion_lon": 0.0, "lat": 38.91193616666666, "type": "electric_scooter", "fusion_lat": 0.0, "bike_id": "d1eb6b60d60f64980636112e0abd3b76"}, {"name": "bee6acf533bf80ab7840afaa5e8774c8", "is_reserved": 0, "is_disabled": 0, "lon": -77.04372033333334, "rental_uris": {"android": "https://dc.lft.to/lastmile_qr_scan", "ios": "https://dc.lft.to/lastmile_qr_scan"}, "fusion_lon": 0.0, "lat": 38.92579333333333, "type": "electric_scooter", "fusion_lat": 0.0, "bike_id": "bee6acf533bf80ab7840afaa5e8774c8"}, {"name": "b5dc248d75b4af23b20b839b6f8a121b", "is_reserved": 0, "is_disabled": 0, "lon": -77.04663816666667, "rental_uris": {"android": "https://dc.lft.to/lastmile_qr_scan", "ios": "https://dc.lft.to/lastmile_qr_scan"}, "fusion_lon": 0.0, "lat": 38.89913416666667, "type": "electric_scooter", "fusion_lat": 0.0, "bike_id": "b5dc248d75b4af23b20b839b6f8a121b"}, {"name": "8b0a291ab977ecdfda2990b78c3ef9ab", "is_reserved": 0, "is_disabled": 0, "lon": -77.0267955, "rental_uris": {"android": "https://dc.lft.to/lastmile_qr_scan", "ios": "https://dc.lft.to/lastmile_qr_scan"}, "fusion_lon": 0.0, "lat": 38.91075633333333, "type": "electric_scooter", "fusion_lat": 0.0, "bike_id": "8b0a291ab977ecdfda2990b78c3ef9ab"}, {"name": "164eb56e444bd03ec3d6b8a3da933707", "is_reserved": 0, "is_disabled": 0, "lon": -76.99457483333333, "rental_uris": {"android": "https://dc.lft.to/lastmile_qr_scan", "ios": "https://dc.lft.to/lastmile_qr_scan"}, "fusion_lon": 0.0, "lat": 38.85165583333333, "type": "electric_scooter", "fusion_lat": 0.0, "bike_id": "164eb56e444bd03ec3d6b8a3da933707"}, {"name": "be2b3f7a53eef04635531435f2fee844", "is_reserved": 0, "is_disabled": 0, "lon": -77.0804315, "rental_uris": {"android": "https://dc.lft.to/lastmile_qr_scan", "ios": "https://dc.lft.to/lastmile_qr_scan"}, "fusion_lon": 0.0, "lat": 38.848467166666666, "type": "electric_bike", "fusion_lat": 0.0, "bike_id": "be2b3f7a53eef04635531435f2fee844"}, {"name": "2cc99f7c281e220cc4be6c7088eb81ca", "is_reserved": 0, "is_disabled": 0, "lon": -77.04697833333333, "rental_uris": {"android": "https://dc.lft.to/lastmile_qr_scan", "ios": "https://dc.lft.to/lastmile_qr_scan"}, "fusion_lon": 0.0, "lat": 38.921091833333335, "type": "electric_scooter", "fusion_lat": 0.0, "bike_id": "2cc99f7c281e220cc4be6c7088eb81ca"}, {"name": "3379dfa2d52574bfddc51fec473e47cf", "is_reserved": 0, "is_disabled": 0, "lon": -76.98622033333334, "rental_uris": {"android": "https://dc.lft.to/lastmile_qr_scan", "ios": "https://dc.lft.to/lastmile_qr_scan"}, "fusion_lon": 0.0, "lat": 38.90697083333333, "type": "electric_scooter", "fusion_lat": 0.0, "bike_id": "3379dfa2d52574bfddc51fec473e47cf"}, {"name": "22d0acd4cc6af76bdead64446ed2e6d5", "is_reserved": 0, "is_disabled": 0, "lon": -76.984716, "rental_uris": {"android": "https://dc.lft.to/lastmile_qr_scan", "ios": "https://dc.lft.to/lastmile_qr_scan"}, "fusion_lon": 0.0, "lat": 38.908624, "type": "electric_scooter", "fusion_lat": 0.0, "bike_id": "22d0acd4cc6af76bdead64446ed2e6d5"}, {"name": "b90385a52747c6174440c7f20c58a136", "is_reserved": 0, "is_disabled": 0, "lon": -77.02692833333333, "rental_uris": {"android": "https://dc.lft.to/lastmile_qr_scan", "ios": "https://dc.lft.to/lastmile_qr_scan"}, "fusion_lon": 0.0, "lat": 38.8984555, "type": "electric_scooter", "fusion_lat": 0.0, "bike_id": "b90385a52747c6174440c7f20c58a136"}, {"name": "04343364e74d681190eb4534878f322d", "is_reserved": 0, "is_disabled": 0, "lon": -76.93262983333334, "rental_uris": {"android": "https://dc.lft.to/lastmile_qr_scan", "ios": "https://dc.lft.to/lastmile_qr_scan"}, "fusion_lon": 0.0, "lat": 38.887745, "type": "electric_scooter", "fusion_lat": 0.0, "bike_id": "04343364e74d681190eb4534878f322d"}, {"name": "1c4910bc857b803b6273652a2aa4fb75", "is_reserved": 0, "is_disabled": 0, "lon": -76.98326433333334, "rental_uris": {"android": "https://dc.lft.to/lastmile_qr_scan", "ios": "https://dc.lft.to/lastmile_qr_scan"}, "fusion_lon": 0.0, "lat": 38.88818933333334, "type": "electric_scooter", "fusion_lat": 0.0, "bike_id": "1c4910bc857b803b6273652a2aa4fb75"}, {"name": "4bf594957993265e9dd8ab5bde671602", "is_reserved": 0, "is_disabled": 0, "lon": -76.95112033333334, "rental_uris": {"android": "https://dc.lft.to/lastmile_qr_scan", "ios": "https://dc.lft.to/lastmile_qr_scan"}, "fusion_lon": 0.0, "lat": 38.8879625, "type": "electric_scooter", "fusion_lat": 0.0, "bike_id": "4bf594957993265e9dd8ab5bde671602"}, {"name": "3891b6f3bd53bc1162b36a6504ec01c0", "is_reserved": 0, "is_disabled": 0, "lon": -77.02790266666666, "rental_uris": {"android": "https://dc.lft.to/lastmile_qr_scan", "ios": "https://dc.lft.to/lastmile_qr_scan"}, "fusion_lon": 0.0, "lat": 38.961378, "type": "electric_scooter", "fusion_lat": 0.0, "bike_id": "3891b6f3bd53bc1162b36a6504ec01c0"}, {"name": "9b3eec8fcc9ed1b6d672713f2f9b05ed", "is_reserved": 0, "is_disabled": 0, "lon": -77.0162595, "rental_uris": {"android": "https://dc.lft.to/lastmile_qr_scan", "ios": "https://dc.lft.to/lastmile_qr_scan"}, "fusion_lon": 0.0, "lat": 38.906128, "type": "electric_scooter", "fusion_lat": 0.0, "bike_id": "9b3eec8fcc9ed1b6d672713f2f9b05ed"}, {"name": "cbb728dccce28074a0d69e421a2df983", "is_reserved": 0, "is_disabled": 0, "lon": -77.0518495, "rental_uris": {"android": "https://dc.lft.to/lastmile_qr_scan", "ios": "https://dc.lft.to/lastmile_qr_scan"}, "fusion_lon": 0.0, "lat": 38.9254835, "type": "electric_scooter", "fusion_lat": 0.0, "bike_id": "cbb728dccce28074a0d69e421a2df983"}, {"name": "f470b1f9bc4b2c061d73fda95a301e5e", "is_reserved": 0, "is_disabled": 0, "lon": -76.98879133333334, "rental_uris": {"android": "https://dc.lft.to/lastmile_qr_scan", "ios": "https://dc.lft.to/lastmile_qr_scan"}, "fusion_lon": 0.0, "lat": 38.90638416666667, "type": "electric_scooter", "fusion_lat": 0.0, "bike_id": "f470b1f9bc4b2c061d73fda95a301e5e"}, {"name": "45f126244a5cd7fbc12a68da02c8a4ef", "is_reserved": 0, "is_disabled": 0, "lon": -77.01578866666667, "rental_uris": {"android": "https://dc.lft.to/lastmile_qr_scan", "ios": "https://dc.lft.to/lastmile_qr_scan"}, "fusion_lon": 0.0, "lat": 38.87658033333334, "type": "electric_scooter", "fusion_lat": 0.0, "bike_id": "45f126244a5cd7fbc12a68da02c8a4ef"}, {"name": "c45b8582784ae83e56dca363fc5b86d7", "is_reserved": 0, "is_disabled": 0, "lon": -77.07826033333333, "rental_uris": {"android": "https://dc.lft.to/lastmile_qr_scan", "ios": "https://dc.lft.to/lastmile_qr_scan"}, "fusion_lon": 0.0, "lat": 38.926829166666664, "type": "electric_scooter", "fusion_lat": 0.0, "bike_id": "c45b8582784ae83e56dca363fc5b86d7"}, {"name": "59191ac6b35e8b299af72fbdc9ea074a", "is_reserved": 0, "is_disabled": 0, "lon": -77.022722, "rental_uris": {"android": "https://dc.lft.to/lastmile_qr_scan", "ios": "https://dc.lft.to/lastmile_qr_scan"}, "fusion_lon": 0.0, "lat": 38.88742466666667, "type": "electric_scooter", "fusion_lat": 0.0, "bike_id": "59191ac6b35e8b299af72fbdc9ea074a"}, {"name": "4e0b1cfcada2e4cfde71fd3c53eab702", "is_reserved": 0, "is_disabled": 0, "lon": -77.01274783333334, "rental_uris": {"android": "https://dc.lft.to/lastmile_qr_scan", "ios": "https://dc.lft.to/lastmile_qr_scan"}, "fusion_lon": 0.0, "lat": 38.877893666666665, "type": "electric_bike", "fusion_lat": 0.0, "bike_id": "4e0b1cfcada2e4cfde71fd3c53eab702"}, {"name": "49db4a774f174fbfc3e86a250551a4c4", "is_reserved": 0, "is_disabled": 0, "lon": -77.0346055, "rental_uris": {"android": "https://dc.lft.to/lastmile_qr_scan", "ios": "https://dc.lft.to/lastmile_qr_scan"}, "fusion_lon": 0.0, "lat": 38.935424166666664, "type": "electric_scooter", "fusion_lat": 0.0, "bike_id": "49db4a774f174fbfc3e86a250551a4c4"}, {"name": "8c447aa6b187e703c9632ffec2fe8d28", "is_reserved": 0, "is_disabled": 0, "lon": -77.02596516666667, "rental_uris": {"android": "https://dc.lft.to/lastmile_qr_scan", "ios": "https://dc.lft.to/lastmile_qr_scan"}, "fusion_lon": 0.0, "lat": 38.97591716666667, "type": "electric_scooter", "fusion_lat": 0.0, "bike_id": "8c447aa6b187e703c9632ffec2fe8d28"}, {"name": "c0dddf1946822eb7ba5be628c6411558", "is_reserved": 0, "is_disabled": 0, "lon": -77.02504516666667, "rental_uris": {"android": "https://dc.lft.to/lastmile_qr_scan", "ios": "https://dc.lft.to/lastmile_qr_scan"}, "fusion_lon": 0.0, "lat": 38.920959333333336, "type": "electric_scooter", "fusion_lat": 0.0, "bike_id": "c0dddf1946822eb7ba5be628c6411558"}, {"name": "f3d7fe479859184c69ac9af4b34d4b79", "is_reserved": 0, "is_disabled": 0, "lon": -77.04140333333334, "rental_uris": {"android": "https://dc.lft.to/lastmile_qr_scan", "ios": "https://dc.lft.to/lastmile_qr_scan"}, "fusion_lon": 0.0, "lat": 38.906294833333334, "type": "electric_scooter", "fusion_lat": 0.0, "bike_id": "f3d7fe479859184c69ac9af4b34d4b79"}, {"name": "866be473302ef58dfa809f0a81cd54b6", "is_reserved": 0, "is_disabled": 0, "lon": -77.046736, "rental_uris": {"android": "https://dc.lft.to/lastmile_qr_scan", "ios": "https://dc.lft.to/lastmile_qr_scan"}, "fusion_lon": 0.0, "lat": 38.90505783333333, "type": "electric_scooter", "fusion_lat": 0.0, "bike_id": "866be473302ef58dfa809f0a81cd54b6"}, {"name": "fc747386149b45bf1301c1402e862f52", "is_reserved": 0, "is_disabled": 0, "lon": -77.017442, "rental_uris": {"android": "https://dc.lft.to/lastmile_qr_scan", "ios": "https://dc.lft.to/lastmile_qr_scan"}, "fusion_lon": 0.0, "lat": 38.886369, "type": "electric_scooter", "fusion_lat": 0.0, "bike_id": "fc747386149b45bf1301c1402e862f52"}, {"name": "8f7990bc6ee42a4793c9dba3a59d3580", "is_reserved": 0, "is_disabled": 0, "lon": -77.03102183333333, "rental_uris": {"android": "https://dc.lft.to/lastmile_qr_scan", "ios": "https://dc.lft.to/lastmile_qr_scan"}, "fusion_lon": 0.0, "lat": 38.919129166666664, "type": "electric_scooter", "fusion_lat": 0.0, "bike_id": "8f7990bc6ee42a4793c9dba3a59d3580"}, {"name": "31704536bcbb0857e8830608734f5137", "is_reserved": 0, "is_disabled": 0, "lon": -77.0995355, "rental_uris": {"android": "https://dc.lft.to/lastmile_qr_scan", "ios": "https://dc.lft.to/lastmile_qr_scan"}, "fusion_lon": 0.0, "lat": 38.92244216666667, "type": "electric_scooter", "fusion_lat": 0.0, "bike_id": "31704536bcbb0857e8830608734f5137"}, {"name": "703f4115fedfb12879b92621f79a3ba6", "is_reserved": 0, "is_disabled": 0, "lon": -77.033521, "rental_uris": {"android": "https://dc.lft.to/lastmile_qr_scan", "ios": "https://dc.lft.to/lastmile_qr_scan"}, "fusion_lon": 0.0, "lat": 38.92443983333333, "type": "electric_scooter", "fusion_lat": 0.0, "bike_id": "703f4115fedfb12879b92621f79a3ba6"}, {"name": "caa19a080ea242999060edbe3a58cbb4", "is_reserved": 0, "is_disabled": 0, "lon": -77.03894133333333, "rental_uris": {"android": "https://dc.lft.to/lastmile_qr_scan", "ios": "https://dc.lft.to/lastmile_qr_scan"}, "fusion_lon": 0.0, "lat": 38.922332833333336, "type": "electric_scooter", "fusion_lat": 0.0, "bike_id": "caa19a080ea242999060edbe3a58cbb4"}, {"name": "72052299b19807930a1cb48833dae76c", "is_reserved": 0, "is_disabled": 0, "lon": -77.04545316666666, "rental_uris": {"android": "https://dc.lft.to/lastmile_qr_scan", "ios": "https://dc.lft.to/lastmile_qr_scan"}, "fusion_lon": 0.0, "lat": 38.90752416666667, "type": "electric_scooter", "fusion_lat": 0.0, "bike_id": "72052299b19807930a1cb48833dae76c"}, {"name": "ae802e3ee340bfb32ed55f7abac2ef26", "is_reserved": 0, "is_disabled": 0, "lon": -76.96173633333333, "rental_uris": {"android": "https://dc.lft.to/lastmile_qr_scan", "ios": "https://dc.lft.to/lastmile_qr_scan"}, "fusion_lon": 0.0, "lat": 38.91862033333334, "type": "electric_bike", "fusion_lat": 0.0, "bike_id": "ae802e3ee340bfb32ed55f7abac2ef26"}, {"name": "27bd8dfd9c8709c350f07f50fb7c7c44", "is_reserved": 0, "is_disabled": 0, "lon": -77.08160516666666, "rental_uris": {"android": "https://dc.lft.to/lastmile_qr_scan", "ios": "https://dc.lft.to/lastmile_qr_scan"}, "fusion_lon": 0.0, "lat": 38.8887145, "type": "electric_bike", "fusion_lat": 0.0, "bike_id": "27bd8dfd9c8709c350f07f50fb7c7c44"}, {"name": "331a96cb8cc68a3c03eb57af7a4a86fd", "is_reserved": 0, "is_disabled": 0, "lon": -77.0203625, "rental_uris": {"android": "https://dc.lft.to/lastmile_qr_scan", "ios": "https://dc.lft.to/lastmile_qr_scan"}, "fusion_lon": 0.0, "lat": 38.892755666666666, "type": "electric_scooter", "fusion_lat": 0.0, "bike_id": "331a96cb8cc68a3c03eb57af7a4a86fd"}, {"name": "fca26c50c79553c0a376e99296e85b51", "is_reserved": 0, "is_disabled": 0, "lon": -77.02156816666667, "rental_uris": {"android": "https://dc.lft.to/lastmile_qr_scan", "ios": "https://dc.lft.to/lastmile_qr_scan"}, "fusion_lon": 0.0, "lat": 38.87917683333333, "type": "electric_scooter", "fusion_lat": 0.0, "bike_id": "fca26c50c79553c0a376e99296e85b51"}, {"name": "201e5e354d2b4b668095a0fdcb0070ab", "is_reserved": 0, "is_disabled": 0, "lon": -76.98459766666667, "rental_uris": {"android": "https://dc.lft.to/lastmile_qr_scan", "ios": "https://dc.lft.to/lastmile_qr_scan"}, "fusion_lon": 0.0, "lat": 38.8936325, "type": "electric_scooter", "fusion_lat": 0.0, "bike_id": "201e5e354d2b4b668095a0fdcb0070ab"}, {"name": "f856809038caf3701f2c26dfff545a2a", "is_reserved": 0, "is_disabled": 0, "lon": -77.0189575, "rental_uris": {"android": "https://dc.lft.to/lastmile_qr_scan", "ios": "https://dc.lft.to/lastmile_qr_scan"}, "fusion_lon": 0.0, "lat": 38.9391375, "type": "electric_scooter", "fusion_lat": 0.0, "bike_id": "f856809038caf3701f2c26dfff545a2a"}, {"name": "01d10f305b4d28bfb32391d4e69c236d", "is_reserved": 0, "is_disabled": 0, "lon": -77.0373815, "rental_uris": {"android": "https://dc.lft.to/lastmile_qr_scan", "ios": "https://dc.lft.to/lastmile_qr_scan"}, "fusion_lon": 0.0, "lat": 38.902386166666666, "type": "electric_scooter", "fusion_lat": 0.0, "bike_id": "01d10f305b4d28bfb32391d4e69c236d"}, {"name": "f6e5a2e4ee29884769a8b093bbef8367", "is_reserved": 0, "is_disabled": 0, "lon": -77.038628, "rental_uris": {"android": "https://dc.lft.to/lastmile_qr_scan", "ios": "https://dc.lft.to/lastmile_qr_scan"}, "fusion_lon": 0.0, "lat": 38.911183, "type": "electric_scooter", "fusion_lat": 0.0, "bike_id": "f6e5a2e4ee29884769a8b093bbef8367"}, {"name": "bb945955cf4f4a8339b74d4616465b66", "is_reserved": 0, "is_disabled": 0, "lon": -77.033781, "rental_uris": {"android": "https://dc.lft.to/lastmile_qr_scan", "ios": "https://dc.lft.to/lastmile_qr_scan"}, "fusion_lon": 0.0, "lat": 38.909766, "type": "electric_scooter", "fusion_lat": 0.0, "bike_id": "bb945955cf4f4a8339b74d4616465b66"}, {"name": "9048d825453b20864559b5929837975a", "is_reserved": 0, "is_disabled": 0, "lon": -77.02741866666666, "rental_uris": {"android": "https://dc.lft.to/lastmile_qr_scan", "ios": "https://dc.lft.to/lastmile_qr_scan"}, "fusion_lon": 0.0, "lat": 38.9241715, "type": "electric_scooter", "fusion_lat": 0.0, "bike_id": "9048d825453b20864559b5929837975a"}, {"name": "9116cf0748b814f3b472103a519a1746", "is_reserved": 0, "is_disabled": 0, "lon": -77.03634883333334, "rental_uris": {"android": "https://dc.lft.to/lastmile_qr_scan", "ios": "https://dc.lft.to/lastmile_qr_scan"}, "fusion_lon": 0.0, "lat": 38.9026615, "type": "electric_scooter", "fusion_lat": 0.0, "bike_id": "9116cf0748b814f3b472103a519a1746"}, {"name": "8e5a93047dc510d7b52c4768c5a2b928", "is_reserved": 0, "is_disabled": 0, "lon": -77.02511516666667, "rental_uris": {"android": "https://dc.lft.to/lastmile_qr_scan", "ios": "https://dc.lft.to/lastmile_qr_scan"}, "fusion_lon": 0.0, "lat": 38.92409416666667, "type": "electric_scooter", "fusion_lat": 0.0, "bike_id": "8e5a93047dc510d7b52c4768c5a2b928"}, {"name": "11ee4bb99c4f56952fea5a0c4e013a60", "is_reserved": 0, "is_disabled": 0, "lon": -76.99081066666666, "rental_uris": {"android": "https://dc.lft.to/lastmile_qr_scan", "ios": "https://dc.lft.to/lastmile_qr_scan"}, "fusion_lon": 0.0, "lat": 38.842885333333335, "type": "electric_scooter", "fusion_lat": 0.0, "bike_id": "11ee4bb99c4f56952fea5a0c4e013a60"}, {"name": "ba4c0fe9bc3d53f615160f9ac176d97a", "is_reserved": 0, "is_disabled": 0, "lon": -77.0298195, "rental_uris": {"android": "https://dc.lft.to/lastmile_qr_scan", "ios": "https://dc.lft.to/lastmile_qr_scan"}, "fusion_lon": 0.0, "lat": 38.9244205, "type": "electric_scooter", "fusion_lat": 0.0, "bike_id": "ba4c0fe9bc3d53f615160f9ac176d97a"}, {"name": "ef1fc212d810e4409025ed4d2e0220c2", "is_reserved": 0, "is_disabled": 0, "lon": -77.0043655, "rental_uris": {"android": "https://dc.lft.to/lastmile_qr_scan", "ios": "https://dc.lft.to/lastmile_qr_scan"}, "fusion_lon": 0.0, "lat": 38.911977666666665, "type": "electric_scooter", "fusion_lat": 0.0, "bike_id": "ef1fc212d810e4409025ed4d2e0220c2"}, {"name": "a0c614111ac5ae201d1142e654952fb4", "is_reserved": 0, "is_disabled": 0, "lon": -76.94768116666667, "rental_uris": {"android": "https://dc.lft.to/lastmile_qr_scan", "ios": "https://dc.lft.to/lastmile_qr_scan"}, "fusion_lon": 0.0, "lat": 38.89637783333333, "type": "electric_bike", "fusion_lat": 0.0, "bike_id": "a0c614111ac5ae201d1142e654952fb4"}, {"name": "5ba5c25398fe2e5e831ff9d24cf45319", "is_reserved": 0, "is_disabled": 0, "lon": -76.96505916666666, "rental_uris": {"android": "https://dc.lft.to/lastmile_qr_scan", "ios": "https://dc.lft.to/lastmile_qr_scan"}, "fusion_lon": 0.0, "lat": 38.876491666666666, "type": "electric_scooter", "fusion_lat": 0.0, "bike_id": "5ba5c25398fe2e5e831ff9d24cf45319"}, {"name": "c1e7d2a6aa8e2b09c1ad661fb87dedc0", "is_reserved": 0, "is_disabled": 0, "lon": -76.93674316666667, "rental_uris": {"android": "https://dc.lft.to/lastmile_qr_scan", "ios": "https://dc.lft.to/lastmile_qr_scan"}, "fusion_lon": 0.0, "lat": 38.88755366666667, "type": "electric_scooter", "fusion_lat": 0.0, "bike_id": "c1e7d2a6aa8e2b09c1ad661fb87dedc0"}, {"name": "6fe259b5523ff58e0533c6b7cb3f6985", "is_reserved": 0, "is_disabled": 0, "lon": -77.03114616666667, "rental_uris": {"android": "https://dc.lft.to/lastmile_qr_scan", "ios": "https://dc.lft.to/lastmile_qr_scan"}, "fusion_lon": 0.0, "lat": 38.89222383333333, "type": "electric_scooter", "fusion_lat": 0.0, "bike_id": "6fe259b5523ff58e0533c6b7cb3f6985"}, {"name": "9fa0cc3eee54950af33de9808fa6bfdb", "is_reserved": 0, "is_disabled": 0, "lon": -77.02307466666667, "rental_uris": {"android": "https://dc.lft.to/lastmile_qr_scan", "ios": "https://dc.lft.to/lastmile_qr_scan"}, "fusion_lon": 0.0, "lat": 38.918419, "type": "electric_scooter", "fusion_lat": 0.0, "bike_id": "9fa0cc3eee54950af33de9808fa6bfdb"}, {"name": "23d9911b1abd82019e6b539d2113e0ec", "is_reserved": 0, "is_disabled": 0, "lon": -77.02737683333334, "rental_uris": {"android": "https://dc.lft.to/lastmile_qr_scan", "ios": "https://dc.lft.to/lastmile_qr_scan"}, "fusion_lon": 0.0, "lat": 38.89944116666667, "type": "electric_scooter", "fusion_lat": 0.0, "bike_id": "23d9911b1abd82019e6b539d2113e0ec"}, {"name": "37738d8eb0f2f94dd3740bea9d717109", "is_reserved": 0, "is_disabled": 0, "lon": -77.03906916666666, "rental_uris": {"android": "https://dc.lft.to/lastmile_qr_scan", "ios": "https://dc.lft.to/lastmile_qr_scan"}, "fusion_lon": 0.0, "lat": 38.92322466666667, "type": "electric_bike", "fusion_lat": 0.0, "bike_id": "37738d8eb0f2f94dd3740bea9d717109"}, {"name": "d08680bc61468a60df2d68b7151b748f", "is_reserved": 0, "is_disabled": 0, "lon": -77.1240375, "rental_uris": {"android": "https://dc.lft.to/lastmile_qr_scan", "ios": "https://dc.lft.to/lastmile_qr_scan"}, "fusion_lon": 0.0, "lat": 38.89335666666667, "type": "electric_bike", "fusion_lat": 0.0, "bike_id": "d08680bc61468a60df2d68b7151b748f"}, {"name": "c7c168d516ebad1ec87ee1988dc49832", "is_reserved": 0, "is_disabled": 0, "lon": -77.0307005, "rental_uris": {"android": "https://dc.lft.to/lastmile_qr_scan", "ios": "https://dc.lft.to/lastmile_qr_scan"}, "fusion_lon": 0.0, "lat": 38.90754716666667, "type": "electric_scooter", "fusion_lat": 0.0, "bike_id": "c7c168d516ebad1ec87ee1988dc49832"}, {"name": "15d7c101b11bf36f8b6466c3e498e6d1", "is_reserved": 0, "is_disabled": 0, "lon": -77.05016116666667, "rental_uris": {"android": "https://dc.lft.to/lastmile_qr_scan", "ios": "https://dc.lft.to/lastmile_qr_scan"}, "fusion_lon": 0.0, "lat": 38.89551566666667, "type": "electric_scooter", "fusion_lat": 0.0, "bike_id": "15d7c101b11bf36f8b6466c3e498e6d1"}, {"name": "8b57ecd7b7eb0618430a6ccb53ead273", "is_reserved": 0, "is_disabled": 0, "lon": -76.99632166666666, "rental_uris": {"android": "https://dc.lft.to/lastmile_qr_scan", "ios": "https://dc.lft.to/lastmile_qr_scan"}, "fusion_lon": 0.0, "lat": 38.84621683333334, "type": "electric_scooter", "fusion_lat": 0.0, "bike_id": "8b57ecd7b7eb0618430a6ccb53ead273"}, {"name": "cfe6c7ff442e02e65c4b6d1f8e09f590", "is_reserved": 0, "is_disabled": 0, "lon": -77.021116, "rental_uris": {"android": "https://dc.lft.to/lastmile_qr_scan", "ios": "https://dc.lft.to/lastmile_qr_scan"}, "fusion_lon": 0.0, "lat": 38.941054, "type": "electric_scooter", "fusion_lat": 0.0, "bike_id": "cfe6c7ff442e02e65c4b6d1f8e09f590"}, {"name": "9a35edbfe478730195350cc89d82e5fd", "is_reserved": 0, "is_disabled": 0, "lon": -77.02492483333333, "rental_uris": {"android": "https://dc.lft.to/lastmile_qr_scan", "ios": "https://dc.lft.to/lastmile_qr_scan"}, "fusion_lon": 0.0, "lat": 38.89959183333333, "type": "electric_scooter", "fusion_lat": 0.0, "bike_id": "9a35edbfe478730195350cc89d82e5fd"}, {"name": "6269d21552016e8ef01171b05453cce9", "is_reserved": 0, "is_disabled": 0, "lon": -76.9888165, "rental_uris": {"android": "https://dc.lft.to/lastmile_qr_scan", "ios": "https://dc.lft.to/lastmile_qr_scan"}, "fusion_lon": 0.0, "lat": 38.921152666666664, "type": "electric_bike", "fusion_lat": 0.0, "bike_id": "6269d21552016e8ef01171b05453cce9"}, {"name": "28160963697da64f7360f4f4baa3e826", "is_reserved": 0, "is_disabled": 0, "lon": -77.04011466666667, "rental_uris": {"android": "https://dc.lft.to/lastmile_qr_scan", "ios": "https://dc.lft.to/lastmile_qr_scan"}, "fusion_lon": 0.0, "lat": 38.918415833333334, "type": "electric_scooter", "fusion_lat": 0.0, "bike_id": "28160963697da64f7360f4f4baa3e826"}, {"name": "67be954fcaa436c1bbe1d83e57906b60", "is_reserved": 0, "is_disabled": 0, "lon": -76.95460533333333, "rental_uris": {"android": "https://dc.lft.to/lastmile_qr_scan", "ios": "https://dc.lft.to/lastmile_qr_scan"}, "fusion_lon": 0.0, "lat": 38.93577416666667, "type": "electric_bike", "fusion_lat": 0.0, "bike_id": "67be954fcaa436c1bbe1d83e57906b60"}, {"name": "2259f33471e98e1b8eeb8e522ce6ef4b", "is_reserved": 0, "is_disabled": 0, "lon": -76.97728116666667, "rental_uris": {"android": "https://dc.lft.to/lastmile_qr_scan", "ios": "https://dc.lft.to/lastmile_qr_scan"}, "fusion_lon": 0.0, "lat": 38.872953, "type": "electric_scooter", "fusion_lat": 0.0, "bike_id": "2259f33471e98e1b8eeb8e522ce6ef4b"}, {"name": "fb7cf97f06895921ed2c8b90e2b5583d", "is_reserved": 0, "is_disabled": 0, "lon": -76.9761695, "rental_uris": {"android": "https://dc.lft.to/lastmile_qr_scan", "ios": "https://dc.lft.to/lastmile_qr_scan"}, "fusion_lon": 0.0, "lat": 38.93142816666666, "type": "electric_scooter", "fusion_lat": 0.0, "bike_id": "fb7cf97f06895921ed2c8b90e2b5583d"}, {"name": "9aecf66de0840ff37cb61497125bcccc", "is_reserved": 0, "is_disabled": 0, "lon": -76.9822285, "rental_uris": {"android": "https://dc.lft.to/lastmile_qr_scan", "ios": "https://dc.lft.to/lastmile_qr_scan"}, "fusion_lon": 0.0, "lat": 38.864792, "type": "electric_scooter", "fusion_lat": 0.0, "bike_id": "9aecf66de0840ff37cb61497125bcccc"}, {"name": "c2d1a6568a92b80a8ee1fbf10b3a8479", "is_reserved": 0, "is_disabled": 0, "lon": -76.98476066666667, "rental_uris": {"android": "https://dc.lft.to/lastmile_qr_scan", "ios": "https://dc.lft.to/lastmile_qr_scan"}, "fusion_lon": 0.0, "lat": 38.928991333333336, "type": "electric_scooter", "fusion_lat": 0.0, "bike_id": "c2d1a6568a92b80a8ee1fbf10b3a8479"}, {"name": "a5f957b43660481e1a35a7c0f5a291e6", "is_reserved": 0, "is_disabled": 0, "lon": -77.0021375, "rental_uris": {"android": "https://dc.lft.to/lastmile_qr_scan", "ios": "https://dc.lft.to/lastmile_qr_scan"}, "fusion_lon": 0.0, "lat": 38.9028795, "type": "electric_scooter", "fusion_lat": 0.0, "bike_id": "a5f957b43660481e1a35a7c0f5a291e6"}, {"name": "bc2255563b61a38407f7196f30b72be1", "is_reserved": 0, "is_disabled": 0, "lon": -77.02705283333333, "rental_uris": {"android": "https://dc.lft.to/lastmile_qr_scan", "ios": "https://dc.lft.to/lastmile_qr_scan"}, "fusion_lon": 0.0, "lat": 38.9035455, "type": "electric_scooter", "fusion_lat": 0.0, "bike_id": "bc2255563b61a38407f7196f30b72be1"}, {"name": "1fcbb75b82d61178c63f602cabd60caf", "is_reserved": 0, "is_disabled": 0, "lon": -76.99055466666667, "rental_uris": {"android": "https://dc.lft.to/lastmile_qr_scan", "ios": "https://dc.lft.to/lastmile_qr_scan"}, "fusion_lon": 0.0, "lat": 38.859002833333335, "type": "electric_scooter", "fusion_lat": 0.0, "bike_id": "1fcbb75b82d61178c63f602cabd60caf"}, {"name": "a29e804164cf1bf547bac539e724daf5", "is_reserved": 0, "is_disabled": 0, "lon": -77.0175475, "rental_uris": {"android": "https://dc.lft.to/lastmile_qr_scan", "ios": "https://dc.lft.to/lastmile_qr_scan"}, "fusion_lon": 0.0, "lat": 38.87793216666667, "type": "electric_scooter", "fusion_lat": 0.0, "bike_id": "a29e804164cf1bf547bac539e724daf5"}, {"name": "f7cb7fb87b645bef207512f6a3e30eea", "is_reserved": 0, "is_disabled": 0, "lon": -76.99368133333333, "rental_uris": {"android": "https://dc.lft.to/lastmile_qr_scan", "ios": "https://dc.lft.to/lastmile_qr_scan"}, "fusion_lon": 0.0, "lat": 38.9284105, "type": "electric_scooter", "fusion_lat": 0.0, "bike_id": "f7cb7fb87b645bef207512f6a3e30eea"}, {"name": "7b40b75816b40564814cad078a20db65", "is_reserved": 0, "is_disabled": 0, "lon": -77.02832316666667, "rental_uris": {"android": "https://dc.lft.to/lastmile_qr_scan", "ios": "https://dc.lft.to/lastmile_qr_scan"}, "fusion_lon": 0.0, "lat": 38.924743166666666, "type": "electric_scooter", "fusion_lat": 0.0, "bike_id": "7b40b75816b40564814cad078a20db65"}, {"name": "58b4284f21af2ce1baf94572cb0873a1", "is_reserved": 0, "is_disabled": 0, "lon": -76.99010683333333, "rental_uris": {"android": "https://dc.lft.to/lastmile_qr_scan", "ios": "https://dc.lft.to/lastmile_qr_scan"}, "fusion_lon": 0.0, "lat": 38.865097166666665, "type": "electric_scooter", "fusion_lat": 0.0, "bike_id": "58b4284f21af2ce1baf94572cb0873a1"}, {"name": "98b520dea4b76023139d8ab12ce9d951", "is_reserved": 0, "is_disabled": 0, "lon": -76.9908275, "rental_uris": {"android": "https://dc.lft.to/lastmile_qr_scan", "ios": "https://dc.lft.to/lastmile_qr_scan"}, "fusion_lon": 0.0, "lat": 38.86049516666667, "type": "electric_scooter", "fusion_lat": 0.0, "bike_id": "98b520dea4b76023139d8ab12ce9d951"}, {"name": "a30d37d19e1ae53ec0acd2a23ec4d4dc", "is_reserved": 0, "is_disabled": 0, "lon": -77.02815966666667, "rental_uris": {"android": "https://dc.lft.to/lastmile_qr_scan", "ios": "https://dc.lft.to/lastmile_qr_scan"}, "fusion_lon": 0.0, "lat": 38.92082466666667, "type": "electric_bike", "fusion_lat": 0.0, "bike_id": "a30d37d19e1ae53ec0acd2a23ec4d4dc"}, {"name": "9c13c62b08c5c5495890d1e7c209c4cf", "is_reserved": 0, "is_disabled": 0, "lon": -76.99939733333333, "rental_uris": {"android": "https://dc.lft.to/lastmile_qr_scan", "ios": "https://dc.lft.to/lastmile_qr_scan"}, "fusion_lon": 0.0, "lat": 38.84323416666667, "type": "electric_scooter", "fusion_lat": 0.0, "bike_id": "9c13c62b08c5c5495890d1e7c209c4cf"}, {"name": "90ebbe980406112c4c049d908b04a411", "is_reserved": 0, "is_disabled": 0, "lon": -77.01205683333333, "rental_uris": {"android": "https://dc.lft.to/lastmile_qr_scan", "ios": "https://dc.lft.to/lastmile_qr_scan"}, "fusion_lon": 0.0, "lat": 38.925889833333336, "type": "electric_scooter", "fusion_lat": 0.0, "bike_id": "90ebbe980406112c4c049d908b04a411"}, {"name": "c5f674a73add2e8b0e1d68867c1dc7e1", "is_reserved": 0, "is_disabled": 0, "lon": -77.02001216666666, "rental_uris": {"android": "https://dc.lft.to/lastmile_qr_scan", "ios": "https://dc.lft.to/lastmile_qr_scan"}, "fusion_lon": 0.0, "lat": 38.96639166666667, "type": "electric_scooter", "fusion_lat": 0.0, "bike_id": "c5f674a73add2e8b0e1d68867c1dc7e1"}, {"name": "4124a65aaec94cc10df422c17224b4f0", "is_reserved": 0, "is_disabled": 0, "lon": -77.046634, "rental_uris": {"android": "https://dc.lft.to/lastmile_qr_scan", "ios": "https://dc.lft.to/lastmile_qr_scan"}, "fusion_lon": 0.0, "lat": 38.900032, "type": "electric_scooter", "fusion_lat": 0.0, "bike_id": "4124a65aaec94cc10df422c17224b4f0"}, {"name": "3421619a4dd48daa24baaad602f83426", "is_reserved": 0, "is_disabled": 0, "lon": -77.02692416666666, "rental_uris": {"android": "https://dc.lft.to/lastmile_qr_scan", "ios": "https://dc.lft.to/lastmile_qr_scan"}, "fusion_lon": 0.0, "lat": 38.9125125, "type": "electric_scooter", "fusion_lat": 0.0, "bike_id": "3421619a4dd48daa24baaad602f83426"}, {"name": "b91c29fd1a7c6d2085242e24805e2945", "is_reserved": 0, "is_disabled": 0, "lon": -76.98358583333334, "rental_uris": {"android": "https://dc.lft.to/lastmile_qr_scan", "ios": "https://dc.lft.to/lastmile_qr_scan"}, "fusion_lon": 0.0, "lat": 38.8647495, "type": "electric_scooter", "fusion_lat": 0.0, "bike_id": "b91c29fd1a7c6d2085242e24805e2945"}, {"name": "5e955ff8e1059c63624a8c21be17ae45", "is_reserved": 0, "is_disabled": 0, "lon": -77.03516966666666, "rental_uris": {"android": "https://dc.lft.to/lastmile_qr_scan", "ios": "https://dc.lft.to/lastmile_qr_scan"}, "fusion_lon": 0.0, "lat": 38.92162916666667, "type": "electric_scooter", "fusion_lat": 0.0, "bike_id": "5e955ff8e1059c63624a8c21be17ae45"}, {"name": "845cdda7d52588d103dd96730636f2c1", "is_reserved": 0, "is_disabled": 0, "lon": -77.0328765, "rental_uris": {"android": "https://dc.lft.to/lastmile_qr_scan", "ios": "https://dc.lft.to/lastmile_qr_scan"}, "fusion_lon": 0.0, "lat": 38.95653333333333, "type": "electric_scooter", "fusion_lat": 0.0, "bike_id": "845cdda7d52588d103dd96730636f2c1"}, {"name": "e6809b52ffe705538a45d8e68124c22f", "is_reserved": 0, "is_disabled": 0, "lon": -77.037332, "rental_uris": {"android": "https://dc.lft.to/lastmile_qr_scan", "ios": "https://dc.lft.to/lastmile_qr_scan"}, "fusion_lon": 0.0, "lat": 38.911174333333335, "type": "electric_scooter", "fusion_lat": 0.0, "bike_id": "e6809b52ffe705538a45d8e68124c22f"}, {"name": "d45a786e42af1243c0a34ce0ce3e59f3", "is_reserved": 0, "is_disabled": 0, "lon": -77.12505566666667, "rental_uris": {"android": "https://dc.lft.to/lastmile_qr_scan", "ios": "https://dc.lft.to/lastmile_qr_scan"}, "fusion_lon": 0.0, "lat": 39.024319, "type": "electric_bike", "fusion_lat": 0.0, "bike_id": "d45a786e42af1243c0a34ce0ce3e59f3"}, {"name": "b829add88ce0816d625e6332a1f2fc5b", "is_reserved": 0, "is_disabled": 0, "lon": -77.03340683333333, "rental_uris": {"android": "https://dc.lft.to/lastmile_qr_scan", "ios": "https://dc.lft.to/lastmile_qr_scan"}, "fusion_lon": 0.0, "lat": 38.90234933333333, "type": "electric_scooter", "fusion_lat": 0.0, "bike_id": "b829add88ce0816d625e6332a1f2fc5b"}, {"name": "46d0367f35f854ec3b8856f03cd30d13", "is_reserved": 0, "is_disabled": 0, "lon": -77.0627045, "rental_uris": {"android": "https://dc.lft.to/lastmile_qr_scan", "ios": "https://dc.lft.to/lastmile_qr_scan"}, "fusion_lon": 0.0, "lat": 38.90600216666667, "type": "electric_scooter", "fusion_lat": 0.0, "bike_id": "46d0367f35f854ec3b8856f03cd30d13"}, {"name": "1579ee24b1c9110be7f8c33544be58c1", "is_reserved": 0, "is_disabled": 0, "lon": -77.04303183333333, "rental_uris": {"android": "https://dc.lft.to/lastmile_qr_scan", "ios": "https://dc.lft.to/lastmile_qr_scan"}, "fusion_lon": 0.0, "lat": 38.926577333333334, "type": "electric_scooter", "fusion_lat": 0.0, "bike_id": "1579ee24b1c9110be7f8c33544be58c1"}, {"name": "fe565c060c0f39468fac34c29ca093d1", "is_reserved": 0, "is_disabled": 0, "lon": -77.04875566666666, "rental_uris": {"android": "https://dc.lft.to/lastmile_qr_scan", "ios": "https://dc.lft.to/lastmile_qr_scan"}, "fusion_lon": 0.0, "lat": 38.909757166666665, "type": "electric_scooter", "fusion_lat": 0.0, "bike_id": "fe565c060c0f39468fac34c29ca093d1"}, {"name": "ce7e91fc560b0ecb9b80820326a10e03", "is_reserved": 0, "is_disabled": 0, "lon": -76.93838033333333, "rental_uris": {"android": "https://dc.lft.to/lastmile_qr_scan", "ios": "https://dc.lft.to/lastmile_qr_scan"}, "fusion_lon": 0.0, "lat": 38.890162333333336, "type": "electric_scooter", "fusion_lat": 0.0, "bike_id": "ce7e91fc560b0ecb9b80820326a10e03"}, {"name": "66b592800bd7bfddaece27b5196ec27f", "is_reserved": 0, "is_disabled": 0, "lon": -77.03866316666667, "rental_uris": {"android": "https://dc.lft.to/lastmile_qr_scan", "ios": "https://dc.lft.to/lastmile_qr_scan"}, "fusion_lon": 0.0, "lat": 38.91116, "type": "electric_scooter", "fusion_lat": 0.0, "bike_id": "66b592800bd7bfddaece27b5196ec27f"}, {"name": "cb9625581bc7eda711d25713ef8800f3", "is_reserved": 0, "is_disabled": 0, "lon": -77.00227366666667, "rental_uris": {"android": "https://dc.lft.to/lastmile_qr_scan", "ios": "https://dc.lft.to/lastmile_qr_scan"}, "fusion_lon": 0.0, "lat": 38.900334666666666, "type": "electric_scooter", "fusion_lat": 0.0, "bike_id": "cb9625581bc7eda711d25713ef8800f3"}, {"name": "cc8a45d27e24be77f0a4633068ab80c6", "is_reserved": 0, "is_disabled": 0, "lon": -76.98854833333333, "rental_uris": {"android": "https://dc.lft.to/lastmile_qr_scan", "ios": "https://dc.lft.to/lastmile_qr_scan"}, "fusion_lon": 0.0, "lat": 38.900184833333334, "type": "electric_bike", "fusion_lat": 0.0, "bike_id": "cc8a45d27e24be77f0a4633068ab80c6"}, {"name": "9acea2568bfc8165a0758c6ea7e0fc01", "is_reserved": 0, "is_disabled": 0, "lon": -77.071501, "rental_uris": {"android": "https://dc.lft.to/lastmile_qr_scan", "ios": "https://dc.lft.to/lastmile_qr_scan"}, "fusion_lon": 0.0, "lat": 38.93826583333333, "type": "electric_scooter", "fusion_lat": 0.0, "bike_id": "9acea2568bfc8165a0758c6ea7e0fc01"}, {"name": "0250f72fedaf3ea8ca388ca43dde5965", "is_reserved": 0, "is_disabled": 0, "lon": -77.04839583333333, "rental_uris": {"android": "https://dc.lft.to/lastmile_qr_scan", "ios": "https://dc.lft.to/lastmile_qr_scan"}, "fusion_lon": 0.0, "lat": 38.904575, "type": "electric_scooter", "fusion_lat": 0.0, "bike_id": "0250f72fedaf3ea8ca388ca43dde5965"}, {"name": "a3ccb275d7c26b7cf5e3979c6838021e", "is_reserved": 0, "is_disabled": 0, "lon": -77.0417365, "rental_uris": {"android": "https://dc.lft.to/lastmile_qr_scan", "ios": "https://dc.lft.to/lastmile_qr_scan"}, "fusion_lon": 0.0, "lat": 38.914599833333334, "type": "electric_scooter", "fusion_lat": 0.0, "bike_id": "a3ccb275d7c26b7cf5e3979c6838021e"}, {"name": "8dc78fae603f79dfcd25cc714f8a8744", "is_reserved": 0, "is_disabled": 0, "lon": -77.0368775, "rental_uris": {"android": "https://dc.lft.to/lastmile_qr_scan", "ios": "https://dc.lft.to/lastmile_qr_scan"}, "fusion_lon": 0.0, "lat": 38.91678016666667, "type": "electric_scooter", "fusion_lat": 0.0, "bike_id": "8dc78fae603f79dfcd25cc714f8a8744"}, {"name": "b63fd2ce8633548792ce4f3ad4c99e56", "is_reserved": 0, "is_disabled": 0, "lon": -77.04389283333333, "rental_uris": {"android": "https://dc.lft.to/lastmile_qr_scan", "ios": "https://dc.lft.to/lastmile_qr_scan"}, "fusion_lon": 0.0, "lat": 38.90912633333333, "type": "electric_scooter", "fusion_lat": 0.0, "bike_id": "b63fd2ce8633548792ce4f3ad4c99e56"}, {"name": "48ed3a9132b585880daa0bac927b4e30", "is_reserved": 0, "is_disabled": 0, "lon": -76.9488965, "rental_uris": {"android": "https://dc.lft.to/lastmile_qr_scan", "ios": "https://dc.lft.to/lastmile_qr_scan"}, "fusion_lon": 0.0, "lat": 38.89512466666667, "type": "electric_scooter", "fusion_lat": 0.0, "bike_id": "48ed3a9132b585880daa0bac927b4e30"}, {"name": "15e1935c6b44eab8ba6696acdd166a20", "is_reserved": 0, "is_disabled": 0, "lon": -76.99226266666666, "rental_uris": {"android": "https://dc.lft.to/lastmile_qr_scan", "ios": "https://dc.lft.to/lastmile_qr_scan"}, "fusion_lon": 0.0, "lat": 38.898909833333335, "type": "electric_scooter", "fusion_lat": 0.0, "bike_id": "15e1935c6b44eab8ba6696acdd166a20"}, {"name": "a3fb614d3bed1e67602caeae61a09325", "is_reserved": 0, "is_disabled": 0, "lon": -77.0409315, "rental_uris": {"android": "https://dc.lft.to/lastmile_qr_scan", "ios": "https://dc.lft.to/lastmile_qr_scan"}, "fusion_lon": 0.0, "lat": 38.910977833333334, "type": "electric_scooter", "fusion_lat": 0.0, "bike_id": "a3fb614d3bed1e67602caeae61a09325"}, {"name": "6bb679ad91294e2657b781ca7ddddec9", "is_reserved": 0, "is_disabled": 0, "lon": -77.19908566666666, "rental_uris": {"android": "https://dc.lft.to/lastmile_qr_scan", "ios": "https://dc.lft.to/lastmile_qr_scan"}, "fusion_lon": 0.0, "lat": 38.875330166666664, "type": "electric_bike", "fusion_lat": 0.0, "bike_id": "6bb679ad91294e2657b781ca7ddddec9"}, {"name": "91a5fde6de9ef7896f73645e983896d9", "is_reserved": 0, "is_disabled": 0, "lon": -77.0731585, "rental_uris": {"android": "https://dc.lft.to/lastmile_qr_scan", "ios": "https://dc.lft.to/lastmile_qr_scan"}, "fusion_lon": 0.0, "lat": 38.912015833333335, "type": "electric_scooter", "fusion_lat": 0.0, "bike_id": "91a5fde6de9ef7896f73645e983896d9"}, {"name": "45729266322fd154aebda279c2fcfbac", "is_reserved": 0, "is_disabled": 0, "lon": -77.0269865, "rental_uris": {"android": "https://dc.lft.to/lastmile_qr_scan", "ios": "https://dc.lft.to/lastmile_qr_scan"}, "fusion_lon": 0.0, "lat": 38.8817105, "type": "electric_scooter", "fusion_lat": 0.0, "bike_id": "45729266322fd154aebda279c2fcfbac"}, {"name": "16f17134509aff544b9c521be874d730", "is_reserved": 0, "is_disabled": 0, "lon": -77.04839516666667, "rental_uris": {"android": "https://dc.lft.to/lastmile_qr_scan", "ios": "https://dc.lft.to/lastmile_qr_scan"}, "fusion_lon": 0.0, "lat": 38.904228333333336, "type": "electric_scooter", "fusion_lat": 0.0, "bike_id": "16f17134509aff544b9c521be874d730"}, {"name": "612a7720f7e1a3e33eac2c74e23f943e", "is_reserved": 0, "is_disabled": 0, "lon": -77.1498315, "rental_uris": {"android": "https://dc.lft.to/lastmile_qr_scan", "ios": "https://dc.lft.to/lastmile_qr_scan"}, "fusion_lon": 0.0, "lat": 39.09473166666667, "type": "electric_bike", "fusion_lat": 0.0, "bike_id": "612a7720f7e1a3e33eac2c74e23f943e"}, {"name": "47c4e30b878de4ec7b43ec54b3988a48", "is_reserved": 0, "is_disabled": 0, "lon": -77.09031333333333, "rental_uris": {"android": "https://dc.lft.to/lastmile_qr_scan", "ios": "https://dc.lft.to/lastmile_qr_scan"}, "fusion_lon": 0.0, "lat": 38.841167, "type": "electric_bike", "fusion_lat": 0.0, "bike_id": "47c4e30b878de4ec7b43ec54b3988a48"}, {"name": "96b6a1d4b8d32ebdd4109edf8791efb9", "is_reserved": 0, "is_disabled": 0, "lon": -77.018352, "rental_uris": {"android": "https://dc.lft.to/lastmile_qr_scan", "ios": "https://dc.lft.to/lastmile_qr_scan"}, "fusion_lon": 0.0, "lat": 38.904091666666666, "type": "electric_scooter", "fusion_lat": 0.0, "bike_id": "96b6a1d4b8d32ebdd4109edf8791efb9"}, {"name": "3eb768b08a89e229df76edcf12deb1ba", "is_reserved": 0, "is_disabled": 0, "lon": -76.90086616666666, "rental_uris": {"android": "https://dc.lft.to/lastmile_qr_scan", "ios": "https://dc.lft.to/lastmile_qr_scan"}, "fusion_lon": 0.0, "lat": 38.88750983333333, "type": "electric_bike", "fusion_lat": 0.0, "bike_id": "3eb768b08a89e229df76edcf12deb1ba"}, {"name": "a920d851d3d8262d4e515d6f5d94b5cd", "is_reserved": 0, "is_disabled": 0, "lon": -77.04234616666666, "rental_uris": {"android": "https://dc.lft.to/lastmile_qr_scan", "ios": "https://dc.lft.to/lastmile_qr_scan"}, "fusion_lon": 0.0, "lat": 38.921660333333335, "type": "electric_scooter", "fusion_lat": 0.0, "bike_id": "a920d851d3d8262d4e515d6f5d94b5cd"}, {"name": "99c80ebdfda8731cc08f2d7bead8277b", "is_reserved": 0, "is_disabled": 0, "lon": -77.03286216666666, "rental_uris": {"android": "https://dc.lft.to/lastmile_qr_scan", "ios": "https://dc.lft.to/lastmile_qr_scan"}, "fusion_lon": 0.0, "lat": 38.94661633333333, "type": "electric_scooter", "fusion_lat": 0.0, "bike_id": "99c80ebdfda8731cc08f2d7bead8277b"}, {"name": "22795a5c27e83f3ef705fc8269edcf4c", "is_reserved": 0, "is_disabled": 0, "lon": -77.00188366666667, "rental_uris": {"android": "https://dc.lft.to/lastmile_qr_scan", "ios": "https://dc.lft.to/lastmile_qr_scan"}, "fusion_lon": 0.0, "lat": 38.903857, "type": "electric_scooter", "fusion_lat": 0.0, "bike_id": "22795a5c27e83f3ef705fc8269edcf4c"}, {"name": "7871ab8cebd39e6d5e51bfff9b89ca5b", "is_reserved": 0, "is_disabled": 0, "lon": -76.95467316666667, "rental_uris": {"android": "https://dc.lft.to/lastmile_qr_scan", "ios": "https://dc.lft.to/lastmile_qr_scan"}, "fusion_lon": 0.0, "lat": 38.88815566666667, "type": "electric_scooter", "fusion_lat": 0.0, "bike_id": "7871ab8cebd39e6d5e51bfff9b89ca5b"}, {"name": "98a05f2d18ff6d8e2225c673b26ad245", "is_reserved": 0, "is_disabled": 0, "lon": -76.987133, "rental_uris": {"android": "https://dc.lft.to/lastmile_qr_scan", "ios": "https://dc.lft.to/lastmile_qr_scan"}, "fusion_lon": 0.0, "lat": 38.86537833333333, "type": "electric_scooter", "fusion_lat": 0.0, "bike_id": "98a05f2d18ff6d8e2225c673b26ad245"}, {"name": "192e25f4f0afac2c7e4fda5d802cf0d3", "is_reserved": 0, "is_disabled": 0, "lon": -77.07294166666667, "rental_uris": {"android": "https://dc.lft.to/lastmile_qr_scan", "ios": "https://dc.lft.to/lastmile_qr_scan"}, "fusion_lon": 0.0, "lat": 38.924702833333335, "type": "electric_bike", "fusion_lat": 0.0, "bike_id": "192e25f4f0afac2c7e4fda5d802cf0d3"}, {"name": "9c6dea53b12a90e904f916b4e040d0d3", "is_reserved": 0, "is_disabled": 0, "lon": -77.12978633333333, "rental_uris": {"android": "https://dc.lft.to/lastmile_qr_scan", "ios": "https://dc.lft.to/lastmile_qr_scan"}, "fusion_lon": 0.0, "lat": 38.79990333333333, "type": "electric_bike", "fusion_lat": 0.0, "bike_id": "9c6dea53b12a90e904f916b4e040d0d3"}, {"name": "245eceae5fce963ce95e647b3d1811df", "is_reserved": 0, "is_disabled": 0, "lon": -77.06398566666667, "rental_uris": {"android": "https://dc.lft.to/lastmile_qr_scan", "ios": "https://dc.lft.to/lastmile_qr_scan"}, "fusion_lon": 0.0, "lat": 38.929111166666665, "type": "electric_scooter", "fusion_lat": 0.0, "bike_id": "245eceae5fce963ce95e647b3d1811df"}, {"name": "5424b56f31fc8d2446a8a172bc71e300", "is_reserved": 0, "is_disabled": 0, "lon": -77.0274695, "rental_uris": {"android": "https://dc.lft.to/lastmile_qr_scan", "ios": "https://dc.lft.to/lastmile_qr_scan"}, "fusion_lon": 0.0, "lat": 38.929012666666665, "type": "electric_scooter", "fusion_lat": 0.0, "bike_id": "5424b56f31fc8d2446a8a172bc71e300"}, {"name": "b0275026a5712b5b32b2e31dace36182", "is_reserved": 0, "is_disabled": 0, "lon": -76.99441983333334, "rental_uris": {"android": "https://dc.lft.to/lastmile_qr_scan", "ios": "https://dc.lft.to/lastmile_qr_scan"}, "fusion_lon": 0.0, "lat": 38.905150166666665, "type": "electric_scooter", "fusion_lat": 0.0, "bike_id": "b0275026a5712b5b32b2e31dace36182"}, {"name": "85c6c9aaa92d6fa681d211be5b6e03b1", "is_reserved": 0, "is_disabled": 0, "lon": -77.070449, "rental_uris": {"android": "https://dc.lft.to/lastmile_qr_scan", "ios": "https://dc.lft.to/lastmile_qr_scan"}, "fusion_lon": 0.0, "lat": 38.8245055, "type": "electric_bike", "fusion_lat": 0.0, "bike_id": "85c6c9aaa92d6fa681d211be5b6e03b1"}, {"name": "6ec6897d46d11b6365becaa4a397b941", "is_reserved": 0, "is_disabled": 0, "lon": -77.0365495, "rental_uris": {"android": "https://dc.lft.to/lastmile_qr_scan", "ios": "https://dc.lft.to/lastmile_qr_scan"}, "fusion_lon": 0.0, "lat": 38.95021533333333, "type": "electric_bike", "fusion_lat": 0.0, "bike_id": "6ec6897d46d11b6365becaa4a397b941"}, {"name": "fdf41dfd29a12c23680e43b0d3658392", "is_reserved": 0, "is_disabled": 0, "lon": -76.9465175, "rental_uris": {"android": "https://dc.lft.to/lastmile_qr_scan", "ios": "https://dc.lft.to/lastmile_qr_scan"}, "fusion_lon": 0.0, "lat": 38.8983085, "type": "electric_scooter", "fusion_lat": 0.0, "bike_id": "fdf41dfd29a12c23680e43b0d3658392"}, {"name": "bc175d4543a1a99d6bff8a50482c29ae", "is_reserved": 0, "is_disabled": 0, "lon": -77.00134, "rental_uris": {"android": "https://dc.lft.to/lastmile_qr_scan", "ios": "https://dc.lft.to/lastmile_qr_scan"}, "fusion_lon": 0.0, "lat": 38.89487483333333, "type": "electric_scooter", "fusion_lat": 0.0, "bike_id": "bc175d4543a1a99d6bff8a50482c29ae"}, {"name": "4084da76c878c41e88f28dae66ae9fd1", "is_reserved": 0, "is_disabled": 0, "lon": -77.1281475, "rental_uris": {"android": "https://dc.lft.to/lastmile_qr_scan", "ios": "https://dc.lft.to/lastmile_qr_scan"}, "fusion_lon": 0.0, "lat": 38.865412, "type": "electric_bike", "fusion_lat": 0.0, "bike_id": "4084da76c878c41e88f28dae66ae9fd1"}, {"name": "e2a0efba6adfb142f6a1406405fd0e17", "is_reserved": 0, "is_disabled": 0, "lon": -77.040436, "rental_uris": {"android": "https://dc.lft.to/lastmile_qr_scan", "ios": "https://dc.lft.to/lastmile_qr_scan"}, "fusion_lon": 0.0, "lat": 38.90606533333333, "type": "electric_scooter", "fusion_lat": 0.0, "bike_id": "e2a0efba6adfb142f6a1406405fd0e17"}, {"name": "6257ed9ecdb7d3c966b0ca459a22f768", "is_reserved": 0, "is_disabled": 0, "lon": -76.9447315, "rental_uris": {"android": "https://dc.lft.to/lastmile_qr_scan", "ios": "https://dc.lft.to/lastmile_qr_scan"}, "fusion_lon": 0.0, "lat": 38.94556566666667, "type": "electric_bike", "fusion_lat": 0.0, "bike_id": "6257ed9ecdb7d3c966b0ca459a22f768"}, {"name": "c081996350e33cbd78dad5d59f94f4c6", "is_reserved": 0, "is_disabled": 0, "lon": -77.0789395, "rental_uris": {"android": "https://dc.lft.to/lastmile_qr_scan", "ios": "https://dc.lft.to/lastmile_qr_scan"}, "fusion_lon": 0.0, "lat": 38.8394, "type": "electric_bike", "fusion_lat": 0.0, "bike_id": "c081996350e33cbd78dad5d59f94f4c6"}, {"name": "9a626aefba1d80ea03dfa51d33ee8ace", "is_reserved": 0, "is_disabled": 0, "lon": -77.04170966666666, "rental_uris": {"android": "https://dc.lft.to/lastmile_qr_scan", "ios": "https://dc.lft.to/lastmile_qr_scan"}, "fusion_lon": 0.0, "lat": 38.909254833333335, "type": "electric_scooter", "fusion_lat": 0.0, "bike_id": "9a626aefba1d80ea03dfa51d33ee8ace"}, {"name": "5aee97bccf6bcf75ee6d9cd645908749", "is_reserved": 0, "is_disabled": 0, "lon": -77.0690555, "rental_uris": {"android": "https://dc.lft.to/lastmile_qr_scan", "ios": "https://dc.lft.to/lastmile_qr_scan"}, "fusion_lon": 0.0, "lat": 38.90730116666667, "type": "electric_scooter", "fusion_lat": 0.0, "bike_id": "5aee97bccf6bcf75ee6d9cd645908749"}, {"name": "ed6b2f4b063874d54e124ef3cfc5e870", "is_reserved": 0, "is_disabled": 0, "lon": -77.114265, "rental_uris": {"android": "https://dc.lft.to/lastmile_qr_scan", "ios": "https://dc.lft.to/lastmile_qr_scan"}, "fusion_lon": 0.0, "lat": 38.8426895, "type": "electric_bike", "fusion_lat": 0.0, "bike_id": "ed6b2f4b063874d54e124ef3cfc5e870"}, {"name": "bbfedfc4c1bc098304c32a0d70ca3557", "is_reserved": 0, "is_disabled": 0, "lon": -77.033975, "rental_uris": {"android": "https://dc.lft.to/lastmile_qr_scan", "ios": "https://dc.lft.to/lastmile_qr_scan"}, "fusion_lon": 0.0, "lat": 38.91969866666667, "type": "electric_scooter", "fusion_lat": 0.0, "bike_id": "bbfedfc4c1bc098304c32a0d70ca3557"}, {"name": "615661faefddf6c8f595b34b44639f87", "is_reserved": 0, "is_disabled": 0, "lon": -77.05080633333333, "rental_uris": {"android": "https://dc.lft.to/lastmile_qr_scan", "ios": "https://dc.lft.to/lastmile_qr_scan"}, "fusion_lon": 0.0, "lat": 38.813284833333334, "type": "electric_bike", "fusion_lat": 0.0, "bike_id": "615661faefddf6c8f595b34b44639f87"}, {"name": "6cefa38fa371142bb463c57db2145f16", "is_reserved": 0, "is_disabled": 0, "lon": -76.98363016666667, "rental_uris": {"android": "https://dc.lft.to/lastmile_qr_scan", "ios": "https://dc.lft.to/lastmile_qr_scan"}, "fusion_lon": 0.0, "lat": 38.86105883333333, "type": "electric_scooter", "fusion_lat": 0.0, "bike_id": "6cefa38fa371142bb463c57db2145f16"}, {"name": "057a1f295aac455310211d8c8fc3959d", "is_reserved": 0, "is_disabled": 0, "lon": -77.02353383333333, "rental_uris": {"android": "https://dc.lft.to/lastmile_qr_scan", "ios": "https://dc.lft.to/lastmile_qr_scan"}, "fusion_lon": 0.0, "lat": 38.8922725, "type": "electric_scooter", "fusion_lat": 0.0, "bike_id": "057a1f295aac455310211d8c8fc3959d"}, {"name": "222998b89eabab73575140a6ecc2abb0", "is_reserved": 0, "is_disabled": 0, "lon": -77.00820366666666, "rental_uris": {"android": "https://dc.lft.to/lastmile_qr_scan", "ios": "https://dc.lft.to/lastmile_qr_scan"}, "fusion_lon": 0.0, "lat": 38.87954716666667, "type": "electric_scooter", "fusion_lat": 0.0, "bike_id": "222998b89eabab73575140a6ecc2abb0"}, {"name": "d2f92de49fc15732379d0886a1fbf255", "is_reserved": 0, "is_disabled": 0, "lon": -77.01773666666666, "rental_uris": {"android": "https://dc.lft.to/lastmile_qr_scan", "ios": "https://dc.lft.to/lastmile_qr_scan"}, "fusion_lon": 0.0, "lat": 38.9211245, "type": "electric_scooter", "fusion_lat": 0.0, "bike_id": "d2f92de49fc15732379d0886a1fbf255"}, {"name": "102f294c70e97890abd70d25b06de141", "is_reserved": 0, "is_disabled": 0, "lon": -77.0344125, "rental_uris": {"android": "https://dc.lft.to/lastmile_qr_scan", "ios": "https://dc.lft.to/lastmile_qr_scan"}, "fusion_lon": 0.0, "lat": 38.902858, "type": "electric_scooter", "fusion_lat": 0.0, "bike_id": "102f294c70e97890abd70d25b06de141"}, {"name": "d9f714cdc05479eaf02e21408d73bd84", "is_reserved": 0, "is_disabled": 0, "lon": -77.06488883333333, "rental_uris": {"android": "https://dc.lft.to/lastmile_qr_scan", "ios": "https://dc.lft.to/lastmile_qr_scan"}, "fusion_lon": 0.0, "lat": 38.9650095, "type": "electric_scooter", "fusion_lat": 0.0, "bike_id": "d9f714cdc05479eaf02e21408d73bd84"}, {"name": "1c3bf4929bc826d42347f17872281a3a", "is_reserved": 0, "is_disabled": 0, "lon": -76.97376, "rental_uris": {"android": "https://dc.lft.to/lastmile_qr_scan", "ios": "https://dc.lft.to/lastmile_qr_scan"}, "fusion_lon": 0.0, "lat": 38.883892833333334, "type": "electric_scooter", "fusion_lat": 0.0, "bike_id": "1c3bf4929bc826d42347f17872281a3a"}, {"name": "5159cc4e50d953c9046ac48f027bdef0", "is_reserved": 0, "is_disabled": 0, "lon": -76.9472705, "rental_uris": {"android": "https://dc.lft.to/lastmile_qr_scan", "ios": "https://dc.lft.to/lastmile_qr_scan"}, "fusion_lon": 0.0, "lat": 38.897381833333334, "type": "electric_scooter", "fusion_lat": 0.0, "bike_id": "5159cc4e50d953c9046ac48f027bdef0"}, {"name": "c5d22291e15e78afb31b187a6eaeba21", "is_reserved": 0, "is_disabled": 0, "lon": -77.02302766666666, "rental_uris": {"android": "https://dc.lft.to/lastmile_qr_scan", "ios": "https://dc.lft.to/lastmile_qr_scan"}, "fusion_lon": 0.0, "lat": 38.91605, "type": "electric_scooter", "fusion_lat": 0.0, "bike_id": "c5d22291e15e78afb31b187a6eaeba21"}, {"name": "48644b63b1dcc75492486e18226bb608", "is_reserved": 0, "is_disabled": 0, "lon": -77.03854916666667, "rental_uris": {"android": "https://dc.lft.to/lastmile_qr_scan", "ios": "https://dc.lft.to/lastmile_qr_scan"}, "fusion_lon": 0.0, "lat": 38.91280183333333, "type": "electric_scooter", "fusion_lat": 0.0, "bike_id": "48644b63b1dcc75492486e18226bb608"}, {"name": "82ffb181d33a00a97144f3b14a589279", "is_reserved": 0, "is_disabled": 0, "lon": -76.98729483333334, "rental_uris": {"android": "https://dc.lft.to/lastmile_qr_scan", "ios": "https://dc.lft.to/lastmile_qr_scan"}, "fusion_lon": 0.0, "lat": 38.8671585, "type": "electric_scooter", "fusion_lat": 0.0, "bike_id": "82ffb181d33a00a97144f3b14a589279"}, {"name": "7d119c83898581c8cfd3cac953668823", "is_reserved": 0, "is_disabled": 0, "lon": -77.03978083333334, "rental_uris": {"android": "https://dc.lft.to/lastmile_qr_scan", "ios": "https://dc.lft.to/lastmile_qr_scan"}, "fusion_lon": 0.0, "lat": 38.90131233333334, "type": "electric_scooter", "fusion_lat": 0.0, "bike_id": "7d119c83898581c8cfd3cac953668823"}, {"name": "fed78bff5492d68a52fb4b5a4361ccc5", "is_reserved": 0, "is_disabled": 0, "lon": -77.010234, "rental_uris": {"android": "https://dc.lft.to/lastmile_qr_scan", "ios": "https://dc.lft.to/lastmile_qr_scan"}, "fusion_lon": 0.0, "lat": 38.906310500000004, "type": "electric_scooter", "fusion_lat": 0.0, "bike_id": "fed78bff5492d68a52fb4b5a4361ccc5"}, {"name": "12cd730b80f249aca3cd388040151a1b", "is_reserved": 0, "is_disabled": 0, "lon": -77.0169325, "rental_uris": {"android": "https://dc.lft.to/lastmile_qr_scan", "ios": "https://dc.lft.to/lastmile_qr_scan"}, "fusion_lon": 0.0, "lat": 38.911061333333336, "type": "electric_scooter", "fusion_lat": 0.0, "bike_id": "12cd730b80f249aca3cd388040151a1b"}, {"name": "83feba6dc78b756c8934fc4219d5b627", "is_reserved": 0, "is_disabled": 0, "lon": -77.0234995, "rental_uris": {"android": "https://dc.lft.to/lastmile_qr_scan", "ios": "https://dc.lft.to/lastmile_qr_scan"}, "fusion_lon": 0.0, "lat": 38.92269983333333, "type": "electric_scooter", "fusion_lat": 0.0, "bike_id": "83feba6dc78b756c8934fc4219d5b627"}, {"name": "a8e313fb493d8acdac60444a96bcd5e7", "is_reserved": 0, "is_disabled": 0, "lon": -77.0249945, "rental_uris": {"android": "https://dc.lft.to/lastmile_qr_scan", "ios": "https://dc.lft.to/lastmile_qr_scan"}, "fusion_lon": 0.0, "lat": 38.920705, "type": "electric_scooter", "fusion_lat": 0.0, "bike_id": "a8e313fb493d8acdac60444a96bcd5e7"}, {"name": "7f0e190c3d00296b1f369b4673f56f89", "is_reserved": 0, "is_disabled": 0, "lon": -77.03683883333333, "rental_uris": {"android": "https://dc.lft.to/lastmile_qr_scan", "ios": "https://dc.lft.to/lastmile_qr_scan"}, "fusion_lon": 0.0, "lat": 38.916782166666664, "type": "electric_scooter", "fusion_lat": 0.0, "bike_id": "7f0e190c3d00296b1f369b4673f56f89"}, {"name": "257bbf3e80911ee7a946fb0f1c393dda", "is_reserved": 0, "is_disabled": 0, "lon": -77.10694783333334, "rental_uris": {"android": "https://dc.lft.to/lastmile_qr_scan", "ios": "https://dc.lft.to/lastmile_qr_scan"}, "fusion_lon": 0.0, "lat": 38.855568833333336, "type": "electric_bike", "fusion_lat": 0.0, "bike_id": "257bbf3e80911ee7a946fb0f1c393dda"}, {"name": "79c36c9a3ac05a918e03519b5ab24336", "is_reserved": 0, "is_disabled": 0, "lon": -76.95204366666667, "rental_uris": {"android": "https://dc.lft.to/lastmile_qr_scan", "ios": "https://dc.lft.to/lastmile_qr_scan"}, "fusion_lon": 0.0, "lat": 38.936689666666666, "type": "electric_bike", "fusion_lat": 0.0, "bike_id": "79c36c9a3ac05a918e03519b5ab24336"}, {"name": "9a9adff7b39eb06d6de9942265005ba7", "is_reserved": 0, "is_disabled": 0, "lon": -76.99092316666666, "rental_uris": {"android": "https://dc.lft.to/lastmile_qr_scan", "ios": "https://dc.lft.to/lastmile_qr_scan"}, "fusion_lon": 0.0, "lat": 38.86355233333333, "type": "electric_scooter", "fusion_lat": 0.0, "bike_id": "9a9adff7b39eb06d6de9942265005ba7"}, {"name": "a2ecafd60fe7ecb602358bb4975b7ef8", "is_reserved": 0, "is_disabled": 0, "lon": -77.04399616666667, "rental_uris": {"android": "https://dc.lft.to/lastmile_qr_scan", "ios": "https://dc.lft.to/lastmile_qr_scan"}, "fusion_lon": 0.0, "lat": 38.89395916666667, "type": "electric_scooter", "fusion_lat": 0.0, "bike_id": "a2ecafd60fe7ecb602358bb4975b7ef8"}, {"name": "f843b883aa7af8efcdbd793a6de36375", "is_reserved": 0, "is_disabled": 0, "lon": -77.032308, "rental_uris": {"android": "https://dc.lft.to/lastmile_qr_scan", "ios": "https://dc.lft.to/lastmile_qr_scan"}, "fusion_lon": 0.0, "lat": 38.92870216666667, "type": "electric_scooter", "fusion_lat": 0.0, "bike_id": "f843b883aa7af8efcdbd793a6de36375"}, {"name": "d94237231aa0b5daed8a83444b4ef585", "is_reserved": 0, "is_disabled": 0, "lon": -77.032844, "rental_uris": {"android": "https://dc.lft.to/lastmile_qr_scan", "ios": "https://dc.lft.to/lastmile_qr_scan"}, "fusion_lon": 0.0, "lat": 38.934433, "type": "electric_scooter", "fusion_lat": 0.0, "bike_id": "d94237231aa0b5daed8a83444b4ef585"}, {"name": "65a1af39611cad5cf8d9a9300075fda0", "is_reserved": 0, "is_disabled": 0, "lon": -76.97197183333333, "rental_uris": {"android": "https://dc.lft.to/lastmile_qr_scan", "ios": "https://dc.lft.to/lastmile_qr_scan"}, "fusion_lon": 0.0, "lat": 38.892522666666665, "type": "electric_bike", "fusion_lat": 0.0, "bike_id": "65a1af39611cad5cf8d9a9300075fda0"}, {"name": "d7e8a24faf048647e6e7ab86846935bd", "is_reserved": 0, "is_disabled": 0, "lon": -76.98068433333333, "rental_uris": {"android": "https://dc.lft.to/lastmile_qr_scan", "ios": "https://dc.lft.to/lastmile_qr_scan"}, "fusion_lon": 0.0, "lat": 38.90171433333333, "type": "electric_bike", "fusion_lat": 0.0, "bike_id": "d7e8a24faf048647e6e7ab86846935bd"}, {"name": "7a5346978c1031c414f8401228f22966", "is_reserved": 0, "is_disabled": 0, "lon": -76.9868785, "rental_uris": {"android": "https://dc.lft.to/lastmile_qr_scan", "ios": "https://dc.lft.to/lastmile_qr_scan"}, "fusion_lon": 0.0, "lat": 38.88532683333333, "type": "electric_scooter", "fusion_lat": 0.0, "bike_id": "7a5346978c1031c414f8401228f22966"}, {"name": "f87025f17f077f16a4ed08144a86f801", "is_reserved": 0, "is_disabled": 0, "lon": -77.0387915, "rental_uris": {"android": "https://dc.lft.to/lastmile_qr_scan", "ios": "https://dc.lft.to/lastmile_qr_scan"}, "fusion_lon": 0.0, "lat": 38.9337105, "type": "electric_scooter", "fusion_lat": 0.0, "bike_id": "f87025f17f077f16a4ed08144a86f801"}, {"name": "65214bb5da7c4e38994c846597aca4b2", "is_reserved": 0, "is_disabled": 0, "lon": -77.01370933333334, "rental_uris": {"android": "https://dc.lft.to/lastmile_qr_scan", "ios": "https://dc.lft.to/lastmile_qr_scan"}, "fusion_lon": 0.0, "lat": 38.892268333333334, "type": "electric_scooter", "fusion_lat": 0.0, "bike_id": "65214bb5da7c4e38994c846597aca4b2"}, {"name": "907939a660630c648dc80b65c302127a", "is_reserved": 0, "is_disabled": 0, "lon": -77.02080316666667, "rental_uris": {"android": "https://dc.lft.to/lastmile_qr_scan", "ios": "https://dc.lft.to/lastmile_qr_scan"}, "fusion_lon": 0.0, "lat": 38.90404233333334, "type": "electric_scooter", "fusion_lat": 0.0, "bike_id": "907939a660630c648dc80b65c302127a"}, {"name": "c336f9af1ff54ef9d160d95e17b4845a", "is_reserved": 0, "is_disabled": 0, "lon": -77.0434795, "rental_uris": {"android": "https://dc.lft.to/lastmile_qr_scan", "ios": "https://dc.lft.to/lastmile_qr_scan"}, "fusion_lon": 0.0, "lat": 38.91057216666667, "type": "electric_scooter", "fusion_lat": 0.0, "bike_id": "c336f9af1ff54ef9d160d95e17b4845a"}, {"name": "ac861b51e92951625a865ea685a82b6b", "is_reserved": 0, "is_disabled": 0, "lon": -77.00786833333333, "rental_uris": {"android": "https://dc.lft.to/lastmile_qr_scan", "ios": "https://dc.lft.to/lastmile_qr_scan"}, "fusion_lon": 0.0, "lat": 38.878599, "type": "electric_scooter", "fusion_lat": 0.0, "bike_id": "ac861b51e92951625a865ea685a82b6b"}, {"name": "710ac1fad6d80011849d56ec9963364d", "is_reserved": 0, "is_disabled": 0, "lon": -77.0389905, "rental_uris": {"android": "https://dc.lft.to/lastmile_qr_scan", "ios": "https://dc.lft.to/lastmile_qr_scan"}, "fusion_lon": 0.0, "lat": 38.9045945, "type": "electric_scooter", "fusion_lat": 0.0, "bike_id": "710ac1fad6d80011849d56ec9963364d"}, {"name": "62e46882a4907b3efeee6231d762c5dc", "is_reserved": 0, "is_disabled": 0, "lon": -77.03188183333333, "rental_uris": {"android": "https://dc.lft.to/lastmile_qr_scan", "ios": "https://dc.lft.to/lastmile_qr_scan"}, "fusion_lon": 0.0, "lat": 38.896454, "type": "electric_scooter", "fusion_lat": 0.0, "bike_id": "62e46882a4907b3efeee6231d762c5dc"}, {"name": "f2da8ae7d271c6d9df4aadcad77a28ca", "is_reserved": 0, "is_disabled": 0, "lon": -77.0020165, "rental_uris": {"android": "https://dc.lft.to/lastmile_qr_scan", "ios": "https://dc.lft.to/lastmile_qr_scan"}, "fusion_lon": 0.0, "lat": 38.90240216666667, "type": "electric_scooter", "fusion_lat": 0.0, "bike_id": "f2da8ae7d271c6d9df4aadcad77a28ca"}, {"name": "55924557dbd93913bda1ffa2c72dee06", "is_reserved": 0, "is_disabled": 0, "lon": -77.08434916666667, "rental_uris": {"android": "https://dc.lft.to/lastmile_qr_scan", "ios": "https://dc.lft.to/lastmile_qr_scan"}, "fusion_lon": 0.0, "lat": 38.81030366666667, "type": "electric_bike", "fusion_lat": 0.0, "bike_id": "55924557dbd93913bda1ffa2c72dee06"}, {"name": "59db33affa6bf05e4a470711db019b0c", "is_reserved": 0, "is_disabled": 0, "lon": -76.97504983333333, "rental_uris": {"android": "https://dc.lft.to/lastmile_qr_scan", "ios": "https://dc.lft.to/lastmile_qr_scan"}, "fusion_lon": 0.0, "lat": 38.919328, "type": "electric_bike", "fusion_lat": 0.0, "bike_id": "59db33affa6bf05e4a470711db019b0c"}, {"name": "904711bac87c63c4cbdee73c900a3141", "is_reserved": 0, "is_disabled": 0, "lon": -77.06121166666667, "rental_uris": {"android": "https://dc.lft.to/lastmile_qr_scan", "ios": "https://dc.lft.to/lastmile_qr_scan"}, "fusion_lon": 0.0, "lat": 38.9045085, "type": "electric_scooter", "fusion_lat": 0.0, "bike_id": "904711bac87c63c4cbdee73c900a3141"}, {"name": "8d258ddfc829ac02471b6857c1fdd8ed", "is_reserved": 0, "is_disabled": 0, "lon": -77.03289816666667, "rental_uris": {"android": "https://dc.lft.to/lastmile_qr_scan", "ios": "https://dc.lft.to/lastmile_qr_scan"}, "fusion_lon": 0.0, "lat": 38.898994, "type": "electric_scooter", "fusion_lat": 0.0, "bike_id": "8d258ddfc829ac02471b6857c1fdd8ed"}, {"name": "bbbf696c80fa393d2d3f02efab7c9d8d", "is_reserved": 0, "is_disabled": 0, "lon": -76.9913985, "rental_uris": {"android": "https://dc.lft.to/lastmile_qr_scan", "ios": "https://dc.lft.to/lastmile_qr_scan"}, "fusion_lon": 0.0, "lat": 38.886802333333335, "type": "electric_scooter", "fusion_lat": 0.0, "bike_id": "bbbf696c80fa393d2d3f02efab7c9d8d"}, {"name": "1637a3c04d748493dc325ab1e5b108b1", "is_reserved": 0, "is_disabled": 0, "lon": -77.03214216666667, "rental_uris": {"android": "https://dc.lft.to/lastmile_qr_scan", "ios": "https://dc.lft.to/lastmile_qr_scan"}, "fusion_lon": 0.0, "lat": 38.9035825, "type": "electric_scooter", "fusion_lat": 0.0, "bike_id": "1637a3c04d748493dc325ab1e5b108b1"}, {"name": "8341c94125ad7959e52e9128f941a841", "is_reserved": 0, "is_disabled": 0, "lon": -77.023475, "rental_uris": {"android": "https://dc.lft.to/lastmile_qr_scan", "ios": "https://dc.lft.to/lastmile_qr_scan"}, "fusion_lon": 0.0, "lat": 38.902202333333335, "type": "electric_scooter", "fusion_lat": 0.0, "bike_id": "8341c94125ad7959e52e9128f941a841"}, {"name": "e375ef7cea7e834f5a2e58ba25aa3f4d", "is_reserved": 0, "is_disabled": 0, "lon": -77.03769066666666, "rental_uris": {"android": "https://dc.lft.to/lastmile_qr_scan", "ios": "https://dc.lft.to/lastmile_qr_scan"}, "fusion_lon": 0.0, "lat": 38.91556333333333, "type": "electric_scooter", "fusion_lat": 0.0, "bike_id": "e375ef7cea7e834f5a2e58ba25aa3f4d"}, {"name": "02e9dc4b993736bc89b17fb0fa7bf8a8", "is_reserved": 0, "is_disabled": 0, "lon": -76.94919233333333, "rental_uris": {"android": "https://dc.lft.to/lastmile_qr_scan", "ios": "https://dc.lft.to/lastmile_qr_scan"}, "fusion_lon": 0.0, "lat": 38.892694166666665, "type": "electric_scooter", "fusion_lat": 0.0, "bike_id": "02e9dc4b993736bc89b17fb0fa7bf8a8"}, {"name": "2b7429219007c681aadd5ca7a34da69a", "is_reserved": 0, "is_disabled": 0, "lon": -76.98848516666666, "rental_uris": {"android": "https://dc.lft.to/lastmile_qr_scan", "ios": "https://dc.lft.to/lastmile_qr_scan"}, "fusion_lon": 0.0, "lat": 38.90048083333333, "type": "electric_scooter", "fusion_lat": 0.0, "bike_id": "2b7429219007c681aadd5ca7a34da69a"}, {"name": "118ab5df19e1fa3ae51ed62fc7780a6b", "is_reserved": 0, "is_disabled": 0, "lon": -76.98457666666667, "rental_uris": {"android": "https://dc.lft.to/lastmile_qr_scan", "ios": "https://dc.lft.to/lastmile_qr_scan"}, "fusion_lon": 0.0, "lat": 38.880153, "type": "electric_scooter", "fusion_lat": 0.0, "bike_id": "118ab5df19e1fa3ae51ed62fc7780a6b"}, {"name": "47f65b49bc5b63988013aa07801a23a1", "is_reserved": 0, "is_disabled": 0, "lon": -77.03655516666667, "rental_uris": {"android": "https://dc.lft.to/lastmile_qr_scan", "ios": "https://dc.lft.to/lastmile_qr_scan"}, "fusion_lon": 0.0, "lat": 38.94198316666667, "type": "electric_scooter", "fusion_lat": 0.0, "bike_id": "47f65b49bc5b63988013aa07801a23a1"}, {"name": "b876a0c0ead698dd132343a9b513211a", "is_reserved": 0, "is_disabled": 0, "lon": -77.053276, "rental_uris": {"android": "https://dc.lft.to/lastmile_qr_scan", "ios": "https://dc.lft.to/lastmile_qr_scan"}, "fusion_lon": 0.0, "lat": 38.910095, "type": "electric_scooter", "fusion_lat": 0.0, "bike_id": "b876a0c0ead698dd132343a9b513211a"}, {"name": "008893dbb62b7e1dddb9ff6404c31c7c", "is_reserved": 0, "is_disabled": 0, "lon": -76.97929733333334, "rental_uris": {"android": "https://dc.lft.to/lastmile_qr_scan", "ios": "https://dc.lft.to/lastmile_qr_scan"}, "fusion_lon": 0.0, "lat": 38.90248866666667, "type": "electric_scooter", "fusion_lat": 0.0, "bike_id": "008893dbb62b7e1dddb9ff6404c31c7c"}, {"name": "5b419aaec138ec68b7e1309a41f02a5d", "is_reserved": 0, "is_disabled": 0, "lon": -77.12265883333333, "rental_uris": {"android": "https://dc.lft.to/lastmile_qr_scan", "ios": "https://dc.lft.to/lastmile_qr_scan"}, "fusion_lon": 0.0, "lat": 38.89737183333333, "type": "electric_bike", "fusion_lat": 0.0, "bike_id": "5b419aaec138ec68b7e1309a41f02a5d"}, {"name": "ce15389582f7a6f9c9f01c89671979c6", "is_reserved": 0, "is_disabled": 0, "lon": -77.0325725, "rental_uris": {"android": "https://dc.lft.to/lastmile_qr_scan", "ios": "https://dc.lft.to/lastmile_qr_scan"}, "fusion_lon": 0.0, "lat": 38.918246, "type": "electric_scooter", "fusion_lat": 0.0, "bike_id": "ce15389582f7a6f9c9f01c89671979c6"}, {"name": "6f8ef803a582dc3bb61017ba2f247024", "is_reserved": 0, "is_disabled": 0, "lon": -76.94252266666666, "rental_uris": {"android": "https://dc.lft.to/lastmile_qr_scan", "ios": "https://dc.lft.to/lastmile_qr_scan"}, "fusion_lon": 0.0, "lat": 38.89678333333333, "type": "electric_scooter", "fusion_lat": 0.0, "bike_id": "6f8ef803a582dc3bb61017ba2f247024"}, {"name": "ba9771e7dfc00a06b7d1510b6ceb19a9", "is_reserved": 0, "is_disabled": 0, "lon": -77.04376066666667, "rental_uris": {"android": "https://dc.lft.to/lastmile_qr_scan", "ios": "https://dc.lft.to/lastmile_qr_scan"}, "fusion_lon": 0.0, "lat": 38.90649333333333, "type": "electric_scooter", "fusion_lat": 0.0, "bike_id": "ba9771e7dfc00a06b7d1510b6ceb19a9"}, {"name": "4c51a0d29f96bc13bd7b23d0e5ffe338", "is_reserved": 0, "is_disabled": 0, "lon": -77.07349166666667, "rental_uris": {"android": "https://dc.lft.to/lastmile_qr_scan", "ios": "https://dc.lft.to/lastmile_qr_scan"}, "fusion_lon": 0.0, "lat": 38.91107616666667, "type": "electric_scooter", "fusion_lat": 0.0, "bike_id": "4c51a0d29f96bc13bd7b23d0e5ffe338"}, {"name": "2789a93620834276bc592e2119b2f3e0", "is_reserved": 0, "is_disabled": 0, "lon": -77.03852133333334, "rental_uris": {"android": "https://dc.lft.to/lastmile_qr_scan", "ios": "https://dc.lft.to/lastmile_qr_scan"}, "fusion_lon": 0.0, "lat": 38.912103, "type": "electric_scooter", "fusion_lat": 0.0, "bike_id": "2789a93620834276bc592e2119b2f3e0"}, {"name": "28799e7834e3567a5dbd1061f84d68e7", "is_reserved": 0, "is_disabled": 0, "lon": -77.2329605, "rental_uris": {"android": "https://dc.lft.to/lastmile_qr_scan", "ios": "https://dc.lft.to/lastmile_qr_scan"}, "fusion_lon": 0.0, "lat": 38.92528633333333, "type": "electric_bike", "fusion_lat": 0.0, "bike_id": "28799e7834e3567a5dbd1061f84d68e7"}, {"name": "98c948dbdf6264d5f6c243c10e24b799", "is_reserved": 0, "is_disabled": 0, "lon": -76.91659416666667, "rental_uris": {"android": "https://dc.lft.to/lastmile_qr_scan", "ios": "https://dc.lft.to/lastmile_qr_scan"}, "fusion_lon": 0.0, "lat": 38.86860583333333, "type": "electric_bike", "fusion_lat": 0.0, "bike_id": "98c948dbdf6264d5f6c243c10e24b799"}, {"name": "c1ab51537c7f044a97f20bb3499ab85e", "is_reserved": 0, "is_disabled": 0, "lon": -77.04045466666666, "rental_uris": {"android": "https://dc.lft.to/lastmile_qr_scan", "ios": "https://dc.lft.to/lastmile_qr_scan"}, "fusion_lon": 0.0, "lat": 38.91290166666667, "type": "electric_scooter", "fusion_lat": 0.0, "bike_id": "c1ab51537c7f044a97f20bb3499ab85e"}, {"name": "995bd1378311a16df3899a6cbd06e515", "is_reserved": 0, "is_disabled": 0, "lon": -77.06076366666667, "rental_uris": {"android": "https://dc.lft.to/lastmile_qr_scan", "ios": "https://dc.lft.to/lastmile_qr_scan"}, "fusion_lon": 0.0, "lat": 38.905345, "type": "electric_scooter", "fusion_lat": 0.0, "bike_id": "995bd1378311a16df3899a6cbd06e515"}, {"name": "1d7a475f86a7bc9b5deff16703f5bc5c", "is_reserved": 0, "is_disabled": 0, "lon": -77.02573966666667, "rental_uris": {"android": "https://dc.lft.to/lastmile_qr_scan", "ios": "https://dc.lft.to/lastmile_qr_scan"}, "fusion_lon": 0.0, "lat": 38.92508516666667, "type": "electric_scooter", "fusion_lat": 0.0, "bike_id": "1d7a475f86a7bc9b5deff16703f5bc5c"}, {"name": "b89c2acbbae23dd94521cc0ccbfc79e6", "is_reserved": 0, "is_disabled": 0, "lon": -77.0259825, "rental_uris": {"android": "https://dc.lft.to/lastmile_qr_scan", "ios": "https://dc.lft.to/lastmile_qr_scan"}, "fusion_lon": 0.0, "lat": 38.895095, "type": "electric_scooter", "fusion_lat": 0.0, "bike_id": "b89c2acbbae23dd94521cc0ccbfc79e6"}, {"name": "377d5befe35d4b5f36918671c1377679", "is_reserved": 0, "is_disabled": 0, "lon": -77.091598, "rental_uris": {"android": "https://dc.lft.to/lastmile_qr_scan", "ios": "https://dc.lft.to/lastmile_qr_scan"}, "fusion_lon": 0.0, "lat": 38.967625166666664, "type": "electric_bike", "fusion_lat": 0.0, "bike_id": "377d5befe35d4b5f36918671c1377679"}, {"name": "bb0869342e63cb0a6307b1f8b7c6ea3f", "is_reserved": 0, "is_disabled": 0, "lon": -77.03735216666666, "rental_uris": {"android": "https://dc.lft.to/lastmile_qr_scan", "ios": "https://dc.lft.to/lastmile_qr_scan"}, "fusion_lon": 0.0, "lat": 38.9181675, "type": "electric_scooter", "fusion_lat": 0.0, "bike_id": "bb0869342e63cb0a6307b1f8b7c6ea3f"}, {"name": "beac00ad4945a420639c72647c825b00", "is_reserved": 0, "is_disabled": 0, "lon": -77.04224366666666, "rental_uris": {"android": "https://dc.lft.to/lastmile_qr_scan", "ios": "https://dc.lft.to/lastmile_qr_scan"}, "fusion_lon": 0.0, "lat": 38.9211665, "type": "electric_scooter", "fusion_lat": 0.0, "bike_id": "beac00ad4945a420639c72647c825b00"}, {"name": "800d9888f8a7ae45a023866f40019d55", "is_reserved": 0, "is_disabled": 0, "lon": -77.01687933333334, "rental_uris": {"android": "https://dc.lft.to/lastmile_qr_scan", "ios": "https://dc.lft.to/lastmile_qr_scan"}, "fusion_lon": 0.0, "lat": 38.975354333333335, "type": "electric_scooter", "fusion_lat": 0.0, "bike_id": "800d9888f8a7ae45a023866f40019d55"}, {"name": "44adfffd24c396a489db3cc01ec32a0a", "is_reserved": 0, "is_disabled": 0, "lon": -77.0465415, "rental_uris": {"android": "https://dc.lft.to/lastmile_qr_scan", "ios": "https://dc.lft.to/lastmile_qr_scan"}, "fusion_lon": 0.0, "lat": 38.8930215, "type": "electric_scooter", "fusion_lat": 0.0, "bike_id": "44adfffd24c396a489db3cc01ec32a0a"}, {"name": "3aaafa94afe5c9026c79641426dc9cb8", "is_reserved": 0, "is_disabled": 0, "lon": -77.0442495, "rental_uris": {"android": "https://dc.lft.to/lastmile_qr_scan", "ios": "https://dc.lft.to/lastmile_qr_scan"}, "fusion_lon": 0.0, "lat": 38.87438083333333, "type": "electric_scooter", "fusion_lat": 0.0, "bike_id": "3aaafa94afe5c9026c79641426dc9cb8"}, {"name": "17c973c771fbfdbeeeac1169e638c2aa", "is_reserved": 0, "is_disabled": 0, "lon": -76.96681366666667, "rental_uris": {"android": "https://dc.lft.to/lastmile_qr_scan", "ios": "https://dc.lft.to/lastmile_qr_scan"}, "fusion_lon": 0.0, "lat": 38.858998, "type": "electric_scooter", "fusion_lat": 0.0, "bike_id": "17c973c771fbfdbeeeac1169e638c2aa"}, {"name": "8cb2f41f303baa4a214dd215e966c7ff", "is_reserved": 0, "is_disabled": 0, "lon": -77.0335255, "rental_uris": {"android": "https://dc.lft.to/lastmile_qr_scan", "ios": "https://dc.lft.to/lastmile_qr_scan"}, "fusion_lon": 0.0, "lat": 38.9225595, "type": "electric_scooter", "fusion_lat": 0.0, "bike_id": "8cb2f41f303baa4a214dd215e966c7ff"}, {"name": "2d2f500f39e438af471e88deab689792", "is_reserved": 0, "is_disabled": 0, "lon": -76.9976345, "rental_uris": {"android": "https://dc.lft.to/lastmile_qr_scan", "ios": "https://dc.lft.to/lastmile_qr_scan"}, "fusion_lon": 0.0, "lat": 39.00600133333333, "type": "electric_bike", "fusion_lat": 0.0, "bike_id": "2d2f500f39e438af471e88deab689792"}, {"name": "9d759734b08171cbf9ef2554b28b4da1", "is_reserved": 0, "is_disabled": 0, "lon": -77.04258783333333, "rental_uris": {"android": "https://dc.lft.to/lastmile_qr_scan", "ios": "https://dc.lft.to/lastmile_qr_scan"}, "fusion_lon": 0.0, "lat": 38.92211283333334, "type": "electric_scooter", "fusion_lat": 0.0, "bike_id": "9d759734b08171cbf9ef2554b28b4da1"}, {"name": "ba401dfc1470b311de6444eb3c8c98a9", "is_reserved": 0, "is_disabled": 0, "lon": -77.07004216666667, "rental_uris": {"android": "https://dc.lft.to/lastmile_qr_scan", "ios": "https://dc.lft.to/lastmile_qr_scan"}, "fusion_lon": 0.0, "lat": 38.905911, "type": "electric_scooter", "fusion_lat": 0.0, "bike_id": "ba401dfc1470b311de6444eb3c8c98a9"}, {"name": "717641483a9be874a08a84a059a924d3", "is_reserved": 0, "is_disabled": 0, "lon": -77.11429733333334, "rental_uris": {"android": "https://dc.lft.to/lastmile_qr_scan", "ios": "https://dc.lft.to/lastmile_qr_scan"}, "fusion_lon": 0.0, "lat": 38.85246383333333, "type": "electric_bike", "fusion_lat": 0.0, "bike_id": "717641483a9be874a08a84a059a924d3"}, {"name": "2e294f75f15c0dcacaa7137aa4653ce0", "is_reserved": 0, "is_disabled": 0, "lon": -77.00205166666667, "rental_uris": {"android": "https://dc.lft.to/lastmile_qr_scan", "ios": "https://dc.lft.to/lastmile_qr_scan"}, "fusion_lon": 0.0, "lat": 38.90242666666666, "type": "electric_scooter", "fusion_lat": 0.0, "bike_id": "2e294f75f15c0dcacaa7137aa4653ce0"}, {"name": "2bab6b720d0a7ac3bcf512aedba26e2e", "is_reserved": 0, "is_disabled": 0, "lon": -76.98133333333334, "rental_uris": {"android": "https://dc.lft.to/lastmile_qr_scan", "ios": "https://dc.lft.to/lastmile_qr_scan"}, "fusion_lon": 0.0, "lat": 38.884171, "type": "electric_scooter", "fusion_lat": 0.0, "bike_id": "2bab6b720d0a7ac3bcf512aedba26e2e"}, {"name": "f04d69745d525469e694b9cd6d669764", "is_reserved": 0, "is_disabled": 0, "lon": -76.995035, "rental_uris": {"android": "https://dc.lft.to/lastmile_qr_scan", "ios": "https://dc.lft.to/lastmile_qr_scan"},