{"data": {"bikes": [{"rental_uris": {"ios": "https://dc.lft.to/lastmile_qr_scan", "android": "https://dc.lft.to/lastmile_qr_scan"}, "fusion_lat": 0.0, "name": "43b02758eccfe386bec6d42d9784ec90", "bike_id": "43b02758eccfe386bec6d42d9784ec90", "is_disabled": 0, "type": "electric_scooter", "lat": 38.9542855, "lon": -77.0276105, "is_reserved": 0, "fusion_lon": 0.0}, {"rental_uris": {"ios": "https://dc.lft.to/lastmile_qr_scan", "android": "https://dc.lft.to/lastmile_qr_scan"}, "fusion_lat": 0.0, "name": "3845bb86be858030961d9b41ada0c1d0", "bike_id": "3845bb86be858030961d9b41ada0c1d0", "is_disabled": 0, "type": "electric_scooter", "lat": 38.899823, "lon": -76.93989033333334, "is_reserved": 0, "fusion_lon": 0.0}, {"rental_uris": {"ios": "https://dc.lft.to/lastmile_qr_scan", "android": "https://dc.lft.to/lastmile_qr_scan"}, "fusion_lat": 0.0, "name": "76936d194847563f7e1db30359126106", "bike_id": "76936d194847563f7e1db30359126106", "is_disabled": 0, "type": "electric_scooter", "lat": 38.91040516666666, "lon": -77.04277616666667, "is_reserved": 0, "fusion_lon": 0.0}, {"rental_uris": {"ios": "https://dc.lft.to/lastmile_qr_scan", "android": "https://dc.lft.to/lastmile_qr_scan"}, "fusion_lat": 0.0, "name": "341270e6a1eb14b3508ec82a35fb9d43", "bike_id": "341270e6a1eb14b3508ec82a35fb9d43", "is_disabled": 0, "type": "electric_scooter", "lat": 38.86498616666667, "lon": -76.98986216666667, "is_reserved": 0, "fusion_lon": 0.0}, {"rental_uris": {"ios": "https://dc.lft.to/lastmile_qr_scan", "android": "https://dc.lft.to/lastmile_qr_scan"}, "fusion_lat": 0.0, "name": "b8fbe4582694035b039d193280b4b777", "bike_id": "b8fbe4582694035b039d193280b4b777", "is_disabled": 0, "type": "electric_scooter", "lat": 38.90275333333334, "lon": -77.017684, "is_reserved": 0, "fusion_lon": 0.0}, {"rental_uris": {"ios": "https://dc.lft.to/lastmile_qr_scan", "android": "https://dc.lft.to/lastmile_qr_scan"}, "fusion_lat": 0.0, "name": "bcf80e43a4a512e9636715d9d207a3b6", "bike_id": "bcf80e43a4a512e9636715d9d207a3b6", "is_disabled": 0, "type": "electric_scooter", "lat": 38.93019066666667, "lon": -77.044499, "is_reserved": 0, "fusion_lon": 0.0}, {"rental_uris": {"ios": "https://dc.lft.to/lastmile_qr_scan", "android": "https://dc.lft.to/lastmile_qr_scan"}, "fusion_lat": 0.0, "name": "69327d15c3ea999b5581ec4cdf76dffb", "bike_id": "69327d15c3ea999b5581ec4cdf76dffb", "is_disabled": 0, "type": "electric_scooter", "lat": 38.895190166666666, "lon": -76.97729366666667, "is_reserved": 0, "fusion_lon": 0.0}, {"rental_uris": {"ios": "https://dc.lft.to/lastmile_qr_scan", "android": "https://dc.lft.to/lastmile_qr_scan"}, "fusion_lat": 0.0, "name": "e1321b68491664ff52e8b27c4e3bb3d8", "bike_id": "e1321b68491664ff52e8b27c4e3bb3d8", "is_disabled": 0, "type": "electric_scooter", "lat": 38.94451016666667, "lon": -77.0634965, "is_reserved": 0, "fusion_lon": 0.0}, {"rental_uris": {"ios": "https://dc.lft.to/lastmile_qr_scan", "android": "https://dc.lft.to/lastmile_qr_scan"}, "fusion_lat": 0.0, "name": "93268603b660d4b171c3d4eb9e5c4647", "bike_id": "93268603b660d4b171c3d4eb9e5c4647", "is_disabled": 0, "type": "electric_scooter", "lat": 38.923442, "lon": -77.05052516666667, "is_reserved": 0, "fusion_lon": 0.0}, {"rental_uris": {"ios": "https://dc.lft.to/lastmile_qr_scan", "android": "https://dc.lft.to/lastmile_qr_scan"}, "fusion_lat": 0.0, "name": "48204151f32ac88b3cc00f47f4e34734", "bike_id": "48204151f32ac88b3cc00f47f4e34734", "is_disabled": 0, "type": "electric_scooter", "lat": 38.89220816666667, "lon": -77.03159866666667, "is_reserved": 0, "fusion_lon": 0.0}, {"rental_uris": {"ios": "https://dc.lft.to/lastmile_qr_scan", "android": "https://dc.lft.to/lastmile_qr_scan"}, "fusion_lat": 0.0, "name": "f39f28640b2c5b524543185c3d08c724", "bike_id": "f39f28640b2c5b524543185c3d08c724", "is_disabled": 0, "type": "electric_scooter", "lat": 38.8611225, "lon": -76.98371566666667, "is_reserved": 0, "fusion_lon": 0.0}, {"rental_uris": {"ios": "https://dc.lft.to/lastmile_qr_scan", "android": "https://dc.lft.to/lastmile_qr_scan"}, "fusion_lat": 0.0, "name": "801a02a1c0fe35afc1f35ac64b6a7bf2", "bike_id": "801a02a1c0fe35afc1f35ac64b6a7bf2", "is_disabled": 0, "type": "electric_scooter", "lat": 38.9305215, "lon": -77.02659583333333, "is_reserved": 0, "fusion_lon": 0.0}, {"rental_uris": {"ios": "https://dc.lft.to/lastmile_qr_scan", "android": "https://dc.lft.to/lastmile_qr_scan"}, "fusion_lat": 0.0, "name": "904b2b0b61074ee3b7c030b9015c981d", "bike_id": "904b2b0b61074ee3b7c030b9015c981d", "is_disabled": 0, "type": "electric_scooter", "lat": 38.90826033333333, "lon": -77.03459016666666, "is_reserved": 0, "fusion_lon": 0.0}, {"rental_uris": {"ios": "https://dc.lft.to/lastmile_qr_scan", "android": "https://dc.lft.to/lastmile_qr_scan"}, "fusion_lat": 0.0, "name": "a52c16fbd03cdc8ca2ad1361d6f60c65", "bike_id": "a52c16fbd03cdc8ca2ad1361d6f60c65", "is_disabled": 0, "type": "electric_scooter", "lat": 38.90441466666667, "lon": -77.06120833333334, "is_reserved": 0, "fusion_lon": 0.0}, {"rental_uris": {"ios": "https://dc.lft.to/lastmile_qr_scan", "android": "https://dc.lft.to/lastmile_qr_scan"}, "fusion_lat": 0.0, "name": "f552ff6bbd31eaff211b08b5652a1c33", "bike_id": "f552ff6bbd31eaff211b08b5652a1c33", "is_disabled": 0, "type": "electric_scooter", "lat": 38.91555266666667, "lon": -77.0220925, "is_reserved": 0, "fusion_lon": 0.0}, {"rental_uris": {"ios": "https://dc.lft.to/lastmile_qr_scan", "android": "https://dc.lft.to/lastmile_qr_scan"}, "fusion_lat": 0.0, "name": "adef76a20c5810310e7f06005fc578e5", "bike_id": "adef76a20c5810310e7f06005fc578e5", "is_disabled": 0, "type": "electric_scooter", "lat": 38.87672516666667, "lon": -77.017982, "is_reserved": 0, "fusion_lon": 0.0}, {"rental_uris": {"ios": "https://dc.lft.to/lastmile_qr_scan", "android": "https://dc.lft.to/lastmile_qr_scan"}, "fusion_lat": 0.0, "name": "3b11b6c4f641fa11d4f7461f406cef77", "bike_id": "3b11b6c4f641fa11d4f7461f406cef77", "is_disabled": 0, "type": "electric_scooter", "lat": 38.918569833333336, "lon": -77.04036616666667, "is_reserved": 0, "fusion_lon": 0.0}, {"rental_uris": {"ios": "https://dc.lft.to/lastmile_qr_scan", "android": "https://dc.lft.to/lastmile_qr_scan"}, "fusion_lat": 0.0, "name": "37dc092abd3c75c08a2e36d4a2f5ad97", "bike_id": "37dc092abd3c75c08a2e36d4a2f5ad97", "is_disabled": 0, "type": "electric_scooter", "lat": 38.90959266666667, "lon": -77.03315566666667, "is_reserved": 0, "fusion_lon": 0.0}, {"rental_uris": {"ios": "https://dc.lft.to/lastmile_qr_scan", "android": "https://dc.lft.to/lastmile_qr_scan"}, "fusion_lat": 0.0, "name": "4b856cfb79f58b0314003a976c8bded3", "bike_id": "4b856cfb79f58b0314003a976c8bded3", "is_disabled": 0, "type": "electric_scooter", "lat": 38.916603, "lon": -77.02192166666667, "is_reserved": 0, "fusion_lon": 0.0}, {"rental_uris": {"ios": "https://dc.lft.to/lastmile_qr_scan", "android": "https://dc.lft.to/lastmile_qr_scan"}, "fusion_lat": 0.0, "name": "5c57a9bf2ce75791f60a3b184c4854e7", "bike_id": "5c57a9bf2ce75791f60a3b184c4854e7", "is_disabled": 0, "type": "electric_scooter", "lat": 38.90030616666667, "lon": -77.0019715, "is_reserved": 0, "fusion_lon": 0.0}, {"rental_uris": {"ios": "https://dc.lft.to/lastmile_qr_scan", "android": "https://dc.lft.to/lastmile_qr_scan"}, "fusion_lat": 0.0, "name": "5993bd56ed617339460a96365778b8a9", "bike_id": "5993bd56ed617339460a96365778b8a9", "is_disabled": 0, "type": "electric_scooter", "lat": 38.92308116666667, "lon": -77.04274366666667, "is_reserved": 0, "fusion_lon": 0.0}, {"rental_uris": {"ios": "https://dc.lft.to/lastmile_qr_scan", "android": "https://dc.lft.to/lastmile_qr_scan"}, "fusion_lat": 0.0, "name": "3cebb2f208c698389940958491e120c3", "bike_id": "3cebb2f208c698389940958491e120c3", "is_disabled": 0, "type": "electric_scooter", "lat": 38.92633216666667, "lon": -77.035331, "is_reserved": 0, "fusion_lon": 0.0}, {"rental_uris": {"ios": "https://dc.lft.to/lastmile_qr_scan", "android": "https://dc.lft.to/lastmile_qr_scan"}, "fusion_lat": 0.0, "name": "dbd175b7b0610324ba59f985432c0cbf", "bike_id": "dbd175b7b0610324ba59f985432c0cbf", "is_disabled": 0, "type": "electric_scooter", "lat": 38.89243416666667, "lon": -77.04657566666667, "is_reserved": 0, "fusion_lon": 0.0}, {"rental_uris": {"ios": "https://dc.lft.to/lastmile_qr_scan", "android": "https://dc.lft.to/lastmile_qr_scan"}, "fusion_lat": 0.0, "name": "2d1a3defdbf73afe3cd79eea95886b08", "bike_id": "2d1a3defdbf73afe3cd79eea95886b08", "is_disabled": 0, "type": "electric_scooter", "lat": 38.916813, "lon": -77.0228295, "is_reserved": 0, "fusion_lon": 0.0}, {"rental_uris": {"ios": "https://dc.lft.to/lastmile_qr_scan", "android": "https://dc.lft.to/lastmile_qr_scan"}, "fusion_lat": 0.0, "name": "c99bf52968667de7308ea175b963e8b8", "bike_id": "c99bf52968667de7308ea175b963e8b8", "is_disabled": 0, "type": "electric_scooter", "lat": 38.9360555, "lon": -77.05858533333334, "is_reserved": 0, "fusion_lon": 0.0}, {"rental_uris": {"ios": "https://dc.lft.to/lastmile_qr_scan", "android": "https://dc.lft.to/lastmile_qr_scan"}, "fusion_lat": 0.0, "name": "a48a1d53c829e9d22b1e4c629d1d55d2", "bike_id": "a48a1d53c829e9d22b1e4c629d1d55d2", "is_disabled": 0, "type": "electric_scooter", "lat": 38.91468366666667, "lon": -77.01788716666667, "is_reserved": 0, "fusion_lon": 0.0}, {"rental_uris": {"ios": "https://dc.lft.to/lastmile_qr_scan", "android": "https://dc.lft.to/lastmile_qr_scan"}, "fusion_lat": 0.0, "name": "739fe2192409950001871069a13211d9", "bike_id": "739fe2192409950001871069a13211d9", "is_disabled": 0, "type": "electric_bike", "lat": 38.877317166666664, "lon": -76.98105116666666, "is_reserved": 0, "fusion_lon": 0.0}, {"rental_uris": {"ios": "https://dc.lft.to/lastmile_qr_scan", "android": "https://dc.lft.to/lastmile_qr_scan"}, "fusion_lat": 0.0, "name": "7f0f63a52a50397b4fb471521bd88435", "bike_id": "7f0f63a52a50397b4fb471521bd88435", "is_disabled": 0, "type": "electric_scooter", "lat": 38.915593333333334, "lon": -77.0241545, "is_reserved": 0, "fusion_lon": 0.0}, {"rental_uris": {"ios": "https://dc.lft.to/lastmile_qr_scan", "android": "https://dc.lft.to/lastmile_qr_scan"}, "fusion_lat": 0.0, "name": "08a62f925f7345bdb9f80b62285586a5", "bike_id": "08a62f925f7345bdb9f80b62285586a5", "is_disabled": 0, "type": "electric_scooter", "lat": 38.949596, "lon": -77.02722116666666, "is_reserved": 0, "fusion_lon": 0.0}, {"rental_uris": {"ios": "https://dc.lft.to/lastmile_qr_scan", "android": "https://dc.lft.to/lastmile_qr_scan"}, "fusion_lat": 0.0, "name": "371394ad23ff6384c0902b207d167df5", "bike_id": "371394ad23ff6384c0902b207d167df5", "is_disabled": 0, "type": "electric_scooter", "lat": 38.949561, "lon": -77.02720383333333, "is_reserved": 0, "fusion_lon": 0.0}, {"rental_uris": {"ios": "https://dc.lft.to/lastmile_qr_scan", "android": "https://dc.lft.to/lastmile_qr_scan"}, "fusion_lat": 0.0, "name": "7591213a55d3ef4a869bd7ac499d17e9", "bike_id": "7591213a55d3ef4a869bd7ac499d17e9", "is_disabled": 0, "type": "electric_scooter", "lat": 38.930153833333335, "lon": -77.05524183333333, "is_reserved": 0, "fusion_lon": 0.0}, {"rental_uris": {"ios": "https://dc.lft.to/lastmile_qr_scan", "android": "https://dc.lft.to/lastmile_qr_scan"}, "fusion_lat": 0.0, "name": "54d52cefccb4aecd2e33d68684c33148", "bike_id": "54d52cefccb4aecd2e33d68684c33148", "is_disabled": 0, "type": "electric_scooter", "lat": 38.892262833333334, "lon": -77.03160316666667, "is_reserved": 0, "fusion_lon": 0.0}, {"rental_uris": {"ios": "https://dc.lft.to/lastmile_qr_scan", "android": "https://dc.lft.to/lastmile_qr_scan"}, "fusion_lat": 0.0, "name": "752bb2fcf0df8a5b5b089df51295ef10", "bike_id": "752bb2fcf0df8a5b5b089df51295ef10", "is_disabled": 0, "type": "electric_scooter", "lat": 38.9171175, "lon": -77.0349925, "is_reserved": 0, "fusion_lon": 0.0}, {"rental_uris": {"ios": "https://dc.lft.to/lastmile_qr_scan", "android": "https://dc.lft.to/lastmile_qr_scan"}, "fusion_lat": 0.0, "name": "170347db1abd71a0d7ae257d61fa7c89", "bike_id": "170347db1abd71a0d7ae257d61fa7c89", "is_disabled": 0, "type": "electric_scooter", "lat": 38.94201066666667, "lon": -77.02591566666666, "is_reserved": 0, "fusion_lon": 0.0}, {"rental_uris": {"ios": "https://dc.lft.to/lastmile_qr_scan", "android": "https://dc.lft.to/lastmile_qr_scan"}, "fusion_lat": 0.0, "name": "bb77c52ec13c92d19e3b555c102371b9", "bike_id": "bb77c52ec13c92d19e3b555c102371b9", "is_disabled": 0, "type": "electric_scooter", "lat": 38.909719333333335, "lon": -77.03477033333333, "is_reserved": 0, "fusion_lon": 0.0}, {"rental_uris": {"ios": "https://dc.lft.to/lastmile_qr_scan", "android": "https://dc.lft.to/lastmile_qr_scan"}, "fusion_lat": 0.0, "name": "c8874d33605308cb013ba491c0b8c310", "bike_id": "c8874d33605308cb013ba491c0b8c310", "is_disabled": 0, "type": "electric_scooter", "lat": 38.900801666666666, "lon": -77.02465833333333, "is_reserved": 0, "fusion_lon": 0.0}, {"rental_uris": {"ios": "https://dc.lft.to/lastmile_qr_scan", "android": "https://dc.lft.to/lastmile_qr_scan"}, "fusion_lat": 0.0, "name": "6242f4cf2a0c88f190917b78b6d86dd1", "bike_id": "6242f4cf2a0c88f190917b78b6d86dd1", "is_disabled": 0, "type": "electric_scooter", "lat": 38.93598516666667, "lon": -77.02330133333334, "is_reserved": 0, "fusion_lon": 0.0}, {"rental_uris": {"ios": "https://dc.lft.to/lastmile_qr_scan", "android": "https://dc.lft.to/lastmile_qr_scan"}, "fusion_lat": 0.0, "name": "02a65d1804aab4f831ae300e0074998b", "bike_id": "02a65d1804aab4f831ae300e0074998b", "is_disabled": 0, "type": "electric_scooter", "lat": 38.905856666666665, "lon": -77.00613916666667, "is_reserved": 0, "fusion_lon": 0.0}, {"rental_uris": {"ios": "https://dc.lft.to/lastmile_qr_scan", "android": "https://dc.lft.to/lastmile_qr_scan"}, "fusion_lat": 0.0, "name": "05cc2d1975682bffcd7865ee19f4277e", "bike_id": "05cc2d1975682bffcd7865ee19f4277e", "is_disabled": 0, "type": "electric_scooter", "lat": 38.89231216666667, "lon": -77.033747, "is_reserved": 0, "fusion_lon": 0.0}, {"rental_uris": {"ios": "https://dc.lft.to/lastmile_qr_scan", "android": "https://dc.lft.to/lastmile_qr_scan"}, "fusion_lat": 0.0, "name": "4972d529a77ac0d5d109d55fdf1c8c04", "bike_id": "4972d529a77ac0d5d109d55fdf1c8c04", "is_disabled": 0, "type": "electric_scooter", "lat": 38.92381983333333, "lon": -77.01897433333333, "is_reserved": 0, "fusion_lon": 0.0}, {"rental_uris": {"ios": "https://dc.lft.to/lastmile_qr_scan", "android": "https://dc.lft.to/lastmile_qr_scan"}, "fusion_lat": 0.0, "name": "2a9194952b2c0efc220bc6ea3fa87732", "bike_id": "2a9194952b2c0efc220bc6ea3fa87732", "is_disabled": 0, "type": "electric_scooter", "lat": 38.88915933333333, "lon": -76.92950383333333, "is_reserved": 0, "fusion_lon": 0.0}, {"rental_uris": {"ios": "https://dc.lft.to/lastmile_qr_scan", "android": "https://dc.lft.to/lastmile_qr_scan"}, "fusion_lat": 0.0, "name": "195e90f51f2e972648e871c16c0f1dfd", "bike_id": "195e90f51f2e972648e871c16c0f1dfd", "is_disabled": 0, "type": "electric_scooter", "lat": 38.9224605, "lon": -77.030104, "is_reserved": 0, "fusion_lon": 0.0}, {"rental_uris": {"ios": "https://dc.lft.to/lastmile_qr_scan", "android": "https://dc.lft.to/lastmile_qr_scan"}, "fusion_lat": 0.0, "name": "e0f83bac6b859b8eed6e34e94887aafa", "bike_id": "e0f83bac6b859b8eed6e34e94887aafa", "is_disabled": 0, "type": "electric_scooter", "lat": 38.844273, "lon": -76.99777916666666, "is_reserved": 0, "fusion_lon": 0.0}, {"rental_uris": {"ios": "https://dc.lft.to/lastmile_qr_scan", "android": "https://dc.lft.to/lastmile_qr_scan"}, "fusion_lat": 0.0, "name": "b4d9e0f1fc45b846d428185ef79f6807", "bike_id": "b4d9e0f1fc45b846d428185ef79f6807", "is_disabled": 0, "type": "electric_scooter", "lat": 38.90860266666667, "lon": -77.0443265, "is_reserved": 0, "fusion_lon": 0.0}, {"rental_uris": {"ios": "https://dc.lft.to/lastmile_qr_scan", "android": "https://dc.lft.to/lastmile_qr_scan"}, "fusion_lat": 0.0, "name": "e77090420945aa40d50c90f2464e7f2e", "bike_id": "e77090420945aa40d50c90f2464e7f2e", "is_disabled": 0, "type": "electric_scooter", "lat": 38.902195166666665, "lon": -77.0513005, "is_reserved": 0, "fusion_lon": 0.0}, {"rental_uris": {"ios": "https://dc.lft.to/lastmile_qr_scan", "android": "https://dc.lft.to/lastmile_qr_scan"}, "fusion_lat": 0.0, "name": "4871824735b309e0e6f75f1949d73a53", "bike_id": "4871824735b309e0e6f75f1949d73a53", "is_disabled": 0, "type": "electric_bike", "lat": 38.87146283333333, "lon": -76.93702866666666, "is_reserved": 0, "fusion_lon": 0.0}, {"rental_uris": {"ios": "https://dc.lft.to/lastmile_qr_scan", "android": "https://dc.lft.to/lastmile_qr_scan"}, "fusion_lat": 0.0, "name": "06defaae1d2c108e4b84781359d8bfc4", "bike_id": "06defaae1d2c108e4b84781359d8bfc4", "is_disabled": 0, "type": "electric_scooter", "lat": 38.961371, "lon": -77.02234816666666, "is_reserved": 0, "fusion_lon": 0.0}, {"rental_uris": {"ios": "https://dc.lft.to/lastmile_qr_scan", "android": "https://dc.lft.to/lastmile_qr_scan"}, "fusion_lat": 0.0, "name": "e2ae5ce1d2c0118c76cc2838993485b9", "bike_id": "e2ae5ce1d2c0118c76cc2838993485b9", "is_disabled": 0, "type": "electric_scooter", "lat": 38.8843075, "lon": -76.95752933333333, "is_reserved": 0, "fusion_lon": 0.0}, {"rental_uris": {"ios": "https://dc.lft.to/lastmile_qr_scan", "android": "https://dc.lft.to/lastmile_qr_scan"}, "fusion_lat": 0.0, "name": "6b753c10f944483fe6f690a0209faf14", "bike_id": "6b753c10f944483fe6f690a0209faf14", "is_disabled": 0, "type": "electric_scooter", "lat": 38.898465, "lon": -76.94636683333333, "is_reserved": 0, "fusion_lon": 0.0}, {"rental_uris": {"ios": "https://dc.lft.to/lastmile_qr_scan", "android": "https://dc.lft.to/lastmile_qr_scan"}, "fusion_lat": 0.0, "name": "b9b34a6da4657ac44f37f5651d54adbf", "bike_id": "b9b34a6da4657ac44f37f5651d54adbf", "is_disabled": 0, "type": "electric_bike", "lat": 38.857232333333336, "lon": -76.97090283333333, "is_reserved": 0, "fusion_lon": 0.0}, {"rental_uris": {"ios": "https://dc.lft.to/lastmile_qr_scan", "android": "https://dc.lft.to/lastmile_qr_scan"}, "fusion_lat": 0.0, "name": "6f1377db4ad4313f3d7936d4cea326e1", "bike_id": "6f1377db4ad4313f3d7936d4cea326e1", "is_disabled": 0, "type": "electric_scooter", "lat": 38.844333666666664, "lon": -76.99774216666667, "is_reserved": 0, "fusion_lon": 0.0}, {"rental_uris": {"ios": "https://dc.lft.to/lastmile_qr_scan", "android": "https://dc.lft.to/lastmile_qr_scan"}, "fusion_lat": 0.0, "name": "0e79dbd393d1e2cd8d5f80e19f6819d7", "bike_id": "0e79dbd393d1e2cd8d5f80e19f6819d7", "is_disabled": 0, "type": "electric_scooter", "lat": 38.935331833333336, "lon": -77.02354833333334, "is_reserved": 0, "fusion_lon": 0.0}, {"rental_uris": {"ios": "https://dc.lft.to/lastmile_qr_scan", "android": "https://dc.lft.to/lastmile_qr_scan"}, "fusion_lat": 0.0, "name": "7fdbbe826a1d9bb2ccf0154aeeacde08", "bike_id": "7fdbbe826a1d9bb2ccf0154aeeacde08", "is_disabled": 0, "type": "electric_scooter", "lat": 38.91266266666667, "lon": -77.044009, "is_reserved": 0, "fusion_lon": 0.0}, {"rental_uris": {"ios": "https://dc.lft.to/lastmile_qr_scan", "android": "https://dc.lft.to/lastmile_qr_scan"}, "fusion_lat": 0.0, "name": "2a70e12bf98454435562e5422cb7d357", "bike_id": "2a70e12bf98454435562e5422cb7d357", "is_disabled": 0, "type": "electric_scooter", "lat": 38.9507595, "lon": -77.03103633333333, "is_reserved": 0, "fusion_lon": 0.0}, {"rental_uris": {"ios": "https://dc.lft.to/lastmile_qr_scan", "android": "https://dc.lft.to/lastmile_qr_scan"}, "fusion_lat": 0.0, "name": "2907320c897ffca8302bef190d5ac212", "bike_id": "2907320c897ffca8302bef190d5ac212", "is_disabled": 0, "type": "electric_scooter", "lat": 38.8987235, "lon": -77.0393415, "is_reserved": 0, "fusion_lon": 0.0}, {"rental_uris": {"ios": "https://dc.lft.to/lastmile_qr_scan", "android": "https://dc.lft.to/lastmile_qr_scan"}, "fusion_lat": 0.0, "name": "aba22b769a4731298b33d8026bc078c2", "bike_id": "aba22b769a4731298b33d8026bc078c2", "is_disabled": 0, "type": "electric_bike", "lat": 38.84283716666667, "lon": -77.04534816666667, "is_reserved": 0, "fusion_lon": 0.0}, {"rental_uris": {"ios": "https://dc.lft.to/lastmile_qr_scan", "android": "https://dc.lft.to/lastmile_qr_scan"}, "fusion_lat": 0.0, "name": "8785bb13743949e8f4c83193bca0553c", "bike_id": "8785bb13743949e8f4c83193bca0553c", "is_disabled": 0, "type": "electric_scooter", "lat": 38.8929265, "lon": -76.94235283333333, "is_reserved": 0, "fusion_lon": 0.0}, {"rental_uris": {"ios": "https://dc.lft.to/lastmile_qr_scan", "android": "https://dc.lft.to/lastmile_qr_scan"}, "fusion_lat": 0.0, "name": "d2a42fda0210696133797ca12c335c30", "bike_id": "d2a42fda0210696133797ca12c335c30", "is_disabled": 0, "type": "electric_scooter", "lat": 38.925982, "lon": -77.0213985, "is_reserved": 0, "fusion_lon": 0.0}, {"rental_uris": {"ios": "https://dc.lft.to/lastmile_qr_scan", "android": "https://dc.lft.to/lastmile_qr_scan"}, "fusion_lat": 0.0, "name": "a61c9b5015a4191305561c5005e9d8bf", "bike_id": "a61c9b5015a4191305561c5005e9d8bf", "is_disabled": 0, "type": "electric_scooter", "lat": 38.90571083333333, "lon": -77.03451683333333, "is_reserved": 0, "fusion_lon": 0.0}, {"rental_uris": {"ios": "https://dc.lft.to/lastmile_qr_scan", "android": "https://dc.lft.to/lastmile_qr_scan"}, "fusion_lat": 0.0, "name": "84914de0d703cb70f1c9ac020afd3a14", "bike_id": "84914de0d703cb70f1c9ac020afd3a14", "is_disabled": 0, "type": "electric_scooter", "lat": 38.90019616666667, "lon": -77.0405065, "is_reserved": 0, "fusion_lon": 0.0}, {"rental_uris": {"ios": "https://dc.lft.to/lastmile_qr_scan", "android": "https://dc.lft.to/lastmile_qr_scan"}, "fusion_lat": 0.0, "name": "99cce970d53ef1e9734e4c0bfa14e62a", "bike_id": "99cce970d53ef1e9734e4c0bfa14e62a", "is_disabled": 0, "type": "electric_bike", "lat": 38.92411466666667, "lon": -77.0504035, "is_reserved": 0, "fusion_lon": 0.0}, {"rental_uris": {"ios": "https://dc.lft.to/lastmile_qr_scan", "android": "https://dc.lft.to/lastmile_qr_scan"}, "fusion_lat": 0.0, "name": "84575dcc62b452be2437a2f644adda8a", "bike_id": "84575dcc62b452be2437a2f644adda8a", "is_disabled": 0, "type": "electric_scooter", "lat": 38.9349035, "lon": -77.07273333333333, "is_reserved": 0, "fusion_lon": 0.0}, {"rental_uris": {"ios": "https://dc.lft.to/lastmile_qr_scan", "android": "https://dc.lft.to/lastmile_qr_scan"}, "fusion_lat": 0.0, "name": "18e2b6c8b448536008c2ea1789b5402e", "bike_id": "18e2b6c8b448536008c2ea1789b5402e", "is_disabled": 0, "type": "electric_scooter", "lat": 38.90561733333333, "lon": -77.04495266666666, "is_reserved": 0, "fusion_lon": 0.0}, {"rental_uris": {"ios": "https://dc.lft.to/lastmile_qr_scan", "android": "https://dc.lft.to/lastmile_qr_scan"}, "fusion_lat": 0.0, "name": "1d960d6c1203d6b7ebf392c37f0d80c1", "bike_id": "1d960d6c1203d6b7ebf392c37f0d80c1", "is_disabled": 0, "type": "electric_scooter", "lat": 38.892211333333336, "lon": -77.02220533333333, "is_reserved": 0, "fusion_lon": 0.0}, {"rental_uris": {"ios": "https://dc.lft.to/lastmile_qr_scan", "android": "https://dc.lft.to/lastmile_qr_scan"}, "fusion_lat": 0.0, "name": "71d5b6516251fea447700ec14b50c7d5", "bike_id": "71d5b6516251fea447700ec14b50c7d5", "is_disabled": 0, "type": "electric_scooter", "lat": 38.926211333333335, "lon": -77.03947766666667, "is_reserved": 0, "fusion_lon": 0.0}, {"rental_uris": {"ios": "https://dc.lft.to/lastmile_qr_scan", "android": "https://dc.lft.to/lastmile_qr_scan"}, "fusion_lat": 0.0, "name": "801ee0d8dc1a83d9faf50b05c0b54eba", "bike_id": "801ee0d8dc1a83d9faf50b05c0b54eba", "is_disabled": 0, "type": "electric_scooter", "lat": 38.9330405, "lon": -77.02465833333333, "is_reserved": 0, "fusion_lon": 0.0}, {"rental_uris": {"ios": "https://dc.lft.to/lastmile_qr_scan", "android": "https://dc.lft.to/lastmile_qr_scan"}, "fusion_lat": 0.0, "name": "9a1817084b5b45d33c0b490577f40b9a", "bike_id": "9a1817084b5b45d33c0b490577f40b9a", "is_disabled": 0, "type": "electric_scooter", "lat": 38.9205035, "lon": -77.025775, "is_reserved": 0, "fusion_lon": 0.0}, {"rental_uris": {"ios": "https://dc.lft.to/lastmile_qr_scan", "android": "https://dc.lft.to/lastmile_qr_scan"}, "fusion_lat": 0.0, "name": "72b82f1433509a2854c613617fe02316", "bike_id": "72b82f1433509a2854c613617fe02316", "is_disabled": 0, "type": "electric_scooter", "lat": 38.924832, "lon": -77.03554633333333, "is_reserved": 0, "fusion_lon": 0.0}, {"rental_uris": {"ios": "https://dc.lft.to/lastmile_qr_scan", "android": "https://dc.lft.to/lastmile_qr_scan"}, "fusion_lat": 0.0, "name": "786871d1087b71e497ae2152e8f63d82", "bike_id": "786871d1087b71e497ae2152e8f63d82", "is_disabled": 0, "type": "electric_scooter", "lat": 38.90408733333334, "lon": -76.9732845, "is_reserved": 0, "fusion_lon": 0.0}, {"rental_uris": {"ios": "https://dc.lft.to/lastmile_qr_scan", "android": "https://dc.lft.to/lastmile_qr_scan"}, "fusion_lat": 0.0, "name": "381c32967af5827c4201f2192675a229", "bike_id": "381c32967af5827c4201f2192675a229", "is_disabled": 0, "type": "electric_scooter", "lat": 38.87579316666667, "lon": -77.02084183333334, "is_reserved": 0, "fusion_lon": 0.0}, {"rental_uris": {"ios": "https://dc.lft.to/lastmile_qr_scan", "android": "https://dc.lft.to/lastmile_qr_scan"}, "fusion_lat": 0.0, "name": "9982d8a4f43527852152d24d171e3346", "bike_id": "9982d8a4f43527852152d24d171e3346", "is_disabled": 0, "type": "electric_scooter", "lat": 38.913411833333335, "lon": -77.048784, "is_reserved": 0, "fusion_lon": 0.0}, {"rental_uris": {"ios": "https://dc.lft.to/lastmile_qr_scan", "android": "https://dc.lft.to/lastmile_qr_scan"}, "fusion_lat": 0.0, "name": "eb89bdf5c565f5196366f91cc18b480b", "bike_id": "eb89bdf5c565f5196366f91cc18b480b", "is_disabled": 0, "type": "electric_bike", "lat": 39.0305055, "lon": -77.09482316666667, "is_reserved": 0, "fusion_lon": 0.0}, {"rental_uris": {"ios": "https://dc.lft.to/lastmile_qr_scan", "android": "https://dc.lft.to/lastmile_qr_scan"}, "fusion_lat": 0.0, "name": "e318c89e784865c965aa748040593a39", "bike_id": "e318c89e784865c965aa748040593a39", "is_disabled": 0, "type": "electric_scooter", "lat": 38.884367166666664, "lon": -77.03036616666667, "is_reserved": 0, "fusion_lon": 0.0}, {"rental_uris": {"ios": "https://dc.lft.to/lastmile_qr_scan", "android": "https://dc.lft.to/lastmile_qr_scan"}, "fusion_lat": 0.0, "name": "69d626b455a81786b645dd3ae9e3012c", "bike_id": "69d626b455a81786b645dd3ae9e3012c", "is_disabled": 0, "type": "electric_scooter", "lat": 38.9181935, "lon": -77.0271745, "is_reserved": 0, "fusion_lon": 0.0}, {"rental_uris": {"ios": "https://dc.lft.to/lastmile_qr_scan", "android": "https://dc.lft.to/lastmile_qr_scan"}, "fusion_lat": 0.0, "name": "59e569ac4ecb346eac1d4499559c1d57", "bike_id": "59e569ac4ecb346eac1d4499559c1d57", "is_disabled": 0, "type": "electric_scooter", "lat": 38.9057645, "lon": -77.00054666666666, "is_reserved": 0, "fusion_lon": 0.0}, {"rental_uris": {"ios": "https://dc.lft.to/lastmile_qr_scan", "android": "https://dc.lft.to/lastmile_qr_scan"}, "fusion_lat": 0.0, "name": "3e6a8af96f303a12f6f9f99b459c69fa", "bike_id": "3e6a8af96f303a12f6f9f99b459c69fa", "is_disabled": 0, "type": "electric_scooter", "lat": 38.91681416666667, "lon": -77.02977383333334, "is_reserved": 0, "fusion_lon": 0.0}, {"rental_uris": {"ios": "https://dc.lft.to/lastmile_qr_scan", "android": "https://dc.lft.to/lastmile_qr_scan"}, "fusion_lat": 0.0, "name": "3e168860f00bc3ee5f8f9929bc2b1e44", "bike_id": "3e168860f00bc3ee5f8f9929bc2b1e44", "is_disabled": 0, "type": "electric_scooter", "lat": 38.92065983333333, "lon": -76.995277, "is_reserved": 0, "fusion_lon": 0.0}, {"rental_uris": {"ios": "https://dc.lft.to/lastmile_qr_scan", "android": "https://dc.lft.to/lastmile_qr_scan"}, "fusion_lat": 0.0, "name": "3ae825654d490a6488d8f112dcf11a3d", "bike_id": "3ae825654d490a6488d8f112dcf11a3d", "is_disabled": 0, "type": "electric_scooter", "lat": 38.89398333333333, "lon": -77.049997, "is_reserved": 0, "fusion_lon": 0.0}, {"rental_uris": {"ios": "https://dc.lft.to/lastmile_qr_scan", "android": "https://dc.lft.to/lastmile_qr_scan"}, "fusion_lat": 0.0, "name": "7ddd3e49613125f107d1c3119b536f57", "bike_id": "7ddd3e49613125f107d1c3119b536f57", "is_disabled": 0, "type": "electric_scooter", "lat": 38.87792783333333, "lon": -77.00117083333333, "is_reserved": 0, "fusion_lon": 0.0}, {"rental_uris": {"ios": "https://dc.lft.to/lastmile_qr_scan", "android": "https://dc.lft.to/lastmile_qr_scan"}, "fusion_lat": 0.0, "name": "75430a340d65fb577af1da807b9871f3", "bike_id": "75430a340d65fb577af1da807b9871f3", "is_disabled": 0, "type": "electric_scooter", "lat": 38.917501333333334, "lon": -77.02392966666666, "is_reserved": 0, "fusion_lon": 0.0}, {"rental_uris": {"ios": "https://dc.lft.to/lastmile_qr_scan", "android": "https://dc.lft.to/lastmile_qr_scan"}, "fusion_lat": 0.0, "name": "fe0c6c3babcb9669de78c819ff899809", "bike_id": "fe0c6c3babcb9669de78c819ff899809", "is_disabled": 0, "type": "electric_scooter", "lat": 38.92138833333333, "lon": -77.07299166666667, "is_reserved": 0, "fusion_lon": 0.0}, {"rental_uris": {"ios": "https://dc.lft.to/lastmile_qr_scan", "android": "https://dc.lft.to/lastmile_qr_scan"}, "fusion_lat": 0.0, "name": "a5d3804105eab2dc7958559e2019fe33", "bike_id": "a5d3804105eab2dc7958559e2019fe33", "is_disabled": 0, "type": "electric_scooter", "lat": 38.903419166666666, "lon": -77.0465865, "is_reserved": 0, "fusion_lon": 0.0}, {"rental_uris": {"ios": "https://dc.lft.to/lastmile_qr_scan", "android": "https://dc.lft.to/lastmile_qr_scan"}, "fusion_lat": 0.0, "name": "4844cbea08112dd92dbbdd50cdb48c9b", "bike_id": "4844cbea08112dd92dbbdd50cdb48c9b", "is_disabled": 0, "type": "electric_scooter", "lat": 38.87703716666667, "lon": -77.00739, "is_reserved": 0, "fusion_lon": 0.0}, {"rental_uris": {"ios": "https://dc.lft.to/lastmile_qr_scan", "android": "https://dc.lft.to/lastmile_qr_scan"}, "fusion_lat": 0.0, "name": "1672373465d163d5c21beb3cb40f4837", "bike_id": "1672373465d163d5c21beb3cb40f4837", "is_disabled": 0, "type": "electric_scooter", "lat": 38.893852333333335, "lon": -77.02826866666666, "is_reserved": 0, "fusion_lon": 0.0}, {"rental_uris": {"ios": "https://dc.lft.to/lastmile_qr_scan", "android": "https://dc.lft.to/lastmile_qr_scan"}, "fusion_lat": 0.0, "name": "04bd08af3db96b6b0fbe6d0a46bd2982", "bike_id": "04bd08af3db96b6b0fbe6d0a46bd2982", "is_disabled": 0, "type": "electric_scooter", "lat": 38.93064916666667, "lon": -77.03816916666666, "is_reserved": 0, "fusion_lon": 0.0}, {"rental_uris": {"ios": "https://dc.lft.to/lastmile_qr_scan", "android": "https://dc.lft.to/lastmile_qr_scan"}, "fusion_lat": 0.0, "name": "54824b1ff3524ba558b2462581bcd0f7", "bike_id": "54824b1ff3524ba558b2462581bcd0f7", "is_disabled": 0, "type": "electric_scooter", "lat": 38.86255583333333, "lon": -76.99517066666667, "is_reserved": 0, "fusion_lon": 0.0}, {"rental_uris": {"ios": "https://dc.lft.to/lastmile_qr_scan", "android": "https://dc.lft.to/lastmile_qr_scan"}, "fusion_lat": 0.0, "name": "c31bede9b0641053914f02b40c1ce2ce", "bike_id": "c31bede9b0641053914f02b40c1ce2ce", "is_disabled": 0, "type": "electric_scooter", "lat": 38.91108083333334, "lon": -77.0391315, "is_reserved": 0, "fusion_lon": 0.0}, {"rental_uris": {"ios": "https://dc.lft.to/lastmile_qr_scan", "android": "https://dc.lft.to/lastmile_qr_scan"}, "fusion_lat": 0.0, "name": "12a3e2802c62e24feb78a1a91a2915a2", "bike_id": "12a3e2802c62e24feb78a1a91a2915a2", "is_disabled": 0, "type": "electric_scooter", "lat": 38.9204775, "lon": -77.00208933333333, "is_reserved": 0, "fusion_lon": 0.0}, {"rental_uris": {"ios": "https://dc.lft.to/lastmile_qr_scan", "android": "https://dc.lft.to/lastmile_qr_scan"}, "fusion_lat": 0.0, "name": "4596bdb2c792aa6e300dc2072956073e", "bike_id": "4596bdb2c792aa6e300dc2072956073e", "is_disabled": 0, "type": "electric_bike", "lat": 38.83221183333333, "lon": -77.04975716666667, "is_reserved": 0, "fusion_lon": 0.0}, {"rental_uris": {"ios": "https://dc.lft.to/lastmile_qr_scan", "android": "https://dc.lft.to/lastmile_qr_scan"}, "fusion_lat": 0.0, "name": "356f44202992c8cd38fe90bc9bda449c", "bike_id": "356f44202992c8cd38fe90bc9bda449c", "is_disabled": 0, "type": "electric_scooter", "lat": 38.9185275, "lon": -77.03894683333333, "is_reserved": 0, "fusion_lon": 0.0}, {"rental_uris": {"ios": "https://dc.lft.to/lastmile_qr_scan", "android": "https://dc.lft.to/lastmile_qr_scan"}, "fusion_lat": 0.0, "name": "4cf3e366e2b15f21657d172e377d0a5f", "bike_id": "4cf3e366e2b15f21657d172e377d0a5f", "is_disabled": 0, "type": "electric_scooter", "lat": 38.894988166666664, "lon": -77.01089233333333, "is_reserved": 0, "fusion_lon": 0.0}, {"rental_uris": {"ios": "https://dc.lft.to/lastmile_qr_scan", "android": "https://dc.lft.to/lastmile_qr_scan"}, "fusion_lat": 0.0, "name": "9ef408b807d85b05752bf5697b780aaf", "bike_id": "9ef408b807d85b05752bf5697b780aaf", "is_disabled": 0, "type": "electric_scooter", "lat": 38.934802, "lon": -77.03579833333333, "is_reserved": 0, "fusion_lon": 0.0}, {"rental_uris": {"ios": "https://dc.lft.to/lastmile_qr_scan", "android": "https://dc.lft.to/lastmile_qr_scan"}, "fusion_lat": 0.0, "name": "f4a150602b3244f55e013c3b4629aa59", "bike_id": "f4a150602b3244f55e013c3b4629aa59", "is_disabled": 0, "type": "electric_scooter", "lat": 38.86499283333333, "lon": -76.989858, "is_reserved": 0, "fusion_lon": 0.0}, {"rental_uris": {"ios": "https://dc.lft.to/lastmile_qr_scan", "android": "https://dc.lft.to/lastmile_qr_scan"}, "fusion_lat": 0.0, "name": "8e0ed63248fe5a3b5ac3cf942bf2acea", "bike_id": "8e0ed63248fe5a3b5ac3cf942bf2acea", "is_disabled": 0, "type": "electric_scooter", "lat": 38.92465716666667, "lon": -77.05233383333334, "is_reserved": 0, "fusion_lon": 0.0}, {"rental_uris": {"ios": "https://dc.lft.to/lastmile_qr_scan", "android": "https://dc.lft.to/lastmile_qr_scan"}, "fusion_lat": 0.0, "name": "7aa5941a48b0b40bc4d599a6282e63d6", "bike_id": "7aa5941a48b0b40bc4d599a6282e63d6", "is_disabled": 0, "type": "electric_scooter", "lat": 38.90959383333333, "lon": -77.02278, "is_reserved": 0, "fusion_lon": 0.0}, {"rental_uris": {"ios": "https://dc.lft.to/lastmile_qr_scan", "android": "https://dc.lft.to/lastmile_qr_scan"}, "fusion_lat": 0.0, "name": "0158146ff33a3d5fcdd0c8b3a0bfa223", "bike_id": "0158146ff33a3d5fcdd0c8b3a0bfa223", "is_disabled": 0, "type": "electric_scooter", "lat": 38.9007925, "lon": -77.02710016666667, "is_reserved": 0, "fusion_lon": 0.0}, {"rental_uris": {"ios": "https://dc.lft.to/lastmile_qr_scan", "android": "https://dc.lft.to/lastmile_qr_scan"}, "fusion_lat": 0.0, "name": "ca7c224ec5f02f5b6ab0b52e07da5b5c", "bike_id": "ca7c224ec5f02f5b6ab0b52e07da5b5c", "is_disabled": 0, "type": "electric_scooter", "lat": 38.92575083333333, "lon": -77.029086, "is_reserved": 0, "fusion_lon": 0.0}, {"rental_uris": {"ios": "https://dc.lft.to/lastmile_qr_scan", "android": "https://dc.lft.to/lastmile_qr_scan"}, "fusion_lat": 0.0, "name": "144c77481ecc38778bcc648bb29bfc1e", "bike_id": "144c77481ecc38778bcc648bb29bfc1e", "is_disabled": 0, "type": "electric_scooter", "lat": 38.903692666666664, "lon": -77.04518933333334, "is_reserved": 0, "fusion_lon": 0.0}, {"rental_uris": {"ios": "https://dc.lft.to/lastmile_qr_scan", "android": "https://dc.lft.to/lastmile_qr_scan"}, "fusion_lat": 0.0, "name": "29c00a01ba4d651be58ab5cc4917a78f", "bike_id": "29c00a01ba4d651be58ab5cc4917a78f", "is_disabled": 0, "type": "electric_scooter", "lat": 38.884201833333336, "lon": -76.99544833333333, "is_reserved": 0, "fusion_lon": 0.0}, {"rental_uris": {"ios": "https://dc.lft.to/lastmile_qr_scan", "android": "https://dc.lft.to/lastmile_qr_scan"}, "fusion_lat": 0.0, "name": "73aedf0f0b2803db1465bd661f69a66d", "bike_id": "73aedf0f0b2803db1465bd661f69a66d", "is_disabled": 0, "type": "electric_scooter", "lat": 38.9185875, "lon": -76.96543766666667, "is_reserved": 0, "fusion_lon": 0.0}, {"rental_uris": {"ios": "https://dc.lft.to/lastmile_qr_scan", "android": "https://dc.lft.to/lastmile_qr_scan"}, "fusion_lat": 0.0, "name": "2f4eb50537dc14d0ab5144d1b5c68fa8", "bike_id": "2f4eb50537dc14d0ab5144d1b5c68fa8", "is_disabled": 0, "type": "electric_scooter", "lat": 38.888127, "lon": -77.01481833333334, "is_reserved": 0, "fusion_lon": 0.0}, {"rental_uris": {"ios": "https://dc.lft.to/lastmile_qr_scan", "android": "https://dc.lft.to/lastmile_qr_scan"}, "fusion_lat": 0.0, "name": "8f53839a93d5228629a9413ee296a7db", "bike_id": "8f53839a93d5228629a9413ee296a7db", "is_disabled": 0, "type": "electric_scooter", "lat": 38.91825266666667, "lon": -77.02694016666666, "is_reserved": 0, "fusion_lon": 0.0}, {"rental_uris": {"ios": "https://dc.lft.to/lastmile_qr_scan", "android": "https://dc.lft.to/lastmile_qr_scan"}, "fusion_lat": 0.0, "name": "6ed19e7050a2c7b31b95a4c397f6eba2", "bike_id": "6ed19e7050a2c7b31b95a4c397f6eba2", "is_disabled": 0, "type": "electric_bike", "lat": 38.85209416666667, "lon": -77.10131866666667, "is_reserved": 0, "fusion_lon": 0.0}, {"rental_uris": {"ios": "https://dc.lft.to/lastmile_qr_scan", "android": "https://dc.lft.to/lastmile_qr_scan"}, "fusion_lat": 0.0, "name": "2f3e520eb6b5924aa2efe58484333c96", "bike_id": "2f3e520eb6b5924aa2efe58484333c96", "is_disabled": 0, "type": "electric_scooter", "lat": 38.90486533333333, "lon": -77.0410705, "is_reserved": 0, "fusion_lon": 0.0}, {"rental_uris": {"ios": "https://dc.lft.to/lastmile_qr_scan", "android": "https://dc.lft.to/lastmile_qr_scan"}, "fusion_lat": 0.0, "name": "17172b9c5284ddc8765755b82c13f1a1", "bike_id": "17172b9c5284ddc8765755b82c13f1a1", "is_disabled": 0, "type": "electric_scooter", "lat": 38.87921383333333, "lon": -77.03092866666667, "is_reserved": 0, "fusion_lon": 0.0}, {"rental_uris": {"ios": "https://dc.lft.to/lastmile_qr_scan", "android": "https://dc.lft.to/lastmile_qr_scan"}, "fusion_lat": 0.0, "name": "d9a4a0272da58c9e022c7fe49ea17f65", "bike_id": "d9a4a0272da58c9e022c7fe49ea17f65", "is_disabled": 0, "type": "electric_scooter", "lat": 38.90718233333333, "lon": -77.03396666666667, "is_reserved": 0, "fusion_lon": 0.0}, {"rental_uris": {"ios": "https://dc.lft.to/lastmile_qr_scan", "android": "https://dc.lft.to/lastmile_qr_scan"}, "fusion_lat": 0.0, "name": "2c8cd7ac09dcf1570db2b3e39ae96dfc", "bike_id": "2c8cd7ac09dcf1570db2b3e39ae96dfc", "is_disabled": 0, "type": "electric_scooter", "lat": 38.8922185, "lon": -77.023675, "is_reserved": 0, "fusion_lon": 0.0}, {"rental_uris": {"ios": "https://dc.lft.to/lastmile_qr_scan", "android": "https://dc.lft.to/lastmile_qr_scan"}, "fusion_lat": 0.0, "name": "aded349137c827ca880a78e9a0931532", "bike_id": "aded349137c827ca880a78e9a0931532", "is_disabled": 0, "type": "electric_scooter", "lat": 38.8921865, "lon": -77.0436225, "is_reserved": 0, "fusion_lon": 0.0}, {"rental_uris": {"ios": "https://dc.lft.to/lastmile_qr_scan", "android": "https://dc.lft.to/lastmile_qr_scan"}, "fusion_lat": 0.0, "name": "397329bead8e820abc23b077de14c63d", "bike_id": "397329bead8e820abc23b077de14c63d", "is_disabled": 0, "type": "electric_scooter", "lat": 38.91710033333333, "lon": -77.02665783333333, "is_reserved": 0, "fusion_lon": 0.0}, {"rental_uris": {"ios": "https://dc.lft.to/lastmile_qr_scan", "android": "https://dc.lft.to/lastmile_qr_scan"}, "fusion_lat": 0.0, "name": "0e3c8a7f3faf96c8da01f3fc0e6f5e69", "bike_id": "0e3c8a7f3faf96c8da01f3fc0e6f5e69", "is_disabled": 0, "type": "electric_scooter", "lat": 38.9012035, "lon": -77.0397625, "is_reserved": 0, "fusion_lon": 0.0}, {"rental_uris": {"ios": "https://dc.lft.to/lastmile_qr_scan", "android": "https://dc.lft.to/lastmile_qr_scan"}, "fusion_lat": 0.0, "name": "1029847307968f0ed037b5f50af1c8d2", "bike_id": "1029847307968f0ed037b5f50af1c8d2", "is_disabled": 0, "type": "electric_scooter", "lat": 38.91708933333334, "lon": -77.02575666666667, "is_reserved": 0, "fusion_lon": 0.0}, {"rental_uris": {"ios": "https://dc.lft.to/lastmile_qr_scan", "android": "https://dc.lft.to/lastmile_qr_scan"}, "fusion_lat": 0.0, "name": "1c37af37b8436b2b93ee4e1c904b5bd0", "bike_id": "1c37af37b8436b2b93ee4e1c904b5bd0", "is_disabled": 0, "type": "electric_scooter", "lat": 38.908896166666665, "lon": -77.02279266666666, "is_reserved": 0, "fusion_lon": 0.0}, {"rental_uris": {"ios": "https://dc.lft.to/lastmile_qr_scan", "android": "https://dc.lft.to/lastmile_qr_scan"}, "fusion_lat": 0.0, "name": "df8a1abcf443d07ff85e6c972220247a", "bike_id": "df8a1abcf443d07ff85e6c972220247a", "is_disabled": 0, "type": "electric_scooter", "lat": 38.898775, "lon": -76.93182533333334, "is_reserved": 0, "fusion_lon": 0.0}, {"rental_uris": {"ios": "https://dc.lft.to/lastmile_qr_scan", "android": "https://dc.lft.to/lastmile_qr_scan"}, "fusion_lat": 0.0, "name": "9f35f0a22838e8eeec66c1503db27552", "bike_id": "9f35f0a22838e8eeec66c1503db27552", "is_disabled": 0, "type": "electric_scooter", "lat": 38.918756, "lon": -76.96545683333333, "is_reserved": 0, "fusion_lon": 0.0}, {"rental_uris": {"ios": "https://dc.lft.to/lastmile_qr_scan", "android": "https://dc.lft.to/lastmile_qr_scan"}, "fusion_lat": 0.0, "name": "cf90462a2e874899caa08fa64c34b9ba", "bike_id": "cf90462a2e874899caa08fa64c34b9ba", "is_disabled": 0, "type": "electric_scooter", "lat": 38.90258733333334, "lon": -77.03444083333333, "is_reserved": 0, "fusion_lon": 0.0}, {"rental_uris": {"ios": "https://dc.lft.to/lastmile_qr_scan", "android": "https://dc.lft.to/lastmile_qr_scan"}, "fusion_lat": 0.0, "name": "93faf8fa06495f8bd7423679352e653e", "bike_id": "93faf8fa06495f8bd7423679352e653e", "is_disabled": 0, "type": "electric_scooter", "lat": 38.902665666666664, "lon": -77.04493716666667, "is_reserved": 0, "fusion_lon": 0.0}, {"rental_uris": {"ios": "https://dc.lft.to/lastmile_qr_scan", "android": "https://dc.lft.to/lastmile_qr_scan"}, "fusion_lat": 0.0, "name": "f6189934498846d3d8425a35d78c6e95", "bike_id": "f6189934498846d3d8425a35d78c6e95", "is_disabled": 0, "type": "electric_scooter", "lat": 38.918521166666665, "lon": -77.00913766666666, "is_reserved": 0, "fusion_lon": 0.0}, {"rental_uris": {"ios": "https://dc.lft.to/lastmile_qr_scan", "android": "https://dc.lft.to/lastmile_qr_scan"}, "fusion_lat": 0.0, "name": "86028bf99c299ccbbbc517a622c8c13d", "bike_id": "86028bf99c299ccbbbc517a622c8c13d", "is_disabled": 0, "type": "electric_scooter", "lat": 38.930617, "lon": -77.023222, "is_reserved": 0, "fusion_lon": 0.0}, {"rental_uris": {"ios": "https://dc.lft.to/lastmile_qr_scan", "android": "https://dc.lft.to/lastmile_qr_scan"}, "fusion_lat": 0.0, "name": "0e694c1ac8e2bcb0089e4cb9d2d838a9", "bike_id": "0e694c1ac8e2bcb0089e4cb9d2d838a9", "is_disabled": 0, "type": "electric_scooter", "lat": 38.88401016666667, "lon": -77.01774216666666, "is_reserved": 0, "fusion_lon": 0.0}, {"rental_uris": {"ios": "https://dc.lft.to/lastmile_qr_scan", "android": "https://dc.lft.to/lastmile_qr_scan"}, "fusion_lat": 0.0, "name": "ad20c47b9136762da2bc88155f562085", "bike_id": "ad20c47b9136762da2bc88155f562085", "is_disabled": 0, "type": "electric_scooter", "lat": 38.86367716666667, "lon": -76.99034133333333, "is_reserved": 0, "fusion_lon": 0.0}, {"rental_uris": {"ios": "https://dc.lft.to/lastmile_qr_scan", "android": "https://dc.lft.to/lastmile_qr_scan"}, "fusion_lat": 0.0, "name": "fd9c7b0e2756b40c407276d51ffa9644", "bike_id": "fd9c7b0e2756b40c407276d51ffa9644", "is_disabled": 0, "type": "electric_scooter", "lat": 38.902298333333334, "lon": -77.04344316666666, "is_reserved": 0, "fusion_lon": 0.0}, {"rental_uris": {"ios": "https://dc.lft.to/lastmile_qr_scan", "android": "https://dc.lft.to/lastmile_qr_scan"}, "fusion_lat": 0.0, "name": "540d08d4765ef3aff70ca767065cd811", "bike_id": "540d08d4765ef3aff70ca767065cd811", "is_disabled": 0, "type": "electric_bike", "lat": 38.802287666666665, "lon": -77.07913266666667, "is_reserved": 0, "fusion_lon": 0.0}, {"rental_uris": {"ios": "https://dc.lft.to/lastmile_qr_scan", "android": "https://dc.lft.to/lastmile_qr_scan"}, "fusion_lat": 0.0, "name": "ce415dc4b7e3572ed84dba181c86d61c", "bike_id": "ce415dc4b7e3572ed84dba181c86d61c", "is_disabled": 0, "type": "electric_bike", "lat": 38.967028, "lon": -76.97520183333333, "is_reserved": 0, "fusion_lon": 0.0}, {"rental_uris": {"ios": "https://dc.lft.to/lastmile_qr_scan", "android": "https://dc.lft.to/lastmile_qr_scan"}, "fusion_lat": 0.0, "name": "6b5ab30d55b234403d9833bbb310216a", "bike_id": "6b5ab30d55b234403d9833bbb310216a", "is_disabled": 0, "type": "electric_bike", "lat": 38.842741333333336, "lon": -76.98842183333333, "is_reserved": 0, "fusion_lon": 0.0}, {"rental_uris": {"ios": "https://dc.lft.to/lastmile_qr_scan", "android": "https://dc.lft.to/lastmile_qr_scan"}, "fusion_lat": 0.0, "name": "62d210d128114056c28499ed1e67b078", "bike_id": "62d210d128114056c28499ed1e67b078", "is_disabled": 0, "type": "electric_scooter", "lat": 38.915814833333336, "lon": -77.0318055, "is_reserved": 0, "fusion_lon": 0.0}, {"rental_uris": {"ios": "https://dc.lft.to/lastmile_qr_scan", "android": "https://dc.lft.to/lastmile_qr_scan"}, "fusion_lat": 0.0, "name": "c3f8eea0e80c117af5ad6a0696cf7340", "bike_id": "c3f8eea0e80c117af5ad6a0696cf7340", "is_disabled": 0, "type": "electric_scooter", "lat": 38.916588, "lon": -77.02283683333333, "is_reserved": 0, "fusion_lon": 0.0}, {"rental_uris": {"ios": "https://dc.lft.to/lastmile_qr_scan", "android": "https://dc.lft.to/lastmile_qr_scan"}, "fusion_lat": 0.0, "name": "ad2afa7c8bf47a016bcee84dee466e38", "bike_id": "ad2afa7c8bf47a016bcee84dee466e38", "is_disabled": 0, "type": "electric_bike", "lat": 38.85351383333333, "lon": -77.13480833333334, "is_reserved": 0, "fusion_lon": 0.0}, {"rental_uris": {"ios": "https://dc.lft.to/lastmile_qr_scan", "android": "https://dc.lft.to/lastmile_qr_scan"}, "fusion_lat": 0.0, "name": "9a43d9dbd3dde8d3f64891e388ed4f29", "bike_id": "9a43d9dbd3dde8d3f64891e388ed4f29", "is_disabled": 0, "type": "electric_scooter", "lat": 38.931225833333336, "lon": -77.034029, "is_reserved": 0, "fusion_lon": 0.0}, {"rental_uris": {"ios": "https://dc.lft.to/lastmile_qr_scan", "android": "https://dc.lft.to/lastmile_qr_scan"}, "fusion_lat": 0.0, "name": "d0c12c4cf46cf43e5853b8915f32457d", "bike_id": "d0c12c4cf46cf43e5853b8915f32457d", "is_disabled": 0, "type": "electric_bike", "lat": 38.88572833333333, "lon": -77.08520033333333, "is_reserved": 0, "fusion_lon": 0.0}, {"rental_uris": {"ios": "https://dc.lft.to/lastmile_qr_scan", "android": "https://dc.lft.to/lastmile_qr_scan"}, "fusion_lat": 0.0, "name": "16d5e6207ce4caac926d6f8ad4245933", "bike_id": "16d5e6207ce4caac926d6f8ad4245933", "is_disabled": 0, "type": "electric_scooter", "lat": 38.91046883333333, "lon": -77.03198433333333, "is_reserved": 0, "fusion_lon": 0.0}, {"rental_uris": {"ios": "https://dc.lft.to/lastmile_qr_scan", "android": "https://dc.lft.to/lastmile_qr_scan"}, "fusion_lat": 0.0, "name": "8da428aa6bc20ca855aec4abe0598065", "bike_id": "8da428aa6bc20ca855aec4abe0598065", "is_disabled": 0, "type": "electric_scooter", "lat": 38.91922983333333, "lon": -77.03409, "is_reserved": 0, "fusion_lon": 0.0}, {"rental_uris": {"ios": "https://dc.lft.to/lastmile_qr_scan", "android": "https://dc.lft.to/lastmile_qr_scan"}, "fusion_lat": 0.0, "name": "0093745032396cd986665ef68091cec0", "bike_id": "0093745032396cd986665ef68091cec0", "is_disabled": 0, "type": "electric_scooter", "lat": 38.897157166666666, "lon": -77.00671783333334, "is_reserved": 0, "fusion_lon": 0.0}, {"rental_uris": {"ios": "https://dc.lft.to/lastmile_qr_scan", "android": "https://dc.lft.to/lastmile_qr_scan"}, "fusion_lat": 0.0, "name": "762d31383508acebd0a6a05ba3f7f8ff", "bike_id": "762d31383508acebd0a6a05ba3f7f8ff", "is_disabled": 0, "type": "electric_bike", "lat": 38.900413666666665, "lon": -76.97185016666667, "is_reserved": 0, "fusion_lon": 0.0}, {"rental_uris": {"ios": "https://dc.lft.to/lastmile_qr_scan", "android": "https://dc.lft.to/lastmile_qr_scan"}, "fusion_lat": 0.0, "name": "453ab89a3eb0c4a6f3fca885012b8bb2", "bike_id": "453ab89a3eb0c4a6f3fca885012b8bb2", "is_disabled": 0, "type": "electric_bike", "lat": 38.958902, "lon": -76.9249315, "is_reserved": 0, "fusion_lon": 0.0}, {"rental_uris": {"ios": "https://dc.lft.to/lastmile_qr_scan", "android": "https://dc.lft.to/lastmile_qr_scan"}, "fusion_lat": 0.0, "name": "b6fdaf83823bb4ee331187a0f630bc9e", "bike_id": "b6fdaf83823bb4ee331187a0f630bc9e", "is_disabled": 0, "type": "electric_scooter", "lat": 38.9078405, "lon": -77.04002533333333, "is_reserved": 0, "fusion_lon": 0.0}, {"rental_uris": {"ios": "https://dc.lft.to/lastmile_qr_scan", "android": "https://dc.lft.to/lastmile_qr_scan"}, "fusion_lat": 0.0, "name": "5e8f2dcf8043d103694b839b7a7a749f", "bike_id": "5e8f2dcf8043d103694b839b7a7a749f", "is_disabled": 0, "type": "electric_scooter", "lat": 38.90110583333333, "lon": -77.03160416666667, "is_reserved": 0, "fusion_lon": 0.0}, {"rental_uris": {"ios": "https://dc.lft.to/lastmile_qr_scan", "android": "https://dc.lft.to/lastmile_qr_scan"}, "fusion_lat": 0.0, "name": "c2e975f91be4c5d67b749c87b377ef5f", "bike_id": "c2e975f91be4c5d67b749c87b377ef5f", "is_disabled": 0, "type": "electric_scooter", "lat": 38.90962416666667, "lon": -77.034709, "is_reserved": 0, "fusion_lon": 0.0}, {"rental_uris": {"ios": "https://dc.lft.to/lastmile_qr_scan", "android": "https://dc.lft.to/lastmile_qr_scan"}, "fusion_lat": 0.0, "name": "d745dfdd312feac5dea1d0c1146b2f52", "bike_id": "d745dfdd312feac5dea1d0c1146b2f52", "is_disabled": 0, "type": "electric_scooter", "lat": 38.908301333333334, "lon": -77.00916083333334, "is_reserved": 0, "fusion_lon": 0.0}, {"rental_uris": {"ios": "https://dc.lft.to/lastmile_qr_scan", "android": "https://dc.lft.to/lastmile_qr_scan"}, "fusion_lat": 0.0, "name": "4f936f8d118f12d0526b13a6f24b577e", "bike_id": "4f936f8d118f12d0526b13a6f24b577e", "is_disabled": 0, "type": "electric_scooter", "lat": 38.903377166666665, "lon": -77.04159683333333, "is_reserved": 0, "fusion_lon": 0.0}, {"rental_uris": {"ios": "https://dc.lft.to/lastmile_qr_scan", "android": "https://dc.lft.to/lastmile_qr_scan"}, "fusion_lat": 0.0, "name": "59e1c313305f2e6cdf62b5306de892db", "bike_id": "59e1c313305f2e6cdf62b5306de892db", "is_disabled": 0, "type": "electric_scooter", "lat": 38.919257, "lon": -77.03175183333333, "is_reserved": 0, "fusion_lon": 0.0}, {"rental_uris": {"ios": "https://dc.lft.to/lastmile_qr_scan", "android": "https://dc.lft.to/lastmile_qr_scan"}, "fusion_lat": 0.0, "name": "800e3304d767edf9d06c061f42280962", "bike_id": "800e3304d767edf9d06c061f42280962", "is_disabled": 0, "type": "electric_scooter", "lat": 38.88755916666667, "lon": -77.0336755, "is_reserved": 0, "fusion_lon": 0.0}, {"rental_uris": {"ios": "https://dc.lft.to/lastmile_qr_scan", "android": "https://dc.lft.to/lastmile_qr_scan"}, "fusion_lat": 0.0, "name": "cbdcbca4acf3006a7a2e3b9e8d32a930", "bike_id": "cbdcbca4acf3006a7a2e3b9e8d32a930", "is_disabled": 0, "type": "electric_scooter", "lat": 38.91707133333333, "lon": -77.00508766666667, "is_reserved": 0, "fusion_lon": 0.0}, {"rental_uris": {"ios": "https://dc.lft.to/lastmile_qr_scan", "android": "https://dc.lft.to/lastmile_qr_scan"}, "fusion_lat": 0.0, "name": "e0f81b682616a6340fa6760ae011d731", "bike_id": "e0f81b682616a6340fa6760ae011d731", "is_disabled": 0, "type": "electric_scooter", "lat": 38.90546466666667, "lon": -77.0324275, "is_reserved": 0, "fusion_lon": 0.0}, {"rental_uris": {"ios": "https://dc.lft.to/lastmile_qr_scan", "android": "https://dc.lft.to/lastmile_qr_scan"}, "fusion_lat": 0.0, "name": "be00a64ed0670defa7c1699579c7821f", "bike_id": "be00a64ed0670defa7c1699579c7821f", "is_disabled": 0, "type": "electric_scooter", "lat": 38.92576583333334, "lon": -77.02566533333334, "is_reserved": 0, "fusion_lon": 0.0}, {"rental_uris": {"ios": "https://dc.lft.to/lastmile_qr_scan", "android": "https://dc.lft.to/lastmile_qr_scan"}, "fusion_lat": 0.0, "name": "fb0d5b4474ffab9108a83b02850dfd7e", "bike_id": "fb0d5b4474ffab9108a83b02850dfd7e", "is_disabled": 0, "type": "electric_scooter", "lat": 38.870806, "lon": -76.968623, "is_reserved": 0, "fusion_lon": 0.0}, {"rental_uris": {"ios": "https://dc.lft.to/lastmile_qr_scan", "android": "https://dc.lft.to/lastmile_qr_scan"}, "fusion_lat": 0.0, "name": "2fb39a264d9b3f8d855be92945cbd6b6", "bike_id": "2fb39a264d9b3f8d855be92945cbd6b6", "is_disabled": 0, "type": "electric_scooter", "lat": 38.86363333333333, "lon": -76.99051683333333, "is_reserved": 0, "fusion_lon": 0.0}, {"rental_uris": {"ios": "https://dc.lft.to/lastmile_qr_scan", "android": "https://dc.lft.to/lastmile_qr_scan"}, "fusion_lat": 0.0, "name": "cad893476e4a81ba255dd55fc7e765c2", "bike_id": "cad893476e4a81ba255dd55fc7e765c2", "is_disabled": 0, "type": "electric_scooter", "lat": 38.862412166666665, "lon": -76.99491833333333, "is_reserved": 0, "fusion_lon": 0.0}, {"rental_uris": {"ios": "https://dc.lft.to/lastmile_qr_scan", "android": "https://dc.lft.to/lastmile_qr_scan"}, "fusion_lat": 0.0, "name": "0c40ca02632d0b78d575c8e9dcef9616", "bike_id": "0c40ca02632d0b78d575c8e9dcef9616", "is_disabled": 0, "type": "electric_scooter", "lat": 38.91694616666667, "lon": -77.02598366666666, "is_reserved": 0, "fusion_lon": 0.0}, {"rental_uris": {"ios": "https://dc.lft.to/lastmile_qr_scan", "android": "https://dc.lft.to/lastmile_qr_scan"}, "fusion_lat": 0.0, "name": "55d1a7e163ef17f925f2e1dede80394d", "bike_id": "55d1a7e163ef17f925f2e1dede80394d", "is_disabled": 0, "type": "electric_scooter", "lat": 38.90862466666667, "lon": -77.0461785, "is_reserved": 0, "fusion_lon": 0.0}, {"rental_uris": {"ios": "https://dc.lft.to/lastmile_qr_scan", "android": "https://dc.lft.to/lastmile_qr_scan"}, "fusion_lat": 0.0, "name": "670cf2b6d6662f9dd6da7f5a99308e90", "bike_id": "670cf2b6d6662f9dd6da7f5a99308e90", "is_disabled": 0, "type": "electric_scooter", "lat": 38.8443245, "lon": -76.9977695, "is_reserved": 0, "fusion_lon": 0.0}, {"rental_uris": {"ios": "https://dc.lft.to/lastmile_qr_scan", "android": "https://dc.lft.to/lastmile_qr_scan"}, "fusion_lat": 0.0, "name": "cb7e4724acdab047722373f61a4b6b8a", "bike_id": "cb7e4724acdab047722373f61a4b6b8a", "is_disabled": 0, "type": "electric_scooter", "lat": 38.88125816666667, "lon": -77.01649016666667, "is_reserved": 0, "fusion_lon": 0.0}, {"rental_uris": {"ios": "https://dc.lft.to/lastmile_qr_scan", "android": "https://dc.lft.to/lastmile_qr_scan"}, "fusion_lat": 0.0, "name": "a3aebfcc6a4675ad32959b9c354f3d47", "bike_id": "a3aebfcc6a4675ad32959b9c354f3d47", "is_disabled": 0, "type": "electric_scooter", "lat": 38.924114833333334, "lon": -77.021286, "is_reserved": 0, "fusion_lon": 0.0}, {"rental_uris": {"ios": "https://dc.lft.to/lastmile_qr_scan", "android": "https://dc.lft.to/lastmile_qr_scan"}, "fusion_lat": 0.0, "name": "d2203a8a620ea5f63c1ca2a404f89bfa", "bike_id": "d2203a8a620ea5f63c1ca2a404f89bfa", "is_disabled": 0, "type": "electric_scooter", "lat": 38.9039045, "lon": -77.03589283333334, "is_reserved": 0, "fusion_lon": 0.0}, {"rental_uris": {"ios": "https://dc.lft.to/lastmile_qr_scan", "android": "https://dc.lft.to/lastmile_qr_scan"}, "fusion_lat": 0.0, "name": "5746b13fae451e13cff59ebae5325405", "bike_id": "5746b13fae451e13cff59ebae5325405", "is_disabled": 0, "type": "electric_scooter", "lat": 38.91429516666667, "lon": -77.0281525, "is_reserved": 0, "fusion_lon": 0.0}, {"rental_uris": {"ios": "https://dc.lft.to/lastmile_qr_scan", "android": "https://dc.lft.to/lastmile_qr_scan"}, "fusion_lat": 0.0, "name": "7844d5bab9064c9c07eabfff797938f6", "bike_id": "7844d5bab9064c9c07eabfff797938f6", "is_disabled": 0, "type": "electric_scooter", "lat": 38.8669275, "lon": -76.98088216666666, "is_reserved": 0, "fusion_lon": 0.0}, {"rental_uris": {"ios": "https://dc.lft.to/lastmile_qr_scan", "android": "https://dc.lft.to/lastmile_qr_scan"}, "fusion_lat": 0.0, "name": "3214c17e73c519134d74a1d2cbbaa56e", "bike_id": "3214c17e73c519134d74a1d2cbbaa56e", "is_disabled": 0, "type": "electric_scooter", "lat": 38.90139116666667, "lon": -77.00161433333334, "is_reserved": 0, "fusion_lon": 0.0}, {"rental_uris": {"ios": "https://dc.lft.to/lastmile_qr_scan", "android": "https://dc.lft.to/lastmile_qr_scan"}, "fusion_lat": 0.0, "name": "47cd0a0179c703d4621db03802ffeac0", "bike_id": "47cd0a0179c703d4621db03802ffeac0", "is_disabled": 0, "type": "electric_scooter", "lat": 38.927499166666664, "lon": -77.033045, "is_reserved": 0, "fusion_lon": 0.0}, {"rental_uris": {"ios": "https://dc.lft.to/lastmile_qr_scan", "android": "https://dc.lft.to/lastmile_qr_scan"}, "fusion_lat": 0.0, "name": "06ddaa4d336750cc02d6d83941aa2da8", "bike_id": "06ddaa4d336750cc02d6d83941aa2da8", "is_disabled": 0, "type": "electric_scooter", "lat": 38.865455833333336, "lon": -76.95131766666667, "is_reserved": 0, "fusion_lon": 0.0}, {"rental_uris": {"ios": "https://dc.lft.to/lastmile_qr_scan", "android": "https://dc.lft.to/lastmile_qr_scan"}, "fusion_lat": 0.0, "name": "986b0b8a5dc0c06be0e650790c17d2d2", "bike_id": "986b0b8a5dc0c06be0e650790c17d2d2", "is_disabled": 0, "type": "electric_scooter", "lat": 38.89738333333333, "lon": -77.00458333333333, "is_reserved": 0, "fusion_lon": 0.0}, {"rental_uris": {"ios": "https://dc.lft.to/lastmile_qr_scan", "android": "https://dc.lft.to/lastmile_qr_scan"}, "fusion_lat": 0.0, "name": "2cba925f4e97a0a05d09815b149f2760", "bike_id": "2cba925f4e97a0a05d09815b149f2760", "is_disabled": 0, "type": "electric_bike", "lat": 38.999424833333336, "lon": -77.03162716666667, "is_reserved": 0, "fusion_lon": 0.0}, {"rental_uris": {"ios": "https://dc.lft.to/lastmile_qr_scan", "android": "https://dc.lft.to/lastmile_qr_scan"}, "fusion_lat": 0.0, "name": "904f0f8395801f422bc73f45afd4adb4", "bike_id": "904f0f8395801f422bc73f45afd4adb4", "is_disabled": 0, "type": "electric_scooter", "lat": 38.915937166666666, "lon": -77.03639266666667, "is_reserved": 0, "fusion_lon": 0.0}, {"rental_uris": {"ios": "https://dc.lft.to/lastmile_qr_scan", "android": "https://dc.lft.to/lastmile_qr_scan"}, "fusion_lat": 0.0, "name": "57fed66c8a97bbb7af4b30c16178454e", "bike_id": "57fed66c8a97bbb7af4b30c16178454e", "is_disabled": 0, "type": "electric_scooter", "lat": 38.89225033333334, "lon": -77.043328, "is_reserved": 0, "fusion_lon": 0.0}, {"rental_uris": {"ios": "https://dc.lft.to/lastmile_qr_scan", "android": "https://dc.lft.to/lastmile_qr_scan"}, "fusion_lat": 0.0, "name": "51e6fa25184161b07b619e0480fbf098", "bike_id": "51e6fa25184161b07b619e0480fbf098", "is_disabled": 0, "type": "electric_scooter", "lat": 38.8960795, "lon": -77.0454215, "is_reserved": 0, "fusion_lon": 0.0}, {"rental_uris": {"ios": "https://dc.lft.to/lastmile_qr_scan", "android": "https://dc.lft.to/lastmile_qr_scan"}, "fusion_lat": 0.0, "name": "d25ad4aea40ee9914dd45d5085af04e6", "bike_id": "d25ad4aea40ee9914dd45d5085af04e6", "is_disabled": 0, "type": "electric_scooter", "lat": 38.9027465, "lon": -77.033502, "is_reserved": 0, "fusion_lon": 0.0}, {"rental_uris": {"ios": "https://dc.lft.to/lastmile_qr_scan", "android": "https://dc.lft.to/lastmile_qr_scan"}, "fusion_lat": 0.0, "name": "6cd80f617698414c27d6ef75f6985fec", "bike_id": "6cd80f617698414c27d6ef75f6985fec", "is_disabled": 0, "type": "electric_scooter", "lat": 38.90967916666666, "lon": -77.03785616666667, "is_reserved": 0, "fusion_lon": 0.0}, {"rental_uris": {"ios": "https://dc.lft.to/lastmile_qr_scan", "android": "https://dc.lft.to/lastmile_qr_scan"}, "fusion_lat": 0.0, "name": "fdc6a06070ce08591c02cb4e41aedd08", "bike_id": "fdc6a06070ce08591c02cb4e41aedd08", "is_disabled": 0, "type": "electric_scooter", "lat": 38.899640166666664, "lon": -77.04714333333334, "is_reserved": 0, "fusion_lon": 0.0}, {"rental_uris": {"ios": "https://dc.lft.to/lastmile_qr_scan", "android": "https://dc.lft.to/lastmile_qr_scan"}, "fusion_lat": 0.0, "name": "5beb0d9de023d886dd76085b981e249a", "bike_id": "5beb0d9de023d886dd76085b981e249a", "is_disabled": 0, "type": "electric_scooter", "lat": 38.920660833333336, "lon": -77.043585, "is_reserved": 0, "fusion_lon": 0.0}, {"rental_uris": {"ios": "https://dc.lft.to/lastmile_qr_scan", "android": "https://dc.lft.to/lastmile_qr_scan"}, "fusion_lat": 0.0, "name": "ea052836646300ead3b2be9e9bfb1b65", "bike_id": "ea052836646300ead3b2be9e9bfb1b65", "is_disabled": 0, "type": "electric_scooter", "lat": 38.903284, "lon": -77.0257325, "is_reserved": 0, "fusion_lon": 0.0}, {"rental_uris": {"ios": "https://dc.lft.to/lastmile_qr_scan", "android": "https://dc.lft.to/lastmile_qr_scan"}, "fusion_lat": 0.0, "name": "33cd9c516da8521c1d3baf0a67848637", "bike_id": "33cd9c516da8521c1d3baf0a67848637", "is_disabled": 0, "type": "electric_scooter", "lat": 38.8860445, "lon": -77.03065033333333, "is_reserved": 0, "fusion_lon": 0.0}, {"rental_uris": {"ios": "https://dc.lft.to/lastmile_qr_scan", "android": "https://dc.lft.to/lastmile_qr_scan"}, "fusion_lat": 0.0, "name": "82ee5a1e313ed2bb774d5ef6a3028bca", "bike_id": "82ee5a1e313ed2bb774d5ef6a3028bca", "is_disabled": 0, "type": "electric_scooter", "lat": 38.92997033333333, "lon": -77.03268966666667, "is_reserved": 0, "fusion_lon": 0.0}, {"rental_uris": {"ios": "https://dc.lft.to/lastmile_qr_scan", "android": "https://dc.lft.to/lastmile_qr_scan"}, "fusion_lat": 0.0, "name": "867c874d64665242b86a237b5ef7fd88", "bike_id": "867c874d64665242b86a237b5ef7fd88", "is_disabled": 0, "type": "electric_scooter", "lat": 38.893530166666665, "lon": -77.041462, "is_reserved": 0, "fusion_lon": 0.0}, {"rental_uris": {"ios": "https://dc.lft.to/lastmile_qr_scan", "android": "https://dc.lft.to/lastmile_qr_scan"}, "fusion_lat": 0.0, "name": "a6ffb0732a5bc8ff223c66af6d6b6fc9", "bike_id": "a6ffb0732a5bc8ff223c66af6d6b6fc9", "is_disabled": 0, "type": "electric_bike", "lat": 38.93412266666667, "lon": -77.02507883333334, "is_reserved": 0, "fusion_lon": 0.0}, {"rental_uris": {"ios": "https://dc.lft.to/lastmile_qr_scan", "android": "https://dc.lft.to/lastmile_qr_scan"}, "fusion_lat": 0.0, "name": "dbaa0e715c89dde8e0669122f0175ba1", "bike_id": "dbaa0e715c89dde8e0669122f0175ba1", "is_disabled": 0, "type": "electric_scooter", "lat": 38.913394, "lon": -77.031632, "is_reserved": 0, "fusion_lon": 0.0}, {"rental_uris": {"ios": "https://dc.lft.to/lastmile_qr_scan", "android": "https://dc.lft.to/lastmile_qr_scan"}, "fusion_lat": 0.0, "name": "ea6284848187d6ac7b39917f311cbd83", "bike_id": "ea6284848187d6ac7b39917f311cbd83", "is_disabled": 0, "type": "electric_scooter", "lat": 38.863577, "lon": -76.99051466666667, "is_reserved": 0, "fusion_lon": 0.0}, {"rental_uris": {"ios": "https://dc.lft.to/lastmile_qr_scan", "android": "https://dc.lft.to/lastmile_qr_scan"}, "fusion_lat": 0.0, "name": "73975b57dc5f450397f46cda7255d404", "bike_id": "73975b57dc5f450397f46cda7255d404", "is_disabled": 0, "type": "electric_bike", "lat": 38.945515666666665, "lon": -76.89539616666667, "is_reserved": 0, "fusion_lon": 0.0}, {"rental_uris": {"ios": "https://dc.lft.to/lastmile_qr_scan", "android": "https://dc.lft.to/lastmile_qr_scan"}, "fusion_lat": 0.0, "name": "d2e091b8d3d01525debbe361f5402e7f", "bike_id": "d2e091b8d3d01525debbe361f5402e7f", "is_disabled": 0, "type": "electric_scooter", "lat": 38.91119283333333, "lon": -77.04465833333333, "is_reserved": 0, "fusion_lon": 0.0}, {"rental_uris": {"ios": "https://dc.lft.to/lastmile_qr_scan", "android": "https://dc.lft.to/lastmile_qr_scan"}, "fusion_lat": 0.0, "name": "2ae21c52c66086cc11a0da5cf7372e92", "bike_id": "2ae21c52c66086cc11a0da5cf7372e92", "is_disabled": 0, "type": "electric_scooter", "lat": 38.905031, "lon": -77.02950133333333, "is_reserved": 0, "fusion_lon": 0.0}, {"rental_uris": {"ios": "https://dc.lft.to/lastmile_qr_scan", "android": "https://dc.lft.to/lastmile_qr_scan"}, "fusion_lat": 0.0, "name": "fba2e8d2ae7b650fc2a26bc6171f31af", "bike_id": "fba2e8d2ae7b650fc2a26bc6171f31af", "is_disabled": 0, "type": "electric_scooter", "lat": 38.91266133333333, "lon": -77.0455255, "is_reserved": 0, "fusion_lon": 0.0}, {"rental_uris": {"ios": "https://dc.lft.to/lastmile_qr_scan", "android": "https://dc.lft.to/lastmile_qr_scan"}, "fusion_lat": 0.0, "name": "6e2525a8580b711c156112ac976db379", "bike_id": "6e2525a8580b711c156112ac976db379", "is_disabled": 0, "type": "electric_scooter", "lat": 38.887307, "lon": -77.028236, "is_reserved": 0, "fusion_lon": 0.0}, {"rental_uris": {"ios": "https://dc.lft.to/lastmile_qr_scan", "android": "https://dc.lft.to/lastmile_qr_scan"}, "fusion_lat": 0.0, "name": "83a59c0c40e2f29ff2988fc152190a84", "bike_id": "83a59c0c40e2f29ff2988fc152190a84", "is_disabled": 0, "type": "electric_scooter", "lat": 38.894893333333336, "lon": -77.022895, "is_reserved": 0, "fusion_lon": 0.0}, {"rental_uris": {"ios": "https://dc.lft.to/lastmile_qr_scan", "android": "https://dc.lft.to/lastmile_qr_scan"}, "fusion_lat": 0.0, "name": "512c4bce23077d027a5b57771317989f", "bike_id": "512c4bce23077d027a5b57771317989f", "is_disabled": 0, "type": "electric_scooter", "lat": 38.90388566666667, "lon": -77.032208, "is_reserved": 0, "fusion_lon": 0.0}, {"rental_uris": {"ios": "https://dc.lft.to/lastmile_qr_scan", "android": "https://dc.lft.to/lastmile_qr_scan"}, "fusion_lat": 0.0, "name": "2c209ced380dcb025d2234288c4b9ab5", "bike_id": "2c209ced380dcb025d2234288c4b9ab5", "is_disabled": 0, "type": "electric_scooter", "lat": 38.880418666666664, "lon": -77.02478016666667, "is_reserved": 0, "fusion_lon": 0.0}, {"rental_uris": {"ios": "https://dc.lft.to/lastmile_qr_scan", "android": "https://dc.lft.to/lastmile_qr_scan"}, "fusion_lat": 0.0, "name": "23971b4dc1dbbd4ae08efc683a4b59a6", "bike_id": "23971b4dc1dbbd4ae08efc683a4b59a6", "is_disabled": 0, "type": "electric_scooter", "lat": 38.94290916666667, "lon": -77.021714, "is_reserved": 0, "fusion_lon": 0.0}, {"rental_uris": {"ios": "https://dc.lft.to/lastmile_qr_scan", "android": "https://dc.lft.to/lastmile_qr_scan"}, "fusion_lat": 0.0, "name": "4c38d3c6cc3f3204a5140a80652b687f", "bike_id": "4c38d3c6cc3f3204a5140a80652b687f", "is_disabled": 0, "type": "electric_scooter", "lat": 38.91737083333334, "lon": -77.02117266666667, "is_reserved": 0, "fusion_lon": 0.0}, {"rental_uris": {"ios": "https://dc.lft.to/lastmile_qr_scan", "android": "https://dc.lft.to/lastmile_qr_scan"}, "fusion_lat": 0.0, "name": "aae57c5b178ab20e5baa33b8ad07c5c6", "bike_id": "aae57c5b178ab20e5baa33b8ad07c5c6", "is_disabled": 0, "type": "electric_scooter", "lat": 38.901361, "lon": -77.04486783333333, "is_reserved": 0, "fusion_lon": 0.0}, {"rental_uris": {"ios": "https://dc.lft.to/lastmile_qr_scan", "android": "https://dc.lft.to/lastmile_qr_scan"}, "fusion_lat": 0.0, "name": "1baa9beec14a0fefd1d75084484e52b5", "bike_id": "1baa9beec14a0fefd1d75084484e52b5", "is_disabled": 0, "type": "electric_scooter", "lat": 38.900084, "lon": -77.02496733333334, "is_reserved": 0, "fusion_lon": 0.0}, {"rental_uris": {"ios": "https://dc.lft.to/lastmile_qr_scan", "android": "https://dc.lft.to/lastmile_qr_scan"}, "fusion_lat": 0.0, "name": "e1fa65ae55010872053cb20e34cb2680", "bike_id": "e1fa65ae55010872053cb20e34cb2680", "is_disabled": 0, "type": "electric_bike", "lat": 38.94964266666667, "lon": -77.0663935, "is_reserved": 0, "fusion_lon": 0.0}, {"rental_uris": {"ios": "https://dc.lft.to/lastmile_qr_scan", "android": "https://dc.lft.to/lastmile_qr_scan"}, "fusion_lat": 0.0, "name": "7034a11d0ce1afcea5b438a35e90be2a", "bike_id": "7034a11d0ce1afcea5b438a35e90be2a", "is_disabled": 0, "type": "electric_scooter", "lat": 38.8946605, "lon": -77.03109666666667, "is_reserved": 0, "fusion_lon": 0.0}, {"rental_uris": {"ios": "https://dc.lft.to/lastmile_qr_scan", "android": "https://dc.lft.to/lastmile_qr_scan"}, "fusion_lat": 0.0, "name": "b5a200806867a7c2b149639c14588281", "bike_id": "b5a200806867a7c2b149639c14588281", "is_disabled": 0, "type": "electric_scooter", "lat": 38.905289833333335, "lon": -77.04182116666667, "is_reserved": 0, "fusion_lon": 0.0}, {"rental_uris": {"ios": "https://dc.lft.to/lastmile_qr_scan", "android": "https://dc.lft.to/lastmile_qr_scan"}, "fusion_lat": 0.0, "name": "0aee2d3564695cd9013e5980dfdfb193", "bike_id": "0aee2d3564695cd9013e5980dfdfb193", "is_disabled": 0, "type": "electric_scooter", "lat": 38.94185516666667, "lon": -77.024904, "is_reserved": 0, "fusion_lon": 0.0}, {"rental_uris": {"ios": "https://dc.lft.to/lastmile_qr_scan", "android": "https://dc.lft.to/lastmile_qr_scan"}, "fusion_lat": 0.0, "name": "f1f459f069a064ccacd53af6c28ee47a", "bike_id": "f1f459f069a064ccacd53af6c28ee47a", "is_disabled": 0, "type": "electric_scooter", "lat": 38.865399833333335, "lon": -76.98705483333333, "is_reserved": 0, "fusion_lon": 0.0}, {"rental_uris": {"ios": "https://dc.lft.to/lastmile_qr_scan", "android": "https://dc.lft.to/lastmile_qr_scan"}, "fusion_lat": 0.0, "name": "4df6bd3fc468012e969921770f36df5b", "bike_id": "4df6bd3fc468012e969921770f36df5b", "is_disabled": 0, "type": "electric_bike", "lat": 38.91791466666667, "lon": -76.97178033333333, "is_reserved": 0, "fusion_lon": 0.0}, {"rental_uris": {"ios": "https://dc.lft.to/lastmile_qr_scan", "android": "https://dc.lft.to/lastmile_qr_scan"}, "fusion_lat": 0.0, "name": "54d27d0bfded8133a3690296d3441344", "bike_id": "54d27d0bfded8133a3690296d3441344", "is_disabled": 0, "type": "electric_scooter", "lat": 38.923841833333334, "lon": -77.02682983333334, "is_reserved": 0, "fusion_lon": 0.0}, {"rental_uris": {"ios": "https://dc.lft.to/lastmile_qr_scan", "android": "https://dc.lft.to/lastmile_qr_scan"}, "fusion_lat": 0.0, "name": "96a92bc29ab2176a417e96ade685d28a", "bike_id": "96a92bc29ab2176a417e96ade685d28a", "is_disabled": 0, "type": "electric_scooter", "lat": 38.9170665, "lon": -77.034722, "is_reserved": 0, "fusion_lon": 0.0}, {"rental_uris": {"ios": "https://dc.lft.to/lastmile_qr_scan", "android": "https://dc.lft.to/lastmile_qr_scan"}, "fusion_lat": 0.0, "name": "d791af2a51e4f97d1f2eb75f74abf774", "bike_id": "d791af2a51e4f97d1f2eb75f74abf774", "is_disabled": 0, "type": "electric_scooter", "lat": 38.88525883333333, "lon": -77.01134283333333, "is_reserved": 0, "fusion_lon": 0.0}, {"rental_uris": {"ios": "https://dc.lft.to/lastmile_qr_scan", "android": "https://dc.lft.to/lastmile_qr_scan"}, "fusion_lat": 0.0, "name": "f67b4a484e0a3e045bd77aaa189dc708", "bike_id": "f67b4a484e0a3e045bd77aaa189dc708", "is_disabled": 0, "type": "electric_scooter", "lat": 38.9366015, "lon": -77.05498933333334, "is_reserved": 0, "fusion_lon": 0.0}, {"rental_uris": {"ios": "https://dc.lft.to/lastmile_qr_scan", "android": "https://dc.lft.to/lastmile_qr_scan"}, "fusion_lat": 0.0, "name": "e8a21f41ddc1bc1fa319cf72d5db7771", "bike_id": "e8a21f41ddc1bc1fa319cf72d5db7771", "is_disabled": 0, "type": "electric_bike", "lat": 38.861710333333335, "lon": -77.13143183333334, "is_reserved": 0, "fusion_lon": 0.0}, {"rental_uris": {"ios": "https://dc.lft.to/lastmile_qr_scan", "android": "https://dc.lft.to/lastmile_qr_scan"}, "fusion_lat": 0.0, "name": "883d0da74350bb307312308cf06357a6", "bike_id": "883d0da74350bb307312308cf06357a6", "is_disabled": 0, "type": "electric_scooter", "lat": 38.91613183333333, "lon": -77.041516, "is_reserved": 0, "fusion_lon": 0.0}, {"rental_uris": {"ios": "https://dc.lft.to/lastmile_qr_scan", "android": "https://dc.lft.to/lastmile_qr_scan"}, "fusion_lat": 0.0, "name": "e0906297102950af83b6cafe8294d259", "bike_id": "e0906297102950af83b6cafe8294d259", "is_disabled": 0, "type": "electric_scooter", "lat": 38.898373666666664, "lon": -77.02959783333333, "is_reserved": 0, "fusion_lon": 0.0}, {"rental_uris": {"ios": "https://dc.lft.to/lastmile_qr_scan", "android": "https://dc.lft.to/lastmile_qr_scan"}, "fusion_lat": 0.0, "name": "48f93b2f74513178bddb3a18e6d5c0bc", "bike_id": "48f93b2f74513178bddb3a18e6d5c0bc", "is_disabled": 0, "type": "electric_scooter", "lat": 38.90722783333333, "lon": -77.07420933333333, "is_reserved": 0, "fusion_lon": 0.0}, {"rental_uris": {"ios": "https://dc.lft.to/lastmile_qr_scan", "android": "https://dc.lft.to/lastmile_qr_scan"}, "fusion_lat": 0.0, "name": "44883ede7291398d5691b6665f66a29d", "bike_id": "44883ede7291398d5691b6665f66a29d", "is_disabled": 0, "type": "electric_bike", "lat": 38.89404066666667, "lon": -76.947999, "is_reserved": 0, "fusion_lon": 0.0}, {"rental_uris": {"ios": "https://dc.lft.to/lastmile_qr_scan", "android": "https://dc.lft.to/lastmile_qr_scan"}, "fusion_lat": 0.0, "name": "3a785f46908017338bfa9d9d8383a4a9", "bike_id": "3a785f46908017338bfa9d9d8383a4a9", "is_disabled": 0, "type": "electric_scooter", "lat": 38.902609, "lon": -77.04535433333334, "is_reserved": 0, "fusion_lon": 0.0}, {"rental_uris": {"ios": "https://dc.lft.to/lastmile_qr_scan", "android": "https://dc.lft.to/lastmile_qr_scan"}, "fusion_lat": 0.0, "name": "b0c3cc8b42a224c47dc93cd8bc0760bc", "bike_id": "b0c3cc8b42a224c47dc93cd8bc0760bc", "is_disabled": 0, "type": "electric_bike", "lat": 38.958345, "lon": -77.00165433333333, "is_reserved": 0, "fusion_lon": 0.0}, {"rental_uris": {"ios": "https://dc.lft.to/lastmile_qr_scan", "android": "https://dc.lft.to/lastmile_qr_scan"}, "fusion_lat": 0.0, "name": "c3e21b8f16af6dca7b4a20ef472b700d", "bike_id": "c3e21b8f16af6dca7b4a20ef472b700d", "is_disabled": 0, "type": "electric_scooter", "lat": 38.871810333333336, "lon": -77.00607683333334, "is_reserved": 0, "fusion_lon": 0.0}, {"rental_uris": {"ios": "https://dc.lft.to/lastmile_qr_scan", "android": "https://dc.lft.to/lastmile_qr_scan"}, "fusion_lat": 0.0, "name": "71f31b86a3d1ae3c62d21e952ae7c6f6", "bike_id": "71f31b86a3d1ae3c62d21e952ae7c6f6", "is_disabled": 0, "type": "electric_bike", "lat": 38.87072633333333, "lon": -76.97830466666667, "is_reserved": 0, "fusion_lon": 0.0}, {"rental_uris": {"ios": "https://dc.lft.to/lastmile_qr_scan", "android": "https://dc.lft.to/lastmile_qr_scan"}, "fusion_lat": 0.0, "name": "a0dfb8cb7f51c724141b7ba2f87d8e47", "bike_id": "a0dfb8cb7f51c724141b7ba2f87d8e47", "is_disabled": 0, "type": "electric_scooter", "lat": 38.86751966666667, "lon": -77.03854116666666, "is_reserved": 0, "fusion_lon": 0.0}, {"rental_uris": {"ios": "https://dc.lft.to/lastmile_qr_scan", "android": "https://dc.lft.to/lastmile_qr_scan"}, "fusion_lat": 0.0, "name": "067cbc09bc0f645af4d3be772eb19974", "bike_id": "067cbc09bc0f645af4d3be772eb19974", "is_disabled": 0, "type": "electric_scooter", "lat": 38.917094166666665, "lon": -77.03194816666667, "is_reserved": 0, "fusion_lon": 0.0}, {"rental_uris": {"ios": "https://dc.lft.to/lastmile_qr_scan", "android": "https://dc.lft.to/lastmile_qr_scan"}, "fusion_lat": 0.0, "name": "7ba2eab8cc42c44a6730528198c1ffa3", "bike_id": "7ba2eab8cc42c44a6730528198c1ffa3", "is_disabled": 0, "type": "electric_scooter", "lat": 38.915995, "lon": -77.03178583333333, "is_reserved": 0, "fusion_lon": 0.0}, {"rental_uris": {"ios": "https://dc.lft.to/lastmile_qr_scan", "android": "https://dc.lft.to/lastmile_qr_scan"}, "fusion_lat": 0.0, "name": "b70a108e69db9269861d73e19e414932", "bike_id": "b70a108e69db9269861d73e19e414932", "is_disabled": 0, "type": "electric_scooter", "lat": 38.902217, "lon": -77.00887483333334, "is_reserved": 0, "fusion_lon": 0.0}, {"rental_uris": {"ios": "https://dc.lft.to/lastmile_qr_scan", "android": "https://dc.lft.to/lastmile_qr_scan"}, "fusion_lat": 0.0, "name": "62a037cb056a06e5b8967c15beef4be1", "bike_id": "62a037cb056a06e5b8967c15beef4be1", "is_disabled": 0, "type": "electric_scooter", "lat": 38.9106515, "lon": -77.04399316666667, "is_reserved": 0, "fusion_lon": 0.0}, {"rental_uris": {"ios": "https://dc.lft.to/lastmile_qr_scan", "android": "https://dc.lft.to/lastmile_qr_scan"}, "fusion_lat": 0.0, "name": "62beafa99a63eef58968a45922590825", "bike_id": "62beafa99a63eef58968a45922590825", "is_disabled": 0, "type": "electric_scooter", "lat": 38.90747116666667, "lon": -76.98341416666666, "is_reserved": 0, "fusion_lon": 0.0}, {"rental_uris": {"ios": "https://dc.lft.to/lastmile_qr_scan", "android": "https://dc.lft.to/lastmile_qr_scan"}, "fusion_lat": 0.0, "name": "49a90279c2738361b9d040c19b16f6f5", "bike_id": "49a90279c2738361b9d040c19b16f6f5", "is_disabled": 0, "type": "electric_bike", "lat": 38.9450805, "lon": -77.00669133333334, "is_reserved": 0, "fusion_lon": 0.0}, {"rental_uris": {"ios": "https://dc.lft.to/lastmile_qr_scan", "android": "https://dc.lft.to/lastmile_qr_scan"}, "fusion_lat": 0.0, "name": "768ab5248ba41c48395a06dd2b2edb08", "bike_id": "768ab5248ba41c48395a06dd2b2edb08", "is_disabled": 0, "type": "electric_bike", "lat": 38.839834, "lon": -77.00569233333333, "is_reserved": 0, "fusion_lon": 0.0}, {"rental_uris": {"ios": "https://dc.lft.to/lastmile_qr_scan", "android": "https://dc.lft.to/lastmile_qr_scan"}, "fusion_lat": 0.0, "name": "a2d86424185cfb325a2458c36fcdd1da", "bike_id": "a2d86424185cfb325a2458c36fcdd1da", "is_disabled": 0, "type": "electric_scooter", "lat": 38.931759166666666, "lon": -77.07059133333334, "is_reserved": 0, "fusion_lon": 0.0}, {"rental_uris": {"ios": "https://dc.lft.to/lastmile_qr_scan", "android": "https://dc.lft.to/lastmile_qr_scan"}, "fusion_lat": 0.0, "name": "c5cd0bee71177f158309003885628528", "bike_id": "c5cd0bee71177f158309003885628528", "is_disabled": 0, "type": "electric_scooter", "lat": 38.90893033333333, "lon": -77.03203983333333, "is_reserved": 0, "fusion_lon": 0.0}, {"rental_uris": {"ios": "https://dc.lft.to/lastmile_qr_scan", "android": "https://dc.lft.to/lastmile_qr_scan"}, "fusion_lat": 0.0, "name": "325fa8c2cf4c7897d69dc4ef968f0e5b", "bike_id": "325fa8c2cf4c7897d69dc4ef968f0e5b", "is_disabled": 0, "type": "electric_scooter", "lat": 38.916295, "lon": -77.02697783333333, "is_reserved": 0, "fusion_lon": 0.0}, {"rental_uris": {"ios": "https://dc.lft.to/lastmile_qr_scan", "android": "https://dc.lft.to/lastmile_qr_scan"}, "fusion_lat": 0.0, "name": "32d141c4492619e30f4b64262e794987", "bike_id": "32d141c4492619e30f4b64262e794987", "is_disabled": 0, "type": "electric_scooter", "lat": 38.91406766666667, "lon": -77.03921016666666, "is_reserved": 0, "fusion_lon": 0.0}, {"rental_uris": {"ios": "https://dc.lft.to/lastmile_qr_scan", "android": "https://dc.lft.to/lastmile_qr_scan"}, "fusion_lat": 0.0, "name": "5c5805fbf13683db1f9f11c2c6a776ee", "bike_id": "5c5805fbf13683db1f9f11c2c6a776ee", "is_disabled": 0, "type": "electric_scooter", "lat": 38.867004666666666, "lon": -76.98400366666667, "is_reserved": 0, "fusion_lon": 0.0}, {"rental_uris": {"ios": "https://dc.lft.to/lastmile_qr_scan", "android": "https://dc.lft.to/lastmile_qr_scan"}, "fusion_lat": 0.0, "name": "c2054743c899ee22f6453d83ef548fa0", "bike_id": "c2054743c899ee22f6453d83ef548fa0", "is_disabled": 0, "type": "electric_scooter", "lat": 38.90073266666667, "lon": -77.027122, "is_reserved": 0, "fusion_lon": 0.0}, {"rental_uris": {"ios": "https://dc.lft.to/lastmile_qr_scan", "android": "https://dc.lft.to/lastmile_qr_scan"}, "fusion_lat": 0.0, "name": "956acc31452e386b1f6be87a71ad7374", "bike_id": "956acc31452e386b1f6be87a71ad7374", "is_disabled": 0, "type": "electric_bike", "lat": 38.867047666666664, "lon": -76.98940216666666, "is_reserved": 0, "fusion_lon": 0.0}, {"rental_uris": {"ios": "https://dc.lft.to/lastmile_qr_scan", "android": "https://dc.lft.to/lastmile_qr_scan"}, "fusion_lat": 0.0, "name": "d48d78c3452db2090c3e8da13b56bbbb", "bike_id": "d48d78c3452db2090c3e8da13b56bbbb", "is_disabled": 0, "type": "electric_scooter", "lat": 38.90798383333333, "lon": -77.0382935, "is_reserved": 0, "fusion_lon": 0.0}, {"rental_uris": {"ios": "https://dc.lft.to/lastmile_qr_scan", "android": "https://dc.lft.to/lastmile_qr_scan"}, "fusion_lat": 0.0, "name": "103868838bd768f5fcf3c35d764de0a5", "bike_id": "103868838bd768f5fcf3c35d764de0a5", "is_disabled": 0, "type": "electric_scooter", "lat": 38.892213, "lon": -77.0315815, "is_reserved": 0, "fusion_lon": 0.0}, {"rental_uris": {"ios": "https://dc.lft.to/lastmile_qr_scan", "android": "https://dc.lft.to/lastmile_qr_scan"}, "fusion_lat": 0.0, "name": "8cc57f804c114c646708198d058df276", "bike_id": "8cc57f804c114c646708198d058df276", "is_disabled": 0, "type": "electric_scooter", "lat": 38.888150833333334, "lon": -76.9334375, "is_reserved": 0, "fusion_lon": 0.0}, {"rental_uris": {"ios": "https://dc.lft.to/lastmile_qr_scan", "android": "https://dc.lft.to/lastmile_qr_scan"}, "fusion_lat": 0.0, "name": "44e8b459f6047d0fcf1f7572e147d5e2", "bike_id": "44e8b459f6047d0fcf1f7572e147d5e2", "is_disabled": 0, "type": "electric_scooter", "lat": 38.920463166666664, "lon": -77.03400566666667, "is_reserved": 0, "fusion_lon": 0.0}, {"rental_uris": {"ios": "https://dc.lft.to/lastmile_qr_scan", "android": "https://dc.lft.to/lastmile_qr_scan"}, "fusion_lat": 0.0, "name": "73d6c4d66816e858148056a1f32f6cd1", "bike_id": "73d6c4d66816e858148056a1f32f6cd1", "is_disabled": 0, "type": "electric_scooter", "lat": 38.918073, "lon": -77.0249475, "is_reserved": 0, "fusion_lon": 0.0}, {"rental_uris": {"ios": "https://dc.lft.to/lastmile_qr_scan", "android": "https://dc.lft.to/lastmile_qr_scan"}, "fusion_lat": 0.0, "name": "4a2921a8a5af87c721b23b1044aa6c10", "bike_id": "4a2921a8a5af87c721b23b1044aa6c10", "is_disabled": 0, "type": "electric_bike", "lat": 38.94915016666667, "lon": -76.97699416666667, "is_reserved": 0, "fusion_lon": 0.0}, {"rental_uris": {"ios": "https://dc.lft.to/lastmile_qr_scan", "android": "https://dc.lft.to/lastmile_qr_scan"}, "fusion_lat": 0.0, "name": "f2a18d4d12a15eaaf773ab85ef7e58b8", "bike_id": "f2a18d4d12a15eaaf773ab85ef7e58b8", "is_disabled": 0, "type": "electric_scooter", "lat": 38.919905, "lon": -77.03288066666667, "is_reserved": 0, "fusion_lon": 0.0}, {"rental_uris": {"ios": "https://dc.lft.to/lastmile_qr_scan", "android": "https://dc.lft.to/lastmile_qr_scan"}, "fusion_lat": 0.0, "name": "6a4f14acdc4369ae6625ca5e12a7f350", "bike_id": "6a4f14acdc4369ae6625ca5e12a7f350", "is_disabled": 0, "type": "electric_scooter", "lat": 38.9335985, "lon": -77.05718016666667, "is_reserved": 0, "fusion_lon": 0.0}, {"rental_uris": {"ios": "https://dc.lft.to/lastmile_qr_scan", "android": "https://dc.lft.to/lastmile_qr_scan"}, "fusion_lat": 0.0, "name": "6fd9b220c5e7ecc05317015dbb301593", "bike_id": "6fd9b220c5e7ecc05317015dbb301593", "is_disabled": 0, "type": "electric_scooter", "lat": 38.92971566666667, "lon": -77.03765116666666, "is_reserved": 0, "fusion_lon": 0.0}, {"rental_uris": {"ios": "https://dc.lft.to/lastmile_qr_scan", "android": "https://dc.lft.to/lastmile_qr_scan"}, "fusion_lat": 0.0, "name": "5f75c57f43efb978a28179128eed82e2", "bike_id": "5f75c57f43efb978a28179128eed82e2", "is_disabled": 0, "type": "electric_scooter", "lat": 38.927474833333335, "lon": -77.03287733333333, "is_reserved": 0, "fusion_lon": 0.0}, {"rental_uris": {"ios": "https://dc.lft.to/lastmile_qr_scan", "android": "https://dc.lft.to/lastmile_qr_scan"}, "fusion_lat": 0.0, "name": "da155ff0b594b89bc5a16249b8e877f7", "bike_id": "da155ff0b594b89bc5a16249b8e877f7", "is_disabled": 0, "type": "electric_scooter", "lat": 38.89854066666667, "lon": -77.03358816666666, "is_reserved": 0, "fusion_lon": 0.0}, {"rental_uris": {"ios": "https://dc.lft.to/lastmile_qr_scan", "android": "https://dc.lft.to/lastmile_qr_scan"}, "fusion_lat": 0.0, "name": "77f664c60489569bf075f42050231a78", "bike_id": "77f664c60489569bf075f42050231a78", "is_disabled": 0, "type": "electric_scooter", "lat": 38.890398, "lon": -76.95136866666667, "is_reserved": 0, "fusion_lon": 0.0}, {"rental_uris": {"ios": "https://dc.lft.to/lastmile_qr_scan", "android": "https://dc.lft.to/lastmile_qr_scan"}, "fusion_lat": 0.0, "name": "62792a234838d88c7ee63807af5bf48b", "bike_id": "62792a234838d88c7ee63807af5bf48b", "is_disabled": 0, "type": "electric_scooter", "lat": 38.897606833333334, "lon": -77.03166966666667, "is_reserved": 0, "fusion_lon": 0.0}, {"rental_uris": {"ios": "https://dc.lft.to/lastmile_qr_scan", "android": "https://dc.lft.to/lastmile_qr_scan"}, "fusion_lat": 0.0, "name": "b6f29cee18ff76d3d7f4b291a04d69c4", "bike_id": "b6f29cee18ff76d3d7f4b291a04d69c4", "is_disabled": 0, "type": "electric_bike", "lat": 38.9621655, "lon": -77.026247, "is_reserved": 0, "fusion_lon": 0.0}, {"rental_uris": {"ios": "https://dc.lft.to/lastmile_qr_scan", "android": "https://dc.lft.to/lastmile_qr_scan"}, "fusion_lat": 0.0, "name": "7d031e18897917a834f227d71d927270", "bike_id": "7d031e18897917a834f227d71d927270", "is_disabled": 0, "type": "electric_scooter", "lat": 38.89567816666667, "lon": -77.02980616666666, "is_reserved": 0, "fusion_lon": 0.0}, {"rental_uris": {"ios": "https://dc.lft.to/lastmile_qr_scan", "android": "https://dc.lft.to/lastmile_qr_scan"}, "fusion_lat": 0.0, "name": "024e8b9d095b39e1eb0993208aad5045", "bike_id": "024e8b9d095b39e1eb0993208aad5045", "is_disabled": 0, "type": "electric_scooter", "lat": 38.921067, "lon": -77.03181, "is_reserved": 0, "fusion_lon": 0.0}, {"rental_uris": {"ios": "https://dc.lft.to/lastmile_qr_scan", "android": "https://dc.lft.to/lastmile_qr_scan"}, "fusion_lat": 0.0, "name": "5fd99a61805d74e31f80fa39a6222ac9", "bike_id": "5fd99a61805d74e31f80fa39a6222ac9", "is_disabled": 0, "type": "electric_scooter", "lat": 38.92103383333333, "lon": -77.03168333333333, "is_reserved": 0, "fusion_lon": 0.0}, {"rental_uris": {"ios": "https://dc.lft.to/lastmile_qr_scan", "android": "https://dc.lft.to/lastmile_qr_scan"}, "fusion_lat": 0.0, "name": "739f277c6d0eb6eaf2541bc2515cb77f", "bike_id": "739f277c6d0eb6eaf2541bc2515cb77f", "is_disabled": 0, "type": "electric_scooter", "lat": 38.9389005, "lon": -77.024887, "is_reserved": 0, "fusion_lon": 0.0}, {"rental_uris": {"ios": "https://dc.lft.to/lastmile_qr_scan", "android": "https://dc.lft.to/lastmile_qr_scan"}, "fusion_lat": 0.0, "name": "fd4fa192a0f4195913384489139f2789", "bike_id": "fd4fa192a0f4195913384489139f2789", "is_disabled": 0, "type": "electric_scooter", "lat": 38.89222216666667, "lon": -77.046461, "is_reserved": 0, "fusion_lon": 0.0}, {"rental_uris": {"ios": "https://dc.lft.to/lastmile_qr_scan", "android": "https://dc.lft.to/lastmile_qr_scan"}, "fusion_lat": 0.0, "name": "a29813da6e35746f2e044151668c9302", "bike_id": "a29813da6e35746f2e044151668c9302", "is_disabled": 0, "type": "electric_scooter", "lat": 38.91689933333333, "lon": -77.02951533333334, "is_reserved": 0, "fusion_lon": 0.0}, {"rental_uris": {"ios": "https://dc.lft.to/lastmile_qr_scan", "android": "https://dc.lft.to/lastmile_qr_scan"}, "fusion_lat": 0.0, "name": "d777fbdb666f4a323d07b410f0b67ebd", "bike_id": "d777fbdb666f4a323d07b410f0b67ebd", "is_disabled": 0, "type": "electric_bike", "lat": 38.99816233333333, "lon": -76.88370533333334, "is_reserved": 0, "fusion_lon": 0.0}, {"rental_uris": {"ios": "https://dc.lft.to/lastmile_qr_scan", "android": "https://dc.lft.to/lastmile_qr_scan"}, "fusion_lat": 0.0, "name": "8c10e5b4aa8259a5b5ca01367a40dd53", "bike_id": "8c10e5b4aa8259a5b5ca01367a40dd53", "is_disabled": 0, "type": "electric_scooter", "lat": 38.898845333333334, "lon": -76.931753, "is_reserved": 0, "fusion_lon": 0.0}, {"rental_uris": {"ios": "https://dc.lft.to/lastmile_qr_scan", "android": "https://dc.lft.to/lastmile_qr_scan"}, "fusion_lat": 0.0, "name": "d96aef31fd60be2dd4fcffbe695394c1", "bike_id": "d96aef31fd60be2dd4fcffbe695394c1", "is_disabled": 0, "type": "electric_bike", "lat": 38.80680383333333, "lon": -77.08119483333333, "is_reserved": 0, "fusion_lon": 0.0}, {"rental_uris": {"ios": "https://dc.lft.to/lastmile_qr_scan", "android": "https://dc.lft.to/lastmile_qr_scan"}, "fusion_lat": 0.0, "name": "76d2a9e756d50d354fb908b15e6db1c2", "bike_id": "76d2a9e756d50d354fb908b15e6db1c2", "is_disabled": 0, "type": "electric_scooter", "lat": 38.882524, "lon": -76.99505516666666, "is_reserved": 0, "fusion_lon": 0.0}, {"rental_uris": {"ios": "https://dc.lft.to/lastmile_qr_scan", "android": "https://dc.lft.to/lastmile_qr_scan"}, "fusion_lat": 0.0, "name": "885edd57aafa32e3d31fe2e25a45af3c", "bike_id": "885edd57aafa32e3d31fe2e25a45af3c", "is_disabled": 0, "type": "electric_scooter", "lat": 38.95425616666667, "lon": -77.02761116666667, "is_reserved": 0, "fusion_lon": 0.0}, {"rental_uris": {"ios": "https://dc.lft.to/lastmile_qr_scan", "android": "https://dc.lft.to/lastmile_qr_scan"}, "fusion_lat": 0.0, "name": "741dfbb00d2ab0404623b24d5b1edb63", "bike_id": "741dfbb00d2ab0404623b24d5b1edb63", "is_disabled": 0, "type": "electric_scooter", "lat": 38.92328716666667, "lon": -77.02129066666667, "is_reserved": 0, "fusion_lon": 0.0}, {"rental_uris": {"ios": "https://dc.lft.to/lastmile_qr_scan", "android": "https://dc.lft.to/lastmile_qr_scan"}, "fusion_lat": 0.0, "name": "5e7215019ee7dba2bead968ea6a97f52", "bike_id": "5e7215019ee7dba2bead968ea6a97f52", "is_disabled": 0, "type": "electric_scooter", "lat": 38.9024485, "lon": -77.01799933333334, "is_reserved": 0, "fusion_lon": 0.0}, {"rental_uris": {"ios": "https://dc.lft.to/lastmile_qr_scan", "android": "https://dc.lft.to/lastmile_qr_scan"}, "fusion_lat": 0.0, "name": "ed14dfac0bb7daa39518920090c289e6", "bike_id": "ed14dfac0bb7daa39518920090c289e6", "is_disabled": 0, "type": "electric_scooter", "lat": 38.911088166666666, "lon": -77.04349966666666, "is_reserved": 0, "fusion_lon": 0.0}, {"rental_uris": {"ios": "https://dc.lft.to/lastmile_qr_scan", "android": "https://dc.lft.to/lastmile_qr_scan"}, "fusion_lat": 0.0, "name": "9499a32e6693081593d7a56dc4130159", "bike_id": "9499a32e6693081593d7a56dc4130159", "is_disabled": 0, "type": "electric_scooter", "lat": 38.938914833333335, "lon": -77.02487266666667, "is_reserved": 0, "fusion_lon": 0.0}, {"rental_uris": {"ios": "https://dc.lft.to/lastmile_qr_scan", "android": "https://dc.lft.to/lastmile_qr_scan"}, "fusion_lat": 0.0, "name": "1e006fb0ed88c14a49ed74ca3b9ce4d8", "bike_id": "1e006fb0ed88c14a49ed74ca3b9ce4d8", "is_disabled": 0, "type": "electric_scooter", "lat": 38.923494833333336, "lon": -77.053214, "is_reserved": 0, "fusion_lon": 0.0}, {"rental_uris": {"ios": "https://dc.lft.to/lastmile_qr_scan", "android": "https://dc.lft.to/lastmile_qr_scan"}, "fusion_lat": 0.0, "name": "b2b81995625ac5c55406718226551699", "bike_id": "b2b81995625ac5c55406718226551699", "is_disabled": 0, "type": "electric_scooter", "lat": 38.918830166666666, "lon": -77.02194533333333, "is_reserved": 0, "fusion_lon": 0.0}, {"rental_uris": {"ios": "https://dc.lft.to/lastmile_qr_scan", "android": "https://dc.lft.to/lastmile_qr_scan"}, "fusion_lat": 0.0, "name": "b1d065a7a16950a4919ea4eb83eba868", "bike_id": "b1d065a7a16950a4919ea4eb83eba868", "is_disabled": 0, "type": "electric_scooter", "lat": 38.925721833333334, "lon": -77.02695216666666, "is_reserved": 0, "fusion_lon": 0.0}, {"rental_uris": {"ios": "https://dc.lft.to/lastmile_qr_scan", "android": "https://dc.lft.to/lastmile_qr_scan"}, "fusion_lat": 0.0, "name": "dc9216f801007b2c970661d92664f44f", "bike_id": "dc9216f801007b2c970661d92664f44f", "is_disabled": 0, "type": "electric_scooter", "lat": 38.9192845, "lon": -77.03180266666666, "is_reserved": 0, "fusion_lon": 0.0}, {"rental_uris": {"ios": "https://dc.lft.to/lastmile_qr_scan", "android": "https://dc.lft.to/lastmile_qr_scan"}, "fusion_lat": 0.0, "name": "7330671b29755f24fb04fb569b49e05d", "bike_id": "7330671b29755f24fb04fb569b49e05d", "is_disabled": 0, "type": "electric_scooter", "lat": 38.8999785, "lon": -77.055616, "is_reserved": 0, "fusion_lon": 0.0}, {"rental_uris": {"ios": "https://dc.lft.to/lastmile_qr_scan", "android": "https://dc.lft.to/lastmile_qr_scan"}, "fusion_lat": 0.0, "name": "53c5cc8e78db5cdc8192b1521277df93", "bike_id": "53c5cc8e78db5cdc8192b1521277df93", "is_disabled": 0, "type": "electric_bike", "lat": 38.87977033333333, "lon": -76.99501666666667, "is_reserved": 0, "fusion_lon": 0.0}, {"rental_uris": {"ios": "https://dc.lft.to/lastmile_qr_scan", "android": "https://dc.lft.to/lastmile_qr_scan"}, "fusion_lat": 0.0, "name": "4e6684e78c55f50e75e5ed8009e33102", "bike_id": "4e6684e78c55f50e75e5ed8009e33102", "is_disabled": 0, "type": "electric_scooter", "lat": 38.86723116666667, "lon": -76.986935, "is_reserved": 0, "fusion_lon": 0.0}, {"rental_uris": {"ios": "https://dc.lft.to/lastmile_qr_scan", "android": "https://dc.lft.to/lastmile_qr_scan"}, "fusion_lat": 0.0, "name": "fbbd23b9c4a5e8400a1948630168f4e2", "bike_id": "fbbd23b9c4a5e8400a1948630168f4e2", "is_disabled": 0, "type": "electric_scooter", "lat": 38.9098245, "lon": -77.03177716666667, "is_reserved": 0, "fusion_lon": 0.0}, {"rental_uris": {"ios": "https://dc.lft.to/lastmile_qr_scan", "android": "https://dc.lft.to/lastmile_qr_scan"}, "fusion_lat": 0.0, "name": "e62f1ca00f0d043eb50e0d0c58413fdf", "bike_id": "e62f1ca00f0d043eb50e0d0c58413fdf", "is_disabled": 0, "type": "electric_scooter", "lat": 38.91613433333333, "lon": -77.023102, "is_reserved": 0, "fusion_lon": 0.0}, {"rental_uris": {"ios": "https://dc.lft.to/lastmile_qr_scan", "android": "https://dc.lft.to/lastmile_qr_scan"}, "fusion_lat": 0.0, "name": "5afba3c87d358e4e07f48f9272bc66a3", "bike_id": "5afba3c87d358e4e07f48f9272bc66a3", "is_disabled": 0, "type": "electric_scooter", "lat": 38.89531733333333, "lon": -77.04639966666667, "is_reserved": 0, "fusion_lon": 0.0}, {"rental_uris": {"ios": "https://dc.lft.to/lastmile_qr_scan", "android": "https://dc.lft.to/lastmile_qr_scan"}, "fusion_lat": 0.0, "name": "9f9e57f6d5223afc2748593bab641a48", "bike_id": "9f9e57f6d5223afc2748593bab641a48", "is_disabled": 0, "type": "electric_scooter", "lat": 38.930669, "lon": -77.04031, "is_reserved": 0, "fusion_lon": 0.0}, {"rental_uris": {"ios": "https://dc.lft.to/lastmile_qr_scan", "android": "https://dc.lft.to/lastmile_qr_scan"}, "fusion_lat": 0.0, "name": "577ce6ec5b7bc5507e40e97bce873cbc", "bike_id": "577ce6ec5b7bc5507e40e97bce873cbc", "is_disabled": 0, "type": "electric_scooter", "lat": 38.905990333333335, "lon": -77.00596966666667, "is_reserved": 0, "fusion_lon": 0.0}, {"rental_uris": {"ios": "https://dc.lft.to/lastmile_qr_scan", "android": "https://dc.lft.to/lastmile_qr_scan"}, "fusion_lat": 0.0, "name": "1e07dea4960fb7d3c16b5e91c17b00f6", "bike_id": "1e07dea4960fb7d3c16b5e91c17b00f6", "is_disabled": 0, "type": "electric_scooter", "lat": 38.91607583333333, "lon": -77.02294516666667, "is_reserved": 0, "fusion_lon": 0.0}, {"rental_uris": {"ios": "https://dc.lft.to/lastmile_qr_scan", "android": "https://dc.lft.to/lastmile_qr_scan"}, "fusion_lat": 0.0, "name": "86b96bced4b45eaabbde4f7f2db47b2e", "bike_id": "86b96bced4b45eaabbde4f7f2db47b2e", "is_disabled": 0, "type": "electric_scooter", "lat": 38.91837233333333, "lon": -77.02292066666666, "is_reserved": 0, "fusion_lon": 0.0}, {"rental_uris": {"ios": "https://dc.lft.to/lastmile_qr_scan", "android": "https://dc.lft.to/lastmile_qr_scan"}, "fusion_lat": 0.0, "name": "47b469a8968615056ad768c2d1b7d59e", "bike_id": "47b469a8968615056ad768c2d1b7d59e", "is_disabled": 0, "type": "electric_scooter", "lat": 38.8922475, "lon": -77.03221483333333, "is_reserved": 0, "fusion_lon": 0.0}, {"rental_uris": {"ios": "https://dc.lft.to/lastmile_qr_scan", "android": "https://dc.lft.to/lastmile_qr_scan"}, "fusion_lat": 0.0, "name": "f91daef386d97c2dfd5051cd6650edd1", "bike_id": "f91daef386d97c2dfd5051cd6650edd1", "is_disabled": 0, "type": "electric_scooter", "lat": 38.9053045, "lon": -77.0417375, "is_reserved": 0, "fusion_lon": 0.0}, {"rental_uris": {"ios": "https://dc.lft.to/lastmile_qr_scan", "android": "https://dc.lft.to/lastmile_qr_scan"}, "fusion_lat": 0.0, "name": "190ad6d4ed3d992b9bd92091da1a203a", "bike_id": "190ad6d4ed3d992b9bd92091da1a203a", "is_disabled": 0, "type": "electric_scooter", "lat": 38.909787666666666, "lon": -76.995095, "is_reserved": 0, "fusion_lon": 0.0}, {"rental_uris": {"ios": "https://dc.lft.to/lastmile_qr_scan", "android": "https://dc.lft.to/lastmile_qr_scan"}, "fusion_lat": 0.0, "name": "2aa681996548e0dfcf0ea3bbaf993c61", "bike_id": "2aa681996548e0dfcf0ea3bbaf993c61", "is_disabled": 0, "type": "electric_scooter", "lat": 38.90963816666667, "lon": -77.04654033333334, "is_reserved": 0, "fusion_lon": 0.0}, {"rental_uris": {"ios": "https://dc.lft.to/lastmile_qr_scan", "android": "https://dc.lft.to/lastmile_qr_scan"}, "fusion_lat": 0.0, "name": "edc6e9c02b8363a2aec29b05a196bd89", "bike_id": "edc6e9c02b8363a2aec29b05a196bd89", "is_disabled": 0, "type": "electric_scooter", "lat": 38.901427166666664, "lon": -77.0487415, "is_reserved": 0, "fusion_lon": 0.0}, {"rental_uris": {"ios": "https://dc.lft.to/lastmile_qr_scan", "android": "https://dc.lft.to/lastmile_qr_scan"}, "fusion_lat": 0.0, "name": "d1c8f9b0a4a05300045a4215e78b76b4", "bike_id": "d1c8f9b0a4a05300045a4215e78b76b4", "is_disabled": 0, "type": "electric_scooter", "lat": 38.91708066666666, "lon": -77.03671366666667, "is_reserved": 0, "fusion_lon": 0.0}, {"rental_uris": {"ios": "https://dc.lft.to/lastmile_qr_scan", "android": "https://dc.lft.to/lastmile_qr_scan"}, "fusion_lat": 0.0, "name": "ad384b2a0b47f9cc79f049ec36242212", "bike_id": "ad384b2a0b47f9cc79f049ec36242212", "is_disabled": 0, "type": "electric_scooter", "lat": 38.907212, "lon": -77.02891033333333, "is_reserved": 0, "fusion_lon": 0.0}, {"rental_uris": {"ios": "https://dc.lft.to/lastmile_qr_scan", "android": "https://dc.lft.to/lastmile_qr_scan"}, "fusion_lat": 0.0, "name": "ebe9da579457eb1a6465524380512886", "bike_id": "ebe9da579457eb1a6465524380512886", "is_disabled": 0, "type": "electric_scooter", "lat": 38.93969033333333, "lon": -77.03204316666667, "is_reserved": 0, "fusion_lon": 0.0}, {"rental_uris": {"ios": "https://dc.lft.to/lastmile_qr_scan", "android": "https://dc.lft.to/lastmile_qr_scan"}, "fusion_lat": 0.0, "name": "b0eb21592f715fd119295bc4968c9433", "bike_id": "b0eb21592f715fd119295bc4968c9433", "is_disabled": 0, "type": "electric_scooter", "lat": 38.882628833333335, "lon": -77.0036955, "is_reserved": 0, "fusion_lon": 0.0}, {"rental_uris": {"ios": "https://dc.lft.to/lastmile_qr_scan", "android": "https://dc.lft.to/lastmile_qr_scan"}, "fusion_lat": 0.0, "name": "dc4160d772e215885c1d082d12750be3", "bike_id": "dc4160d772e215885c1d082d12750be3", "is_disabled": 0, "type": "electric_scooter", "lat": 38.92812, "lon": -77.02617516666666, "is_reserved": 0, "fusion_lon": 0.0}, {"rental_uris": {"ios": "https://dc.lft.to/lastmile_qr_scan", "android": "https://dc.lft.to/lastmile_qr_scan"}, "fusion_lat": 0.0, "name": "5c3674937736ae00ec9eea22901d72de", "bike_id": "5c3674937736ae00ec9eea22901d72de", "is_disabled": 0, "type": "electric_scooter", "lat": 38.946485, "lon": -77.03107433333334, "is_reserved": 0, "fusion_lon": 0.0}, {"rental_uris": {"ios": "https://dc.lft.to/lastmile_qr_scan", "android": "https://dc.lft.to/lastmile_qr_scan"}, "fusion_lat": 0.0, "name": "7c73628a1dcbab81f80e6d5ffd42d6e7", "bike_id": "7c73628a1dcbab81f80e6d5ffd42d6e7", "is_disabled": 0, "type": "electric_scooter", "lat": 38.903790666666666, "lon": -77.032198, "is_reserved": 0, "fusion_lon": 0.0}, {"rental_uris": {"ios": "https://dc.lft.to/lastmile_qr_scan", "android": "https://dc.lft.to/lastmile_qr_scan"}, "fusion_lat": 0.0, "name": "550582bf7e60220f84104ee9dccc5798", "bike_id": "550582bf7e60220f84104ee9dccc5798", "is_disabled": 0, "type": "electric_scooter", "lat": 38.899707666666664, "lon": -77.05271283333333, "is_reserved": 0, "fusion_lon": 0.0}, {"rental_uris": {"ios": "https://dc.lft.to/lastmile_qr_scan", "android": "https://dc.lft.to/lastmile_qr_scan"}, "fusion_lat": 0.0, "name": "296d8fefabf495797200a2f840bc018a", "bike_id": "296d8fefabf495797200a2f840bc018a", "is_disabled": 0, "type": "electric_scooter", "lat": 38.935251, "lon": -77.03347416666666, "is_reserved": 0, "fusion_lon": 0.0}, {"rental_uris": {"ios": "https://dc.lft.to/lastmile_qr_scan", "android": "https://dc.lft.to/lastmile_qr_scan"}, "fusion_lat": 0.0, "name": "1bb0477edae17d18a5e9fde375599640", "bike_id": "1bb0477edae17d18a5e9fde375599640", "is_disabled": 0, "type": "electric_scooter", "lat": 38.961139833333334, "lon": -77.02846083333333, "is_reserved": 0, "fusion_lon": 0.0}, {"rental_uris": {"ios": "https://dc.lft.to/lastmile_qr_scan", "android": "https://dc.lft.to/lastmile_qr_scan"}, "fusion_lat": 0.0, "name": "587961dfae505e3baa476758f0a62a53", "bike_id": "587961dfae505e3baa476758f0a62a53", "is_disabled": 0, "type": "electric_scooter", "lat": 38.924538166666665, "lon": -76.99000733333334, "is_reserved": 0, "fusion_lon": 0.0}, {"rental_uris": {"ios": "https://dc.lft.to/lastmile_qr_scan", "android": "https://dc.lft.to/lastmile_qr_scan"}, "fusion_lat": 0.0, "name": "5c5cc6b9cd48dadd8810a8c89c7c737f", "bike_id": "5c5cc6b9cd48dadd8810a8c89c7c737f", "is_disabled": 0, "type": "electric_scooter", "lat": 38.907734833333336, "lon": -77.03286666666666, "is_reserved": 0, "fusion_lon": 0.0}, {"rental_uris": {"ios": "https://dc.lft.to/lastmile_qr_scan", "android": "https://dc.lft.to/lastmile_qr_scan"}, "fusion_lat": 0.0, "name": "a187258a68ce9bba4f3101ed4981b397", "bike_id": "a187258a68ce9bba4f3101ed4981b397", "is_disabled": 0, "type": "electric_scooter", "lat": 38.892239000000004, "lon": -77.026532, "is_reserved": 0, "fusion_lon": 0.0}, {"rental_uris": {"ios": "https://dc.lft.to/lastmile_qr_scan", "android": "https://dc.lft.to/lastmile_qr_scan"}, "fusion_lat": 0.0, "name": "df326e174a0941bdd0b781f3adaf3bfb", "bike_id": "df326e174a0941bdd0b781f3adaf3bfb", "is_disabled": 0, "type": "electric_scooter", "lat": 38.87664933333333, "lon": -77.007606, "is_reserved": 0, "fusion_lon": 0.0},