{"data": {"bikes": [{"rental_uris": {"android": "https://dc.lft.to/lastmile_qr_scan", "ios": "https://dc.lft.to/lastmile_qr_scan"}, "lon": -77.029817, "name": "d2ac18a677cf7306d2fcce054e8783b9", "lat": 38.946045833333336, "is_reserved": 0, "fusion_lat": 0.0, "bike_id": "d2ac18a677cf7306d2fcce054e8783b9", "type": "electric_scooter", "is_disabled": 0, "fusion_lon": 0.0}, {"rental_uris": {"android": "https://dc.lft.to/lastmile_qr_scan", "ios": "https://dc.lft.to/lastmile_qr_scan"}, "lon": -77.0319745, "name": "d26d7d22097e9a91893280ea560a203c", "lat": 38.91760433333334, "is_reserved": 0, "fusion_lat": 0.0, "bike_id": "d26d7d22097e9a91893280ea560a203c", "type": "electric_scooter", "is_disabled": 0, "fusion_lon": 0.0}, {"rental_uris": {"android": "https://dc.lft.to/lastmile_qr_scan", "ios": "https://dc.lft.to/lastmile_qr_scan"}, "lon": -77.03447433333334, "name": "b7f4d646101a66184737ae0a08266b19", "lat": 38.90947383333334, "is_reserved": 0, "fusion_lat": 0.0, "bike_id": "b7f4d646101a66184737ae0a08266b19", "type": "electric_scooter", "is_disabled": 0, "fusion_lon": 0.0}, {"rental_uris": {"android": "https://dc.lft.to/lastmile_qr_scan", "ios": "https://dc.lft.to/lastmile_qr_scan"}, "lon": -76.986531, "name": "f59a59dcb115445c751ac65d7826ce6f", "lat": 38.858079000000004, "is_reserved": 0, "fusion_lat": 0.0, "bike_id": "f59a59dcb115445c751ac65d7826ce6f", "type": "electric_scooter", "is_disabled": 0, "fusion_lon": 0.0}, {"rental_uris": {"android": "https://dc.lft.to/lastmile_qr_scan", "ios": "https://dc.lft.to/lastmile_qr_scan"}, "lon": -77.07885983333334, "name": "8deaafde2da4db2987e5dc4dc70c3184", "lat": 38.842557666666664, "is_reserved": 0, "fusion_lat": 0.0, "bike_id": "8deaafde2da4db2987e5dc4dc70c3184", "type": "electric_bike", "is_disabled": 0, "fusion_lon": 0.0}, {"rental_uris": {"android": "https://dc.lft.to/lastmile_qr_scan", "ios": "https://dc.lft.to/lastmile_qr_scan"}, "lon": -77.04269616666667, "name": "bc389a0e8e7445e6e821beaf2e294a9c", "lat": 38.9074175, "is_reserved": 0, "fusion_lat": 0.0, "bike_id": "bc389a0e8e7445e6e821beaf2e294a9c", "type": "electric_scooter", "is_disabled": 0, "fusion_lon": 0.0}, {"rental_uris": {"android": "https://dc.lft.to/lastmile_qr_scan", "ios": "https://dc.lft.to/lastmile_qr_scan"}, "lon": -77.0221445, "name": "975d4d49bb3d3ed08de00ed16c1e40ca", "lat": 38.91269333333334, "is_reserved": 0, "fusion_lat": 0.0, "bike_id": "975d4d49bb3d3ed08de00ed16c1e40ca", "type": "electric_scooter", "is_disabled": 0, "fusion_lon": 0.0}, {"rental_uris": {"android": "https://dc.lft.to/lastmile_qr_scan", "ios": "https://dc.lft.to/lastmile_qr_scan"}, "lon": -77.01771266666667, "name": "5cdc33fe8a0f1fd27025a5ef8f1098f5", "lat": 38.877056833333334, "is_reserved": 0, "fusion_lat": 0.0, "bike_id": "5cdc33fe8a0f1fd27025a5ef8f1098f5", "type": "electric_scooter", "is_disabled": 0, "fusion_lon": 0.0}, {"rental_uris": {"android": "https://dc.lft.to/lastmile_qr_scan", "ios": "https://dc.lft.to/lastmile_qr_scan"}, "lon": -77.04152283333333, "name": "88ef28761811c9055a508e2c6730178b", "lat": 38.90009516666667, "is_reserved": 0, "fusion_lat": 0.0, "bike_id": "88ef28761811c9055a508e2c6730178b", "type": "electric_scooter", "is_disabled": 0, "fusion_lon": 0.0}, {"rental_uris": {"android": "https://dc.lft.to/lastmile_qr_scan", "ios": "https://dc.lft.to/lastmile_qr_scan"}, "lon": -77.02690633333333, "name": "911ac9ae90689d1afdfad8f86f44b508", "lat": 38.909507833333336, "is_reserved": 0, "fusion_lat": 0.0, "bike_id": "911ac9ae90689d1afdfad8f86f44b508", "type": "electric_scooter", "is_disabled": 0, "fusion_lon": 0.0}, {"rental_uris": {"android": "https://dc.lft.to/lastmile_qr_scan", "ios": "https://dc.lft.to/lastmile_qr_scan"}, "lon": -77.03672333333333, "name": "4ae0a7c3d9b986626362d4b9b11cfda8", "lat": 38.939155, "is_reserved": 0, "fusion_lat": 0.0, "bike_id": "4ae0a7c3d9b986626362d4b9b11cfda8", "type": "electric_scooter", "is_disabled": 0, "fusion_lon": 0.0}, {"rental_uris": {"android": "https://dc.lft.to/lastmile_qr_scan", "ios": "https://dc.lft.to/lastmile_qr_scan"}, "lon": -77.02279866666667, "name": "ad40b2c2a0050dd9be2c13a268ea2dc5", "lat": 38.92710966666667, "is_reserved": 0, "fusion_lat": 0.0, "bike_id": "ad40b2c2a0050dd9be2c13a268ea2dc5", "type": "electric_scooter", "is_disabled": 0, "fusion_lon": 0.0}, {"rental_uris": {"android": "https://dc.lft.to/lastmile_qr_scan", "ios": "https://dc.lft.to/lastmile_qr_scan"}, "lon": -77.043916, "name": "3fb1b94576c70a78eaa64b9fbc3f8cec", "lat": 38.89758533333333, "is_reserved": 0, "fusion_lat": 0.0, "bike_id": "3fb1b94576c70a78eaa64b9fbc3f8cec", "type": "electric_scooter", "is_disabled": 0, "fusion_lon": 0.0}, {"rental_uris": {"android": "https://dc.lft.to/lastmile_qr_scan", "ios": "https://dc.lft.to/lastmile_qr_scan"}, "lon": -77.040863, "name": "b387174ec0e8ed296cee5f6db411e30f", "lat": 38.91488066666667, "is_reserved": 0, "fusion_lat": 0.0, "bike_id": "b387174ec0e8ed296cee5f6db411e30f", "type": "electric_scooter", "is_disabled": 0, "fusion_lon": 0.0}, {"rental_uris": {"android": "https://dc.lft.to/lastmile_qr_scan", "ios": "https://dc.lft.to/lastmile_qr_scan"}, "lon": -77.016427, "name": "42bebb73d7d70fa6980bb32641b29b0b", "lat": 38.90372383333333, "is_reserved": 0, "fusion_lat": 0.0, "bike_id": "42bebb73d7d70fa6980bb32641b29b0b", "type": "electric_scooter", "is_disabled": 0, "fusion_lon": 0.0}, {"rental_uris": {"android": "https://dc.lft.to/lastmile_qr_scan", "ios": "https://dc.lft.to/lastmile_qr_scan"}, "lon": -77.02509116666667, "name": "6dfc14bd1187c451f27d178b447e1376", "lat": 38.918079, "is_reserved": 0, "fusion_lat": 0.0, "bike_id": "6dfc14bd1187c451f27d178b447e1376", "type": "electric_scooter", "is_disabled": 0, "fusion_lon": 0.0}, {"rental_uris": {"android": "https://dc.lft.to/lastmile_qr_scan", "ios": "https://dc.lft.to/lastmile_qr_scan"}, "lon": -77.0395785, "name": "3048bcd68c2a653088f5c6ca2e7e0a19", "lat": 38.89243416666667, "is_reserved": 0, "fusion_lat": 0.0, "bike_id": "3048bcd68c2a653088f5c6ca2e7e0a19", "type": "electric_scooter", "is_disabled": 0, "fusion_lon": 0.0}, {"rental_uris": {"android": "https://dc.lft.to/lastmile_qr_scan", "ios": "https://dc.lft.to/lastmile_qr_scan"}, "lon": -77.024401, "name": "e9f56b09454cc64abd16c93fe9758e2b", "lat": 38.920576833333335, "is_reserved": 0, "fusion_lat": 0.0, "bike_id": "e9f56b09454cc64abd16c93fe9758e2b", "type": "electric_scooter", "is_disabled": 0, "fusion_lon": 0.0}, {"rental_uris": {"android": "https://dc.lft.to/lastmile_qr_scan", "ios": "https://dc.lft.to/lastmile_qr_scan"}, "lon": -77.03828216666666, "name": "7f1afc8c1d906b8c5e06d87b7d50d890", "lat": 38.90317666666667, "is_reserved": 0, "fusion_lat": 0.0, "bike_id": "7f1afc8c1d906b8c5e06d87b7d50d890", "type": "electric_scooter", "is_disabled": 0, "fusion_lon": 0.0}, {"rental_uris": {"android": "https://dc.lft.to/lastmile_qr_scan", "ios": "https://dc.lft.to/lastmile_qr_scan"}, "lon": -77.03638483333333, "name": "18bf2d03428ec3f17e2fcfc47595996e", "lat": 38.91650533333333, "is_reserved": 0, "fusion_lat": 0.0, "bike_id": "18bf2d03428ec3f17e2fcfc47595996e", "type": "electric_scooter", "is_disabled": 0, "fusion_lon": 0.0}, {"rental_uris": {"android": "https://dc.lft.to/lastmile_qr_scan", "ios": "https://dc.lft.to/lastmile_qr_scan"}, "lon": -77.023873, "name": "afb35d6953e8cfccb6163ec78c7dd2c4", "lat": 38.89676466666667, "is_reserved": 0, "fusion_lat": 0.0, "bike_id": "afb35d6953e8cfccb6163ec78c7dd2c4", "type": "electric_bike", "is_disabled": 0, "fusion_lon": 0.0}, {"rental_uris": {"android": "https://dc.lft.to/lastmile_qr_scan", "ios": "https://dc.lft.to/lastmile_qr_scan"}, "lon": -77.0171755, "name": "bc84d6a0d30904761b2031a2b8dd93b1", "lat": 38.879375, "is_reserved": 0, "fusion_lat": 0.0, "bike_id": "bc84d6a0d30904761b2031a2b8dd93b1", "type": "electric_scooter", "is_disabled": 0, "fusion_lon": 0.0}, {"rental_uris": {"android": "https://dc.lft.to/lastmile_qr_scan", "ios": "https://dc.lft.to/lastmile_qr_scan"}, "lon": -76.9042385, "name": "9f3d7f2542ef4cace828031fe2453479", "lat": 38.94057083333333, "is_reserved": 0, "fusion_lat": 0.0, "bike_id": "9f3d7f2542ef4cace828031fe2453479", "type": "electric_bike", "is_disabled": 0, "fusion_lon": 0.0}, {"rental_uris": {"android": "https://dc.lft.to/lastmile_qr_scan", "ios": "https://dc.lft.to/lastmile_qr_scan"}, "lon": -77.04594833333333, "name": "1f6c436749a29b6119b114ad83aa036d", "lat": 38.921482, "is_reserved": 0, "fusion_lat": 0.0, "bike_id": "1f6c436749a29b6119b114ad83aa036d", "type": "electric_scooter", "is_disabled": 0, "fusion_lon": 0.0}, {"rental_uris": {"android": "https://dc.lft.to/lastmile_qr_scan", "ios": "https://dc.lft.to/lastmile_qr_scan"}, "lon": -77.02412516666666, "name": "62cf8ca7e7d197a50865ddb1a29d9711", "lat": 38.89224866666667, "is_reserved": 0, "fusion_lat": 0.0, "bike_id": "62cf8ca7e7d197a50865ddb1a29d9711", "type": "electric_scooter", "is_disabled": 0, "fusion_lon": 0.0}, {"rental_uris": {"android": "https://dc.lft.to/lastmile_qr_scan", "ios": "https://dc.lft.to/lastmile_qr_scan"}, "lon": -76.96376083333334, "name": "ff51b65dc7c34687fb2a041e1b326eb5", "lat": 38.94900766666667, "is_reserved": 0, "fusion_lat": 0.0, "bike_id": "ff51b65dc7c34687fb2a041e1b326eb5", "type": "electric_bike", "is_disabled": 0, "fusion_lon": 0.0}, {"rental_uris": {"android": "https://dc.lft.to/lastmile_qr_scan", "ios": "https://dc.lft.to/lastmile_qr_scan"}, "lon": -76.954187, "name": "37c1a5a2bbc1dffe83ced2e7b1863e7d", "lat": 38.88993516666667, "is_reserved": 0, "fusion_lat": 0.0, "bike_id": "37c1a5a2bbc1dffe83ced2e7b1863e7d", "type": "electric_scooter", "is_disabled": 0, "fusion_lon": 0.0}, {"rental_uris": {"android": "https://dc.lft.to/lastmile_qr_scan", "ios": "https://dc.lft.to/lastmile_qr_scan"}, "lon": -77.0106515, "name": "634e96615f541ed4e5c5219560bacd91", "lat": 38.920308666666664, "is_reserved": 0, "fusion_lat": 0.0, "bike_id": "634e96615f541ed4e5c5219560bacd91", "type": "electric_scooter", "is_disabled": 0, "fusion_lon": 0.0}, {"rental_uris": {"android": "https://dc.lft.to/lastmile_qr_scan", "ios": "https://dc.lft.to/lastmile_qr_scan"}, "lon": -77.01175233333333, "name": "dce84251bd63f5382bd71e2e726219f4", "lat": 38.91335866666667, "is_reserved": 0, "fusion_lat": 0.0, "bike_id": "dce84251bd63f5382bd71e2e726219f4", "type": "electric_scooter", "is_disabled": 0, "fusion_lon": 0.0}, {"rental_uris": {"android": "https://dc.lft.to/lastmile_qr_scan", "ios": "https://dc.lft.to/lastmile_qr_scan"}, "lon": -77.046754, "name": "68c6f89751cbe9e0d2b45d2bc2e65681", "lat": 38.89561116666667, "is_reserved": 0, "fusion_lat": 0.0, "bike_id": "68c6f89751cbe9e0d2b45d2bc2e65681", "type": "electric_scooter", "is_disabled": 0, "fusion_lon": 0.0}, {"rental_uris": {"android": "https://dc.lft.to/lastmile_qr_scan", "ios": "https://dc.lft.to/lastmile_qr_scan"}, "lon": -77.042318, "name": "6b4fe1ccc69dbdd310bd45d547d4dfcb", "lat": 38.91111733333334, "is_reserved": 0, "fusion_lat": 0.0, "bike_id": "6b4fe1ccc69dbdd310bd45d547d4dfcb", "type": "electric_scooter", "is_disabled": 0, "fusion_lon": 0.0}, {"rental_uris": {"android": "https://dc.lft.to/lastmile_qr_scan", "ios": "https://dc.lft.to/lastmile_qr_scan"}, "lon": -77.02346966666667, "name": "143cb7eddda9eecca2f4a22f4c00bb9b", "lat": 38.935333666666665, "is_reserved": 0, "fusion_lat": 0.0, "bike_id": "143cb7eddda9eecca2f4a22f4c00bb9b", "type": "electric_scooter", "is_disabled": 0, "fusion_lon": 0.0}, {"rental_uris": {"android": "https://dc.lft.to/lastmile_qr_scan", "ios": "https://dc.lft.to/lastmile_qr_scan"}, "lon": -77.03470133333333, "name": "18b182e386ea09383b11d80e0cd7cc67", "lat": 38.9057115, "is_reserved": 0, "fusion_lat": 0.0, "bike_id": "18b182e386ea09383b11d80e0cd7cc67", "type": "electric_scooter", "is_disabled": 0, "fusion_lon": 0.0}, {"rental_uris": {"android": "https://dc.lft.to/lastmile_qr_scan", "ios": "https://dc.lft.to/lastmile_qr_scan"}, "lon": -77.02306383333334, "name": "abbf0124a1e32b12af55642de013840c", "lat": 38.92661983333333, "is_reserved": 0, "fusion_lat": 0.0, "bike_id": "abbf0124a1e32b12af55642de013840c", "type": "electric_scooter", "is_disabled": 0, "fusion_lon": 0.0}, {"rental_uris": {"android": "https://dc.lft.to/lastmile_qr_scan", "ios": "https://dc.lft.to/lastmile_qr_scan"}, "lon": -77.043684, "name": "9ae0eca4f07638edf67d46c4d2a7973c", "lat": 38.90385283333333, "is_reserved": 0, "fusion_lat": 0.0, "bike_id": "9ae0eca4f07638edf67d46c4d2a7973c", "type": "electric_scooter", "is_disabled": 0, "fusion_lon": 0.0}, {"rental_uris": {"android": "https://dc.lft.to/lastmile_qr_scan", "ios": "https://dc.lft.to/lastmile_qr_scan"}, "lon": -77.04146933333334, "name": "7744c0ee622dc0814eb10b47a3ab4e69", "lat": 38.90623216666667, "is_reserved": 0, "fusion_lat": 0.0, "bike_id": "7744c0ee622dc0814eb10b47a3ab4e69", "type": "electric_scooter", "is_disabled": 0, "fusion_lon": 0.0}, {"rental_uris": {"android": "https://dc.lft.to/lastmile_qr_scan", "ios": "https://dc.lft.to/lastmile_qr_scan"}, "lon": -77.03301533333334, "name": "c9f3b4e2579310d0f3cea2deb971c24d", "lat": 38.924526, "is_reserved": 0, "fusion_lat": 0.0, "bike_id": "c9f3b4e2579310d0f3cea2deb971c24d", "type": "electric_scooter", "is_disabled": 0, "fusion_lon": 0.0}, {"rental_uris": {"android": "https://dc.lft.to/lastmile_qr_scan", "ios": "https://dc.lft.to/lastmile_qr_scan"}, "lon": -76.980135, "name": "fcdaff2c0598c39ed7a93329dbbeaa47", "lat": 38.90094233333333, "is_reserved": 0, "fusion_lat": 0.0, "bike_id": "fcdaff2c0598c39ed7a93329dbbeaa47", "type": "electric_scooter", "is_disabled": 0, "fusion_lon": 0.0}, {"rental_uris": {"android": "https://dc.lft.to/lastmile_qr_scan", "ios": "https://dc.lft.to/lastmile_qr_scan"}, "lon": -77.04228716666667, "name": "466db9949119252df3a7ff08bd5594eb", "lat": 38.91105066666667, "is_reserved": 0, "fusion_lat": 0.0, "bike_id": "466db9949119252df3a7ff08bd5594eb", "type": "electric_scooter", "is_disabled": 0, "fusion_lon": 0.0}, {"rental_uris": {"android": "https://dc.lft.to/lastmile_qr_scan", "ios": "https://dc.lft.to/lastmile_qr_scan"}, "lon": -77.041972, "name": "34a2fcc0c8056e2baf95b7e49bfbe648", "lat": 38.892225333333336, "is_reserved": 0, "fusion_lat": 0.0, "bike_id": "34a2fcc0c8056e2baf95b7e49bfbe648", "type": "electric_scooter", "is_disabled": 0, "fusion_lon": 0.0}, {"rental_uris": {"android": "https://dc.lft.to/lastmile_qr_scan", "ios": "https://dc.lft.to/lastmile_qr_scan"}, "lon": -77.0236015, "name": "6e450dc6dc36b63205517783f5b0e547", "lat": 38.92516083333334, "is_reserved": 0, "fusion_lat": 0.0, "bike_id": "6e450dc6dc36b63205517783f5b0e547", "type": "electric_scooter", "is_disabled": 0, "fusion_lon": 0.0}, {"rental_uris": {"android": "https://dc.lft.to/lastmile_qr_scan", "ios": "https://dc.lft.to/lastmile_qr_scan"}, "lon": -77.02984366666666, "name": "294cf8a84f3deb69dc73af7cc84c6382", "lat": 38.9072925, "is_reserved": 0, "fusion_lat": 0.0, "bike_id": "294cf8a84f3deb69dc73af7cc84c6382", "type": "electric_scooter", "is_disabled": 0, "fusion_lon": 0.0}, {"rental_uris": {"android": "https://dc.lft.to/lastmile_qr_scan", "ios": "https://dc.lft.to/lastmile_qr_scan"}, "lon": -77.03780533333334, "name": "a9c17611f8b4b2ab80abf3220f94b27f", "lat": 38.99665483333333, "is_reserved": 0, "fusion_lat": 0.0, "bike_id": "a9c17611f8b4b2ab80abf3220f94b27f", "type": "electric_bike", "is_disabled": 0, "fusion_lon": 0.0}, {"rental_uris": {"android": "https://dc.lft.to/lastmile_qr_scan", "ios": "https://dc.lft.to/lastmile_qr_scan"}, "lon": -77.03052716666667, "name": "d706f795d03d381e4c0b22a2dedfc513", "lat": 38.90245916666667, "is_reserved": 0, "fusion_lat": 0.0, "bike_id": "d706f795d03d381e4c0b22a2dedfc513", "type": "electric_scooter", "is_disabled": 0, "fusion_lon": 0.0}, {"rental_uris": {"android": "https://dc.lft.to/lastmile_qr_scan", "ios": "https://dc.lft.to/lastmile_qr_scan"}, "lon": -77.02697766666667, "name": "447c80f3bb78ad0b48f1277b283c2d34", "lat": 38.89750383333333, "is_reserved": 0, "fusion_lat": 0.0, "bike_id": "447c80f3bb78ad0b48f1277b283c2d34", "type": "electric_scooter", "is_disabled": 0, "fusion_lon": 0.0}, {"rental_uris": {"android": "https://dc.lft.to/lastmile_qr_scan", "ios": "https://dc.lft.to/lastmile_qr_scan"}, "lon": -77.013897, "name": "fbe7181f04f38cdfe5747c12ac1598d0", "lat": 38.942276, "is_reserved": 0, "fusion_lat": 0.0, "bike_id": "fbe7181f04f38cdfe5747c12ac1598d0", "type": "electric_scooter", "is_disabled": 0, "fusion_lon": 0.0}, {"rental_uris": {"android": "https://dc.lft.to/lastmile_qr_scan", "ios": "https://dc.lft.to/lastmile_qr_scan"}, "lon": -77.04878833333333, "name": "d1014b7d6d66c6ebefdc2c73640cc29d", "lat": 38.912313, "is_reserved": 0, "fusion_lat": 0.0, "bike_id": "d1014b7d6d66c6ebefdc2c73640cc29d", "type": "electric_scooter", "is_disabled": 0, "fusion_lon": 0.0}, {"rental_uris": {"android": "https://dc.lft.to/lastmile_qr_scan", "ios": "https://dc.lft.to/lastmile_qr_scan"}, "lon": -77.03261033333334, "name": "0713ad62511c2d4f247d2866675b9d91", "lat": 38.911144, "is_reserved": 0, "fusion_lat": 0.0, "bike_id": "0713ad62511c2d4f247d2866675b9d91", "type": "electric_scooter", "is_disabled": 0, "fusion_lon": 0.0}, {"rental_uris": {"android": "https://dc.lft.to/lastmile_qr_scan", "ios": "https://dc.lft.to/lastmile_qr_scan"}, "lon": -77.01294766666666, "name": "e977703d1d0d13e4a0745b0ddbba7414", "lat": 39.003831166666664, "is_reserved": 0, "fusion_lat": 0.0, "bike_id": "e977703d1d0d13e4a0745b0ddbba7414", "type": "electric_bike", "is_disabled": 0, "fusion_lon": 0.0}, {"rental_uris": {"android": "https://dc.lft.to/lastmile_qr_scan", "ios": "https://dc.lft.to/lastmile_qr_scan"}, "lon": -77.0217615, "name": "626434c1db7f4d24411f8a73700c4edd", "lat": 38.9144485, "is_reserved": 0, "fusion_lat": 0.0, "bike_id": "626434c1db7f4d24411f8a73700c4edd", "type": "electric_scooter", "is_disabled": 0, "fusion_lon": 0.0}, {"rental_uris": {"android": "https://dc.lft.to/lastmile_qr_scan", "ios": "https://dc.lft.to/lastmile_qr_scan"}, "lon": -77.06360916666667, "name": "f6351d322f8de6a6083c50b274bcfab7", "lat": 38.94436866666667, "is_reserved": 0, "fusion_lat": 0.0, "bike_id": "f6351d322f8de6a6083c50b274bcfab7", "type": "electric_scooter", "is_disabled": 0, "fusion_lon": 0.0}, {"rental_uris": {"android": "https://dc.lft.to/lastmile_qr_scan", "ios": "https://dc.lft.to/lastmile_qr_scan"}, "lon": -77.05032, "name": "f9a21b2ca9ee67680e826fc484ed909b", "lat": 38.92365233333334, "is_reserved": 0, "fusion_lat": 0.0, "bike_id": "f9a21b2ca9ee67680e826fc484ed909b", "type": "electric_scooter", "is_disabled": 0, "fusion_lon": 0.0}, {"rental_uris": {"android": "https://dc.lft.to/lastmile_qr_scan", "ios": "https://dc.lft.to/lastmile_qr_scan"}, "lon": -76.98361366666667, "name": "4aac4c276ea0021fa9d097bbb14d1619", "lat": 38.882936, "is_reserved": 0, "fusion_lat": 0.0, "bike_id": "4aac4c276ea0021fa9d097bbb14d1619", "type": "electric_scooter", "is_disabled": 0, "fusion_lon": 0.0}, {"rental_uris": {"android": "https://dc.lft.to/lastmile_qr_scan", "ios": "https://dc.lft.to/lastmile_qr_scan"}, "lon": -77.05993483333333, "name": "f66cd733c553ba14ef2c68b1fe5db6e5", "lat": 38.93635316666666, "is_reserved": 0, "fusion_lat": 0.0, "bike_id": "f66cd733c553ba14ef2c68b1fe5db6e5", "type": "electric_scooter", "is_disabled": 0, "fusion_lon": 0.0}, {"rental_uris": {"android": "https://dc.lft.to/lastmile_qr_scan", "ios": "https://dc.lft.to/lastmile_qr_scan"}, "lon": -77.01413166666667, "name": "940e959963d9a6901b31d57c5091218f", "lat": 38.895996, "is_reserved": 0, "fusion_lat": 0.0, "bike_id": "940e959963d9a6901b31d57c5091218f", "type": "electric_scooter", "is_disabled": 0, "fusion_lon": 0.0}, {"rental_uris": {"android": "https://dc.lft.to/lastmile_qr_scan", "ios": "https://dc.lft.to/lastmile_qr_scan"}, "lon": -77.015547, "name": "ab9070443ac49ff712d2e9293d8d295f", "lat": 38.92678733333333, "is_reserved": 0, "fusion_lat": 0.0, "bike_id": "ab9070443ac49ff712d2e9293d8d295f", "type": "electric_scooter", "is_disabled": 0, "fusion_lon": 0.0}, {"rental_uris": {"android": "https://dc.lft.to/lastmile_qr_scan", "ios": "https://dc.lft.to/lastmile_qr_scan"}, "lon": -77.01350883333333, "name": "f529863da12d0bb87b1b72b8dc0df352", "lat": 38.91848866666667, "is_reserved": 0, "fusion_lat": 0.0, "bike_id": "f529863da12d0bb87b1b72b8dc0df352", "type": "electric_scooter", "is_disabled": 0, "fusion_lon": 0.0}, {"rental_uris": {"android": "https://dc.lft.to/lastmile_qr_scan", "ios": "https://dc.lft.to/lastmile_qr_scan"}, "lon": -77.02718316666666, "name": "5632ad0d2f0058a23ce471d4df415a75", "lat": 38.926399333333336, "is_reserved": 0, "fusion_lat": 0.0, "bike_id": "5632ad0d2f0058a23ce471d4df415a75", "type": "electric_scooter", "is_disabled": 0, "fusion_lon": 0.0}, {"rental_uris": {"android": "https://dc.lft.to/lastmile_qr_scan", "ios": "https://dc.lft.to/lastmile_qr_scan"}, "lon": -77.0004665, "name": "2b186380e638c78516b16efeb0b63634", "lat": 38.87432533333333, "is_reserved": 0, "fusion_lat": 0.0, "bike_id": "2b186380e638c78516b16efeb0b63634", "type": "electric_scooter", "is_disabled": 0, "fusion_lon": 0.0}, {"rental_uris": {"android": "https://dc.lft.to/lastmile_qr_scan", "ios": "https://dc.lft.to/lastmile_qr_scan"}, "lon": -77.01194016666666, "name": "bfb39ac6dda7018adf12c8d0033418be", "lat": 38.92761516666667, "is_reserved": 0, "fusion_lat": 0.0, "bike_id": "bfb39ac6dda7018adf12c8d0033418be", "type": "electric_scooter", "is_disabled": 0, "fusion_lon": 0.0}, {"rental_uris": {"android": "https://dc.lft.to/lastmile_qr_scan", "ios": "https://dc.lft.to/lastmile_qr_scan"}, "lon": -77.06093166666666, "name": "50f34a93494ca199a09e0f10245e3704", "lat": 38.905206666666665, "is_reserved": 0, "fusion_lat": 0.0, "bike_id": "50f34a93494ca199a09e0f10245e3704", "type": "electric_scooter", "is_disabled": 0, "fusion_lon": 0.0}, {"rental_uris": {"android": "https://dc.lft.to/lastmile_qr_scan", "ios": "https://dc.lft.to/lastmile_qr_scan"}, "lon": -77.0448195, "name": "4a9c155077b19212301b3250e4831837", "lat": 38.9036875, "is_reserved": 0, "fusion_lat": 0.0, "bike_id": "4a9c155077b19212301b3250e4831837", "type": "electric_scooter", "is_disabled": 0, "fusion_lon": 0.0}, {"rental_uris": {"android": "https://dc.lft.to/lastmile_qr_scan", "ios": "https://dc.lft.to/lastmile_qr_scan"}, "lon": -77.02482216666667, "name": "4aed482a757790058b1a45520cbe44d3", "lat": 38.88296483333333, "is_reserved": 0, "fusion_lat": 0.0, "bike_id": "4aed482a757790058b1a45520cbe44d3", "type": "electric_scooter", "is_disabled": 0, "fusion_lon": 0.0}, {"rental_uris": {"android": "https://dc.lft.to/lastmile_qr_scan", "ios": "https://dc.lft.to/lastmile_qr_scan"}, "lon": -77.22927583333333, "name": "41330b37704baecdc0536ed9b1abffc1", "lat": 38.931892166666664, "is_reserved": 0, "fusion_lat": 0.0, "bike_id": "41330b37704baecdc0536ed9b1abffc1", "type": "electric_bike", "is_disabled": 0, "fusion_lon": 0.0}, {"rental_uris": {"android": "https://dc.lft.to/lastmile_qr_scan", "ios": "https://dc.lft.to/lastmile_qr_scan"}, "lon": -77.0159105, "name": "c05567b5b16292d61ad74fcb671f8680", "lat": 38.927146, "is_reserved": 0, "fusion_lat": 0.0, "bike_id": "c05567b5b16292d61ad74fcb671f8680", "type": "electric_scooter", "is_disabled": 0, "fusion_lon": 0.0}, {"rental_uris": {"android": "https://dc.lft.to/lastmile_qr_scan", "ios": "https://dc.lft.to/lastmile_qr_scan"}, "lon": -77.05107016666666, "name": "f858d983cd965a638d12874246a3464c", "lat": 38.896788, "is_reserved": 0, "fusion_lat": 0.0, "bike_id": "f858d983cd965a638d12874246a3464c", "type": "electric_scooter", "is_disabled": 0, "fusion_lon": 0.0}, {"rental_uris": {"android": "https://dc.lft.to/lastmile_qr_scan", "ios": "https://dc.lft.to/lastmile_qr_scan"}, "lon": -77.03177533333333, "name": "be06fd3daffe29974c48fd54a2127b94", "lat": 38.916382666666664, "is_reserved": 0, "fusion_lat": 0.0, "bike_id": "be06fd3daffe29974c48fd54a2127b94", "type": "electric_scooter", "is_disabled": 0, "fusion_lon": 0.0}, {"rental_uris": {"android": "https://dc.lft.to/lastmile_qr_scan", "ios": "https://dc.lft.to/lastmile_qr_scan"}, "lon": -77.05090266666667, "name": "d33c15234d5554c9a181ecedfe4ed802", "lat": 38.813295333333336, "is_reserved": 0, "fusion_lat": 0.0, "bike_id": "d33c15234d5554c9a181ecedfe4ed802", "type": "electric_bike", "is_disabled": 0, "fusion_lon": 0.0}, {"rental_uris": {"android": "https://dc.lft.to/lastmile_qr_scan", "ios": "https://dc.lft.to/lastmile_qr_scan"}, "lon": -77.02562016666667, "name": "460b0169a23671e2bc0d51b8b9824e81", "lat": 38.923851166666665, "is_reserved": 0, "fusion_lat": 0.0, "bike_id": "460b0169a23671e2bc0d51b8b9824e81", "type": "electric_scooter", "is_disabled": 0, "fusion_lon": 0.0}, {"rental_uris": {"android": "https://dc.lft.to/lastmile_qr_scan", "ios": "https://dc.lft.to/lastmile_qr_scan"}, "lon": -77.0199045, "name": "59449021d40288546aaca22eb11a1442", "lat": 38.88366766666667, "is_reserved": 0, "fusion_lat": 0.0, "bike_id": "59449021d40288546aaca22eb11a1442", "type": "electric_scooter", "is_disabled": 0, "fusion_lon": 0.0}, {"rental_uris": {"android": "https://dc.lft.to/lastmile_qr_scan", "ios": "https://dc.lft.to/lastmile_qr_scan"}, "lon": -77.03361166666667, "name": "aee4733ac5ffc0a56ebc08b6ff849300", "lat": 38.93230533333333, "is_reserved": 0, "fusion_lat": 0.0, "bike_id": "aee4733ac5ffc0a56ebc08b6ff849300", "type": "electric_scooter", "is_disabled": 0, "fusion_lon": 0.0}, {"rental_uris": {"android": "https://dc.lft.to/lastmile_qr_scan", "ios": "https://dc.lft.to/lastmile_qr_scan"}, "lon": -76.99857, "name": "179400ccfd8e39ac53b7e1dc130fb7ea", "lat": 38.907721, "is_reserved": 0, "fusion_lat": 0.0, "bike_id": "179400ccfd8e39ac53b7e1dc130fb7ea", "type": "electric_scooter", "is_disabled": 0, "fusion_lon": 0.0}, {"rental_uris": {"android": "https://dc.lft.to/lastmile_qr_scan", "ios": "https://dc.lft.to/lastmile_qr_scan"}, "lon": -77.02177966666666, "name": "10e343b50b76b6754aaf19e72cfd15bf", "lat": 38.91470733333333, "is_reserved": 0, "fusion_lat": 0.0, "bike_id": "10e343b50b76b6754aaf19e72cfd15bf", "type": "electric_scooter", "is_disabled": 0, "fusion_lon": 0.0}, {"rental_uris": {"android": "https://dc.lft.to/lastmile_qr_scan", "ios": "https://dc.lft.to/lastmile_qr_scan"}, "lon": -77.047008, "name": "ddd829d4b34009e668a5198b350bb151", "lat": 38.921749166666665, "is_reserved": 0, "fusion_lat": 0.0, "bike_id": "ddd829d4b34009e668a5198b350bb151", "type": "electric_scooter", "is_disabled": 0, "fusion_lon": 0.0}, {"rental_uris": {"android": "https://dc.lft.to/lastmile_qr_scan", "ios": "https://dc.lft.to/lastmile_qr_scan"}, "lon": -77.02679783333333, "name": "4818758bef40e739db67350f9b9c5370", "lat": 38.9072495, "is_reserved": 0, "fusion_lat": 0.0, "bike_id": "4818758bef40e739db67350f9b9c5370", "type": "electric_scooter", "is_disabled": 0, "fusion_lon": 0.0}, {"rental_uris": {"android": "https://dc.lft.to/lastmile_qr_scan", "ios": "https://dc.lft.to/lastmile_qr_scan"}, "lon": -77.0317365, "name": "e1cdafe44fb74e6aa66d64d87293c231", "lat": 38.89323433333333, "is_reserved": 0, "fusion_lat": 0.0, "bike_id": "e1cdafe44fb74e6aa66d64d87293c231", "type": "electric_scooter", "is_disabled": 0, "fusion_lon": 0.0}, {"rental_uris": {"android": "https://dc.lft.to/lastmile_qr_scan", "ios": "https://dc.lft.to/lastmile_qr_scan"}, "lon": -77.06330416666667, "name": "407c608212e07c114167f93faa6e0848", "lat": 38.921042166666666, "is_reserved": 0, "fusion_lat": 0.0, "bike_id": "407c608212e07c114167f93faa6e0848", "type": "electric_scooter", "is_disabled": 0, "fusion_lon": 0.0}, {"rental_uris": {"android": "https://dc.lft.to/lastmile_qr_scan", "ios": "https://dc.lft.to/lastmile_qr_scan"}, "lon": -77.0233735, "name": "e75378a9addfced5949c8adc9e1df23a", "lat": 38.93118966666667, "is_reserved": 0, "fusion_lat": 0.0, "bike_id": "e75378a9addfced5949c8adc9e1df23a", "type": "electric_scooter", "is_disabled": 0, "fusion_lon": 0.0}, {"rental_uris": {"android": "https://dc.lft.to/lastmile_qr_scan", "ios": "https://dc.lft.to/lastmile_qr_scan"}, "lon": -77.0688395, "name": "665cd5c4873cb4dee73ebdf0a9d0d1df", "lat": 38.90502883333333, "is_reserved": 0, "fusion_lat": 0.0, "bike_id": "665cd5c4873cb4dee73ebdf0a9d0d1df", "type": "electric_scooter", "is_disabled": 0, "fusion_lon": 0.0}, {"rental_uris": {"android": "https://dc.lft.to/lastmile_qr_scan", "ios": "https://dc.lft.to/lastmile_qr_scan"}, "lon": -77.03180233333333, "name": "33c0fce721e268b07b9073b695229708", "lat": 38.90729833333333, "is_reserved": 0, "fusion_lat": 0.0, "bike_id": "33c0fce721e268b07b9073b695229708", "type": "electric_scooter", "is_disabled": 0, "fusion_lon": 0.0}, {"rental_uris": {"android": "https://dc.lft.to/lastmile_qr_scan", "ios": "https://dc.lft.to/lastmile_qr_scan"}, "lon": -77.01208433333333, "name": "4dee647a5ae8173f7e3e44222d60098c", "lat": 38.919009833333334, "is_reserved": 0, "fusion_lat": 0.0, "bike_id": "4dee647a5ae8173f7e3e44222d60098c", "type": "electric_scooter", "is_disabled": 0, "fusion_lon": 0.0}, {"rental_uris": {"android": "https://dc.lft.to/lastmile_qr_scan", "ios": "https://dc.lft.to/lastmile_qr_scan"}, "lon": -77.01755283333334, "name": "82b92a721655f309e7064170a8e15636", "lat": 38.89470883333333, "is_reserved": 0, "fusion_lat": 0.0, "bike_id": "82b92a721655f309e7064170a8e15636", "type": "electric_scooter", "is_disabled": 0, "fusion_lon": 0.0}, {"rental_uris": {"android": "https://dc.lft.to/lastmile_qr_scan", "ios": "https://dc.lft.to/lastmile_qr_scan"}, "lon": -76.990001, "name": "add69e29fa95767ab387d77a98c47548", "lat": 38.86503916666667, "is_reserved": 0, "fusion_lat": 0.0, "bike_id": "add69e29fa95767ab387d77a98c47548", "type": "electric_scooter", "is_disabled": 0, "fusion_lon": 0.0}, {"rental_uris": {"android": "https://dc.lft.to/lastmile_qr_scan", "ios": "https://dc.lft.to/lastmile_qr_scan"}, "lon": -77.03803766666667, "name": "fcbc9a7d1685b70a758d8bdefeb2d5e0", "lat": 38.90139516666667, "is_reserved": 0, "fusion_lat": 0.0, "bike_id": "fcbc9a7d1685b70a758d8bdefeb2d5e0", "type": "electric_scooter", "is_disabled": 0, "fusion_lon": 0.0}, {"rental_uris": {"android": "https://dc.lft.to/lastmile_qr_scan", "ios": "https://dc.lft.to/lastmile_qr_scan"}, "lon": -77.0240865, "name": "f0c63b49afdc135bb956c7fa7b0580fc", "lat": 38.916895833333335, "is_reserved": 0, "fusion_lat": 0.0, "bike_id": "f0c63b49afdc135bb956c7fa7b0580fc", "type": "electric_scooter", "is_disabled": 0, "fusion_lon": 0.0}, {"rental_uris": {"android": "https://dc.lft.to/lastmile_qr_scan", "ios": "https://dc.lft.to/lastmile_qr_scan"}, "lon": -77.02418316666666, "name": "3276cc6db03fcca4646257b3b961b0fb", "lat": 38.91141916666667, "is_reserved": 0, "fusion_lat": 0.0, "bike_id": "3276cc6db03fcca4646257b3b961b0fb", "type": "electric_scooter", "is_disabled": 0, "fusion_lon": 0.0}, {"rental_uris": {"android": "https://dc.lft.to/lastmile_qr_scan", "ios": "https://dc.lft.to/lastmile_qr_scan"}, "lon": -77.0315135, "name": "247d167312f249576adf2f9dd98f216a", "lat": 38.92790566666667, "is_reserved": 0, "fusion_lat": 0.0, "bike_id": "247d167312f249576adf2f9dd98f216a", "type": "electric_scooter", "is_disabled": 0, "fusion_lon": 0.0}, {"rental_uris": {"android": "https://dc.lft.to/lastmile_qr_scan", "ios": "https://dc.lft.to/lastmile_qr_scan"}, "lon": -76.98791933333334, "name": "e901d60ac26fd09cefb401783454447b", "lat": 38.9123845, "is_reserved": 0, "fusion_lat": 0.0, "bike_id": "e901d60ac26fd09cefb401783454447b", "type": "electric_scooter", "is_disabled": 0, "fusion_lon": 0.0}, {"rental_uris": {"android": "https://dc.lft.to/lastmile_qr_scan", "ios": "https://dc.lft.to/lastmile_qr_scan"}, "lon": -77.018112, "name": "c76be61cdc927ece27c107f1ede8994b", "lat": 38.97377266666667, "is_reserved": 0, "fusion_lat": 0.0, "bike_id": "c76be61cdc927ece27c107f1ede8994b", "type": "electric_scooter", "is_disabled": 0, "fusion_lon": 0.0}, {"rental_uris": {"android": "https://dc.lft.to/lastmile_qr_scan", "ios": "https://dc.lft.to/lastmile_qr_scan"}, "lon": -77.02960783333333, "name": "cb6c1f5fb6b5fc248410cab50e4a9acc", "lat": 38.905000666666666, "is_reserved": 0, "fusion_lat": 0.0, "bike_id": "cb6c1f5fb6b5fc248410cab50e4a9acc", "type": "electric_scooter", "is_disabled": 0, "fusion_lon": 0.0}, {"rental_uris": {"android": "https://dc.lft.to/lastmile_qr_scan", "ios": "https://dc.lft.to/lastmile_qr_scan"}, "lon": -77.0328585, "name": "c1fa43a94fd9f592511cf2def9b24f79", "lat": 38.90289166666667, "is_reserved": 0, "fusion_lat": 0.0, "bike_id": "c1fa43a94fd9f592511cf2def9b24f79", "type": "electric_scooter", "is_disabled": 0, "fusion_lon": 0.0}, {"rental_uris": {"android": "https://dc.lft.to/lastmile_qr_scan", "ios": "https://dc.lft.to/lastmile_qr_scan"}, "lon": -77.0309195, "name": "f1c2f455fcbf4d3a3d7bfe5caa4aa7ef", "lat": 38.923745333333336, "is_reserved": 0, "fusion_lat": 0.0, "bike_id": "f1c2f455fcbf4d3a3d7bfe5caa4aa7ef", "type": "electric_scooter", "is_disabled": 0, "fusion_lon": 0.0}, {"rental_uris": {"android": "https://dc.lft.to/lastmile_qr_scan", "ios": "https://dc.lft.to/lastmile_qr_scan"}, "lon": -77.03646233333333, "name": "5bc94fcbcc7fc2d05daaa727654cfc90", "lat": 38.91733383333333, "is_reserved": 0, "fusion_lat": 0.0, "bike_id": "5bc94fcbcc7fc2d05daaa727654cfc90", "type": "electric_scooter", "is_disabled": 0, "fusion_lon": 0.0}, {"rental_uris": {"android": "https://dc.lft.to/lastmile_qr_scan", "ios": "https://dc.lft.to/lastmile_qr_scan"}, "lon": -76.93126066666666, "name": "906fdc9dc781e0d203e658389928b518", "lat": 38.8978775, "is_reserved": 0, "fusion_lat": 0.0, "bike_id": "906fdc9dc781e0d203e658389928b518", "type": "electric_scooter", "is_disabled": 0, "fusion_lon": 0.0}, {"rental_uris": {"android": "https://dc.lft.to/lastmile_qr_scan", "ios": "https://dc.lft.to/lastmile_qr_scan"}, "lon": -77.0161365, "name": "564bc7f8f316ff70a875ab1350a4c09d", "lat": 38.90373183333333, "is_reserved": 0, "fusion_lat": 0.0, "bike_id": "564bc7f8f316ff70a875ab1350a4c09d", "type": "electric_scooter", "is_disabled": 0, "fusion_lon": 0.0}, {"rental_uris": {"android": "https://dc.lft.to/lastmile_qr_scan", "ios": "https://dc.lft.to/lastmile_qr_scan"}, "lon": -77.043774, "name": "b6534cbb152fe904cf31150eadb7f66b", "lat": 38.89222383333333, "is_reserved": 0, "fusion_lat": 0.0, "bike_id": "b6534cbb152fe904cf31150eadb7f66b", "type": "electric_scooter", "is_disabled": 0, "fusion_lon": 0.0}, {"rental_uris": {"android": "https://dc.lft.to/lastmile_qr_scan", "ios": "https://dc.lft.to/lastmile_qr_scan"}, "lon": -77.03865816666666, "name": "662a259957372ab6a98b1d6b06335d1b", "lat": 38.90783783333333, "is_reserved": 0, "fusion_lat": 0.0, "bike_id": "662a259957372ab6a98b1d6b06335d1b", "type": "electric_scooter", "is_disabled": 0, "fusion_lon": 0.0}, {"rental_uris": {"android": "https://dc.lft.to/lastmile_qr_scan", "ios": "https://dc.lft.to/lastmile_qr_scan"}, "lon": -77.06194616666667, "name": "aa69d72b7cdc9c527bcd5d037c8975f9", "lat": 38.91850216666667, "is_reserved": 0, "fusion_lat": 0.0, "bike_id": "aa69d72b7cdc9c527bcd5d037c8975f9", "type": "electric_scooter", "is_disabled": 0, "fusion_lon": 0.0}, {"rental_uris": {"android": "https://dc.lft.to/lastmile_qr_scan", "ios": "https://dc.lft.to/lastmile_qr_scan"}, "lon": -77.02036583333333, "name": "c4e065d03128ac2975caa8dbeee8c169", "lat": 38.9208885, "is_reserved": 0, "fusion_lat": 0.0, "bike_id": "c4e065d03128ac2975caa8dbeee8c169", "type": "electric_scooter", "is_disabled": 0, "fusion_lon": 0.0}, {"rental_uris": {"android": "https://dc.lft.to/lastmile_qr_scan", "ios": "https://dc.lft.to/lastmile_qr_scan"}, "lon": -76.99910733333333, "name": "6eee1d1dfac7ef1f00451c7dd1208cd0", "lat": 38.9091455, "is_reserved": 0, "fusion_lat": 0.0, "bike_id": "6eee1d1dfac7ef1f00451c7dd1208cd0", "type": "electric_scooter", "is_disabled": 0, "fusion_lon": 0.0}, {"rental_uris": {"android": "https://dc.lft.to/lastmile_qr_scan", "ios": "https://dc.lft.to/lastmile_qr_scan"}, "lon": -76.99777133333333, "name": "f8656eb6138f40614f4a0ccdb32c2073", "lat": 38.96151866666666, "is_reserved": 0, "fusion_lat": 0.0, "bike_id": "f8656eb6138f40614f4a0ccdb32c2073", "type": "electric_scooter", "is_disabled": 0, "fusion_lon": 0.0}, {"rental_uris": {"android": "https://dc.lft.to/lastmile_qr_scan", "ios": "https://dc.lft.to/lastmile_qr_scan"}, "lon": -77.0386045, "name": "e8a693c7c886ba15491cf2f726fb90b9", "lat": 38.912554666666665, "is_reserved": 0, "fusion_lat": 0.0, "bike_id": "e8a693c7c886ba15491cf2f726fb90b9", "type": "electric_scooter", "is_disabled": 0, "fusion_lon": 0.0}, {"rental_uris": {"android": "https://dc.lft.to/lastmile_qr_scan", "ios": "https://dc.lft.to/lastmile_qr_scan"}, "lon": -77.090526, "name": "4525c3bc63d6b2c3d68b33dd1e6140f6", "lat": 38.94253116666667, "is_reserved": 0, "fusion_lat": 0.0, "bike_id": "4525c3bc63d6b2c3d68b33dd1e6140f6", "type": "electric_scooter", "is_disabled": 0, "fusion_lon": 0.0}, {"rental_uris": {"android": "https://dc.lft.to/lastmile_qr_scan", "ios": "https://dc.lft.to/lastmile_qr_scan"}, "lon": -77.04475333333333, "name": "28729b2291ebe48f448a0777c32401a8", "lat": 38.93050183333333, "is_reserved": 0, "fusion_lat": 0.0, "bike_id": "28729b2291ebe48f448a0777c32401a8", "type": "electric_scooter", "is_disabled": 0, "fusion_lon": 0.0}, {"rental_uris": {"android": "https://dc.lft.to/lastmile_qr_scan", "ios": "https://dc.lft.to/lastmile_qr_scan"}, "lon": -76.98543116666667, "name": "b60badfd45226963c2bd3dc34a51b814", "lat": 38.86686916666667, "is_reserved": 0, "fusion_lat": 0.0, "bike_id": "b60badfd45226963c2bd3dc34a51b814", "type": "electric_scooter", "is_disabled": 0, "fusion_lon": 0.0}, {"rental_uris": {"android": "https://dc.lft.to/lastmile_qr_scan", "ios": "https://dc.lft.to/lastmile_qr_scan"}, "lon": -77.03213066666666, "name": "d520d2f8561ccdfcf15593c3fbc14a19", "lat": 38.89235166666667, "is_reserved": 0, "fusion_lat": 0.0, "bike_id": "d520d2f8561ccdfcf15593c3fbc14a19", "type": "electric_scooter", "is_disabled": 0, "fusion_lon": 0.0}, {"rental_uris": {"android": "https://dc.lft.to/lastmile_qr_scan", "ios": "https://dc.lft.to/lastmile_qr_scan"}, "lon": -77.030432, "name": "9b831cc36b795a0b09134d5fc29fa3d0", "lat": 38.93117783333334, "is_reserved": 0, "fusion_lat": 0.0, "bike_id": "9b831cc36b795a0b09134d5fc29fa3d0", "type": "electric_scooter", "is_disabled": 0, "fusion_lon": 0.0}, {"rental_uris": {"android": "https://dc.lft.to/lastmile_qr_scan", "ios": "https://dc.lft.to/lastmile_qr_scan"}, "lon": -77.04337333333334, "name": "bf254aea613115f279b85b7cfdf6f5ad", "lat": 38.90394233333333, "is_reserved": 0, "fusion_lat": 0.0, "bike_id": "bf254aea613115f279b85b7cfdf6f5ad", "type": "electric_scooter", "is_disabled": 0, "fusion_lon": 0.0}, {"rental_uris": {"android": "https://dc.lft.to/lastmile_qr_scan", "ios": "https://dc.lft.to/lastmile_qr_scan"}, "lon": -77.001963, "name": "42b730a4cac9c3afe8796777bf4dcd0d", "lat": 38.94148633333333, "is_reserved": 0, "fusion_lat": 0.0, "bike_id": "42b730a4cac9c3afe8796777bf4dcd0d", "type": "electric_bike", "is_disabled": 0, "fusion_lon": 0.0}, {"rental_uris": {"android": "https://dc.lft.to/lastmile_qr_scan", "ios": "https://dc.lft.to/lastmile_qr_scan"}, "lon": -77.02168933333333, "name": "cdee65180d00c3ecf969272a0c7ca080", "lat": 38.92506266666667, "is_reserved": 0, "fusion_lat": 0.0, "bike_id": "cdee65180d00c3ecf969272a0c7ca080", "type": "electric_scooter", "is_disabled": 0, "fusion_lon": 0.0}, {"rental_uris": {"android": "https://dc.lft.to/lastmile_qr_scan", "ios": "https://dc.lft.to/lastmile_qr_scan"}, "lon": -77.005983, "name": "adc5d630945430aac34ef500387ff151", "lat": 38.905572666666664, "is_reserved": 0, "fusion_lat": 0.0, "bike_id": "adc5d630945430aac34ef500387ff151", "type": "electric_scooter", "is_disabled": 0, "fusion_lon": 0.0}, {"rental_uris": {"android": "https://dc.lft.to/lastmile_qr_scan", "ios": "https://dc.lft.to/lastmile_qr_scan"}, "lon": -76.95691516666666, "name": "ce59b92aa5239a1035a68964104279aa", "lat": 38.892252166666665, "is_reserved": 0, "fusion_lat": 0.0, "bike_id": "ce59b92aa5239a1035a68964104279aa", "type": "electric_scooter", "is_disabled": 0, "fusion_lon": 0.0}, {"rental_uris": {"android": "https://dc.lft.to/lastmile_qr_scan", "ios": "https://dc.lft.to/lastmile_qr_scan"}, "lon": -77.01413183333334, "name": "2c177ce8b7beb4a74beec74cb3c42f0e", "lat": 38.905151333333336, "is_reserved": 0, "fusion_lat": 0.0, "bike_id": "2c177ce8b7beb4a74beec74cb3c42f0e", "type": "electric_scooter", "is_disabled": 0, "fusion_lon": 0.0}, {"rental_uris": {"android": "https://dc.lft.to/lastmile_qr_scan", "ios": "https://dc.lft.to/lastmile_qr_scan"}, "lon": -76.94442783333334, "name": "e7fa177ac46469d2869c87a74aa66b1f", "lat": 38.9922645, "is_reserved": 0, "fusion_lat": 0.0, "bike_id": "e7fa177ac46469d2869c87a74aa66b1f", "type": "electric_bike", "is_disabled": 0, "fusion_lon": 0.0}, {"rental_uris": {"android": "https://dc.lft.to/lastmile_qr_scan", "ios": "https://dc.lft.to/lastmile_qr_scan"}, "lon": -77.04394816666667, "name": "df68293a95cf31898e531c8d739c6776", "lat": 38.913437333333334, "is_reserved": 0, "fusion_lat": 0.0, "bike_id": "df68293a95cf31898e531c8d739c6776", "type": "electric_scooter", "is_disabled": 0, "fusion_lon": 0.0}, {"rental_uris": {"android": "https://dc.lft.to/lastmile_qr_scan", "ios": "https://dc.lft.to/lastmile_qr_scan"}, "lon": -77.02574083333333, "name": "a1601d23f0daf16baea773e1e749bd18", "lat": 38.9204525, "is_reserved": 0, "fusion_lat": 0.0, "bike_id": "a1601d23f0daf16baea773e1e749bd18", "type": "electric_scooter", "is_disabled": 0, "fusion_lon": 0.0}, {"rental_uris": {"android": "https://dc.lft.to/lastmile_qr_scan", "ios": "https://dc.lft.to/lastmile_qr_scan"}, "lon": -77.0256855, "name": "e3e55e412b17d2596f9ee14541856807", "lat": 38.895598166666666, "is_reserved": 0, "fusion_lat": 0.0, "bike_id": "e3e55e412b17d2596f9ee14541856807", "type": "electric_scooter", "is_disabled": 0, "fusion_lon": 0.0}, {"rental_uris": {"android": "https://dc.lft.to/lastmile_qr_scan", "ios": "https://dc.lft.to/lastmile_qr_scan"}, "lon": -77.0116925, "name": "059dfef420e0e56126bc3a129c033c62", "lat": 38.921344, "is_reserved": 0, "fusion_lat": 0.0, "bike_id": "059dfef420e0e56126bc3a129c033c62", "type": "electric_scooter", "is_disabled": 0, "fusion_lon": 0.0}, {"rental_uris": {"android": "https://dc.lft.to/lastmile_qr_scan", "ios": "https://dc.lft.to/lastmile_qr_scan"}, "lon": -77.005426, "name": "0b80f5aa726a29622ad48f28b3aafab1", "lat": 38.90570533333333, "is_reserved": 0, "fusion_lat": 0.0, "bike_id": "0b80f5aa726a29622ad48f28b3aafab1", "type": "electric_scooter", "is_disabled": 0, "fusion_lon": 0.0}, {"rental_uris": {"android": "https://dc.lft.to/lastmile_qr_scan", "ios": "https://dc.lft.to/lastmile_qr_scan"}, "lon": -77.1203915, "name": "78da5ada293c2257aaadaf63aed17d94", "lat": 38.855186, "is_reserved": 0, "fusion_lat": 0.0, "bike_id": "78da5ada293c2257aaadaf63aed17d94", "type": "electric_bike", "is_disabled": 0, "fusion_lon": 0.0}, {"rental_uris": {"android": "https://dc.lft.to/lastmile_qr_scan", "ios": "https://dc.lft.to/lastmile_qr_scan"}, "lon": -76.99944066666667, "name": "7c167a2bef10ae4fafb65f7fe924f640", "lat": 38.940667166666664, "is_reserved": 0, "fusion_lat": 0.0, "bike_id": "7c167a2bef10ae4fafb65f7fe924f640", "type": "electric_scooter", "is_disabled": 0, "fusion_lon": 0.0}, {"rental_uris": {"android": "https://dc.lft.to/lastmile_qr_scan", "ios": "https://dc.lft.to/lastmile_qr_scan"}, "lon": -77.00865633333333, "name": "fc9f004fe585578bbcacde8886bd4337", "lat": 38.967431, "is_reserved": 0, "fusion_lat": 0.0, "bike_id": "fc9f004fe585578bbcacde8886bd4337", "type": "electric_scooter", "is_disabled": 0, "fusion_lon": 0.0}, {"rental_uris": {"android": "https://dc.lft.to/lastmile_qr_scan", "ios": "https://dc.lft.to/lastmile_qr_scan"}, "lon": -77.12018966666666, "name": "b2be61bf4cdd6cc177d601b4903c6480", "lat": 38.8578725, "is_reserved": 0, "fusion_lat": 0.0, "bike_id": "b2be61bf4cdd6cc177d601b4903c6480", "type": "electric_bike", "is_disabled": 0, "fusion_lon": 0.0}, {"rental_uris": {"android": "https://dc.lft.to/lastmile_qr_scan", "ios": "https://dc.lft.to/lastmile_qr_scan"}, "lon": -77.0455235, "name": "c808d4574db199400d60263d0d7fce5f", "lat": 38.919543166666664, "is_reserved": 0, "fusion_lat": 0.0, "bike_id": "c808d4574db199400d60263d0d7fce5f", "type": "electric_scooter", "is_disabled": 0, "fusion_lon": 0.0}, {"rental_uris": {"android": "https://dc.lft.to/lastmile_qr_scan", "ios": "https://dc.lft.to/lastmile_qr_scan"}, "lon": -77.04008466666667, "name": "05aa917adaade4ecff6f06c74975e5eb", "lat": 38.902923333333334, "is_reserved": 0, "fusion_lat": 0.0, "bike_id": "05aa917adaade4ecff6f06c74975e5eb", "type": "electric_scooter", "is_disabled": 0, "fusion_lon": 0.0}, {"rental_uris": {"android": "https://dc.lft.to/lastmile_qr_scan", "ios": "https://dc.lft.to/lastmile_qr_scan"}, "lon": -77.03321266666667, "name": "e998b8a310b9eefb411fd2643e13e458", "lat": 38.89838683333333, "is_reserved": 0, "fusion_lat": 0.0, "bike_id": "e998b8a310b9eefb411fd2643e13e458", "type": "electric_scooter", "is_disabled": 0, "fusion_lon": 0.0}, {"rental_uris": {"android": "https://dc.lft.to/lastmile_qr_scan", "ios": "https://dc.lft.to/lastmile_qr_scan"}, "lon": -77.00668383333333, "name": "13d90b99d20ef907d7799bf0ae41e5fa", "lat": 38.9450875, "is_reserved": 0, "fusion_lat": 0.0, "bike_id": "13d90b99d20ef907d7799bf0ae41e5fa", "type": "electric_bike", "is_disabled": 0, "fusion_lon": 0.0}, {"rental_uris": {"android": "https://dc.lft.to/lastmile_qr_scan", "ios": "https://dc.lft.to/lastmile_qr_scan"}, "lon": -77.012045, "name": "cf9456740c1d9858c03326a4c873a878", "lat": 38.89330833333333, "is_reserved": 0, "fusion_lat": 0.0, "bike_id": "cf9456740c1d9858c03326a4c873a878", "type": "electric_scooter", "is_disabled": 0, "fusion_lon": 0.0}, {"rental_uris": {"android": "https://dc.lft.to/lastmile_qr_scan", "ios": "https://dc.lft.to/lastmile_qr_scan"}, "lon": -77.0058435, "name": "aaa3d73ce04aa5e821d7e0f5dc1f7e3e", "lat": 38.906611, "is_reserved": 0, "fusion_lat": 0.0, "bike_id": "aaa3d73ce04aa5e821d7e0f5dc1f7e3e", "type": "electric_scooter", "is_disabled": 0, "fusion_lon": 0.0}, {"rental_uris": {"android": "https://dc.lft.to/lastmile_qr_scan", "ios": "https://dc.lft.to/lastmile_qr_scan"}, "lon": -77.04856816666667, "name": "1a3b1c537a16e85655c9c6d2935237a6", "lat": 38.91330633333333, "is_reserved": 0, "fusion_lat": 0.0, "bike_id": "1a3b1c537a16e85655c9c6d2935237a6", "type": "electric_scooter", "is_disabled": 0, "fusion_lon": 0.0}, {"rental_uris": {"android": "https://dc.lft.to/lastmile_qr_scan", "ios": "https://dc.lft.to/lastmile_qr_scan"}, "lon": -77.072279, "name": "a34795bddecf355c724285402b4bb8f3", "lat": 38.931847833333336, "is_reserved": 0, "fusion_lat": 0.0, "bike_id": "a34795bddecf355c724285402b4bb8f3", "type": "electric_scooter", "is_disabled": 0, "fusion_lon": 0.0}, {"rental_uris": {"android": "https://dc.lft.to/lastmile_qr_scan", "ios": "https://dc.lft.to/lastmile_qr_scan"}, "lon": -77.02121, "name": "d9dc7173a2b4c667925555c1bd524808", "lat": 38.9226895, "is_reserved": 0, "fusion_lat": 0.0, "bike_id": "d9dc7173a2b4c667925555c1bd524808", "type": "electric_scooter", "is_disabled": 0, "fusion_lon": 0.0}, {"rental_uris": {"android": "https://dc.lft.to/lastmile_qr_scan", "ios": "https://dc.lft.to/lastmile_qr_scan"}, "lon": -77.027908, "name": "b01adba006a293d2bb886f9ee7ee613b", "lat": 38.92970716666667, "is_reserved": 0, "fusion_lat": 0.0, "bike_id": "b01adba006a293d2bb886f9ee7ee613b", "type": "electric_scooter", "is_disabled": 0, "fusion_lon": 0.0}, {"rental_uris": {"android": "https://dc.lft.to/lastmile_qr_scan", "ios": "https://dc.lft.to/lastmile_qr_scan"}, "lon": -77.03539683333334, "name": "32a328f11a3c68a19b83fd5989ca2ddc", "lat": 38.923392666666665, "is_reserved": 0, "fusion_lat": 0.0, "bike_id": "32a328f11a3c68a19b83fd5989ca2ddc", "type": "electric_scooter", "is_disabled": 0, "fusion_lon": 0.0}, {"rental_uris": {"android": "https://dc.lft.to/lastmile_qr_scan", "ios": "https://dc.lft.to/lastmile_qr_scan"}, "lon": -77.06386716666667, "name": "0bddf4c3bd0ef732033fad40790305fc", "lat": 38.944116666666666, "is_reserved": 0, "fusion_lat": 0.0, "bike_id": "0bddf4c3bd0ef732033fad40790305fc", "type": "electric_scooter", "is_disabled": 0, "fusion_lon": 0.0}, {"rental_uris": {"android": "https://dc.lft.to/lastmile_qr_scan", "ios": "https://dc.lft.to/lastmile_qr_scan"}, "lon": -77.02691616666667, "name": "c67b29e1fe6bf797fb7241e285f7f99a", "lat": 38.90663133333334, "is_reserved": 0, "fusion_lat": 0.0, "bike_id": "c67b29e1fe6bf797fb7241e285f7f99a", "type": "electric_scooter", "is_disabled": 0, "fusion_lon": 0.0}, {"rental_uris": {"android": "https://dc.lft.to/lastmile_qr_scan", "ios": "https://dc.lft.to/lastmile_qr_scan"}, "lon": -77.03801483333334, "name": "b11d7954a96ea0a686eddfe9bcf229fa", "lat": 38.932171, "is_reserved": 0, "fusion_lat": 0.0, "bike_id": "b11d7954a96ea0a686eddfe9bcf229fa", "type": "electric_scooter", "is_disabled": 0, "fusion_lon": 0.0}, {"rental_uris": {"android": "https://dc.lft.to/lastmile_qr_scan", "ios": "https://dc.lft.to/lastmile_qr_scan"}, "lon": -77.0542835, "name": "0dff94077cbec28094d49a334ed2eb0e", "lat": 38.92845116666667, "is_reserved": 0, "fusion_lat": 0.0, "bike_id": "0dff94077cbec28094d49a334ed2eb0e", "type": "electric_scooter", "is_disabled": 0, "fusion_lon": 0.0}, {"rental_uris": {"android": "https://dc.lft.to/lastmile_qr_scan", "ios": "https://dc.lft.to/lastmile_qr_scan"}, "lon": -77.02633183333333, "name": "60a0831c46e91582281a3a0e6021a2bc", "lat": 38.89441083333333, "is_reserved": 0, "fusion_lat": 0.0, "bike_id": "60a0831c46e91582281a3a0e6021a2bc", "type": "electric_scooter", "is_disabled": 0, "fusion_lon": 0.0}, {"rental_uris": {"android": "https://dc.lft.to/lastmile_qr_scan", "ios": "https://dc.lft.to/lastmile_qr_scan"}, "lon": -77.03851933333333, "name": "736f8802d32cf55495641a80924c8f8a", "lat": 38.91775533333333, "is_reserved": 0, "fusion_lat": 0.0, "bike_id": "736f8802d32cf55495641a80924c8f8a", "type": "electric_scooter", "is_disabled": 0, "fusion_lon": 0.0}, {"rental_uris": {"android": "https://dc.lft.to/lastmile_qr_scan", "ios": "https://dc.lft.to/lastmile_qr_scan"}, "lon": -77.0319995, "name": "13f887a10b04aeff106916b3f97b775e", "lat": 38.92048833333333, "is_reserved": 0, "fusion_lat": 0.0, "bike_id": "13f887a10b04aeff106916b3f97b775e", "type": "electric_scooter", "is_disabled": 0, "fusion_lon": 0.0}, {"rental_uris": {"android": "https://dc.lft.to/lastmile_qr_scan", "ios": "https://dc.lft.to/lastmile_qr_scan"}, "lon": -76.99827666666667, "name": "fa6ccfa19168716514cef6b77f1ed89d", "lat": 38.90381466666667, "is_reserved": 0, "fusion_lat": 0.0, "bike_id": "fa6ccfa19168716514cef6b77f1ed89d", "type": "electric_scooter", "is_disabled": 0, "fusion_lon": 0.0}, {"rental_uris": {"android": "https://dc.lft.to/lastmile_qr_scan", "ios": "https://dc.lft.to/lastmile_qr_scan"}, "lon": -77.01483783333333, "name": "bc20ccb3a3e9616aac91883bafef8470", "lat": 38.914116666666665, "is_reserved": 0, "fusion_lat": 0.0, "bike_id": "bc20ccb3a3e9616aac91883bafef8470", "type": "electric_scooter", "is_disabled": 0, "fusion_lon": 0.0}, {"rental_uris": {"android": "https://dc.lft.to/lastmile_qr_scan", "ios": "https://dc.lft.to/lastmile_qr_scan"}, "lon": -77.0007, "name": "6ad69096e3ceef8a86f28db646842e0b", "lat": 38.9255025, "is_reserved": 0, "fusion_lat": 0.0, "bike_id": "6ad69096e3ceef8a86f28db646842e0b", "type": "electric_scooter", "is_disabled": 0, "fusion_lon": 0.0}, {"rental_uris": {"android": "https://dc.lft.to/lastmile_qr_scan", "ios": "https://dc.lft.to/lastmile_qr_scan"}, "lon": -76.97256216666666, "name": "aa9cea21dfb491f7583e79151206a362", "lat": 38.957464333333334, "is_reserved": 0, "fusion_lat": 0.0, "bike_id": "aa9cea21dfb491f7583e79151206a362", "type": "electric_bike", "is_disabled": 0, "fusion_lon": 0.0}, {"rental_uris": {"android": "https://dc.lft.to/lastmile_qr_scan", "ios": "https://dc.lft.to/lastmile_qr_scan"}, "lon": -77.00801883333334, "name": "207f8502a0c381851019f6435a597753", "lat": 38.94926983333333, "is_reserved": 0, "fusion_lat": 0.0, "bike_id": "207f8502a0c381851019f6435a597753", "type": "electric_bike", "is_disabled": 0, "fusion_lon": 0.0}, {"rental_uris": {"android": "https://dc.lft.to/lastmile_qr_scan", "ios": "https://dc.lft.to/lastmile_qr_scan"}, "lon": -77.03504133333334, "name": "8e2607043d1a8a450f35c43531a49c94", "lat": 38.9214565, "is_reserved": 0, "fusion_lat": 0.0, "bike_id": "8e2607043d1a8a450f35c43531a49c94", "type": "electric_scooter", "is_disabled": 0, "fusion_lon": 0.0}, {"rental_uris": {"android": "https://dc.lft.to/lastmile_qr_scan", "ios": "https://dc.lft.to/lastmile_qr_scan"}, "lon": -77.01071183333333, "name": "66ffe7cee4e67150696ebd2602a69fcd", "lat": 38.909600833333336, "is_reserved": 0, "fusion_lat": 0.0, "bike_id": "66ffe7cee4e67150696ebd2602a69fcd", "type": "electric_scooter", "is_disabled": 0, "fusion_lon": 0.0}, {"rental_uris": {"android": "https://dc.lft.to/lastmile_qr_scan", "ios": "https://dc.lft.to/lastmile_qr_scan"}, "lon": -76.97254483333333, "name": "40d03b73495342c772c31ee866a1646f", "lat": 38.9574065, "is_reserved": 0, "fusion_lat": 0.0, "bike_id": "40d03b73495342c772c31ee866a1646f", "type": "electric_bike", "is_disabled": 0, "fusion_lon": 0.0}, {"rental_uris": {"android": "https://dc.lft.to/lastmile_qr_scan", "ios": "https://dc.lft.to/lastmile_qr_scan"}, "lon": -77.043503, "name": "c8453d4caca275183b3b6954802e4540", "lat": 38.908778833333336, "is_reserved": 0, "fusion_lat": 0.0, "bike_id": "c8453d4caca275183b3b6954802e4540", "type": "electric_scooter", "is_disabled": 0, "fusion_lon": 0.0}, {"rental_uris": {"android": "https://dc.lft.to/lastmile_qr_scan", "ios": "https://dc.lft.to/lastmile_qr_scan"}, "lon": -76.9995935, "name": "c95400481c2d5ee2e31554361028415c", "lat": 38.874163, "is_reserved": 0, "fusion_lat": 0.0, "bike_id": "c95400481c2d5ee2e31554361028415c", "type": "electric_scooter", "is_disabled": 0, "fusion_lon": 0.0}, {"rental_uris": {"android": "https://dc.lft.to/lastmile_qr_scan", "ios": "https://dc.lft.to/lastmile_qr_scan"}, "lon": -77.043459, "name": "6b90d977a28eaea97ebf366f83d9a79a", "lat": 38.908777, "is_reserved": 0, "fusion_lat": 0.0, "bike_id": "6b90d977a28eaea97ebf366f83d9a79a", "type": "electric_scooter", "is_disabled": 0, "fusion_lon": 0.0}, {"rental_uris": {"android": "https://dc.lft.to/lastmile_qr_scan", "ios": "https://dc.lft.to/lastmile_qr_scan"}, "lon": -77.08186383333333, "name": "ee1ad87191ff6badc79af7f49903bddc", "lat": 38.93344233333333, "is_reserved": 0, "fusion_lat": 0.0, "bike_id": "ee1ad87191ff6badc79af7f49903bddc", "type": "electric_scooter", "is_disabled": 0, "fusion_lon": 0.0}, {"rental_uris": {"android": "https://dc.lft.to/lastmile_qr_scan", "ios": "https://dc.lft.to/lastmile_qr_scan"}, "lon": -77.02384866666667, "name": "65fc3ee3079ebaf62460aa5fdba94dac", "lat": 38.892261166666664, "is_reserved": 0, "fusion_lat": 0.0, "bike_id": "65fc3ee3079ebaf62460aa5fdba94dac", "type": "electric_scooter", "is_disabled": 0, "fusion_lon": 0.0}, {"rental_uris": {"android": "https://dc.lft.to/lastmile_qr_scan", "ios": "https://dc.lft.to/lastmile_qr_scan"}, "lon": -77.02094483333333, "name": "788336c1806b35db809027999a32bcd8", "lat": 38.91004433333333, "is_reserved": 0, "fusion_lat": 0.0, "bike_id": "788336c1806b35db809027999a32bcd8", "type": "electric_scooter", "is_disabled": 0, "fusion_lon": 0.0}, {"rental_uris": {"android": "https://dc.lft.to/lastmile_qr_scan", "ios": "https://dc.lft.to/lastmile_qr_scan"}, "lon": -77.0318485, "name": "0ca003ca231be5a8e72ba69a5a968e9e", "lat": 38.930632, "is_reserved": 0, "fusion_lat": 0.0, "bike_id": "0ca003ca231be5a8e72ba69a5a968e9e", "type": "electric_scooter", "is_disabled": 0, "fusion_lon": 0.0}, {"rental_uris": {"android": "https://dc.lft.to/lastmile_qr_scan", "ios": "https://dc.lft.to/lastmile_qr_scan"}, "lon": -77.05397216666667, "name": "c9bb84056cafd5507ef1fa22fdb88c08", "lat": 38.90131433333333, "is_reserved": 0, "fusion_lat": 0.0, "bike_id": "c9bb84056cafd5507ef1fa22fdb88c08", "type": "electric_scooter", "is_disabled": 0, "fusion_lon": 0.0}, {"rental_uris": {"android": "https://dc.lft.to/lastmile_qr_scan", "ios": "https://dc.lft.to/lastmile_qr_scan"}, "lon": -76.99897433333334, "name": "4109e4ce67064c6902ed3897f9101b40", "lat": 38.9427225, "is_reserved": 0, "fusion_lat": 0.0, "bike_id": "4109e4ce67064c6902ed3897f9101b40", "type": "electric_bike", "is_disabled": 0, "fusion_lon": 0.0}, {"rental_uris": {"android": "https://dc.lft.to/lastmile_qr_scan", "ios": "https://dc.lft.to/lastmile_qr_scan"}, "lon": -77.051101, "name": "e56d39028fcc3903377afae5b63da1d7", "lat": 38.9249595, "is_reserved": 0, "fusion_lat": 0.0, "bike_id": "e56d39028fcc3903377afae5b63da1d7", "type": "electric_scooter", "is_disabled": 0, "fusion_lon": 0.0}, {"rental_uris": {"android": "https://dc.lft.to/lastmile_qr_scan", "ios": "https://dc.lft.to/lastmile_qr_scan"}, "lon": -77.03266066666667, "name": "1e6c35c9c1d7f83a4752b51ca72a7f76", "lat": 38.93253966666666, "is_reserved": 0, "fusion_lat": 0.0, "bike_id": "1e6c35c9c1d7f83a4752b51ca72a7f76", "type": "electric_scooter", "is_disabled": 0, "fusion_lon": 0.0}, {"rental_uris": {"android": "https://dc.lft.to/lastmile_qr_scan", "ios": "https://dc.lft.to/lastmile_qr_scan"}, "lon": -77.01178683333333, "name": "100a38415e4a762ac4847a75a7eecdc3", "lat": 38.915745666666666, "is_reserved": 0, "fusion_lat": 0.0, "bike_id": "100a38415e4a762ac4847a75a7eecdc3", "type": "electric_scooter", "is_disabled": 0, "fusion_lon": 0.0}, {"rental_uris": {"android": "https://dc.lft.to/lastmile_qr_scan", "ios": "https://dc.lft.to/lastmile_qr_scan"}, "lon": -76.98837033333334, "name": "603529daddff470bdedadd96337806ac", "lat": 38.892574, "is_reserved": 0, "fusion_lat": 0.0, "bike_id": "603529daddff470bdedadd96337806ac", "type": "electric_scooter", "is_disabled": 0, "fusion_lon": 0.0}, {"rental_uris": {"android": "https://dc.lft.to/lastmile_qr_scan", "ios": "https://dc.lft.to/lastmile_qr_scan"}, "lon": -77.0322585, "name": "b329fd9e0b8347dc5eb5b72aab939922", "lat": 38.922737166666664, "is_reserved": 0, "fusion_lat": 0.0, "bike_id": "b329fd9e0b8347dc5eb5b72aab939922", "type": "electric_scooter", "is_disabled": 0, "fusion_lon": 0.0}, {"rental_uris": {"android": "https://dc.lft.to/lastmile_qr_scan", "ios": "https://dc.lft.to/lastmile_qr_scan"}, "lon": -76.99963083333333, "name": "4275bf6eee9df61fd6da135320d6bf6b", "lat": 38.87415033333333, "is_reserved": 0, "fusion_lat": 0.0, "bike_id": "4275bf6eee9df61fd6da135320d6bf6b", "type": "electric_scooter", "is_disabled": 0, "fusion_lon": 0.0}, {"rental_uris": {"android": "https://dc.lft.to/lastmile_qr_scan", "ios": "https://dc.lft.to/lastmile_qr_scan"}, "lon": -77.00758733333333, "name": "e23daf7c2a78195d10e29d5cf72ece38", "lat": 38.90750116666667, "is_reserved": 0, "fusion_lat": 0.0, "bike_id": "e23daf7c2a78195d10e29d5cf72ece38", "type": "electric_scooter", "is_disabled": 0, "fusion_lon": 0.0}, {"rental_uris": {"android": "https://dc.lft.to/lastmile_qr_scan", "ios": "https://dc.lft.to/lastmile_qr_scan"}, "lon": -77.045131, "name": "df94fd6ace1533afae28326beeaa5cb4", "lat": 38.90780733333333, "is_reserved": 0, "fusion_lat": 0.0, "bike_id": "df94fd6ace1533afae28326beeaa5cb4", "type": "electric_scooter", "is_disabled": 0, "fusion_lon": 0.0}, {"rental_uris": {"android": "https://dc.lft.to/lastmile_qr_scan", "ios": "https://dc.lft.to/lastmile_qr_scan"}, "lon": -77.00129283333334, "name": "78220a554790ef95d1c2245e84b345d2", "lat": 38.878796, "is_reserved": 0, "fusion_lat": 0.0, "bike_id": "78220a554790ef95d1c2245e84b345d2", "type": "electric_scooter", "is_disabled": 0, "fusion_lon": 0.0}, {"rental_uris": {"android": "https://dc.lft.to/lastmile_qr_scan", "ios": "https://dc.lft.to/lastmile_qr_scan"}, "lon": -76.93338933333334, "name": "f04155c3f8de98742835446b9508584a", "lat": 38.90866366666667, "is_reserved": 0, "fusion_lat": 0.0, "bike_id": "f04155c3f8de98742835446b9508584a", "type": "electric_scooter", "is_disabled": 0, "fusion_lon": 0.0}, {"rental_uris": {"android": "https://dc.lft.to/lastmile_qr_scan", "ios": "https://dc.lft.to/lastmile_qr_scan"}, "lon": -77.08595783333334, "name": "105dd66ea2d2b2836a307158bd6da9b6", "lat": 38.90869083333333, "is_reserved": 0, "fusion_lat": 0.0, "bike_id": "105dd66ea2d2b2836a307158bd6da9b6", "type": "electric_scooter", "is_disabled": 0, "fusion_lon": 0.0}, {"rental_uris": {"android": "https://dc.lft.to/lastmile_qr_scan", "ios": "https://dc.lft.to/lastmile_qr_scan"}, "lon": -77.02591933333333, "name": "9a889b4cbc4f7e5435d5eb62fcf2eea9", "lat": 38.914114833333336, "is_reserved": 0, "fusion_lat": 0.0, "bike_id": "9a889b4cbc4f7e5435d5eb62fcf2eea9", "type": "electric_scooter", "is_disabled": 0, "fusion_lon": 0.0}, {"rental_uris": {"android": "https://dc.lft.to/lastmile_qr_scan", "ios": "https://dc.lft.to/lastmile_qr_scan"}, "lon": -77.02289666666667, "name": "875a6bf83a1b4a51c79311764b2cfc02", "lat": 38.917678333333335, "is_reserved": 0, "fusion_lat": 0.0, "bike_id": "875a6bf83a1b4a51c79311764b2cfc02", "type": "electric_scooter", "is_disabled": 0, "fusion_lon": 0.0}, {"rental_uris": {"android": "https://dc.lft.to/lastmile_qr_scan", "ios": "https://dc.lft.to/lastmile_qr_scan"}, "lon": -77.05753716666666, "name": "e1c58670e93477223a4929d3874bd9cc", "lat": 38.925019, "is_reserved": 0, "fusion_lat": 0.0, "bike_id": "e1c58670e93477223a4929d3874bd9cc", "type": "electric_scooter", "is_disabled": 0, "fusion_lon": 0.0}, {"rental_uris": {"android": "https://dc.lft.to/lastmile_qr_scan", "ios": "https://dc.lft.to/lastmile_qr_scan"}, "lon": -77.06657916666667, "name": "24f20aadf18f18fa4f4e959eda3e299d", "lat": 38.95073216666667, "is_reserved": 0, "fusion_lat": 0.0, "bike_id": "24f20aadf18f18fa4f4e959eda3e299d", "type": "electric_bike", "is_disabled": 0, "fusion_lon": 0.0}, {"rental_uris": {"android": "https://dc.lft.to/lastmile_qr_scan", "ios": "https://dc.lft.to/lastmile_qr_scan"}, "lon": -77.11614116666667, "name": "84f8f41a53c7afbddfc67a8f9ea2cf58", "lat": 38.85490166666666, "is_reserved": 0, "fusion_lat": 0.0, "bike_id": "84f8f41a53c7afbddfc67a8f9ea2cf58", "type": "electric_bike", "is_disabled": 0, "fusion_lon": 0.0}, {"rental_uris": {"android": "https://dc.lft.to/lastmile_qr_scan", "ios": "https://dc.lft.to/lastmile_qr_scan"}, "lon": -77.03713766666667, "name": "355876334fd96c7178da2f48f73f77f4", "lat": 38.926403, "is_reserved": 0, "fusion_lat": 0.0, "bike_id": "355876334fd96c7178da2f48f73f77f4", "type": "electric_scooter", "is_disabled": 0, "fusion_lon": 0.0}, {"rental_uris": {"android": "https://dc.lft.to/lastmile_qr_scan", "ios": "https://dc.lft.to/lastmile_qr_scan"}, "lon": -77.21125416666666, "name": "51b12b15dc544d7cbe0a7c3ea34462b6", "lat": 38.874923333333335, "is_reserved": 0, "fusion_lat": 0.0, "bike_id": "51b12b15dc544d7cbe0a7c3ea34462b6", "type": "electric_bike", "is_disabled": 0, "fusion_lon": 0.0}, {"rental_uris": {"android": "https://dc.lft.to/lastmile_qr_scan", "ios": "https://dc.lft.to/lastmile_qr_scan"}, "lon": -77.03180283333333, "name": "14cbb58476d838b9ffd8314bb9a4016d", "lat": 38.913504, "is_reserved": 0, "fusion_lat": 0.0, "bike_id": "14cbb58476d838b9ffd8314bb9a4016d", "type": "electric_scooter", "is_disabled": 0, "fusion_lon": 0.0}, {"rental_uris": {"android": "https://dc.lft.to/lastmile_qr_scan", "ios": "https://dc.lft.to/lastmile_qr_scan"}, "lon": -77.03345466666667, "name": "03bbe27022ee9441915f918069df843e", "lat": 38.897457833333334, "is_reserved": 0, "fusion_lat": 0.0, "bike_id": "03bbe27022ee9441915f918069df843e", "type": "electric_scooter", "is_disabled": 0, "fusion_lon": 0.0}, {"rental_uris": {"android": "https://dc.lft.to/lastmile_qr_scan", "ios": "https://dc.lft.to/lastmile_qr_scan"}, "lon": -76.96915966666667, "name": "1d41af449c4bbd6335ccf3a7a31273a3", "lat": 38.846160166666664, "is_reserved": 0, "fusion_lat": 0.0, "bike_id": "1d41af449c4bbd6335ccf3a7a31273a3", "type": "electric_bike", "is_disabled": 0, "fusion_lon": 0.0}, {"rental_uris": {"android": "https://dc.lft.to/lastmile_qr_scan", "ios": "https://dc.lft.to/lastmile_qr_scan"}, "lon": -76.90732916666667, "name": "fd611d87eee6c489debba8444b3855d0", "lat": 38.89612016666667, "is_reserved": 0, "fusion_lat": 0.0, "bike_id": "fd611d87eee6c489debba8444b3855d0", "type": "electric_bike", "is_disabled": 0, "fusion_lon": 0.0}, {"rental_uris": {"android": "https://dc.lft.to/lastmile_qr_scan", "ios": "https://dc.lft.to/lastmile_qr_scan"}, "lon": -77.02699083333333, "name": "705b931d39f129c5543cc3222c67e829", "lat": 38.917448, "is_reserved": 0, "fusion_lat": 0.0, "bike_id": "705b931d39f129c5543cc3222c67e829", "type": "electric_scooter", "is_disabled": 0, "fusion_lon": 0.0}, {"rental_uris": {"android": "https://dc.lft.to/lastmile_qr_scan", "ios": "https://dc.lft.to/lastmile_qr_scan"}, "lon": -77.023448, "name": "2be3dcc332e58594ed9b982faf382c8a", "lat": 38.935345166666664, "is_reserved": 0, "fusion_lat": 0.0, "bike_id": "2be3dcc332e58594ed9b982faf382c8a", "type": "electric_scooter", "is_disabled": 0, "fusion_lon": 0.0}, {"rental_uris": {"android": "https://dc.lft.to/lastmile_qr_scan", "ios": "https://dc.lft.to/lastmile_qr_scan"}, "lon": -77.04194933333333, "name": "0310acfe254bda621bcf02fec0e98592", "lat": 38.892222, "is_reserved": 0, "fusion_lat": 0.0, "bike_id": "0310acfe254bda621bcf02fec0e98592", "type": "electric_scooter", "is_disabled": 0, "fusion_lon": 0.0}, {"rental_uris": {"android": "https://dc.lft.to/lastmile_qr_scan", "ios": "https://dc.lft.to/lastmile_qr_scan"}, "lon": -77.02296833333334, "name": "54ee1d5cd70dbe8de46e3f7e9aa8bf90", "lat": 38.91786333333334, "is_reserved": 0, "fusion_lat": 0.0, "bike_id": "54ee1d5cd70dbe8de46e3f7e9aa8bf90", "type": "electric_scooter", "is_disabled": 0, "fusion_lon": 0.0}, {"rental_uris": {"android": "https://dc.lft.to/lastmile_qr_scan", "ios": "https://dc.lft.to/lastmile_qr_scan"}, "lon": -76.998393, "name": "de69911c89eb36d4aee418911c5184df", "lat": 38.899900333333335, "is_reserved": 0, "fusion_lat": 0.0, "bike_id": "de69911c89eb36d4aee418911c5184df", "type": "electric_bike", "is_disabled": 0, "fusion_lon": 0.0}, {"rental_uris": {"android": "https://dc.lft.to/lastmile_qr_scan", "ios": "https://dc.lft.to/lastmile_qr_scan"}, "lon": -77.014275, "name": "6c312466f5b78276d3462ee6899fb612", "lat": 38.92855016666667, "is_reserved": 0, "fusion_lat": 0.0, "bike_id": "6c312466f5b78276d3462ee6899fb612", "type": "electric_scooter", "is_disabled": 0, "fusion_lon": 0.0}, {"rental_uris": {"android": "https://dc.lft.to/lastmile_qr_scan", "ios": "https://dc.lft.to/lastmile_qr_scan"}, "lon": -77.0190185, "name": "6d686c3c6ac6b9970899170bd36a89f3", "lat": 38.92366966666667, "is_reserved": 0, "fusion_lat": 0.0, "bike_id": "6d686c3c6ac6b9970899170bd36a89f3", "type": "electric_scooter", "is_disabled": 0, "fusion_lon": 0.0}, {"rental_uris": {"android": "https://dc.lft.to/lastmile_qr_scan", "ios": "https://dc.lft.to/lastmile_qr_scan"}, "lon": -77.02746333333333, "name": "67cc57ab877d4dcb66efc110de2acede", "lat": 38.92769416666667, "is_reserved": 0, "fusion_lat": 0.0, "bike_id": "67cc57ab877d4dcb66efc110de2acede", "type": "electric_scooter", "is_disabled": 0, "fusion_lon": 0.0}, {"rental_uris": {"android": "https://dc.lft.to/lastmile_qr_scan", "ios": "https://dc.lft.to/lastmile_qr_scan"}, "lon": -77.01899433333334, "name": "37adbc9846ad7bb3b0fe5a7c8f5bc0c6", "lat": 38.87473333333333, "is_reserved": 0, "fusion_lat": 0.0, "bike_id": "37adbc9846ad7bb3b0fe5a7c8f5bc0c6", "type": "electric_scooter", "is_disabled": 0, "fusion_lon": 0.0}, {"rental_uris": {"android": "https://dc.lft.to/lastmile_qr_scan", "ios": "https://dc.lft.to/lastmile_qr_scan"}, "lon": -77.0338385, "name": "d78064f87807a6f8f035ece560d1e43d", "lat": 38.901843666666664, "is_reserved": 0, "fusion_lat": 0.0, "bike_id": "d78064f87807a6f8f035ece560d1e43d", "type": "electric_scooter", "is_disabled": 0, "fusion_lon": 0.0}, {"rental_uris": {"android": "https://dc.lft.to/lastmile_qr_scan", "ios": "https://dc.lft.to/lastmile_qr_scan"}, "lon": -77.04327733333334, "name": "4f9ce6b558fc89d14a6b73a34c418c84", "lat": 38.90573116666667, "is_reserved": 0, "fusion_lat": 0.0, "bike_id": "4f9ce6b558fc89d14a6b73a34c418c84", "type": "electric_scooter", "is_disabled": 0, "fusion_lon": 0.0}, {"rental_uris": {"android": "https://dc.lft.to/lastmile_qr_scan", "ios": "https://dc.lft.to/lastmile_qr_scan"}, "lon": -77.04562283333334, "name": "c3bcf629426ddf1029de17658700f94c", "lat": 38.90864583333333, "is_reserved": 0, "fusion_lat": 0.0, "bike_id": "c3bcf629426ddf1029de17658700f94c", "type": "electric_scooter", "is_disabled": 0, "fusion_lon": 0.0}, {"rental_uris": {"android": "https://dc.lft.to/lastmile_qr_scan", "ios": "https://dc.lft.to/lastmile_qr_scan"}, "lon": -77.03846716666666, "name": "0cefbd31d8f2070906b96656f423d19e", "lat": 38.90264416666667, "is_reserved": 0, "fusion_lat": 0.0, "bike_id": "0cefbd31d8f2070906b96656f423d19e", "type": "electric_scooter", "is_disabled": 0, "fusion_lon": 0.0}, {"rental_uris": {"android": "https://dc.lft.to/lastmile_qr_scan", "ios": "https://dc.lft.to/lastmile_qr_scan"}, "lon": -77.04764466666667, "name": "f5218cf0e7902e7aafc9e0690c7d3b38", "lat": 38.91752, "is_reserved": 0, "fusion_lat": 0.0, "bike_id": "f5218cf0e7902e7aafc9e0690c7d3b38", "type": "electric_scooter", "is_disabled": 0, "fusion_lon": 0.0}, {"rental_uris": {"android": "https://dc.lft.to/lastmile_qr_scan", "ios": "https://dc.lft.to/lastmile_qr_scan"}, "lon": -77.04310366666667, "name": "ab44191dcc448d2716c84a0cf296954d", "lat": 38.923306833333335, "is_reserved": 0, "fusion_lat": 0.0, "bike_id": "ab44191dcc448d2716c84a0cf296954d", "type": "electric_scooter", "is_disabled": 0, "fusion_lon": 0.0}, {"rental_uris": {"android": "https://dc.lft.to/lastmile_qr_scan", "ios": "https://dc.lft.to/lastmile_qr_scan"}, "lon": -77.0526685, "name": "1bd2ca5316d09f878c416d2d51ef7197", "lat": 38.910120166666665, "is_reserved": 0, "fusion_lat": 0.0, "bike_id": "1bd2ca5316d09f878c416d2d51ef7197", "type": "electric_scooter", "is_disabled": 0, "fusion_lon": 0.0}, {"rental_uris": {"android": "https://dc.lft.to/lastmile_qr_scan", "ios": "https://dc.lft.to/lastmile_qr_scan"}, "lon": -77.04456183333333, "name": "e8e162a60c4c296db317be93974b05cd", "lat": 38.90280816666667, "is_reserved": 0, "fusion_lat": 0.0, "bike_id": "e8e162a60c4c296db317be93974b05cd", "type": "electric_scooter", "is_disabled": 0, "fusion_lon": 0.0}, {"rental_uris": {"android": "https://dc.lft.to/lastmile_qr_scan", "ios": "https://dc.lft.to/lastmile_qr_scan"}, "lon": -76.99624033333333, "name": "cd4773584648ab4a04425542d38cff1b", "lat": 38.9507055, "is_reserved": 0, "fusion_lat": 0.0, "bike_id": "cd4773584648ab4a04425542d38cff1b", "type": "electric_scooter", "is_disabled": 0, "fusion_lon": 0.0}, {"rental_uris": {"android": "https://dc.lft.to/lastmile_qr_scan", "ios": "https://dc.lft.to/lastmile_qr_scan"}, "lon": -77.03384933333334, "name": "74f47b64ce41b863841c33438e2de9db", "lat": 38.92539883333333, "is_reserved": 0, "fusion_lat": 0.0, "bike_id": "74f47b64ce41b863841c33438e2de9db", "type": "electric_scooter", "is_disabled": 0, "fusion_lon": 0.0}, {"rental_uris": {"android": "https://dc.lft.to/lastmile_qr_scan", "ios": "https://dc.lft.to/lastmile_qr_scan"}, "lon": -76.99274133333333, "name": "141475ced17bd149038f7dad7d4934b7", "lat": 38.972569166666666, "is_reserved": 0, "fusion_lat": 0.0, "bike_id": "141475ced17bd149038f7dad7d4934b7", "type": "electric_bike", "is_disabled": 0, "fusion_lon": 0.0}, {"rental_uris": {"android": "https://dc.lft.to/lastmile_qr_scan", "ios": "https://dc.lft.to/lastmile_qr_scan"}, "lon": -77.00760566666666, "name": "25f77ef861fa9c452fc3300899fda71a", "lat": 38.871193, "is_reserved": 0, "fusion_lat": 0.0, "bike_id": "25f77ef861fa9c452fc3300899fda71a", "type": "electric_scooter", "is_disabled": 0, "fusion_lon": 0.0}, {"rental_uris": {"android": "https://dc.lft.to/lastmile_qr_scan", "ios": "https://dc.lft.to/lastmile_qr_scan"}, "lon": -77.05339916666667, "name": "f5535c48dfda4ae8c501df5800a9f2a5", "lat": 39.04081016666667, "is_reserved": 0, "fusion_lat": 0.0, "bike_id": "f5535c48dfda4ae8c501df5800a9f2a5", "type": "electric_bike", "is_disabled": 0, "fusion_lon": 0.0}, {"rental_uris": {"android": "https://dc.lft.to/lastmile_qr_scan", "ios": "https://dc.lft.to/lastmile_qr_scan"}, "lon": -77.0328525, "name": "7e6d8ddb32267529768fc25e7906ad07", "lat": 38.922821666666664, "is_reserved": 0, "fusion_lat": 0.0, "bike_id": "7e6d8ddb32267529768fc25e7906ad07", "type": "electric_scooter", "is_disabled": 0, "fusion_lon": 0.0}, {"rental_uris": {"android": "https://dc.lft.to/lastmile_qr_scan", "ios": "https://dc.lft.to/lastmile_qr_scan"}, "lon": -77.08630966666666, "name": "054088a27528bdf63e815ada39faac4e", "lat": 38.880702, "is_reserved": 0, "fusion_lat": 0.0, "bike_id": "054088a27528bdf63e815ada39faac4e", "type": "electric_bike", "is_disabled": 0, "fusion_lon": 0.0}, {"rental_uris": {"android": "https://dc.lft.to/lastmile_qr_scan", "ios": "https://dc.lft.to/lastmile_qr_scan"}, "lon": -77.03239516666666, "name": "419dcb9a63e47b9a33b1b601ea8868a2", "lat": 38.927274833333335, "is_reserved": 0, "fusion_lat": 0.0, "bike_id": "419dcb9a63e47b9a33b1b601ea8868a2", "type": "electric_scooter", "is_disabled": 0, "fusion_lon": 0.0}, {"rental_uris": {"android": "https://dc.lft.to/lastmile_qr_scan", "ios": "https://dc.lft.to/lastmile_qr_scan"}, "lon": -77.03345866666666, "name": "8fe19ac00b39da1693357d1b099d5adf", "lat": 38.93584583333333, "is_reserved": 0, "fusion_lat": 0.0, "bike_id": "8fe19ac00b39da1693357d1b099d5adf", "type": "electric_scooter", "is_disabled": 0, "fusion_lon": 0.0}, {"rental_uris": {"android": "https://dc.lft.to/lastmile_qr_scan", "ios": "https://dc.lft.to/lastmile_qr_scan"}, "lon": -77.01050683333334, "name": "76a69c4d77770032b2957a25a8b1fb59", "lat": 38.906484, "is_reserved": 0, "fusion_lat": 0.0, "bike_id": "76a69c4d77770032b2957a25a8b1fb59", "type": "electric_scooter", "is_disabled": 0, "fusion_lon": 0.0}, {"rental_uris": {"android": "https://dc.lft.to/lastmile_qr_scan", "ios": "https://dc.lft.to/lastmile_qr_scan"}, "lon": -77.03853883333333, "name": "a42037005298ceafef4d658ec683652c", "lat": 38.91773083333333, "is_reserved": 0, "fusion_lat": 0.0, "bike_id": "a42037005298ceafef4d658ec683652c", "type": "electric_scooter", "is_disabled": 0, "fusion_lon": 0.0}, {"rental_uris": {"android": "https://dc.lft.to/lastmile_qr_scan", "ios": "https://dc.lft.to/lastmile_qr_scan"}, "lon": -77.0232395, "name": "9d3f07d70362de875efa8ccd6e7c8fbb", "lat": 38.907200333333336, "is_reserved": 0, "fusion_lat": 0.0, "bike_id": "9d3f07d70362de875efa8ccd6e7c8fbb", "type": "electric_scooter", "is_disabled": 0, "fusion_lon": 0.0}, {"rental_uris": {"android": "https://dc.lft.to/lastmile_qr_scan", "ios": "https://dc.lft.to/lastmile_qr_scan"}, "lon": -77.05275483333334, "name": "e1851b0cad098727d4f100847bea4fbc", "lat": 38.92563116666667, "is_reserved": 0, "fusion_lat": 0.0, "bike_id": "e1851b0cad098727d4f100847bea4fbc", "type": "electric_scooter", "is_disabled": 0, "fusion_lon": 0.0}, {"rental_uris": {"android": "https://dc.lft.to/lastmile_qr_scan", "ios": "https://dc.lft.to/lastmile_qr_scan"}, "lon": -77.044623, "name": "081946d0e08ebf2a0781e4c3b153aa45", "lat": 38.9036125, "is_reserved": 0, "fusion_lat": 0.0, "bike_id": "081946d0e08ebf2a0781e4c3b153aa45", "type": "electric_scooter", "is_disabled": 0, "fusion_lon": 0.0}, {"rental_uris": {"android": "https://dc.lft.to/lastmile_qr_scan", "ios": "https://dc.lft.to/lastmile_qr_scan"}, "lon": -77.02784433333333, "name": "cfdab4f54ef61fd8b1e81b5799e2352b", "lat": 38.939249833333335, "is_reserved": 0, "fusion_lat": 0.0, "bike_id": "cfdab4f54ef61fd8b1e81b5799e2352b", "type": "electric_scooter", "is_disabled": 0, "fusion_lon": 0.0}, {"rental_uris": {"android": "https://dc.lft.to/lastmile_qr_scan", "ios": "https://dc.lft.to/lastmile_qr_scan"}, "lon": -77.077671, "name": "92c0c1bafe211c1dce457809818bc182", "lat": 38.925642833333335, "is_reserved": 0, "fusion_lat": 0.0, "bike_id": "92c0c1bafe211c1dce457809818bc182", "type": "electric_scooter", "is_disabled": 0, "fusion_lon": 0.0}, {"rental_uris": {"android": "https://dc.lft.to/lastmile_qr_scan", "ios": "https://dc.lft.to/lastmile_qr_scan"}, "lon": -77.0568295, "name": "079b0be38be4c99bb2920603d5d8a933", "lat": 38.93155816666667, "is_reserved": 0, "fusion_lat": 0.0, "bike_id": "079b0be38be4c99bb2920603d5d8a933", "type": "electric_scooter", "is_disabled": 0, "fusion_lon": 0.0}, {"rental_uris": {"android": "https://dc.lft.to/lastmile_qr_scan", "ios": "https://dc.lft.to/lastmile_qr_scan"}, "lon": -77.0411685, "name": "eb4358cf7b6463d0dfff406f4248d695", "lat": 38.9104535, "is_reserved": 0, "fusion_lat": 0.0, "bike_id": "eb4358cf7b6463d0dfff406f4248d695", "type": "electric_scooter", "is_disabled": 0, "fusion_lon": 0.0}, {"rental_uris": {"android": "https://dc.lft.to/lastmile_qr_scan", "ios": "https://dc.lft.to/lastmile_qr_scan"}, "lon": -77.05585833333333, "name": "4637a3f0af53dd71d8e3334d23434c04", "lat": 38.9343095, "is_reserved": 0, "fusion_lat": 0.0, "bike_id": "4637a3f0af53dd71d8e3334d23434c04", "type": "electric_scooter", "is_disabled": 0, "fusion_lon": 0.0}, {"rental_uris": {"android": "https://dc.lft.to/lastmile_qr_scan", "ios": "https://dc.lft.to/lastmile_qr_scan"}, "lon": -77.10683566666667, "name": "32df133fa7db5a58e957a4a92e98b1d4", "lat": 38.864506, "is_reserved": 0, "fusion_lat": 0.0, "bike_id": "32df133fa7db5a58e957a4a92e98b1d4", "type": "electric_bike", "is_disabled": 0, "fusion_lon": 0.0}, {"rental_uris": {"android": "https://dc.lft.to/lastmile_qr_scan", "ios": "https://dc.lft.to/lastmile_qr_scan"}, "lon": -76.9866465, "name": "9d9a12d3b4725c950b43cf13cbfd68dd", "lat": 38.9106825, "is_reserved": 0, "fusion_lat": 0.0, "bike_id": "9d9a12d3b4725c950b43cf13cbfd68dd", "type": "electric_scooter", "is_disabled": 0, "fusion_lon": 0.0}, {"rental_uris": {"android": "https://dc.lft.to/lastmile_qr_scan", "ios": "https://dc.lft.to/lastmile_qr_scan"}, "lon": -77.03862933333333, "name": "4c312c4b8dcd4e66d7fe7b10250f09a1", "lat": 38.90780633333333, "is_reserved": 0, "fusion_lat": 0.0, "bike_id": "4c312c4b8dcd4e66d7fe7b10250f09a1", "type": "electric_scooter", "is_disabled": 0, "fusion_lon": 0.0}, {"rental_uris": {"android": "https://dc.lft.to/lastmile_qr_scan", "ios": "https://dc.lft.to/lastmile_qr_scan"}, "lon": -77.0389275, "name": "60cdb8361566a343bc5eb0277eec1f65", "lat": 38.922566833333335, "is_reserved": 0, "fusion_lat": 0.0, "bike_id": "60cdb8361566a343bc5eb0277eec1f65", "type": "electric_scooter", "is_disabled": 0, "fusion_lon": 0.0}, {"rental_uris": {"android": "https://dc.lft.to/lastmile_qr_scan", "ios": "https://dc.lft.to/lastmile_qr_scan"}, "lon": -77.03656583333333, "name": "afb83cb29626a04ce1c5fa22a9652952", "lat": 38.91002016666667, "is_reserved": 0, "fusion_lat": 0.0, "bike_id": "afb83cb29626a04ce1c5fa22a9652952", "type": "electric_scooter", "is_disabled": 0, "fusion_lon": 0.0}, {"rental_uris": {"android": "https://dc.lft.to/lastmile_qr_scan", "ios": "https://dc.lft.to/lastmile_qr_scan"}, "lon": -77.002194, "name": "38fb420dd9c59cb4be580034aa3f0450", "lat": 38.90869, "is_reserved": 0, "fusion_lat": 0.0, "bike_id": "38fb420dd9c59cb4be580034aa3f0450", "type": "electric_scooter", "is_disabled": 0, "fusion_lon": 0.0}, {"rental_uris": {"android": "https://dc.lft.to/lastmile_qr_scan", "ios": "https://dc.lft.to/lastmile_qr_scan"}, "lon": -76.97056416666666, "name": "5acd70a6e7e21830474affa64792195e", "lat": 38.98460266666667, "is_reserved": 0, "fusion_lat": 0.0, "bike_id": "5acd70a6e7e21830474affa64792195e", "type": "electric_bike", "is_disabled": 0, "fusion_lon": 0.0}, {"rental_uris": {"android": "https://dc.lft.to/lastmile_qr_scan", "ios": "https://dc.lft.to/lastmile_qr_scan"}, "lon": -77.02363966666667, "name": "538f3d24d8ec11be70c7c8190783e62e", "lat": 38.91967366666667, "is_reserved": 0, "fusion_lat": 0.0, "bike_id": "538f3d24d8ec11be70c7c8190783e62e", "type": "electric_scooter", "is_disabled": 0, "fusion_lon": 0.0}, {"rental_uris": {"android": "https://dc.lft.to/lastmile_qr_scan", "ios": "https://dc.lft.to/lastmile_qr_scan"}, "lon": -77.03229583333334, "name": "9fdf9179324ed0853106b7ea8957a7ed", "lat": 38.91042566666667, "is_reserved": 0, "fusion_lat": 0.0, "bike_id": "9fdf9179324ed0853106b7ea8957a7ed", "type": "electric_scooter", "is_disabled": 0, "fusion_lon": 0.0}, {"rental_uris": {"android": "https://dc.lft.to/lastmile_qr_scan", "ios": "https://dc.lft.to/lastmile_qr_scan"}, "lon": -77.012351, "name": "0fb50fb67e74b49180705c9492678654", "lat": 38.87212483333333, "is_reserved": 0, "fusion_lat": 0.0, "bike_id": "0fb50fb67e74b49180705c9492678654", "type": "electric_scooter", "is_disabled": 0, "fusion_lon": 0.0}, {"rental_uris": {"android": "https://dc.lft.to/lastmile_qr_scan", "ios": "https://dc.lft.to/lastmile_qr_scan"}, "lon": -77.0560655, "name": "ba6ac9e4d581292f33f1a971e968b9f0", "lat": 38.937045499999996, "is_reserved": 0, "fusion_lat": 0.0, "bike_id": "ba6ac9e4d581292f33f1a971e968b9f0", "type": "electric_scooter", "is_disabled": 0, "fusion_lon": 0.0}, {"rental_uris": {"android": "https://dc.lft.to/lastmile_qr_scan", "ios": "https://dc.lft.to/lastmile_qr_scan"}, "lon": -76.99887416666667, "name": "0a17d9b58a996d3c7fd5720914c72e2d", "lat": 38.90955816666666, "is_reserved": 0, "fusion_lat": 0.0, "bike_id": "0a17d9b58a996d3c7fd5720914c72e2d", "type": "electric_bike", "is_disabled": 0, "fusion_lon": 0.0}, {"rental_uris": {"android": "https://dc.lft.to/lastmile_qr_scan", "ios": "https://dc.lft.to/lastmile_qr_scan"}, "lon": -77.0229855, "name": "60ef6d25bec2dcd3edae873f3775792e", "lat": 38.920851, "is_reserved": 0, "fusion_lat": 0.0, "bike_id": "60ef6d25bec2dcd3edae873f3775792e", "type": "electric_scooter", "is_disabled": 0, "fusion_lon": 0.0}, {"rental_uris": {"android": "https://dc.lft.to/lastmile_qr_scan", "ios": "https://dc.lft.to/lastmile_qr_scan"}, "lon": -76.91600716666667, "name": "8727955400f7d63004c050f4e8eafd3d", "lat": 38.879774833333336, "is_reserved": 0, "fusion_lat": 0.0, "bike_id": "8727955400f7d63004c050f4e8eafd3d", "type": "electric_bike", "is_disabled": 0, "fusion_lon": 0.0}, {"rental_uris": {"android": "https://dc.lft.to/lastmile_qr_scan", "ios": "https://dc.lft.to/lastmile_qr_scan"}, "lon": -77.04334516666667, "name": "c920728d8bf4ce9556cea5a522d8d85b", "lat": 38.904013666666664, "is_reserved": 0, "fusion_lat": 0.0, "bike_id": "c920728d8bf4ce9556cea5a522d8d85b", "type": "electric_scooter", "is_disabled": 0, "fusion_lon": 0.0}, {"rental_uris": {"android": "https://dc.lft.to/lastmile_qr_scan", "ios": "https://dc.lft.to/lastmile_qr_scan"}, "lon": -77.02413166666666, "name": "3794484a28faea61ad13e871d401c3de", "lat": 38.91206533333333, "is_reserved": 0, "fusion_lat": 0.0, "bike_id": "3794484a28faea61ad13e871d401c3de", "type": "electric_scooter", "is_disabled": 0, "fusion_lon": 0.0}, {"rental_uris": {"android": "https://dc.lft.to/lastmile_qr_scan", "ios": "https://dc.lft.to/lastmile_qr_scan"}, "lon": -77.081524, "name": "eb2ce9be2c850bf3f23830e1b5bfc440", "lat": 38.93485166666667, "is_reserved": 0, "fusion_lat": 0.0, "bike_id": "eb2ce9be2c850bf3f23830e1b5bfc440", "type": "electric_scooter", "is_disabled": 0, "fusion_lon": 0.0}, {"rental_uris": {"android": "https://dc.lft.to/lastmile_qr_scan", "ios": "https://dc.lft.to/lastmile_qr_scan"}, "lon": -77.02522883333333, "name": "e9171bf6b9898a29099852ce965bd791", "lat": 38.924892166666666, "is_reserved": 0, "fusion_lat": 0.0, "bike_id": "e9171bf6b9898a29099852ce965bd791", "type": "electric_scooter", "is_disabled": 0, "fusion_lon": 0.0}, {"rental_uris": {"android": "https://dc.lft.to/lastmile_qr_scan", "ios": "https://dc.lft.to/lastmile_qr_scan"}, "lon": -77.02369816666666, "name": "489ede32f51331c544433a35e69a0b0c", "lat": 38.91988666666666, "is_reserved": 0, "fusion_lat": 0.0, "bike_id": "489ede32f51331c544433a35e69a0b0c", "type": "electric_scooter", "is_disabled": 0, "fusion_lon": 0.0}, {"rental_uris": {"android": "https://dc.lft.to/lastmile_qr_scan", "ios": "https://dc.lft.to/lastmile_qr_scan"}, "lon": -76.9463145, "name": "c68af1aecb51e6f655c3d7ad147f48c4", "lat": 38.89827316666667, "is_reserved": 0, "fusion_lat": 0.0, "bike_id": "c68af1aecb51e6f655c3d7ad147f48c4", "type": "electric_scooter", "is_disabled": 0, "fusion_lon": 0.0}, {"rental_uris": {"android": "https://dc.lft.to/lastmile_qr_scan", "ios": "https://dc.lft.to/lastmile_qr_scan"}, "lon": -77.0264295, "name": "eaeecabc925878a1c8c81e2949af4aca", "lat": 38.88095933333334, "is_reserved": 0, "fusion_lat": 0.0, "bike_id": "eaeecabc925878a1c8c81e2949af4aca", "type": "electric_scooter", "is_disabled": 0, "fusion_lon": 0.0}, {"rental_uris": {"android": "https://dc.lft.to/lastmile_qr_scan", "ios": "https://dc.lft.to/lastmile_qr_scan"}, "lon": -77.0255535, "name": "d228b8ce45d4acc256ecec2b66347ae3", "lat": 38.941642, "is_reserved": 0, "fusion_lat": 0.0, "bike_id": "d228b8ce45d4acc256ecec2b66347ae3", "type": "electric_scooter", "is_disabled": 0, "fusion_lon": 0.0}, {"rental_uris": {"android": "https://dc.lft.to/lastmile_qr_scan", "ios": "https://dc.lft.to/lastmile_qr_scan"}, "lon": -77.02492083333334, "name": "22609a2f5fa155a6ded8078e5746a831", "lat": 38.907219166666664, "is_reserved": 0, "fusion_lat": 0.0, "bike_id": "22609a2f5fa155a6ded8078e5746a831", "type": "electric_scooter", "is_disabled": 0, "fusion_lon": 0.0}, {"rental_uris": {"android": "https://dc.lft.to/lastmile_qr_scan", "ios": "https://dc.lft.to/lastmile_qr_scan"}, "lon": -77.03695683333333, "name": "13b4dd9b1a16222c6554dd6410a61e37", "lat": 38.918101666666665, "is_reserved": 0, "fusion_lat": 0.0, "bike_id": "13b4dd9b1a16222c6554dd6410a61e37", "type": "electric_scooter", "is_disabled": 0, "fusion_lon": 0.0}, {"rental_uris": {"android": "https://dc.lft.to/lastmile_qr_scan", "ios": "https://dc.lft.to/lastmile_qr_scan"}, "lon": -77.0164735, "name": "5db49728f7169962bc41497b1d812752", "lat": 38.88116866666667, "is_reserved": 0, "fusion_lat": 0.0, "bike_id": "5db49728f7169962bc41497b1d812752", "type": "electric_scooter", "is_disabled": 0, "fusion_lon": 0.0}, {"rental_uris": {"android": "https://dc.lft.to/lastmile_qr_scan", "ios": "https://dc.lft.to/lastmile_qr_scan"}, "lon": -77.0269315, "name": "bb423b018d93ed3a843fb21966af5efd", "lat": 38.90949916666667, "is_reserved": 0, "fusion_lat": 0.0, "bike_id": "bb423b018d93ed3a843fb21966af5efd", "type": "electric_scooter", "is_disabled": 0, "fusion_lon": 0.0}, {"rental_uris": {"android": "https://dc.lft.to/lastmile_qr_scan", "ios": "https://dc.lft.to/lastmile_qr_scan"}, "lon": -77.0312305, "name": "a2160d940f2f5cfd949a8d2e1593d4a1", "lat": 38.9296205, "is_reserved": 0, "fusion_lat": 0.0, "bike_id": "a2160d940f2f5cfd949a8d2e1593d4a1", "type": "electric_scooter", "is_disabled": 0, "fusion_lon": 0.0}, {"rental_uris": {"android": "https://dc.lft.to/lastmile_qr_scan", "ios": "https://dc.lft.to/lastmile_qr_scan"}, "lon": -77.03098916666667, "name": "b41a25ae8e471cc73e5c904870e77654", "lat": 38.935445, "is_reserved": 0, "fusion_lat": 0.0, "bike_id": "b41a25ae8e471cc73e5c904870e77654", "type": "electric_scooter", "is_disabled": 0, "fusion_lon": 0.0}, {"rental_uris": {"android": "https://dc.lft.to/lastmile_qr_scan", "ios": "https://dc.lft.to/lastmile_qr_scan"}, "lon": -77.01913316666666, "name": "37a9d96d0f5840d81e60c0486a833f0d", "lat": 38.93770766666667, "is_reserved": 0, "fusion_lat": 0.0, "bike_id": "37a9d96d0f5840d81e60c0486a833f0d", "type": "electric_bike", "is_disabled": 0, "fusion_lon": 0.0}, {"rental_uris": {"android": "https://dc.lft.to/lastmile_qr_scan", "ios": "https://dc.lft.to/lastmile_qr_scan"}, "lon": -76.9854225, "name": "e8963cfdc508dfcd3c07c2f8bd833ba4", "lat": 38.86688783333334, "is_reserved": 0, "fusion_lat": 0.0, "bike_id": "e8963cfdc508dfcd3c07c2f8bd833ba4", "type": "electric_scooter", "is_disabled": 0, "fusion_lon": 0.0}, {"rental_uris": {"android": "https://dc.lft.to/lastmile_qr_scan", "ios": "https://dc.lft.to/lastmile_qr_scan"}, "lon": -77.0321015, "name": "9d195a300214e8dbbdc362eeb58024de", "lat": 38.92128816666666, "is_reserved": 0, "fusion_lat": 0.0, "bike_id": "9d195a300214e8dbbdc362eeb58024de", "type": "electric_scooter", "is_disabled": 0, "fusion_lon": 0.0}, {"rental_uris": {"android": "https://dc.lft.to/lastmile_qr_scan", "ios": "https://dc.lft.to/lastmile_qr_scan"}, "lon": -77.04458883333334, "name": "50313a3e56a3a951bf62cee2fa4d377f", "lat": 38.902793, "is_reserved": 0, "fusion_lat": 0.0, "bike_id": "50313a3e56a3a951bf62cee2fa4d377f", "type": "electric_scooter", "is_disabled": 0, "fusion_lon": 0.0}, {"rental_uris": {"android": "https://dc.lft.to/lastmile_qr_scan", "ios": "https://dc.lft.to/lastmile_qr_scan"}, "lon": -76.9977455, "name": "220232319402fc5b4d6429aa8d34b274", "lat": 38.908915, "is_reserved": 0, "fusion_lat": 0.0, "bike_id": "220232319402fc5b4d6429aa8d34b274", "type": "electric_scooter", "is_disabled": 0, "fusion_lon": 0.0}, {"rental_uris": {"android": "https://dc.lft.to/lastmile_qr_scan", "ios": "https://dc.lft.to/lastmile_qr_scan"}, "lon": -76.99133383333333, "name": "15fa714a5e6386829626c31963a2e775", "lat": 38.8464175, "is_reserved": 0, "fusion_lat": 0.0, "bike_id": "15fa714a5e6386829626c31963a2e775", "type": "electric_scooter", "is_disabled": 0, "fusion_lon": 0.0}, {"rental_uris": {"android": "https://dc.lft.to/lastmile_qr_scan", "ios": "https://dc.lft.to/lastmile_qr_scan"}, "lon": -77.0093045, "name": "0d6b3b17728d06b06ac752a89808087b", "lat": 38.90745483333333, "is_reserved": 0, "fusion_lat": 0.0, "bike_id": "0d6b3b17728d06b06ac752a89808087b", "type": "electric_scooter", "is_disabled": 0, "fusion_lon": 0.0}, {"rental_uris": {"android": "https://dc.lft.to/lastmile_qr_scan", "ios": "https://dc.lft.to/lastmile_qr_scan"}, "lon": -76.99520033333333, "name": "6099ed6206587e60635cc8e319ecf217", "lat": 38.82175933333333, "is_reserved": 0, "fusion_lat": 0.0, "bike_id": "6099ed6206587e60635cc8e319ecf217", "type": "electric_bike", "is_disabled": 0, "fusion_lon": 0.0}, {"rental_uris": {"android": "https://dc.lft.to/lastmile_qr_scan", "ios": "https://dc.lft.to/lastmile_qr_scan"}, "lon": -77.10784916666667, "name": "796af1a5b80ad8070848c0f9820e319f", "lat": 38.85246433333333, "is_reserved": 0, "fusion_lat": 0.0, "bike_id": "796af1a5b80ad8070848c0f9820e319f", "type": "electric_bike", "is_disabled": 0, "fusion_lon": 0.0}, {"rental_uris": {"android": "https://dc.lft.to/lastmile_qr_scan", "ios": "https://dc.lft.to/lastmile_qr_scan"}, "lon": -77.02102983333333, "name": "b097b1a3f7013f35cc1eb1ddade38e37", "lat": 38.9214635, "is_reserved": 0, "fusion_lat": 0.0, "bike_id": "b097b1a3f7013f35cc1eb1ddade38e37", "type": "electric_scooter", "is_disabled": 0, "fusion_lon": 0.0}, {"rental_uris": {"android": "https://dc.lft.to/lastmile_qr_scan", "ios": "https://dc.lft.to/lastmile_qr_scan"}, "lon": -76.99736583333333, "name": "dc65bce809ac52bd69e44688c69ac039", "lat": 38.89924583333333, "is_reserved": 0, "fusion_lat": 0.0, "bike_id": "dc65bce809ac52bd69e44688c69ac039", "type": "electric_scooter", "is_disabled": 0, "fusion_lon": 0.0}, {"rental_uris": {"android": "https://dc.lft.to/lastmile_qr_scan", "ios": "https://dc.lft.to/lastmile_qr_scan"}, "lon": -76.9924635, "name": "98eaba83c0e8bcbb7a063cfbf1d827f4", "lat": 38.79469566666667, "is_reserved": 0, "fusion_lat": 0.0, "bike_id": "98eaba83c0e8bcbb7a063cfbf1d827f4", "type": "electric_bike", "is_disabled": 0, "fusion_lon": 0.0}, {"rental_uris": {"android": "https://dc.lft.to/lastmile_qr_scan", "ios": "https://dc.lft.to/lastmile_qr_scan"}, "lon": -77.03431816666667, "name": "7bc23b926e5f222c0acbbb23d74cc51c", "lat": 38.9064035, "is_reserved": 0, "fusion_lat": 0.0, "bike_id": "7bc23b926e5f222c0acbbb23d74cc51c", "type": "electric_scooter", "is_disabled": 0, "fusion_lon": 0.0}, {"rental_uris": {"android": "https://dc.lft.to/lastmile_qr_scan", "ios": "https://dc.lft.to/lastmile_qr_scan"}, "lon": -77.0770015, "name": "9b2a25ea9a7b6e193bf0466a3a38a6f2", "lat": 38.943857666666666, "is_reserved": 0, "fusion_lat": 0.0, "bike_id": "9b2a25ea9a7b6e193bf0466a3a38a6f2", "type": "electric_scooter", "is_disabled": 0, "fusion_lon": 0.0}, {"rental_uris": {"android": "https://dc.lft.to/lastmile_qr_scan", "ios": "https://dc.lft.to/lastmile_qr_scan"}, "lon": -77.03340316666667, "name": "adec881dd9e92d1e50f9ad9396765bd2", "lat": 38.935177, "is_reserved": 0, "fusion_lat": 0.0, "bike_id": "adec881dd9e92d1e50f9ad9396765bd2", "type": "electric_scooter", "is_disabled": 0, "fusion_lon": 0.0}, {"rental_uris": {"android": "https://dc.lft.to/lastmile_qr_scan", "ios": "https://dc.lft.to/lastmile_qr_scan"}, "lon": -77.03128666666667, "name": "c55907588105b5f505d5fedf9aaa3473", "lat": 38.91706933333333, "is_reserved": 0, "fusion_lat": 0.0, "bike_id": "c55907588105b5f505d5fedf9aaa3473", "type": "electric_scooter", "is_disabled": 0, "fusion_lon": 0.0}, {"rental_uris": {"android": "https://dc.lft.to/lastmile_qr_scan", "ios": "https://dc.lft.to/lastmile_qr_scan"}, "lon": -77.02197966666667, "name": "3d68c2f1c548d1290faa67d9d75d339b", "lat": 38.919827, "is_reserved": 0, "fusion_lat": 0.0, "bike_id": "3d68c2f1c548d1290faa67d9d75d339b", "type": "electric_scooter", "is_disabled": 0, "fusion_lon": 0.0}, {"rental_uris": {"android": "https://dc.lft.to/lastmile_qr_scan", "ios": "https://dc.lft.to/lastmile_qr_scan"}, "lon": -77.05470533333333, "name": "1a6d10252c09a94c8f6caf97fb8c380f", "lat": 38.8966635, "is_reserved": 0, "fusion_lat": 0.0, "bike_id": "1a6d10252c09a94c8f6caf97fb8c380f", "type": "electric_scooter", "is_disabled": 0, "fusion_lon": 0.0}, {"rental_uris": {"android": "https://dc.lft.to/lastmile_qr_scan", "ios": "https://dc.lft.to/lastmile_qr_scan"}, "lon": -76.9854295, "name": "fedbefbe3a5ee749d1475dca11a4a136", "lat": 38.8668785, "is_reserved": 0, "fusion_lat": 0.0, "bike_id": "fedbefbe3a5ee749d1475dca11a4a136", "type": "electric_scooter", "is_disabled": 0, "fusion_lon": 0.0}, {"rental_uris": {"android": "https://dc.lft.to/lastmile_qr_scan", "ios": "https://dc.lft.to/lastmile_qr_scan"}, "lon": -77.0142855, "name": "f8750b624c42240dea29733857b79981", "lat": 38.97216933333333, "is_reserved": 0, "fusion_lat": 0.0, "bike_id": "f8750b624c42240dea29733857b79981", "type": "electric_bike", "is_disabled": 0, "fusion_lon": 0.0}, {"rental_uris": {"android": "https://dc.lft.to/lastmile_qr_scan", "ios": "https://dc.lft.to/lastmile_qr_scan"}, "lon": -77.02168833333333, "name": "db4da030fe826988c7221daa506003de", "lat": 38.910447166666664, "is_reserved": 0, "fusion_lat": 0.0, "bike_id": "db4da030fe826988c7221daa506003de", "type": "electric_scooter", "is_disabled": 0, "fusion_lon": 0.0}, {"rental_uris": {"android": "https://dc.lft.to/lastmile_qr_scan", "ios": "https://dc.lft.to/lastmile_qr_scan"}, "lon": -77.0091645, "name": "b8dd79f039c0f44f9046d8eacfd84e2c", "lat": 38.8960415, "is_reserved": 0, "fusion_lat": 0.0, "bike_id": "b8dd79f039c0f44f9046d8eacfd84e2c", "type": "electric_scooter", "is_disabled": 0, "fusion_lon": 0.0}, {"rental_uris": {"android": "https://dc.lft.to/lastmile_qr_scan", "ios": "https://dc.lft.to/lastmile_qr_scan"}, "lon": -77.07378716666666, "name": "60b60b9981bb8f7c28f96db18abb0a4b", "lat": 38.96187166666667, "is_reserved": 0, "fusion_lat": 0.0, "bike_id": "60b60b9981bb8f7c28f96db18abb0a4b", "type": "electric_bike", "is_disabled": 0, "fusion_lon": 0.0}, {"rental_uris": {"android": "https://dc.lft.to/lastmile_qr_scan", "ios": "https://dc.lft.to/lastmile_qr_scan"}, "lon": -77.03124483333333, "name": "6edcab974f33a357646ec2662ad8665e", "lat": 38.9169735, "is_reserved": 0, "fusion_lat": 0.0, "bike_id": "6edcab974f33a357646ec2662ad8665e", "type": "electric_scooter", "is_disabled": 0, "fusion_lon": 0.0}, {"rental_uris": {"android": "https://dc.lft.to/lastmile_qr_scan", "ios": "https://dc.lft.to/lastmile_qr_scan"}, "lon": -77.04337983333333, "name": "0c524432f5c4cb4ee606a33d319747b4", "lat": 38.904212333333334, "is_reserved": 0, "fusion_lat": 0.0, "bike_id": "0c524432f5c4cb4ee606a33d319747b4", "type": "electric_scooter", "is_disabled": 0, "fusion_lon": 0.0}, {"rental_uris": {"android": "https://dc.lft.to/lastmile_qr_scan", "ios": "https://dc.lft.to/lastmile_qr_scan"}, "lon": -77.01890133333333, "name": "6a198d72d729c01e1cc2e6fd315178c7", "lat": 38.904970166666665, "is_reserved": 0, "fusion_lat": 0.0, "bike_id": "6a198d72d729c01e1cc2e6fd315178c7", "type": "electric_bike", "is_disabled": 0, "fusion_lon": 0.0}, {"rental_uris": {"android": "https://dc.lft.to/lastmile_qr_scan", "ios": "https://dc.lft.to/lastmile_qr_scan"}, "lon": -77.0451545, "name": "ac2475e188b41a41adb09d2f7468c5cf", "lat": 38.892200333333335, "is_reserved": 0, "fusion_lat": 0.0, "bike_id": "ac2475e188b41a41adb09d2f7468c5cf", "type": "electric_scooter", "is_disabled": 0, "fusion_lon": 0.0}, {"rental_uris": {"android": "https://dc.lft.to/lastmile_qr_scan", "ios": "https://dc.lft.to/lastmile_qr_scan"}, "lon": -77.02083233333333, "name": "a0c5a1cd1375075885c7f9f9754160eb", "lat": 38.92713783333333, "is_reserved": 0, "fusion_lat": 0.0, "bike_id": "a0c5a1cd1375075885c7f9f9754160eb", "type": "electric_scooter", "is_disabled": 0, "fusion_lon": 0.0}, {"rental_uris": {"android": "https://dc.lft.to/lastmile_qr_scan", "ios": "https://dc.lft.to/lastmile_qr_scan"}, "lon": -76.98195566666666, "name": "8fe4d037e7add1d22abfce6823d9d1cb", "lat": 38.86597833333333, "is_reserved": 0, "fusion_lat": 0.0, "bike_id": "8fe4d037e7add1d22abfce6823d9d1cb", "type": "electric_scooter", "is_disabled": 0, "fusion_lon": 0.0}, {"rental_uris": {"android": "https://dc.lft.to/lastmile_qr_scan", "ios": "https://dc.lft.to/lastmile_qr_scan"}, "lon": -77.04398266666666, "name": "3abcba3142394af67ceba55a144e73c3", "lat": 38.91214983333333, "is_reserved": 0, "fusion_lat": 0.0, "bike_id": "3abcba3142394af67ceba55a144e73c3", "type": "electric_scooter", "is_disabled": 0, "fusion_lon": 0.0}, {"rental_uris": {"android": "https://dc.lft.to/lastmile_qr_scan", "ios": "https://dc.lft.to/lastmile_qr_scan"}, "lon": -77.033491, "name": "59788f589ee11b9da0a4d84ae3b2f3c3", "lat": 38.8983265, "is_reserved": 0, "fusion_lat": 0.0, "bike_id": "59788f589ee11b9da0a4d84ae3b2f3c3", "type": "electric_scooter", "is_disabled": 0, "fusion_lon": 0.0}, {"rental_uris": {"android": "https://dc.lft.to/lastmile_qr_scan", "ios": "https://dc.lft.to/lastmile_qr_scan"}, "lon": -77.04349516666667, "name": "fa4824062e140261958c974685ad3766", "lat": 38.907181666666666, "is_reserved": 0, "fusion_lat": 0.0, "bike_id": "fa4824062e140261958c974685ad3766", "type": "electric_scooter", "is_disabled": 0, "fusion_lon": 0.0}, {"rental_uris": {"android": "https://dc.lft.to/lastmile_qr_scan", "ios": "https://dc.lft.to/lastmile_qr_scan"}, "lon": -77.043347, "name": "ed1361d722a8c48fba423be985a795b1", "lat": 38.89723766666667, "is_reserved": 0, "fusion_lat": 0.0, "bike_id": "ed1361d722a8c48fba423be985a795b1", "type": "electric_scooter", "is_disabled": 0, "fusion_lon": 0.0}, {"rental_uris": {"android": "https://dc.lft.to/lastmile_qr_scan", "ios": "https://dc.lft.to/lastmile_qr_scan"}, "lon": -77.01361133333333, "name": "fc8ee43935246134806143f1c5cefc08", "lat": 38.916308, "is_reserved": 0, "fusion_lat": 0.0, "bike_id": "fc8ee43935246134806143f1c5cefc08", "type": "electric_scooter", "is_disabled": 0, "fusion_lon": 0.0}, {"rental_uris": {"android": "https://dc.lft.to/lastmile_qr_scan", "ios": "https://dc.lft.to/lastmile_qr_scan"}, "lon": -77.00817633333334, "name": "df7d142db6fac28c45d341637300b17c", "lat": 38.9025965, "is_reserved": 0, "fusion_lat": 0.0, "bike_id": "df7d142db6fac28c45d341637300b17c", "type": "electric_scooter", "is_disabled": 0, "fusion_lon": 0.0}, {"rental_uris": {"android": "https://dc.lft.to/lastmile_qr_scan", "ios": "https://dc.lft.to/lastmile_qr_scan"}, "lon": -77.02833866666667, "name": "b24efe1320fd94592cbfeaa8735c96f3", "lat": 38.893600666666664, "is_reserved": 0, "fusion_lat": 0.0, "bike_id": "b24efe1320fd94592cbfeaa8735c96f3", "type": "electric_scooter", "is_disabled": 0, "fusion_lon": 0.0}, {"rental_uris": {"android": "https://dc.lft.to/lastmile_qr_scan", "ios": "https://dc.lft.to/lastmile_qr_scan"}, "lon": -77.04702266666666, "name": "d687be959ecacb8bcaa07c9e642bd89c", "lat": 38.9217545, "is_reserved": 0, "fusion_lat": 0.0, "bike_id": "d687be959ecacb8bcaa07c9e642bd89c", "type": "electric_scooter", "is_disabled": 0, "fusion_lon": 0.0}, {"rental_uris": {"android": "https://dc.lft.to/lastmile_qr_scan", "ios": "https://dc.lft.to/lastmile_qr_scan"}, "lon": -77.041735, "name": "b455ddc7f32c0ca21f4dea9a2731e15e", "lat": 38.913927666666666, "is_reserved": 0, "fusion_lat": 0.0, "bike_id": "b455ddc7f32c0ca21f4dea9a2731e15e", "type": "electric_scooter", "is_disabled": 0, "fusion_lon": 0.0}, {"rental_uris": {"android": "https://dc.lft.to/lastmile_qr_scan", "ios": "https://dc.lft.to/lastmile_qr_scan"},