{"data": {"bikes": [{"is_disabled": 0, "fusion_lon": 0.0, "fusion_lat": 0.0, "lat": 38.892379, "type": "electric_scooter", "lon": -77.028242, "bike_id": "6abb4d40faa51b52f3b123fe635fc812", "rental_uris": {"android": "https://dc.lft.to/lastmile_qr_scan", "ios": "https://dc.lft.to/lastmile_qr_scan"}, "name": "6abb4d40faa51b52f3b123fe635fc812", "is_reserved": 0}, {"is_disabled": 0, "fusion_lon": 0.0, "fusion_lat": 0.0, "lat": 38.917043166666666, "type": "electric_scooter", "lon": -77.0347355, "bike_id": "5d372fb64ad3fad14e3130aa69ec897c", "rental_uris": {"android": "https://dc.lft.to/lastmile_qr_scan", "ios": "https://dc.lft.to/lastmile_qr_scan"}, "name": "5d372fb64ad3fad14e3130aa69ec897c", "is_reserved": 0}, {"is_disabled": 0, "fusion_lon": 0.0, "fusion_lat": 0.0, "lat": 38.84600283333333, "type": "electric_bike", "lon": -76.968821, "bike_id": "9aa32de7e30ae123014e1294330c4658", "rental_uris": {"android": "https://dc.lft.to/lastmile_qr_scan", "ios": "https://dc.lft.to/lastmile_qr_scan"}, "name": "9aa32de7e30ae123014e1294330c4658", "is_reserved": 0}, {"is_disabled": 0, "fusion_lon": 0.0, "fusion_lat": 0.0, "lat": 38.897405, "type": "electric_scooter", "lon": -77.02614266666667, "bike_id": "3d214e36b2d4fabe951d0481acc6d9e0", "rental_uris": {"android": "https://dc.lft.to/lastmile_qr_scan", "ios": "https://dc.lft.to/lastmile_qr_scan"}, "name": "3d214e36b2d4fabe951d0481acc6d9e0", "is_reserved": 0}, {"is_disabled": 0, "fusion_lon": 0.0, "fusion_lat": 0.0, "lat": 38.858020333333336, "type": "electric_scooter", "lon": -76.98656116666666, "bike_id": "1f9cd6f73f9d42ecd346f2a913ccca82", "rental_uris": {"android": "https://dc.lft.to/lastmile_qr_scan", "ios": "https://dc.lft.to/lastmile_qr_scan"}, "name": "1f9cd6f73f9d42ecd346f2a913ccca82", "is_reserved": 0}, {"is_disabled": 0, "fusion_lon": 0.0, "fusion_lat": 0.0, "lat": 38.928434833333334, "type": "electric_scooter", "lon": -77.0141195, "bike_id": "b30dffea496e0f44ed3edf4130aec6e0", "rental_uris": {"android": "https://dc.lft.to/lastmile_qr_scan", "ios": "https://dc.lft.to/lastmile_qr_scan"}, "name": "b30dffea496e0f44ed3edf4130aec6e0", "is_reserved": 0}, {"is_disabled": 0, "fusion_lon": 0.0, "fusion_lat": 0.0, "lat": 38.863242666666665, "type": "electric_scooter", "lon": -76.99042333333334, "bike_id": "04891b632e090ddd39e8e6132eb85573", "rental_uris": {"android": "https://dc.lft.to/lastmile_qr_scan", "ios": "https://dc.lft.to/lastmile_qr_scan"}, "name": "04891b632e090ddd39e8e6132eb85573", "is_reserved": 0}, {"is_disabled": 0, "fusion_lon": 0.0, "fusion_lat": 0.0, "lat": 38.84195716666667, "type": "electric_bike", "lon": -77.10684483333333, "bike_id": "cc55bd144e11d35eedba14fd7c088b4f", "rental_uris": {"android": "https://dc.lft.to/lastmile_qr_scan", "ios": "https://dc.lft.to/lastmile_qr_scan"}, "name": "cc55bd144e11d35eedba14fd7c088b4f", "is_reserved": 0}, {"is_disabled": 0, "fusion_lon": 0.0, "fusion_lat": 0.0, "lat": 38.89905816666667, "type": "electric_bike", "lon": -76.9857345, "bike_id": "8b31e2cfe02cb43bb3bcca8bd37bb88b", "rental_uris": {"android": "https://dc.lft.to/lastmile_qr_scan", "ios": "https://dc.lft.to/lastmile_qr_scan"}, "name": "8b31e2cfe02cb43bb3bcca8bd37bb88b", "is_reserved": 0}, {"is_disabled": 0, "fusion_lon": 0.0, "fusion_lat": 0.0, "lat": 38.924744, "type": "electric_scooter", "lon": -77.034854, "bike_id": "a8ffe969f77cf59ba41e3f5fdc6058a7", "rental_uris": {"android": "https://dc.lft.to/lastmile_qr_scan", "ios": "https://dc.lft.to/lastmile_qr_scan"}, "name": "a8ffe969f77cf59ba41e3f5fdc6058a7", "is_reserved": 0}, {"is_disabled": 0, "fusion_lon": 0.0, "fusion_lat": 0.0, "lat": 38.899653666666666, "type": "electric_scooter", "lon": -77.020938, "bike_id": "4686bce9cd44b8346d02dc63aef47792", "rental_uris": {"android": "https://dc.lft.to/lastmile_qr_scan", "ios": "https://dc.lft.to/lastmile_qr_scan"}, "name": "4686bce9cd44b8346d02dc63aef47792", "is_reserved": 0}, {"is_disabled": 0, "fusion_lon": 0.0, "fusion_lat": 0.0, "lat": 38.967588666666664, "type": "electric_bike", "lon": -77.091622, "bike_id": "d827752e2774622cb75e1136faba45de", "rental_uris": {"android": "https://dc.lft.to/lastmile_qr_scan", "ios": "https://dc.lft.to/lastmile_qr_scan"}, "name": "d827752e2774622cb75e1136faba45de", "is_reserved": 0}, {"is_disabled": 0, "fusion_lon": 0.0, "fusion_lat": 0.0, "lat": 38.998542, "type": "electric_bike", "lon": -77.02860883333334, "bike_id": "3010b8b9267d3ed0821ae711a63f9335", "rental_uris": {"android": "https://dc.lft.to/lastmile_qr_scan", "ios": "https://dc.lft.to/lastmile_qr_scan"}, "name": "3010b8b9267d3ed0821ae711a63f9335", "is_reserved": 0}, {"is_disabled": 0, "fusion_lon": 0.0, "fusion_lat": 0.0, "lat": 38.9015, "type": "electric_bike", "lon": -77.020115, "bike_id": "d1139b0b55303ffaf93d53505c21a4c8", "rental_uris": {"android": "https://dc.lft.to/lastmile_qr_scan", "ios": "https://dc.lft.to/lastmile_qr_scan"}, "name": "d1139b0b55303ffaf93d53505c21a4c8", "is_reserved": 0}, {"is_disabled": 0, "fusion_lon": 0.0, "fusion_lat": 0.0, "lat": 38.89225166666667, "type": "electric_scooter", "lon": -77.01376916666666, "bike_id": "f3108f0e5b461238c0d6f2b785d992aa", "rental_uris": {"android": "https://dc.lft.to/lastmile_qr_scan", "ios": "https://dc.lft.to/lastmile_qr_scan"}, "name": "f3108f0e5b461238c0d6f2b785d992aa", "is_reserved": 0}, {"is_disabled": 0, "fusion_lon": 0.0, "fusion_lat": 0.0, "lat": 38.92476966666667, "type": "electric_scooter", "lon": -77.02711883333333, "bike_id": "cdbfaa3e1873e9e4400b9c110f5afec9", "rental_uris": {"android": "https://dc.lft.to/lastmile_qr_scan", "ios": "https://dc.lft.to/lastmile_qr_scan"}, "name": "cdbfaa3e1873e9e4400b9c110f5afec9", "is_reserved": 0}, {"is_disabled": 0, "fusion_lon": 0.0, "fusion_lat": 0.0, "lat": 38.91314716666667, "type": "electric_scooter", "lon": -77.03247433333334, "bike_id": "504e089f166639e32fb4855549aa5f83", "rental_uris": {"android": "https://dc.lft.to/lastmile_qr_scan", "ios": "https://dc.lft.to/lastmile_qr_scan"}, "name": "504e089f166639e32fb4855549aa5f83", "is_reserved": 0}, {"is_disabled": 0, "fusion_lon": 0.0, "fusion_lat": 0.0, "lat": 38.905379333333336, "type": "electric_scooter", "lon": -77.03386166666667, "bike_id": "88eff3c83de2a9f814ac1e11423cbc8c", "rental_uris": {"android": "https://dc.lft.to/lastmile_qr_scan", "ios": "https://dc.lft.to/lastmile_qr_scan"}, "name": "88eff3c83de2a9f814ac1e11423cbc8c", "is_reserved": 0}, {"is_disabled": 0, "fusion_lon": 0.0, "fusion_lat": 0.0, "lat": 38.900062, "type": "electric_scooter", "lon": -77.02400316666666, "bike_id": "3102f6956aee34e196b2ae56d88520d3", "rental_uris": {"android": "https://dc.lft.to/lastmile_qr_scan", "ios": "https://dc.lft.to/lastmile_qr_scan"}, "name": "3102f6956aee34e196b2ae56d88520d3", "is_reserved": 0}, {"is_disabled": 0, "fusion_lon": 0.0, "fusion_lat": 0.0, "lat": 38.9349155, "type": "electric_scooter", "lon": -77.02400366666667, "bike_id": "a91c480df00927ad5c640200eb8b8e9a", "rental_uris": {"android": "https://dc.lft.to/lastmile_qr_scan", "ios": "https://dc.lft.to/lastmile_qr_scan"}, "name": "a91c480df00927ad5c640200eb8b8e9a", "is_reserved": 0}, {"is_disabled": 0, "fusion_lon": 0.0, "fusion_lat": 0.0, "lat": 38.89185416666667, "type": "electric_scooter", "lon": -76.988314, "bike_id": "3616dd9851b1347207091e9bd6702b15", "rental_uris": {"android": "https://dc.lft.to/lastmile_qr_scan", "ios": "https://dc.lft.to/lastmile_qr_scan"}, "name": "3616dd9851b1347207091e9bd6702b15", "is_reserved": 0}, {"is_disabled": 0, "fusion_lon": 0.0, "fusion_lat": 0.0, "lat": 38.901985833333335, "type": "electric_scooter", "lon": -77.02373433333334, "bike_id": "39160c97421580df6c65a57c9e7d0e15", "rental_uris": {"android": "https://dc.lft.to/lastmile_qr_scan", "ios": "https://dc.lft.to/lastmile_qr_scan"}, "name": "39160c97421580df6c65a57c9e7d0e15", "is_reserved": 0}, {"is_disabled": 0, "fusion_lon": 0.0, "fusion_lat": 0.0, "lat": 38.87958483333333, "type": "electric_scooter", "lon": -77.0242045, "bike_id": "8eb2b1fa597bfef6192218c211fbb6dc", "rental_uris": {"android": "https://dc.lft.to/lastmile_qr_scan", "ios": "https://dc.lft.to/lastmile_qr_scan"}, "name": "8eb2b1fa597bfef6192218c211fbb6dc", "is_reserved": 0}, {"is_disabled": 0, "fusion_lon": 0.0, "fusion_lat": 0.0, "lat": 38.92729666666666, "type": "electric_scooter", "lon": -77.02242216666667, "bike_id": "6f24bdf02ef423e3416ccb59f6d95957", "rental_uris": {"android": "https://dc.lft.to/lastmile_qr_scan", "ios": "https://dc.lft.to/lastmile_qr_scan"}, "name": "6f24bdf02ef423e3416ccb59f6d95957", "is_reserved": 0}, {"is_disabled": 0, "fusion_lon": 0.0, "fusion_lat": 0.0, "lat": 38.900437, "type": "electric_scooter", "lon": -76.92268083333333, "bike_id": "bd810d2265702b1ac51664281760e4e3", "rental_uris": {"android": "https://dc.lft.to/lastmile_qr_scan", "ios": "https://dc.lft.to/lastmile_qr_scan"}, "name": "bd810d2265702b1ac51664281760e4e3", "is_reserved": 0}, {"is_disabled": 0, "fusion_lon": 0.0, "fusion_lat": 0.0, "lat": 38.86120233333333, "type": "electric_scooter", "lon": -76.98551483333334, "bike_id": "997476bc5ae44ecee61c0f8e684a5f1d", "rental_uris": {"android": "https://dc.lft.to/lastmile_qr_scan", "ios": "https://dc.lft.to/lastmile_qr_scan"}, "name": "997476bc5ae44ecee61c0f8e684a5f1d", "is_reserved": 0}, {"is_disabled": 0, "fusion_lon": 0.0, "fusion_lat": 0.0, "lat": 38.9347175, "type": "electric_scooter", "lon": -77.07214333333333, "bike_id": "46a64eea8bb94bae0e9ccb5a26407431", "rental_uris": {"android": "https://dc.lft.to/lastmile_qr_scan", "ios": "https://dc.lft.to/lastmile_qr_scan"}, "name": "46a64eea8bb94bae0e9ccb5a26407431", "is_reserved": 0}, {"is_disabled": 0, "fusion_lon": 0.0, "fusion_lat": 0.0, "lat": 38.936778333333336, "type": "electric_scooter", "lon": -77.02444716666666, "bike_id": "f779777662e72dc686565518270b88b6", "rental_uris": {"android": "https://dc.lft.to/lastmile_qr_scan", "ios": "https://dc.lft.to/lastmile_qr_scan"}, "name": "f779777662e72dc686565518270b88b6", "is_reserved": 0}, {"is_disabled": 0, "fusion_lon": 0.0, "fusion_lat": 0.0, "lat": 38.89374316666667, "type": "electric_scooter", "lon": -76.94996966666666, "bike_id": "f737409499692a63dbe819cd41fbabbb", "rental_uris": {"android": "https://dc.lft.to/lastmile_qr_scan", "ios": "https://dc.lft.to/lastmile_qr_scan"}, "name": "f737409499692a63dbe819cd41fbabbb", "is_reserved": 0}, {"is_disabled": 0, "fusion_lon": 0.0, "fusion_lat": 0.0, "lat": 38.8875895, "type": "electric_bike", "lon": -76.90083583333333, "bike_id": "13197e37e8c9e1705d546f88861c6f73", "rental_uris": {"android": "https://dc.lft.to/lastmile_qr_scan", "ios": "https://dc.lft.to/lastmile_qr_scan"}, "name": "13197e37e8c9e1705d546f88861c6f73", "is_reserved": 0}, {"is_disabled": 0, "fusion_lon": 0.0, "fusion_lat": 0.0, "lat": 38.911855833333334, "type": "electric_scooter", "lon": -77.03506416666667, "bike_id": "06adc76ad323748eec8d4a958b7468ab", "rental_uris": {"android": "https://dc.lft.to/lastmile_qr_scan", "ios": "https://dc.lft.to/lastmile_qr_scan"}, "name": "06adc76ad323748eec8d4a958b7468ab", "is_reserved": 0}, {"is_disabled": 0, "fusion_lon": 0.0, "fusion_lat": 0.0, "lat": 38.896779333333335, "type": "electric_scooter", "lon": -76.9978405, "bike_id": "0a85a3841b101d438591f467606244c7", "rental_uris": {"android": "https://dc.lft.to/lastmile_qr_scan", "ios": "https://dc.lft.to/lastmile_qr_scan"}, "name": "0a85a3841b101d438591f467606244c7", "is_reserved": 0}, {"is_disabled": 0, "fusion_lon": 0.0, "fusion_lat": 0.0, "lat": 38.927074166666664, "type": "electric_scooter", "lon": -77.02326716666667, "bike_id": "451eb6c2afcc44cfd5685b92ec58944b", "rental_uris": {"android": "https://dc.lft.to/lastmile_qr_scan", "ios": "https://dc.lft.to/lastmile_qr_scan"}, "name": "451eb6c2afcc44cfd5685b92ec58944b", "is_reserved": 0}, {"is_disabled": 0, "fusion_lon": 0.0, "fusion_lat": 0.0, "lat": 38.92802483333333, "type": "electric_scooter", "lon": -77.01410183333333, "bike_id": "b624f52157a3f1dc7ba36536d3259890", "rental_uris": {"android": "https://dc.lft.to/lastmile_qr_scan", "ios": "https://dc.lft.to/lastmile_qr_scan"}, "name": "b624f52157a3f1dc7ba36536d3259890", "is_reserved": 0}, {"is_disabled": 0, "fusion_lon": 0.0, "fusion_lat": 0.0, "lat": 38.901411, "type": "electric_scooter", "lon": -77.029333, "bike_id": "0aedb1aab10f020a3c7f6fb9df2468b1", "rental_uris": {"android": "https://dc.lft.to/lastmile_qr_scan", "ios": "https://dc.lft.to/lastmile_qr_scan"}, "name": "0aedb1aab10f020a3c7f6fb9df2468b1", "is_reserved": 0}, {"is_disabled": 0, "fusion_lon": 0.0, "fusion_lat": 0.0, "lat": 38.90514733333333, "type": "electric_scooter", "lon": -77.00210333333334, "bike_id": "25f45d810d476e519f2f8aa6c23e418d", "rental_uris": {"android": "https://dc.lft.to/lastmile_qr_scan", "ios": "https://dc.lft.to/lastmile_qr_scan"}, "name": "25f45d810d476e519f2f8aa6c23e418d", "is_reserved": 0}, {"is_disabled": 0, "fusion_lon": 0.0, "fusion_lat": 0.0, "lat": 38.918138166666665, "type": "electric_scooter", "lon": -77.03454016666667, "bike_id": "8a15a2e32ad9dfc6f4894e5c4e1d62c5", "rental_uris": {"android": "https://dc.lft.to/lastmile_qr_scan", "ios": "https://dc.lft.to/lastmile_qr_scan"}, "name": "8a15a2e32ad9dfc6f4894e5c4e1d62c5", "is_reserved": 0}, {"is_disabled": 0, "fusion_lon": 0.0, "fusion_lat": 0.0, "lat": 38.892171, "type": "electric_scooter", "lon": -77.02262133333333, "bike_id": "f64ee1b755429bd5ed70b9822dcac554", "rental_uris": {"android": "https://dc.lft.to/lastmile_qr_scan", "ios": "https://dc.lft.to/lastmile_qr_scan"}, "name": "f64ee1b755429bd5ed70b9822dcac554", "is_reserved": 0}, {"is_disabled": 0, "fusion_lon": 0.0, "fusion_lat": 0.0, "lat": 38.88994816666667, "type": "electric_scooter", "lon": -77.01503133333334, "bike_id": "de1e68c5d0abcbe822b4e78570de90e4", "rental_uris": {"android": "https://dc.lft.to/lastmile_qr_scan", "ios": "https://dc.lft.to/lastmile_qr_scan"}, "name": "de1e68c5d0abcbe822b4e78570de90e4", "is_reserved": 0}, {"is_disabled": 0, "fusion_lon": 0.0, "fusion_lat": 0.0, "lat": 38.91922916666667, "type": "electric_scooter", "lon": -77.03021366666667, "bike_id": "efa1c65ee52f12118850d74ef638ff53", "rental_uris": {"android": "https://dc.lft.to/lastmile_qr_scan", "ios": "https://dc.lft.to/lastmile_qr_scan"}, "name": "efa1c65ee52f12118850d74ef638ff53", "is_reserved": 0}, {"is_disabled": 0, "fusion_lon": 0.0, "fusion_lat": 0.0, "lat": 38.91033616666667, "type": "electric_scooter", "lon": -77.01370333333334, "bike_id": "cae10044e813c25c03b1f8a745de0cd7", "rental_uris": {"android": "https://dc.lft.to/lastmile_qr_scan", "ios": "https://dc.lft.to/lastmile_qr_scan"}, "name": "cae10044e813c25c03b1f8a745de0cd7", "is_reserved": 0}, {"is_disabled": 0, "fusion_lon": 0.0, "fusion_lat": 0.0, "lat": 38.922819833333335, "type": "electric_scooter", "lon": -77.0235015, "bike_id": "31ea7f7386535a12b672d3b7db1ea980", "rental_uris": {"android": "https://dc.lft.to/lastmile_qr_scan", "ios": "https://dc.lft.to/lastmile_qr_scan"}, "name": "31ea7f7386535a12b672d3b7db1ea980", "is_reserved": 0}, {"is_disabled": 0, "fusion_lon": 0.0, "fusion_lat": 0.0, "lat": 38.909197, "type": "electric_scooter", "lon": -77.03201833333334, "bike_id": "fb40a5cdff62b567d2223c6a95f5e4b4", "rental_uris": {"android": "https://dc.lft.to/lastmile_qr_scan", "ios": "https://dc.lft.to/lastmile_qr_scan"}, "name": "fb40a5cdff62b567d2223c6a95f5e4b4", "is_reserved": 0}, {"is_disabled": 0, "fusion_lon": 0.0, "fusion_lat": 0.0, "lat": 38.90567633333333, "type": "electric_scooter", "lon": -77.0042505, "bike_id": "fa2259e6432150ba5ef50a591aa24db1", "rental_uris": {"android": "https://dc.lft.to/lastmile_qr_scan", "ios": "https://dc.lft.to/lastmile_qr_scan"}, "name": "fa2259e6432150ba5ef50a591aa24db1", "is_reserved": 0}, {"is_disabled": 0, "fusion_lon": 0.0, "fusion_lat": 0.0, "lat": 38.9498065, "type": "electric_scooter", "lon": -77.027026, "bike_id": "efa81dd546ac94d686c22a3572b9da80", "rental_uris": {"android": "https://dc.lft.to/lastmile_qr_scan", "ios": "https://dc.lft.to/lastmile_qr_scan"}, "name": "efa81dd546ac94d686c22a3572b9da80", "is_reserved": 0}, {"is_disabled": 0, "fusion_lon": 0.0, "fusion_lat": 0.0, "lat": 38.865098333333336, "type": "electric_scooter", "lon": -76.97329083333334, "bike_id": "4be6add84387449bfaa9b89c8bbb90ce", "rental_uris": {"android": "https://dc.lft.to/lastmile_qr_scan", "ios": "https://dc.lft.to/lastmile_qr_scan"}, "name": "4be6add84387449bfaa9b89c8bbb90ce", "is_reserved": 0}, {"is_disabled": 0, "fusion_lon": 0.0, "fusion_lat": 0.0, "lat": 38.921015833333335, "type": "electric_scooter", "lon": -77.0175965, "bike_id": "8f261b059e20409efe83ebc5947e02d9", "rental_uris": {"android": "https://dc.lft.to/lastmile_qr_scan", "ios": "https://dc.lft.to/lastmile_qr_scan"}, "name": "8f261b059e20409efe83ebc5947e02d9", "is_reserved": 0}, {"is_disabled": 0, "fusion_lon": 0.0, "fusion_lat": 0.0, "lat": 38.961439666666664, "type": "electric_scooter", "lon": -77.02788716666667, "bike_id": "1ae2a2ce0db0f256c0fcf50ff5a9baf2", "rental_uris": {"android": "https://dc.lft.to/lastmile_qr_scan", "ios": "https://dc.lft.to/lastmile_qr_scan"}, "name": "1ae2a2ce0db0f256c0fcf50ff5a9baf2", "is_reserved": 0}, {"is_disabled": 0, "fusion_lon": 0.0, "fusion_lat": 0.0, "lat": 38.9267105, "type": "electric_scooter", "lon": -77.02688683333334, "bike_id": "2b8b565a3bb26ffa74834d5da7af9989", "rental_uris": {"android": "https://dc.lft.to/lastmile_qr_scan", "ios": "https://dc.lft.to/lastmile_qr_scan"}, "name": "2b8b565a3bb26ffa74834d5da7af9989", "is_reserved": 0}, {"is_disabled": 0, "fusion_lon": 0.0, "fusion_lat": 0.0, "lat": 38.89317233333333, "type": "electric_scooter", "lon": -77.02118983333334, "bike_id": "7f09279d3f91898efa4b46bc22b28f62", "rental_uris": {"android": "https://dc.lft.to/lastmile_qr_scan", "ios": "https://dc.lft.to/lastmile_qr_scan"}, "name": "7f09279d3f91898efa4b46bc22b28f62", "is_reserved": 0}, {"is_disabled": 0, "fusion_lon": 0.0, "fusion_lat": 0.0, "lat": 38.949778333333335, "type": "electric_scooter", "lon": -77.0270125, "bike_id": "e07e9cd212a9cd03af2cc1b1deb2f94e", "rental_uris": {"android": "https://dc.lft.to/lastmile_qr_scan", "ios": "https://dc.lft.to/lastmile_qr_scan"}, "name": "e07e9cd212a9cd03af2cc1b1deb2f94e", "is_reserved": 0}, {"is_disabled": 0, "fusion_lon": 0.0, "fusion_lat": 0.0, "lat": 38.85812333333333, "type": "electric_scooter", "lon": -76.98963916666666, "bike_id": "832bf7f6fddebc50e71dcb7059871da6", "rental_uris": {"android": "https://dc.lft.to/lastmile_qr_scan", "ios": "https://dc.lft.to/lastmile_qr_scan"}, "name": "832bf7f6fddebc50e71dcb7059871da6", "is_reserved": 0}, {"is_disabled": 0, "fusion_lon": 0.0, "fusion_lat": 0.0, "lat": 38.942759833333334, "type": "electric_scooter", "lon": -77.03633416666666, "bike_id": "61f86447707df4e7888f5e0d1619228b", "rental_uris": {"android": "https://dc.lft.to/lastmile_qr_scan", "ios": "https://dc.lft.to/lastmile_qr_scan"}, "name": "61f86447707df4e7888f5e0d1619228b", "is_reserved": 0}, {"is_disabled": 0, "fusion_lon": 0.0, "fusion_lat": 0.0, "lat": 38.916903166666664, "type": "electric_scooter", "lon": -77.0285155, "bike_id": "83c2b18ee3e93865a43e7ec83de508a3", "rental_uris": {"android": "https://dc.lft.to/lastmile_qr_scan", "ios": "https://dc.lft.to/lastmile_qr_scan"}, "name": "83c2b18ee3e93865a43e7ec83de508a3", "is_reserved": 0}, {"is_disabled": 0, "fusion_lon": 0.0, "fusion_lat": 0.0, "lat": 38.962146, "type": "electric_scooter", "lon": -77.027987, "bike_id": "ee5c11c226d24fc29af28c3bec8ce081", "rental_uris": {"android": "https://dc.lft.to/lastmile_qr_scan", "ios": "https://dc.lft.to/lastmile_qr_scan"}, "name": "ee5c11c226d24fc29af28c3bec8ce081", "is_reserved": 0}, {"is_disabled": 0, "fusion_lon": 0.0, "fusion_lat": 0.0, "lat": 38.887442, "type": "electric_scooter", "lon": -77.017339, "bike_id": "c84ae804025da74bb73b94fb12bc6737", "rental_uris": {"android": "https://dc.lft.to/lastmile_qr_scan", "ios": "https://dc.lft.to/lastmile_qr_scan"}, "name": "c84ae804025da74bb73b94fb12bc6737", "is_reserved": 0}, {"is_disabled": 0, "fusion_lon": 0.0, "fusion_lat": 0.0, "lat": 38.89465383333334, "type": "electric_scooter", "lon": -76.995249, "bike_id": "4ecb1d5c66e139905eba6f682b5ccea7", "rental_uris": {"android": "https://dc.lft.to/lastmile_qr_scan", "ios": "https://dc.lft.to/lastmile_qr_scan"}, "name": "4ecb1d5c66e139905eba6f682b5ccea7", "is_reserved": 0}, {"is_disabled": 0, "fusion_lon": 0.0, "fusion_lat": 0.0, "lat": 38.868914, "type": "electric_scooter", "lon": -76.98313466666667, "bike_id": "f732ea4109dbd06a11320f8a9159ba92", "rental_uris": {"android": "https://dc.lft.to/lastmile_qr_scan", "ios": "https://dc.lft.to/lastmile_qr_scan"}, "name": "f732ea4109dbd06a11320f8a9159ba92", "is_reserved": 0}, {"is_disabled": 0, "fusion_lon": 0.0, "fusion_lat": 0.0, "lat": 38.85985266666667, "type": "electric_bike", "lon": -76.97051183333333, "bike_id": "94d73617f356f0563cd3d9259dd538de", "rental_uris": {"android": "https://dc.lft.to/lastmile_qr_scan", "ios": "https://dc.lft.to/lastmile_qr_scan"}, "name": "94d73617f356f0563cd3d9259dd538de", "is_reserved": 0}, {"is_disabled": 0, "fusion_lon": 0.0, "fusion_lat": 0.0, "lat": 38.914644833333334, "type": "electric_scooter", "lon": -77.02794116666666, "bike_id": "59391554103dec216512218c5a9f3ca3", "rental_uris": {"android": "https://dc.lft.to/lastmile_qr_scan", "ios": "https://dc.lft.to/lastmile_qr_scan"}, "name": "59391554103dec216512218c5a9f3ca3", "is_reserved": 0}, {"is_disabled": 0, "fusion_lon": 0.0, "fusion_lat": 0.0, "lat": 38.880066666666664, "type": "electric_bike", "lon": -76.9159455, "bike_id": "1323ada2a82f64af12ae8b23ffe895bc", "rental_uris": {"android": "https://dc.lft.to/lastmile_qr_scan", "ios": "https://dc.lft.to/lastmile_qr_scan"}, "name": "1323ada2a82f64af12ae8b23ffe895bc", "is_reserved": 0}, {"is_disabled": 0, "fusion_lon": 0.0, "fusion_lat": 0.0, "lat": 38.99451366666667, "type": "electric_bike", "lon": -76.90815533333334, "bike_id": "9144646666483e38ca5288eedba563fc", "rental_uris": {"android": "https://dc.lft.to/lastmile_qr_scan", "ios": "https://dc.lft.to/lastmile_qr_scan"}, "name": "9144646666483e38ca5288eedba563fc", "is_reserved": 0}, {"is_disabled": 0, "fusion_lon": 0.0, "fusion_lat": 0.0, "lat": 38.885957833333336, "type": "electric_scooter", "lon": -77.00577333333334, "bike_id": "1815468593d02ab6958816b293951358", "rental_uris": {"android": "https://dc.lft.to/lastmile_qr_scan", "ios": "https://dc.lft.to/lastmile_qr_scan"}, "name": "1815468593d02ab6958816b293951358", "is_reserved": 0}, {"is_disabled": 0, "fusion_lon": 0.0, "fusion_lat": 0.0, "lat": 38.90327683333334, "type": "electric_scooter", "lon": -77.02894633333334, "bike_id": "536d563287486f28684360c44ba0d8bb", "rental_uris": {"android": "https://dc.lft.to/lastmile_qr_scan", "ios": "https://dc.lft.to/lastmile_qr_scan"}, "name": "536d563287486f28684360c44ba0d8bb", "is_reserved": 0}, {"is_disabled": 0, "fusion_lon": 0.0, "fusion_lat": 0.0, "lat": 38.91686883333333, "type": "electric_scooter", "lon": -77.04276983333334, "bike_id": "dc5c528f7fa489bfe9de4de96fec75cc", "rental_uris": {"android": "https://dc.lft.to/lastmile_qr_scan", "ios": "https://dc.lft.to/lastmile_qr_scan"}, "name": "dc5c528f7fa489bfe9de4de96fec75cc", "is_reserved": 0}, {"is_disabled": 0, "fusion_lon": 0.0, "fusion_lat": 0.0, "lat": 38.90912266666667, "type": "electric_scooter", "lon": -77.02291666666666, "bike_id": "bc89081bb035007c7d546a96b9699d7b", "rental_uris": {"android": "https://dc.lft.to/lastmile_qr_scan", "ios": "https://dc.lft.to/lastmile_qr_scan"}, "name": "bc89081bb035007c7d546a96b9699d7b", "is_reserved": 0}, {"is_disabled": 0, "fusion_lon": 0.0, "fusion_lat": 0.0, "lat": 38.90521233333333, "type": "electric_scooter", "lon": -77.0251895, "bike_id": "bec173e4db9b9dc979ba5c975a2946c5", "rental_uris": {"android": "https://dc.lft.to/lastmile_qr_scan", "ios": "https://dc.lft.to/lastmile_qr_scan"}, "name": "bec173e4db9b9dc979ba5c975a2946c5", "is_reserved": 0}, {"is_disabled": 0, "fusion_lon": 0.0, "fusion_lat": 0.0, "lat": 38.98495416666667, "type": "electric_bike", "lon": -76.982042, "bike_id": "3eb95d2ce875824250167fb5b847fcb8", "rental_uris": {"android": "https://dc.lft.to/lastmile_qr_scan", "ios": "https://dc.lft.to/lastmile_qr_scan"}, "name": "3eb95d2ce875824250167fb5b847fcb8", "is_reserved": 0}, {"is_disabled": 0, "fusion_lon": 0.0, "fusion_lat": 0.0, "lat": 38.90361433333333, "type": "electric_scooter", "lon": -77.03204516666666, "bike_id": "f9001ca1454069b46340c643e22a1e49", "rental_uris": {"android": "https://dc.lft.to/lastmile_qr_scan", "ios": "https://dc.lft.to/lastmile_qr_scan"}, "name": "f9001ca1454069b46340c643e22a1e49", "is_reserved": 0}, {"is_disabled": 0, "fusion_lon": 0.0, "fusion_lat": 0.0, "lat": 38.9180545, "type": "electric_scooter", "lon": -77.03219333333334, "bike_id": "d19ccd4285dff52bff62232cf86bf3ed", "rental_uris": {"android": "https://dc.lft.to/lastmile_qr_scan", "ios": "https://dc.lft.to/lastmile_qr_scan"}, "name": "d19ccd4285dff52bff62232cf86bf3ed", "is_reserved": 0}, {"is_disabled": 0, "fusion_lon": 0.0, "fusion_lat": 0.0, "lat": 38.91559933333333, "type": "electric_scooter", "lon": -77.01023266666667, "bike_id": "881bd36e76dc46f2b2e4aa3353d98a19", "rental_uris": {"android": "https://dc.lft.to/lastmile_qr_scan", "ios": "https://dc.lft.to/lastmile_qr_scan"}, "name": "881bd36e76dc46f2b2e4aa3353d98a19", "is_reserved": 0}, {"is_disabled": 0, "fusion_lon": 0.0, "fusion_lat": 0.0, "lat": 38.917022833333334, "type": "electric_scooter", "lon": -77.00111133333333, "bike_id": "72d37900204d4ec87d82b3e0d1f0e948", "rental_uris": {"android": "https://dc.lft.to/lastmile_qr_scan", "ios": "https://dc.lft.to/lastmile_qr_scan"}, "name": "72d37900204d4ec87d82b3e0d1f0e948", "is_reserved": 0}, {"is_disabled": 0, "fusion_lon": 0.0, "fusion_lat": 0.0, "lat": 38.91799666666667, "type": "electric_scooter", "lon": -77.023937, "bike_id": "51e8b3995ade5d3aca702d6e59ecc979", "rental_uris": {"android": "https://dc.lft.to/lastmile_qr_scan", "ios": "https://dc.lft.to/lastmile_qr_scan"}, "name": "51e8b3995ade5d3aca702d6e59ecc979", "is_reserved": 0}, {"is_disabled": 0, "fusion_lon": 0.0, "fusion_lat": 0.0, "lat": 38.93528283333333, "type": "electric_scooter", "lon": -77.02066816666667, "bike_id": "ddb2cc94dbd505237eb986d2c6ca7fc2", "rental_uris": {"android": "https://dc.lft.to/lastmile_qr_scan", "ios": "https://dc.lft.to/lastmile_qr_scan"}, "name": "ddb2cc94dbd505237eb986d2c6ca7fc2", "is_reserved": 0}, {"is_disabled": 0, "fusion_lon": 0.0, "fusion_lat": 0.0, "lat": 38.933180666666665, "type": "electric_scooter", "lon": -77.02924116666667, "bike_id": "745461c2cfd19705edbb2483eade48d8", "rental_uris": {"android": "https://dc.lft.to/lastmile_qr_scan", "ios": "https://dc.lft.to/lastmile_qr_scan"}, "name": "745461c2cfd19705edbb2483eade48d8", "is_reserved": 0}, {"is_disabled": 0, "fusion_lon": 0.0, "fusion_lat": 0.0, "lat": 38.92456133333334, "type": "electric_scooter", "lon": -76.99901383333334, "bike_id": "1534a9535488b51738657bead03ddcc8", "rental_uris": {"android": "https://dc.lft.to/lastmile_qr_scan", "ios": "https://dc.lft.to/lastmile_qr_scan"}, "name": "1534a9535488b51738657bead03ddcc8", "is_reserved": 0}, {"is_disabled": 0, "fusion_lon": 0.0, "fusion_lat": 0.0, "lat": 38.973668833333335, "type": "electric_scooter", "lon": -77.01851783333333, "bike_id": "a3f14144b60468977dfc8db487865d19", "rental_uris": {"android": "https://dc.lft.to/lastmile_qr_scan", "ios": "https://dc.lft.to/lastmile_qr_scan"}, "name": "a3f14144b60468977dfc8db487865d19", "is_reserved": 0}, {"is_disabled": 0, "fusion_lon": 0.0, "fusion_lat": 0.0, "lat": 38.90960333333334, "type": "electric_scooter", "lon": -77.0482255, "bike_id": "74b657f1583c0e092e2096d08cf562b8", "rental_uris": {"android": "https://dc.lft.to/lastmile_qr_scan", "ios": "https://dc.lft.to/lastmile_qr_scan"}, "name": "74b657f1583c0e092e2096d08cf562b8", "is_reserved": 0}, {"is_disabled": 0, "fusion_lon": 0.0, "fusion_lat": 0.0, "lat": 38.94194666666667, "type": "electric_scooter", "lon": -77.02576133333334, "bike_id": "7b29ed3735b1605fa45412d22742658d", "rental_uris": {"android": "https://dc.lft.to/lastmile_qr_scan", "ios": "https://dc.lft.to/lastmile_qr_scan"}, "name": "7b29ed3735b1605fa45412d22742658d", "is_reserved": 0}, {"is_disabled": 0, "fusion_lon": 0.0, "fusion_lat": 0.0, "lat": 38.904180833333335, "type": "electric_scooter", "lon": -77.04877016666667, "bike_id": "4074e29370cee543af895b11b7e7ab28", "rental_uris": {"android": "https://dc.lft.to/lastmile_qr_scan", "ios": "https://dc.lft.to/lastmile_qr_scan"}, "name": "4074e29370cee543af895b11b7e7ab28", "is_reserved": 0}, {"is_disabled": 0, "fusion_lon": 0.0, "fusion_lat": 0.0, "lat": 38.89235033333333, "type": "electric_scooter", "lon": -77.04673733333334, "bike_id": "1a542a6eace7ee324a32a682398e2467", "rental_uris": {"android": "https://dc.lft.to/lastmile_qr_scan", "ios": "https://dc.lft.to/lastmile_qr_scan"}, "name": "1a542a6eace7ee324a32a682398e2467", "is_reserved": 0}, {"is_disabled": 0, "fusion_lon": 0.0, "fusion_lat": 0.0, "lat": 38.94970516666667, "type": "electric_scooter", "lon": -77.06763083333334, "bike_id": "4449073b9d5282bb90b332bb325a6ace", "rental_uris": {"android": "https://dc.lft.to/lastmile_qr_scan", "ios": "https://dc.lft.to/lastmile_qr_scan"}, "name": "4449073b9d5282bb90b332bb325a6ace", "is_reserved": 0}, {"is_disabled": 0, "fusion_lon": 0.0, "fusion_lat": 0.0, "lat": 38.9999725, "type": "electric_bike", "lon": -76.91805366666667, "bike_id": "69c56a813f9796a42a808b3b499d6dc0", "rental_uris": {"android": "https://dc.lft.to/lastmile_qr_scan", "ios": "https://dc.lft.to/lastmile_qr_scan"}, "name": "69c56a813f9796a42a808b3b499d6dc0", "is_reserved": 0}, {"is_disabled": 0, "fusion_lon": 0.0, "fusion_lat": 0.0, "lat": 38.9057015, "type": "electric_scooter", "lon": -77.02418066666667, "bike_id": "99137be8a9079302f2f5aa41db6b460a", "rental_uris": {"android": "https://dc.lft.to/lastmile_qr_scan", "ios": "https://dc.lft.to/lastmile_qr_scan"}, "name": "99137be8a9079302f2f5aa41db6b460a", "is_reserved": 0}, {"is_disabled": 0, "fusion_lon": 0.0, "fusion_lat": 0.0, "lat": 38.892031333333335, "type": "electric_scooter", "lon": -76.9880835, "bike_id": "6c96dc471895b6e64a95fd9b49d4bd79", "rental_uris": {"android": "https://dc.lft.to/lastmile_qr_scan", "ios": "https://dc.lft.to/lastmile_qr_scan"}, "name": "6c96dc471895b6e64a95fd9b49d4bd79", "is_reserved": 0}, {"is_disabled": 0, "fusion_lon": 0.0, "fusion_lat": 0.0, "lat": 38.923651666666665, "type": "electric_scooter", "lon": -77.02798066666666, "bike_id": "a638e2089d8bb59ce9f179cd4a268d5d", "rental_uris": {"android": "https://dc.lft.to/lastmile_qr_scan", "ios": "https://dc.lft.to/lastmile_qr_scan"}, "name": "a638e2089d8bb59ce9f179cd4a268d5d", "is_reserved": 0}, {"is_disabled": 0, "fusion_lon": 0.0, "fusion_lat": 0.0, "lat": 38.91098683333333, "type": "electric_scooter", "lon": -77.0660475, "bike_id": "254d2022314d132ab314ca5cd59cf9a4", "rental_uris": {"android": "https://dc.lft.to/lastmile_qr_scan", "ios": "https://dc.lft.to/lastmile_qr_scan"}, "name": "254d2022314d132ab314ca5cd59cf9a4", "is_reserved": 0}, {"is_disabled": 0, "fusion_lon": 0.0, "fusion_lat": 0.0, "lat": 38.911215166666665, "type": "electric_scooter", "lon": -77.04181233333334, "bike_id": "3f8fd8060abb78063c24229800c2efe5", "rental_uris": {"android": "https://dc.lft.to/lastmile_qr_scan", "ios": "https://dc.lft.to/lastmile_qr_scan"}, "name": "3f8fd8060abb78063c24229800c2efe5", "is_reserved": 0}, {"is_disabled": 0, "fusion_lon": 0.0, "fusion_lat": 0.0, "lat": 39.08840416666666, "type": "electric_bike", "lon": -77.17800366666667, "bike_id": "55a39badc6fdf4bec60fdcb3324a9714", "rental_uris": {"android": "https://dc.lft.to/lastmile_qr_scan", "ios": "https://dc.lft.to/lastmile_qr_scan"}, "name": "55a39badc6fdf4bec60fdcb3324a9714", "is_reserved": 0}, {"is_disabled": 0, "fusion_lon": 0.0, "fusion_lat": 0.0, "lat": 38.88390116666667, "type": "electric_scooter", "lon": -76.95417166666667, "bike_id": "2ec6c841cba5dcfb9fa23e89975c09c6", "rental_uris": {"android": "https://dc.lft.to/lastmile_qr_scan", "ios": "https://dc.lft.to/lastmile_qr_scan"}, "name": "2ec6c841cba5dcfb9fa23e89975c09c6", "is_reserved": 0}, {"is_disabled": 0, "fusion_lon": 0.0, "fusion_lat": 0.0, "lat": 38.903657, "type": "electric_scooter", "lon": -77.04226916666667, "bike_id": "1e81e3137b491e0f50ff1bf22b97248f", "rental_uris": {"android": "https://dc.lft.to/lastmile_qr_scan", "ios": "https://dc.lft.to/lastmile_qr_scan"}, "name": "1e81e3137b491e0f50ff1bf22b97248f", "is_reserved": 0}, {"is_disabled": 0, "fusion_lon": 0.0, "fusion_lat": 0.0, "lat": 38.9131275, "type": "electric_scooter", "lon": -77.03259833333334, "bike_id": "d9984770799b9fcab973c2db252d7013", "rental_uris": {"android": "https://dc.lft.to/lastmile_qr_scan", "ios": "https://dc.lft.to/lastmile_qr_scan"}, "name": "d9984770799b9fcab973c2db252d7013", "is_reserved": 0}, {"is_disabled": 0, "fusion_lon": 0.0, "fusion_lat": 0.0, "lat": 38.91474516666667, "type": "electric_scooter", "lon": -77.03464933333333, "bike_id": "8bdf3ca6c587a0c837c920468b086093", "rental_uris": {"android": "https://dc.lft.to/lastmile_qr_scan", "ios": "https://dc.lft.to/lastmile_qr_scan"}, "name": "8bdf3ca6c587a0c837c920468b086093", "is_reserved": 0}, {"is_disabled": 0, "fusion_lon": 0.0, "fusion_lat": 0.0, "lat": 38.924989, "type": "electric_bike", "lon": -77.05682166666666, "bike_id": "1c7f56f01f10e14b87593facb12c2615", "rental_uris": {"android": "https://dc.lft.to/lastmile_qr_scan", "ios": "https://dc.lft.to/lastmile_qr_scan"}, "name": "1c7f56f01f10e14b87593facb12c2615", "is_reserved": 0}, {"is_disabled": 0, "fusion_lon": 0.0, "fusion_lat": 0.0, "lat": 38.915933833333334, "type": "electric_scooter", "lon": -77.07277333333333, "bike_id": "c6a68835942aec4cc45a6ee42eb17856", "rental_uris": {"android": "https://dc.lft.to/lastmile_qr_scan", "ios": "https://dc.lft.to/lastmile_qr_scan"}, "name": "c6a68835942aec4cc45a6ee42eb17856", "is_reserved": 0}, {"is_disabled": 0, "fusion_lon": 0.0, "fusion_lat": 0.0, "lat": 38.94887966666667, "type": "electric_bike", "lon": -76.96370383333333, "bike_id": "2e2954071712f3ae07edb827d28d7fc9", "rental_uris": {"android": "https://dc.lft.to/lastmile_qr_scan", "ios": "https://dc.lft.to/lastmile_qr_scan"}, "name": "2e2954071712f3ae07edb827d28d7fc9", "is_reserved": 0}, {"is_disabled": 0, "fusion_lon": 0.0, "fusion_lat": 0.0, "lat": 38.936968666666665, "type": "electric_scooter", "lon": -77.05596583333333, "bike_id": "25f0cdf894d8fae3bee4ee3f52e4d352", "rental_uris": {"android": "https://dc.lft.to/lastmile_qr_scan", "ios": "https://dc.lft.to/lastmile_qr_scan"}, "name": "25f0cdf894d8fae3bee4ee3f52e4d352", "is_reserved": 0}, {"is_disabled": 0, "fusion_lon": 0.0, "fusion_lat": 0.0, "lat": 38.917048333333334, "type": "electric_scooter", "lon": -77.00117733333333, "bike_id": "31aa067ff0981b6d9f5623fa4abe842a", "rental_uris": {"android": "https://dc.lft.to/lastmile_qr_scan", "ios": "https://dc.lft.to/lastmile_qr_scan"}, "name": "31aa067ff0981b6d9f5623fa4abe842a", "is_reserved": 0}, {"is_disabled": 0, "fusion_lon": 0.0, "fusion_lat": 0.0, "lat": 38.88452183333333, "type": "electric_bike", "lon": -76.9163575, "bike_id": "7aa539b8704a5ae5fbf90f9dd0d211c3", "rental_uris": {"android": "https://dc.lft.to/lastmile_qr_scan", "ios": "https://dc.lft.to/lastmile_qr_scan"}, "name": "7aa539b8704a5ae5fbf90f9dd0d211c3", "is_reserved": 0}, {"is_disabled": 0, "fusion_lon": 0.0, "fusion_lat": 0.0, "lat": 38.91630116666666, "type": "electric_scooter", "lon": -77.0228185, "bike_id": "721412f205920b1a66bf142e12f025f9", "rental_uris": {"android": "https://dc.lft.to/lastmile_qr_scan", "ios": "https://dc.lft.to/lastmile_qr_scan"}, "name": "721412f205920b1a66bf142e12f025f9", "is_reserved": 0}, {"is_disabled": 0, "fusion_lon": 0.0, "fusion_lat": 0.0, "lat": 38.908450333333334, "type": "electric_scooter", "lon": -77.03842683333333, "bike_id": "07d2ad581c8df089ce99ca54b634970b", "rental_uris": {"android": "https://dc.lft.to/lastmile_qr_scan", "ios": "https://dc.lft.to/lastmile_qr_scan"}, "name": "07d2ad581c8df089ce99ca54b634970b", "is_reserved": 0}, {"is_disabled": 0, "fusion_lon": 0.0, "fusion_lat": 0.0, "lat": 38.9158895, "type": "electric_bike", "lon": -77.040354, "bike_id": "c77e9c6c295df8496fd74ef354f1674a", "rental_uris": {"android": "https://dc.lft.to/lastmile_qr_scan", "ios": "https://dc.lft.to/lastmile_qr_scan"}, "name": "c77e9c6c295df8496fd74ef354f1674a", "is_reserved": 0}, {"is_disabled": 0, "fusion_lon": 0.0, "fusion_lat": 0.0, "lat": 39.052629333333336, "type": "electric_bike", "lon": -77.043856, "bike_id": "2764ef487f1f5a56ca7d646b6e6112ec", "rental_uris": {"android": "https://dc.lft.to/lastmile_qr_scan", "ios": "https://dc.lft.to/lastmile_qr_scan"}, "name": "2764ef487f1f5a56ca7d646b6e6112ec", "is_reserved": 0}, {"is_disabled": 0, "fusion_lon": 0.0, "fusion_lat": 0.0, "lat": 38.95412433333333, "type": "electric_scooter", "lon": -77.02842866666667, "bike_id": "14f3cd667b9f8deb0314332933f6b6e4", "rental_uris": {"android": "https://dc.lft.to/lastmile_qr_scan", "ios": "https://dc.lft.to/lastmile_qr_scan"}, "name": "14f3cd667b9f8deb0314332933f6b6e4", "is_reserved": 0}, {"is_disabled": 0, "fusion_lon": 0.0, "fusion_lat": 0.0, "lat": 38.91796, "type": "electric_scooter", "lon": -77.0402435, "bike_id": "266b981d81c496c9dd5053fdfa0ad8f7", "rental_uris": {"android": "https://dc.lft.to/lastmile_qr_scan", "ios": "https://dc.lft.to/lastmile_qr_scan"}, "name": "266b981d81c496c9dd5053fdfa0ad8f7", "is_reserved": 0}, {"is_disabled": 0, "fusion_lon": 0.0, "fusion_lat": 0.0, "lat": 38.90849266666667, "type": "electric_scooter", "lon": -77.071561, "bike_id": "b31fc044cf6247141368f6c8044c0da9", "rental_uris": {"android": "https://dc.lft.to/lastmile_qr_scan", "ios": "https://dc.lft.to/lastmile_qr_scan"}, "name": "b31fc044cf6247141368f6c8044c0da9", "is_reserved": 0}, {"is_disabled": 0, "fusion_lon": 0.0, "fusion_lat": 0.0, "lat": 38.892314, "type": "electric_bike", "lon": -76.95220116666667, "bike_id": "79c547ff3c08d45127d5a5184b7f21b2", "rental_uris": {"android": "https://dc.lft.to/lastmile_qr_scan", "ios": "https://dc.lft.to/lastmile_qr_scan"}, "name": "79c547ff3c08d45127d5a5184b7f21b2", "is_reserved": 0}, {"is_disabled": 0, "fusion_lon": 0.0, "fusion_lat": 0.0, "lat": 38.9767565, "type": "electric_bike", "lon": -76.97168166666667, "bike_id": "639436db948b68cfea1cc7233ca789ad", "rental_uris": {"android": "https://dc.lft.to/lastmile_qr_scan", "ios": "https://dc.lft.to/lastmile_qr_scan"}, "name": "639436db948b68cfea1cc7233ca789ad", "is_reserved": 0}, {"is_disabled": 0, "fusion_lon": 0.0, "fusion_lat": 0.0, "lat": 38.925915833333335, "type": "electric_bike", "lon": -76.88906183333333, "bike_id": "339e5381cf1f868c867c2c614bab75a4", "rental_uris": {"android": "https://dc.lft.to/lastmile_qr_scan", "ios": "https://dc.lft.to/lastmile_qr_scan"}, "name": "339e5381cf1f868c867c2c614bab75a4", "is_reserved": 0}, {"is_disabled": 0, "fusion_lon": 0.0, "fusion_lat": 0.0, "lat": 38.929084833333334, "type": "electric_scooter", "lon": -77.03179233333333, "bike_id": "f95ac5299d77103e5697e7e56b00ddd5", "rental_uris": {"android": "https://dc.lft.to/lastmile_qr_scan", "ios": "https://dc.lft.to/lastmile_qr_scan"}, "name": "f95ac5299d77103e5697e7e56b00ddd5", "is_reserved": 0}, {"is_disabled": 0, "fusion_lon": 0.0, "fusion_lat": 0.0, "lat": 38.928923, "type": "electric_scooter", "lon": -77.02401766666667, "bike_id": "15ae9c7dcedcb0308c1521920f495d6b", "rental_uris": {"android": "https://dc.lft.to/lastmile_qr_scan", "ios": "https://dc.lft.to/lastmile_qr_scan"}, "name": "15ae9c7dcedcb0308c1521920f495d6b", "is_reserved": 0}, {"is_disabled": 0, "fusion_lon": 0.0, "fusion_lat": 0.0, "lat": 38.92529433333333, "type": "electric_scooter", "lon": -77.07318816666667, "bike_id": "9d1dafdb348a0212ae8ef7959905d924", "rental_uris": {"android": "https://dc.lft.to/lastmile_qr_scan", "ios": "https://dc.lft.to/lastmile_qr_scan"}, "name": "9d1dafdb348a0212ae8ef7959905d924", "is_reserved": 0}, {"is_disabled": 0, "fusion_lon": 0.0, "fusion_lat": 0.0, "lat": 38.89654383333333, "type": "electric_scooter", "lon": -77.04360266666667, "bike_id": "55e814200d30788170291717246da279", "rental_uris": {"android": "https://dc.lft.to/lastmile_qr_scan", "ios": "https://dc.lft.to/lastmile_qr_scan"}, "name": "55e814200d30788170291717246da279", "is_reserved": 0}, {"is_disabled": 0, "fusion_lon": 0.0, "fusion_lat": 0.0, "lat": 38.89771433333333, "type": "electric_scooter", "lon": -77.02473516666667, "bike_id": "7a327418c80e323d6e6111233566fe9b", "rental_uris": {"android": "https://dc.lft.to/lastmile_qr_scan", "ios": "https://dc.lft.to/lastmile_qr_scan"}, "name": "7a327418c80e323d6e6111233566fe9b", "is_reserved": 0}, {"is_disabled": 0, "fusion_lon": 0.0, "fusion_lat": 0.0, "lat": 38.918125833333335, "type": "electric_scooter", "lon": -77.03806116666667, "bike_id": "c64edb59111025aa5924ce9d0ee1c083", "rental_uris": {"android": "https://dc.lft.to/lastmile_qr_scan", "ios": "https://dc.lft.to/lastmile_qr_scan"}, "name": "c64edb59111025aa5924ce9d0ee1c083", "is_reserved": 0}, {"is_disabled": 0, "fusion_lon": 0.0, "fusion_lat": 0.0, "lat": 38.957392, "type": "electric_scooter", "lon": -77.02430583333333, "bike_id": "bd96f46ad604f6e1f1c9fe6090afa348", "rental_uris": {"android": "https://dc.lft.to/lastmile_qr_scan", "ios": "https://dc.lft.to/lastmile_qr_scan"}, "name": "bd96f46ad604f6e1f1c9fe6090afa348", "is_reserved": 0}, {"is_disabled": 0, "fusion_lon": 0.0, "fusion_lat": 0.0, "lat": 38.9084615, "type": "electric_bike", "lon": -77.0402205, "bike_id": "ea21699c3bb11e69a71fc57690d05266", "rental_uris": {"android": "https://dc.lft.to/lastmile_qr_scan", "ios": "https://dc.lft.to/lastmile_qr_scan"}, "name": "ea21699c3bb11e69a71fc57690d05266", "is_reserved": 0}, {"is_disabled": 0, "fusion_lon": 0.0, "fusion_lat": 0.0, "lat": 38.90730116666667, "type": "electric_scooter", "lon": -77.00763466666666, "bike_id": "b37bf8502bcb3332efc8c37af4e4e986", "rental_uris": {"android": "https://dc.lft.to/lastmile_qr_scan", "ios": "https://dc.lft.to/lastmile_qr_scan"}, "name": "b37bf8502bcb3332efc8c37af4e4e986", "is_reserved": 0}, {"is_disabled": 0, "fusion_lon": 0.0, "fusion_lat": 0.0, "lat": 38.941777333333334, "type": "electric_scooter", "lon": -77.03653683333333, "bike_id": "8f86c0660c77a06d393863c0eecf3054", "rental_uris": {"android": "https://dc.lft.to/lastmile_qr_scan", "ios": "https://dc.lft.to/lastmile_qr_scan"}, "name": "8f86c0660c77a06d393863c0eecf3054", "is_reserved": 0}, {"is_disabled": 0, "fusion_lon": 0.0, "fusion_lat": 0.0, "lat": 38.95646833333333, "type": "electric_scooter", "lon": -77.01496766666666, "bike_id": "0c8d4ce54ca06c0fc2a32fd1b7adf568", "rental_uris": {"android": "https://dc.lft.to/lastmile_qr_scan", "ios": "https://dc.lft.to/lastmile_qr_scan"}, "name": "0c8d4ce54ca06c0fc2a32fd1b7adf568", "is_reserved": 0}, {"is_disabled": 0, "fusion_lon": 0.0, "fusion_lat": 0.0, "lat": 38.910742, "type": "electric_scooter", "lon": -77.06787283333334, "bike_id": "54b81113ebeb8a337f762ec9570b3768", "rental_uris": {"android": "https://dc.lft.to/lastmile_qr_scan", "ios": "https://dc.lft.to/lastmile_qr_scan"}, "name": "54b81113ebeb8a337f762ec9570b3768", "is_reserved": 0}, {"is_disabled": 0, "fusion_lon": 0.0, "fusion_lat": 0.0, "lat": 38.95174183333334, "type": "electric_scooter", "lon": -77.05654283333334, "bike_id": "5c9ed317c7799cbb380e2e9bb44a11c7", "rental_uris": {"android": "https://dc.lft.to/lastmile_qr_scan", "ios": "https://dc.lft.to/lastmile_qr_scan"}, "name": "5c9ed317c7799cbb380e2e9bb44a11c7", "is_reserved": 0}, {"is_disabled": 0, "fusion_lon": 0.0, "fusion_lat": 0.0, "lat": 38.9133705, "type": "electric_scooter", "lon": -77.04861066666666, "bike_id": "d84300afb26982458db2f16f4797ed98", "rental_uris": {"android": "https://dc.lft.to/lastmile_qr_scan", "ios": "https://dc.lft.to/lastmile_qr_scan"}, "name": "d84300afb26982458db2f16f4797ed98", "is_reserved": 0}, {"is_disabled": 0, "fusion_lon": 0.0, "fusion_lat": 0.0, "lat": 38.828719666666665, "type": "electric_bike", "lon": -77.11223516666666, "bike_id": "09802e8a8893d897d6b7d30f8c28cf20", "rental_uris": {"android": "https://dc.lft.to/lastmile_qr_scan", "ios": "https://dc.lft.to/lastmile_qr_scan"}, "name": "09802e8a8893d897d6b7d30f8c28cf20", "is_reserved": 0}, {"is_disabled": 0, "fusion_lon": 0.0, "fusion_lat": 0.0, "lat": 38.831878, "type": "electric_bike", "lon": -77.07682566666666, "bike_id": "97ef00b70dfe3d067f17857657f0b911", "rental_uris": {"android": "https://dc.lft.to/lastmile_qr_scan", "ios": "https://dc.lft.to/lastmile_qr_scan"}, "name": "97ef00b70dfe3d067f17857657f0b911", "is_reserved": 0}, {"is_disabled": 0, "fusion_lon": 0.0, "fusion_lat": 0.0, "lat": 38.95553, "type": "electric_bike", "lon": -76.9354455, "bike_id": "d3961183b3d75ec2b1e40f29c8598332", "rental_uris": {"android": "https://dc.lft.to/lastmile_qr_scan", "ios": "https://dc.lft.to/lastmile_qr_scan"}, "name": "d3961183b3d75ec2b1e40f29c8598332", "is_reserved": 0}, {"is_disabled": 0, "fusion_lon": 0.0, "fusion_lat": 0.0, "lat": 38.92591216666667, "type": "electric_scooter", "lon": -77.05529916666667, "bike_id": "86888812c620f07845f3dd6d97a71441", "rental_uris": {"android": "https://dc.lft.to/lastmile_qr_scan", "ios": "https://dc.lft.to/lastmile_qr_scan"}, "name": "86888812c620f07845f3dd6d97a71441", "is_reserved": 0}, {"is_disabled": 0, "fusion_lon": 0.0, "fusion_lat": 0.0, "lat": 38.91696733333333, "type": "electric_scooter", "lon": -77.0242885, "bike_id": "070f18a0248696ab25a3409349c8a1be", "rental_uris": {"android": "https://dc.lft.to/lastmile_qr_scan", "ios": "https://dc.lft.to/lastmile_qr_scan"}, "name": "070f18a0248696ab25a3409349c8a1be", "is_reserved": 0}, {"is_disabled": 0, "fusion_lon": 0.0, "fusion_lat": 0.0, "lat": 38.915572833333336, "type": "electric_scooter", "lon": -77.03805016666666, "bike_id": "7466b5a38789cb82e7e85522cdb6ed95", "rental_uris": {"android": "https://dc.lft.to/lastmile_qr_scan", "ios": "https://dc.lft.to/lastmile_qr_scan"}, "name": "7466b5a38789cb82e7e85522cdb6ed95", "is_reserved": 0}, {"is_disabled": 0, "fusion_lon": 0.0, "fusion_lat": 0.0, "lat": 38.886736166666665, "type": "electric_scooter", "lon": -77.00200866666667, "bike_id": "2fc325617d763dab11b193c7e07e990a", "rental_uris": {"android": "https://dc.lft.to/lastmile_qr_scan", "ios": "https://dc.lft.to/lastmile_qr_scan"}, "name": "2fc325617d763dab11b193c7e07e990a", "is_reserved": 0}, {"is_disabled": 0, "fusion_lon": 0.0, "fusion_lat": 0.0, "lat": 38.83318333333333, "type": "electric_scooter", "lon": -77.00008483333333, "bike_id": "85df8b4384b802396111ee15dba05fc1", "rental_uris": {"android": "https://dc.lft.to/lastmile_qr_scan", "ios": "https://dc.lft.to/lastmile_qr_scan"}, "name": "85df8b4384b802396111ee15dba05fc1", "is_reserved": 0}, {"is_disabled": 0, "fusion_lon": 0.0, "fusion_lat": 0.0, "lat": 38.87478983333333, "type": "electric_scooter", "lon": -77.01068233333334, "bike_id": "f7c15cba20415e629d932bd194298738", "rental_uris": {"android": "https://dc.lft.to/lastmile_qr_scan", "ios": "https://dc.lft.to/lastmile_qr_scan"}, "name": "f7c15cba20415e629d932bd194298738", "is_reserved": 0}, {"is_disabled": 0, "fusion_lon": 0.0, "fusion_lat": 0.0, "lat": 38.91380816666667, "type": "electric_scooter", "lon": -77.04600733333334, "bike_id": "fbc3f972283d3af7ad80ce70569763ad", "rental_uris": {"android": "https://dc.lft.to/lastmile_qr_scan", "ios": "https://dc.lft.to/lastmile_qr_scan"}, "name": "fbc3f972283d3af7ad80ce70569763ad", "is_reserved": 0}, {"is_disabled": 0, "fusion_lon": 0.0, "fusion_lat": 0.0, "lat": 38.86958166666667, "type": "electric_scooter", "lon": -76.96029783333333, "bike_id": "ce5f2b812ef157c61795406f9768e211", "rental_uris": {"android": "https://dc.lft.to/lastmile_qr_scan", "ios": "https://dc.lft.to/lastmile_qr_scan"}, "name": "ce5f2b812ef157c61795406f9768e211", "is_reserved": 0}, {"is_disabled": 0, "fusion_lon": 0.0, "fusion_lat": 0.0, "lat": 38.810246, "type": "electric_bike", "lon": -77.08433033333333, "bike_id": "49d1463eba35a0934e02a9d488f00458", "rental_uris": {"android": "https://dc.lft.to/lastmile_qr_scan", "ios": "https://dc.lft.to/lastmile_qr_scan"}, "name": "49d1463eba35a0934e02a9d488f00458", "is_reserved": 0}, {"is_disabled": 0, "fusion_lon": 0.0, "fusion_lat": 0.0, "lat": 38.9, "type": "electric_scooter", "lon": -77.03312016666666, "bike_id": "f96b1358bcae9500228dd0d59f82a627", "rental_uris": {"android": "https://dc.lft.to/lastmile_qr_scan", "ios": "https://dc.lft.to/lastmile_qr_scan"}, "name": "f96b1358bcae9500228dd0d59f82a627", "is_reserved": 0}, {"is_disabled": 0, "fusion_lon": 0.0, "fusion_lat": 0.0, "lat": 38.91932166666667, "type": "electric_bike", "lon": -76.97502566666667, "bike_id": "ed6984de398d5d33d95e8846ba37b86e", "rental_uris": {"android": "https://dc.lft.to/lastmile_qr_scan", "ios": "https://dc.lft.to/lastmile_qr_scan"}, "name": "ed6984de398d5d33d95e8846ba37b86e", "is_reserved": 0}, {"is_disabled": 0, "fusion_lon": 0.0, "fusion_lat": 0.0, "lat": 38.90955833333334, "type": "electric_scooter", "lon": -77.0238085, "bike_id": "f4480b2a2b39695e3badfc28d6c49fe9", "rental_uris": {"android": "https://dc.lft.to/lastmile_qr_scan", "ios": "https://dc.lft.to/lastmile_qr_scan"}, "name": "f4480b2a2b39695e3badfc28d6c49fe9", "is_reserved": 0}, {"is_disabled": 0, "fusion_lon": 0.0, "fusion_lat": 0.0, "lat": 38.94299916666667, "type": "electric_scooter", "lon": -77.02760183333334, "bike_id": "3cce38cee9d9a7b8a8a5b1c7c2e6675c", "rental_uris": {"android": "https://dc.lft.to/lastmile_qr_scan", "ios": "https://dc.lft.to/lastmile_qr_scan"}, "name": "3cce38cee9d9a7b8a8a5b1c7c2e6675c", "is_reserved": 0}, {"is_disabled": 0, "fusion_lon": 0.0, "fusion_lat": 0.0, "lat": 38.89409233333333, "type": "electric_scooter", "lon": -77.0108855, "bike_id": "cf03b063e8911882be3253d6e2225ddc", "rental_uris": {"android": "https://dc.lft.to/lastmile_qr_scan", "ios": "https://dc.lft.to/lastmile_qr_scan"}, "name": "cf03b063e8911882be3253d6e2225ddc", "is_reserved": 0}, {"is_disabled": 0, "fusion_lon": 0.0, "fusion_lat": 0.0, "lat": 38.904899666666665, "type": "electric_scooter", "lon": -77.05135516666667, "bike_id": "4d7edbf832514230fc03cb588230348a", "rental_uris": {"android": "https://dc.lft.to/lastmile_qr_scan", "ios": "https://dc.lft.to/lastmile_qr_scan"}, "name": "4d7edbf832514230fc03cb588230348a", "is_reserved": 0}, {"is_disabled": 0, "fusion_lon": 0.0, "fusion_lat": 0.0, "lat": 38.923331833333336, "type": "electric_scooter", "lon": -77.041867, "bike_id": "7a670887513dd55500781ddd63cdbc91", "rental_uris": {"android": "https://dc.lft.to/lastmile_qr_scan", "ios": "https://dc.lft.to/lastmile_qr_scan"}, "name": "7a670887513dd55500781ddd63cdbc91", "is_reserved": 0}, {"is_disabled": 0, "fusion_lon": 0.0, "fusion_lat": 0.0, "lat": 38.91797233333333, "type": "electric_scooter", "lon": -77.02394, "bike_id": "0f97cd924687907055ffbc736f9c6f13", "rental_uris": {"android": "https://dc.lft.to/lastmile_qr_scan", "ios": "https://dc.lft.to/lastmile_qr_scan"}, "name": "0f97cd924687907055ffbc736f9c6f13", "is_reserved": 0}, {"is_disabled": 0, "fusion_lon": 0.0, "fusion_lat": 0.0, "lat": 38.9191205, "type": "electric_scooter", "lon": -77.02795383333333, "bike_id": "a4271760b2702adca506517f3eca6c42", "rental_uris": {"android": "https://dc.lft.to/lastmile_qr_scan", "ios": "https://dc.lft.to/lastmile_qr_scan"}, "name": "a4271760b2702adca506517f3eca6c42", "is_reserved": 0}, {"is_disabled": 0, "fusion_lon": 0.0, "fusion_lat": 0.0, "lat": 38.914742333333336, "type": "electric_scooter", "lon": -77.03184983333334, "bike_id": "717570045d62e0abde66390e99fc32a5", "rental_uris": {"android": "https://dc.lft.to/lastmile_qr_scan", "ios": "https://dc.lft.to/lastmile_qr_scan"}, "name": "717570045d62e0abde66390e99fc32a5", "is_reserved": 0}, {"is_disabled": 0, "fusion_lon": 0.0, "fusion_lat": 0.0, "lat": 38.8974785, "type": "electric_scooter", "lon": -77.02187216666667, "bike_id": "2e85de85308f790efc5e46c22604a477", "rental_uris": {"android": "https://dc.lft.to/lastmile_qr_scan", "ios": "https://dc.lft.to/lastmile_qr_scan"}, "name": "2e85de85308f790efc5e46c22604a477", "is_reserved": 0}, {"is_disabled": 0, "fusion_lon": 0.0, "fusion_lat": 0.0, "lat": 38.92358516666667, "type": "electric_scooter", "lon": -77.04385866666667, "bike_id": "17f5674339abcd59c97ca3364e336159", "rental_uris": {"android": "https://dc.lft.to/lastmile_qr_scan", "ios": "https://dc.lft.to/lastmile_qr_scan"}, "name": "17f5674339abcd59c97ca3364e336159", "is_reserved": 0}, {"is_disabled": 0, "fusion_lon": 0.0, "fusion_lat": 0.0, "lat": 38.90768416666667, "type": "electric_scooter", "lon": -77.031844, "bike_id": "b0b6d1c6df66cda305a0c1cd418497d2", "rental_uris": {"android": "https://dc.lft.to/lastmile_qr_scan", "ios": "https://dc.lft.to/lastmile_qr_scan"}, "name": "b0b6d1c6df66cda305a0c1cd418497d2", "is_reserved": 0}, {"is_disabled": 0, "fusion_lon": 0.0, "fusion_lat": 0.0, "lat": 38.90310066666667, "type": "electric_scooter", "lon": -77.03665233333334, "bike_id": "e743f29019a713829f1bbe1a761eff37", "rental_uris": {"android": "https://dc.lft.to/lastmile_qr_scan", "ios": "https://dc.lft.to/lastmile_qr_scan"}, "name": "e743f29019a713829f1bbe1a761eff37", "is_reserved": 0}, {"is_disabled": 0, "fusion_lon": 0.0, "fusion_lat": 0.0, "lat": 38.8958105, "type": "electric_scooter", "lon": -77.02303116666667, "bike_id": "a1d5bdc44c6c9bae5316fa5dec9e1de8", "rental_uris": {"android": "https://dc.lft.to/lastmile_qr_scan", "ios": "https://dc.lft.to/lastmile_qr_scan"}, "name": "a1d5bdc44c6c9bae5316fa5dec9e1de8", "is_reserved": 0}, {"is_disabled": 0, "fusion_lon": 0.0, "fusion_lat": 0.0, "lat": 38.91562233333333, "type": "electric_scooter", "lon": -77.00766583333333, "bike_id": "4494b771968a3219db8980e84208363e", "rental_uris": {"android": "https://dc.lft.to/lastmile_qr_scan", "ios": "https://dc.lft.to/lastmile_qr_scan"}, "name": "4494b771968a3219db8980e84208363e", "is_reserved": 0}, {"is_disabled": 0, "fusion_lon": 0.0, "fusion_lat": 0.0, "lat": 38.85513016666667, "type": "electric_bike", "lon": -76.9583885, "bike_id": "9b4aa0cfdcf8a4e95b6b4135e7e4682b", "rental_uris": {"android": "https://dc.lft.to/lastmile_qr_scan", "ios": "https://dc.lft.to/lastmile_qr_scan"}, "name": "9b4aa0cfdcf8a4e95b6b4135e7e4682b", "is_reserved": 0}, {"is_disabled": 0, "fusion_lon": 0.0, "fusion_lat": 0.0, "lat": 38.92601366666667, "type": "electric_scooter", "lon": -77.02153666666666, "bike_id": "b2661fd1319bb016dfcf248b1cd2df8f", "rental_uris": {"android": "https://dc.lft.to/lastmile_qr_scan", "ios": "https://dc.lft.to/lastmile_qr_scan"}, "name": "b2661fd1319bb016dfcf248b1cd2df8f", "is_reserved": 0}, {"is_disabled": 0, "fusion_lon": 0.0, "fusion_lat": 0.0, "lat": 38.909552, "type": "electric_scooter", "lon": -77.01572133333333, "bike_id": "d2e0912f97c61415363944c00f467833", "rental_uris": {"android": "https://dc.lft.to/lastmile_qr_scan", "ios": "https://dc.lft.to/lastmile_qr_scan"}, "name": "d2e0912f97c61415363944c00f467833", "is_reserved": 0}, {"is_disabled": 0, "fusion_lon": 0.0, "fusion_lat": 0.0, "lat": 38.92481883333333, "type": "electric_scooter", "lon": -77.03483333333334, "bike_id": "c9367f63d46326e5faa7f0a7b2097732", "rental_uris": {"android": "https://dc.lft.to/lastmile_qr_scan", "ios": "https://dc.lft.to/lastmile_qr_scan"}, "name": "c9367f63d46326e5faa7f0a7b2097732", "is_reserved": 0}, {"is_disabled": 0, "fusion_lon": 0.0, "fusion_lat": 0.0, "lat": 38.927563666666664, "type": "electric_scooter", "lon": -77.00593616666667, "bike_id": "1d291e939c0566e433dc8c6efac30446", "rental_uris": {"android": "https://dc.lft.to/lastmile_qr_scan", "ios": "https://dc.lft.to/lastmile_qr_scan"}, "name": "1d291e939c0566e433dc8c6efac30446", "is_reserved": 0}, {"is_disabled": 0, "fusion_lon": 0.0, "fusion_lat": 0.0, "lat": 38.88498883333333, "type": "electric_scooter", "lon": -76.99650216666667, "bike_id": "1ce55b2e7e2d3881ef3a92a7cfba847b", "rental_uris": {"android": "https://dc.lft.to/lastmile_qr_scan", "ios": "https://dc.lft.to/lastmile_qr_scan"}, "name": "1ce55b2e7e2d3881ef3a92a7cfba847b", "is_reserved": 0}, {"is_disabled": 0, "fusion_lon": 0.0, "fusion_lat": 0.0, "lat": 38.903904, "type": "electric_scooter", "lon": -76.99006316666667, "bike_id": "9d2badeaf62862c751b03d40508b9eef", "rental_uris": {"android": "https://dc.lft.to/lastmile_qr_scan", "ios": "https://dc.lft.to/lastmile_qr_scan"}, "name": "9d2badeaf62862c751b03d40508b9eef", "is_reserved": 0}, {"is_disabled": 0, "fusion_lon": 0.0, "fusion_lat": 0.0, "lat": 38.91932466666667, "type": "electric_scooter", "lon": -76.98072666666667, "bike_id": "dbaca2f8da975cd7c3b6cc2963ca9a78", "rental_uris": {"android": "https://dc.lft.to/lastmile_qr_scan", "ios": "https://dc.lft.to/lastmile_qr_scan"}, "name": "dbaca2f8da975cd7c3b6cc2963ca9a78", "is_reserved": 0}, {"is_disabled": 0, "fusion_lon": 0.0, "fusion_lat": 0.0, "lat": 38.92335033333333, "type": "electric_scooter", "lon": -77.0418455, "bike_id": "592d33d2b3fd1a649ace401f4915417f", "rental_uris": {"android": "https://dc.lft.to/lastmile_qr_scan", "ios": "https://dc.lft.to/lastmile_qr_scan"}, "name": "592d33d2b3fd1a649ace401f4915417f", "is_reserved": 0}, {"is_disabled": 0, "fusion_lon": 0.0, "fusion_lat": 0.0, "lat": 38.9124705, "type": "electric_scooter", "lon": -77.03670266666667, "bike_id": "39d2a3d77067505f49f4df401a0f2a4d", "rental_uris": {"android": "https://dc.lft.to/lastmile_qr_scan", "ios": "https://dc.lft.to/lastmile_qr_scan"}, "name": "39d2a3d77067505f49f4df401a0f2a4d", "is_reserved": 0}, {"is_disabled": 0, "fusion_lon": 0.0, "fusion_lat": 0.0, "lat": 38.92076383333333, "type": "electric_scooter", "lon": -77.0229595, "bike_id": "84391ff5023760ab94e4b11effda84bc", "rental_uris": {"android": "https://dc.lft.to/lastmile_qr_scan", "ios": "https://dc.lft.to/lastmile_qr_scan"}, "name": "84391ff5023760ab94e4b11effda84bc", "is_reserved": 0}, {"is_disabled": 0, "fusion_lon": 0.0, "fusion_lat": 0.0, "lat": 38.90569266666667, "type": "electric_scooter", "lon": -77.021773, "bike_id": "7a9d4e78f00f20fe3b647b93cd03b8f7", "rental_uris": {"android": "https://dc.lft.to/lastmile_qr_scan", "ios": "https://dc.lft.to/lastmile_qr_scan"}, "name": "7a9d4e78f00f20fe3b647b93cd03b8f7", "is_reserved": 0}, {"is_disabled": 0, "fusion_lon": 0.0, "fusion_lat": 0.0, "lat": 38.9026405, "type": "electric_scooter", "lon": -77.02631516666666, "bike_id": "1fa82cf805cac3394a6db0685e79f66a", "rental_uris": {"android": "https://dc.lft.to/lastmile_qr_scan", "ios": "https://dc.lft.to/lastmile_qr_scan"}, "name": "1fa82cf805cac3394a6db0685e79f66a", "is_reserved": 0}, {"is_disabled": 0, "fusion_lon": 0.0, "fusion_lat": 0.0, "lat": 38.905702166666664, "type": "electric_scooter", "lon": -77.043516, "bike_id": "9d3612baadfdd5858050e6fb22620106", "rental_uris": {"android": "https://dc.lft.to/lastmile_qr_scan", "ios": "https://dc.lft.to/lastmile_qr_scan"}, "name": "9d3612baadfdd5858050e6fb22620106", "is_reserved": 0}, {"is_disabled": 0, "fusion_lon": 0.0, "fusion_lat": 0.0, "lat": 38.908294833333336, "type": "electric_scooter", "lon": -77.02199066666667, "bike_id": "892bdbc0e512259a58ff2eac9050e4dc", "rental_uris": {"android": "https://dc.lft.to/lastmile_qr_scan", "ios": "https://dc.lft.to/lastmile_qr_scan"}, "name": "892bdbc0e512259a58ff2eac9050e4dc", "is_reserved": 0}, {"is_disabled": 0, "fusion_lon": 0.0, "fusion_lat": 0.0, "lat": 38.8978945, "type": "electric_scooter", "lon": -77.02983566666667, "bike_id": "705320cd24c1d0291c4560cbe790a87a", "rental_uris": {"android": "https://dc.lft.to/lastmile_qr_scan", "ios": "https://dc.lft.to/lastmile_qr_scan"}, "name": "705320cd24c1d0291c4560cbe790a87a", "is_reserved": 0}, {"is_disabled": 0, "fusion_lon": 0.0, "fusion_lat": 0.0, "lat": 38.893910166666664, "type": "electric_scooter", "lon": -76.94998916666667, "bike_id": "254abb1e4dc5f496b5d21aa28e2dc1fd", "rental_uris": {"android": "https://dc.lft.to/lastmile_qr_scan", "ios": "https://dc.lft.to/lastmile_qr_scan"}, "name": "254abb1e4dc5f496b5d21aa28e2dc1fd", "is_reserved": 0}, {"is_disabled": 0, "fusion_lon": 0.0, "fusion_lat": 0.0, "lat": 38.91191033333333, "type": "electric_scooter", "lon": -77.03711383333334, "bike_id": "c0eabf93811532a86eaafa92f9120bf7", "rental_uris": {"android": "https://dc.lft.to/lastmile_qr_scan", "ios": "https://dc.lft.to/lastmile_qr_scan"}, "name": "c0eabf93811532a86eaafa92f9120bf7", "is_reserved": 0}, {"is_disabled": 0, "fusion_lon": 0.0, "fusion_lat": 0.0, "lat": 38.888337666666665, "type": "electric_scooter", "lon": -76.91785566666667, "bike_id": "7cb2158ebec9cf3f96fb0306888f8eb2", "rental_uris": {"android": "https://dc.lft.to/lastmile_qr_scan", "ios": "https://dc.lft.to/lastmile_qr_scan"}, "name": "7cb2158ebec9cf3f96fb0306888f8eb2", "is_reserved": 0}, {"is_disabled": 0, "fusion_lon": 0.0, "fusion_lat": 0.0, "lat": 38.88737233333333, "type": "electric_scooter", "lon": -77.02399616666666, "bike_id": "0c3d50b0cbb392a86629ee503b2cb31a", "rental_uris": {"android": "https://dc.lft.to/lastmile_qr_scan", "ios": "https://dc.lft.to/lastmile_qr_scan"}, "name": "0c3d50b0cbb392a86629ee503b2cb31a", "is_reserved": 0}, {"is_disabled": 0, "fusion_lon": 0.0, "fusion_lat": 0.0, "lat": 38.89841216666667, "type": "electric_scooter", "lon": -77.03981933333333, "bike_id": "a419a91092663306494b628b35a490ba", "rental_uris": {"android": "https://dc.lft.to/lastmile_qr_scan", "ios": "https://dc.lft.to/lastmile_qr_scan"}, "name": "a419a91092663306494b628b35a490ba", "is_reserved": 0}, {"is_disabled": 0, "fusion_lon": 0.0, "fusion_lat": 0.0, "lat": 38.907102333333334, "type": "electric_scooter", "lon": -77.02405433333334, "bike_id": "28f08bec624119f3cea664fea945776d", "rental_uris": {"android": "https://dc.lft.to/lastmile_qr_scan", "ios": "https://dc.lft.to/lastmile_qr_scan"}, "name": "28f08bec624119f3cea664fea945776d", "is_reserved": 0}, {"is_disabled": 0, "fusion_lon": 0.0, "fusion_lat": 0.0, "lat": 38.936809833333335, "type": "electric_scooter", "lon": -77.03574833333333, "bike_id": "ae5aca8fa6d6e0e72462ea26f7b4c824", "rental_uris": {"android": "https://dc.lft.to/lastmile_qr_scan", "ios": "https://dc.lft.to/lastmile_qr_scan"}, "name": "ae5aca8fa6d6e0e72462ea26f7b4c824", "is_reserved": 0}, {"is_disabled": 0, "fusion_lon": 0.0, "fusion_lat": 0.0, "lat": 38.831031, "type": "electric_bike", "lon": -77.0425895, "bike_id": "f01c024899e1595531091c4f02af0e78", "rental_uris": {"android": "https://dc.lft.to/lastmile_qr_scan", "ios": "https://dc.lft.to/lastmile_qr_scan"}, "name": "f01c024899e1595531091c4f02af0e78", "is_reserved": 0}, {"is_disabled": 0, "fusion_lon": 0.0, "fusion_lat": 0.0, "lat": 38.91691566666667, "type": "electric_scooter", "lon": -77.034718, "bike_id": "b35a05cccde487665b497d02f8961f1d", "rental_uris": {"android": "https://dc.lft.to/lastmile_qr_scan", "ios": "https://dc.lft.to/lastmile_qr_scan"}, "name": "b35a05cccde487665b497d02f8961f1d", "is_reserved": 0}, {"is_disabled": 0, "fusion_lon": 0.0, "fusion_lat": 0.0, "lat": 38.91705133333333, "type": "electric_scooter", "lon": -77.03669933333333, "bike_id": "1ac2a278d2fb79a4263e45fede0478f3", "rental_uris": {"android": "https://dc.lft.to/lastmile_qr_scan", "ios": "https://dc.lft.to/lastmile_qr_scan"}, "name": "1ac2a278d2fb79a4263e45fede0478f3", "is_reserved": 0}, {"is_disabled": 0, "fusion_lon": 0.0, "fusion_lat": 0.0, "lat": 38.93231133333333, "type": "electric_scooter", "lon": -76.9993415, "bike_id": "57a5408b302f9162095849ed65885568", "rental_uris": {"android": "https://dc.lft.to/lastmile_qr_scan", "ios": "https://dc.lft.to/lastmile_qr_scan"}, "name": "57a5408b302f9162095849ed65885568", "is_reserved": 0}, {"is_disabled": 0, "fusion_lon": 0.0, "fusion_lat": 0.0, "lat": 38.913032666666666, "type": "electric_scooter", "lon": -77.03199716666667, "bike_id": "463563e009df6b5036a7357b9cc6dfe7", "rental_uris": {"android": "https://dc.lft.to/lastmile_qr_scan", "ios": "https://dc.lft.to/lastmile_qr_scan"}, "name": "463563e009df6b5036a7357b9cc6dfe7", "is_reserved": 0}, {"is_disabled": 0, "fusion_lon": 0.0, "fusion_lat": 0.0, "lat": 38.931689666666664, "type": "electric_scooter", "lon": -77.02819133333334, "bike_id": "75280b773f030a9873935c4f8def550c", "rental_uris": {"android": "https://dc.lft.to/lastmile_qr_scan", "ios": "https://dc.lft.to/lastmile_qr_scan"}, "name": "75280b773f030a9873935c4f8def550c", "is_reserved": 0}, {"is_disabled": 0, "fusion_lon": 0.0, "fusion_lat": 0.0, "lat": 38.918168333333334, "type": "electric_scooter", "lon": -77.01209133333333, "bike_id": "26e950b5993ca98fbd7e86d75462b082", "rental_uris": {"android": "https://dc.lft.to/lastmile_qr_scan", "ios": "https://dc.lft.to/lastmile_qr_scan"}, "name": "26e950b5993ca98fbd7e86d75462b082", "is_reserved": 0}, {"is_disabled": 0, "fusion_lon": 0.0, "fusion_lat": 0.0, "lat": 38.937025166666665, "type": "electric_scooter", "lon": -77.0610385, "bike_id": "0cb962e4a59857678fc3b5349da7ef88", "rental_uris": {"android": "https://dc.lft.to/lastmile_qr_scan", "ios": "https://dc.lft.to/lastmile_qr_scan"}, "name": "0cb962e4a59857678fc3b5349da7ef88", "is_reserved": 0}, {"is_disabled": 0, "fusion_lon": 0.0, "fusion_lat": 0.0, "lat": 38.90878083333333, "type": "electric_scooter", "lon": -77.043987, "bike_id": "9ebe0d57dfffc220f9d4ca1292e139c2", "rental_uris": {"android": "https://dc.lft.to/lastmile_qr_scan", "ios": "https://dc.lft.to/lastmile_qr_scan"}, "name": "9ebe0d57dfffc220f9d4ca1292e139c2", "is_reserved": 0}, {"is_disabled": 0, "fusion_lon": 0.0, "fusion_lat": 0.0, "lat": 38.8380795, "type": "electric_scooter", "lon": -77.00432883333333, "bike_id": "0f7d1af86a246536434361cf768a6228", "rental_uris": {"android": "https://dc.lft.to/lastmile_qr_scan", "ios": "https://dc.lft.to/lastmile_qr_scan"}, "name": "0f7d1af86a246536434361cf768a6228", "is_reserved": 0}, {"is_disabled": 0, "fusion_lon": 0.0, "fusion_lat": 0.0, "lat": 38.9382575, "type": "electric_scooter", "lon": -77.02796383333333, "bike_id": "4c203f695b835784f0fcd85db47eb9cd", "rental_uris": {"android": "https://dc.lft.to/lastmile_qr_scan", "ios": "https://dc.lft.to/lastmile_qr_scan"}, "name": "4c203f695b835784f0fcd85db47eb9cd", "is_reserved": 0}, {"is_disabled": 0, "fusion_lon": 0.0, "fusion_lat": 0.0, "lat": 38.92903866666666, "type": "electric_scooter", "lon": -77.0226545, "bike_id": "dcbb3f4341edf1dd4c9f24688535bc65", "rental_uris": {"android": "https://dc.lft.to/lastmile_qr_scan", "ios": "https://dc.lft.to/lastmile_qr_scan"}, "name": "dcbb3f4341edf1dd4c9f24688535bc65", "is_reserved": 0}, {"is_disabled": 0, "fusion_lon": 0.0, "fusion_lat": 0.0, "lat": 38.928679, "type": "electric_bike", "lon": -77.061439, "bike_id": "b92688f47db77e5758607cbb3128fa05", "rental_uris": {"android": "https://dc.lft.to/lastmile_qr_scan", "ios": "https://dc.lft.to/lastmile_qr_scan"}, "name": "b92688f47db77e5758607cbb3128fa05", "is_reserved": 0}, {"is_disabled": 0, "fusion_lon": 0.0, "fusion_lat": 0.0, "lat": 38.923139666666664, "type": "electric_scooter", "lon": -77.0451975, "bike_id": "5e95b2f0aad4dddcb245edace269abfe", "rental_uris": {"android": "https://dc.lft.to/lastmile_qr_scan", "ios": "https://dc.lft.to/lastmile_qr_scan"}, "name": "5e95b2f0aad4dddcb245edace269abfe", "is_reserved": 0}, {"is_disabled": 0, "fusion_lon": 0.0, "fusion_lat": 0.0, "lat": 38.859135, "type": "electric_scooter", "lon": -76.98782433333334, "bike_id": "0cc2ca8ac0c015cf63a1023d176fb2b3", "rental_uris": {"android": "https://dc.lft.to/lastmile_qr_scan", "ios": "https://dc.lft.to/lastmile_qr_scan"}, "name": "0cc2ca8ac0c015cf63a1023d176fb2b3", "is_reserved": 0}, {"is_disabled": 0, "fusion_lon": 0.0, "fusion_lat": 0.0, "lat": 38.9311195, "type": "electric_scooter", "lon": -77.02361583333334, "bike_id": "652b7edae2a141570698476cad0b3b50", "rental_uris": {"android": "https://dc.lft.to/lastmile_qr_scan", "ios": "https://dc.lft.to/lastmile_qr_scan"}, "name": "652b7edae2a141570698476cad0b3b50", "is_reserved": 0}, {"is_disabled": 0, "fusion_lon": 0.0, "fusion_lat": 0.0, "lat": 38.9052225, "type": "electric_scooter", "lon": -77.06521016666666, "bike_id": "81019e27113c1c05605be168d359ae22", "rental_uris": {"android": "https://dc.lft.to/lastmile_qr_scan", "ios": "https://dc.lft.to/lastmile_qr_scan"}, "name": "81019e27113c1c05605be168d359ae22", "is_reserved": 0}, {"is_disabled": 0, "fusion_lon": 0.0, "fusion_lat": 0.0, "lat": 38.92367016666667, "type": "electric_scooter", "lon": -77.02813666666667, "bike_id": "1f1c8276fa7fd8d0a8b60c3d3af36876", "rental_uris": {"android": "https://dc.lft.to/lastmile_qr_scan", "ios": "https://dc.lft.to/lastmile_qr_scan"}, "name": "1f1c8276fa7fd8d0a8b60c3d3af36876", "is_reserved": 0}, {"is_disabled": 0, "fusion_lon": 0.0, "fusion_lat": 0.0, "lat": 38.934898833333335, "type": "electric_scooter", "lon": -77.02607116666667, "bike_id": "3fe2168cd63a749415c4384f9c505f80", "rental_uris": {"android": "https://dc.lft.to/lastmile_qr_scan", "ios": "https://dc.lft.to/lastmile_qr_scan"}, "name": "3fe2168cd63a749415c4384f9c505f80", "is_reserved": 0}, {"is_disabled": 0, "fusion_lon": 0.0, "fusion_lat": 0.0, "lat": 38.927971166666666, "type": "electric_scooter", "lon": -77.014157, "bike_id": "620b05b3fe761e52d31ee9ec2297536d", "rental_uris": {"android": "https://dc.lft.to/lastmile_qr_scan", "ios": "https://dc.lft.to/lastmile_qr_scan"}, "name": "620b05b3fe761e52d31ee9ec2297536d", "is_reserved": 0}, {"is_disabled": 0, "fusion_lon": 0.0, "fusion_lat": 0.0, "lat": 38.892465, "type": "electric_scooter", "lon": -77.02003483333333, "bike_id": "59ef22d762451c5a931ea753112a8031", "rental_uris": {"android": "https://dc.lft.to/lastmile_qr_scan", "ios": "https://dc.lft.to/lastmile_qr_scan"}, "name": "59ef22d762451c5a931ea753112a8031", "is_reserved": 0}, {"is_disabled": 0, "fusion_lon": 0.0, "fusion_lat": 0.0, "lat": 38.907663166666666, "type": "electric_scooter", "lon": -77.0631135, "bike_id": "e8bf5cf1fe126e20907618affc5827c1", "rental_uris": {"android": "https://dc.lft.to/lastmile_qr_scan", "ios": "https://dc.lft.to/lastmile_qr_scan"}, "name": "e8bf5cf1fe126e20907618affc5827c1", "is_reserved": 0}, {"is_disabled": 0, "fusion_lon": 0.0, "fusion_lat": 0.0, "lat": 38.90505233333333, "type": "electric_bike", "lon": -76.98125533333334, "bike_id": "4e47db0f1f49ab02f19e0b9cc3d93a70", "rental_uris": {"android": "https://dc.lft.to/lastmile_qr_scan", "ios": "https://dc.lft.to/lastmile_qr_scan"}, "name": "4e47db0f1f49ab02f19e0b9cc3d93a70", "is_reserved": 0}, {"is_disabled": 0, "fusion_lon": 0.0, "fusion_lat": 0.0, "lat": 38.93273116666667, "type": "electric_scooter", "lon": -76.97417866666666, "bike_id": "94dad0c88e04d0895ec60e6919598614", "rental_uris": {"android": "https://dc.lft.to/lastmile_qr_scan", "ios": "https://dc.lft.to/lastmile_qr_scan"}, "name": "94dad0c88e04d0895ec60e6919598614", "is_reserved": 0}, {"is_disabled": 0, "fusion_lon": 0.0, "fusion_lat": 0.0, "lat": 38.85205033333333, "type": "electric_bike", "lon": -77.10124516666667, "bike_id": "b827092ccbee90437435f32b6505d097", "rental_uris": {"android": "https://dc.lft.to/lastmile_qr_scan", "ios": "https://dc.lft.to/lastmile_qr_scan"}, "name": "b827092ccbee90437435f32b6505d097", "is_reserved": 0}, {"is_disabled": 0, "fusion_lon": 0.0, "fusion_lat": 0.0, "lat": 38.92515066666667, "type": "electric_scooter", "lon": -77.02711166666667, "bike_id": "cce8ed435cf40aaed1fbcd5f1d6d15b5", "rental_uris": {"android": "https://dc.lft.to/lastmile_qr_scan", "ios": "https://dc.lft.to/lastmile_qr_scan"}, "name": "cce8ed435cf40aaed1fbcd5f1d6d15b5", "is_reserved": 0}, {"is_disabled": 0, "fusion_lon": 0.0, "fusion_lat": 0.0, "lat": 38.87679716666667, "type": "electric_scooter", "lon": -77.0178475, "bike_id": "8d4bd92e648389208b5f892e0cb8c258", "rental_uris": {"android": "https://dc.lft.to/lastmile_qr_scan", "ios": "https://dc.lft.to/lastmile_qr_scan"}, "name": "8d4bd92e648389208b5f892e0cb8c258", "is_reserved": 0}, {"is_disabled": 0, "fusion_lon": 0.0, "fusion_lat": 0.0, "lat": 38.905179333333336, "type": "electric_scooter", "lon": -77.0498965, "bike_id": "c1bd390520ba3d5f334cdc6f0e77afca", "rental_uris": {"android": "https://dc.lft.to/lastmile_qr_scan", "ios": "https://dc.lft.to/lastmile_qr_scan"}, "name": "c1bd390520ba3d5f334cdc6f0e77afca", "is_reserved": 0}, {"is_disabled": 0, "fusion_lon": 0.0, "fusion_lat": 0.0, "lat": 38.893526, "type": "electric_scooter", "lon": -77.022241, "bike_id": "e26a9a3b2e033a399a7dad2595ae8756", "rental_uris": {"android": "https://dc.lft.to/lastmile_qr_scan", "ios": "https://dc.lft.to/lastmile_qr_scan"}, "name": "e26a9a3b2e033a399a7dad2595ae8756", "is_reserved": 0}, {"is_disabled": 0, "fusion_lon": 0.0, "fusion_lat": 0.0, "lat": 38.9072975, "type": "electric_scooter", "lon": -77.0384585, "bike_id": "6422790b5a236f09e6515e3578c9eac6", "rental_uris": {"android": "https://dc.lft.to/lastmile_qr_scan", "ios": "https://dc.lft.to/lastmile_qr_scan"}, "name": "6422790b5a236f09e6515e3578c9eac6", "is_reserved": 0}, {"is_disabled": 0, "fusion_lon": 0.0, "fusion_lat": 0.0, "lat": 38.903655666666666, "type": "electric_scooter", "lon": -77.05017666666667, "bike_id": "816f0a5e13846afa1f6f15fb313167e6", "rental_uris": {"android": "https://dc.lft.to/lastmile_qr_scan", "ios": "https://dc.lft.to/lastmile_qr_scan"}, "name": "816f0a5e13846afa1f6f15fb313167e6", "is_reserved": 0}, {"is_disabled": 0, "fusion_lon": 0.0, "fusion_lat": 0.0, "lat": 38.9539495, "type": "electric_scooter", "lon": -77.02752766666667, "bike_id": "c884990ebdda27c9c3edca8a1d7ba890", "rental_uris": {"android": "https://dc.lft.to/lastmile_qr_scan", "ios": "https://dc.lft.to/lastmile_qr_scan"}, "name": "c884990ebdda27c9c3edca8a1d7ba890", "is_reserved": 0}, {"is_disabled": 0, "fusion_lon": 0.0, "fusion_lat": 0.0, "lat": 38.924158166666665, "type": "electric_scooter", "lon": -77.04157483333333, "bike_id": "f20de12e4ceadc7fc13226443e3a69b3", "rental_uris": {"android": "https://dc.lft.to/lastmile_qr_scan", "ios": "https://dc.lft.to/lastmile_qr_scan"}, "name": "f20de12e4ceadc7fc13226443e3a69b3", "is_reserved": 0}, {"is_disabled": 0, "fusion_lon": 0.0, "fusion_lat": 0.0, "lat": 38.90513466666667, "type": "electric_scooter", "lon": -77.05995133333333, "bike_id": "c8e7daa972f9e095983ebe91de184d42", "rental_uris": {"android": "https://dc.lft.to/lastmile_qr_scan", "ios": "https://dc.lft.to/lastmile_qr_scan"}, "name": "c8e7daa972f9e095983ebe91de184d42", "is_reserved": 0}, {"is_disabled": 0, "fusion_lon": 0.0, "fusion_lat": 0.0, "lat": 38.90265266666667, "type": "electric_scooter", "lon": -77.0345065, "bike_id": "afe1c3f6ecb3f8b6b45b7d79fb34bc24", "rental_uris": {"android": "https://dc.lft.to/lastmile_qr_scan", "ios": "https://dc.lft.to/lastmile_qr_scan"}, "name": "afe1c3f6ecb3f8b6b45b7d79fb34bc24", "is_reserved": 0}, {"is_disabled": 0, "fusion_lon": 0.0, "fusion_lat": 0.0, "lat": 38.8799805, "type": "electric_bike", "lon": -76.91597083333333, "bike_id": "3c4525f2c3792b9d9ba8fd4a9a0805fe", "rental_uris": {"android": "https://dc.lft.to/lastmile_qr_scan", "ios": "https://dc.lft.to/lastmile_qr_scan"}, "name": "3c4525f2c3792b9d9ba8fd4a9a0805fe", "is_reserved": 0}, {"is_disabled": 0, "fusion_lon": 0.0, "fusion_lat": 0.0, "lat": 38.89223466666667, "type": "electric_scooter", "lon": -77.03338, "bike_id": "16548d209ac67607dde3db1e0bec01df", "rental_uris": {"android": "https://dc.lft.to/lastmile_qr_scan", "ios": "https://dc.lft.to/lastmile_qr_scan"}, "name": "16548d209ac67607dde3db1e0bec01df", "is_reserved": 0}, {"is_disabled": 0, "fusion_lon": 0.0, "fusion_lat": 0.0, "lat": 38.858323666666664, "type": "electric_bike", "lon": -76.99283766666667, "bike_id": "6353e62a8f8860b72aa6dc7c07970af5", "rental_uris": {"android": "https://dc.lft.to/lastmile_qr_scan", "ios": "https://dc.lft.to/lastmile_qr_scan"}, "name": "6353e62a8f8860b72aa6dc7c07970af5", "is_reserved": 0}, {"is_disabled": 0, "fusion_lon": 0.0, "fusion_lat": 0.0, "lat": 38.907215, "type": "electric_bike", "lon": -77.03953366666667, "bike_id": "439840cadd761284f65fb850b3301c65", "rental_uris": {"android": "https://dc.lft.to/lastmile_qr_scan", "ios": "https://dc.lft.to/lastmile_qr_scan"}, "name": "439840cadd761284f65fb850b3301c65", "is_reserved": 0}, {"is_disabled": 0, "fusion_lon": 0.0, "fusion_lat": 0.0, "lat": 38.91615616666667, "type": "electric_scooter", "lon": -77.04595466666666, "bike_id": "85f4bbb19270b5bbf0694ebf67bb71b2", "rental_uris": {"android": "https://dc.lft.to/lastmile_qr_scan", "ios": "https://dc.lft.to/lastmile_qr_scan"}, "name": "85f4bbb19270b5bbf0694ebf67bb71b2", "is_reserved": 0}, {"is_disabled": 0, "fusion_lon": 0.0, "fusion_lat": 0.0, "lat": 38.9148145, "type": "electric_scooter", "lon": -77.03239166666667, "bike_id": "81f6eea72e968f71522fdd626e74947c", "rental_uris": {"android": "https://dc.lft.to/lastmile_qr_scan", "ios": "https://dc.lft.to/lastmile_qr_scan"}, "name": "81f6eea72e968f71522fdd626e74947c", "is_reserved": 0}, {"is_disabled": 0, "fusion_lon": 0.0, "fusion_lat": 0.0, "lat": 38.9664445, "type": "electric_bike", "lon": -76.93020683333333, "bike_id": "dbdbc9b91731a8725b541c0e22755f87", "rental_uris": {"android": "https://dc.lft.to/lastmile_qr_scan", "ios": "https://dc.lft.to/lastmile_qr_scan"}, "name": "dbdbc9b91731a8725b541c0e22755f87", "is_reserved": 0}, {"is_disabled": 0, "fusion_lon": 0.0, "fusion_lat": 0.0, "lat": 38.89228833333333, "type": "electric_scooter", "lon": -77.04996766666666, "bike_id": "472f2799a0d8015d731b92602f364496", "rental_uris": {"android": "https://dc.lft.to/lastmile_qr_scan", "ios": "https://dc.lft.to/lastmile_qr_scan"}, "name": "472f2799a0d8015d731b92602f364496", "is_reserved": 0}, {"is_disabled": 0, "fusion_lon": 0.0, "fusion_lat": 0.0, "lat": 38.88074233333333, "type": "electric_scooter", "lon": -77.01670333333334, "bike_id": "58f770f925488f72b404f7a06e7088a8", "rental_uris": {"android": "https://dc.lft.to/lastmile_qr_scan", "ios": "https://dc.lft.to/lastmile_qr_scan"}, "name": "58f770f925488f72b404f7a06e7088a8", "is_reserved": 0}, {"is_disabled": 0, "fusion_lon": 0.0, "fusion_lat": 0.0, "lat": 38.899702166666664, "type": "electric_scooter", "lon": -77.02170483333333, "bike_id": "965f84734a8638582d7fddefe68dc568", "rental_uris": {"android": "https://dc.lft.to/lastmile_qr_scan", "ios": "https://dc.lft.to/lastmile_qr_scan"}, "name": "965f84734a8638582d7fddefe68dc568", "is_reserved": 0}, {"is_disabled": 0, "fusion_lon": 0.0, "fusion_lat": 0.0, "lat": 38.953740833333335, "type": "electric_scooter", "lon": -77.02557733333333, "bike_id": "c88d92209138b6be24331f2f3ab87a18", "rental_uris": {"android": "https://dc.lft.to/lastmile_qr_scan", "ios": "https://dc.lft.to/lastmile_qr_scan"}, "name": "c88d92209138b6be24331f2f3ab87a18", "is_reserved": 0}, {"is_disabled": 0, "fusion_lon": 0.0, "fusion_lat": 0.0, "lat": 38.930004333333336, "type": "electric_scooter", "lon": -77.07830766666666, "bike_id": "cc8e69ef2ccbb4e4631b68a7df5872a9", "rental_uris": {"android": "https://dc.lft.to/lastmile_qr_scan", "ios": "https://dc.lft.to/lastmile_qr_scan"}, "name": "cc8e69ef2ccbb4e4631b68a7df5872a9", "is_reserved": 0}, {"is_disabled": 0, "fusion_lon": 0.0, "fusion_lat": 0.0, "lat": 38.922425833333335, "type": "electric_scooter", "lon": -77.03081366666666, "bike_id": "ac9174f0267da6094599f8fe9cc339bc", "rental_uris": {"android": "https://dc.lft.to/lastmile_qr_scan", "ios": "https://dc.lft.to/lastmile_qr_scan"}, "name": "ac9174f0267da6094599f8fe9cc339bc", "is_reserved": 0}, {"is_disabled": 0, "fusion_lon": 0.0, "fusion_lat": 0.0, "lat": 38.9074605, "type": "electric_scooter", "lon": -77.02294066666667, "bike_id": "f97e715fc18d537d2d60548e948a2132", "rental_uris": {"android": "https://dc.lft.to/lastmile_qr_scan", "ios": "https://dc.lft.to/lastmile_qr_scan"}, "name": "f97e715fc18d537d2d60548e948a2132", "is_reserved": 0}, {"is_disabled": 0, "fusion_lon": 0.0, "fusion_lat": 0.0, "lat": 38.9649805, "type": "electric_scooter", "lon": -77.02482516666667, "bike_id": "ac9da11c0dc7826d2ce9742b9e1ad939", "rental_uris": {"android": "https://dc.lft.to/lastmile_qr_scan", "ios": "https://dc.lft.to/lastmile_qr_scan"}, "name": "ac9da11c0dc7826d2ce9742b9e1ad939", "is_reserved": 0}, {"is_disabled": 0, "fusion_lon": 0.0, "fusion_lat": 0.0, "lat": 38.9387355, "type": "electric_scooter", "lon": -77.03257383333333, "bike_id": "11334221da95ca5572546fb34fabeb83", "rental_uris": {"android": "https://dc.lft.to/lastmile_qr_scan", "ios": "https://dc.lft.to/lastmile_qr_scan"}, "name": "11334221da95ca5572546fb34fabeb83", "is_reserved": 0}, {"is_disabled": 0, "fusion_lon": 0.0, "fusion_lat": 0.0, "lat": 38.83345666666666, "type": "electric_bike", "lon": -76.96558, "bike_id": "a85a01caf19f1baac1a45910e288e648", "rental_uris": {"android": "https://dc.lft.to/lastmile_qr_scan", "ios": "https://dc.lft.to/lastmile_qr_scan"}, "name": "a85a01caf19f1baac1a45910e288e648", "is_reserved": 0}, {"is_disabled": 0, "fusion_lon": 0.0, "fusion_lat": 0.0, "lat": 38.9184915, "type": "electric_bike", "lon": -76.9608895, "bike_id": "d2d6d5c7762e75c9ad142f6b0de264b2", "rental_uris": {"android": "https://dc.lft.to/lastmile_qr_scan", "ios": "https://dc.lft.to/lastmile_qr_scan"}, "name": "d2d6d5c7762e75c9ad142f6b0de264b2", "is_reserved": 0}, {"is_disabled": 0, "fusion_lon": 0.0, "fusion_lat": 0.0, "lat": 38.90122083333333, "type": "electric_scooter", "lon": -77.03045483333334, "bike_id": "0d597541c8e8620a011baca2de9a274c", "rental_uris": {"android": "https://dc.lft.to/lastmile_qr_scan", "ios": "https://dc.lft.to/lastmile_qr_scan"}, "name": "0d597541c8e8620a011baca2de9a274c", "is_reserved": 0}, {"is_disabled": 0, "fusion_lon": 0.0, "fusion_lat": 0.0, "lat": 38.9047735, "type": "electric_scooter", "lon": -77.038227, "bike_id": "38c214cc62d28fa48228cb907aabaf9f", "rental_uris": {"android": "https://dc.lft.to/lastmile_qr_scan", "ios": "https://dc.lft.to/lastmile_qr_scan"}, "name": "38c214cc62d28fa48228cb907aabaf9f", "is_reserved": 0}, {"is_disabled": 0, "fusion_lon": 0.0, "fusion_lat": 0.0, "lat": 38.88249066666667, "type": "electric_scooter", "lon": -77.00347116666667, "bike_id": "62df84aa5f68f958cd05775ef6ad8771", "rental_uris": {"android": "https://dc.lft.to/lastmile_qr_scan", "ios": "https://dc.lft.to/lastmile_qr_scan"}, "name": "62df84aa5f68f958cd05775ef6ad8771", "is_reserved": 0}, {"is_disabled": 0, "fusion_lon": 0.0, "fusion_lat": 0.0, "lat": 38.9170825, "type": "electric_scooter", "lon": -77.0367435, "bike_id": "a5ebc6824b046bb3ae3fce7e6a605587", "rental_uris": {"android": "https://dc.lft.to/lastmile_qr_scan", "ios": "https://dc.lft.to/lastmile_qr_scan"}, "name": "a5ebc6824b046bb3ae3fce7e6a605587", "is_reserved": 0}, {"is_disabled": 0, "fusion_lon": 0.0, "fusion_lat": 0.0, "lat": 38.96305316666667, "type": "electric_bike", "lon": -77.05759333333333, "bike_id": "331bd7cd3c1eb7035214f773517b68b5", "rental_uris": {"android": "https://dc.lft.to/lastmile_qr_scan", "ios": "https://dc.lft.to/lastmile_qr_scan"}, "name": "331bd7cd3c1eb7035214f773517b68b5", "is_reserved": 0}, {"is_disabled": 0, "fusion_lon": 0.0, "fusion_lat": 0.0, "lat": 38.93060416666667, "type": "electric_scooter", "lon": -77.03189016666667, "bike_id": "22a80c1c8190d86c6cf19a37a37bb102", "rental_uris": {"android": "https://dc.lft.to/lastmile_qr_scan", "ios": "https://dc.lft.to/lastmile_qr_scan"}, "name": "22a80c1c8190d86c6cf19a37a37bb102", "is_reserved": 0}, {"is_disabled": 0, "fusion_lon": 0.0, "fusion_lat": 0.0, "lat": 38.8684145, "type": "electric_bike", "lon": -77.09730483333334, "bike_id": "88ac4f7df9f8ad8d7d5057b19ad72d23", "rental_uris": {"android": "https://dc.lft.to/lastmile_qr_scan", "ios": "https://dc.lft.to/lastmile_qr_scan"}, "name": "88ac4f7df9f8ad8d7d5057b19ad72d23", "is_reserved": 0}, {"is_disabled": 0, "fusion_lon": 0.0, "fusion_lat": 0.0, "lat": 38.912532, "type": "electric_scooter", "lon": -77.03670033333333, "bike_id": "535c196537c8c3f10f8818d9c8201871", "rental_uris": {"android": "https://dc.lft.to/lastmile_qr_scan", "ios": "https://dc.lft.to/lastmile_qr_scan"}, "name": "535c196537c8c3f10f8818d9c8201871", "is_reserved": 0}, {"is_disabled": 0, "fusion_lon": 0.0, "fusion_lat": 0.0, "lat": 38.902392, "type": "electric_bike", "lon": -76.97016983333333, "bike_id": "493a533a16c224499a2c887bde241cc9", "rental_uris": {"android": "https://dc.lft.to/lastmile_qr_scan", "ios": "https://dc.lft.to/lastmile_qr_scan"}, "name": "493a533a16c224499a2c887bde241cc9", "is_reserved": 0}, {"is_disabled": 0, "fusion_lon": 0.0, "fusion_lat": 0.0, "lat": 38.90220216666667, "type": "electric_scooter", "lon": -77.021019, "bike_id": "11b79a093c86b6ab3a4b96de0fce9882", "rental_uris": {"android": "https://dc.lft.to/lastmile_qr_scan", "ios": "https://dc.lft.to/lastmile_qr_scan"}, "name": "11b79a093c86b6ab3a4b96de0fce9882", "is_reserved": 0}, {"is_disabled": 0, "fusion_lon": 0.0, "fusion_lat": 0.0, "lat": 38.9070325, "type": "electric_scooter", "lon": -77.03250233333333, "bike_id": "1f6cb1db23e2bb3bfb6ca7f71a2a89c3", "rental_uris": {"android": "https://dc.lft.to/lastmile_qr_scan", "ios": "https://dc.lft.to/lastmile_qr_scan"}, "name": "1f6cb1db23e2bb3bfb6ca7f71a2a89c3", "is_reserved": 0}, {"is_disabled": 0, "fusion_lon": 0.0, "fusion_lat": 0.0, "lat": 38.89254966666667, "type": "electric_scooter", "lon": -77.03178416666667, "bike_id": "c7dc269c4df08a19db708ae6cab060f4", "rental_uris": {"android": "https://dc.lft.to/lastmile_qr_scan", "ios": "https://dc.lft.to/lastmile_qr_scan"}, "name": "c7dc269c4df08a19db708ae6cab060f4", "is_reserved": 0}, {"is_disabled": 0, "fusion_lon": 0.0, "fusion_lat": 0.0, "lat": 38.92992616666667, "type": "electric_scooter", "lon": -77.0218335, "bike_id": "88be88c73fb9ddf950a0d7e25b8dce11", "rental_uris": {"android": "https://dc.lft.to/lastmile_qr_scan", "ios": "https://dc.lft.to/lastmile_qr_scan"}, "name": "88be88c73fb9ddf950a0d7e25b8dce11", "is_reserved": 0}, {"is_disabled": 0, "fusion_lon": 0.0, "fusion_lat": 0.0, "lat": 38.92266083333333, "type": "electric_scooter", "lon": -76.99393916666666, "bike_id": "7e43e29c68e889f1a3026eddf0ee3940", "rental_uris": {"android": "https://dc.lft.to/lastmile_qr_scan", "ios": "https://dc.lft.to/lastmile_qr_scan"}, "name": "7e43e29c68e889f1a3026eddf0ee3940", "is_reserved": 0}, {"is_disabled": 0, "fusion_lon": 0.0, "fusion_lat": 0.0, "lat": 38.84841866666667, "type": "electric_bike", "lon": -77.08042366666666, "bike_id": "af4ff9a6b47f007be11592f319b8987a", "rental_uris": {"android": "https://dc.lft.to/lastmile_qr_scan", "ios": "https://dc.lft.to/lastmile_qr_scan"}, "name": "af4ff9a6b47f007be11592f319b8987a", "is_reserved": 0}, {"is_disabled": 0, "fusion_lon": 0.0, "fusion_lat": 0.0, "lat": 38.90619133333333, "type": "electric_scooter", "lon": -77.024077, "bike_id": "ea41a7a1c5c2fbf1d044d73474ac350e", "rental_uris": {"android": "https://dc.lft.to/lastmile_qr_scan", "ios": "https://dc.lft.to/lastmile_qr_scan"}, "name": "ea41a7a1c5c2fbf1d044d73474ac350e", "is_reserved": 0}, {"is_disabled": 0, "fusion_lon": 0.0, "fusion_lat": 0.0, "lat": 38.905685166666665, "type": "electric_scooter", "lon": -77.04671516666667, "bike_id": "79589f332dd05e01c8cb5adb0a780235", "rental_uris": {"android": "https://dc.lft.to/lastmile_qr_scan", "ios": "https://dc.lft.to/lastmile_qr_scan"}, "name": "79589f332dd05e01c8cb5adb0a780235", "is_reserved": 0}, {"is_disabled": 0, "fusion_lon": 0.0, "fusion_lat": 0.0, "lat": 38.917235833333336, "type": "electric_scooter", "lon": -77.04169816666666, "bike_id": "64bcb756b5d0d5d9bb5e978f6ed446b1", "rental_uris": {"android": "https://dc.lft.to/lastmile_qr_scan", "ios": "https://dc.lft.to/lastmile_qr_scan"}, "name": "64bcb756b5d0d5d9bb5e978f6ed446b1", "is_reserved": 0}, {"is_disabled": 0, "fusion_lon": 0.0, "fusion_lat": 0.0, "lat": 38.933987, "type": "electric_scooter", "lon": -77.02730566666666, "bike_id": "fb30070e5ee05f864c445194d33bb02b", "rental_uris": {"android": "https://dc.lft.to/lastmile_qr_scan", "ios": "https://dc.lft.to/lastmile_qr_scan"}, "name": "fb30070e5ee05f864c445194d33bb02b", "is_reserved": 0}, {"is_disabled": 0, "fusion_lon": 0.0, "fusion_lat": 0.0, "lat": 38.970499833333335, "type": "electric_bike", "lon": -77.03075, "bike_id": "2d161db6330ff6adfe7f7b9b4e967bbd", "rental_uris": {"android": "https://dc.lft.to/lastmile_qr_scan", "ios": "https://dc.lft.to/lastmile_qr_scan"}, "name": "2d161db6330ff6adfe7f7b9b4e967bbd", "is_reserved": 0}, {"is_disabled": 0, "fusion_lon": 0.0, "fusion_lat": 0.0, "lat": 38.90061566666667, "type": "electric_scooter", "lon": -77.03451016666666, "bike_id": "99cf4c2f9ddf289c5bef99b93339069b", "rental_uris": {"android": "https://dc.lft.to/lastmile_qr_scan", "ios": "https://dc.lft.to/lastmile_qr_scan"}, "name": "99cf4c2f9ddf289c5bef99b93339069b", "is_reserved": 0}, {"is_disabled": 0, "fusion_lon": 0.0, "fusion_lat": 0.0, "lat": 38.90598, "type": "electric_scooter", "lon": -77.06372483333334, "bike_id": "8969d5517ee11e21b01e64f57b476d38", "rental_uris": {"android": "https://dc.lft.to/lastmile_qr_scan", "ios": "https://dc.lft.to/lastmile_qr_scan"}, "name": "8969d5517ee11e21b01e64f57b476d38", "is_reserved": 0}, {"is_disabled": 0, "fusion_lon": 0.0, "fusion_lat": 0.0, "lat": 38.89522766666666, "type": "electric_scooter", "lon": -77.0282175, "bike_id": "2646b81936b34e6f70429b4366a2e501", "rental_uris": {"android": "https://dc.lft.to/lastmile_qr_scan", "ios": "https://dc.lft.to/lastmile_qr_scan"}, "name": "2646b81936b34e6f70429b4366a2e501", "is_reserved": 0}, {"is_disabled": 0, "fusion_lon": 0.0, "fusion_lat": 0.0, "lat": 38.896772166666665, "type": "electric_scooter", "lon": -76.94713816666666, "bike_id": "f55c5c30e29fe1d6a3f4521938cd5f54", "rental_uris": {"android": "https://dc.lft.to/lastmile_qr_scan", "ios": "https://dc.lft.to/lastmile_qr_scan"}, "name": "f55c5c30e29fe1d6a3f4521938cd5f54", "is_reserved": 0}, {"is_disabled": 0, "fusion_lon": 0.0, "fusion_lat": 0.0, "lat": 38.89840316666667, "type": "electric_scooter", "lon": -77.0334975, "bike_id": "f563a10a1cf0bc40226f7e2c8170546b", "rental_uris": {"android": "https://dc.lft.to/lastmile_qr_scan", "ios": "https://dc.lft.to/lastmile_qr_scan"}, "name": "f563a10a1cf0bc40226f7e2c8170546b", "is_reserved": 0}, {"is_disabled": 0, "fusion_lon": 0.0, "fusion_lat": 0.0, "lat": 38.875687, "type": "electric_scooter", "lon": -77.01985933333333, "bike_id": "4fb74380d1f0fc8aceae4add8fbe59a1", "rental_uris": {"android": "https://dc.lft.to/lastmile_qr_scan", "ios": "https://dc.lft.to/lastmile_qr_scan"}, "name": "4fb74380d1f0fc8aceae4add8fbe59a1", "is_reserved": 0}, {"is_disabled": 0, "fusion_lon": 0.0, "fusion_lat": 0.0, "lat": 38.98815283333333, "type": "electric_bike", "lon": -77.02649966666667, "bike_id": "9563f96653b6a0ae68f4417e6a265da6", "rental_uris": {"android": "https://dc.lft.to/lastmile_qr_scan", "ios": "https://dc.lft.to/lastmile_qr_scan"}, "name": "9563f96653b6a0ae68f4417e6a265da6", "is_reserved": 0}, {"is_disabled": 0, "fusion_lon": 0.0, "fusion_lat": 0.0, "lat": 38.9265945, "type": "electric_scooter", "lon": -77.023053, "bike_id": "7bb20ceb6129439105a56865db480c44", "rental_uris": {"android": "https://dc.lft.to/lastmile_qr_scan", "ios": "https://dc.lft.to/lastmile_qr_scan"}, "name": "7bb20ceb6129439105a56865db480c44", "is_reserved": 0}, {"is_disabled": 0, "fusion_lon": 0.0, "fusion_lat": 0.0, "lat": 38.953101833333335, "type": "electric_scooter", "lon": -77.03600633333333, "bike_id": "f8d5aec943bfd1df3d68defadc65b9d3", "rental_uris": {"android": "https://dc.lft.to/lastmile_qr_scan", "ios": "https://dc.lft.to/lastmile_qr_scan"}, "name": "f8d5aec943bfd1df3d68defadc65b9d3", "is_reserved": 0}, {"is_disabled": 0, "fusion_lon": 0.0, "fusion_lat": 0.0, "lat": 38.83149566666667, "type": "electric_bike", "lon": -76.996938, "bike_id": "86277c440761955f3e32f813e932b14d", "rental_uris": {"android": "https://dc.lft.to/lastmile_qr_scan", "ios": "https://dc.lft.to/lastmile_qr_scan"}, "name": "86277c440761955f3e32f813e932b14d", "is_reserved": 0}, {"is_disabled": 0, "fusion_lon": 0.0, "fusion_lat": 0.0, "lat": 38.89794416666667, "type": "electric_scooter", "lon": -76.93052833333333, "bike_id": "58029bc59b8ec0e43763509f0eec34e2", "rental_uris": {"android": "https://dc.lft.to/lastmile_qr_scan", "ios": "https://dc.lft.to/lastmile_qr_scan"}, "name": "58029bc59b8ec0e43763509f0eec34e2", "is_reserved": 0}, {"is_disabled": 0, "fusion_lon": 0.0, "fusion_lat": 0.0, "lat": 38.9498015, "type": "electric_scooter", "lon": -77.02704883333334, "bike_id": "7a9f7999a661433d3ef21c8549343847", "rental_uris": {"android": "https://dc.lft.to/lastmile_qr_scan", "ios": "https://dc.lft.to/lastmile_qr_scan"}, "name": "7a9f7999a661433d3ef21c8549343847", "is_reserved": 0}, {"is_disabled": 0, "fusion_lon": 0.0, "fusion_lat": 0.0, "lat": 38.9156125, "type": "electric_scooter", "lon": -77.01169866666666, "bike_id": "022fab668b9599e81a113f4010053b84", "rental_uris": {"android": "https://dc.lft.to/lastmile_qr_scan", "ios": "https://dc.lft.to/lastmile_qr_scan"}, "name": "022fab668b9599e81a113f4010053b84", "is_reserved": 0}, {"is_disabled": 0, "fusion_lon": 0.0, "fusion_lat": 0.0, "lat": 38.990881, "type": "electric_bike", "lon": -76.87495066666666, "bike_id": "84ebe6610ef37f2a5f73caac8bb3ad28", "rental_uris": {"android": "https://dc.lft.to/lastmile_qr_scan", "ios": "https://dc.lft.to/lastmile_qr_scan"}, "name": "84ebe6610ef37f2a5f73caac8bb3ad28", "is_reserved": 0}, {"is_disabled": 0, "fusion_lon": 0.0, "fusion_lat": 0.0, "lat": 38.889615, "type": "electric_bike", "lon": -76.94863083333334, "bike_id": "9f2145cda62e23c31202f35ff7c64753", "rental_uris": {"android": "https://dc.lft.to/lastmile_qr_scan", "ios": "https://dc.lft.to/lastmile_qr_scan"}, "name": "9f2145cda62e23c31202f35ff7c64753", "is_reserved": 0}, {"is_disabled": 0, "fusion_lon": 0.0, "fusion_lat": 0.0, "lat": 38.932926, "type": "electric_scooter", "lon": -77.023889, "bike_id": "70a39cf4641862b4867b4a0b1bc6b603", "rental_uris": {"android": "https://dc.lft.to/lastmile_qr_scan", "ios": "https://dc.lft.to/lastmile_qr_scan"}, "name": "70a39cf4641862b4867b4a0b1bc6b603", "is_reserved": 0}, {"is_disabled": 0, "fusion_lon": 0.0, "fusion_lat": 0.0, "lat": 38.9198755, "type": "electric_scooter", "lon": -77.032882, "bike_id": "bdcd5596fd5c583dd3165e8bf8ab59d9", "rental_uris": {"android": "https://dc.lft.to/lastmile_qr_scan", "ios": "https://dc.lft.to/lastmile_qr_scan"}, "name": "bdcd5596fd5c583dd3165e8bf8ab59d9", "is_reserved": 0}, {"is_disabled": 0, "fusion_lon": 0.0, "fusion_lat": 0.0, "lat": 38.907773166666665, "type": "electric_scooter", "lon": -77.03252266666667, "bike_id": "8f82ca61f1501664ca63b8fb7618460c", "rental_uris": {"android": "https://dc.lft.to/lastmile_qr_scan", "ios": "https://dc.lft.to/lastmile_qr_scan"}, "name": "8f82ca61f1501664ca63b8fb7618460c", "is_reserved": 0}, {"is_disabled": 0, "fusion_lon": 0.0, "fusion_lat": 0.0, "lat": 38.97568533333333, "type": "electric_bike", "lon": -76.96408683333334, "bike_id": "ed99224372c4e0e91705115c5b58fb35", "rental_uris": {"android": "https://dc.lft.to/lastmile_qr_scan", "ios": "https://dc.lft.to/lastmile_qr_scan"}, "name": "ed99224372c4e0e91705115c5b58fb35", "is_reserved": 0}, {"is_disabled": 0, "fusion_lon": 0.0, "fusion_lat": 0.0, "lat": 38.908440166666665, "type": "electric_scooter", "lon": -77.05490116666667, "bike_id": "7d73ab38e56fce8668df00706ef69aa7", "rental_uris": {"android": "https://dc.lft.to/lastmile_qr_scan", "ios": "https://dc.lft.to/lastmile_qr_scan"}, "name": "7d73ab38e56fce8668df00706ef69aa7", "is_reserved": 0}, {"is_disabled": 0, "fusion_lon": 0.0, "fusion_lat": 0.0, "lat": 38.888191, "type": "electric_bike", "lon": -77.12737183333333, "bike_id": "52fd64295d4c556d11f6d56092cb2b19", "rental_uris": {"android": "https://dc.lft.to/lastmile_qr_scan", "ios": "https://dc.lft.to/lastmile_qr_scan"}, "name": "52fd64295d4c556d11f6d56092cb2b19", "is_reserved": 0}, {"is_disabled": 0, "fusion_lon": 0.0, "fusion_lat": 0.0, "lat": 38.90825433333333, "type": "electric_bike", "lon": -76.94154533333334, "bike_id": "25e3ee46fadcbfc83d3deedc0bfab408", "rental_uris": {"android": "https://dc.lft.to/lastmile_qr_scan", "ios": "https://dc.lft.to/lastmile_qr_scan"}, "name": "25e3ee46fadcbfc83d3deedc0bfab408", "is_reserved": 0}, {"is_disabled": 0, "fusion_lon": 0.0, "fusion_lat": 0.0, "lat": 38.88730616666667, "type": "electric_scooter", "lon": -77.022736, "bike_id": "471d77fb1cf5a57520d6ecedd3178075", "rental_uris": {"android": "https://dc.lft.to/lastmile_qr_scan", "ios": "https://dc.lft.to/lastmile_qr_scan"}, "name": "471d77fb1cf5a57520d6ecedd3178075", "is_reserved": 0}, {"is_disabled": 0, "fusion_lon": 0.0, "fusion_lat": 0.0, "lat": 38.95601716666667, "type": "electric_scooter", "lon": -77.03626883333334, "bike_id": "d7bdd6b24f6a14539235c13ce40f4948", "rental_uris": {"android": "https://dc.lft.to/lastmile_qr_scan", "ios": "https://dc.lft.to/lastmile_qr_scan"}, "name": "d7bdd6b24f6a14539235c13ce40f4948", "is_reserved": 0}, {"is_disabled": 0, "fusion_lon": 0.0, "fusion_lat": 0.0, "lat": 38.845094833333334, "type": "electric_bike", "lon": -76.97210483333333, "bike_id": "6d1bd1ab636c9ae58e45f38de3bcb15d", "rental_uris": {"android": "https://dc.lft.to/lastmile_qr_scan", "ios": "https://dc.lft.to/lastmile_qr_scan"}, "name": "6d1bd1ab636c9ae58e45f38de3bcb15d", "is_reserved": 0}, {"is_disabled": 0, "fusion_lon": 0.0, "fusion_lat": 0.0, "lat": 38.894032, "type": "electric_bike", "lon": -76.9827735, "bike_id": "da824c83eded6f1c3ba20518c0f3bffc", "rental_uris": {"android": "https://dc.lft.to/lastmile_qr_scan", "ios": "https://dc.lft.to/lastmile_qr_scan"}, "name": "da824c83eded6f1c3ba20518c0f3bffc", "is_reserved": 0}, {"is_disabled": 0, "fusion_lon": 0.0, "fusion_lat": 0.0, "lat": 38.91659883333333, "type": "electric_scooter", "lon": -77.02801166666667, "bike_id": "667d226ee53e382aea426c64905d4867", "rental_uris": {"android": "https://dc.lft.to/lastmile_qr_scan", "ios": "https://dc.lft.to/lastmile_qr_scan"}, "name": "667d226ee53e382aea426c64905d4867", "is_reserved": 0}, {"is_disabled": 0, "fusion_lon": 0.0, "fusion_lat": 0.0, "lat": 38.91304483333333, "type": "electric_scooter", "lon": -77.0321095, "bike_id": "d02552919fd9512c3b0998785dc19675", "rental_uris": {"android": "https://dc.lft.to/lastmile_qr_scan", "ios": "https://dc.lft.to/lastmile_qr_scan"}, "name": "d02552919fd9512c3b0998785dc19675", "is_reserved": 0}, {"is_disabled": 0, "fusion_lon": 0.0, "fusion_lat": 0.0, "lat": 38.8999755, "type": "electric_scooter", "lon": -77.03208966666666, "bike_id": "3749417d483e00029c4b46858caa5192", "rental_uris": {"android": "https://dc.lft.to/lastmile_qr_scan", "ios": "https://dc.lft.to/lastmile_qr_scan"}, "name": "3749417d483e00029c4b46858caa5192", "is_reserved": 0}, {"is_disabled": 0, "fusion_lon": 0.0, "fusion_lat": 0.0, "lat": 38.907106, "type": "electric_scooter", "lon": -77.0271375, "bike_id": "d7c0730487c8a51d15bfcbd708258af1", "rental_uris": {"android": "https://dc.lft.to/lastmile_qr_scan", "ios": "https://dc.lft.to/lastmile_qr_scan"}, "name": "d7c0730487c8a51d15bfcbd708258af1", "is_reserved": 0}, {"is_disabled": 0, "fusion_lon": 0.0, "fusion_lat": 0.0, "lat": 38.90720016666667, "type": "electric_scooter", "lon": -77.034346, "bike_id": "9052d5216a877f8cd809ecd03bb6710c", "rental_uris": {"android": "https://dc.lft.to/lastmile_qr_scan", "ios": "https://dc.lft.to/lastmile_qr_scan"}, "name": "9052d5216a877f8cd809ecd03bb6710c", "is_reserved": 0}, {"is_disabled": 0, "fusion_lon": 0.0, "fusion_lat": 0.0, "lat": 38.95616116666667, "type": "electric_scooter", "lon": -77.03573616666667, "bike_id": "2c8a923af1b1814fc184dde8e0e6150f", "rental_uris": {"android": "https://dc.lft.to/lastmile_qr_scan", "ios": "https://dc.lft.to/lastmile_qr_scan"}, "name": "2c8a923af1b1814fc184dde8e0e6150f", "is_reserved": 0}, {"is_disabled": 0, "fusion_lon": 0.0, "fusion_lat": 0.0, "lat": 38.91958783333333, "type": "electric_scooter", "lon": -77.02713133333333, "bike_id": "0e341333fdb9f6a360c6389dfcec119a", "rental_uris": {"android": "https://dc.lft.to/lastmile_qr_scan", "ios": "https://dc.lft.to/lastmile_qr_scan"}, "name": "0e341333fdb9f6a360c6389dfcec119a", "is_reserved": 0}, {"is_disabled": 0, "fusion_lon": 0.0, "fusion_lat": 0.0, "lat": 38.902832, "type": "electric_scooter", "lon": -77.0242455, "bike_id": "3a4318301749d4ff1d789a2f27073f05", "rental_uris": {"android": "https://dc.lft.to/lastmile_qr_scan", "ios": "https://dc.lft.to/lastmile_qr_scan"}, "name": "3a4318301749d4ff1d789a2f27073f05", "is_reserved": 0}, {"is_disabled": 0, "fusion_lon": 0.0, "fusion_lat": 0.0, "lat": 38.91029783333333, "type": "electric_scooter", "lon": -76.99337283333334, "bike_id": "f3541110cccbf19dca87b85cae0f020f", "rental_uris": {"android": "https://dc.lft.to/lastmile_qr_scan", "ios": "https://dc.lft.to/lastmile_qr_scan"}, "name": "f3541110cccbf19dca87b85cae0f020f", "is_reserved": 0},