{"data": {"bikes": [{"rental_uris": {"ios": "https://dc.lft.to/lastmile_qr_scan", "android": "https://dc.lft.to/lastmile_qr_scan"}, "lon": -77.02490966666667, "type": "electric_scooter", "fusion_lat": 0.0, "lat": 38.93641066666667, "name": "8c9374ac0b16487762595bc1dcbddfc7", "fusion_lon": 0.0, "bike_id": "8c9374ac0b16487762595bc1dcbddfc7", "is_disabled": 0, "is_reserved": 0}, {"rental_uris": {"ios": "https://dc.lft.to/lastmile_qr_scan", "android": "https://dc.lft.to/lastmile_qr_scan"}, "lon": -77.02614533333333, "type": "electric_scooter", "fusion_lat": 0.0, "lat": 38.91993433333333, "name": "e0699f52d53ace9d57f319c37e475660", "fusion_lon": 0.0, "bike_id": "e0699f52d53ace9d57f319c37e475660", "is_disabled": 0, "is_reserved": 0}, {"rental_uris": {"ios": "https://dc.lft.to/lastmile_qr_scan", "android": "https://dc.lft.to/lastmile_qr_scan"}, "lon": -77.026437, "type": "electric_scooter", "fusion_lat": 0.0, "lat": 38.8922, "name": "93f7f282875dcfba1ba5b67f7776b554", "fusion_lon": 0.0, "bike_id": "93f7f282875dcfba1ba5b67f7776b554", "is_disabled": 0, "is_reserved": 0}, {"rental_uris": {"ios": "https://dc.lft.to/lastmile_qr_scan", "android": "https://dc.lft.to/lastmile_qr_scan"}, "lon": -76.99066233333333, "type": "electric_scooter", "fusion_lat": 0.0, "lat": 38.8635755, "name": "0b113d67b9d7fdd8d4b8076bd58f9252", "fusion_lon": 0.0, "bike_id": "0b113d67b9d7fdd8d4b8076bd58f9252", "is_disabled": 0, "is_reserved": 0}, {"rental_uris": {"ios": "https://dc.lft.to/lastmile_qr_scan", "android": "https://dc.lft.to/lastmile_qr_scan"}, "lon": -76.90439833333333, "type": "electric_bike", "fusion_lat": 0.0, "lat": 38.89781583333333, "name": "98f6c17dfd200cbe1e111e10a66a2303", "fusion_lon": 0.0, "bike_id": "98f6c17dfd200cbe1e111e10a66a2303", "is_disabled": 0, "is_reserved": 0}, {"rental_uris": {"ios": "https://dc.lft.to/lastmile_qr_scan", "android": "https://dc.lft.to/lastmile_qr_scan"}, "lon": -77.02285516666667, "type": "electric_scooter", "fusion_lat": 0.0, "lat": 38.908602, "name": "0387c10c202927242c7e53843f67e4f7", "fusion_lon": 0.0, "bike_id": "0387c10c202927242c7e53843f67e4f7", "is_disabled": 0, "is_reserved": 0}, {"rental_uris": {"ios": "https://dc.lft.to/lastmile_qr_scan", "android": "https://dc.lft.to/lastmile_qr_scan"}, "lon": -77.04879366666667, "type": "electric_scooter", "fusion_lat": 0.0, "lat": 38.91237483333333, "name": "b7e16853b7d0c98b359491dd9c76fabf", "fusion_lon": 0.0, "bike_id": "b7e16853b7d0c98b359491dd9c76fabf", "is_disabled": 0, "is_reserved": 0}, {"rental_uris": {"ios": "https://dc.lft.to/lastmile_qr_scan", "android": "https://dc.lft.to/lastmile_qr_scan"}, "lon": -77.03584116666667, "type": "electric_scooter", "fusion_lat": 0.0, "lat": 38.902444833333334, "name": "57790afebd2a4915711a822534007c88", "fusion_lon": 0.0, "bike_id": "57790afebd2a4915711a822534007c88", "is_disabled": 0, "is_reserved": 0}, {"rental_uris": {"ios": "https://dc.lft.to/lastmile_qr_scan", "android": "https://dc.lft.to/lastmile_qr_scan"}, "lon": -77.02472566666667, "type": "electric_scooter", "fusion_lat": 0.0, "lat": 38.93300033333333, "name": "c9e54fc72cc1789184cabb0cafd2a7dd", "fusion_lon": 0.0, "bike_id": "c9e54fc72cc1789184cabb0cafd2a7dd", "is_disabled": 0, "is_reserved": 0}, {"rental_uris": {"ios": "https://dc.lft.to/lastmile_qr_scan", "android": "https://dc.lft.to/lastmile_qr_scan"}, "lon": -77.03082316666666, "type": "electric_scooter", "fusion_lat": 0.0, "lat": 38.9099685, "name": "c88c23000bb6d310b787bb3f0370b906", "fusion_lon": 0.0, "bike_id": "c88c23000bb6d310b787bb3f0370b906", "is_disabled": 0, "is_reserved": 0}, {"rental_uris": {"ios": "https://dc.lft.to/lastmile_qr_scan", "android": "https://dc.lft.to/lastmile_qr_scan"}, "lon": -77.012223, "type": "electric_scooter", "fusion_lat": 0.0, "lat": 38.915185666666666, "name": "e17c551329d9dacc29152c8595062e20", "fusion_lon": 0.0, "bike_id": "e17c551329d9dacc29152c8595062e20", "is_disabled": 0, "is_reserved": 0}, {"rental_uris": {"ios": "https://dc.lft.to/lastmile_qr_scan", "android": "https://dc.lft.to/lastmile_qr_scan"}, "lon": -77.005806, "type": "electric_scooter", "fusion_lat": 0.0, "lat": 38.88596783333333, "name": "6b4ae7eb73dfacbd9c918e6be880f75d", "fusion_lon": 0.0, "bike_id": "6b4ae7eb73dfacbd9c918e6be880f75d", "is_disabled": 0, "is_reserved": 0}, {"rental_uris": {"ios": "https://dc.lft.to/lastmile_qr_scan", "android": "https://dc.lft.to/lastmile_qr_scan"}, "lon": -77.03209116666666, "type": "electric_scooter", "fusion_lat": 0.0, "lat": 38.903947, "name": "4d74171dedfbfdde6139d728cde10f73", "fusion_lon": 0.0, "bike_id": "4d74171dedfbfdde6139d728cde10f73", "is_disabled": 0, "is_reserved": 0}, {"rental_uris": {"ios": "https://dc.lft.to/lastmile_qr_scan", "android": "https://dc.lft.to/lastmile_qr_scan"}, "lon": -77.04612083333333, "type": "electric_scooter", "fusion_lat": 0.0, "lat": 38.9138405, "name": "5dd0f7451786d16f53ff582223a17ca8", "fusion_lon": 0.0, "bike_id": "5dd0f7451786d16f53ff582223a17ca8", "is_disabled": 0, "is_reserved": 0}, {"rental_uris": {"ios": "https://dc.lft.to/lastmile_qr_scan", "android": "https://dc.lft.to/lastmile_qr_scan"}, "lon": -77.03214516666667, "type": "electric_scooter", "fusion_lat": 0.0, "lat": 38.91263716666667, "name": "2682f4e08e3691c8e97ff6054a3ad323", "fusion_lon": 0.0, "bike_id": "2682f4e08e3691c8e97ff6054a3ad323", "is_disabled": 0, "is_reserved": 0}, {"rental_uris": {"ios": "https://dc.lft.to/lastmile_qr_scan", "android": "https://dc.lft.to/lastmile_qr_scan"}, "lon": -77.04124066666667, "type": "electric_scooter", "fusion_lat": 0.0, "lat": 38.918879, "name": "134b33b04a7ed3747106a016aa41db94", "fusion_lon": 0.0, "bike_id": "134b33b04a7ed3747106a016aa41db94", "is_disabled": 0, "is_reserved": 0}, {"rental_uris": {"ios": "https://dc.lft.to/lastmile_qr_scan", "android": "https://dc.lft.to/lastmile_qr_scan"}, "lon": -77.041952, "type": "electric_scooter", "fusion_lat": 0.0, "lat": 38.920438833333336, "name": "0fd9289408e26fcff4d8873c5855ba15", "fusion_lon": 0.0, "bike_id": "0fd9289408e26fcff4d8873c5855ba15", "is_disabled": 0, "is_reserved": 0}, {"rental_uris": {"ios": "https://dc.lft.to/lastmile_qr_scan", "android": "https://dc.lft.to/lastmile_qr_scan"}, "lon": -77.00776416666666, "type": "electric_scooter", "fusion_lat": 0.0, "lat": 38.90644533333333, "name": "34a674dd4bd5c8e80b2c33496ea2dcb9", "fusion_lon": 0.0, "bike_id": "34a674dd4bd5c8e80b2c33496ea2dcb9", "is_disabled": 0, "is_reserved": 0}, {"rental_uris": {"ios": "https://dc.lft.to/lastmile_qr_scan", "android": "https://dc.lft.to/lastmile_qr_scan"}, "lon": -76.95000916666666, "type": "electric_scooter", "fusion_lat": 0.0, "lat": 38.893709333333334, "name": "5c0ece53abb2755b9ed3ce4e1df3fb35", "fusion_lon": 0.0, "bike_id": "5c0ece53abb2755b9ed3ce4e1df3fb35", "is_disabled": 0, "is_reserved": 0}, {"rental_uris": {"ios": "https://dc.lft.to/lastmile_qr_scan", "android": "https://dc.lft.to/lastmile_qr_scan"}, "lon": -76.9888875, "type": "electric_scooter", "fusion_lat": 0.0, "lat": 38.866572166666664, "name": "2d2ec3c46e91cba95e41fb15805ae6db", "fusion_lon": 0.0, "bike_id": "2d2ec3c46e91cba95e41fb15805ae6db", "is_disabled": 0, "is_reserved": 0}, {"rental_uris": {"ios": "https://dc.lft.to/lastmile_qr_scan", "android": "https://dc.lft.to/lastmile_qr_scan"}, "lon": -77.0200515, "type": "electric_scooter", "fusion_lat": 0.0, "lat": 38.919077333333334, "name": "f972071d21d691d98ba52ed4bea4573a", "fusion_lon": 0.0, "bike_id": "f972071d21d691d98ba52ed4bea4573a", "is_disabled": 0, "is_reserved": 0}, {"rental_uris": {"ios": "https://dc.lft.to/lastmile_qr_scan", "android": "https://dc.lft.to/lastmile_qr_scan"}, "lon": -77.03222683333334, "type": "electric_scooter", "fusion_lat": 0.0, "lat": 38.920113, "name": "b381ad792bf2d9b228cb5cdd6ca7255a", "fusion_lon": 0.0, "bike_id": "b381ad792bf2d9b228cb5cdd6ca7255a", "is_disabled": 0, "is_reserved": 0}, {"rental_uris": {"ios": "https://dc.lft.to/lastmile_qr_scan", "android": "https://dc.lft.to/lastmile_qr_scan"}, "lon": -77.03223733333333, "type": "electric_scooter", "fusion_lat": 0.0, "lat": 38.918588666666665, "name": "51b0d04133a649ad3ba6394665c2c4a7", "fusion_lon": 0.0, "bike_id": "51b0d04133a649ad3ba6394665c2c4a7", "is_disabled": 0, "is_reserved": 0}, {"rental_uris": {"ios": "https://dc.lft.to/lastmile_qr_scan", "android": "https://dc.lft.to/lastmile_qr_scan"}, "lon": -77.0240135, "type": "electric_scooter", "fusion_lat": 0.0, "lat": 38.89935833333333, "name": "acfbd48cc4ceaad1f07a106c7cecaad4", "fusion_lon": 0.0, "bike_id": "acfbd48cc4ceaad1f07a106c7cecaad4", "is_disabled": 0, "is_reserved": 0}, {"rental_uris": {"ios": "https://dc.lft.to/lastmile_qr_scan", "android": "https://dc.lft.to/lastmile_qr_scan"}, "lon": -76.99507, "type": "electric_scooter", "fusion_lat": 0.0, "lat": 38.88494933333333, "name": "8a723b84250570302452ee67e2c48710", "fusion_lon": 0.0, "bike_id": "8a723b84250570302452ee67e2c48710", "is_disabled": 0, "is_reserved": 0}, {"rental_uris": {"ios": "https://dc.lft.to/lastmile_qr_scan", "android": "https://dc.lft.to/lastmile_qr_scan"}, "lon": -77.076863, "type": "electric_bike", "fusion_lat": 0.0, "lat": 38.83187683333333, "name": "22bd52715d52567c10192eb5303b9cd7", "fusion_lon": 0.0, "bike_id": "22bd52715d52567c10192eb5303b9cd7", "is_disabled": 0, "is_reserved": 0}, {"rental_uris": {"ios": "https://dc.lft.to/lastmile_qr_scan", "android": "https://dc.lft.to/lastmile_qr_scan"}, "lon": -77.05001983333334, "type": "electric_scooter", "fusion_lat": 0.0, "lat": 38.898952, "name": "f206b243c3a2169b1ec0cfcc3ecd6285", "fusion_lon": 0.0, "bike_id": "f206b243c3a2169b1ec0cfcc3ecd6285", "is_disabled": 0, "is_reserved": 0}, {"rental_uris": {"ios": "https://dc.lft.to/lastmile_qr_scan", "android": "https://dc.lft.to/lastmile_qr_scan"}, "lon": -77.02423233333333, "type": "electric_scooter", "fusion_lat": 0.0, "lat": 38.90089233333333, "name": "a6b7dc0e671dd80c7f19cc3b4fa4f564", "fusion_lon": 0.0, "bike_id": "a6b7dc0e671dd80c7f19cc3b4fa4f564", "is_disabled": 0, "is_reserved": 0}, {"rental_uris": {"ios": "https://dc.lft.to/lastmile_qr_scan", "android": "https://dc.lft.to/lastmile_qr_scan"}, "lon": -77.11228066666666, "type": "electric_bike", "fusion_lat": 0.0, "lat": 38.828681833333334, "name": "15dd9fb4840831c4d58a6cdd8dce3307", "fusion_lon": 0.0, "bike_id": "15dd9fb4840831c4d58a6cdd8dce3307", "is_disabled": 0, "is_reserved": 0}, {"rental_uris": {"ios": "https://dc.lft.to/lastmile_qr_scan", "android": "https://dc.lft.to/lastmile_qr_scan"}, "lon": -77.0291535, "type": "electric_scooter", "fusion_lat": 0.0, "lat": 38.8984795, "name": "47d57677f443b85216a8c45e9fb3896d", "fusion_lon": 0.0, "bike_id": "47d57677f443b85216a8c45e9fb3896d", "is_disabled": 0, "is_reserved": 0}, {"rental_uris": {"ios": "https://dc.lft.to/lastmile_qr_scan", "android": "https://dc.lft.to/lastmile_qr_scan"}, "lon": -77.04808683333333, "type": "electric_scooter", "fusion_lat": 0.0, "lat": 38.8922225, "name": "cd643ec365de8c9335a2e7f5b4a2bd78", "fusion_lon": 0.0, "bike_id": "cd643ec365de8c9335a2e7f5b4a2bd78", "is_disabled": 0, "is_reserved": 0}, {"rental_uris": {"ios": "https://dc.lft.to/lastmile_qr_scan", "android": "https://dc.lft.to/lastmile_qr_scan"}, "lon": -77.02718866666666, "type": "electric_scooter", "fusion_lat": 0.0, "lat": 38.91815966666667, "name": "1d1b84b83a7259c19fe1783f66c4e770", "fusion_lon": 0.0, "bike_id": "1d1b84b83a7259c19fe1783f66c4e770", "is_disabled": 0, "is_reserved": 0}, {"rental_uris": {"ios": "https://dc.lft.to/lastmile_qr_scan", "android": "https://dc.lft.to/lastmile_qr_scan"}, "lon": -77.043166, "type": "electric_scooter", "fusion_lat": 0.0, "lat": 38.89218783333333, "name": "0d7948c8be7e0920d1094ddb2f7d2948", "fusion_lon": 0.0, "bike_id": "0d7948c8be7e0920d1094ddb2f7d2948", "is_disabled": 0, "is_reserved": 0}, {"rental_uris": {"ios": "https://dc.lft.to/lastmile_qr_scan", "android": "https://dc.lft.to/lastmile_qr_scan"}, "lon": -76.93547166666667, "type": "electric_bike", "fusion_lat": 0.0, "lat": 38.95562483333333, "name": "64884a5c4f0770009ce6361a3834cbac", "fusion_lon": 0.0, "bike_id": "64884a5c4f0770009ce6361a3834cbac", "is_disabled": 0, "is_reserved": 0}, {"rental_uris": {"ios": "https://dc.lft.to/lastmile_qr_scan", "android": "https://dc.lft.to/lastmile_qr_scan"}, "lon": -77.11215583333333, "type": "electric_bike", "fusion_lat": 0.0, "lat": 38.81305116666667, "name": "c963f2336a5978fb4ace194a2045789f", "fusion_lon": 0.0, "bike_id": "c963f2336a5978fb4ace194a2045789f", "is_disabled": 0, "is_reserved": 0}, {"rental_uris": {"ios": "https://dc.lft.to/lastmile_qr_scan", "android": "https://dc.lft.to/lastmile_qr_scan"}, "lon": -77.12262683333333, "type": "electric_bike", "fusion_lat": 0.0, "lat": 38.891924833333334, "name": "2fd2f22e1cdd614adc226076199f7d0a", "fusion_lon": 0.0, "bike_id": "2fd2f22e1cdd614adc226076199f7d0a", "is_disabled": 0, "is_reserved": 0}, {"rental_uris": {"ios": "https://dc.lft.to/lastmile_qr_scan", "android": "https://dc.lft.to/lastmile_qr_scan"}, "lon": -77.04742366666666, "type": "electric_scooter", "fusion_lat": 0.0, "lat": 38.90224883333333, "name": "6d0fddb37bf26bc861777ef8ca24b875", "fusion_lon": 0.0, "bike_id": "6d0fddb37bf26bc861777ef8ca24b875", "is_disabled": 0, "is_reserved": 0}, {"rental_uris": {"ios": "https://dc.lft.to/lastmile_qr_scan", "android": "https://dc.lft.to/lastmile_qr_scan"}, "lon": -77.0326635, "type": "electric_scooter", "fusion_lat": 0.0, "lat": 38.929389666666665, "name": "77b261aa6abb67926db3c9d7a5d709a6", "fusion_lon": 0.0, "bike_id": "77b261aa6abb67926db3c9d7a5d709a6", "is_disabled": 0, "is_reserved": 0}, {"rental_uris": {"ios": "https://dc.lft.to/lastmile_qr_scan", "android": "https://dc.lft.to/lastmile_qr_scan"}, "lon": -77.024114, "type": "electric_scooter", "fusion_lat": 0.0, "lat": 38.9160185, "name": "8e5f95ff665d19dba188a0f770ea98f9", "fusion_lon": 0.0, "bike_id": "8e5f95ff665d19dba188a0f770ea98f9", "is_disabled": 0, "is_reserved": 0}, {"rental_uris": {"ios": "https://dc.lft.to/lastmile_qr_scan", "android": "https://dc.lft.to/lastmile_qr_scan"}, "lon": -76.95756233333333, "type": "electric_scooter", "fusion_lat": 0.0, "lat": 38.88431333333333, "name": "69a5be361e7c37d10a1529ada3b683ea", "fusion_lon": 0.0, "bike_id": "69a5be361e7c37d10a1529ada3b683ea", "is_disabled": 0, "is_reserved": 0}, {"rental_uris": {"ios": "https://dc.lft.to/lastmile_qr_scan", "android": "https://dc.lft.to/lastmile_qr_scan"}, "lon": -77.02873466666667, "type": "electric_scooter", "fusion_lat": 0.0, "lat": 38.93979433333333, "name": "f4217ee88d21566ecea5f3b05ad3168b", "fusion_lon": 0.0, "bike_id": "f4217ee88d21566ecea5f3b05ad3168b", "is_disabled": 0, "is_reserved": 0}, {"rental_uris": {"ios": "https://dc.lft.to/lastmile_qr_scan", "android": "https://dc.lft.to/lastmile_qr_scan"}, "lon": -77.00342283333333, "type": "electric_scooter", "fusion_lat": 0.0, "lat": 38.89263366666667, "name": "b4339606cf65fe91f68fb435b75d0c95", "fusion_lon": 0.0, "bike_id": "b4339606cf65fe91f68fb435b75d0c95", "is_disabled": 0, "is_reserved": 0}, {"rental_uris": {"ios": "https://dc.lft.to/lastmile_qr_scan", "android": "https://dc.lft.to/lastmile_qr_scan"}, "lon": -77.0412475, "type": "electric_scooter", "fusion_lat": 0.0, "lat": 38.93403166666667, "name": "85681618ad9e58e88b5c43eeb33663ee", "fusion_lon": 0.0, "bike_id": "85681618ad9e58e88b5c43eeb33663ee", "is_disabled": 0, "is_reserved": 0}, {"rental_uris": {"ios": "https://dc.lft.to/lastmile_qr_scan", "android": "https://dc.lft.to/lastmile_qr_scan"}, "lon": -77.004996, "type": "electric_scooter", "fusion_lat": 0.0, "lat": 38.878888833333335, "name": "e7a1148920d934ff81ebdbf610bc6e36", "fusion_lon": 0.0, "bike_id": "e7a1148920d934ff81ebdbf610bc6e36", "is_disabled": 0, "is_reserved": 0}, {"rental_uris": {"ios": "https://dc.lft.to/lastmile_qr_scan", "android": "https://dc.lft.to/lastmile_qr_scan"}, "lon": -77.02974216666667, "type": "electric_scooter", "fusion_lat": 0.0, "lat": 38.899345333333336, "name": "c7abbaf287860792b89628f3a83805e0", "fusion_lon": 0.0, "bike_id": "c7abbaf287860792b89628f3a83805e0", "is_disabled": 0, "is_reserved": 0}, {"rental_uris": {"ios": "https://dc.lft.to/lastmile_qr_scan", "android": "https://dc.lft.to/lastmile_qr_scan"}, "lon": -76.94631883333334, "type": "electric_scooter", "fusion_lat": 0.0, "lat": 38.898387166666666, "name": "45f2e372f7aace6ae8d63204d8aa2602", "fusion_lon": 0.0, "bike_id": "45f2e372f7aace6ae8d63204d8aa2602", "is_disabled": 0, "is_reserved": 0}, {"rental_uris": {"ios": "https://dc.lft.to/lastmile_qr_scan", "android": "https://dc.lft.to/lastmile_qr_scan"}, "lon": -77.02114083333333, "type": "electric_scooter", "fusion_lat": 0.0, "lat": 38.91317733333333, "name": "08c186b08fa3015573eff76350135519", "fusion_lon": 0.0, "bike_id": "08c186b08fa3015573eff76350135519", "is_disabled": 0, "is_reserved": 0}, {"rental_uris": {"ios": "https://dc.lft.to/lastmile_qr_scan", "android": "https://dc.lft.to/lastmile_qr_scan"}, "lon": -77.039252, "type": "electric_scooter", "fusion_lat": 0.0, "lat": 38.9035305, "name": "04418dc4348cf0db3f13db92f1274816", "fusion_lon": 0.0, "bike_id": "04418dc4348cf0db3f13db92f1274816", "is_disabled": 0, "is_reserved": 0}, {"rental_uris": {"ios": "https://dc.lft.to/lastmile_qr_scan", "android": "https://dc.lft.to/lastmile_qr_scan"}, "lon": -76.9662815, "type": "electric_bike", "fusion_lat": 0.0, "lat": 38.941979, "name": "de62e2facdc246e549c997acaecedb59", "fusion_lon": 0.0, "bike_id": "de62e2facdc246e549c997acaecedb59", "is_disabled": 0, "is_reserved": 0}, {"rental_uris": {"ios": "https://dc.lft.to/lastmile_qr_scan", "android": "https://dc.lft.to/lastmile_qr_scan"}, "lon": -77.02977, "type": "electric_scooter", "fusion_lat": 0.0, "lat": 38.91679166666667, "name": "8ff67e804db78fa6d3c548e12c42c6cf", "fusion_lon": 0.0, "bike_id": "8ff67e804db78fa6d3c548e12c42c6cf", "is_disabled": 0, "is_reserved": 0}, {"rental_uris": {"ios": "https://dc.lft.to/lastmile_qr_scan", "android": "https://dc.lft.to/lastmile_qr_scan"}, "lon": -77.03283666666667, "type": "electric_scooter", "fusion_lat": 0.0, "lat": 38.938794333333334, "name": "0b4d20e83d11e2fb3e24dd52b0537fed", "fusion_lon": 0.0, "bike_id": "0b4d20e83d11e2fb3e24dd52b0537fed", "is_disabled": 0, "is_reserved": 0}, {"rental_uris": {"ios": "https://dc.lft.to/lastmile_qr_scan", "android": "https://dc.lft.to/lastmile_qr_scan"}, "lon": -77.02298983333333, "type": "electric_scooter", "fusion_lat": 0.0, "lat": 38.9329025, "name": "e37b9fb76ac81380b73575cef5c0b032", "fusion_lon": 0.0, "bike_id": "e37b9fb76ac81380b73575cef5c0b032", "is_disabled": 0, "is_reserved": 0}, {"rental_uris": {"ios": "https://dc.lft.to/lastmile_qr_scan", "android": "https://dc.lft.to/lastmile_qr_scan"}, "lon": -77.02394333333334, "type": "electric_scooter", "fusion_lat": 0.0, "lat": 38.95285966666667, "name": "1b48e69306d0a32b69c61bfdc8dfffa5", "fusion_lon": 0.0, "bike_id": "1b48e69306d0a32b69c61bfdc8dfffa5", "is_disabled": 0, "is_reserved": 0}, {"rental_uris": {"ios": "https://dc.lft.to/lastmile_qr_scan", "android": "https://dc.lft.to/lastmile_qr_scan"}, "lon": -77.00987533333333, "type": "electric_scooter", "fusion_lat": 0.0, "lat": 38.91493416666667, "name": "18146a6b2e8b6936748bad612daf0c8c", "fusion_lon": 0.0, "bike_id": "18146a6b2e8b6936748bad612daf0c8c", "is_disabled": 0, "is_reserved": 0}, {"rental_uris": {"ios": "https://dc.lft.to/lastmile_qr_scan", "android": "https://dc.lft.to/lastmile_qr_scan"}, "lon": -77.01053216666666, "type": "electric_scooter", "fusion_lat": 0.0, "lat": 38.87933833333334, "name": "adf459480ed8176740716aabffaea16e", "fusion_lon": 0.0, "bike_id": "adf459480ed8176740716aabffaea16e", "is_disabled": 0, "is_reserved": 0}, {"rental_uris": {"ios": "https://dc.lft.to/lastmile_qr_scan", "android": "https://dc.lft.to/lastmile_qr_scan"}, "lon": -77.02594383333333, "type": "electric_scooter", "fusion_lat": 0.0, "lat": 38.895960333333335, "name": "9c820eba4b1d9074e1f01b261b43ef62", "fusion_lon": 0.0, "bike_id": "9c820eba4b1d9074e1f01b261b43ef62", "is_disabled": 0, "is_reserved": 0}, {"rental_uris": {"ios": "https://dc.lft.to/lastmile_qr_scan", "android": "https://dc.lft.to/lastmile_qr_scan"}, "lon": -77.03001966666666, "type": "electric_scooter", "fusion_lat": 0.0, "lat": 38.90521483333333, "name": "b0250a0660d8945962ab79dee8b7685d", "fusion_lon": 0.0, "bike_id": "b0250a0660d8945962ab79dee8b7685d", "is_disabled": 0, "is_reserved": 0}, {"rental_uris": {"ios": "https://dc.lft.to/lastmile_qr_scan", "android": "https://dc.lft.to/lastmile_qr_scan"}, "lon": -76.9956885, "type": "electric_scooter", "fusion_lat": 0.0, "lat": 38.928688333333334, "name": "6834e9bc7a01b2a716d9b196def3a0e2", "fusion_lon": 0.0, "bike_id": "6834e9bc7a01b2a716d9b196def3a0e2", "is_disabled": 0, "is_reserved": 0}, {"rental_uris": {"ios": "https://dc.lft.to/lastmile_qr_scan", "android": "https://dc.lft.to/lastmile_qr_scan"}, "lon": -77.01189033333333, "type": "electric_scooter", "fusion_lat": 0.0, "lat": 38.90037266666667, "name": "2c09b4fc963d00a229377d1fb671c51e", "fusion_lon": 0.0, "bike_id": "2c09b4fc963d00a229377d1fb671c51e", "is_disabled": 0, "is_reserved": 0}, {"rental_uris": {"ios": "https://dc.lft.to/lastmile_qr_scan", "android": "https://dc.lft.to/lastmile_qr_scan"}, "lon": -77.023918, "type": "electric_scooter", "fusion_lat": 0.0, "lat": 38.90121516666667, "name": "dfbe7df641d869a3a54935878e098f86", "fusion_lon": 0.0, "bike_id": "dfbe7df641d869a3a54935878e098f86", "is_disabled": 0, "is_reserved": 0}, {"rental_uris": {"ios": "https://dc.lft.to/lastmile_qr_scan", "android": "https://dc.lft.to/lastmile_qr_scan"}, "lon": -76.93875016666667, "type": "electric_scooter", "fusion_lat": 0.0, "lat": 38.9008325, "name": "5e68d27a30b2f077f229588f13dcf20b", "fusion_lon": 0.0, "bike_id": "5e68d27a30b2f077f229588f13dcf20b", "is_disabled": 0, "is_reserved": 0}, {"rental_uris": {"ios": "https://dc.lft.to/lastmile_qr_scan", "android": "https://dc.lft.to/lastmile_qr_scan"}, "lon": -77.02693583333334, "type": "electric_scooter", "fusion_lat": 0.0, "lat": 38.89219583333333, "name": "3d2ecabaf69289aa4c7dd1ff0352e97d", "fusion_lon": 0.0, "bike_id": "3d2ecabaf69289aa4c7dd1ff0352e97d", "is_disabled": 0, "is_reserved": 0}, {"rental_uris": {"ios": "https://dc.lft.to/lastmile_qr_scan", "android": "https://dc.lft.to/lastmile_qr_scan"}, "lon": -76.98655233333334, "type": "electric_scooter", "fusion_lat": 0.0, "lat": 38.858048, "name": "064f6fe809cf20f639fae14581fb2da5", "fusion_lon": 0.0, "bike_id": "064f6fe809cf20f639fae14581fb2da5", "is_disabled": 0, "is_reserved": 0}, {"rental_uris": {"ios": "https://dc.lft.to/lastmile_qr_scan", "android": "https://dc.lft.to/lastmile_qr_scan"}, "lon": -77.02970433333333, "type": "electric_scooter", "fusion_lat": 0.0, "lat": 38.90503233333333, "name": "761cffbdcb523dc4849d68200369ac13", "fusion_lon": 0.0, "bike_id": "761cffbdcb523dc4849d68200369ac13", "is_disabled": 0, "is_reserved": 0}, {"rental_uris": {"ios": "https://dc.lft.to/lastmile_qr_scan", "android": "https://dc.lft.to/lastmile_qr_scan"}, "lon": -76.99670766666667, "type": "electric_scooter", "fusion_lat": 0.0, "lat": 38.91017566666667, "name": "7023213415829f816150c3c6e374fa6d", "fusion_lon": 0.0, "bike_id": "7023213415829f816150c3c6e374fa6d", "is_disabled": 0, "is_reserved": 0}, {"rental_uris": {"ios": "https://dc.lft.to/lastmile_qr_scan", "android": "https://dc.lft.to/lastmile_qr_scan"}, "lon": -77.03794183333333, "type": "electric_scooter", "fusion_lat": 0.0, "lat": 38.9121745, "name": "77d171dc754d0662f0e8e286c19c92f1", "fusion_lon": 0.0, "bike_id": "77d171dc754d0662f0e8e286c19c92f1", "is_disabled": 0, "is_reserved": 0}, {"rental_uris": {"ios": "https://dc.lft.to/lastmile_qr_scan", "android": "https://dc.lft.to/lastmile_qr_scan"}, "lon": -77.019384, "type": "electric_scooter", "fusion_lat": 0.0, "lat": 38.949229333333335, "name": "564e1e5f51464037ee9a3a8ed4a1c2de", "fusion_lon": 0.0, "bike_id": "564e1e5f51464037ee9a3a8ed4a1c2de", "is_disabled": 0, "is_reserved": 0}, {"rental_uris": {"ios": "https://dc.lft.to/lastmile_qr_scan", "android": "https://dc.lft.to/lastmile_qr_scan"}, "lon": -77.06407266666666, "type": "electric_scooter", "fusion_lat": 0.0, "lat": 38.9091945, "name": "84a1f1a4838c3999b4c811b8b002906b", "fusion_lon": 0.0, "bike_id": "84a1f1a4838c3999b4c811b8b002906b", "is_disabled": 0, "is_reserved": 0}, {"rental_uris": {"ios": "https://dc.lft.to/lastmile_qr_scan", "android": "https://dc.lft.to/lastmile_qr_scan"}, "lon": -77.0436225, "type": "electric_scooter", "fusion_lat": 0.0, "lat": 38.89661433333333, "name": "b71977ab3c61310ba487e3f92cc38cee", "fusion_lon": 0.0, "bike_id": "b71977ab3c61310ba487e3f92cc38cee", "is_disabled": 0, "is_reserved": 0}, {"rental_uris": {"ios": "https://dc.lft.to/lastmile_qr_scan", "android": "https://dc.lft.to/lastmile_qr_scan"}, "lon": -77.0121195, "type": "electric_scooter", "fusion_lat": 0.0, "lat": 38.921184833333335, "name": "135faeb606f85da10f1ca93fd26aabeb", "fusion_lon": 0.0, "bike_id": "135faeb606f85da10f1ca93fd26aabeb", "is_disabled": 0, "is_reserved": 0}, {"rental_uris": {"ios": "https://dc.lft.to/lastmile_qr_scan", "android": "https://dc.lft.to/lastmile_qr_scan"}, "lon": -77.03346633333334, "type": "electric_scooter", "fusion_lat": 0.0, "lat": 38.928703, "name": "12953b927417a4c0ee335cba10543357", "fusion_lon": 0.0, "bike_id": "12953b927417a4c0ee335cba10543357", "is_disabled": 0, "is_reserved": 0}, {"rental_uris": {"ios": "https://dc.lft.to/lastmile_qr_scan", "android": "https://dc.lft.to/lastmile_qr_scan"}, "lon": -77.02205666666667, "type": "electric_scooter", "fusion_lat": 0.0, "lat": 38.89259783333333, "name": "26ff331713c9546d6af9fa2a707280fe", "fusion_lon": 0.0, "bike_id": "26ff331713c9546d6af9fa2a707280fe", "is_disabled": 0, "is_reserved": 0}, {"rental_uris": {"ios": "https://dc.lft.to/lastmile_qr_scan", "android": "https://dc.lft.to/lastmile_qr_scan"}, "lon": -77.02764883333333, "type": "electric_scooter", "fusion_lat": 0.0, "lat": 38.89213216666667, "name": "2383befdaa04b600036f7196576f2812", "fusion_lon": 0.0, "bike_id": "2383befdaa04b600036f7196576f2812", "is_disabled": 0, "is_reserved": 0}, {"rental_uris": {"ios": "https://dc.lft.to/lastmile_qr_scan", "android": "https://dc.lft.to/lastmile_qr_scan"}, "lon": -77.04188366666666, "type": "electric_scooter", "fusion_lat": 0.0, "lat": 38.901525, "name": "b068e5773004c411b97961ca194e4d19", "fusion_lon": 0.0, "bike_id": "b068e5773004c411b97961ca194e4d19", "is_disabled": 0, "is_reserved": 0}, {"rental_uris": {"ios": "https://dc.lft.to/lastmile_qr_scan", "android": "https://dc.lft.to/lastmile_qr_scan"}, "lon": -76.9900365, "type": "electric_scooter", "fusion_lat": 0.0, "lat": 38.86500616666667, "name": "f688d07cc53fd31135130e6170de8197", "fusion_lon": 0.0, "bike_id": "f688d07cc53fd31135130e6170de8197", "is_disabled": 0, "is_reserved": 0}, {"rental_uris": {"ios": "https://dc.lft.to/lastmile_qr_scan", "android": "https://dc.lft.to/lastmile_qr_scan"}, "lon": -77.01131366666667, "type": "electric_scooter", "fusion_lat": 0.0, "lat": 38.895526333333336, "name": "7271774f1b0614b4108c1964d3b1cabb", "fusion_lon": 0.0, "bike_id": "7271774f1b0614b4108c1964d3b1cabb", "is_disabled": 0, "is_reserved": 0}, {"rental_uris": {"ios": "https://dc.lft.to/lastmile_qr_scan", "android": "https://dc.lft.to/lastmile_qr_scan"}, "lon": -77.0296105, "type": "electric_scooter", "fusion_lat": 0.0, "lat": 38.932398166666665, "name": "ab6c1b930e4943c101dfff2478d5d1c1", "fusion_lon": 0.0, "bike_id": "ab6c1b930e4943c101dfff2478d5d1c1", "is_disabled": 0, "is_reserved": 0}, {"rental_uris": {"ios": "https://dc.lft.to/lastmile_qr_scan", "android": "https://dc.lft.to/lastmile_qr_scan"}, "lon": -77.1359845, "type": "electric_bike", "fusion_lat": 0.0, "lat": 39.05342566666667, "name": "a2bd76523aec9c3e3a3b3940189a852f", "fusion_lon": 0.0, "bike_id": "a2bd76523aec9c3e3a3b3940189a852f", "is_disabled": 0, "is_reserved": 0}, {"rental_uris": {"ios": "https://dc.lft.to/lastmile_qr_scan", "android": "https://dc.lft.to/lastmile_qr_scan"}, "lon": -77.03557216666667, "type": "electric_scooter", "fusion_lat": 0.0, "lat": 38.92679183333333, "name": "fa4cdac8fa1305c19e4afe26b9c51182", "fusion_lon": 0.0, "bike_id": "fa4cdac8fa1305c19e4afe26b9c51182", "is_disabled": 0, "is_reserved": 0}, {"rental_uris": {"ios": "https://dc.lft.to/lastmile_qr_scan", "android": "https://dc.lft.to/lastmile_qr_scan"}, "lon": -76.98633116666667, "type": "electric_scooter", "fusion_lat": 0.0, "lat": 38.86813866666667, "name": "6ec88a3c9ba2c3f5301439582c76d530", "fusion_lon": 0.0, "bike_id": "6ec88a3c9ba2c3f5301439582c76d530", "is_disabled": 0, "is_reserved": 0}, {"rental_uris": {"ios": "https://dc.lft.to/lastmile_qr_scan", "android": "https://dc.lft.to/lastmile_qr_scan"}, "lon": -77.04308933333333, "type": "electric_scooter", "fusion_lat": 0.0, "lat": 38.922574166666664, "name": "e073b68e4a66ffddde7c42fc1f2b8bc9", "fusion_lon": 0.0, "bike_id": "e073b68e4a66ffddde7c42fc1f2b8bc9", "is_disabled": 0, "is_reserved": 0}, {"rental_uris": {"ios": "https://dc.lft.to/lastmile_qr_scan", "android": "https://dc.lft.to/lastmile_qr_scan"}, "lon": -77.03345366666667, "type": "electric_scooter", "fusion_lat": 0.0, "lat": 38.919102, "name": "d0133c3759a0a648b6ee2e6b025e754d", "fusion_lon": 0.0, "bike_id": "d0133c3759a0a648b6ee2e6b025e754d", "is_disabled": 0, "is_reserved": 0}, {"rental_uris": {"ios": "https://dc.lft.to/lastmile_qr_scan", "android": "https://dc.lft.to/lastmile_qr_scan"}, "lon": -77.05251083333333, "type": "electric_scooter", "fusion_lat": 0.0, "lat": 38.923724666666665, "name": "67a74a966dd29becb07d582979a379fa", "fusion_lon": 0.0, "bike_id": "67a74a966dd29becb07d582979a379fa", "is_disabled": 0, "is_reserved": 0}, {"rental_uris": {"ios": "https://dc.lft.to/lastmile_qr_scan", "android": "https://dc.lft.to/lastmile_qr_scan"}, "lon": -77.01426583333334, "type": "electric_scooter", "fusion_lat": 0.0, "lat": 38.877474, "name": "8b49eafa0dcceee71e54968b87818ebf", "fusion_lon": 0.0, "bike_id": "8b49eafa0dcceee71e54968b87818ebf", "is_disabled": 0, "is_reserved": 0}, {"rental_uris": {"ios": "https://dc.lft.to/lastmile_qr_scan", "android": "https://dc.lft.to/lastmile_qr_scan"}, "lon": -77.012576, "type": "electric_scooter", "fusion_lat": 0.0, "lat": 38.899622, "name": "d0c51591ff4d34258aa851132b9ccbed", "fusion_lon": 0.0, "bike_id": "d0c51591ff4d34258aa851132b9ccbed", "is_disabled": 0, "is_reserved": 0}, {"rental_uris": {"ios": "https://dc.lft.to/lastmile_qr_scan", "android": "https://dc.lft.to/lastmile_qr_scan"}, "lon": -77.02399366666667, "type": "electric_scooter", "fusion_lat": 0.0, "lat": 38.90699433333333, "name": "8feff6b1e88b3718c64c5bd79a25ad36", "fusion_lon": 0.0, "bike_id": "8feff6b1e88b3718c64c5bd79a25ad36", "is_disabled": 0, "is_reserved": 0}, {"rental_uris": {"ios": "https://dc.lft.to/lastmile_qr_scan", "android": "https://dc.lft.to/lastmile_qr_scan"}, "lon": -77.008618, "type": "electric_bike", "fusion_lat": 0.0, "lat": 38.82727283333333, "name": "434b02ff08507faf67cdc73f9a1a4a20", "fusion_lon": 0.0, "bike_id": "434b02ff08507faf67cdc73f9a1a4a20", "is_disabled": 0, "is_reserved": 0}, {"rental_uris": {"ios": "https://dc.lft.to/lastmile_qr_scan", "android": "https://dc.lft.to/lastmile_qr_scan"}, "lon": -77.0471285, "type": "electric_scooter", "fusion_lat": 0.0, "lat": 38.9223565, "name": "402885bcd1149805773cbe51bf80718a", "fusion_lon": 0.0, "bike_id": "402885bcd1149805773cbe51bf80718a", "is_disabled": 0, "is_reserved": 0}, {"rental_uris": {"ios": "https://dc.lft.to/lastmile_qr_scan", "android": "https://dc.lft.to/lastmile_qr_scan"}, "lon": -77.02378633333333, "type": "electric_scooter", "fusion_lat": 0.0, "lat": 38.932269166666664, "name": "d8d58b946d759003872beac0ab4f2b8b", "fusion_lon": 0.0, "bike_id": "d8d58b946d759003872beac0ab4f2b8b", "is_disabled": 0, "is_reserved": 0}, {"rental_uris": {"ios": "https://dc.lft.to/lastmile_qr_scan", "android": "https://dc.lft.to/lastmile_qr_scan"}, "lon": -77.02597483333334, "type": "electric_scooter", "fusion_lat": 0.0, "lat": 38.8924685, "name": "17f8ab4fa2f94dc39c8d4214a26fc8b8", "fusion_lon": 0.0, "bike_id": "17f8ab4fa2f94dc39c8d4214a26fc8b8", "is_disabled": 0, "is_reserved": 0}, {"rental_uris": {"ios": "https://dc.lft.to/lastmile_qr_scan", "android": "https://dc.lft.to/lastmile_qr_scan"}, "lon": -77.03213983333333, "type": "electric_scooter", "fusion_lat": 0.0, "lat": 38.892155833333334, "name": "ace86781dda6f6bd8109868e7c2e2de5", "fusion_lon": 0.0, "bike_id": "ace86781dda6f6bd8109868e7c2e2de5", "is_disabled": 0, "is_reserved": 0}, {"rental_uris": {"ios": "https://dc.lft.to/lastmile_qr_scan", "android": "https://dc.lft.to/lastmile_qr_scan"}, "lon": -77.04777016666667, "type": "electric_scooter", "fusion_lat": 0.0, "lat": 38.905112833333334, "name": "c813ae7f5018d26adf6f0d81604326ba", "fusion_lon": 0.0, "bike_id": "c813ae7f5018d26adf6f0d81604326ba", "is_disabled": 0, "is_reserved": 0}, {"rental_uris": {"ios": "https://dc.lft.to/lastmile_qr_scan", "android": "https://dc.lft.to/lastmile_qr_scan"}, "lon": -77.05003816666667, "type": "electric_scooter", "fusion_lat": 0.0, "lat": 38.90120266666667, "name": "ed9fb16e4b4744ac2e0c3b45361603eb", "fusion_lon": 0.0, "bike_id": "ed9fb16e4b4744ac2e0c3b45361603eb", "is_disabled": 0, "is_reserved": 0}, {"rental_uris": {"ios": "https://dc.lft.to/lastmile_qr_scan", "android": "https://dc.lft.to/lastmile_qr_scan"}, "lon": -77.0676, "type": "electric_scooter", "fusion_lat": 0.0, "lat": 38.90372333333333, "name": "0a29690adc034fc58d1c0c5ace3236d8", "fusion_lon": 0.0, "bike_id": "0a29690adc034fc58d1c0c5ace3236d8", "is_disabled": 0, "is_reserved": 0}, {"rental_uris": {"ios": "https://dc.lft.to/lastmile_qr_scan", "android": "https://dc.lft.to/lastmile_qr_scan"}, "lon": -76.99003233333333, "type": "electric_scooter", "fusion_lat": 0.0, "lat": 38.865030833333336, "name": "eea02ed11e8e9a4d5fcf4880804db1a8", "fusion_lon": 0.0, "bike_id": "eea02ed11e8e9a4d5fcf4880804db1a8", "is_disabled": 0, "is_reserved": 0}, {"rental_uris": {"ios": "https://dc.lft.to/lastmile_qr_scan", "android": "https://dc.lft.to/lastmile_qr_scan"}, "lon": -77.03208233333334, "type": "electric_scooter", "fusion_lat": 0.0, "lat": 38.9257875, "name": "af11f200188e92eb0cca3fce47187a82", "fusion_lon": 0.0, "bike_id": "af11f200188e92eb0cca3fce47187a82", "is_disabled": 0, "is_reserved": 0}, {"rental_uris": {"ios": "https://dc.lft.to/lastmile_qr_scan", "android": "https://dc.lft.to/lastmile_qr_scan"}, "lon": -77.01949083333334, "type": "electric_scooter", "fusion_lat": 0.0, "lat": 38.924161, "name": "452f960f64eef5b7c1c32e5cc758d791", "fusion_lon": 0.0, "bike_id": "452f960f64eef5b7c1c32e5cc758d791", "is_disabled": 0, "is_reserved": 0}, {"rental_uris": {"ios": "https://dc.lft.to/lastmile_qr_scan", "android": "https://dc.lft.to/lastmile_qr_scan"}, "lon": -77.01511783333333, "type": "electric_scooter", "fusion_lat": 0.0, "lat": 38.9014575, "name": "ef5a0ce9d52ddc408cf5988a10e65ca2", "fusion_lon": 0.0, "bike_id": "ef5a0ce9d52ddc408cf5988a10e65ca2", "is_disabled": 0, "is_reserved": 0}, {"rental_uris": {"ios": "https://dc.lft.to/lastmile_qr_scan", "android": "https://dc.lft.to/lastmile_qr_scan"}, "lon": -76.9489465, "type": "electric_scooter", "fusion_lat": 0.0, "lat": 38.8952505, "name": "e592fe791cd915a8293671849f48cfc0", "fusion_lon": 0.0, "bike_id": "e592fe791cd915a8293671849f48cfc0", "is_disabled": 0, "is_reserved": 0}, {"rental_uris": {"ios": "https://dc.lft.to/lastmile_qr_scan", "android": "https://dc.lft.to/lastmile_qr_scan"}, "lon": -77.00982116666667, "type": "electric_scooter", "fusion_lat": 0.0, "lat": 38.89622216666667, "name": "3f06cac8de128616e10e146f4cd63421", "fusion_lon": 0.0, "bike_id": "3f06cac8de128616e10e146f4cd63421", "is_disabled": 0, "is_reserved": 0}, {"rental_uris": {"ios": "https://dc.lft.to/lastmile_qr_scan", "android": "https://dc.lft.to/lastmile_qr_scan"}, "lon": -76.985607, "type": "electric_scooter", "fusion_lat": 0.0, "lat": 38.85587116666667, "name": "26e54ddee7d9036b980072a7666d9770", "fusion_lon": 0.0, "bike_id": "26e54ddee7d9036b980072a7666d9770", "is_disabled": 0, "is_reserved": 0}, {"rental_uris": {"ios": "https://dc.lft.to/lastmile_qr_scan", "android": "https://dc.lft.to/lastmile_qr_scan"}, "lon": -77.07066566666667, "type": "electric_scooter", "fusion_lat": 0.0, "lat": 38.9521715, "name": "c1bc7ffeb180ec39c23651ff6fe01685", "fusion_lon": 0.0, "bike_id": "c1bc7ffeb180ec39c23651ff6fe01685", "is_disabled": 0, "is_reserved": 0}, {"rental_uris": {"ios": "https://dc.lft.to/lastmile_qr_scan", "android": "https://dc.lft.to/lastmile_qr_scan"}, "lon": -77.04191, "type": "electric_scooter", "fusion_lat": 0.0, "lat": 38.90357383333333, "name": "b74e6e4d03f8cf2d3db74a8864c2f347", "fusion_lon": 0.0, "bike_id": "b74e6e4d03f8cf2d3db74a8864c2f347", "is_disabled": 0, "is_reserved": 0}, {"rental_uris": {"ios": "https://dc.lft.to/lastmile_qr_scan", "android": "https://dc.lft.to/lastmile_qr_scan"}, "lon": -77.0449035, "type": "electric_scooter", "fusion_lat": 0.0, "lat": 38.919514, "name": "3eadea2f73fe013c5b151f9a2e2737d1", "fusion_lon": 0.0, "bike_id": "3eadea2f73fe013c5b151f9a2e2737d1", "is_disabled": 0, "is_reserved": 0}, {"rental_uris": {"ios": "https://dc.lft.to/lastmile_qr_scan", "android": "https://dc.lft.to/lastmile_qr_scan"}, "lon": -76.97601266666666, "type": "electric_scooter", "fusion_lat": 0.0, "lat": 38.903310833333336, "name": "9e7512bea6d5c36a68a72964ec6c18ed", "fusion_lon": 0.0, "bike_id": "9e7512bea6d5c36a68a72964ec6c18ed", "is_disabled": 0, "is_reserved": 0}, {"rental_uris": {"ios": "https://dc.lft.to/lastmile_qr_scan", "android": "https://dc.lft.to/lastmile_qr_scan"}, "lon": -76.94630266666667, "type": "electric_bike", "fusion_lat": 0.0, "lat": 38.83228316666667, "name": "8e876427616f33fc8ac79bc5b5dd4f47", "fusion_lon": 0.0, "bike_id": "8e876427616f33fc8ac79bc5b5dd4f47", "is_disabled": 0, "is_reserved": 0}, {"rental_uris": {"ios": "https://dc.lft.to/lastmile_qr_scan", "android": "https://dc.lft.to/lastmile_qr_scan"}, "lon": -77.041503, "type": "electric_scooter", "fusion_lat": 0.0, "lat": 38.917088166666666, "name": "124ce7bed541afc616acc28a6d2beb8b", "fusion_lon": 0.0, "bike_id": "124ce7bed541afc616acc28a6d2beb8b", "is_disabled": 0, "is_reserved": 0}, {"rental_uris": {"ios": "https://dc.lft.to/lastmile_qr_scan", "android": "https://dc.lft.to/lastmile_qr_scan"}, "lon": -77.02412516666666, "type": "electric_scooter", "fusion_lat": 0.0, "lat": 38.91591916666667, "name": "13805a380f02e46da7a6704eeae39c20", "fusion_lon": 0.0, "bike_id": "13805a380f02e46da7a6704eeae39c20", "is_disabled": 0, "is_reserved": 0}, {"rental_uris": {"ios": "https://dc.lft.to/lastmile_qr_scan", "android": "https://dc.lft.to/lastmile_qr_scan"}, "lon": -77.0271235, "type": "electric_scooter", "fusion_lat": 0.0, "lat": 38.881362833333334, "name": "817e0b76afb132910391d127ffc3728c", "fusion_lon": 0.0, "bike_id": "817e0b76afb132910391d127ffc3728c", "is_disabled": 0, "is_reserved": 0}, {"rental_uris": {"ios": "https://dc.lft.to/lastmile_qr_scan", "android": "https://dc.lft.to/lastmile_qr_scan"}, "lon": -77.04366333333333, "type": "electric_scooter", "fusion_lat": 0.0, "lat": 38.933339833333335, "name": "860e77bee51c0665858af290e7e74a8a", "fusion_lon": 0.0, "bike_id": "860e77bee51c0665858af290e7e74a8a", "is_disabled": 0, "is_reserved": 0}, {"rental_uris": {"ios": "https://dc.lft.to/lastmile_qr_scan", "android": "https://dc.lft.to/lastmile_qr_scan"}, "lon": -77.04036616666667, "type": "electric_scooter", "fusion_lat": 0.0, "lat": 38.903588, "name": "3e9f9c349c03134c215a52036c0fa915", "fusion_lon": 0.0, "bike_id": "3e9f9c349c03134c215a52036c0fa915", "is_disabled": 0, "is_reserved": 0}, {"rental_uris": {"ios": "https://dc.lft.to/lastmile_qr_scan", "android": "https://dc.lft.to/lastmile_qr_scan"}, "lon": -77.00326666666666, "type": "electric_scooter", "fusion_lat": 0.0, "lat": 38.90270116666667, "name": "9b31bb67dd4714418d70161161f41fa8", "fusion_lon": 0.0, "bike_id": "9b31bb67dd4714418d70161161f41fa8", "is_disabled": 0, "is_reserved": 0}, {"rental_uris": {"ios": "https://dc.lft.to/lastmile_qr_scan", "android": "https://dc.lft.to/lastmile_qr_scan"}, "lon": -77.0395675, "type": "electric_scooter", "fusion_lat": 0.0, "lat": 38.91356866666667, "name": "33898501f0e342f7efa106cc6efc3d75", "fusion_lon": 0.0, "bike_id": "33898501f0e342f7efa106cc6efc3d75", "is_disabled": 0, "is_reserved": 0}, {"rental_uris": {"ios": "https://dc.lft.to/lastmile_qr_scan", "android": "https://dc.lft.to/lastmile_qr_scan"}, "lon": -77.009393, "type": "electric_scooter", "fusion_lat": 0.0, "lat": 38.8762815, "name": "d310dcf35b9f8b17f32fc89470ccf6ef", "fusion_lon": 0.0, "bike_id": "d310dcf35b9f8b17f32fc89470ccf6ef", "is_disabled": 0, "is_reserved": 0}, {"rental_uris": {"ios": "https://dc.lft.to/lastmile_qr_scan", "android": "https://dc.lft.to/lastmile_qr_scan"}, "lon": -77.02598016666667, "type": "electric_scooter", "fusion_lat": 0.0, "lat": 38.91688966666667, "name": "4d69f2e0356d41aa7db10034a2c38ff6", "fusion_lon": 0.0, "bike_id": "4d69f2e0356d41aa7db10034a2c38ff6", "is_disabled": 0, "is_reserved": 0}, {"rental_uris": {"ios": "https://dc.lft.to/lastmile_qr_scan", "android": "https://dc.lft.to/lastmile_qr_scan"}, "lon": -77.0283615, "type": "electric_scooter", "fusion_lat": 0.0, "lat": 38.91105233333333, "name": "cbe856e74ef7932d0a2a86b4c2720fef", "fusion_lon": 0.0, "bike_id": "cbe856e74ef7932d0a2a86b4c2720fef", "is_disabled": 0, "is_reserved": 0}, {"rental_uris": {"ios": "https://dc.lft.to/lastmile_qr_scan", "android": "https://dc.lft.to/lastmile_qr_scan"}, "lon": -77.0450615, "type": "electric_scooter", "fusion_lat": 0.0, "lat": 38.89221833333333, "name": "8f2839e77f964442fa39f08a519830f4", "fusion_lon": 0.0, "bike_id": "8f2839e77f964442fa39f08a519830f4", "is_disabled": 0, "is_reserved": 0}, {"rental_uris": {"ios": "https://dc.lft.to/lastmile_qr_scan", "android": "https://dc.lft.to/lastmile_qr_scan"}, "lon": -77.12905733333334, "type": "electric_bike", "fusion_lat": 0.0, "lat": 38.86373916666667, "name": "8e97385c7653dc65de56c1b336c445bd", "fusion_lon": 0.0, "bike_id": "8e97385c7653dc65de56c1b336c445bd", "is_disabled": 0, "is_reserved": 0}, {"rental_uris": {"ios": "https://dc.lft.to/lastmile_qr_scan", "android": "https://dc.lft.to/lastmile_qr_scan"}, "lon": -77.02381766666667, "type": "electric_scooter", "fusion_lat": 0.0, "lat": 38.89232033333333, "name": "0dd489b1d18c6df4c092077afd9e98c0", "fusion_lon": 0.0, "bike_id": "0dd489b1d18c6df4c092077afd9e98c0", "is_disabled": 0, "is_reserved": 0}, {"rental_uris": {"ios": "https://dc.lft.to/lastmile_qr_scan", "android": "https://dc.lft.to/lastmile_qr_scan"}, "lon": -77.0529815, "type": "electric_scooter", "fusion_lat": 0.0, "lat": 38.927930333333336, "name": "b05704dbc0da49c4239815c7a96db296", "fusion_lon": 0.0, "bike_id": "b05704dbc0da49c4239815c7a96db296", "is_disabled": 0, "is_reserved": 0}, {"rental_uris": {"ios": "https://dc.lft.to/lastmile_qr_scan", "android": "https://dc.lft.to/lastmile_qr_scan"}, "lon": -77.031355, "type": "electric_scooter", "fusion_lat": 0.0, "lat": 38.91192183333333, "name": "8e7cba1b8cba8de444ac5540803b831b", "fusion_lon": 0.0, "bike_id": "8e7cba1b8cba8de444ac5540803b831b", "is_disabled": 0, "is_reserved": 0}, {"rental_uris": {"ios": "https://dc.lft.to/lastmile_qr_scan", "android": "https://dc.lft.to/lastmile_qr_scan"}, "lon": -77.05333416666667, "type": "electric_scooter", "fusion_lat": 0.0, "lat": 38.9233345, "name": "01a068d3ac8d1db3da0fe01873c088fb", "fusion_lon": 0.0, "bike_id": "01a068d3ac8d1db3da0fe01873c088fb", "is_disabled": 0, "is_reserved": 0}, {"rental_uris": {"ios": "https://dc.lft.to/lastmile_qr_scan", "android": "https://dc.lft.to/lastmile_qr_scan"}, "lon": -77.05005366666667, "type": "electric_scooter", "fusion_lat": 0.0, "lat": 38.892294166666666, "name": "5e04ed883b18f55f54d8cf7ef949bd2e", "fusion_lon": 0.0, "bike_id": "5e04ed883b18f55f54d8cf7ef949bd2e", "is_disabled": 0, "is_reserved": 0}, {"rental_uris": {"ios": "https://dc.lft.to/lastmile_qr_scan", "android": "https://dc.lft.to/lastmile_qr_scan"}, "lon": -77.0380025, "type": "electric_scooter", "fusion_lat": 0.0, "lat": 38.90671966666667, "name": "3a5d60fca82526103218821f8cb5a9bf", "fusion_lon": 0.0, "bike_id": "3a5d60fca82526103218821f8cb5a9bf", "is_disabled": 0, "is_reserved": 0}, {"rental_uris": {"ios": "https://dc.lft.to/lastmile_qr_scan", "android": "https://dc.lft.to/lastmile_qr_scan"}, "lon": -77.02401333333333, "type": "electric_scooter", "fusion_lat": 0.0, "lat": 38.915876, "name": "0561a9b056ad9fc7aaa98fd65cebb352", "fusion_lon": 0.0, "bike_id": "0561a9b056ad9fc7aaa98fd65cebb352", "is_disabled": 0, "is_reserved": 0}, {"rental_uris": {"ios": "https://dc.lft.to/lastmile_qr_scan", "android": "https://dc.lft.to/lastmile_qr_scan"}, "lon": -76.99800533333334, "type": "electric_scooter", "fusion_lat": 0.0, "lat": 38.908477833333336, "name": "6f614d7cfdfd17d8f9ea1b434dfdee8c", "fusion_lon": 0.0, "bike_id": "6f614d7cfdfd17d8f9ea1b434dfdee8c", "is_disabled": 0, "is_reserved": 0}, {"rental_uris": {"ios": "https://dc.lft.to/lastmile_qr_scan", "android": "https://dc.lft.to/lastmile_qr_scan"}, "lon": -77.03205, "type": "electric_scooter", "fusion_lat": 0.0, "lat": 38.912295666666665, "name": "46a2a0fbb534a631c11fff9b43bc471c", "fusion_lon": 0.0, "bike_id": "46a2a0fbb534a631c11fff9b43bc471c", "is_disabled": 0, "is_reserved": 0}, {"rental_uris": {"ios": "https://dc.lft.to/lastmile_qr_scan", "android": "https://dc.lft.to/lastmile_qr_scan"}, "lon": -77.045145, "type": "electric_scooter", "fusion_lat": 0.0, "lat": 38.88604216666667, "name": "53426cb1c59b7e74372f4d73490726cd", "fusion_lon": 0.0, "bike_id": "53426cb1c59b7e74372f4d73490726cd", "is_disabled": 0, "is_reserved": 0}, {"rental_uris": {"ios": "https://dc.lft.to/lastmile_qr_scan", "android": "https://dc.lft.to/lastmile_qr_scan"}, "lon": -77.10091766666666, "type": "electric_bike", "fusion_lat": 0.0, "lat": 38.95957466666667, "name": "f1209280f063d6d7ac053df36efeb581", "fusion_lon": 0.0, "bike_id": "f1209280f063d6d7ac053df36efeb581", "is_disabled": 0, "is_reserved": 0}, {"rental_uris": {"ios": "https://dc.lft.to/lastmile_qr_scan", "android": "https://dc.lft.to/lastmile_qr_scan"}, "lon": -77.02372683333333, "type": "electric_scooter", "fusion_lat": 0.0, "lat": 38.892169, "name": "36a4903bb1882599e695dd646482acda", "fusion_lon": 0.0, "bike_id": "36a4903bb1882599e695dd646482acda", "is_disabled": 0, "is_reserved": 0}, {"rental_uris": {"ios": "https://dc.lft.to/lastmile_qr_scan", "android": "https://dc.lft.to/lastmile_qr_scan"}, "lon": -77.02215616666666, "type": "electric_scooter", "fusion_lat": 0.0, "lat": 38.915419, "name": "1f655eb4f3927ef4c9609a0daa80a641", "fusion_lon": 0.0, "bike_id": "1f655eb4f3927ef4c9609a0daa80a641", "is_disabled": 0, "is_reserved": 0}, {"rental_uris": {"ios": "https://dc.lft.to/lastmile_qr_scan", "android": "https://dc.lft.to/lastmile_qr_scan"}, "lon": -77.01393983333334, "type": "electric_scooter", "fusion_lat": 0.0, "lat": 38.970120666666666, "name": "ac5295d1f44b39c0e0b194d7fb4c5430", "fusion_lon": 0.0, "bike_id": "ac5295d1f44b39c0e0b194d7fb4c5430", "is_disabled": 0, "is_reserved": 0}, {"rental_uris": {"ios": "https://dc.lft.to/lastmile_qr_scan", "android": "https://dc.lft.to/lastmile_qr_scan"}, "lon": -76.99514383333333, "type": "electric_scooter", "fusion_lat": 0.0, "lat": 38.8447065, "name": "031606428fc060d61aea20b37953cd27", "fusion_lon": 0.0, "bike_id": "031606428fc060d61aea20b37953cd27", "is_disabled": 0, "is_reserved": 0}, {"rental_uris": {"ios": "https://dc.lft.to/lastmile_qr_scan", "android": "https://dc.lft.to/lastmile_qr_scan"}, "lon": -77.05003683333334, "type": "electric_scooter", "fusion_lat": 0.0, "lat": 38.892238, "name": "26ef97ad5a8e993bddef43c3948507ef", "fusion_lon": 0.0, "bike_id": "26ef97ad5a8e993bddef43c3948507ef", "is_disabled": 0, "is_reserved": 0}, {"rental_uris": {"ios": "https://dc.lft.to/lastmile_qr_scan", "android": "https://dc.lft.to/lastmile_qr_scan"}, "lon": -76.988426, "type": "electric_bike", "fusion_lat": 0.0, "lat": 38.84269716666667, "name": "0794c32a48649c76d7a387fdc88ae15b", "fusion_lon": 0.0, "bike_id": "0794c32a48649c76d7a387fdc88ae15b", "is_disabled": 0, "is_reserved": 0}, {"rental_uris": {"ios": "https://dc.lft.to/lastmile_qr_scan", "android": "https://dc.lft.to/lastmile_qr_scan"}, "lon": -76.9953835, "type": "electric_scooter", "fusion_lat": 0.0, "lat": 38.9266735, "name": "fc7cfb28299b80ea7a89efb932cdff1e", "fusion_lon": 0.0, "bike_id": "fc7cfb28299b80ea7a89efb932cdff1e", "is_disabled": 0, "is_reserved": 0}, {"rental_uris": {"ios": "https://dc.lft.to/lastmile_qr_scan", "android": "https://dc.lft.to/lastmile_qr_scan"}, "lon": -76.98497483333334, "type": "electric_scooter", "fusion_lat": 0.0, "lat": 38.86045716666667, "name": "ca09289b61a7f77b784248ab669ada67", "fusion_lon": 0.0, "bike_id": "ca09289b61a7f77b784248ab669ada67", "is_disabled": 0, "is_reserved": 0}, {"rental_uris": {"ios": "https://dc.lft.to/lastmile_qr_scan", "android": "https://dc.lft.to/lastmile_qr_scan"}, "lon": -77.0517655, "type": "electric_scooter", "fusion_lat": 0.0, "lat": 38.924172, "name": "5fca23b9680ee46b99959cbf3a13ad66", "fusion_lon": 0.0, "bike_id": "5fca23b9680ee46b99959cbf3a13ad66", "is_disabled": 0, "is_reserved": 0}, {"rental_uris": {"ios": "https://dc.lft.to/lastmile_qr_scan", "android": "https://dc.lft.to/lastmile_qr_scan"}, "lon": -76.975988, "type": "electric_scooter", "fusion_lat": 0.0, "lat": 38.902050833333334, "name": "de5beaeac1d490593fc437208bd0bd10", "fusion_lon": 0.0, "bike_id": "de5beaeac1d490593fc437208bd0bd10", "is_disabled": 0, "is_reserved": 0}, {"rental_uris": {"ios": "https://dc.lft.to/lastmile_qr_scan", "android": "https://dc.lft.to/lastmile_qr_scan"}, "lon": -77.0331895, "type": "electric_scooter", "fusion_lat": 0.0, "lat": 38.897643, "name": "4794f448e62a883329187d5309cd1901", "fusion_lon": 0.0, "bike_id": "4794f448e62a883329187d5309cd1901", "is_disabled": 0, "is_reserved": 0}, {"rental_uris": {"ios": "https://dc.lft.to/lastmile_qr_scan", "android": "https://dc.lft.to/lastmile_qr_scan"}, "lon": -77.05511666666666, "type": "electric_scooter", "fusion_lat": 0.0, "lat": 38.9297675, "name": "65c85dd4a4483ee82926bbaa59d7dba9", "fusion_lon": 0.0, "bike_id": "65c85dd4a4483ee82926bbaa59d7dba9", "is_disabled": 0, "is_reserved": 0}, {"rental_uris": {"ios": "https://dc.lft.to/lastmile_qr_scan", "android": "https://dc.lft.to/lastmile_qr_scan"}, "lon": -76.9949215, "type": "electric_scooter", "fusion_lat": 0.0, "lat": 38.88106366666667, "name": "afa772ce66cf63cc4992a2f9e2325001", "fusion_lon": 0.0, "bike_id": "afa772ce66cf63cc4992a2f9e2325001", "is_disabled": 0, "is_reserved": 0}, {"rental_uris": {"ios": "https://dc.lft.to/lastmile_qr_scan", "android": "https://dc.lft.to/lastmile_qr_scan"}, "lon": -77.05123866666666, "type": "electric_bike", "fusion_lat": 0.0, "lat": 38.99967083333333, "name": "b58e317f5d905b9c89e843af5b137e16", "fusion_lon": 0.0, "bike_id": "b58e317f5d905b9c89e843af5b137e16", "is_disabled": 0, "is_reserved": 0}, {"rental_uris": {"ios": "https://dc.lft.to/lastmile_qr_scan", "android": "https://dc.lft.to/lastmile_qr_scan"}, "lon": -76.9889555, "type": "electric_scooter", "fusion_lat": 0.0, "lat": 38.866523, "name": "0e4fc735ce79f95aaadb03c12d895b52", "fusion_lon": 0.0, "bike_id": "0e4fc735ce79f95aaadb03c12d895b52", "is_disabled": 0, "is_reserved": 0}, {"rental_uris": {"ios": "https://dc.lft.to/lastmile_qr_scan", "android": "https://dc.lft.to/lastmile_qr_scan"}, "lon": -77.03211783333333, "type": "electric_scooter", "fusion_lat": 0.0, "lat": 38.89362783333333, "name": "8d4a93f5038ee6bb6929197e4ffe25ae", "fusion_lon": 0.0, "bike_id": "8d4a93f5038ee6bb6929197e4ffe25ae", "is_disabled": 0, "is_reserved": 0}, {"rental_uris": {"ios": "https://dc.lft.to/lastmile_qr_scan", "android": "https://dc.lft.to/lastmile_qr_scan"}, "lon": -77.02219, "type": "electric_scooter", "fusion_lat": 0.0, "lat": 38.8963635, "name": "0dbdc5e6ae4756df7300e044b34c8538", "fusion_lon": 0.0, "bike_id": "0dbdc5e6ae4756df7300e044b34c8538", "is_disabled": 0, "is_reserved": 0}, {"rental_uris": {"ios": "https://dc.lft.to/lastmile_qr_scan", "android": "https://dc.lft.to/lastmile_qr_scan"}, "lon": -77.0417645, "type": "electric_scooter", "fusion_lat": 0.0, "lat": 38.9098665, "name": "49fb33f88ae81191a1d2e9c5f7f59101", "fusion_lon": 0.0, "bike_id": "49fb33f88ae81191a1d2e9c5f7f59101", "is_disabled": 0, "is_reserved": 0}, {"rental_uris": {"ios": "https://dc.lft.to/lastmile_qr_scan", "android": "https://dc.lft.to/lastmile_qr_scan"}, "lon": -77.01602216666667, "type": "electric_scooter", "fusion_lat": 0.0, "lat": 38.89973083333334, "name": "7471103e616906b3bf3621221fe745fc", "fusion_lon": 0.0, "bike_id": "7471103e616906b3bf3621221fe745fc", "is_disabled": 0, "is_reserved": 0}, {"rental_uris": {"ios": "https://dc.lft.to/lastmile_qr_scan", "android": "https://dc.lft.to/lastmile_qr_scan"}, "lon": -77.03297933333333, "type": "electric_scooter", "fusion_lat": 0.0, "lat": 38.91116383333333, "name": "34dacc6d589df2b150cab9d85b3cbf84", "fusion_lon": 0.0, "bike_id": "34dacc6d589df2b150cab9d85b3cbf84", "is_disabled": 0, "is_reserved": 0}, {"rental_uris": {"ios": "https://dc.lft.to/lastmile_qr_scan", "android": "https://dc.lft.to/lastmile_qr_scan"}, "lon": -77.04353416666666, "type": "electric_scooter", "fusion_lat": 0.0, "lat": 38.9066555, "name": "eab77862f0bafa31104306f44347a162", "fusion_lon": 0.0, "bike_id": "eab77862f0bafa31104306f44347a162", "is_disabled": 0, "is_reserved": 0}, {"rental_uris": {"ios": "https://dc.lft.to/lastmile_qr_scan", "android": "https://dc.lft.to/lastmile_qr_scan"}, "lon": -77.04373333333334, "type": "electric_bike", "fusion_lat": 0.0, "lat": 38.927986, "name": "0e90d9e20cc98921fcdc42e447e5e82e", "fusion_lon": 0.0, "bike_id": "0e90d9e20cc98921fcdc42e447e5e82e", "is_disabled": 0, "is_reserved": 0}, {"rental_uris": {"ios": "https://dc.lft.to/lastmile_qr_scan", "android": "https://dc.lft.to/lastmile_qr_scan"}, "lon": -76.99794383333334, "type": "electric_scooter", "fusion_lat": 0.0, "lat": 38.908487, "name": "7bb3b93eb011172001c980479d4399b6", "fusion_lon": 0.0, "bike_id": "7bb3b93eb011172001c980479d4399b6", "is_disabled": 0, "is_reserved": 0}, {"rental_uris": {"ios": "https://dc.lft.to/lastmile_qr_scan", "android": "https://dc.lft.to/lastmile_qr_scan"}, "lon": -77.0111495, "type": "electric_scooter", "fusion_lat": 0.0, "lat": 38.90362866666667, "name": "16ac703e2857ff67f2e8cae8e8bd8875", "fusion_lon": 0.0, "bike_id": "16ac703e2857ff67f2e8cae8e8bd8875", "is_disabled": 0, "is_reserved": 0}, {"rental_uris": {"ios": "https://dc.lft.to/lastmile_qr_scan", "android": "https://dc.lft.to/lastmile_qr_scan"}, "lon": -76.965259, "type": "electric_scooter", "fusion_lat": 0.0, "lat": 38.8762455, "name": "0c2521e838bfb287b264e2147a685d3b", "fusion_lon": 0.0, "bike_id": "0c2521e838bfb287b264e2147a685d3b", "is_disabled": 0, "is_reserved": 0}, {"rental_uris": {"ios": "https://dc.lft.to/lastmile_qr_scan", "android": "https://dc.lft.to/lastmile_qr_scan"}, "lon": -77.01366983333334, "type": "electric_scooter", "fusion_lat": 0.0, "lat": 38.9284455, "name": "9c98b6d54a6a528885c48dfec9980bb9", "fusion_lon": 0.0, "bike_id": "9c98b6d54a6a528885c48dfec9980bb9", "is_disabled": 0, "is_reserved": 0}, {"rental_uris": {"ios": "https://dc.lft.to/lastmile_qr_scan", "android": "https://dc.lft.to/lastmile_qr_scan"}, "lon": -77.023839, "type": "electric_scooter", "fusion_lat": 0.0, "lat": 38.93222866666667, "name": "ebf97182516316cb250c95f5f8a3484b", "fusion_lon": 0.0, "bike_id": "ebf97182516316cb250c95f5f8a3484b", "is_disabled": 0, "is_reserved": 0}, {"rental_uris": {"ios": "https://dc.lft.to/lastmile_qr_scan", "android": "https://dc.lft.to/lastmile_qr_scan"}, "lon": -77.032017, "type": "electric_scooter", "fusion_lat": 0.0, "lat": 38.9146375, "name": "a8f7819d02e20837dbe7f88369a90715", "fusion_lon": 0.0, "bike_id": "a8f7819d02e20837dbe7f88369a90715", "is_disabled": 0, "is_reserved": 0}, {"rental_uris": {"ios": "https://dc.lft.to/lastmile_qr_scan", "android": "https://dc.lft.to/lastmile_qr_scan"}, "lon": -77.10454616666667, "type": "electric_bike", "fusion_lat": 0.0, "lat": 38.89638216666667, "name": "92221cf51d6ac15fca82e4f6f7c4ccca", "fusion_lon": 0.0, "bike_id": "92221cf51d6ac15fca82e4f6f7c4ccca", "is_disabled": 0, "is_reserved": 0}, {"rental_uris": {"ios": "https://dc.lft.to/lastmile_qr_scan", "android": "https://dc.lft.to/lastmile_qr_scan"}, "lon": -77.0395805, "type": "electric_scooter", "fusion_lat": 0.0, "lat": 38.89249366666667, "name": "0d797e8dc0111c3c31655fffa470e152", "fusion_lon": 0.0, "bike_id": "0d797e8dc0111c3c31655fffa470e152", "is_disabled": 0, "is_reserved": 0}, {"rental_uris": {"ios": "https://dc.lft.to/lastmile_qr_scan", "android": "https://dc.lft.to/lastmile_qr_scan"}, "lon": -77.02009083333333, "type": "electric_scooter", "fusion_lat": 0.0, "lat": 38.913089666666664, "name": "86fb688932c4edeb137b2266e3f97889", "fusion_lon": 0.0, "bike_id": "86fb688932c4edeb137b2266e3f97889", "is_disabled": 0, "is_reserved": 0}, {"rental_uris": {"ios": "https://dc.lft.to/lastmile_qr_scan", "android": "https://dc.lft.to/lastmile_qr_scan"}, "lon": -77.00612916666667, "type": "electric_scooter", "fusion_lat": 0.0, "lat": 38.9024715, "name": "e1048fe7bdea165d91ba0f093615fe75", "fusion_lon": 0.0, "bike_id": "e1048fe7bdea165d91ba0f093615fe75", "is_disabled": 0, "is_reserved": 0}, {"rental_uris": {"ios": "https://dc.lft.to/lastmile_qr_scan", "android": "https://dc.lft.to/lastmile_qr_scan"}, "lon": -77.02710916666666, "type": "electric_scooter", "fusion_lat": 0.0, "lat": 38.94996183333333, "name": "f8c37a1b7c0386ee3b7a6440d9ab6ac2", "fusion_lon": 0.0, "bike_id": "f8c37a1b7c0386ee3b7a6440d9ab6ac2", "is_disabled": 0, "is_reserved": 0}, {"rental_uris": {"ios": "https://dc.lft.to/lastmile_qr_scan", "android": "https://dc.lft.to/lastmile_qr_scan"}, "lon": -76.94634966666666, "type": "electric_scooter", "fusion_lat": 0.0, "lat": 38.898299333333334, "name": "43add2d065b0425ac96c9813f92b7b8c", "fusion_lon": 0.0, "bike_id": "43add2d065b0425ac96c9813f92b7b8c", "is_disabled": 0, "is_reserved": 0}, {"rental_uris": {"ios": "https://dc.lft.to/lastmile_qr_scan", "android": "https://dc.lft.to/lastmile_qr_scan"}, "lon": -77.04542733333334, "type": "electric_scooter", "fusion_lat": 0.0, "lat": 38.934094, "name": "d4202984105d91541eb1a44523bff02c", "fusion_lon": 0.0, "bike_id": "d4202984105d91541eb1a44523bff02c", "is_disabled": 0, "is_reserved": 0}, {"rental_uris": {"ios": "https://dc.lft.to/lastmile_qr_scan", "android": "https://dc.lft.to/lastmile_qr_scan"}, "lon": -77.02749083333333, "type": "electric_scooter", "fusion_lat": 0.0, "lat": 38.90847766666667, "name": "64713bcf05b05cf7c2c811b2e1d51d54", "fusion_lon": 0.0, "bike_id": "64713bcf05b05cf7c2c811b2e1d51d54", "is_disabled": 0, "is_reserved": 0}, {"rental_uris": {"ios": "https://dc.lft.to/lastmile_qr_scan", "android": "https://dc.lft.to/lastmile_qr_scan"}, "lon": -77.039138, "type": "electric_scooter", "fusion_lat": 0.0, "lat": 38.918484, "name": "712a24257c88cdcd291194477a7a6ef1", "fusion_lon": 0.0, "bike_id": "712a24257c88cdcd291194477a7a6ef1", "is_disabled": 0, "is_reserved": 0}, {"rental_uris": {"ios": "https://dc.lft.to/lastmile_qr_scan", "android": "https://dc.lft.to/lastmile_qr_scan"}, "lon": -77.0003495, "type": "electric_scooter", "fusion_lat": 0.0, "lat": 38.908027833333335, "name": "2c70c659bdedfac752aa4618c3a54997", "fusion_lon": 0.0, "bike_id": "2c70c659bdedfac752aa4618c3a54997", "is_disabled": 0, "is_reserved": 0}, {"rental_uris": {"ios": "https://dc.lft.to/lastmile_qr_scan", "android": "https://dc.lft.to/lastmile_qr_scan"}, "lon": -77.034262, "type": "electric_scooter", "fusion_lat": 0.0, "lat": 38.9242245, "name": "f1a6d5e5e097b1384c659446939b6a47", "fusion_lon": 0.0, "bike_id": "f1a6d5e5e097b1384c659446939b6a47", "is_disabled": 0, "is_reserved": 0}, {"rental_uris": {"ios": "https://dc.lft.to/lastmile_qr_scan", "android": "https://dc.lft.to/lastmile_qr_scan"}, "lon": -77.04716483333333, "type": "electric_scooter", "fusion_lat": 0.0, "lat": 38.902167666666664, "name": "8550988297d2ef5024bcb4156a127ecf", "fusion_lon": 0.0, "bike_id": "8550988297d2ef5024bcb4156a127ecf", "is_disabled": 0, "is_reserved": 0}, {"rental_uris": {"ios": "https://dc.lft.to/lastmile_qr_scan", "android": "https://dc.lft.to/lastmile_qr_scan"}, "lon": -76.99518733333333, "type": "electric_scooter", "fusion_lat": 0.0, "lat": 38.862555666666665, "name": "b8834a9dbc1536d059c420e72665d7e7", "fusion_lon": 0.0, "bike_id": "b8834a9dbc1536d059c420e72665d7e7", "is_disabled": 0, "is_reserved": 0}, {"rental_uris": {"ios": "https://dc.lft.to/lastmile_qr_scan", "android": "https://dc.lft.to/lastmile_qr_scan"}, "lon": -76.92881483333333, "type": "electric_scooter", "fusion_lat": 0.0, "lat": 38.884421, "name": "709945dbe7dcc0a0d6d58c187d44817f", "fusion_lon": 0.0, "bike_id": "709945dbe7dcc0a0d6d58c187d44817f", "is_disabled": 0, "is_reserved": 0}, {"rental_uris": {"ios": "https://dc.lft.to/lastmile_qr_scan", "android": "https://dc.lft.to/lastmile_qr_scan"}, "lon": -76.95759233333334, "type": "electric_scooter", "fusion_lat": 0.0, "lat": 38.8842625, "name": "109f974f4f967b606278e0ee432b7e0d", "fusion_lon": 0.0, "bike_id": "109f974f4f967b606278e0ee432b7e0d", "is_disabled": 0, "is_reserved": 0}, {"rental_uris": {"ios": "https://dc.lft.to/lastmile_qr_scan", "android": "https://dc.lft.to/lastmile_qr_scan"}, "lon": -77.04864683333334, "type": "electric_scooter", "fusion_lat": 0.0, "lat": 38.892209333333334, "name": "b753f4428cbd26467aff8e9e7e213cbd", "fusion_lon": 0.0, "bike_id": "b753f4428cbd26467aff8e9e7e213cbd", "is_disabled": 0, "is_reserved": 0}, {"rental_uris": {"ios": "https://dc.lft.to/lastmile_qr_scan", "android": "https://dc.lft.to/lastmile_qr_scan"}, "lon": -76.92848416666666, "type": "electric_scooter", "fusion_lat": 0.0, "lat": 38.88354283333334, "name": "833e16006a64d0d36bdc2eb538188b78", "fusion_lon": 0.0, "bike_id": "833e16006a64d0d36bdc2eb538188b78", "is_disabled": 0, "is_reserved": 0}, {"rental_uris": {"ios": "https://dc.lft.to/lastmile_qr_scan", "android": "https://dc.lft.to/lastmile_qr_scan"}, "lon": -77.03581416666667, "type": "electric_scooter", "fusion_lat": 0.0, "lat": 38.939747, "name": "7551efa9de15d2795850b190091a1da6", "fusion_lon": 0.0, "bike_id": "7551efa9de15d2795850b190091a1da6", "is_disabled": 0, "is_reserved": 0}, {"rental_uris": {"ios": "https://dc.lft.to/lastmile_qr_scan", "android": "https://dc.lft.to/lastmile_qr_scan"}, "lon": -77.08052083333334, "type": "electric_bike", "fusion_lat": 0.0, "lat": 38.8484255, "name": "90be923af22f77b9c212a893657ee7d3", "fusion_lon": 0.0, "bike_id": "90be923af22f77b9c212a893657ee7d3", "is_disabled": 0, "is_reserved": 0}, {"rental_uris": {"ios": "https://dc.lft.to/lastmile_qr_scan", "android": "https://dc.lft.to/lastmile_qr_scan"}, "lon": -76.99460683333334, "type": "electric_scooter", "fusion_lat": 0.0, "lat": 38.85162366666667, "name": "d6dfa00d153673a6cdd2b3c509b959b1", "fusion_lon": 0.0, "bike_id": "d6dfa00d153673a6cdd2b3c509b959b1", "is_disabled": 0, "is_reserved": 0}, {"rental_uris": {"ios": "https://dc.lft.to/lastmile_qr_scan", "android": "https://dc.lft.to/lastmile_qr_scan"}, "lon": -76.94831083333334, "type": "electric_scooter", "fusion_lat": 0.0, "lat": 38.88405933333333, "name": "31ed22f02efaa55917b5ad4767efc396", "fusion_lon": 0.0, "bike_id": "31ed22f02efaa55917b5ad4767efc396", "is_disabled": 0, "is_reserved": 0}, {"rental_uris": {"ios": "https://dc.lft.to/lastmile_qr_scan", "android": "https://dc.lft.to/lastmile_qr_scan"}, "lon": -76.98612383333334, "type": "electric_scooter", "fusion_lat": 0.0, "lat": 38.87832266666667, "name": "201115cd79b9c79fe0e0b4091aab7ec0", "fusion_lon": 0.0, "bike_id": "201115cd79b9c79fe0e0b4091aab7ec0", "is_disabled": 0, "is_reserved": 0}, {"rental_uris": {"ios": "https://dc.lft.to/lastmile_qr_scan", "android": "https://dc.lft.to/lastmile_qr_scan"}, "lon": -77.05998116666666, "type": "electric_scooter", "fusion_lat": 0.0, "lat": 38.905089333333336, "name": "9f471d277e4c533180a634a7c3c3fb6e", "fusion_lon": 0.0, "bike_id": "9f471d277e4c533180a634a7c3c3fb6e", "is_disabled": 0, "is_reserved": 0}, {"rental_uris": {"ios": "https://dc.lft.to/lastmile_qr_scan", "android": "https://dc.lft.to/lastmile_qr_scan"}, "lon": -76.9567885, "type": "electric_bike", "fusion_lat": 0.0, "lat": 38.94729533333334, "name": "d1c2e1b7d5ba8bbd9c4ca09151f79aab", "fusion_lon": 0.0, "bike_id": "d1c2e1b7d5ba8bbd9c4ca09151f79aab", "is_disabled": 0, "is_reserved": 0}, {"rental_uris": {"ios": "https://dc.lft.to/lastmile_qr_scan", "android": "https://dc.lft.to/lastmile_qr_scan"}, "lon": -76.98752833333333, "type": "electric_scooter", "fusion_lat": 0.0, "lat": 38.9101595, "name": "c272f0de4ed58f1360ad227fb3041c97", "fusion_lon": 0.0, "bike_id": "c272f0de4ed58f1360ad227fb3041c97", "is_disabled": 0, "is_reserved": 0}, {"rental_uris": {"ios": "https://dc.lft.to/lastmile_qr_scan", "android": "https://dc.lft.to/lastmile_qr_scan"}, "lon": -77.05545583333334, "type": "electric_scooter", "fusion_lat": 0.0, "lat": 38.92526066666667, "name": "c2ebe7415bd1e1edd9e9959f9c491df8", "fusion_lon": 0.0, "bike_id": "c2ebe7415bd1e1edd9e9959f9c491df8", "is_disabled": 0, "is_reserved": 0}, {"rental_uris": {"ios": "https://dc.lft.to/lastmile_qr_scan", "android": "https://dc.lft.to/lastmile_qr_scan"}, "lon": -76.93966533333334, "type": "electric_scooter", "fusion_lat": 0.0, "lat": 38.899671, "name": "3be1e14daad5698c6ea3272e56b92b2f", "fusion_lon": 0.0, "bike_id": "3be1e14daad5698c6ea3272e56b92b2f", "is_disabled": 0, "is_reserved": 0}, {"rental_uris": {"ios": "https://dc.lft.to/lastmile_qr_scan", "android": "https://dc.lft.to/lastmile_qr_scan"}, "lon": -77.0312455, "type": "electric_scooter", "fusion_lat": 0.0, "lat": 38.91266016666667, "name": "985b79bb87dec811c75306628e8fc75c", "fusion_lon": 0.0, "bike_id": "985b79bb87dec811c75306628e8fc75c", "is_disabled": 0, "is_reserved": 0}, {"rental_uris": {"ios": "https://dc.lft.to/lastmile_qr_scan", "android": "https://dc.lft.to/lastmile_qr_scan"}, "lon": -77.02955333333334, "type": "electric_scooter", "fusion_lat": 0.0, "lat": 38.917217, "name": "420a37becc32efaec432d5194b7dc903", "fusion_lon": 0.0, "bike_id": "420a37becc32efaec432d5194b7dc903", "is_disabled": 0, "is_reserved": 0}, {"rental_uris": {"ios": "https://dc.lft.to/lastmile_qr_scan", "android": "https://dc.lft.to/lastmile_qr_scan"}, "lon": -76.97424166666667, "type": "electric_scooter", "fusion_lat": 0.0, "lat": 38.902298, "name": "3addc0d07b74e0d7d0839ed94c301698", "fusion_lon": 0.0, "bike_id": "3addc0d07b74e0d7d0839ed94c301698", "is_disabled": 0, "is_reserved": 0}, {"rental_uris": {"ios": "https://dc.lft.to/lastmile_qr_scan", "android": "https://dc.lft.to/lastmile_qr_scan"}, "lon": -77.0239615, "type": "electric_scooter", "fusion_lat": 0.0, "lat": 38.89937533333333, "name": "88439081047d8336e748383544db0804", "fusion_lon": 0.0, "bike_id": "88439081047d8336e748383544db0804", "is_disabled": 0, "is_reserved": 0}, {"rental_uris": {"ios": "https://dc.lft.to/lastmile_qr_scan", "android": "https://dc.lft.to/lastmile_qr_scan"}, "lon": -77.02963966666667, "type": "electric_scooter", "fusion_lat": 0.0, "lat": 38.892153666666665, "name": "01eecd119af0d53544dd29ac119e24c3", "fusion_lon": 0.0, "bike_id": "01eecd119af0d53544dd29ac119e24c3", "is_disabled": 0, "is_reserved": 0}, {"rental_uris": {"ios": "https://dc.lft.to/lastmile_qr_scan", "android": "https://dc.lft.to/lastmile_qr_scan"}, "lon": -77.031245, "type": "electric_scooter", "fusion_lat": 0.0, "lat": 38.910269166666666, "name": "177420b900526bc5bdc21c88f8df4768", "fusion_lon": 0.0, "bike_id": "177420b900526bc5bdc21c88f8df4768", "is_disabled": 0, "is_reserved": 0}, {"rental_uris": {"ios": "https://dc.lft.to/lastmile_qr_scan", "android": "https://dc.lft.to/lastmile_qr_scan"}, "lon": -76.98399416666666, "type": "electric_bike", "fusion_lat": 0.0, "lat": 38.9219825, "name": "7e546f7ba24092f903116d875c68850d", "fusion_lon": 0.0, "bike_id": "7e546f7ba24092f903116d875c68850d", "is_disabled": 0, "is_reserved": 0}, {"rental_uris": {"ios": "https://dc.lft.to/lastmile_qr_scan", "android": "https://dc.lft.to/lastmile_qr_scan"}, "lon": -76.9783205, "type": "electric_bike", "fusion_lat": 0.0, "lat": 38.84608933333333, "name": "8d70e68c643f895c00649923cdadf508", "fusion_lon": 0.0, "bike_id": "8d70e68c643f895c00649923cdadf508", "is_disabled": 0, "is_reserved": 0}, {"rental_uris": {"ios": "https://dc.lft.to/lastmile_qr_scan", "android": "https://dc.lft.to/lastmile_qr_scan"}, "lon": -77.12628933333333, "type": "electric_bike", "fusion_lat": 0.0, "lat": 39.0580645, "name": "6d2cbd2398ae434fcb9dde65f59f1d41", "fusion_lon": 0.0, "bike_id": "6d2cbd2398ae434fcb9dde65f59f1d41", "is_disabled": 0, "is_reserved": 0}, {"rental_uris": {"ios": "https://dc.lft.to/lastmile_qr_scan", "android": "https://dc.lft.to/lastmile_qr_scan"}, "lon": -77.03957183333333, "type": "electric_scooter", "fusion_lat": 0.0, "lat": 38.8985795, "name": "ce62c485e3b1e8f20ff9b65f3ada8beb", "fusion_lon": 0.0, "bike_id": "ce62c485e3b1e8f20ff9b65f3ada8beb", "is_disabled": 0, "is_reserved": 0}, {"rental_uris": {"ios": "https://dc.lft.to/lastmile_qr_scan", "android": "https://dc.lft.to/lastmile_qr_scan"}, "lon": -77.02694816666667, "type": "electric_scooter", "fusion_lat": 0.0, "lat": 38.906238, "name": "97c7e9fd13017924da396c7f2723d4a2", "fusion_lon": 0.0, "bike_id": "97c7e9fd13017924da396c7f2723d4a2", "is_disabled": 0, "is_reserved": 0}, {"rental_uris": {"ios": "https://dc.lft.to/lastmile_qr_scan", "android": "https://dc.lft.to/lastmile_qr_scan"}, "lon": -77.0005935, "type": "electric_scooter", "fusion_lat": 0.0, "lat": 38.8745085, "name": "47cce48a7b1fa8f2dacd61c26802b356", "fusion_lon": 0.0, "bike_id": "47cce48a7b1fa8f2dacd61c26802b356", "is_disabled": 0, "is_reserved": 0}, {"rental_uris": {"ios": "https://dc.lft.to/lastmile_qr_scan", "android": "https://dc.lft.to/lastmile_qr_scan"}, "lon": -77.03416766666666, "type": "electric_scooter", "fusion_lat": 0.0, "lat": 38.9353845, "name": "1287c618ded8562560c7e31ccdc9cc5f", "fusion_lon": 0.0, "bike_id": "1287c618ded8562560c7e31ccdc9cc5f", "is_disabled": 0, "is_reserved": 0}, {"rental_uris": {"ios": "https://dc.lft.to/lastmile_qr_scan", "android": "https://dc.lft.to/lastmile_qr_scan"}, "lon": -77.04226683333333, "type": "electric_scooter", "fusion_lat": 0.0, "lat": 38.91409633333333, "name": "6425cabb0704e2a0746122c5b560c15d", "fusion_lon": 0.0, "bike_id": "6425cabb0704e2a0746122c5b560c15d", "is_disabled": 0, "is_reserved": 0}, {"rental_uris": {"ios": "https://dc.lft.to/lastmile_qr_scan", "android": "https://dc.lft.to/lastmile_qr_scan"}, "lon": -77.0618875, "type": "electric_scooter", "fusion_lat": 0.0, "lat": 38.902608, "name": "ea5d357c2f6a9e1a5c291570521fc686", "fusion_lon": 0.0, "bike_id": "ea5d357c2f6a9e1a5c291570521fc686", "is_disabled": 0, "is_reserved": 0}, {"rental_uris": {"ios": "https://dc.lft.to/lastmile_qr_scan", "android": "https://dc.lft.to/lastmile_qr_scan"}, "lon": -77.0134605, "type": "electric_bike", "fusion_lat": 0.0, "lat": 38.999917333333336, "name": "ddc920d26326a919d929b2d1e861d678", "fusion_lon": 0.0, "bike_id": "ddc920d26326a919d929b2d1e861d678", "is_disabled": 0, "is_reserved": 0}, {"rental_uris": {"ios": "https://dc.lft.to/lastmile_qr_scan", "android": "https://dc.lft.to/lastmile_qr_scan"}, "lon": -77.02222983333333, "type": "electric_scooter", "fusion_lat": 0.0, "lat": 38.8919155, "name": "e2057f39bfea9c6113c3cf3e4faa515b", "fusion_lon": 0.0, "bike_id": "e2057f39bfea9c6113c3cf3e4faa515b", "is_disabled": 0, "is_reserved": 0}, {"rental_uris": {"ios": "https://dc.lft.to/lastmile_qr_scan", "android": "https://dc.lft.to/lastmile_qr_scan"}, "lon": -77.01086166666667, "type": "electric_scooter", "fusion_lat": 0.0, "lat": 38.9036165, "name": "ac5b80aeec20a0b155ee168c4f135297", "fusion_lon": 0.0, "bike_id": "ac5b80aeec20a0b155ee168c4f135297", "is_disabled": 0, "is_reserved": 0}, {"rental_uris": {"ios": "https://dc.lft.to/lastmile_qr_scan", "android": "https://dc.lft.to/lastmile_qr_scan"}, "lon": -77.00807716666667, "type": "electric_scooter", "fusion_lat": 0.0, "lat": 38.883316666666666, "name": "a47d8b7864318970a085f7101b38643a", "fusion_lon": 0.0, "bike_id": "a47d8b7864318970a085f7101b38643a", "is_disabled": 0, "is_reserved": 0}, {"rental_uris": {"ios": "https://dc.lft.to/lastmile_qr_scan", "android": "https://dc.lft.to/lastmile_qr_scan"}, "lon": -77.02548166666666, "type": "electric_scooter", "fusion_lat": 0.0, "lat": 38.892216, "name": "23fc727f742145eb1302d37f5cf06772", "fusion_lon": 0.0, "bike_id": "23fc727f742145eb1302d37f5cf06772", "is_disabled": 0, "is_reserved": 0}, {"rental_uris": {"ios": "https://dc.lft.to/lastmile_qr_scan", "android": "https://dc.lft.to/lastmile_qr_scan"}, "lon": -77.025777, "type": "electric_scooter", "fusion_lat": 0.0, "lat": 38.91816433333334, "name": "5cde0e982e41ea4c98e3d9bba7495027", "fusion_lon": 0.0, "bike_id": "5cde0e982e41ea4c98e3d9bba7495027", "is_disabled": 0, "is_reserved": 0}, {"rental_uris": {"ios": "https://dc.lft.to/lastmile_qr_scan", "android": "https://dc.lft.to/lastmile_qr_scan"}, "lon": -77.00050633333333, "type": "electric_scooter", "fusion_lat": 0.0, "lat": 38.888995666666666, "name": "ca15098e8390b480f0a46330f1b16bb8", "fusion_lon": 0.0, "bike_id": "ca15098e8390b480f0a46330f1b16bb8", "is_disabled": 0, "is_reserved": 0}, {"rental_uris": {"ios": "https://dc.lft.to/lastmile_qr_scan", "android": "https://dc.lft.to/lastmile_qr_scan"}, "lon": -77.08847066666667, "type": "electric_bike", "fusion_lat": 0.0, "lat": 38.84071866666667, "name": "703a9c4ee2150188a10d873f56e473dc", "fusion_lon": 0.0, "bike_id": "703a9c4ee2150188a10d873f56e473dc", "is_disabled": 0, "is_reserved": 0}, {"rental_uris": {"ios": "https://dc.lft.to/lastmile_qr_scan", "android": "https://dc.lft.to/lastmile_qr_scan"}, "lon": -76.9497195, "type": "electric_scooter", "fusion_lat": 0.0, "lat": 38.893736, "name": "6e8ba33947e34eaa39e7c8b54ce7b1ce", "fusion_lon": 0.0, "bike_id": "6e8ba33947e34eaa39e7c8b54ce7b1ce", "is_disabled": 0, "is_reserved": 0}, {"rental_uris": {"ios": "https://dc.lft.to/lastmile_qr_scan", "android": "https://dc.lft.to/lastmile_qr_scan"}, "lon": -77.00208666666667, "type": "electric_scooter", "fusion_lat": 0.0, "lat": 38.902255, "name": "4e3ae3cc8aa7cd2373c671696aaad00c", "fusion_lon": 0.0, "bike_id": "4e3ae3cc8aa7cd2373c671696aaad00c", "is_disabled": 0, "is_reserved": 0}, {"rental_uris": {"ios": "https://dc.lft.to/lastmile_qr_scan", "android": "https://dc.lft.to/lastmile_qr_scan"}, "lon": -77.12042316666667, "type": "electric_bike", "fusion_lat": 0.0, "lat": 38.85514116666667, "name": "5678aa6d1511569e0b33210330b1e365", "fusion_lon": 0.0, "bike_id": "5678aa6d1511569e0b33210330b1e365", "is_disabled": 0, "is_reserved": 0}, {"rental_uris": {"ios": "https://dc.lft.to/lastmile_qr_scan", "android": "https://dc.lft.to/lastmile_qr_scan"}, "lon": -76.93178366666666, "type": "electric_scooter", "fusion_lat": 0.0, "lat": 38.898829666666664, "name": "010b4ae0aec694df75ef745a998ac3b3", "fusion_lon": 0.0, "bike_id": "010b4ae0aec694df75ef745a998ac3b3", "is_disabled": 0, "is_reserved": 0}, {"rental_uris": {"ios": "https://dc.lft.to/lastmile_qr_scan", "android": "https://dc.lft.to/lastmile_qr_scan"}, "lon": -77.0264235, "type": "electric_bike", "fusion_lat": 0.0, "lat": 38.936579333333334, "name": "f8fb7127a5c548cfe46d91351f47ca4e", "fusion_lon": 0.0, "bike_id": "f8fb7127a5c548cfe46d91351f47ca4e", "is_disabled": 0, "is_reserved": 0}, {"rental_uris": {"ios": "https://dc.lft.to/lastmile_qr_scan", "android": "https://dc.lft.to/lastmile_qr_scan"}, "lon": -77.0466325, "type": "electric_scooter", "fusion_lat": 0.0, "lat": 38.8933315, "name": "9ee6bea406b468ebab8191ef9e4b1a99", "fusion_lon": 0.0, "bike_id": "9ee6bea406b468ebab8191ef9e4b1a99", "is_disabled": 0, "is_reserved": 0}, {"rental_uris": {"ios": "https://dc.lft.to/lastmile_qr_scan", "android": "https://dc.lft.to/lastmile_qr_scan"}, "lon": -77.05155266666667, "type": "electric_scooter", "fusion_lat": 0.0, "lat": 38.8977155, "name": "fe95bf83f9c89b1a085f7ab6afbb37bb", "fusion_lon": 0.0, "bike_id": "fe95bf83f9c89b1a085f7ab6afbb37bb", "is_disabled": 0, "is_reserved": 0}, {"rental_uris": {"ios": "https://dc.lft.to/lastmile_qr_scan", "android": "https://dc.lft.to/lastmile_qr_scan"}, "lon": -77.0322015, "type": "electric_scooter", "fusion_lat": 0.0, "lat": 38.91817483333333, "name": "c602b84dcac07632c60d7581c2bfb40b", "fusion_lon": 0.0, "bike_id": "c602b84dcac07632c60d7581c2bfb40b", "is_disabled": 0, "is_reserved": 0}, {"rental_uris": {"ios": "https://dc.lft.to/lastmile_qr_scan", "android": "https://dc.lft.to/lastmile_qr_scan"}, "lon": -77.04656366666667, "type": "electric_scooter", "fusion_lat": 0.0, "lat": 38.89334433333333, "name": "eb0c551a782dcea3a54b89e97ccf8583", "fusion_lon": 0.0, "bike_id": "eb0c551a782dcea3a54b89e97ccf8583", "is_disabled": 0, "is_reserved": 0}, {"rental_uris": {"ios": "https://dc.lft.to/lastmile_qr_scan", "android": "https://dc.lft.to/lastmile_qr_scan"}, "lon": -77.04899433333334, "type": "electric_scooter", "fusion_lat": 0.0, "lat": 38.905170166666664, "name": "eff49abeb7b08227ecad99b6db31fd83", "fusion_lon": 0.0, "bike_id": "eff49abeb7b08227ecad99b6db31fd83", "is_disabled": 0, "is_reserved": 0}, {"rental_uris": {"ios": "https://dc.lft.to/lastmile_qr_scan", "android": "https://dc.lft.to/lastmile_qr_scan"}, "lon": -76.94881333333333, "type": "electric_scooter", "fusion_lat": 0.0, "lat": 38.894998666666666, "name": "66ab7d444597d0d41a7d4b6df9ab206c", "fusion_lon": 0.0, "bike_id": "66ab7d444597d0d41a7d4b6df9ab206c", "is_disabled": 0, "is_reserved": 0}, {"rental_uris": {"ios": "https://dc.lft.to/lastmile_qr_scan", "android": "https://dc.lft.to/lastmile_qr_scan"}, "lon": -77.03669183333334, "type": "electric_bike", "fusion_lat": 0.0, "lat": 38.952402166666666, "name": "59938ccbf6237af2c39ccbf113345d92", "fusion_lon": 0.0, "bike_id": "59938ccbf6237af2c39ccbf113345d92", "is_disabled": 0, "is_reserved": 0}, {"rental_uris": {"ios": "https://dc.lft.to/lastmile_qr_scan", "android": "https://dc.lft.to/lastmile_qr_scan"}, "lon": -77.04275733333333, "type": "electric_scooter", "fusion_lat": 0.0, "lat": 38.90253933333334, "name": "5faf0054d0d8655e701f1d51b5349d00", "fusion_lon": 0.0, "bike_id": "5faf0054d0d8655e701f1d51b5349d00", "is_disabled": 0, "is_reserved": 0}, {"rental_uris": {"ios": "https://dc.lft.to/lastmile_qr_scan", "android": "https://dc.lft.to/lastmile_qr_scan"}, "lon": -77.10687183333333, "type": "electric_bike", "fusion_lat": 0.0, "lat": 38.9357505, "name": "087ad756592a187eade9453b3b7762e3", "fusion_lon": 0.0, "bike_id": "087ad756592a187eade9453b3b7762e3", "is_disabled": 0, "is_reserved": 0}, {"rental_uris": {"ios": "https://dc.lft.to/lastmile_qr_scan", "android": "https://dc.lft.to/lastmile_qr_scan"}, "lon": -77.051291, "type": "electric_scooter", "fusion_lat": 0.0, "lat": 38.92353516666667, "name": "b203bfc514035c578787dde61e5dd742", "fusion_lon": 0.0, "bike_id": "b203bfc514035c578787dde61e5dd742", "is_disabled": 0, "is_reserved": 0}, {"rental_uris": {"ios": "https://dc.lft.to/lastmile_qr_scan", "android": "https://dc.lft.to/lastmile_qr_scan"}, "lon": -77.0075455, "type": "electric_scooter", "fusion_lat": 0.0, "lat": 38.89727083333333, "name": "ccbbdfd19c8d2f8083ff267fda082301", "fusion_lon": 0.0, "bike_id": "ccbbdfd19c8d2f8083ff267fda082301", "is_disabled": 0, "is_reserved": 0}, {"rental_uris": {"ios": "https://dc.lft.to/lastmile_qr_scan", "android": "https://dc.lft.to/lastmile_qr_scan"}, "lon": -77.06640783333333, "type": "electric_bike", "fusion_lat": 0.0, "lat": 38.8204555, "name": "e96bb682f5d20d2e1753850de65d1669", "fusion_lon": 0.0, "bike_id": "e96bb682f5d20d2e1753850de65d1669", "is_disabled": 0, "is_reserved": 0}, {"rental_uris": {"ios": "https://dc.lft.to/lastmile_qr_scan", "android": "https://dc.lft.to/lastmile_qr_scan"}, "lon": -77.024971, "type": "electric_scooter", "fusion_lat": 0.0, "lat": 38.897343666666664, "name": "3de3fe2c6ceb1057b4e0f548b1645e03", "fusion_lon": 0.0, "bike_id": "3de3fe2c6ceb1057b4e0f548b1645e03", "is_disabled": 0, "is_reserved": 0}, {"rental_uris": {"ios": "https://dc.lft.to/lastmile_qr_scan", "android": "https://dc.lft.to/lastmile_qr_scan"}, "lon": -77.05470433333333, "type": "electric_scooter", "fusion_lat": 0.0, "lat": 38.92096266666667, "name": "0d576fcef923ef382805ab2033e6c365", "fusion_lon": 0.0, "bike_id": "0d576fcef923ef382805ab2033e6c365", "is_disabled": 0, "is_reserved": 0}, {"rental_uris": {"ios": "https://dc.lft.to/lastmile_qr_scan", "android": "https://dc.lft.to/lastmile_qr_scan"}, "lon": -77.05000633333333, "type": "electric_scooter", "fusion_lat": 0.0, "lat": 38.89226, "name": "c040006d6a8f72bb1cc66f2362b1aa5b", "fusion_lon": 0.0, "bike_id": "c040006d6a8f72bb1cc66f2362b1aa5b", "is_disabled": 0, "is_reserved": 0}, {"rental_uris": {"ios": "https://dc.lft.to/lastmile_qr_scan", "android": "https://dc.lft.to/lastmile_qr_scan"}, "lon": -77.04661833333333, "type": "electric_scooter", "fusion_lat": 0.0, "lat": 38.91907416666667, "name": "b104452399c34382a3928bfdaf08464c", "fusion_lon": 0.0, "bike_id": "b104452399c34382a3928bfdaf08464c", "is_disabled": 0, "is_reserved": 0}, {"rental_uris": {"ios": "https://dc.lft.to/lastmile_qr_scan", "android": "https://dc.lft.to/lastmile_qr_scan"}, "lon": -77.05934183333333, "type": "electric_scooter", "fusion_lat": 0.0, "lat": 38.909561833333335, "name": "7ea2a726fb3da822d0a4a4520596e981", "fusion_lon": 0.0, "bike_id": "7ea2a726fb3da822d0a4a4520596e981", "is_disabled": 0, "is_reserved": 0}, {"rental_uris": {"ios": "https://dc.lft.to/lastmile_qr_scan", "android": "https://dc.lft.to/lastmile_qr_scan"}, "lon": -76.94722733333333, "type": "electric_scooter", "fusion_lat": 0.0, "lat": 38.8973475, "name": "891b665eebbe27169e2c6e3fcf9c831a", "fusion_lon": 0.0, "bike_id": "891b665eebbe27169e2c6e3fcf9c831a", "is_disabled": 0, "is_reserved": 0}, {"rental_uris": {"ios": "https://dc.lft.to/lastmile_qr_scan", "android": "https://dc.lft.to/lastmile_qr_scan"}, "lon": -76.98711366666667, "type": "electric_scooter", "fusion_lat": 0.0, "lat": 38.862579333333336, "name": "ce766d7aa8d45c12de4be8726b352328", "fusion_lon": 0.0, "bike_id": "ce766d7aa8d45c12de4be8726b352328", "is_disabled": 0, "is_reserved": 0}, {"rental_uris": {"ios": "https://dc.lft.to/lastmile_qr_scan", "android": "https://dc.lft.to/lastmile_qr_scan"}, "lon": -76.9418325, "type": "electric_scooter", "fusion_lat": 0.0, "lat": 38.882209333333336, "name": "c3505b66be827e9f57947724929cba61", "fusion_lon": 0.0, "bike_id": "c3505b66be827e9f57947724929cba61", "is_disabled": 0, "is_reserved": 0}, {"rental_uris": {"ios": "https://dc.lft.to/lastmile_qr_scan", "android": "https://dc.lft.to/lastmile_qr_scan"}, "lon": -77.02018033333333, "type": "electric_scooter", "fusion_lat": 0.0, "lat": 38.94977316666667, "name": "18542222c1cde5d3bf933400ebf42d8e", "fusion_lon": 0.0, "bike_id": "18542222c1cde5d3bf933400ebf42d8e", "is_disabled": 0, "is_reserved": 0}, {"rental_uris": {"ios": "https://dc.lft.to/lastmile_qr_scan", "android": "https://dc.lft.to/lastmile_qr_scan"}, "lon": -77.03183066666666, "type": "electric_scooter", "fusion_lat": 0.0, "lat": 38.887032, "name": "843a8531506d2ad2cc1de7b2fcb490c9", "fusion_lon": 0.0, "bike_id": "843a8531506d2ad2cc1de7b2fcb490c9", "is_disabled": 0, "is_reserved": 0}, {"rental_uris": {"ios": "https://dc.lft.to/lastmile_qr_scan", "android": "https://dc.lft.to/lastmile_qr_scan"}, "lon": -77.03086316666666, "type": "electric_scooter", "fusion_lat": 0.0, "lat": 38.91175583333333, "name": "2b188c55cb9efccb0791465f0117bd6d", "fusion_lon": 0.0, "bike_id": "2b188c55cb9efccb0791465f0117bd6d", "is_disabled": 0, "is_reserved": 0}, {"rental_uris": {"ios": "https://dc.lft.to/lastmile_qr_scan", "android": "https://dc.lft.to/lastmile_qr_scan"}, "lon": -77.05754783333333, "type": "electric_scooter", "fusion_lat": 0.0, "lat": 38.93415616666667, "name": "a747cf7d79942ccfa79816e32a01f836", "fusion_lon": 0.0, "bike_id": "a747cf7d79942ccfa79816e32a01f836", "is_disabled": 0, "is_reserved": 0}, {"rental_uris": {"ios": "https://dc.lft.to/lastmile_qr_scan", "android": "https://dc.lft.to/lastmile_qr_scan"}, "lon": -77.04808666666666, "type": "electric_scooter", "fusion_lat": 0.0, "lat": 38.903805, "name": "9a460def3d99c7a11988ed6f98fd337f", "fusion_lon": 0.0, "bike_id": "9a460def3d99c7a11988ed6f98fd337f", "is_disabled": 0, "is_reserved": 0}, {"rental_uris": {"ios": "https://dc.lft.to/lastmile_qr_scan", "android": "https://dc.lft.to/lastmile_qr_scan"}, "lon": -76.99902416666667, "type": "electric_scooter", "fusion_lat": 0.0, "lat": 38.90943033333333, "name": "1607369bb2660d9b48ed67dddb87012b", "fusion_lon": 0.0, "bike_id": "1607369bb2660d9b48ed67dddb87012b", "is_disabled": 0, "is_reserved": 0}, {"rental_uris": {"ios": "https://dc.lft.to/lastmile_qr_scan", "android": "https://dc.lft.to/lastmile_qr_scan"}, "lon": -77.0345905, "type": "electric_scooter", "fusion_lat": 0.0, "lat": 38.908702, "name": "93e82d2043f5563dad44b1fb29def3a7", "fusion_lon": 0.0, "bike_id": "93e82d2043f5563dad44b1fb29def3a7", "is_disabled": 0, "is_reserved": 0}, {"rental_uris": {"ios": "https://dc.lft.to/lastmile_qr_scan", "android": "https://dc.lft.to/lastmile_qr_scan"}, "lon": -77.0319575, "type": "electric_scooter", "fusion_lat": 0.0, "lat": 38.913329833333336, "name": "05d13b42e2c59b65856ebb04bead9f70", "fusion_lon": 0.0, "bike_id": "05d13b42e2c59b65856ebb04bead9f70", "is_disabled": 0, "is_reserved": 0}, {"rental_uris": {"ios": "https://dc.lft.to/lastmile_qr_scan", "android": "https://dc.lft.to/lastmile_qr_scan"}, "lon": -77.01963966666666, "type": "electric_scooter", "fusion_lat": 0.0, "lat": 38.93186733333334, "name": "e99b4839657da0b321993ce7f489b5d5", "fusion_lon": 0.0, "bike_id": "e99b4839657da0b321993ce7f489b5d5", "is_disabled": 0, "is_reserved": 0}, {"rental_uris": {"ios": "https://dc.lft.to/lastmile_qr_scan", "android": "https://dc.lft.to/lastmile_qr_scan"}, "lon": -77.04588883333334, "type": "electric_scooter", "fusion_lat": 0.0, "lat": 38.91718566666667, "name": "0f177151c1087221aa0008e861a98a6e", "fusion_lon": 0.0, "bike_id": "0f177151c1087221aa0008e861a98a6e", "is_disabled": 0, "is_reserved": 0}, {"rental_uris": {"ios": "https://dc.lft.to/lastmile_qr_scan", "android": "https://dc.lft.to/lastmile_qr_scan"}, "lon": -77.02406083333334, "type": "electric_scooter", "fusion_lat": 0.0, "lat": 38.905838333333335, "name": "7b80bf695867f5373044c8836cfc1d4e", "fusion_lon": 0.0, "bike_id": "7b80bf695867f5373044c8836cfc1d4e", "is_disabled": 0, "is_reserved": 0}, {"rental_uris": {"ios": "https://dc.lft.to/lastmile_qr_scan", "android": "https://dc.lft.to/lastmile_qr_scan"}, "lon": -77.11528866666667, "type": "electric_bike", "fusion_lat": 0.0, "lat": 38.8548655, "name": "7fa8699781f04beeef32e1e1d26a975e", "fusion_lon": 0.0, "bike_id": "7fa8699781f04beeef32e1e1d26a975e", "is_disabled": 0, "is_reserved": 0}, {"rental_uris": {"ios": "https://dc.lft.to/lastmile_qr_scan", "android": "https://dc.lft.to/lastmile_qr_scan"}, "lon": -77.06713533333334, "type": "electric_scooter", "fusion_lat": 0.0, "lat": 38.9107045, "name": "d8be61122321d319cb8d2bda4e406b8e", "fusion_lon": 0.0, "bike_id": "d8be61122321d319cb8d2bda4e406b8e", "is_disabled": 0, "is_reserved": 0}, {"rental_uris": {"ios": "https://dc.lft.to/lastmile_qr_scan", "android": "https://dc.lft.to/lastmile_qr_scan"}, "lon": -77.03208116666667, "type": "electric_scooter", "fusion_lat": 0.0, "lat": 38.9185505, "name": "592d84dea9646400fe122cb896008ce2", "fusion_lon": 0.0, "bike_id": "592d84dea9646400fe122cb896008ce2", "is_disabled": 0, "is_reserved": 0}, {"rental_uris": {"ios": "https://dc.lft.to/lastmile_qr_scan", "android": "https://dc.lft.to/lastmile_qr_scan"}, "lon": -77.02364883333334, "type": "electric_scooter", "fusion_lat": 0.0, "lat": 38.903049833333334, "name": "dd09a5572e74e7a948b4317db80fcd9c", "fusion_lon": 0.0, "bike_id": "dd09a5572e74e7a948b4317db80fcd9c", "is_disabled": 0, "is_reserved": 0}, {"rental_uris": {"ios": "https://dc.lft.to/lastmile_qr_scan", "android": "https://dc.lft.to/lastmile_qr_scan"}, "lon": -77.046896, "type": "electric_scooter", "fusion_lat": 0.0, "lat": 38.892146833333335, "name": "a36fa8fd9ab22e5a2f9663476fc0be45", "fusion_lon": 0.0, "bike_id": "a36fa8fd9ab22e5a2f9663476fc0be45", "is_disabled": 0, "is_reserved": 0}, {"rental_uris": {"ios": "https://dc.lft.to/lastmile_qr_scan", "android": "https://dc.lft.to/lastmile_qr_scan"}, "lon": -77.023598, "type": "electric_scooter", "fusion_lat": 0.0, "lat": 38.9009965, "name": "657d73115a24223f1211ef4c5a808a6c", "fusion_lon": 0.0, "bike_id": "657d73115a24223f1211ef4c5a808a6c", "is_disabled": 0, "is_reserved": 0}, {"rental_uris": {"ios": "https://dc.lft.to/lastmile_qr_scan", "android": "https://dc.lft.to/lastmile_qr_scan"}, "lon": -77.037501, "type": "electric_scooter", "fusion_lat": 0.0, "lat": 38.926012666666665, "name": "7eb48afe3f261d379780c2df7b560317", "fusion_lon": 0.0, "bike_id": "7eb48afe3f261d379780c2df7b560317", "is_disabled": 0, "is_reserved": 0}, {"rental_uris": {"ios": "https://dc.lft.to/lastmile_qr_scan", "android": "https://dc.lft.to/lastmile_qr_scan"}, "lon": -77.01159233333334, "type": "electric_scooter", "fusion_lat": 0.0, "lat": 38.956764166666666, "name": "2a67635445394c380b230e33a69def2d", "fusion_lon": 0.0, "bike_id": "2a67635445394c380b230e33a69def2d", "is_disabled": 0, "is_reserved": 0}, {"rental_uris": {"ios": "https://dc.lft.to/lastmile_qr_scan", "android": "https://dc.lft.to/lastmile_qr_scan"}, "lon": -77.05682633333333, "type": "electric_scooter", "fusion_lat": 0.0, "lat": 38.923361666666665, "name": "042757fd4e83cb885fa04f95777ab41b", "fusion_lon": 0.0, "bike_id": "042757fd4e83cb885fa04f95777ab41b", "is_disabled": 0, "is_reserved": 0}, {"rental_uris": {"ios": "https://dc.lft.to/lastmile_qr_scan", "android": "https://dc.lft.to/lastmile_qr_scan"}, "lon": -77.00209483333333, "type": "electric_scooter", "fusion_lat": 0.0, "lat": 38.8224975, "name": "82af2c359485d20bbe0cfbc3c2229696", "fusion_lon": 0.0, "bike_id": "82af2c359485d20bbe0cfbc3c2229696", "is_disabled": 0, "is_reserved": 0}, {"rental_uris": {"ios": "https://dc.lft.to/lastmile_qr_scan", "android": "https://dc.lft.to/lastmile_qr_scan"}, "lon": -77.0483, "type": "electric_scooter", "fusion_lat": 0.0, "lat": 38.92036433333333, "name": "2ffab3b80559ac3941e08e49c49f0c6e", "fusion_lon": 0.0, "bike_id": "2ffab3b80559ac3941e08e49c49f0c6e", "is_disabled": 0, "is_reserved": 0}, {"rental_uris": {"ios": "https://dc.lft.to/lastmile_qr_scan", "android": "https://dc.lft.to/lastmile_qr_scan"}, "lon": -77.03202533333334, "type": "electric_scooter", "fusion_lat": 0.0, "lat": 38.9160865, "name": "1acaf8f5e173a8145e92402e3d65794b", "fusion_lon": 0.0, "bike_id": "1acaf8f5e173a8145e92402e3d65794b", "is_disabled": 0, "is_reserved": 0}, {"rental_uris": {"ios": "https://dc.lft.to/lastmile_qr_scan", "android": "https://dc.lft.to/lastmile_qr_scan"}, "lon": -77.04323066666667, "type": "electric_bike", "fusion_lat": 0.0, "lat": 38.92776116666667, "name": "46bba6ced7727040ec72a15e53c9aaaa", "fusion_lon": 0.0, "bike_id": "46bba6ced7727040ec72a15e53c9aaaa", "is_disabled": 0, "is_reserved": 0}, {"rental_uris": {"ios": "https://dc.lft.to/lastmile_qr_scan", "android": "https://dc.lft.to/lastmile_qr_scan"}, "lon": -77.01189016666666, "type": "electric_scooter", "fusion_lat": 0.0, "lat": 38.915473, "name": "86ecdb56272b9eb6b028a99fdc0a0b2d", "fusion_lon": 0.0, "bike_id": "86ecdb56272b9eb6b028a99fdc0a0b2d", "is_disabled": 0, "is_reserved": 0}, {"rental_uris": {"ios": "https://dc.lft.to/lastmile_qr_scan", "android": "https://dc.lft.to/lastmile_qr_scan"}, "lon": -76.9982195, "type": "electric_bike", "fusion_lat": 0.0, "lat": 38.84431033333333, "name": "ccc50857538cd6fcc710878129b076eb", "fusion_lon": 0.0, "bike_id": "ccc50857538cd6fcc710878129b076eb", "is_disabled": 0, "is_reserved": 0}, {"rental_uris": {"ios": "https://dc.lft.to/lastmile_qr_scan", "android": "https://dc.lft.to/lastmile_qr_scan"}, "lon": -77.00072816666666, "type": "electric_scooter", "fusion_lat": 0.0, "lat": 38.925496333333335, "name": "9a99865f82716865afa6c93eaf180013", "fusion_lon": 0.0, "bike_id": "9a99865f82716865afa6c93eaf180013", "is_disabled": 0, "is_reserved": 0}, {"rental_uris": {"ios": "https://dc.lft.to/lastmile_qr_scan", "android": "https://dc.lft.to/lastmile_qr_scan"}, "lon": -77.0050125, "type": "electric_scooter", "fusion_lat": 0.0, "lat": 38.89680883333333, "name": "75aeed657720a7881bba2bfd4b4fc645", "fusion_lon": 0.0, "bike_id": "75aeed657720a7881bba2bfd4b4fc645", "is_disabled": 0, "is_reserved": 0}, {"rental_uris": {"ios": "https://dc.lft.to/lastmile_qr_scan", "android": "https://dc.lft.to/lastmile_qr_scan"}, "lon": -77.02305516666667, "type": "electric_scooter", "fusion_lat": 0.0, "lat": 38.89482183333333, "name": "02b9c97a7aee11bafc322042ded4ec35", "fusion_lon": 0.0, "bike_id": "02b9c97a7aee11bafc322042ded4ec35", "is_disabled": 0, "is_reserved": 0}, {"rental_uris": {"ios": "https://dc.lft.to/lastmile_qr_scan", "android": "https://dc.lft.to/lastmile_qr_scan"}, "lon": -77.02588333333334, "type": "electric_scooter", "fusion_lat": 0.0, "lat": 38.90498266666667, "name": "749e3bded8ca89ef88e4fba553ce2560", "fusion_lon": 0.0, "bike_id": "749e3bded8ca89ef88e4fba553ce2560", "is_disabled": 0, "is_reserved": 0}, {"rental_uris": {"ios": "https://dc.lft.to/lastmile_qr_scan", "android": "https://dc.lft.to/lastmile_qr_scan"}, "lon": -77.00620916666666, "type": "electric_scooter", "fusion_lat": 0.0, "lat": 38.905303, "name": "9f65fb0fa31d499c1c33cd9a86141f5b", "fusion_lon": 0.0, "bike_id": "9f65fb0fa31d499c1c33cd9a86141f5b", "is_disabled": 0, "is_reserved": 0}, {"rental_uris": {"ios": "https://dc.lft.to/lastmile_qr_scan", "android": "https://dc.lft.to/lastmile_qr_scan"}, "lon": -77.05513666666667, "type": "electric_scooter", "fusion_lat": 0.0, "lat": 38.92834333333333, "name": "ff8d238e011cb8e9445cdfb1f71aa8bd", "fusion_lon": 0.0, "bike_id": "ff8d238e011cb8e9445cdfb1f71aa8bd", "is_disabled": 0, "is_reserved": 0}, {"rental_uris": {"ios": "https://dc.lft.to/lastmile_qr_scan", "android": "https://dc.lft.to/lastmile_qr_scan"}, "lon": -77.05903833333333, "type": "electric_scooter", "fusion_lat": 0.0, "lat": 38.900748166666666, "name": "d67772d20d3fe7cff605a25c21d41d69", "fusion_lon": 0.0, "bike_id": "d67772d20d3fe7cff605a25c21d41d69", "is_disabled": 0, "is_reserved": 0}, {"rental_uris": {"ios": "https://dc.lft.to/lastmile_qr_scan", "android": "https://dc.lft.to/lastmile_qr_scan"}, "lon": -77.0162635, "type": "electric_scooter", "fusion_lat": 0.0, "lat": 38.90656716666667, "name": "2518de38904f8ebc6120b5b58bd91225", "fusion_lon": 0.0, "bike_id": "2518de38904f8ebc6120b5b58bd91225", "is_disabled": 0, "is_reserved": 0}, {"rental_uris": {"ios": "https://dc.lft.to/lastmile_qr_scan", "android": "https://dc.lft.to/lastmile_qr_scan"}, "lon": -77.0440275, "type": "electric_scooter", "fusion_lat": 0.0, "lat": 38.90554, "name": "f1dfb79eb10c84dd92414153d4893e19", "fusion_lon": 0.0, "bike_id": "f1dfb79eb10c84dd92414153d4893e19", "is_disabled": 0, "is_reserved": 0}, {"rental_uris": {"ios": "https://dc.lft.to/lastmile_qr_scan", "android": "https://dc.lft.to/lastmile_qr_scan"}, "lon": -77.03264366666667, "type": "electric_scooter", "fusion_lat": 0.0, "lat": 38.93445416666667, "name": "2d92f7bf0494803a9870db96a30cb3fd", "fusion_lon": 0.0, "bike_id": "2d92f7bf0494803a9870db96a30cb3fd", "is_disabled": 0, "is_reserved": 0}, {"rental_uris": {"ios": "https://dc.lft.to/lastmile_qr_scan", "android": "https://dc.lft.to/lastmile_qr_scan"}, "lon": -77.02849183333333, "type": "electric_scooter", "fusion_lat": 0.0, "lat": 38.9307345, "name": "b693d41c1083f9d55e1180c547528511", "fusion_lon": 0.0, "bike_id": "b693d41c1083f9d55e1180c547528511", "is_disabled": 0, "is_reserved": 0}, {"rental_uris": {"ios": "https://dc.lft.to/lastmile_qr_scan", "android": "https://dc.lft.to/lastmile_qr_scan"}, "lon": -77.05711833333334, "type": "electric_scooter", "fusion_lat": 0.0, "lat": 38.90529816666667, "name": "c032ae9d1a72e55461fed9a89d34274d", "fusion_lon": 0.0, "bike_id": "c032ae9d1a72e55461fed9a89d34274d", "is_disabled": 0, "is_reserved": 0}, {"rental_uris": {"ios": "https://dc.lft.to/lastmile_qr_scan", "android": "https://dc.lft.to/lastmile_qr_scan"}, "lon": -77.04295466666666, "type": "electric_scooter", "fusion_lat": 0.0, "lat": 38.92300616666667, "name": "e715cab36a09fe1cfa439b03746289a7", "fusion_lon": 0.0, "bike_id": "e715cab36a09fe1cfa439b03746289a7", "is_disabled": 0, "is_reserved": 0}, {"rental_uris": {"ios": "https://dc.lft.to/lastmile_qr_scan", "android": "https://dc.lft.to/lastmile_qr_scan"}, "lon": -77.032637, "type": "electric_scooter", "fusion_lat": 0.0, "lat": 38.92924566666667, "name": "df628148f99c5e8b1c60176f91506bb5", "fusion_lon": 0.0, "bike_id": "df628148f99c5e8b1c60176f91506bb5", "is_disabled": 0, "is_reserved": 0}, {"rental_uris": {"ios": "https://dc.lft.to/lastmile_qr_scan", "android": "https://dc.lft.to/lastmile_qr_scan"}, "lon": -77.00594633333333, "type": "electric_scooter", "fusion_lat": 0.0, "lat": 38.915623833333335, "name": "2a1d87694bb5d90f2d3a844e0ee34154", "fusion_lon": 0.0, "bike_id": "2a1d87694bb5d90f2d3a844e0ee34154", "is_disabled": 0, "is_reserved": 0}, {"rental_uris": {"ios": "https://dc.lft.to/lastmile_qr_scan", "android": "https://dc.lft.to/lastmile_qr_scan"}, "lon": -77.04984983333334, "type": "electric_scooter", "fusion_lat": 0.0, "lat": 38.907962, "name": "ff503a4add39bf35caee901d56b1cdf9", "fusion_lon": 0.0, "bike_id": "ff503a4add39bf35caee901d56b1cdf9", "is_disabled": 0, "is_reserved": 0}, {"rental_uris": {"ios": "https://dc.lft.to/lastmile_qr_scan", "android": "https://dc.lft.to/lastmile_qr_scan"}, "lon": -77.125084, "type": "electric_bike", "fusion_lat": 0.0, "lat": 39.024126333333335, "name": "b4d75c29749609e38ac6e9e9d8c3a7a4", "fusion_lon": 0.0, "bike_id": "b4d75c29749609e38ac6e9e9d8c3a7a4", "is_disabled": 0, "is_reserved": 0}, {"rental_uris": {"ios": "https://dc.lft.to/lastmile_qr_scan", "android": "https://dc.lft.to/lastmile_qr_scan"}, "lon": -77.02354783333334, "type": "electric_scooter", "fusion_lat": 0.0, "lat": 38.96207316666667, "name": "ceb5d392b07a14bceef84aa7a90f8150", "fusion_lon": 0.0, "bike_id": "ceb5d392b07a14bceef84aa7a90f8150", "is_disabled": 0, "is_reserved": 0}, {"rental_uris": {"ios": "https://dc.lft.to/lastmile_qr_scan", "android": "https://dc.lft.to/lastmile_qr_scan"}, "lon": -77.04242566666667, "type": "electric_scooter", "fusion_lat": 0.0, "lat": 38.90747566666667, "name": "4d3d9b06e03d6f312874f4a4c9f7baad", "fusion_lon": 0.0, "bike_id": "4d3d9b06e03d6f312874f4a4c9f7baad", "is_disabled": 0, "is_reserved": 0}, {"rental_uris": {"ios": "https://dc.lft.to/lastmile_qr_scan", "android": "https://dc.lft.to/lastmile_qr_scan"}, "lon": -77.03468, "type": "electric_scooter", "fusion_lat": 0.0, "lat": 38.9170375, "name": "02279a4eb09a733160ab510b30781aff", "fusion_lon": 0.0, "bike_id": "02279a4eb09a733160ab510b30781aff", "is_disabled": 0, "is_reserved": 0}, {"rental_uris": {"ios": "https://dc.lft.to/lastmile_qr_scan", "android": "https://dc.lft.to/lastmile_qr_scan"}, "lon": -77.02708583333333, "type": "electric_scooter", "fusion_lat": 0.0, "lat": 38.949943, "name": "7f5d4bff015ecdf030cfd16009b0cef5", "fusion_lon": 0.0, "bike_id": "7f5d4bff015ecdf030cfd16009b0cef5", "is_disabled": 0, "is_reserved": 0}, {"rental_uris": {"ios": "https://dc.lft.to/lastmile_qr_scan", "android": "https://dc.lft.to/lastmile_qr_scan"}, "lon": -77.05148366666667, "type": "electric_scooter", "fusion_lat": 0.0, "lat": 38.92369883333333, "name": "aac1f722e876babd831f8502a4a51f48", "fusion_lon": 0.0, "bike_id": "aac1f722e876babd831f8502a4a51f48", "is_disabled": 0, "is_reserved": 0}, {"rental_uris": {"ios": "https://dc.lft.to/lastmile_qr_scan", "android": "https://dc.lft.to/lastmile_qr_scan"}, "lon": -77.03570916666666, "type": "electric_scooter", "fusion_lat": 0.0, "lat": 38.907561666666666, "name": "a214cee92012c500c95db679ce19de5e", "fusion_lon": 0.0, "bike_id": "a214cee92012c500c95db679ce19de5e", "is_disabled": 0, "is_reserved": 0}, {"rental_uris": {"ios": "https://dc.lft.to/lastmile_qr_scan", "android": "https://dc.lft.to/lastmile_qr_scan"}, "lon": -77.042756, "type": "electric_scooter", "fusion_lat": 0.0, "lat": 38.917761166666665, "name": "dcf4cf37a7bcb7c9f8f26c7ef6a9a25f", "fusion_lon": 0.0, "bike_id": "dcf4cf37a7bcb7c9f8f26c7ef6a9a25f", "is_disabled": 0, "is_reserved": 0}, {"rental_uris": {"ios": "https://dc.lft.to/lastmile_qr_scan", "android": "https://dc.lft.to/lastmile_qr_scan"},