{"data": {"bikes": [{"rental_uris": {"android": "https://dc.lft.to/lastmile_qr_scan", "ios": "https://dc.lft.to/lastmile_qr_scan"}, "lon": -77.04248583333333, "name": "5894e0f46ed59efb985d919ea64e8474", "lat": 38.92430783333333, "is_reserved": 0, "fusion_lat": 0.0, "bike_id": "5894e0f46ed59efb985d919ea64e8474", "type": "electric_scooter", "is_disabled": 0, "fusion_lon": 0.0}, {"rental_uris": {"android": "https://dc.lft.to/lastmile_qr_scan", "ios": "https://dc.lft.to/lastmile_qr_scan"}, "lon": -77.00065316666667, "name": "8dba6a6258cfc68c4ada63a94c99f6a6", "lat": 38.874545499999996, "is_reserved": 0, "fusion_lat": 0.0, "bike_id": "8dba6a6258cfc68c4ada63a94c99f6a6", "type": "electric_scooter", "is_disabled": 0, "fusion_lon": 0.0}, {"rental_uris": {"android": "https://dc.lft.to/lastmile_qr_scan", "ios": "https://dc.lft.to/lastmile_qr_scan"}, "lon": -77.03123466666666, "name": "7d934d2e64742d1f3c978482d9a64d57", "lat": 38.90529433333333, "is_reserved": 0, "fusion_lat": 0.0, "bike_id": "7d934d2e64742d1f3c978482d9a64d57", "type": "electric_scooter", "is_disabled": 0, "fusion_lon": 0.0}, {"rental_uris": {"android": "https://dc.lft.to/lastmile_qr_scan", "ios": "https://dc.lft.to/lastmile_qr_scan"}, "lon": -76.99733466666666, "name": "bf4c25f17608e64c56e32ada7e546ae0", "lat": 39.04235833333333, "is_reserved": 0, "fusion_lat": 0.0, "bike_id": "bf4c25f17608e64c56e32ada7e546ae0", "type": "electric_bike", "is_disabled": 0, "fusion_lon": 0.0}, {"rental_uris": {"android": "https://dc.lft.to/lastmile_qr_scan", "ios": "https://dc.lft.to/lastmile_qr_scan"}, "lon": -77.01348566666667, "name": "4d13cea056316f4817489bd65c442608", "lat": 38.9194685, "is_reserved": 0, "fusion_lat": 0.0, "bike_id": "4d13cea056316f4817489bd65c442608", "type": "electric_scooter", "is_disabled": 0, "fusion_lon": 0.0}, {"rental_uris": {"android": "https://dc.lft.to/lastmile_qr_scan", "ios": "https://dc.lft.to/lastmile_qr_scan"}, "lon": -76.98429083333333, "name": "eb513dd4deba326a7bd2ab6ae32c3d74", "lat": 38.905794666666665, "is_reserved": 0, "fusion_lat": 0.0, "bike_id": "eb513dd4deba326a7bd2ab6ae32c3d74", "type": "electric_scooter", "is_disabled": 0, "fusion_lon": 0.0}, {"rental_uris": {"android": "https://dc.lft.to/lastmile_qr_scan", "ios": "https://dc.lft.to/lastmile_qr_scan"}, "lon": -77.038027, "name": "ea38f70e5a4ff8c7a61ade38a814cea0", "lat": 38.92501633333333, "is_reserved": 0, "fusion_lat": 0.0, "bike_id": "ea38f70e5a4ff8c7a61ade38a814cea0", "type": "electric_scooter", "is_disabled": 0, "fusion_lon": 0.0}, {"rental_uris": {"android": "https://dc.lft.to/lastmile_qr_scan", "ios": "https://dc.lft.to/lastmile_qr_scan"}, "lon": -77.05669716666667, "name": "6c71ac56b224af8207c3c792cee7c59d", "lat": 38.90489616666667, "is_reserved": 0, "fusion_lat": 0.0, "bike_id": "6c71ac56b224af8207c3c792cee7c59d", "type": "electric_scooter", "is_disabled": 0, "fusion_lon": 0.0}, {"rental_uris": {"android": "https://dc.lft.to/lastmile_qr_scan", "ios": "https://dc.lft.to/lastmile_qr_scan"}, "lon": -77.01756866666666, "name": "1e5ee75e8f0f927bff459ba54747fb9f", "lat": 38.902665, "is_reserved": 0, "fusion_lat": 0.0, "bike_id": "1e5ee75e8f0f927bff459ba54747fb9f", "type": "electric_scooter", "is_disabled": 0, "fusion_lon": 0.0}, {"rental_uris": {"android": "https://dc.lft.to/lastmile_qr_scan", "ios": "https://dc.lft.to/lastmile_qr_scan"}, "lon": -77.00600466666667, "name": "0126d4b54561d67d615556db595b398c", "lat": 38.877898, "is_reserved": 0, "fusion_lat": 0.0, "bike_id": "0126d4b54561d67d615556db595b398c", "type": "electric_scooter", "is_disabled": 0, "fusion_lon": 0.0}, {"rental_uris": {"android": "https://dc.lft.to/lastmile_qr_scan", "ios": "https://dc.lft.to/lastmile_qr_scan"}, "lon": -77.0018565, "name": "3b97eeb0f7e7ac30c6d96aa0df93bed4", "lat": 38.87385033333333, "is_reserved": 0, "fusion_lat": 0.0, "bike_id": "3b97eeb0f7e7ac30c6d96aa0df93bed4", "type": "electric_scooter", "is_disabled": 0, "fusion_lon": 0.0}, {"rental_uris": {"android": "https://dc.lft.to/lastmile_qr_scan", "ios": "https://dc.lft.to/lastmile_qr_scan"}, "lon": -76.97348066666666, "name": "88efb4aa16efbf6e1535948e949f4f3f", "lat": 38.8651665, "is_reserved": 0, "fusion_lat": 0.0, "bike_id": "88efb4aa16efbf6e1535948e949f4f3f", "type": "electric_scooter", "is_disabled": 0, "fusion_lon": 0.0}, {"rental_uris": {"android": "https://dc.lft.to/lastmile_qr_scan", "ios": "https://dc.lft.to/lastmile_qr_scan"}, "lon": -77.0281835, "name": "d9bd8d2ed8d00d8f883ad250e95ba5d8", "lat": 38.909432333333335, "is_reserved": 0, "fusion_lat": 0.0, "bike_id": "d9bd8d2ed8d00d8f883ad250e95ba5d8", "type": "electric_scooter", "is_disabled": 0, "fusion_lon": 0.0}, {"rental_uris": {"android": "https://dc.lft.to/lastmile_qr_scan", "ios": "https://dc.lft.to/lastmile_qr_scan"}, "lon": -76.96553616666667, "name": "0bc11795e9dbd8923543e4e8ff4f9b00", "lat": 38.918453166666666, "is_reserved": 0, "fusion_lat": 0.0, "bike_id": "0bc11795e9dbd8923543e4e8ff4f9b00", "type": "electric_scooter", "is_disabled": 0, "fusion_lon": 0.0}, {"rental_uris": {"android": "https://dc.lft.to/lastmile_qr_scan", "ios": "https://dc.lft.to/lastmile_qr_scan"}, "lon": -77.00216933333333, "name": "d27a015e1aa05fa99ded5baf01710e64", "lat": 38.912019666666666, "is_reserved": 0, "fusion_lat": 0.0, "bike_id": "d27a015e1aa05fa99ded5baf01710e64", "type": "electric_scooter", "is_disabled": 0, "fusion_lon": 0.0}, {"rental_uris": {"android": "https://dc.lft.to/lastmile_qr_scan", "ios": "https://dc.lft.to/lastmile_qr_scan"}, "lon": -77.01181166666667, "name": "51222ce8a0581cd218f6fda73c9b0afe", "lat": 38.90036633333333, "is_reserved": 0, "fusion_lat": 0.0, "bike_id": "51222ce8a0581cd218f6fda73c9b0afe", "type": "electric_scooter", "is_disabled": 0, "fusion_lon": 0.0}, {"rental_uris": {"android": "https://dc.lft.to/lastmile_qr_scan", "ios": "https://dc.lft.to/lastmile_qr_scan"}, "lon": -77.03173483333333, "name": "9ab00840f566a4c3496b21fa895ae3f4", "lat": 38.91973183333333, "is_reserved": 0, "fusion_lat": 0.0, "bike_id": "9ab00840f566a4c3496b21fa895ae3f4", "type": "electric_scooter", "is_disabled": 0, "fusion_lon": 0.0}, {"rental_uris": {"android": "https://dc.lft.to/lastmile_qr_scan", "ios": "https://dc.lft.to/lastmile_qr_scan"}, "lon": -76.998984, "name": "e8b132e954b7e704591eb024228fee57", "lat": 38.924582666666666, "is_reserved": 0, "fusion_lat": 0.0, "bike_id": "e8b132e954b7e704591eb024228fee57", "type": "electric_scooter", "is_disabled": 0, "fusion_lon": 0.0}, {"rental_uris": {"android": "https://dc.lft.to/lastmile_qr_scan", "ios": "https://dc.lft.to/lastmile_qr_scan"}, "lon": -77.03945333333333, "name": "9161532abc7a030db6f6be37caa559c7", "lat": 38.924640833333335, "is_reserved": 0, "fusion_lat": 0.0, "bike_id": "9161532abc7a030db6f6be37caa559c7", "type": "electric_scooter", "is_disabled": 0, "fusion_lon": 0.0}, {"rental_uris": {"android": "https://dc.lft.to/lastmile_qr_scan", "ios": "https://dc.lft.to/lastmile_qr_scan"}, "lon": -77.02690133333333, "name": "e66771b60eb020a40cf9a53e779c1a37", "lat": 38.89715533333333, "is_reserved": 0, "fusion_lat": 0.0, "bike_id": "e66771b60eb020a40cf9a53e779c1a37", "type": "electric_scooter", "is_disabled": 0, "fusion_lon": 0.0}, {"rental_uris": {"android": "https://dc.lft.to/lastmile_qr_scan", "ios": "https://dc.lft.to/lastmile_qr_scan"}, "lon": -77.03613666666666, "name": "93adb544b86b4a4dc27c76c29012c5e6", "lat": 38.93745966666667, "is_reserved": 0, "fusion_lat": 0.0, "bike_id": "93adb544b86b4a4dc27c76c29012c5e6", "type": "electric_scooter", "is_disabled": 0, "fusion_lon": 0.0}, {"rental_uris": {"android": "https://dc.lft.to/lastmile_qr_scan", "ios": "https://dc.lft.to/lastmile_qr_scan"}, "lon": -77.03209233333334, "name": "ed181c9857c46731d9c9a35fab15d7be", "lat": 38.927932166666665, "is_reserved": 0, "fusion_lat": 0.0, "bike_id": "ed181c9857c46731d9c9a35fab15d7be", "type": "electric_scooter", "is_disabled": 0, "fusion_lon": 0.0}, {"rental_uris": {"android": "https://dc.lft.to/lastmile_qr_scan", "ios": "https://dc.lft.to/lastmile_qr_scan"}, "lon": -76.98904333333333, "name": "7d1ff1d3a7b3d2337dfe33c238e5cfa8", "lat": 38.90034333333333, "is_reserved": 0, "fusion_lat": 0.0, "bike_id": "7d1ff1d3a7b3d2337dfe33c238e5cfa8", "type": "electric_scooter", "is_disabled": 0, "fusion_lon": 0.0}, {"rental_uris": {"android": "https://dc.lft.to/lastmile_qr_scan", "ios": "https://dc.lft.to/lastmile_qr_scan"}, "lon": -77.0269355, "name": "0b7d170e58233509556670399109dd5f", "lat": 38.9068705, "is_reserved": 0, "fusion_lat": 0.0, "bike_id": "0b7d170e58233509556670399109dd5f", "type": "electric_scooter", "is_disabled": 0, "fusion_lon": 0.0}, {"rental_uris": {"android": "https://dc.lft.to/lastmile_qr_scan", "ios": "https://dc.lft.to/lastmile_qr_scan"}, "lon": -77.01183733333333, "name": "6dd1bbf1261fe33d6c91023ee8916cd9", "lat": 38.90032516666667, "is_reserved": 0, "fusion_lat": 0.0, "bike_id": "6dd1bbf1261fe33d6c91023ee8916cd9", "type": "electric_scooter", "is_disabled": 0, "fusion_lon": 0.0}, {"rental_uris": {"android": "https://dc.lft.to/lastmile_qr_scan", "ios": "https://dc.lft.to/lastmile_qr_scan"}, "lon": -77.05131416666667, "name": "0b12b49ca208f6302b13574ea6e7cbb4", "lat": 38.925181, "is_reserved": 0, "fusion_lat": 0.0, "bike_id": "0b12b49ca208f6302b13574ea6e7cbb4", "type": "electric_scooter", "is_disabled": 0, "fusion_lon": 0.0}, {"rental_uris": {"android": "https://dc.lft.to/lastmile_qr_scan", "ios": "https://dc.lft.to/lastmile_qr_scan"}, "lon": -77.01287783333333, "name": "8b23fc6ca2efb05bc2a92f91b80c500e", "lat": 38.9182065, "is_reserved": 0, "fusion_lat": 0.0, "bike_id": "8b23fc6ca2efb05bc2a92f91b80c500e", "type": "electric_scooter", "is_disabled": 0, "fusion_lon": 0.0}, {"rental_uris": {"android": "https://dc.lft.to/lastmile_qr_scan", "ios": "https://dc.lft.to/lastmile_qr_scan"}, "lon": -77.009187, "name": "645371210ec36994bee250cc27407111", "lat": 38.96822, "is_reserved": 0, "fusion_lat": 0.0, "bike_id": "645371210ec36994bee250cc27407111", "type": "electric_scooter", "is_disabled": 0, "fusion_lon": 0.0}, {"rental_uris": {"android": "https://dc.lft.to/lastmile_qr_scan", "ios": "https://dc.lft.to/lastmile_qr_scan"}, "lon": -77.016051, "name": "5f7f4ec07d3770a9c7a542cc02c82c54", "lat": 38.89967516666667, "is_reserved": 0, "fusion_lat": 0.0, "bike_id": "5f7f4ec07d3770a9c7a542cc02c82c54", "type": "electric_scooter", "is_disabled": 0, "fusion_lon": 0.0}, {"rental_uris": {"android": "https://dc.lft.to/lastmile_qr_scan", "ios": "https://dc.lft.to/lastmile_qr_scan"}, "lon": -77.04334983333334, "name": "f4caa13c5f8c3aab35e3345ce4e667a1", "lat": 38.914286833333335, "is_reserved": 0, "fusion_lat": 0.0, "bike_id": "f4caa13c5f8c3aab35e3345ce4e667a1", "type": "electric_scooter", "is_disabled": 0, "fusion_lon": 0.0}, {"rental_uris": {"android": "https://dc.lft.to/lastmile_qr_scan", "ios": "https://dc.lft.to/lastmile_qr_scan"}, "lon": -77.02368733333333, "name": "468700e60ebda029b08f274534888007", "lat": 38.9023015, "is_reserved": 0, "fusion_lat": 0.0, "bike_id": "468700e60ebda029b08f274534888007", "type": "electric_scooter", "is_disabled": 0, "fusion_lon": 0.0}, {"rental_uris": {"android": "https://dc.lft.to/lastmile_qr_scan", "ios": "https://dc.lft.to/lastmile_qr_scan"}, "lon": -77.02794316666666, "name": "8724d8440b0ef18cf5f80b8171c1dd3d", "lat": 38.96048783333333, "is_reserved": 0, "fusion_lat": 0.0, "bike_id": "8724d8440b0ef18cf5f80b8171c1dd3d", "type": "electric_scooter", "is_disabled": 0, "fusion_lon": 0.0}, {"rental_uris": {"android": "https://dc.lft.to/lastmile_qr_scan", "ios": "https://dc.lft.to/lastmile_qr_scan"}, "lon": -77.04622283333333, "name": "94dbdbbc2b7fc7307b903687879c541d", "lat": 38.90667416666667, "is_reserved": 0, "fusion_lat": 0.0, "bike_id": "94dbdbbc2b7fc7307b903687879c541d", "type": "electric_scooter", "is_disabled": 0, "fusion_lon": 0.0}, {"rental_uris": {"android": "https://dc.lft.to/lastmile_qr_scan", "ios": "https://dc.lft.to/lastmile_qr_scan"}, "lon": -77.03197466666667, "name": "5e12242f5fb3278d0a1b591b9487fbd7", "lat": 38.9195175, "is_reserved": 0, "fusion_lat": 0.0, "bike_id": "5e12242f5fb3278d0a1b591b9487fbd7", "type": "electric_scooter", "is_disabled": 0, "fusion_lon": 0.0}, {"rental_uris": {"android": "https://dc.lft.to/lastmile_qr_scan", "ios": "https://dc.lft.to/lastmile_qr_scan"}, "lon": -77.0000605, "name": "d9255bd272668269f575c75d17616fb6", "lat": 38.92390733333333, "is_reserved": 0, "fusion_lat": 0.0, "bike_id": "d9255bd272668269f575c75d17616fb6", "type": "electric_bike", "is_disabled": 0, "fusion_lon": 0.0}, {"rental_uris": {"android": "https://dc.lft.to/lastmile_qr_scan", "ios": "https://dc.lft.to/lastmile_qr_scan"}, "lon": -77.0283295, "name": "cb58f54cad5cabe44aedeaff415017ff", "lat": 38.88736333333333, "is_reserved": 0, "fusion_lat": 0.0, "bike_id": "cb58f54cad5cabe44aedeaff415017ff", "type": "electric_scooter", "is_disabled": 0, "fusion_lon": 0.0}, {"rental_uris": {"android": "https://dc.lft.to/lastmile_qr_scan", "ios": "https://dc.lft.to/lastmile_qr_scan"}, "lon": -77.03446916666667, "name": "154b4865a852c20d88c35b9b347c7aae", "lat": 38.907160166666664, "is_reserved": 0, "fusion_lat": 0.0, "bike_id": "154b4865a852c20d88c35b9b347c7aae", "type": "electric_scooter", "is_disabled": 0, "fusion_lon": 0.0}, {"rental_uris": {"android": "https://dc.lft.to/lastmile_qr_scan", "ios": "https://dc.lft.to/lastmile_qr_scan"}, "lon": -77.01631766666667, "name": "f6d5ba4db94407c670af80b465fce560", "lat": 38.901022, "is_reserved": 0, "fusion_lat": 0.0, "bike_id": "f6d5ba4db94407c670af80b465fce560", "type": "electric_scooter", "is_disabled": 0, "fusion_lon": 0.0}, {"rental_uris": {"android": "https://dc.lft.to/lastmile_qr_scan", "ios": "https://dc.lft.to/lastmile_qr_scan"}, "lon": -77.02196666666667, "name": "9f672b34bbbed9b34f328c8a90d8361b", "lat": 38.91136733333333, "is_reserved": 0, "fusion_lat": 0.0, "bike_id": "9f672b34bbbed9b34f328c8a90d8361b", "type": "electric_scooter", "is_disabled": 0, "fusion_lon": 0.0}, {"rental_uris": {"android": "https://dc.lft.to/lastmile_qr_scan", "ios": "https://dc.lft.to/lastmile_qr_scan"}, "lon": -77.026971, "name": "d47d2103ea9de2ee54bf95d9ebf6ab97", "lat": 38.936350833333336, "is_reserved": 0, "fusion_lat": 0.0, "bike_id": "d47d2103ea9de2ee54bf95d9ebf6ab97", "type": "electric_scooter", "is_disabled": 0, "fusion_lon": 0.0}, {"rental_uris": {"android": "https://dc.lft.to/lastmile_qr_scan", "ios": "https://dc.lft.to/lastmile_qr_scan"}, "lon": -77.04316316666667, "name": "d487d58c14c0f1904d9999a83a33c201", "lat": 38.922373666666665, "is_reserved": 0, "fusion_lat": 0.0, "bike_id": "d487d58c14c0f1904d9999a83a33c201", "type": "electric_scooter", "is_disabled": 0, "fusion_lon": 0.0}, {"rental_uris": {"android": "https://dc.lft.to/lastmile_qr_scan", "ios": "https://dc.lft.to/lastmile_qr_scan"}, "lon": -77.01248, "name": "3b5c22eb2164d805beb6763fe566e865", "lat": 38.91573133333333, "is_reserved": 0, "fusion_lat": 0.0, "bike_id": "3b5c22eb2164d805beb6763fe566e865", "type": "electric_scooter", "is_disabled": 0, "fusion_lon": 0.0}, {"rental_uris": {"android": "https://dc.lft.to/lastmile_qr_scan", "ios": "https://dc.lft.to/lastmile_qr_scan"}, "lon": -77.04218333333333, "name": "8fa3e2720d9243329c1d5af7d4222395", "lat": 38.924473666666664, "is_reserved": 0, "fusion_lat": 0.0, "bike_id": "8fa3e2720d9243329c1d5af7d4222395", "type": "electric_scooter", "is_disabled": 0, "fusion_lon": 0.0}, {"rental_uris": {"android": "https://dc.lft.to/lastmile_qr_scan", "ios": "https://dc.lft.to/lastmile_qr_scan"}, "lon": -77.023852, "name": "4f8217b82ef0e5c01e8a3c46f0bbe72c", "lat": 38.8923185, "is_reserved": 0, "fusion_lat": 0.0, "bike_id": "4f8217b82ef0e5c01e8a3c46f0bbe72c", "type": "electric_scooter", "is_disabled": 0, "fusion_lon": 0.0}, {"rental_uris": {"android": "https://dc.lft.to/lastmile_qr_scan", "ios": "https://dc.lft.to/lastmile_qr_scan"}, "lon": -77.03107816666666, "name": "6b421d28cd4058fccec0d8d27cc95bd3", "lat": 38.961234166666664, "is_reserved": 0, "fusion_lat": 0.0, "bike_id": "6b421d28cd4058fccec0d8d27cc95bd3", "type": "electric_bike", "is_disabled": 0, "fusion_lon": 0.0}, {"rental_uris": {"android": "https://dc.lft.to/lastmile_qr_scan", "ios": "https://dc.lft.to/lastmile_qr_scan"}, "lon": -77.037486, "name": "9c8cc219df4e5a7e5ca6f0f01c9625fd", "lat": 38.91615066666667, "is_reserved": 0, "fusion_lat": 0.0, "bike_id": "9c8cc219df4e5a7e5ca6f0f01c9625fd", "type": "electric_scooter", "is_disabled": 0, "fusion_lon": 0.0}, {"rental_uris": {"android": "https://dc.lft.to/lastmile_qr_scan", "ios": "https://dc.lft.to/lastmile_qr_scan"}, "lon": -76.988307, "name": "64d9ed135c780367a7e308de7ef61d0d", "lat": 38.89082116666667, "is_reserved": 0, "fusion_lat": 0.0, "bike_id": "64d9ed135c780367a7e308de7ef61d0d", "type": "electric_scooter", "is_disabled": 0, "fusion_lon": 0.0}, {"rental_uris": {"android": "https://dc.lft.to/lastmile_qr_scan", "ios": "https://dc.lft.to/lastmile_qr_scan"}, "lon": -77.00943566666666, "name": "62d0f3ff5cffa58f2abfb236c2bd40c8", "lat": 38.92123483333334, "is_reserved": 0, "fusion_lat": 0.0, "bike_id": "62d0f3ff5cffa58f2abfb236c2bd40c8", "type": "electric_bike", "is_disabled": 0, "fusion_lon": 0.0}, {"rental_uris": {"android": "https://dc.lft.to/lastmile_qr_scan", "ios": "https://dc.lft.to/lastmile_qr_scan"}, "lon": -77.03783233333333, "name": "acd8b9ef1904f41ed515850b175b02e7", "lat": 38.9270155, "is_reserved": 0, "fusion_lat": 0.0, "bike_id": "acd8b9ef1904f41ed515850b175b02e7", "type": "electric_scooter", "is_disabled": 0, "fusion_lon": 0.0}, {"rental_uris": {"android": "https://dc.lft.to/lastmile_qr_scan", "ios": "https://dc.lft.to/lastmile_qr_scan"}, "lon": -76.98413866666667, "name": "84263297bc523a75afc22652898f6038", "lat": 38.90821616666667, "is_reserved": 0, "fusion_lat": 0.0, "bike_id": "84263297bc523a75afc22652898f6038", "type": "electric_scooter", "is_disabled": 0, "fusion_lon": 0.0}, {"rental_uris": {"android": "https://dc.lft.to/lastmile_qr_scan", "ios": "https://dc.lft.to/lastmile_qr_scan"}, "lon": -76.99741883333333, "name": "432512633023b22978a02698ea9cd42f", "lat": 38.861573, "is_reserved": 0, "fusion_lat": 0.0, "bike_id": "432512633023b22978a02698ea9cd42f", "type": "electric_scooter", "is_disabled": 0, "fusion_lon": 0.0}, {"rental_uris": {"android": "https://dc.lft.to/lastmile_qr_scan", "ios": "https://dc.lft.to/lastmile_qr_scan"}, "lon": -77.03648916666667, "name": "8cbdd1ae9f54200e797506bdbda4e906", "lat": 38.901441, "is_reserved": 0, "fusion_lat": 0.0, "bike_id": "8cbdd1ae9f54200e797506bdbda4e906", "type": "electric_scooter", "is_disabled": 0, "fusion_lon": 0.0}, {"rental_uris": {"android": "https://dc.lft.to/lastmile_qr_scan", "ios": "https://dc.lft.to/lastmile_qr_scan"}, "lon": -77.0729355, "name": "0c3e10df40da7ddb82d271c1452a21c5", "lat": 38.934505333333334, "is_reserved": 0, "fusion_lat": 0.0, "bike_id": "0c3e10df40da7ddb82d271c1452a21c5", "type": "electric_scooter", "is_disabled": 0, "fusion_lon": 0.0}, {"rental_uris": {"android": "https://dc.lft.to/lastmile_qr_scan", "ios": "https://dc.lft.to/lastmile_qr_scan"}, "lon": -76.94149333333333, "name": "e54a8c31b79e6f1753590ebc2eaf25f2", "lat": 38.901774333333336, "is_reserved": 0, "fusion_lat": 0.0, "bike_id": "e54a8c31b79e6f1753590ebc2eaf25f2", "type": "electric_scooter", "is_disabled": 0, "fusion_lon": 0.0}, {"rental_uris": {"android": "https://dc.lft.to/lastmile_qr_scan", "ios": "https://dc.lft.to/lastmile_qr_scan"}, "lon": -77.00221416666666, "name": "b9c3f2b8cdc7dc64a667c88acf1a88db", "lat": 38.89485833333333, "is_reserved": 0, "fusion_lat": 0.0, "bike_id": "b9c3f2b8cdc7dc64a667c88acf1a88db", "type": "electric_scooter", "is_disabled": 0, "fusion_lon": 0.0}, {"rental_uris": {"android": "https://dc.lft.to/lastmile_qr_scan", "ios": "https://dc.lft.to/lastmile_qr_scan"}, "lon": -77.02192966666667, "name": "c300a46b49ba377f7f0d25562c60f1fd", "lat": 38.9097135, "is_reserved": 0, "fusion_lat": 0.0, "bike_id": "c300a46b49ba377f7f0d25562c60f1fd", "type": "electric_scooter", "is_disabled": 0, "fusion_lon": 0.0}, {"rental_uris": {"android": "https://dc.lft.to/lastmile_qr_scan", "ios": "https://dc.lft.to/lastmile_qr_scan"}, "lon": -77.0248505, "name": "732405599fc30aee86b9b8413d1ddff0", "lat": 38.941825, "is_reserved": 0, "fusion_lat": 0.0, "bike_id": "732405599fc30aee86b9b8413d1ddff0", "type": "electric_scooter", "is_disabled": 0, "fusion_lon": 0.0}, {"rental_uris": {"android": "https://dc.lft.to/lastmile_qr_scan", "ios": "https://dc.lft.to/lastmile_qr_scan"}, "lon": -76.98230516666666, "name": "8920c740edd23948de1d066224d98c58", "lat": 38.8647445, "is_reserved": 0, "fusion_lat": 0.0, "bike_id": "8920c740edd23948de1d066224d98c58", "type": "electric_scooter", "is_disabled": 0, "fusion_lon": 0.0}, {"rental_uris": {"android": "https://dc.lft.to/lastmile_qr_scan", "ios": "https://dc.lft.to/lastmile_qr_scan"}, "lon": -77.0400425, "name": "c7be64c0a4cea7e1cce2c0d458964b86", "lat": 38.921738833333336, "is_reserved": 0, "fusion_lat": 0.0, "bike_id": "c7be64c0a4cea7e1cce2c0d458964b86", "type": "electric_scooter", "is_disabled": 0, "fusion_lon": 0.0}, {"rental_uris": {"android": "https://dc.lft.to/lastmile_qr_scan", "ios": "https://dc.lft.to/lastmile_qr_scan"}, "lon": -77.023681, "name": "54729ff34ee2548a7f19e3f6ea05233e", "lat": 38.9204315, "is_reserved": 0, "fusion_lat": 0.0, "bike_id": "54729ff34ee2548a7f19e3f6ea05233e", "type": "electric_scooter", "is_disabled": 0, "fusion_lon": 0.0}, {"rental_uris": {"android": "https://dc.lft.to/lastmile_qr_scan", "ios": "https://dc.lft.to/lastmile_qr_scan"}, "lon": -77.00735166666666, "name": "d827996b9903903e8d843224be0fb7e2", "lat": 38.8985105, "is_reserved": 0, "fusion_lat": 0.0, "bike_id": "d827996b9903903e8d843224be0fb7e2", "type": "electric_scooter", "is_disabled": 0, "fusion_lon": 0.0}, {"rental_uris": {"android": "https://dc.lft.to/lastmile_qr_scan", "ios": "https://dc.lft.to/lastmile_qr_scan"}, "lon": -76.9868, "name": "f4750f5ac8476a4e0b185db31645e63f", "lat": 38.89365083333333, "is_reserved": 0, "fusion_lat": 0.0, "bike_id": "f4750f5ac8476a4e0b185db31645e63f", "type": "electric_scooter", "is_disabled": 0, "fusion_lon": 0.0}, {"rental_uris": {"android": "https://dc.lft.to/lastmile_qr_scan", "ios": "https://dc.lft.to/lastmile_qr_scan"}, "lon": -77.028242, "name": "e702fc3dd5dde7e4b97eba3d846cd056", "lat": 38.8990835, "is_reserved": 0, "fusion_lat": 0.0, "bike_id": "e702fc3dd5dde7e4b97eba3d846cd056", "type": "electric_scooter", "is_disabled": 0, "fusion_lon": 0.0}, {"rental_uris": {"android": "https://dc.lft.to/lastmile_qr_scan", "ios": "https://dc.lft.to/lastmile_qr_scan"}, "lon": -77.023303, "name": "91c5c2175ea4a1065e35dcbc0a17df5b", "lat": 38.928735333333336, "is_reserved": 0, "fusion_lat": 0.0, "bike_id": "91c5c2175ea4a1065e35dcbc0a17df5b", "type": "electric_scooter", "is_disabled": 0, "fusion_lon": 0.0}, {"rental_uris": {"android": "https://dc.lft.to/lastmile_qr_scan", "ios": "https://dc.lft.to/lastmile_qr_scan"}, "lon": -77.07472466666667, "name": "6950a0781b6513fca0966f979ab25306", "lat": 38.907126833333336, "is_reserved": 0, "fusion_lat": 0.0, "bike_id": "6950a0781b6513fca0966f979ab25306", "type": "electric_scooter", "is_disabled": 0, "fusion_lon": 0.0}, {"rental_uris": {"android": "https://dc.lft.to/lastmile_qr_scan", "ios": "https://dc.lft.to/lastmile_qr_scan"}, "lon": -77.02370066666667, "name": "f9338c92f0290d257072d007d5b06b5a", "lat": 38.9205115, "is_reserved": 0, "fusion_lat": 0.0, "bike_id": "f9338c92f0290d257072d007d5b06b5a", "type": "electric_scooter", "is_disabled": 0, "fusion_lon": 0.0}, {"rental_uris": {"android": "https://dc.lft.to/lastmile_qr_scan", "ios": "https://dc.lft.to/lastmile_qr_scan"}, "lon": -76.99809933333333, "name": "67b9baf0a6e79edb205df4e65bca59a4", "lat": 38.93235466666667, "is_reserved": 0, "fusion_lat": 0.0, "bike_id": "67b9baf0a6e79edb205df4e65bca59a4", "type": "electric_scooter", "is_disabled": 0, "fusion_lon": 0.0}, {"rental_uris": {"android": "https://dc.lft.to/lastmile_qr_scan", "ios": "https://dc.lft.to/lastmile_qr_scan"}, "lon": -77.04067333333333, "name": "9ae8522a1c70a785c32c7793d74273a7", "lat": 38.91713583333333, "is_reserved": 0, "fusion_lat": 0.0, "bike_id": "9ae8522a1c70a785c32c7793d74273a7", "type": "electric_scooter", "is_disabled": 0, "fusion_lon": 0.0}, {"rental_uris": {"android": "https://dc.lft.to/lastmile_qr_scan", "ios": "https://dc.lft.to/lastmile_qr_scan"}, "lon": -77.024224, "name": "1d1315cba18b191550af03462d348522", "lat": 38.91897566666667, "is_reserved": 0, "fusion_lat": 0.0, "bike_id": "1d1315cba18b191550af03462d348522", "type": "electric_scooter", "is_disabled": 0, "fusion_lon": 0.0}, {"rental_uris": {"android": "https://dc.lft.to/lastmile_qr_scan", "ios": "https://dc.lft.to/lastmile_qr_scan"}, "lon": -77.01002216666667, "name": "4c17cd3a6795ac11c7c9d04300cf45db", "lat": 38.915636166666665, "is_reserved": 0, "fusion_lat": 0.0, "bike_id": "4c17cd3a6795ac11c7c9d04300cf45db", "type": "electric_scooter", "is_disabled": 0, "fusion_lon": 0.0}, {"rental_uris": {"android": "https://dc.lft.to/lastmile_qr_scan", "ios": "https://dc.lft.to/lastmile_qr_scan"}, "lon": -77.01367616666667, "name": "307cd5d4cb4133e1794d9563d545435f", "lat": 38.9112595, "is_reserved": 0, "fusion_lat": 0.0, "bike_id": "307cd5d4cb4133e1794d9563d545435f", "type": "electric_scooter", "is_disabled": 0, "fusion_lon": 0.0}, {"rental_uris": {"android": "https://dc.lft.to/lastmile_qr_scan", "ios": "https://dc.lft.to/lastmile_qr_scan"}, "lon": -77.03662966666667, "name": "06a7c728ba949d1e025abc6a273e8637", "lat": 38.9100505, "is_reserved": 0, "fusion_lat": 0.0, "bike_id": "06a7c728ba949d1e025abc6a273e8637", "type": "electric_scooter", "is_disabled": 0, "fusion_lon": 0.0}, {"rental_uris": {"android": "https://dc.lft.to/lastmile_qr_scan", "ios": "https://dc.lft.to/lastmile_qr_scan"}, "lon": -76.9498785, "name": "9ea0f119f70b81adc958efbcf9c007a8", "lat": 38.88470933333333, "is_reserved": 0, "fusion_lat": 0.0, "bike_id": "9ea0f119f70b81adc958efbcf9c007a8", "type": "electric_scooter", "is_disabled": 0, "fusion_lon": 0.0}, {"rental_uris": {"android": "https://dc.lft.to/lastmile_qr_scan", "ios": "https://dc.lft.to/lastmile_qr_scan"}, "lon": -76.98357816666666, "name": "50cf2badb9dc7737211a9563917b162c", "lat": 38.89439466666666, "is_reserved": 0, "fusion_lat": 0.0, "bike_id": "50cf2badb9dc7737211a9563917b162c", "type": "electric_scooter", "is_disabled": 0, "fusion_lon": 0.0}, {"rental_uris": {"android": "https://dc.lft.to/lastmile_qr_scan", "ios": "https://dc.lft.to/lastmile_qr_scan"}, "lon": -77.03847533333334, "name": "47d7e087e9276faf65c7bc13bf6bfed0", "lat": 38.912138, "is_reserved": 0, "fusion_lat": 0.0, "bike_id": "47d7e087e9276faf65c7bc13bf6bfed0", "type": "electric_scooter", "is_disabled": 0, "fusion_lon": 0.0}, {"rental_uris": {"android": "https://dc.lft.to/lastmile_qr_scan", "ios": "https://dc.lft.to/lastmile_qr_scan"}, "lon": -77.019607, "name": "a30bdc674fed3abf965ae959a815c71e", "lat": 38.89255933333333, "is_reserved": 0, "fusion_lat": 0.0, "bike_id": "a30bdc674fed3abf965ae959a815c71e", "type": "electric_scooter", "is_disabled": 0, "fusion_lon": 0.0}, {"rental_uris": {"android": "https://dc.lft.to/lastmile_qr_scan", "ios": "https://dc.lft.to/lastmile_qr_scan"}, "lon": -76.99542283333334, "name": "0feac9068d2864dfe293b5df6b8a5ebd", "lat": 38.90028, "is_reserved": 0, "fusion_lat": 0.0, "bike_id": "0feac9068d2864dfe293b5df6b8a5ebd", "type": "electric_scooter", "is_disabled": 0, "fusion_lon": 0.0}, {"rental_uris": {"android": "https://dc.lft.to/lastmile_qr_scan", "ios": "https://dc.lft.to/lastmile_qr_scan"}, "lon": -77.02423233333333, "name": "c32f193e96c47be35a9d2e1e95921609", "lat": 38.92661616666667, "is_reserved": 0, "fusion_lat": 0.0, "bike_id": "c32f193e96c47be35a9d2e1e95921609", "type": "electric_scooter", "is_disabled": 0, "fusion_lon": 0.0}, {"rental_uris": {"android": "https://dc.lft.to/lastmile_qr_scan", "ios": "https://dc.lft.to/lastmile_qr_scan"}, "lon": -77.02375566666667, "name": "4f345e2a1d030c17163d46771dbbfd74", "lat": 38.90733783333334, "is_reserved": 0, "fusion_lat": 0.0, "bike_id": "4f345e2a1d030c17163d46771dbbfd74", "type": "electric_scooter", "is_disabled": 0, "fusion_lon": 0.0}, {"rental_uris": {"android": "https://dc.lft.to/lastmile_qr_scan", "ios": "https://dc.lft.to/lastmile_qr_scan"}, "lon": -77.00008116666666, "name": "6df8d262609673a4fa25994424bb1531", "lat": 38.9024795, "is_reserved": 0, "fusion_lat": 0.0, "bike_id": "6df8d262609673a4fa25994424bb1531", "type": "electric_scooter", "is_disabled": 0, "fusion_lon": 0.0}, {"rental_uris": {"android": "https://dc.lft.to/lastmile_qr_scan", "ios": "https://dc.lft.to/lastmile_qr_scan"}, "lon": -77.026952, "name": "0e284701df26bf16e6384a51ebfe2253", "lat": 38.8945495, "is_reserved": 0, "fusion_lat": 0.0, "bike_id": "0e284701df26bf16e6384a51ebfe2253", "type": "electric_scooter", "is_disabled": 0, "fusion_lon": 0.0}, {"rental_uris": {"android": "https://dc.lft.to/lastmile_qr_scan", "ios": "https://dc.lft.to/lastmile_qr_scan"}, "lon": -77.02231766666667, "name": "aad12ad526fc4c59c1cfa041bdcfb070", "lat": 38.908421, "is_reserved": 0, "fusion_lat": 0.0, "bike_id": "aad12ad526fc4c59c1cfa041bdcfb070", "type": "electric_scooter", "is_disabled": 0, "fusion_lon": 0.0}, {"rental_uris": {"android": "https://dc.lft.to/lastmile_qr_scan", "ios": "https://dc.lft.to/lastmile_qr_scan"}, "lon": -77.00682083333334, "name": "9744938bd3ff3b85d52bb91551157d16", "lat": 38.900165666666666, "is_reserved": 0, "fusion_lat": 0.0, "bike_id": "9744938bd3ff3b85d52bb91551157d16", "type": "electric_scooter", "is_disabled": 0, "fusion_lon": 0.0}, {"rental_uris": {"android": "https://dc.lft.to/lastmile_qr_scan", "ios": "https://dc.lft.to/lastmile_qr_scan"}, "lon": -77.04742733333333, "name": "d76605414603b0bc4671a00d548087ec", "lat": 38.897293, "is_reserved": 0, "fusion_lat": 0.0, "bike_id": "d76605414603b0bc4671a00d548087ec", "type": "electric_scooter", "is_disabled": 0, "fusion_lon": 0.0}, {"rental_uris": {"android": "https://dc.lft.to/lastmile_qr_scan", "ios": "https://dc.lft.to/lastmile_qr_scan"}, "lon": -77.00454783333333, "name": "8902585037bf826235f65724bd2b19ac", "lat": 38.912419666666665, "is_reserved": 0, "fusion_lat": 0.0, "bike_id": "8902585037bf826235f65724bd2b19ac", "type": "electric_scooter", "is_disabled": 0, "fusion_lon": 0.0}, {"rental_uris": {"android": "https://dc.lft.to/lastmile_qr_scan", "ios": "https://dc.lft.to/lastmile_qr_scan"}, "lon": -77.03840583333333, "name": "4fb5bbf8be5ce19a5f9f116f58b9d59d", "lat": 38.92649383333333, "is_reserved": 0, "fusion_lat": 0.0, "bike_id": "4fb5bbf8be5ce19a5f9f116f58b9d59d", "type": "electric_scooter", "is_disabled": 0, "fusion_lon": 0.0}, {"rental_uris": {"android": "https://dc.lft.to/lastmile_qr_scan", "ios": "https://dc.lft.to/lastmile_qr_scan"}, "lon": -77.00196783333334, "name": "2fb9038ff816d85c0d4c44b2e89fe08a", "lat": 38.90035683333333, "is_reserved": 0, "fusion_lat": 0.0, "bike_id": "2fb9038ff816d85c0d4c44b2e89fe08a", "type": "electric_scooter", "is_disabled": 0, "fusion_lon": 0.0}, {"rental_uris": {"android": "https://dc.lft.to/lastmile_qr_scan", "ios": "https://dc.lft.to/lastmile_qr_scan"}, "lon": -77.03850166666666, "name": "fb8239e6bc71f7985f5d2a8f6303288a", "lat": 38.908696666666664, "is_reserved": 0, "fusion_lat": 0.0, "bike_id": "fb8239e6bc71f7985f5d2a8f6303288a", "type": "electric_scooter", "is_disabled": 0, "fusion_lon": 0.0}, {"rental_uris": {"android": "https://dc.lft.to/lastmile_qr_scan", "ios": "https://dc.lft.to/lastmile_qr_scan"}, "lon": -77.04530816666667, "name": "c730a3e99a21400e10bbfe7ccda0b9e1", "lat": 38.91636166666667, "is_reserved": 0, "fusion_lat": 0.0, "bike_id": "c730a3e99a21400e10bbfe7ccda0b9e1", "type": "electric_scooter", "is_disabled": 0, "fusion_lon": 0.0}, {"rental_uris": {"android": "https://dc.lft.to/lastmile_qr_scan", "ios": "https://dc.lft.to/lastmile_qr_scan"}, "lon": -77.024097, "name": "ef34aedd34625ff320fe30d053546dfc", "lat": 38.911750833333336, "is_reserved": 0, "fusion_lat": 0.0, "bike_id": "ef34aedd34625ff320fe30d053546dfc", "type": "electric_scooter", "is_disabled": 0, "fusion_lon": 0.0}, {"rental_uris": {"android": "https://dc.lft.to/lastmile_qr_scan", "ios": "https://dc.lft.to/lastmile_qr_scan"}, "lon": -77.013783, "name": "eda37120fe259d3101e14020917faaee", "lat": 38.952344833333335, "is_reserved": 0, "fusion_lat": 0.0, "bike_id": "eda37120fe259d3101e14020917faaee", "type": "electric_scooter", "is_disabled": 0, "fusion_lon": 0.0}, {"rental_uris": {"android": "https://dc.lft.to/lastmile_qr_scan", "ios": "https://dc.lft.to/lastmile_qr_scan"}, "lon": -77.0071365, "name": "0f50835e23e426cb08e8a897aea996b6", "lat": 38.884904666666664, "is_reserved": 0, "fusion_lat": 0.0, "bike_id": "0f50835e23e426cb08e8a897aea996b6", "type": "electric_scooter", "is_disabled": 0, "fusion_lon": 0.0}, {"rental_uris": {"android": "https://dc.lft.to/lastmile_qr_scan", "ios": "https://dc.lft.to/lastmile_qr_scan"}, "lon": -77.04270033333333, "name": "b4daa5bbdbd41e1e39a5638b25059804", "lat": 38.907232666666665, "is_reserved": 0, "fusion_lat": 0.0, "bike_id": "b4daa5bbdbd41e1e39a5638b25059804", "type": "electric_scooter", "is_disabled": 0, "fusion_lon": 0.0}, {"rental_uris": {"android": "https://dc.lft.to/lastmile_qr_scan", "ios": "https://dc.lft.to/lastmile_qr_scan"}, "lon": -76.98279366666667, "name": "d2c0dce2543a2a999b3214eccfa11bb6", "lat": 38.86765116666667, "is_reserved": 0, "fusion_lat": 0.0, "bike_id": "d2c0dce2543a2a999b3214eccfa11bb6", "type": "electric_scooter", "is_disabled": 0, "fusion_lon": 0.0}, {"rental_uris": {"android": "https://dc.lft.to/lastmile_qr_scan", "ios": "https://dc.lft.to/lastmile_qr_scan"}, "lon": -77.01220583333334, "name": "46023f5a07d773d9873dedc3c138513d", "lat": 38.926021666666664, "is_reserved": 0, "fusion_lat": 0.0, "bike_id": "46023f5a07d773d9873dedc3c138513d", "type": "electric_scooter", "is_disabled": 0, "fusion_lon": 0.0}, {"rental_uris": {"android": "https://dc.lft.to/lastmile_qr_scan", "ios": "https://dc.lft.to/lastmile_qr_scan"}, "lon": -77.0185575, "name": "bafcb8e1cf53bc458d572f642615ea3e", "lat": 38.89877666666667, "is_reserved": 0, "fusion_lat": 0.0, "bike_id": "bafcb8e1cf53bc458d572f642615ea3e", "type": "electric_scooter", "is_disabled": 0, "fusion_lon": 0.0}, {"rental_uris": {"android": "https://dc.lft.to/lastmile_qr_scan", "ios": "https://dc.lft.to/lastmile_qr_scan"}, "lon": -76.976296, "name": "14883a6277a0cc50d090bea50e5c7ca0", "lat": 38.90159333333333, "is_reserved": 0, "fusion_lat": 0.0, "bike_id": "14883a6277a0cc50d090bea50e5c7ca0", "type": "electric_scooter", "is_disabled": 0, "fusion_lon": 0.0}, {"rental_uris": {"android": "https://dc.lft.to/lastmile_qr_scan", "ios": "https://dc.lft.to/lastmile_qr_scan"}, "lon": -77.02277533333333, "name": "ce6f172f07ac50139c9d525c650c0326", "lat": 38.916527, "is_reserved": 0, "fusion_lat": 0.0, "bike_id": "ce6f172f07ac50139c9d525c650c0326", "type": "electric_scooter", "is_disabled": 0, "fusion_lon": 0.0}, {"rental_uris": {"android": "https://dc.lft.to/lastmile_qr_scan", "ios": "https://dc.lft.to/lastmile_qr_scan"}, "lon": -77.046743, "name": "ea0968014739dd0286c8c807e4ad93d8", "lat": 38.90301816666667, "is_reserved": 0, "fusion_lat": 0.0, "bike_id": "ea0968014739dd0286c8c807e4ad93d8", "type": "electric_scooter", "is_disabled": 0, "fusion_lon": 0.0}, {"rental_uris": {"android": "https://dc.lft.to/lastmile_qr_scan", "ios": "https://dc.lft.to/lastmile_qr_scan"}, "lon": -77.01220266666667, "name": "4ca70698eb36b364441c046664852920", "lat": 38.913482, "is_reserved": 0, "fusion_lat": 0.0, "bike_id": "4ca70698eb36b364441c046664852920", "type": "electric_scooter", "is_disabled": 0, "fusion_lon": 0.0}, {"rental_uris": {"android": "https://dc.lft.to/lastmile_qr_scan", "ios": "https://dc.lft.to/lastmile_qr_scan"}, "lon": -77.00320716666667, "name": "8dab6cd81c0da396ae23b35b9f7dd268", "lat": 38.87723316666667, "is_reserved": 0, "fusion_lat": 0.0, "bike_id": "8dab6cd81c0da396ae23b35b9f7dd268", "type": "electric_scooter", "is_disabled": 0, "fusion_lon": 0.0}, {"rental_uris": {"android": "https://dc.lft.to/lastmile_qr_scan", "ios": "https://dc.lft.to/lastmile_qr_scan"}, "lon": -77.04474483333334, "name": "9a254a165f4f48535e91397983068b89", "lat": 38.91881016666667, "is_reserved": 0, "fusion_lat": 0.0, "bike_id": "9a254a165f4f48535e91397983068b89", "type": "electric_scooter", "is_disabled": 0, "fusion_lon": 0.0}, {"rental_uris": {"android": "https://dc.lft.to/lastmile_qr_scan", "ios": "https://dc.lft.to/lastmile_qr_scan"}, "lon": -76.96260983333333, "name": "4b8337398a5a53c3fc5c78ebcdd9cb15", "lat": 38.8824845, "is_reserved": 0, "fusion_lat": 0.0, "bike_id": "4b8337398a5a53c3fc5c78ebcdd9cb15", "type": "electric_bike", "is_disabled": 0, "fusion_lon": 0.0}, {"rental_uris": {"android": "https://dc.lft.to/lastmile_qr_scan", "ios": "https://dc.lft.to/lastmile_qr_scan"}, "lon": -77.0511595, "name": "864ca77150215a8c28123fcb04ca6ceb", "lat": 38.81333766666667, "is_reserved": 0, "fusion_lat": 0.0, "bike_id": "864ca77150215a8c28123fcb04ca6ceb", "type": "electric_bike", "is_disabled": 0, "fusion_lon": 0.0}, {"rental_uris": {"android": "https://dc.lft.to/lastmile_qr_scan", "ios": "https://dc.lft.to/lastmile_qr_scan"}, "lon": -77.014615, "name": "910c6d3f0017cb6875ea69e9fbce64f2", "lat": 38.87938033333333, "is_reserved": 0, "fusion_lat": 0.0, "bike_id": "910c6d3f0017cb6875ea69e9fbce64f2", "type": "electric_scooter", "is_disabled": 0, "fusion_lon": 0.0}, {"rental_uris": {"android": "https://dc.lft.to/lastmile_qr_scan", "ios": "https://dc.lft.to/lastmile_qr_scan"}, "lon": -77.00935966666667, "name": "368a1658e12ccf24900cc404d1ea810f", "lat": 38.87625116666667, "is_reserved": 0, "fusion_lat": 0.0, "bike_id": "368a1658e12ccf24900cc404d1ea810f", "type": "electric_scooter", "is_disabled": 0, "fusion_lon": 0.0}, {"rental_uris": {"android": "https://dc.lft.to/lastmile_qr_scan", "ios": "https://dc.lft.to/lastmile_qr_scan"}, "lon": -77.02281433333333, "name": "5e833957be9b1df1f2fb27090fee9b26", "lat": 38.91656233333333, "is_reserved": 0, "fusion_lat": 0.0, "bike_id": "5e833957be9b1df1f2fb27090fee9b26", "type": "electric_scooter", "is_disabled": 0, "fusion_lon": 0.0}, {"rental_uris": {"android": "https://dc.lft.to/lastmile_qr_scan", "ios": "https://dc.lft.to/lastmile_qr_scan"}, "lon": -77.04442016666667, "name": "45b01a40b56b44d6513a263a8200eb32", "lat": 38.9125655, "is_reserved": 0, "fusion_lat": 0.0, "bike_id": "45b01a40b56b44d6513a263a8200eb32", "type": "electric_scooter", "is_disabled": 0, "fusion_lon": 0.0}, {"rental_uris": {"android": "https://dc.lft.to/lastmile_qr_scan", "ios": "https://dc.lft.to/lastmile_qr_scan"}, "lon": -77.02281383333333, "name": "7dddc7c01671ed333cef2d887d4efd55", "lat": 38.91717283333333, "is_reserved": 0, "fusion_lat": 0.0, "bike_id": "7dddc7c01671ed333cef2d887d4efd55", "type": "electric_scooter", "is_disabled": 0, "fusion_lon": 0.0}, {"rental_uris": {"android": "https://dc.lft.to/lastmile_qr_scan", "ios": "https://dc.lft.to/lastmile_qr_scan"}, "lon": -77.02306, "name": "720a4992d487b8047008ad5e4be25c00", "lat": 38.89505116666667, "is_reserved": 0, "fusion_lat": 0.0, "bike_id": "720a4992d487b8047008ad5e4be25c00", "type": "electric_scooter", "is_disabled": 0, "fusion_lon": 0.0}, {"rental_uris": {"android": "https://dc.lft.to/lastmile_qr_scan", "ios": "https://dc.lft.to/lastmile_qr_scan"}, "lon": -76.9690345, "name": "67fada335d6d74fc18042888c556ea5a", "lat": 38.87310266666667, "is_reserved": 0, "fusion_lat": 0.0, "bike_id": "67fada335d6d74fc18042888c556ea5a", "type": "electric_scooter", "is_disabled": 0, "fusion_lon": 0.0}, {"rental_uris": {"android": "https://dc.lft.to/lastmile_qr_scan", "ios": "https://dc.lft.to/lastmile_qr_scan"}, "lon": -77.02523683333334, "name": "07d03d57917b22f629dd250d0fbe87e8", "lat": 38.920788, "is_reserved": 0, "fusion_lat": 0.0, "bike_id": "07d03d57917b22f629dd250d0fbe87e8", "type": "electric_scooter", "is_disabled": 0, "fusion_lon": 0.0}, {"rental_uris": {"android": "https://dc.lft.to/lastmile_qr_scan", "ios": "https://dc.lft.to/lastmile_qr_scan"}, "lon": -77.0220155, "name": "f45ee29c540ff97bf444cd4fd7b62396", "lat": 38.9198545, "is_reserved": 0, "fusion_lat": 0.0, "bike_id": "f45ee29c540ff97bf444cd4fd7b62396", "type": "electric_scooter", "is_disabled": 0, "fusion_lon": 0.0}, {"rental_uris": {"android": "https://dc.lft.to/lastmile_qr_scan", "ios": "https://dc.lft.to/lastmile_qr_scan"}, "lon": -77.02407933333333, "name": "582fd695752ddc7a80113758ccbb54ad", "lat": 38.90855033333333, "is_reserved": 0, "fusion_lat": 0.0, "bike_id": "582fd695752ddc7a80113758ccbb54ad", "type": "electric_scooter", "is_disabled": 0, "fusion_lon": 0.0}, {"rental_uris": {"android": "https://dc.lft.to/lastmile_qr_scan", "ios": "https://dc.lft.to/lastmile_qr_scan"}, "lon": -76.98394666666667, "name": "462ab4c5b12731912849760fdbf815c4", "lat": 38.866712166666666, "is_reserved": 0, "fusion_lat": 0.0, "bike_id": "462ab4c5b12731912849760fdbf815c4", "type": "electric_scooter", "is_disabled": 0, "fusion_lon": 0.0}, {"rental_uris": {"android": "https://dc.lft.to/lastmile_qr_scan", "ios": "https://dc.lft.to/lastmile_qr_scan"}, "lon": -77.01428933333334, "name": "5ef67def7cd4596505a2840c0db5a6bd", "lat": 38.9722435, "is_reserved": 0, "fusion_lat": 0.0, "bike_id": "5ef67def7cd4596505a2840c0db5a6bd", "type": "electric_bike", "is_disabled": 0, "fusion_lon": 0.0}, {"rental_uris": {"android": "https://dc.lft.to/lastmile_qr_scan", "ios": "https://dc.lft.to/lastmile_qr_scan"}, "lon": -77.05467033333333, "name": "c9b2721e36ccf0a4f7e21e8ae14960f7", "lat": 38.89669033333333, "is_reserved": 0, "fusion_lat": 0.0, "bike_id": "c9b2721e36ccf0a4f7e21e8ae14960f7", "type": "electric_scooter", "is_disabled": 0, "fusion_lon": 0.0}, {"rental_uris": {"android": "https://dc.lft.to/lastmile_qr_scan", "ios": "https://dc.lft.to/lastmile_qr_scan"}, "lon": -77.0334215, "name": "b3a641328915819d02860a5766a284bd", "lat": 38.935178, "is_reserved": 0, "fusion_lat": 0.0, "bike_id": "b3a641328915819d02860a5766a284bd", "type": "electric_scooter", "is_disabled": 0, "fusion_lon": 0.0}, {"rental_uris": {"android": "https://dc.lft.to/lastmile_qr_scan", "ios": "https://dc.lft.to/lastmile_qr_scan"}, "lon": -76.98544716666666, "name": "f26e65f021cd8a27fc6074f0f391dcfb", "lat": 38.8668905, "is_reserved": 0, "fusion_lat": 0.0, "bike_id": "f26e65f021cd8a27fc6074f0f391dcfb", "type": "electric_scooter", "is_disabled": 0, "fusion_lon": 0.0}, {"rental_uris": {"android": "https://dc.lft.to/lastmile_qr_scan", "ios": "https://dc.lft.to/lastmile_qr_scan"}, "lon": -77.021941, "name": "1c3730be9c27aaf6cd1a412723189af7", "lat": 38.910349333333336, "is_reserved": 0, "fusion_lat": 0.0, "bike_id": "1c3730be9c27aaf6cd1a412723189af7", "type": "electric_scooter", "is_disabled": 0, "fusion_lon": 0.0}, {"rental_uris": {"android": "https://dc.lft.to/lastmile_qr_scan", "ios": "https://dc.lft.to/lastmile_qr_scan"}, "lon": -77.00926566666666, "name": "4fda758c3e7b06a9ea414a2a0c7016db", "lat": 38.896105166666665, "is_reserved": 0, "fusion_lat": 0.0, "bike_id": "4fda758c3e7b06a9ea414a2a0c7016db", "type": "electric_scooter", "is_disabled": 0, "fusion_lon": 0.0}, {"rental_uris": {"android": "https://dc.lft.to/lastmile_qr_scan", "ios": "https://dc.lft.to/lastmile_qr_scan"}, "lon": -76.9924665, "name": "3f4723af328777ca262ba29594dfcccb", "lat": 38.79468116666666, "is_reserved": 0, "fusion_lat": 0.0, "bike_id": "3f4723af328777ca262ba29594dfcccb", "type": "electric_bike", "is_disabled": 0, "fusion_lon": 0.0}, {"rental_uris": {"android": "https://dc.lft.to/lastmile_qr_scan", "ios": "https://dc.lft.to/lastmile_qr_scan"}, "lon": -77.0345925, "name": "86f72b142993e60746db2e7343208875", "lat": 38.9064055, "is_reserved": 0, "fusion_lat": 0.0, "bike_id": "86f72b142993e60746db2e7343208875", "type": "electric_scooter", "is_disabled": 0, "fusion_lon": 0.0}, {"rental_uris": {"android": "https://dc.lft.to/lastmile_qr_scan", "ios": "https://dc.lft.to/lastmile_qr_scan"}, "lon": -77.07699683333334, "name": "aa5e0216eccbcf66240697ea600dd2ff", "lat": 38.94384816666667, "is_reserved": 0, "fusion_lat": 0.0, "bike_id": "aa5e0216eccbcf66240697ea600dd2ff", "type": "electric_scooter", "is_disabled": 0, "fusion_lon": 0.0}, {"rental_uris": {"android": "https://dc.lft.to/lastmile_qr_scan", "ios": "https://dc.lft.to/lastmile_qr_scan"}, "lon": -77.031282, "name": "99544a85a05f277b3dba9bd51e9e56df", "lat": 38.91712116666667, "is_reserved": 0, "fusion_lat": 0.0, "bike_id": "99544a85a05f277b3dba9bd51e9e56df", "type": "electric_scooter", "is_disabled": 0, "fusion_lon": 0.0}, {"rental_uris": {"android": "https://dc.lft.to/lastmile_qr_scan", "ios": "https://dc.lft.to/lastmile_qr_scan"}, "lon": -77.03190833333333, "name": "ff410bd4f050e0cb076679f098ad8ae6", "lat": 38.892513666666666, "is_reserved": 0, "fusion_lat": 0.0, "bike_id": "ff410bd4f050e0cb076679f098ad8ae6", "type": "electric_scooter", "is_disabled": 0, "fusion_lon": 0.0}, {"rental_uris": {"android": "https://dc.lft.to/lastmile_qr_scan", "ios": "https://dc.lft.to/lastmile_qr_scan"}, "lon": -76.94782033333334, "name": "e235cb05f122c24ddda0aede58094c2d", "lat": 38.89610583333334, "is_reserved": 0, "fusion_lat": 0.0, "bike_id": "e235cb05f122c24ddda0aede58094c2d", "type": "electric_scooter", "is_disabled": 0, "fusion_lon": 0.0}, {"rental_uris": {"android": "https://dc.lft.to/lastmile_qr_scan", "ios": "https://dc.lft.to/lastmile_qr_scan"}, "lon": -76.94857416666666, "name": "27db4aaf80b8df8c4f48b46298fd35e8", "lat": 38.882988166666664, "is_reserved": 0, "fusion_lat": 0.0, "bike_id": "27db4aaf80b8df8c4f48b46298fd35e8", "type": "electric_scooter", "is_disabled": 0, "fusion_lon": 0.0}, {"rental_uris": {"android": "https://dc.lft.to/lastmile_qr_scan", "ios": "https://dc.lft.to/lastmile_qr_scan"}, "lon": -76.95163233333334, "name": "4fdd812e4439753aab26278932193c9e", "lat": 38.88523566666667, "is_reserved": 0, "fusion_lat": 0.0, "bike_id": "4fdd812e4439753aab26278932193c9e", "type": "electric_bike", "is_disabled": 0, "fusion_lon": 0.0}, {"rental_uris": {"android": "https://dc.lft.to/lastmile_qr_scan", "ios": "https://dc.lft.to/lastmile_qr_scan"}, "lon": -76.94891166666666, "name": "bb695914bb9e798fd028682376916f2d", "lat": 38.895325166666666, "is_reserved": 0, "fusion_lat": 0.0, "bike_id": "bb695914bb9e798fd028682376916f2d", "type": "electric_scooter", "is_disabled": 0, "fusion_lon": 0.0}, {"rental_uris": {"android": "https://dc.lft.to/lastmile_qr_scan", "ios": "https://dc.lft.to/lastmile_qr_scan"}, "lon": -76.99001766666666, "name": "9fa210b095b5423d9405822f4cd56612", "lat": 38.865073833333334, "is_reserved": 0, "fusion_lat": 0.0, "bike_id": "9fa210b095b5423d9405822f4cd56612", "type": "electric_scooter", "is_disabled": 0, "fusion_lon": 0.0}, {"rental_uris": {"android": "https://dc.lft.to/lastmile_qr_scan", "ios": "https://dc.lft.to/lastmile_qr_scan"}, "lon": -77.02428833333333, "name": "8cbf2f229264692321aa93a9aa7d59a8", "lat": 38.9204865, "is_reserved": 0, "fusion_lat": 0.0, "bike_id": "8cbf2f229264692321aa93a9aa7d59a8", "type": "electric_scooter", "is_disabled": 0, "fusion_lon": 0.0}, {"rental_uris": {"android": "https://dc.lft.to/lastmile_qr_scan", "ios": "https://dc.lft.to/lastmile_qr_scan"}, "lon": -77.02182783333333, "name": "d8b46973394d0ca591cdb8222ae1beca", "lat": 38.915692666666665, "is_reserved": 0, "fusion_lat": 0.0, "bike_id": "d8b46973394d0ca591cdb8222ae1beca", "type": "electric_scooter", "is_disabled": 0, "fusion_lon": 0.0}, {"rental_uris": {"android": "https://dc.lft.to/lastmile_qr_scan", "ios": "https://dc.lft.to/lastmile_qr_scan"}, "lon": -76.98824266666666, "name": "cf96f33461a72228fb110999e5a0a1a7", "lat": 38.900330833333335, "is_reserved": 0, "fusion_lat": 0.0, "bike_id": "cf96f33461a72228fb110999e5a0a1a7", "type": "electric_scooter", "is_disabled": 0, "fusion_lon": 0.0}, {"rental_uris": {"android": "https://dc.lft.to/lastmile_qr_scan", "ios": "https://dc.lft.to/lastmile_qr_scan"}, "lon": -77.03203833333333, "name": "2c6e0bda1c702ca567a81a898e187311", "lat": 38.9037245, "is_reserved": 0, "fusion_lat": 0.0, "bike_id": "2c6e0bda1c702ca567a81a898e187311", "type": "electric_scooter", "is_disabled": 0, "fusion_lon": 0.0}, {"rental_uris": {"android": "https://dc.lft.to/lastmile_qr_scan", "ios": "https://dc.lft.to/lastmile_qr_scan"}, "lon": -77.04162866666667, "name": "78e738f2607e41804c242af84f897853", "lat": 38.892365166666664, "is_reserved": 0, "fusion_lat": 0.0, "bike_id": "78e738f2607e41804c242af84f897853", "type": "electric_scooter", "is_disabled": 0, "fusion_lon": 0.0}, {"rental_uris": {"android": "https://dc.lft.to/lastmile_qr_scan", "ios": "https://dc.lft.to/lastmile_qr_scan"}, "lon": -77.03278, "name": "7422667f9b2505b575c5e31d6f76d3f6", "lat": 38.93690683333333, "is_reserved": 0, "fusion_lat": 0.0, "bike_id": "7422667f9b2505b575c5e31d6f76d3f6", "type": "electric_scooter", "is_disabled": 0, "fusion_lon": 0.0}, {"rental_uris": {"android": "https://dc.lft.to/lastmile_qr_scan", "ios": "https://dc.lft.to/lastmile_qr_scan"}, "lon": -77.04705116666666, "name": "405c8f3218f28de1e38d0bab28d13393", "lat": 38.92104916666667, "is_reserved": 0, "fusion_lat": 0.0, "bike_id": "405c8f3218f28de1e38d0bab28d13393", "type": "electric_scooter", "is_disabled": 0, "fusion_lon": 0.0}, {"rental_uris": {"android": "https://dc.lft.to/lastmile_qr_scan", "ios": "https://dc.lft.to/lastmile_qr_scan"}, "lon": -77.034431, "name": "d7ffcbd0bbaf9d0d8caeb15b4d0e6aea", "lat": 38.90945966666666, "is_reserved": 0, "fusion_lat": 0.0, "bike_id": "d7ffcbd0bbaf9d0d8caeb15b4d0e6aea", "type": "electric_scooter", "is_disabled": 0, "fusion_lon": 0.0}, {"rental_uris": {"android": "https://dc.lft.to/lastmile_qr_scan", "ios": "https://dc.lft.to/lastmile_qr_scan"}, "lon": -77.0126855, "name": "afbdaf63ad859e06d1a420cf88569e36", "lat": 38.864619166666664, "is_reserved": 0, "fusion_lat": 0.0, "bike_id": "afbdaf63ad859e06d1a420cf88569e36", "type": "electric_bike", "is_disabled": 0, "fusion_lon": 0.0}, {"rental_uris": {"android": "https://dc.lft.to/lastmile_qr_scan", "ios": "https://dc.lft.to/lastmile_qr_scan"}, "lon": -77.03636083333333, "name": "6e949afa2dacf165dbf5626b6f4e708f", "lat": 38.91614033333333, "is_reserved": 0, "fusion_lat": 0.0, "bike_id": "6e949afa2dacf165dbf5626b6f4e708f", "type": "electric_scooter", "is_disabled": 0, "fusion_lon": 0.0}, {"rental_uris": {"android": "https://dc.lft.to/lastmile_qr_scan", "ios": "https://dc.lft.to/lastmile_qr_scan"}, "lon": -77.0434215, "name": "faa65b3e3f8dfb05865695515e5bea15", "lat": 38.90874133333333, "is_reserved": 0, "fusion_lat": 0.0, "bike_id": "faa65b3e3f8dfb05865695515e5bea15", "type": "electric_scooter", "is_disabled": 0, "fusion_lon": 0.0}, {"rental_uris": {"android": "https://dc.lft.to/lastmile_qr_scan", "ios": "https://dc.lft.to/lastmile_qr_scan"}, "lon": -77.02150033333334, "name": "00035479f0079b3619071446df0c0875", "lat": 38.94134533333333, "is_reserved": 0, "fusion_lat": 0.0, "bike_id": "00035479f0079b3619071446df0c0875", "type": "electric_scooter", "is_disabled": 0, "fusion_lon": 0.0}, {"rental_uris": {"android": "https://dc.lft.to/lastmile_qr_scan", "ios": "https://dc.lft.to/lastmile_qr_scan"}, "lon": -77.06836483333333, "name": "0fe4e4c8b9f17fc812f6a1d1d66fb4aa", "lat": 38.91727066666667, "is_reserved": 0, "fusion_lat": 0.0, "bike_id": "0fe4e4c8b9f17fc812f6a1d1d66fb4aa", "type": "electric_scooter", "is_disabled": 0, "fusion_lon": 0.0}, {"rental_uris": {"android": "https://dc.lft.to/lastmile_qr_scan", "ios": "https://dc.lft.to/lastmile_qr_scan"}, "lon": -77.00754833333333, "name": "2e76b3446cd2734bb73d509ea19efcd7", "lat": 38.997852, "is_reserved": 0, "fusion_lat": 0.0, "bike_id": "2e76b3446cd2734bb73d509ea19efcd7", "type": "electric_bike", "is_disabled": 0, "fusion_lon": 0.0}, {"rental_uris": {"android": "https://dc.lft.to/lastmile_qr_scan", "ios": "https://dc.lft.to/lastmile_qr_scan"}, "lon": -77.02686916666667, "name": "16880a1b1fc42a284ffb410858592b7c", "lat": 38.918424, "is_reserved": 0, "fusion_lat": 0.0, "bike_id": "16880a1b1fc42a284ffb410858592b7c", "type": "electric_scooter", "is_disabled": 0, "fusion_lon": 0.0}, {"rental_uris": {"android": "https://dc.lft.to/lastmile_qr_scan", "ios": "https://dc.lft.to/lastmile_qr_scan"}, "lon": -76.98378666666666, "name": "6084fc8b346871365b479fce520f99dd", "lat": 38.9150745, "is_reserved": 0, "fusion_lat": 0.0, "bike_id": "6084fc8b346871365b479fce520f99dd", "type": "electric_scooter", "is_disabled": 0, "fusion_lon": 0.0}, {"rental_uris": {"android": "https://dc.lft.to/lastmile_qr_scan", "ios": "https://dc.lft.to/lastmile_qr_scan"}, "lon": -77.0058935, "name": "d4fd5c75300bf1152dbcd6a38c234026", "lat": 38.875835333333335, "is_reserved": 0, "fusion_lat": 0.0, "bike_id": "d4fd5c75300bf1152dbcd6a38c234026", "type": "electric_scooter", "is_disabled": 0, "fusion_lon": 0.0}, {"rental_uris": {"android": "https://dc.lft.to/lastmile_qr_scan", "ios": "https://dc.lft.to/lastmile_qr_scan"}, "lon": -77.03262983333333, "name": "4260a492bb27701165004cb1a8c8e1ad", "lat": 38.93882883333333, "is_reserved": 0, "fusion_lat": 0.0, "bike_id": "4260a492bb27701165004cb1a8c8e1ad", "type": "electric_scooter", "is_disabled": 0, "fusion_lon": 0.0}, {"rental_uris": {"android": "https://dc.lft.to/lastmile_qr_scan", "ios": "https://dc.lft.to/lastmile_qr_scan"}, "lon": -77.02949866666667, "name": "8f4d144d56aceb139a873c90b7279124", "lat": 38.916965166666664, "is_reserved": 0, "fusion_lat": 0.0, "bike_id": "8f4d144d56aceb139a873c90b7279124", "type": "electric_scooter", "is_disabled": 0, "fusion_lon": 0.0}, {"rental_uris": {"android": "https://dc.lft.to/lastmile_qr_scan", "ios": "https://dc.lft.to/lastmile_qr_scan"}, "lon": -77.04636883333333, "name": "8000c98f9ecb228a4f639c3b1d29fec9", "lat": 38.91806183333333, "is_reserved": 0, "fusion_lat": 0.0, "bike_id": "8000c98f9ecb228a4f639c3b1d29fec9", "type": "electric_scooter", "is_disabled": 0, "fusion_lon": 0.0}, {"rental_uris": {"android": "https://dc.lft.to/lastmile_qr_scan", "ios": "https://dc.lft.to/lastmile_qr_scan"}, "lon": -77.023537, "name": "53fe1dcf2bf12677b33281de9e0c79fa", "lat": 38.9300075, "is_reserved": 0, "fusion_lat": 0.0, "bike_id": "53fe1dcf2bf12677b33281de9e0c79fa", "type": "electric_scooter", "is_disabled": 0, "fusion_lon": 0.0}, {"rental_uris": {"android": "https://dc.lft.to/lastmile_qr_scan", "ios": "https://dc.lft.to/lastmile_qr_scan"}, "lon": -77.046923, "name": "4667056066e17f6c7a4c04b424bf00fd", "lat": 38.892209, "is_reserved": 0, "fusion_lat": 0.0, "bike_id": "4667056066e17f6c7a4c04b424bf00fd", "type": "electric_scooter", "is_disabled": 0, "fusion_lon": 0.0}, {"rental_uris": {"android": "https://dc.lft.to/lastmile_qr_scan", "ios": "https://dc.lft.to/lastmile_qr_scan"}, "lon": -77.03443783333333, "name": "7ebc775d2a167ff29a9390784edd3cc0", "lat": 38.909828166666664, "is_reserved": 0, "fusion_lat": 0.0, "bike_id": "7ebc775d2a167ff29a9390784edd3cc0", "type": "electric_scooter", "is_disabled": 0, "fusion_lon": 0.0}, {"rental_uris": {"android": "https://dc.lft.to/lastmile_qr_scan", "ios": "https://dc.lft.to/lastmile_qr_scan"}, "lon": -77.011315, "name": "055c4946e7f76fda2dfd4c1007c9bd2c", "lat": 38.900151, "is_reserved": 0, "fusion_lat": 0.0, "bike_id": "055c4946e7f76fda2dfd4c1007c9bd2c", "type": "electric_scooter", "is_disabled": 0, "fusion_lon": 0.0}, {"rental_uris": {"android": "https://dc.lft.to/lastmile_qr_scan", "ios": "https://dc.lft.to/lastmile_qr_scan"}, "lon": -76.9425405, "name": "ded5b580b2193a06caf66851b282bcdc", "lat": 38.8984885, "is_reserved": 0, "fusion_lat": 0.0, "bike_id": "ded5b580b2193a06caf66851b282bcdc", "type": "electric_scooter", "is_disabled": 0, "fusion_lon": 0.0}, {"rental_uris": {"android": "https://dc.lft.to/lastmile_qr_scan", "ios": "https://dc.lft.to/lastmile_qr_scan"}, "lon": -77.00069633333334, "name": "2a08109df16d8e7b54f2e9cb8b0ccb5c", "lat": 38.88678183333333, "is_reserved": 0, "fusion_lat": 0.0, "bike_id": "2a08109df16d8e7b54f2e9cb8b0ccb5c", "type": "electric_scooter", "is_disabled": 0, "fusion_lon": 0.0}, {"rental_uris": {"android": "https://dc.lft.to/lastmile_qr_scan", "ios": "https://dc.lft.to/lastmile_qr_scan"}, "lon": -77.00238933333333, "name": "938be87d1dcc93b8ed79bd5f939ea507", "lat": 38.87647966666667, "is_reserved": 0, "fusion_lat": 0.0, "bike_id": "938be87d1dcc93b8ed79bd5f939ea507", "type": "electric_scooter", "is_disabled": 0, "fusion_lon": 0.0}, {"rental_uris": {"android": "https://dc.lft.to/lastmile_qr_scan", "ios": "https://dc.lft.to/lastmile_qr_scan"}, "lon": -77.03427366666666, "name": "17f4dcbc46fde4b9980f46897c07cc4a", "lat": 38.91914716666667, "is_reserved": 0, "fusion_lat": 0.0, "bike_id": "17f4dcbc46fde4b9980f46897c07cc4a", "type": "electric_scooter", "is_disabled": 0, "fusion_lon": 0.0}, {"rental_uris": {"android": "https://dc.lft.to/lastmile_qr_scan", "ios": "https://dc.lft.to/lastmile_qr_scan"}, "lon": -77.00048166666667, "name": "6f0b0953115b7079f9bbcd1337d5b01a", "lat": 38.918997166666664, "is_reserved": 0, "fusion_lat": 0.0, "bike_id": "6f0b0953115b7079f9bbcd1337d5b01a", "type": "electric_scooter", "is_disabled": 0, "fusion_lon": 0.0}, {"rental_uris": {"android": "https://dc.lft.to/lastmile_qr_scan", "ios": "https://dc.lft.to/lastmile_qr_scan"}, "lon": -77.0148, "name": "1870cbdc55683a0cc14cef9112fcc337", "lat": 38.91926483333334, "is_reserved": 0, "fusion_lat": 0.0, "bike_id": "1870cbdc55683a0cc14cef9112fcc337", "type": "electric_scooter", "is_disabled": 0, "fusion_lon": 0.0}, {"rental_uris": {"android": "https://dc.lft.to/lastmile_qr_scan", "ios": "https://dc.lft.to/lastmile_qr_scan"}, "lon": -77.00883366666666, "name": "01af2f39b335b2880fa0fc19701116f8", "lat": 38.87672966666667, "is_reserved": 0, "fusion_lat": 0.0, "bike_id": "01af2f39b335b2880fa0fc19701116f8", "type": "electric_scooter", "is_disabled": 0, "fusion_lon": 0.0}, {"rental_uris": {"android": "https://dc.lft.to/lastmile_qr_scan", "ios": "https://dc.lft.to/lastmile_qr_scan"}, "lon": -76.99696483333334, "name": "c3eb43998cee9612e6f0bb0083b733f0", "lat": 38.88422216666667, "is_reserved": 0, "fusion_lat": 0.0, "bike_id": "c3eb43998cee9612e6f0bb0083b733f0", "type": "electric_scooter", "is_disabled": 0, "fusion_lon": 0.0}, {"rental_uris": {"android": "https://dc.lft.to/lastmile_qr_scan", "ios": "https://dc.lft.to/lastmile_qr_scan"}, "lon": -76.99512183333333, "name": "9b63df72a53d517caa82042efeba3a62", "lat": 38.82176583333333, "is_reserved": 0, "fusion_lat": 0.0, "bike_id": "9b63df72a53d517caa82042efeba3a62", "type": "electric_bike", "is_disabled": 0, "fusion_lon": 0.0}, {"rental_uris": {"android": "https://dc.lft.to/lastmile_qr_scan", "ios": "https://dc.lft.to/lastmile_qr_scan"}, "lon": -77.04461583333334, "name": "38bdb9e495c27dbb446cbf338c4e0e1d", "lat": 38.902755666666664, "is_reserved": 0, "fusion_lat": 0.0, "bike_id": "38bdb9e495c27dbb446cbf338c4e0e1d", "type": "electric_scooter", "is_disabled": 0, "fusion_lon": 0.0}, {"rental_uris": {"android": "https://dc.lft.to/lastmile_qr_scan", "ios": "https://dc.lft.to/lastmile_qr_scan"}, "lon": -77.10787783333333, "name": "22c0e543c1510cfb6d0bbc953845e305", "lat": 38.852463, "is_reserved": 0, "fusion_lat": 0.0, "bike_id": "22c0e543c1510cfb6d0bbc953845e305", "type": "electric_bike", "is_disabled": 0, "fusion_lon": 0.0}, {"rental_uris": {"android": "https://dc.lft.to/lastmile_qr_scan", "ios": "https://dc.lft.to/lastmile_qr_scan"}, "lon": -77.031955, "name": "e616b4d34ceb286fd379c18e43b53f5e", "lat": 38.9214845, "is_reserved": 0, "fusion_lat": 0.0, "bike_id": "e616b4d34ceb286fd379c18e43b53f5e", "type": "electric_scooter", "is_disabled": 0, "fusion_lon": 0.0}, {"rental_uris": {"android": "https://dc.lft.to/lastmile_qr_scan", "ios": "https://dc.lft.to/lastmile_qr_scan"}, "lon": -77.00927716666666, "name": "82a1a2dface128eb77a3907bc4b39c57", "lat": 38.90746083333333, "is_reserved": 0, "fusion_lat": 0.0, "bike_id": "82a1a2dface128eb77a3907bc4b39c57", "type": "electric_scooter", "is_disabled": 0, "fusion_lon": 0.0}, {"rental_uris": {"android": "https://dc.lft.to/lastmile_qr_scan", "ios": "https://dc.lft.to/lastmile_qr_scan"}, "lon": -77.03695166666667, "name": "fcd892c864546bf1d38b9bd0604d8cff", "lat": 38.918090666666664, "is_reserved": 0, "fusion_lat": 0.0, "bike_id": "fcd892c864546bf1d38b9bd0604d8cff", "type": "electric_scooter", "is_disabled": 0, "fusion_lon": 0.0}, {"rental_uris": {"android": "https://dc.lft.to/lastmile_qr_scan", "ios": "https://dc.lft.to/lastmile_qr_scan"}, "lon": -77.020766, "name": "3c8ca1e3a2d1c9e8c7b328696b0c3c6c", "lat": 38.92150916666667, "is_reserved": 0, "fusion_lat": 0.0, "bike_id": "3c8ca1e3a2d1c9e8c7b328696b0c3c6c", "type": "electric_scooter", "is_disabled": 0, "fusion_lon": 0.0}, {"rental_uris": {"android": "https://dc.lft.to/lastmile_qr_scan", "ios": "https://dc.lft.to/lastmile_qr_scan"}, "lon": -76.997266, "name": "5bd42dd1691ce04a34a77678ccd16ef6", "lat": 38.899448166666666, "is_reserved": 0, "fusion_lat": 0.0, "bike_id": "5bd42dd1691ce04a34a77678ccd16ef6", "type": "electric_scooter", "is_disabled": 0, "fusion_lon": 0.0}, {"rental_uris": {"android": "https://dc.lft.to/lastmile_qr_scan", "ios": "https://dc.lft.to/lastmile_qr_scan"}, "lon": -77.02525016666667, "name": "f2a5f3e8b80288d574debbe7d9b23082", "lat": 38.92491916666667, "is_reserved": 0, "fusion_lat": 0.0, "bike_id": "f2a5f3e8b80288d574debbe7d9b23082", "type": "electric_scooter", "is_disabled": 0, "fusion_lon": 0.0}, {"rental_uris": {"android": "https://dc.lft.to/lastmile_qr_scan", "ios": "https://dc.lft.to/lastmile_qr_scan"}, "lon": -77.08152383333334, "name": "8797f6dc1f4518fdb1a845aff7a34bc5", "lat": 38.93484, "is_reserved": 0, "fusion_lat": 0.0, "bike_id": "8797f6dc1f4518fdb1a845aff7a34bc5", "type": "electric_scooter", "is_disabled": 0, "fusion_lon": 0.0}, {"rental_uris": {"android": "https://dc.lft.to/lastmile_qr_scan", "ios": "https://dc.lft.to/lastmile_qr_scan"}, "lon": -76.9913045, "name": "38d0aa4639b6221e3904fadc97574d08", "lat": 38.846421666666664, "is_reserved": 0, "fusion_lat": 0.0, "bike_id": "38d0aa4639b6221e3904fadc97574d08", "type": "electric_scooter", "is_disabled": 0, "fusion_lon": 0.0}, {"rental_uris": {"android": "https://dc.lft.to/lastmile_qr_scan", "ios": "https://dc.lft.to/lastmile_qr_scan"}, "lon": -77.02367283333334, "name": "4fcc782e0ec1da66c673aa2d883fac29", "lat": 38.91992783333333, "is_reserved": 0, "fusion_lat": 0.0, "bike_id": "4fcc782e0ec1da66c673aa2d883fac29", "type": "electric_scooter", "is_disabled": 0, "fusion_lon": 0.0}, {"rental_uris": {"android": "https://dc.lft.to/lastmile_qr_scan", "ios": "https://dc.lft.to/lastmile_qr_scan"}, "lon": -77.0255685, "name": "e1d366760af8cf230c0e8eee51a4fe1b", "lat": 38.9416665, "is_reserved": 0, "fusion_lat": 0.0, "bike_id": "e1d366760af8cf230c0e8eee51a4fe1b", "type": "electric_scooter", "is_disabled": 0, "fusion_lon": 0.0}, {"rental_uris": {"android": "https://dc.lft.to/lastmile_qr_scan", "ios": "https://dc.lft.to/lastmile_qr_scan"}, "lon": -77.02635066666667, "name": "2efcab7335fd7b7fbb844e04b473e0b1", "lat": 38.881067333333334, "is_reserved": 0, "fusion_lat": 0.0, "bike_id": "2efcab7335fd7b7fbb844e04b473e0b1", "type": "electric_scooter", "is_disabled": 0, "fusion_lon": 0.0}, {"rental_uris": {"android": "https://dc.lft.to/lastmile_qr_scan", "ios": "https://dc.lft.to/lastmile_qr_scan"}, "lon": -76.985442, "name": "597532bd934013f61d0993456a410d86", "lat": 38.86689533333333, "is_reserved": 0, "fusion_lat": 0.0, "bike_id": "597532bd934013f61d0993456a410d86", "type": "electric_scooter", "is_disabled": 0, "fusion_lon": 0.0}, {"rental_uris": {"android": "https://dc.lft.to/lastmile_qr_scan", "ios": "https://dc.lft.to/lastmile_qr_scan"}, "lon": -76.94629116666667, "name": "f33043c33e85d8bfb167c7520e81b0bd", "lat": 38.898317, "is_reserved": 0, "fusion_lat": 0.0, "bike_id": "f33043c33e85d8bfb167c7520e81b0bd", "type": "electric_scooter", "is_disabled": 0, "fusion_lon": 0.0}, {"rental_uris": {"android": "https://dc.lft.to/lastmile_qr_scan", "ios": "https://dc.lft.to/lastmile_qr_scan"}, "lon": -77.0249195, "name": "6b22dfa203f95250f09ae1c4035306cc", "lat": 38.90721716666667, "is_reserved": 0, "fusion_lat": 0.0, "bike_id": "6b22dfa203f95250f09ae1c4035306cc", "type": "electric_scooter", "is_disabled": 0, "fusion_lon": 0.0}, {"rental_uris": {"android": "https://dc.lft.to/lastmile_qr_scan", "ios": "https://dc.lft.to/lastmile_qr_scan"}, "lon": -77.01642083333333, "name": "6d40ed8d90299fe74a65a097eefee816", "lat": 38.881159333333336, "is_reserved": 0, "fusion_lat": 0.0, "bike_id": "6d40ed8d90299fe74a65a097eefee816", "type": "electric_scooter", "is_disabled": 0, "fusion_lon": 0.0}, {"rental_uris": {"android": "https://dc.lft.to/lastmile_qr_scan", "ios": "https://dc.lft.to/lastmile_qr_scan"}, "lon": -77.03125716666666, "name": "1fc7155e4cfe0c5756625f51af9d1299", "lat": 38.92964583333333, "is_reserved": 0, "fusion_lat": 0.0, "bike_id": "1fc7155e4cfe0c5756625f51af9d1299", "type": "electric_scooter", "is_disabled": 0, "fusion_lon": 0.0}, {"rental_uris": {"android": "https://dc.lft.to/lastmile_qr_scan", "ios": "https://dc.lft.to/lastmile_qr_scan"}, "lon": -77.03093683333333, "name": "117f6ad3def4836a99d4cdc926e4c664", "lat": 38.935415, "is_reserved": 0, "fusion_lat": 0.0, "bike_id": "117f6ad3def4836a99d4cdc926e4c664", "type": "electric_scooter", "is_disabled": 0, "fusion_lon": 0.0}, {"rental_uris": {"android": "https://dc.lft.to/lastmile_qr_scan", "ios": "https://dc.lft.to/lastmile_qr_scan"}, "lon": -77.0191365, "name": "7c520fde9659b1c344c78a8eff65b521", "lat": 38.93776483333333, "is_reserved": 0, "fusion_lat": 0.0, "bike_id": "7c520fde9659b1c344c78a8eff65b521", "type": "electric_bike", "is_disabled": 0, "fusion_lon": 0.0}, {"rental_uris": {"android": "https://dc.lft.to/lastmile_qr_scan", "ios": "https://dc.lft.to/lastmile_qr_scan"}, "lon": -76.99763583333333, "name": "237750c275561242938db9e470f0d9b2", "lat": 38.90891883333333, "is_reserved": 0, "fusion_lat": 0.0, "bike_id": "237750c275561242938db9e470f0d9b2", "type": "electric_scooter", "is_disabled": 0, "fusion_lon": 0.0}, {"rental_uris": {"android": "https://dc.lft.to/lastmile_qr_scan", "ios": "https://dc.lft.to/lastmile_qr_scan"}, "lon": -77.04504716666666, "name": "c9395bb5e308da09ef15fe44f230f1b8", "lat": 38.91110783333333, "is_reserved": 0, "fusion_lat": 0.0, "bike_id": "c9395bb5e308da09ef15fe44f230f1b8", "type": "electric_scooter", "is_disabled": 0, "fusion_lon": 0.0}, {"rental_uris": {"android": "https://dc.lft.to/lastmile_qr_scan", "ios": "https://dc.lft.to/lastmile_qr_scan"}, "lon": -76.99407866666667, "name": "3887102b022a2fc053455671b9f145da", "lat": 38.921721833333336, "is_reserved": 0, "fusion_lat": 0.0, "bike_id": "3887102b022a2fc053455671b9f145da", "type": "electric_bike", "is_disabled": 0, "fusion_lon": 0.0}, {"rental_uris": {"android": "https://dc.lft.to/lastmile_qr_scan", "ios": "https://dc.lft.to/lastmile_qr_scan"}, "lon": -77.02706583333334, "name": "a7284a2f82e279fdc7c32771ea366086", "lat": 38.903513833333335, "is_reserved": 0, "fusion_lat": 0.0, "bike_id": "a7284a2f82e279fdc7c32771ea366086", "type": "electric_scooter", "is_disabled": 0, "fusion_lon": 0.0}, {"rental_uris": {"android": "https://dc.lft.to/lastmile_qr_scan", "ios": "https://dc.lft.to/lastmile_qr_scan"}, "lon": -76.9853205, "name": "a7c63c67a63550efa55b84050393b031", "lat": 38.9041625, "is_reserved": 0, "fusion_lat": 0.0, "bike_id": "a7c63c67a63550efa55b84050393b031", "type": "electric_scooter", "is_disabled": 0, "fusion_lon": 0.0}, {"rental_uris": {"android": "https://dc.lft.to/lastmile_qr_scan", "ios": "https://dc.lft.to/lastmile_qr_scan"}, "lon": -77.02217683333333, "name": "19f4ef7163d7cccfd0c06b66313a45ea", "lat": 38.9015755, "is_reserved": 0, "fusion_lat": 0.0, "bike_id": "19f4ef7163d7cccfd0c06b66313a45ea", "type": "electric_scooter", "is_disabled": 0, "fusion_lon": 0.0}, {"rental_uris": {"android": "https://dc.lft.to/lastmile_qr_scan", "ios": "https://dc.lft.to/lastmile_qr_scan"}, "lon": -77.0323195, "name": "45187e3961a2f9abe4423a181ae8a4f7", "lat": 38.93712633333333, "is_reserved": 0, "fusion_lat": 0.0, "bike_id": "45187e3961a2f9abe4423a181ae8a4f7", "type": "electric_scooter", "is_disabled": 0, "fusion_lon": 0.0}, {"rental_uris": {"android": "https://dc.lft.to/lastmile_qr_scan", "ios": "https://dc.lft.to/lastmile_qr_scan"}, "lon": -77.0326035, "name": "4c98f7d53bdf99b4c1bcec783656de19", "lat": 38.93215133333333, "is_reserved": 0, "fusion_lat": 0.0, "bike_id": "4c98f7d53bdf99b4c1bcec783656de19", "type": "electric_scooter", "is_disabled": 0, "fusion_lon": 0.0}, {"rental_uris": {"android": "https://dc.lft.to/lastmile_qr_scan", "ios": "https://dc.lft.to/lastmile_qr_scan"}, "lon": -77.041571, "name": "4dbcf5ad1bcfa9746a861de8173d0f95", "lat": 38.908407833333335, "is_reserved": 0, "fusion_lat": 0.0, "bike_id": "4dbcf5ad1bcfa9746a861de8173d0f95", "type": "electric_scooter", "is_disabled": 0, "fusion_lon": 0.0}, {"rental_uris": {"android": "https://dc.lft.to/lastmile_qr_scan", "ios": "https://dc.lft.to/lastmile_qr_scan"}, "lon": -76.990041, "name": "1cd816d8199652af2b9ac8a9f1b477c8", "lat": 38.8650685, "is_reserved": 0, "fusion_lat": 0.0, "bike_id": "1cd816d8199652af2b9ac8a9f1b477c8", "type": "electric_scooter", "is_disabled": 0, "fusion_lon": 0.0}, {"rental_uris": {"android": "https://dc.lft.to/lastmile_qr_scan", "ios": "https://dc.lft.to/lastmile_qr_scan"}, "lon": -77.03326516666667, "name": "b06ba6f922b2f6e98e2f52cf29a1c2e4", "lat": 38.96134766666667, "is_reserved": 0, "fusion_lat": 0.0, "bike_id": "b06ba6f922b2f6e98e2f52cf29a1c2e4", "type": "electric_bike", "is_disabled": 0, "fusion_lon": 0.0}, {"rental_uris": {"android": "https://dc.lft.to/lastmile_qr_scan", "ios": "https://dc.lft.to/lastmile_qr_scan"}, "lon": -77.0421285, "name": "e0ceaaa91a576685bc473c840734f70f", "lat": 38.921585, "is_reserved": 0, "fusion_lat": 0.0, "bike_id": "e0ceaaa91a576685bc473c840734f70f", "type": "electric_scooter", "is_disabled": 0, "fusion_lon": 0.0}, {"rental_uris": {"android": "https://dc.lft.to/lastmile_qr_scan", "ios": "https://dc.lft.to/lastmile_qr_scan"}, "lon": -76.9827775, "name": "ef5054bf2d80f050b8b1ec4ebcdc5e73", "lat": 38.908503, "is_reserved": 0, "fusion_lat": 0.0, "bike_id": "ef5054bf2d80f050b8b1ec4ebcdc5e73", "type": "electric_bike", "is_disabled": 0, "fusion_lon": 0.0}, {"rental_uris": {"android": "https://dc.lft.to/lastmile_qr_scan", "ios": "https://dc.lft.to/lastmile_qr_scan"}, "lon": -76.97469916666667, "name": "98cbd1f6520d9e418a52eb9db97e17bb", "lat": 38.863743, "is_reserved": 0, "fusion_lat": 0.0, "bike_id": "98cbd1f6520d9e418a52eb9db97e17bb", "type": "electric_bike", "is_disabled": 0, "fusion_lon": 0.0}, {"rental_uris": {"android": "https://dc.lft.to/lastmile_qr_scan", "ios": "https://dc.lft.to/lastmile_qr_scan"}, "lon": -77.02806283333334, "name": "d4f06ee7d98e0e714d70557b5b3c82bd", "lat": 38.917525833333336, "is_reserved": 0, "fusion_lat": 0.0, "bike_id": "d4f06ee7d98e0e714d70557b5b3c82bd", "type": "electric_scooter", "is_disabled": 0, "fusion_lon": 0.0}, {"rental_uris": {"android": "https://dc.lft.to/lastmile_qr_scan", "ios": "https://dc.lft.to/lastmile_qr_scan"}, "lon": -77.01977933333333, "name": "ce4690ebaee1dd0befa9359f06e3f73c", "lat": 38.89899183333333, "is_reserved": 0, "fusion_lat": 0.0, "bike_id": "ce4690ebaee1dd0befa9359f06e3f73c", "type": "electric_scooter", "is_disabled": 0, "fusion_lon": 0.0}, {"rental_uris": {"android": "https://dc.lft.to/lastmile_qr_scan", "ios": "https://dc.lft.to/lastmile_qr_scan"}, "lon": -77.01823283333333, "name": "00a0ff7b3c115758cf93e1d55eca79f5", "lat": 38.922737, "is_reserved": 0, "fusion_lat": 0.0, "bike_id": "00a0ff7b3c115758cf93e1d55eca79f5", "type": "electric_scooter", "is_disabled": 0, "fusion_lon": 0.0}, {"rental_uris": {"android": "https://dc.lft.to/lastmile_qr_scan", "ios": "https://dc.lft.to/lastmile_qr_scan"}, "lon": -76.98861033333333, "name": "494937d670fff42a6a830728def5cf8f", "lat": 38.85773416666667, "is_reserved": 0, "fusion_lat": 0.0, "bike_id": "494937d670fff42a6a830728def5cf8f", "type": "electric_scooter", "is_disabled": 0, "fusion_lon": 0.0}, {"rental_uris": {"android": "https://dc.lft.to/lastmile_qr_scan", "ios": "https://dc.lft.to/lastmile_qr_scan"}, "lon": -77.03644216666666, "name": "ad05bd17f5055014ccedfc4737ff8d75", "lat": 38.9173975, "is_reserved": 0, "fusion_lat": 0.0, "bike_id": "ad05bd17f5055014ccedfc4737ff8d75", "type": "electric_scooter", "is_disabled": 0, "fusion_lon": 0.0}, {"rental_uris": {"android": "https://dc.lft.to/lastmile_qr_scan", "ios": "https://dc.lft.to/lastmile_qr_scan"}, "lon": -77.023827, "name": "87235850ee6fa2219e7bc3bc8b4207ac", "lat": 38.92053383333333, "is_reserved": 0, "fusion_lat": 0.0, "bike_id": "87235850ee6fa2219e7bc3bc8b4207ac", "type": "electric_scooter", "is_disabled": 0, "fusion_lon": 0.0}, {"rental_uris": {"android": "https://dc.lft.to/lastmile_qr_scan", "ios": "https://dc.lft.to/lastmile_qr_scan"}, "lon": -77.032815, "name": "0324217e49bdf56558190a8afb620454", "lat": 38.948167166666664, "is_reserved": 0, "fusion_lat": 0.0, "bike_id": "0324217e49bdf56558190a8afb620454", "type": "electric_scooter", "is_disabled": 0, "fusion_lon": 0.0}, {"rental_uris": {"android": "https://dc.lft.to/lastmile_qr_scan", "ios": "https://dc.lft.to/lastmile_qr_scan"}, "lon": -76.99803933333334, "name": "e7c1e67bcd67e1104d1ae77994a2e386", "lat": 38.901392333333334, "is_reserved": 0, "fusion_lat": 0.0, "bike_id": "e7c1e67bcd67e1104d1ae77994a2e386", "type": "electric_scooter", "is_disabled": 0, "fusion_lon": 0.0}, {"rental_uris": {"android": "https://dc.lft.to/lastmile_qr_scan", "ios": "https://dc.lft.to/lastmile_qr_scan"}, "lon": -76.958878, "name": "cae0b60e9f57f8f67818131f4654a91d", "lat": 38.8818785, "is_reserved": 0, "fusion_lat": 0.0, "bike_id": "cae0b60e9f57f8f67818131f4654a91d", "type": "electric_scooter", "is_disabled": 0, "fusion_lon": 0.0}, {"rental_uris": {"android": "https://dc.lft.to/lastmile_qr_scan", "ios": "https://dc.lft.to/lastmile_qr_scan"}, "lon": -77.00124716666667, "name": "4d676bda1cf5f5d053d7d6ce3d93ed95", "lat": 38.90560633333333, "is_reserved": 0, "fusion_lat": 0.0, "bike_id": "4d676bda1cf5f5d053d7d6ce3d93ed95", "type": "electric_scooter", "is_disabled": 0, "fusion_lon": 0.0}, {"rental_uris": {"android": "https://dc.lft.to/lastmile_qr_scan", "ios": "https://dc.lft.to/lastmile_qr_scan"}, "lon": -77.02415533333334, "name": "fc2c7e09c8da48acf2e4632f8b293ca0", "lat": 38.92089166666667, "is_reserved": 0, "fusion_lat": 0.0, "bike_id": "fc2c7e09c8da48acf2e4632f8b293ca0", "type": "electric_scooter", "is_disabled": 0, "fusion_lon": 0.0}, {"rental_uris": {"android": "https://dc.lft.to/lastmile_qr_scan", "ios": "https://dc.lft.to/lastmile_qr_scan"}, "lon": -77.05001566666667, "name": "f7ca9f87a887b8c8e41a3cc40dc010d5", "lat": 38.8923355, "is_reserved": 0, "fusion_lat": 0.0, "bike_id": "f7ca9f87a887b8c8e41a3cc40dc010d5", "type": "electric_scooter", "is_disabled": 0, "fusion_lon": 0.0}, {"rental_uris": {"android": "https://dc.lft.to/lastmile_qr_scan", "ios": "https://dc.lft.to/lastmile_qr_scan"}, "lon": -77.04367916666666, "name": "c25db99021c65b973765151d23fbe63a", "lat": 38.904535833333334, "is_reserved": 0, "fusion_lat": 0.0, "bike_id": "c25db99021c65b973765151d23fbe63a", "type": "electric_scooter", "is_disabled": 0, "fusion_lon": 0.0}, {"rental_uris": {"android": "https://dc.lft.to/lastmile_qr_scan", "ios": "https://dc.lft.to/lastmile_qr_scan"}, "lon": -76.95585233333334, "name": "d076f4d881cb10ea5eba1377724f1ce2", "lat": 38.8861035, "is_reserved": 0, "fusion_lat": 0.0, "bike_id": "d076f4d881cb10ea5eba1377724f1ce2", "type": "electric_scooter", "is_disabled": 0, "fusion_lon": 0.0}, {"rental_uris": {"android": "https://dc.lft.to/lastmile_qr_scan", "ios": "https://dc.lft.to/lastmile_qr_scan"}, "lon": -77.000747, "name": "6eca2850f4dcf65e527f330ec02bd2d2", "lat": 38.9014275, "is_reserved": 0, "fusion_lat": 0.0, "bike_id": "6eca2850f4dcf65e527f330ec02bd2d2", "type": "electric_scooter", "is_disabled": 0, "fusion_lon": 0.0}, {"rental_uris": {"android": "https://dc.lft.to/lastmile_qr_scan", "ios": "https://dc.lft.to/lastmile_qr_scan"}, "lon": -77.02683066666667, "name": "a3ad492146af373e6051356d0d04d2cc", "lat": 38.897177666666664, "is_reserved": 0, "fusion_lat": 0.0, "bike_id": "a3ad492146af373e6051356d0d04d2cc", "type": "electric_scooter", "is_disabled": 0, "fusion_lon": 0.0}, {"rental_uris": {"android": "https://dc.lft.to/lastmile_qr_scan", "ios": "https://dc.lft.to/lastmile_qr_scan"}, "lon": -77.0448165, "name": "be35ae884b1b3f8a0459ef957f1e6db7", "lat": 38.8952565, "is_reserved": 0, "fusion_lat": 0.0, "bike_id": "be35ae884b1b3f8a0459ef957f1e6db7", "type": "electric_scooter", "is_disabled": 0, "fusion_lon": 0.0}, {"rental_uris": {"android": "https://dc.lft.to/lastmile_qr_scan", "ios": "https://dc.lft.to/lastmile_qr_scan"}, "lon": -77.04696266666667, "name": "fcc1bcfed44b637d78055cff775c6e75", "lat": 38.89224333333333, "is_reserved": 0, "fusion_lat": 0.0, "bike_id": "fcc1bcfed44b637d78055cff775c6e75", "type": "electric_scooter", "is_disabled": 0, "fusion_lon": 0.0}, {"rental_uris": {"android": "https://dc.lft.to/lastmile_qr_scan", "ios": "https://dc.lft.to/lastmile_qr_scan"}, "lon": -77.01917416666667, "name": "08159019c08b64f9ab8c2d0ccc2d20af", "lat": 38.92137, "is_reserved": 0, "fusion_lat": 0.0, "bike_id": "08159019c08b64f9ab8c2d0ccc2d20af", "type": "electric_scooter", "is_disabled": 0, "fusion_lon": 0.0}, {"rental_uris": {"android": "https://dc.lft.to/lastmile_qr_scan", "ios": "https://dc.lft.to/lastmile_qr_scan"}, "lon": -77.04305016666666, "name": "04517afce88c8aaf43a3d81d4a1b2f77", "lat": 38.93182566666667, "is_reserved": 0, "fusion_lat": 0.0, "bike_id": "04517afce88c8aaf43a3d81d4a1b2f77", "type": "electric_scooter", "is_disabled": 0, "fusion_lon": 0.0}, {"rental_uris": {"android": "https://dc.lft.to/lastmile_qr_scan", "ios": "https://dc.lft.to/lastmile_qr_scan"}, "lon": -77.03747366666667, "name": "d0754b7dff5ffb15d298f62320674d70", "lat": 38.936172666666664, "is_reserved": 0, "fusion_lat": 0.0, "bike_id": "d0754b7dff5ffb15d298f62320674d70", "type": "electric_scooter", "is_disabled": 0, "fusion_lon": 0.0}, {"rental_uris": {"android": "https://dc.lft.to/lastmile_qr_scan", "ios": "https://dc.lft.to/lastmile_qr_scan"}, "lon": -76.98725133333333, "name": "6e9f8ebbc2625bad4d1901b08bce2d28", "lat": 38.85597166666667, "is_reserved": 0, "fusion_lat": 0.0, "bike_id": "6e9f8ebbc2625bad4d1901b08bce2d28", "type": "electric_scooter", "is_disabled": 0, "fusion_lon": 0.0}, {"rental_uris": {"android": "https://dc.lft.to/lastmile_qr_scan", "ios": "https://dc.lft.to/lastmile_qr_scan"}, "lon": -77.006034, "name": "4b07b194a5a0a5f906e9761749c4da69", "lat": 38.875633, "is_reserved": 0, "fusion_lat": 0.0, "bike_id": "4b07b194a5a0a5f906e9761749c4da69", "type": "electric_scooter", "is_disabled": 0, "fusion_lon": 0.0}, {"rental_uris": {"android": "https://dc.lft.to/lastmile_qr_scan", "ios": "https://dc.lft.to/lastmile_qr_scan"}, "lon": -77.0349865, "name": "7c054fa0eaab885f86891e92adbe58f6", "lat": 38.921447666666666, "is_reserved": 0, "fusion_lat": 0.0, "bike_id": "7c054fa0eaab885f86891e92adbe58f6", "type": "electric_scooter", "is_disabled": 0, "fusion_lon": 0.0}, {"rental_uris": {"android": "https://dc.lft.to/lastmile_qr_scan", "ios": "https://dc.lft.to/lastmile_qr_scan"}, "lon": -77.0328935, "name": "769a87dc5f3429cef633876993f519ae", "lat": 38.920615833333336, "is_reserved": 0, "fusion_lat": 0.0, "bike_id": "769a87dc5f3429cef633876993f519ae", "type": "electric_scooter", "is_disabled": 0, "fusion_lon": 0.0}, {"rental_uris": {"android": "https://dc.lft.to/lastmile_qr_scan", "ios": "https://dc.lft.to/lastmile_qr_scan"}, "lon": -77.01761366666666, "name": "67bbc61b08bd112fac2bd5a9cdbe5b67", "lat": 38.9026435, "is_reserved": 0, "fusion_lat": 0.0, "bike_id": "67bbc61b08bd112fac2bd5a9cdbe5b67", "type": "electric_scooter", "is_disabled": 0, "fusion_lon": 0.0}, {"rental_uris": {"android": "https://dc.lft.to/lastmile_qr_scan", "ios": "https://dc.lft.to/lastmile_qr_scan"}, "lon": -77.02688266666667, "name": "68c3b2e43068d7f576d639d1fd2af293", "lat": 38.897140666666665, "is_reserved": 0, "fusion_lat": 0.0, "bike_id": "68c3b2e43068d7f576d639d1fd2af293", "type": "electric_scooter", "is_disabled": 0, "fusion_lon": 0.0}, {"rental_uris": {"android": "https://dc.lft.to/lastmile_qr_scan", "ios": "https://dc.lft.to/lastmile_qr_scan"}, "lon": -77.0294775, "name": "40623a6b49f2e75df4b832d01d6eb70d", "lat": 38.908807, "is_reserved": 0, "fusion_lat": 0.0, "bike_id": "40623a6b49f2e75df4b832d01d6eb70d", "type": "electric_scooter", "is_disabled": 0, "fusion_lon": 0.0}, {"rental_uris": {"android": "https://dc.lft.to/lastmile_qr_scan", "ios": "https://dc.lft.to/lastmile_qr_scan"}, "lon": -77.0137595, "name": "7f9fa813ff42b9d357f92ca66035ee14", "lat": 38.8870625, "is_reserved": 0, "fusion_lat": 0.0, "bike_id": "7f9fa813ff42b9d357f92ca66035ee14", "type": "electric_scooter", "is_disabled": 0, "fusion_lon": 0.0}, {"rental_uris": {"android": "https://dc.lft.to/lastmile_qr_scan", "ios": "https://dc.lft.to/lastmile_qr_scan"}, "lon": -77.03779683333333, "name": "22732677a21f70f7cc9284f9e317ad20", "lat": 38.93608666666667, "is_reserved": 0, "fusion_lat": 0.0, "bike_id": "22732677a21f70f7cc9284f9e317ad20", "type": "electric_scooter", "is_disabled": 0, "fusion_lon": 0.0}, {"rental_uris": {"android": "https://dc.lft.to/lastmile_qr_scan", "ios": "https://dc.lft.to/lastmile_qr_scan"}, "lon": -77.03607516666666, "name": "a4ec76968487ad1e175fad80c1a32616", "lat": 38.9315825, "is_reserved": 0, "fusion_lat": 0.0, "bike_id": "a4ec76968487ad1e175fad80c1a32616", "type": "electric_scooter", "is_disabled": 0, "fusion_lon": 0.0}, {"rental_uris": {"android": "https://dc.lft.to/lastmile_qr_scan", "ios": "https://dc.lft.to/lastmile_qr_scan"}, "lon": -77.019115, "name": "1738f1a0ddd354eed7d990969b91cbd7", "lat": 38.899730166666664, "is_reserved": 0, "fusion_lat": 0.0, "bike_id": "1738f1a0ddd354eed7d990969b91cbd7", "type": "electric_scooter", "is_disabled": 0, "fusion_lon": 0.0}, {"rental_uris": {"android": "https://dc.lft.to/lastmile_qr_scan", "ios": "https://dc.lft.to/lastmile_qr_scan"}, "lon": -77.038603, "name": "21c86ab212497adf1f7c287a1b075596", "lat": 38.907835666666664, "is_reserved": 0, "fusion_lat": 0.0, "bike_id": "21c86ab212497adf1f7c287a1b075596", "type": "electric_scooter", "is_disabled": 0, "fusion_lon": 0.0}, {"rental_uris": {"android": "https://dc.lft.to/lastmile_qr_scan", "ios": "https://dc.lft.to/lastmile_qr_scan"}, "lon": -76.98714016666666, "name": "1fd7dc45f3d38d129bd937b7953cd652", "lat": 38.86626066666667, "is_reserved": 0, "fusion_lat": 0.0, "bike_id": "1fd7dc45f3d38d129bd937b7953cd652", "type": "electric_scooter", "is_disabled": 0, "fusion_lon": 0.0}, {"rental_uris": {"android": "https://dc.lft.to/lastmile_qr_scan", "ios": "https://dc.lft.to/lastmile_qr_scan"}, "lon": -77.0015345, "name": "d77722ce630f208e63e4cab09fb539d5", "lat": 38.90751016666667, "is_reserved": 0, "fusion_lat": 0.0, "bike_id": "d77722ce630f208e63e4cab09fb539d5", "type": "electric_scooter", "is_disabled": 0, "fusion_lon": 0.0}, {"rental_uris": {"android": "https://dc.lft.to/lastmile_qr_scan", "ios": "https://dc.lft.to/lastmile_qr_scan"}, "lon": -77.0056755, "name": "d84e6c1687f932b1180876f0b4a71330", "lat": 38.91816166666667, "is_reserved": 0, "fusion_lat": 0.0, "bike_id": "d84e6c1687f932b1180876f0b4a71330", "type": "electric_scooter", "is_disabled": 0, "fusion_lon": 0.0}, {"rental_uris": {"android": "https://dc.lft.to/lastmile_qr_scan", "ios": "https://dc.lft.to/lastmile_qr_scan"}, "lon": -76.99579733333333, "name": "dd8f87beb93629ca915ee5acc5750ef4", "lat": 38.85176216666667, "is_reserved": 0, "fusion_lat": 0.0, "bike_id": "dd8f87beb93629ca915ee5acc5750ef4", "type": "electric_scooter", "is_disabled": 0, "fusion_lon": 0.0}, {"rental_uris": {"android": "https://dc.lft.to/lastmile_qr_scan", "ios": "https://dc.lft.to/lastmile_qr_scan"}, "lon": -77.017661, "name": "773dff4938b6ecbc27948504f89a3df8", "lat": 38.87902966666667, "is_reserved": 0, "fusion_lat": 0.0, "bike_id": "773dff4938b6ecbc27948504f89a3df8", "type": "electric_scooter", "is_disabled": 0, "fusion_lon": 0.0}, {"rental_uris": {"android": "https://dc.lft.to/lastmile_qr_scan", "ios": "https://dc.lft.to/lastmile_qr_scan"}, "lon": -77.00395216666666, "name": "ba42df7cf19671bb79f29c5cb2041b74", "lat": 38.905777666666665, "is_reserved": 0, "fusion_lat": 0.0, "bike_id": "ba42df7cf19671bb79f29c5cb2041b74", "type": "electric_scooter", "is_disabled": 0, "fusion_lon": 0.0}, {"rental_uris": {"android": "https://dc.lft.to/lastmile_qr_scan", "ios": "https://dc.lft.to/lastmile_qr_scan"}, "lon": -76.95412833333333, "name": "074b9f23825d26f297152e4acf38449e", "lat": 38.88437166666667, "is_reserved": 0, "fusion_lat": 0.0, "bike_id": "074b9f23825d26f297152e4acf38449e", "type": "electric_bike", "is_disabled": 0, "fusion_lon": 0.0}, {"rental_uris": {"android": "https://dc.lft.to/lastmile_qr_scan", "ios": "https://dc.lft.to/lastmile_qr_scan"}, "lon": -77.03471083333334, "name": "d3a387f60c6c0742db8fc6e7effd6d69", "lat": 38.9206705, "is_reserved": 0, "fusion_lat": 0.0, "bike_id": "d3a387f60c6c0742db8fc6e7effd6d69", "type": "electric_scooter", "is_disabled": 0, "fusion_lon": 0.0}, {"rental_uris": {"android": "https://dc.lft.to/lastmile_qr_scan", "ios": "https://dc.lft.to/lastmile_qr_scan"}, "lon": -77.0462495, "name": "586c282040eba439d76098b5c10695d4", "lat": 38.91450666666667, "is_reserved": 0, "fusion_lat": 0.0, "bike_id": "586c282040eba439d76098b5c10695d4", "type": "electric_scooter", "is_disabled": 0, "fusion_lon": 0.0}, {"rental_uris": {"android": "https://dc.lft.to/lastmile_qr_scan", "ios": "https://dc.lft.to/lastmile_qr_scan"}, "lon": -77.01338016666666, "name": "8068f2f7c38efe9c135eced83ac73fe7", "lat": 38.9263985, "is_reserved": 0, "fusion_lat": 0.0, "bike_id": "8068f2f7c38efe9c135eced83ac73fe7", "type": "electric_scooter", "is_disabled": 0, "fusion_lon": 0.0}, {"rental_uris": {"android": "https://dc.lft.to/lastmile_qr_scan", "ios": "https://dc.lft.to/lastmile_qr_scan"}, "lon": -77.02098583333333, "name": "ce9fabae2f8da343166c4a77121e4f70", "lat": 38.885067166666666, "is_reserved": 0, "fusion_lat": 0.0, "bike_id": "ce9fabae2f8da343166c4a77121e4f70", "type": "electric_scooter", "is_disabled": 0, "fusion_lon": 0.0}, {"rental_uris": {"android": "https://dc.lft.to/lastmile_qr_scan", "ios": "https://dc.lft.to/lastmile_qr_scan"}, "lon": -77.07072116666667, "name": "906d3a1537d40cc35f40c3cd02ce5e63", "lat": 38.914574, "is_reserved": 0, "fusion_lat": 0.0, "bike_id": "906d3a1537d40cc35f40c3cd02ce5e63", "type": "electric_scooter", "is_disabled": 0, "fusion_lon": 0.0}, {"rental_uris": {"android": "https://dc.lft.to/lastmile_qr_scan", "ios": "https://dc.lft.to/lastmile_qr_scan"}, "lon": -77.02279033333333, "name": "910bb77c3ca06eaa43c59f4e24b35140", "lat": 38.912583833333336, "is_reserved": 0, "fusion_lat": 0.0, "bike_id": "910bb77c3ca06eaa43c59f4e24b35140", "type": "electric_scooter", "is_disabled": 0, "fusion_lon": 0.0}, {"rental_uris": {"android": "https://dc.lft.to/lastmile_qr_scan", "ios": "https://dc.lft.to/lastmile_qr_scan"}, "lon": -77.02202583333333, "name": "f8daf39c985306bf7fa80de7ec5cf5b8", "lat": 38.896334, "is_reserved": 0, "fusion_lat": 0.0, "bike_id": "f8daf39c985306bf7fa80de7ec5cf5b8", "type": "electric_scooter", "is_disabled": 0, "fusion_lon": 0.0}, {"rental_uris": {"android": "https://dc.lft.to/lastmile_qr_scan", "ios": "https://dc.lft.to/lastmile_qr_scan"}, "lon": -76.98889516666667, "name": "2502719e76c2420bc2ea0fc2b2d5d144", "lat": 38.86669533333333, "is_reserved": 0, "fusion_lat": 0.0, "bike_id": "2502719e76c2420bc2ea0fc2b2d5d144", "type": "electric_scooter", "is_disabled": 0, "fusion_lon": 0.0}, {"rental_uris": {"android": "https://dc.lft.to/lastmile_qr_scan", "ios": "https://dc.lft.to/lastmile_qr_scan"}, "lon": -77.01109366666667, "name": "fde46e806f7f2e254bf4125b5852599e", "lat": 38.907885666666665, "is_reserved": 0, "fusion_lat": 0.0, "bike_id": "fde46e806f7f2e254bf4125b5852599e", "type": "electric_scooter", "is_disabled": 0, "fusion_lon": 0.0}, {"rental_uris": {"android": "https://dc.lft.to/lastmile_qr_scan", "ios": "https://dc.lft.to/lastmile_qr_scan"}, "lon": -77.02123866666666, "name": "c4a4e5f5b51428b6776bcdf69eefdc03", "lat": 38.887424, "is_reserved": 0, "fusion_lat": 0.0, "bike_id": "c4a4e5f5b51428b6776bcdf69eefdc03", "type": "electric_scooter", "is_disabled": 0, "fusion_lon": 0.0}, {"rental_uris": {"android": "https://dc.lft.to/lastmile_qr_scan", "ios": "https://dc.lft.to/lastmile_qr_scan"}, "lon": -76.98029816666667, "name": "c4b0cc0bac98be74036ec65d75408694", "lat": 38.90120966666667, "is_reserved": 0, "fusion_lat": 0.0, "bike_id": "c4b0cc0bac98be74036ec65d75408694", "type": "electric_scooter", "is_disabled": 0, "fusion_lon": 0.0}, {"rental_uris": {"android": "https://dc.lft.to/lastmile_qr_scan", "ios": "https://dc.lft.to/lastmile_qr_scan"}, "lon": -77.04227866666666, "name": "9e050ea174c7ae0bc041337125877a08", "lat": 38.91108, "is_reserved": 0, "fusion_lat": 0.0, "bike_id": "9e050ea174c7ae0bc041337125877a08", "type": "electric_scooter", "is_disabled": 0, "fusion_lon": 0.0}, {"rental_uris": {"android": "https://dc.lft.to/lastmile_qr_scan", "ios": "https://dc.lft.to/lastmile_qr_scan"}, "lon": -77.0419545, "name": "e21e275858ea0f1ffe42bf18b012a275", "lat": 38.8922385, "is_reserved": 0, "fusion_lat": 0.0, "bike_id": "e21e275858ea0f1ffe42bf18b012a275", "type": "electric_scooter", "is_disabled": 0, "fusion_lon": 0.0}, {"rental_uris": {"android": "https://dc.lft.to/lastmile_qr_scan", "ios": "https://dc.lft.to/lastmile_qr_scan"}, "lon": -77.01166116666667, "name": "4e17a7aad841d10546568b136654ab2f", "lat": 38.91337766666667, "is_reserved": 0, "fusion_lat": 0.0, "bike_id": "4e17a7aad841d10546568b136654ab2f", "type": "electric_scooter", "is_disabled": 0, "fusion_lon": 0.0}, {"rental_uris": {"android": "https://dc.lft.to/lastmile_qr_scan", "ios": "https://dc.lft.to/lastmile_qr_scan"}, "lon": -77.0450295, "name": "fd06cc8e357d065fa1445749cfcabc4c", "lat": 38.91114866666667, "is_reserved": 0, "fusion_lat": 0.0, "bike_id": "fd06cc8e357d065fa1445749cfcabc4c", "type": "electric_scooter", "is_disabled": 0, "fusion_lon": 0.0}, {"rental_uris": {"android": "https://dc.lft.to/lastmile_qr_scan", "ios": "https://dc.lft.to/lastmile_qr_scan"}, "lon": -77.02988083333334, "name": "205bfdb1b014b43abf024bb6e37b90da", "lat": 38.907318333333336, "is_reserved": 0, "fusion_lat": 0.0, "bike_id": "205bfdb1b014b43abf024bb6e37b90da", "type": "electric_scooter", "is_disabled": 0, "fusion_lon": 0.0}, {"rental_uris": {"android": "https://dc.lft.to/lastmile_qr_scan", "ios": "https://dc.lft.to/lastmile_qr_scan"}, "lon": -77.030613, "name": "1889788c326997bb037553c23fdf7a9d", "lat": 38.902477833333336, "is_reserved": 0, "fusion_lat": 0.0, "bike_id": "1889788c326997bb037553c23fdf7a9d", "type": "electric_scooter", "is_disabled": 0, "fusion_lon": 0.0}, {"rental_uris": {"android": "https://dc.lft.to/lastmile_qr_scan", "ios": "https://dc.lft.to/lastmile_qr_scan"}, "lon": -76.963751, "name": "28b556016d4182c78a6b7b0b55f68c58", "lat": 38.949044666666666, "is_reserved": 0, "fusion_lat": 0.0, "bike_id": "28b556016d4182c78a6b7b0b55f68c58", "type": "electric_bike", "is_disabled": 0, "fusion_lon": 0.0}, {"rental_uris": {"android": "https://dc.lft.to/lastmile_qr_scan", "ios": "https://dc.lft.to/lastmile_qr_scan"}, "lon": -77.02688483333333, "name": "ce7f9cfd03afbaa7c02d5c6201b90764", "lat": 38.897438, "is_reserved": 0, "fusion_lat": 0.0, "bike_id": "ce7f9cfd03afbaa7c02d5c6201b90764", "type": "electric_scooter", "is_disabled": 0, "fusion_lon": 0.0}, {"rental_uris": {"android": "https://dc.lft.to/lastmile_qr_scan", "ios": "https://dc.lft.to/lastmile_qr_scan"}, "lon": -77.02373633333333, "name": "014329ab2902f73a0fd53e707eed67ae", "lat": 38.931971833333336, "is_reserved": 0, "fusion_lat": 0.0, "bike_id": "014329ab2902f73a0fd53e707eed67ae", "type": "electric_scooter", "is_disabled": 0, "fusion_lon": 0.0}, {"rental_uris": {"android": "https://dc.lft.to/lastmile_qr_scan", "ios": "https://dc.lft.to/lastmile_qr_scan"}, "lon": -77.01390866666667, "name": "80903bfecd8e8518b5a651e451b4d648", "lat": 38.942303833333334, "is_reserved": 0, "fusion_lat": 0.0, "bike_id": "80903bfecd8e8518b5a651e451b4d648", "type": "electric_scooter", "is_disabled": 0, "fusion_lon": 0.0}, {"rental_uris": {"android": "https://dc.lft.to/lastmile_qr_scan", "ios": "https://dc.lft.to/lastmile_qr_scan"}, "lon": -77.0106755, "name": "49eefd1092451b960a15ca184b53ccd4", "lat": 38.92032616666667, "is_reserved": 0, "fusion_lat": 0.0, "bike_id": "49eefd1092451b960a15ca184b53ccd4", "type": "electric_scooter", "is_disabled": 0, "fusion_lon": 0.0}, {"rental_uris": {"android": "https://dc.lft.to/lastmile_qr_scan", "ios": "https://dc.lft.to/lastmile_qr_scan"}, "lon": -76.95411883333334, "name": "2e9d98779830b41508c57d6fd05812d9", "lat": 38.8900005, "is_reserved": 0, "fusion_lat": 0.0, "bike_id": "2e9d98779830b41508c57d6fd05812d9", "type": "electric_scooter", "is_disabled": 0, "fusion_lon": 0.0}, {"rental_uris": {"android": "https://dc.lft.to/lastmile_qr_scan", "ios": "https://dc.lft.to/lastmile_qr_scan"}, "lon": -77.04674966666667, "name": "5beef8dea0ab9285da73809bc0ccb495", "lat": 38.89564166666667, "is_reserved": 0, "fusion_lat": 0.0, "bike_id": "5beef8dea0ab9285da73809bc0ccb495", "type": "electric_scooter", "is_disabled": 0, "fusion_lon": 0.0}, {"rental_uris": {"android": "https://dc.lft.to/lastmile_qr_scan", "ios": "https://dc.lft.to/lastmile_qr_scan"}, "lon": -77.03473216666667, "name": "7b2b311cf75124051de99e7190accb68", "lat": 38.90567583333333, "is_reserved": 0, "fusion_lat": 0.0, "bike_id": "7b2b311cf75124051de99e7190accb68", "type": "electric_scooter", "is_disabled": 0, "fusion_lon": 0.0}, {"rental_uris": {"android": "https://dc.lft.to/lastmile_qr_scan", "ios": "https://dc.lft.to/lastmile_qr_scan"}, "lon": -77.023474, "name": "397483f39b414055df3b179bcc6bdfcd", "lat": 38.935318, "is_reserved": 0, "fusion_lat": 0.0, "bike_id": "397483f39b414055df3b179bcc6bdfcd", "type": "electric_scooter", "is_disabled": 0, "fusion_lon": 0.0}, {"rental_uris": {"android": "https://dc.lft.to/lastmile_qr_scan", "ios": "https://dc.lft.to/lastmile_qr_scan"}, "lon": -77.02306816666666, "name": "21a526ad7f4e0a52cb49a8f301b9f338", "lat": 38.9266335, "is_reserved": 0, "fusion_lat": 0.0, "bike_id": "21a526ad7f4e0a52cb49a8f301b9f338", "type": "electric_scooter", "is_disabled": 0, "fusion_lon": 0.0}, {"rental_uris": {"android": "https://dc.lft.to/lastmile_qr_scan", "ios": "https://dc.lft.to/lastmile_qr_scan"}, "lon": -77.04357683333333, "name": "47f8a8176a4fe9828cc8964318e185f3", "lat": 38.904026, "is_reserved": 0, "fusion_lat": 0.0, "bike_id": "47f8a8176a4fe9828cc8964318e185f3", "type": "electric_scooter", "is_disabled": 0, "fusion_lon": 0.0}, {"rental_uris": {"android": "https://dc.lft.to/lastmile_qr_scan", "ios": "https://dc.lft.to/lastmile_qr_scan"}, "lon": -77.04172783333334, "name": "3e0f2afefb19b69e7d2072a71c9d65ca", "lat": 38.90635616666667, "is_reserved": 0, "fusion_lat": 0.0, "bike_id": "3e0f2afefb19b69e7d2072a71c9d65ca", "type": "electric_scooter", "is_disabled": 0, "fusion_lon": 0.0}, {"rental_uris": {"android": "https://dc.lft.to/lastmile_qr_scan", "ios": "https://dc.lft.to/lastmile_qr_scan"}, "lon": -77.03304616666667, "name": "34937fffd896375330014200f28969d3", "lat": 38.92460483333333, "is_reserved": 0, "fusion_lat": 0.0, "bike_id": "34937fffd896375330014200f28969d3", "type": "electric_scooter", "is_disabled": 0, "fusion_lon": 0.0}, {"rental_uris": {"android": "https://dc.lft.to/lastmile_qr_scan", "ios": "https://dc.lft.to/lastmile_qr_scan"}, "lon": -77.03790183333334, "name": "6bcd53567f9065e6bd599c107377a4ee", "lat": 38.996762, "is_reserved": 0, "fusion_lat": 0.0, "bike_id": "6bcd53567f9065e6bd599c107377a4ee", "type": "electric_bike", "is_disabled": 0, "fusion_lon": 0.0}, {"rental_uris": {"android": "https://dc.lft.to/lastmile_qr_scan", "ios": "https://dc.lft.to/lastmile_qr_scan"}, "lon": -77.03501716666666, "name": "e859289ba10ca60631e1eea4367fdfb9", "lat": 38.9096105, "is_reserved": 0, "fusion_lat": 0.0, "bike_id": "e859289ba10ca60631e1eea4367fdfb9", "type": "electric_scooter", "is_disabled": 0, "fusion_lon": 0.0}, {"rental_uris": {"android": "https://dc.lft.to/lastmile_qr_scan", "ios": "https://dc.lft.to/lastmile_qr_scan"}, "lon": -77.02207766666666, "name": "d64457580ff44b253e9224d3b61fadd8", "lat": 38.90577583333334, "is_reserved": 0, "fusion_lat": 0.0, "bike_id": "d64457580ff44b253e9224d3b61fadd8", "type": "electric_scooter", "is_disabled": 0, "fusion_lon": 0.0}, {"rental_uris": {"android": "https://dc.lft.to/lastmile_qr_scan", "ios": "https://dc.lft.to/lastmile_qr_scan"}, "lon": -77.0185285, "name": "6ff865a9996888a1151aa2957d98e5e9", "lat": 38.97364066666667, "is_reserved": 0, "fusion_lat": 0.0, "bike_id": "6ff865a9996888a1151aa2957d98e5e9", "type": "electric_scooter", "is_disabled": 0, "fusion_lon": 0.0}, {"rental_uris": {"android": "https://dc.lft.to/lastmile_qr_scan", "ios": "https://dc.lft.to/lastmile_qr_scan"}, "lon": -77.027049, "name": "61d686dc44f7d99bf69fe569a224239e", "lat": 38.906733333333335, "is_reserved": 0, "fusion_lat": 0.0, "bike_id": "61d686dc44f7d99bf69fe569a224239e", "type": "electric_scooter", "is_disabled": 0, "fusion_lon": 0.0}, {"rental_uris": {"android": "https://dc.lft.to/lastmile_qr_scan", "ios": "https://dc.lft.to/lastmile_qr_scan"}, "lon": -77.03632316666666, "name": "7a1b2291ec12bf61d475867606adb0ff", "lat": 38.92741766666666, "is_reserved": 0, "fusion_lat": 0.0, "bike_id": "7a1b2291ec12bf61d475867606adb0ff", "type": "electric_scooter", "is_disabled": 0, "fusion_lon": 0.0}, {"rental_uris": {"android": "https://dc.lft.to/lastmile_qr_scan", "ios": "https://dc.lft.to/lastmile_qr_scan"}, "lon": -77.02601433333334, "name": "c46cb64c6818633d68a97422315b4bca", "lat": 38.896567833333336, "is_reserved": 0, "fusion_lat": 0.0, "bike_id": "c46cb64c6818633d68a97422315b4bca", "type": "electric_scooter", "is_disabled": 0, "fusion_lon": 0.0}, {"rental_uris": {"android": "https://dc.lft.to/lastmile_qr_scan", "ios": "https://dc.lft.to/lastmile_qr_scan"}, "lon": -77.01677483333333, "name": "bf245e62126798a2efe78de4d87e818c", "lat": 38.901328166666666, "is_reserved": 0, "fusion_lat": 0.0, "bike_id": "bf245e62126798a2efe78de4d87e818c", "type": "electric_scooter", "is_disabled": 0, "fusion_lon": 0.0}, {"rental_uris": {"android": "https://dc.lft.to/lastmile_qr_scan", "ios": "https://dc.lft.to/lastmile_qr_scan"}, "lon": -77.01162316666667, "name": "ef463fa3beb79cab7cad092d1f61dd8c", "lat": 38.9203855, "is_reserved": 0, "fusion_lat": 0.0, "bike_id": "ef463fa3beb79cab7cad092d1f61dd8c", "type": "electric_scooter", "is_disabled": 0, "fusion_lon": 0.0}, {"rental_uris": {"android": "https://dc.lft.to/lastmile_qr_scan", "ios": "https://dc.lft.to/lastmile_qr_scan"}, "lon": -77.02082483333334, "name": "4e18dcf37a8aaf76fb71c65a34bd5aee", "lat": 38.92109933333333, "is_reserved": 0, "fusion_lat": 0.0, "bike_id": "4e18dcf37a8aaf76fb71c65a34bd5aee", "type": "electric_scooter", "is_disabled": 0, "fusion_lon": 0.0}, {"rental_uris": {"android": "https://dc.lft.to/lastmile_qr_scan", "ios": "https://dc.lft.to/lastmile_qr_scan"}, "lon": -77.03446483333333, "name": "4ee479a0a8c399a10b6be0e60708c9a5", "lat": 38.909472666666666, "is_reserved": 0, "fusion_lat": 0.0, "bike_id": "4ee479a0a8c399a10b6be0e60708c9a5", "type": "electric_scooter", "is_disabled": 0, "fusion_lon": 0.0}, {"rental_uris": {"android": "https://dc.lft.to/lastmile_qr_scan", "ios": "https://dc.lft.to/lastmile_qr_scan"}, "lon": -77.05754116666667, "name": "27809e1a0e70398cc00febab3f7c3c69", "lat": 38.92421816666667, "is_reserved": 0, "fusion_lat": 0.0, "bike_id": "27809e1a0e70398cc00febab3f7c3c69", "type": "electric_scooter", "is_disabled": 0, "fusion_lon": 0.0}, {"rental_uris": {"android": "https://dc.lft.to/lastmile_qr_scan", "ios": "https://dc.lft.to/lastmile_qr_scan"}, "lon": -77.03499283333333, "name": "4e3283b959612aab3b722a1aed8b0fbd", "lat": 38.921510833333336, "is_reserved": 0, "fusion_lat": 0.0, "bike_id": "4e3283b959612aab3b722a1aed8b0fbd", "type": "electric_scooter", "is_disabled": 0, "fusion_lon": 0.0}, {"rental_uris": {"android": "https://dc.lft.to/lastmile_qr_scan", "ios": "https://dc.lft.to/lastmile_qr_scan"}, "lon": -77.0365945, "name": "03b0dbda42d7afe58f8fb32ebfdf53bc", "lat": 38.920958, "is_reserved": 0, "fusion_lat": 0.0, "bike_id": "03b0dbda42d7afe58f8fb32ebfdf53bc", "type": "electric_scooter", "is_disabled": 0, "fusion_lon": 0.0},