{"data": {"bikes": [{"name": "1224d03eead72e517154a3ee4389f0b0", "fusion_lat": 0.0, "type": "electric_scooter", "lat": 38.90563266666667, "is_reserved": 0, "is_disabled": 0, "fusion_lon": 0.0, "bike_id": "1224d03eead72e517154a3ee4389f0b0", "lon": -77.036942, "rental_uris": {"ios": "https://dc.lft.to/lastmile_qr_scan", "android": "https://dc.lft.to/lastmile_qr_scan"}}, {"name": "2d863c81b078c84c408ddaff64780aea", "fusion_lat": 0.0, "type": "electric_scooter", "lat": 38.915891, "is_reserved": 0, "is_disabled": 0, "fusion_lon": 0.0, "bike_id": "2d863c81b078c84c408ddaff64780aea", "lon": -77.04255633333334, "rental_uris": {"ios": "https://dc.lft.to/lastmile_qr_scan", "android": "https://dc.lft.to/lastmile_qr_scan"}}, {"name": "4e012d51d5323947e0421047969beaa9", "fusion_lat": 0.0, "type": "electric_scooter", "lat": 38.916908666666664, "is_reserved": 0, "is_disabled": 0, "fusion_lon": 0.0, "bike_id": "4e012d51d5323947e0421047969beaa9", "lon": -77.02595166666667, "rental_uris": {"ios": "https://dc.lft.to/lastmile_qr_scan", "android": "https://dc.lft.to/lastmile_qr_scan"}}, {"name": "d6c458769c0f861d407ccbad2a9d9f1a", "fusion_lat": 0.0, "type": "electric_scooter", "lat": 38.876367333333334, "is_reserved": 0, "is_disabled": 0, "fusion_lon": 0.0, "bike_id": "d6c458769c0f861d407ccbad2a9d9f1a", "lon": -77.01473066666667, "rental_uris": {"ios": "https://dc.lft.to/lastmile_qr_scan", "android": "https://dc.lft.to/lastmile_qr_scan"}}, {"name": "9ce611194e79747f29d58a12e6f834e1", "fusion_lat": 0.0, "type": "electric_scooter", "lat": 38.9342485, "is_reserved": 0, "is_disabled": 0, "fusion_lon": 0.0, "bike_id": "9ce611194e79747f29d58a12e6f834e1", "lon": -77.04003533333334, "rental_uris": {"ios": "https://dc.lft.to/lastmile_qr_scan", "android": "https://dc.lft.to/lastmile_qr_scan"}}, {"name": "b55cbdc1ecec3a7a0e5cce5f718f74df", "fusion_lat": 0.0, "type": "electric_scooter", "lat": 38.938714, "is_reserved": 0, "is_disabled": 0, "fusion_lon": 0.0, "bike_id": "b55cbdc1ecec3a7a0e5cce5f718f74df", "lon": -77.02220833333334, "rental_uris": {"ios": "https://dc.lft.to/lastmile_qr_scan", "android": "https://dc.lft.to/lastmile_qr_scan"}}, {"name": "5dd8d9e245c22e36102796ff2ed641fa", "fusion_lat": 0.0, "type": "electric_scooter", "lat": 38.914030333333336, "is_reserved": 0, "is_disabled": 0, "fusion_lon": 0.0, "bike_id": "5dd8d9e245c22e36102796ff2ed641fa", "lon": -77.03945416666667, "rental_uris": {"ios": "https://dc.lft.to/lastmile_qr_scan", "android": "https://dc.lft.to/lastmile_qr_scan"}}, {"name": "73761c926270626fb2953add511eeaf4", "fusion_lat": 0.0, "type": "electric_scooter", "lat": 38.868259, "is_reserved": 0, "is_disabled": 0, "fusion_lon": 0.0, "bike_id": "73761c926270626fb2953add511eeaf4", "lon": -76.98614116666667, "rental_uris": {"ios": "https://dc.lft.to/lastmile_qr_scan", "android": "https://dc.lft.to/lastmile_qr_scan"}}, {"name": "bad408cdc0254e324be9a8dbb6c9e7f1", "fusion_lat": 0.0, "type": "electric_scooter", "lat": 38.90246616666667, "is_reserved": 0, "is_disabled": 0, "fusion_lon": 0.0, "bike_id": "bad408cdc0254e324be9a8dbb6c9e7f1", "lon": -77.0058265, "rental_uris": {"ios": "https://dc.lft.to/lastmile_qr_scan", "android": "https://dc.lft.to/lastmile_qr_scan"}}, {"name": "80fddcbb216ddacfe13bbda5b80c3db4", "fusion_lat": 0.0, "type": "electric_scooter", "lat": 38.928570666666666, "is_reserved": 0, "is_disabled": 0, "fusion_lon": 0.0, "bike_id": "80fddcbb216ddacfe13bbda5b80c3db4", "lon": -77.01407066666667, "rental_uris": {"ios": "https://dc.lft.to/lastmile_qr_scan", "android": "https://dc.lft.to/lastmile_qr_scan"}}, {"name": "e547b6328a81ef35920d289900489f96", "fusion_lat": 0.0, "type": "electric_scooter", "lat": 38.91509966666667, "is_reserved": 0, "is_disabled": 0, "fusion_lon": 0.0, "bike_id": "e547b6328a81ef35920d289900489f96", "lon": -77.04607783333333, "rental_uris": {"ios": "https://dc.lft.to/lastmile_qr_scan", "android": "https://dc.lft.to/lastmile_qr_scan"}}, {"name": "f3c83c0acf8263f921b2f27e86b40eaf", "fusion_lat": 0.0, "type": "electric_scooter", "lat": 38.885812333333334, "is_reserved": 0, "is_disabled": 0, "fusion_lon": 0.0, "bike_id": "f3c83c0acf8263f921b2f27e86b40eaf", "lon": -76.99499133333333, "rental_uris": {"ios": "https://dc.lft.to/lastmile_qr_scan", "android": "https://dc.lft.to/lastmile_qr_scan"}}, {"name": "794ee5355be2d9140a37bb41f08ca440", "fusion_lat": 0.0, "type": "electric_scooter", "lat": 38.90736483333333, "is_reserved": 0, "is_disabled": 0, "fusion_lon": 0.0, "bike_id": "794ee5355be2d9140a37bb41f08ca440", "lon": -77.04681366666667, "rental_uris": {"ios": "https://dc.lft.to/lastmile_qr_scan", "android": "https://dc.lft.to/lastmile_qr_scan"}}, {"name": "1e9ff760c41442ecc9f1b7b1d7ab2404", "fusion_lat": 0.0, "type": "electric_bike", "lat": 38.87548816666666, "is_reserved": 0, "is_disabled": 0, "fusion_lon": 0.0, "bike_id": "1e9ff760c41442ecc9f1b7b1d7ab2404", "lon": -76.96753683333333, "rental_uris": {"ios": "https://dc.lft.to/lastmile_qr_scan", "android": "https://dc.lft.to/lastmile_qr_scan"}}, {"name": "215eecb8adff2b639a0475caae5a9cc6", "fusion_lat": 0.0, "type": "electric_scooter", "lat": 38.9180655, "is_reserved": 0, "is_disabled": 0, "fusion_lon": 0.0, "bike_id": "215eecb8adff2b639a0475caae5a9cc6", "lon": -77.03172266666667, "rental_uris": {"ios": "https://dc.lft.to/lastmile_qr_scan", "android": "https://dc.lft.to/lastmile_qr_scan"}}, {"name": "ba4a8c45caad3b4d5a29c2894fcce061", "fusion_lat": 0.0, "type": "electric_bike", "lat": 38.94969283333333, "is_reserved": 0, "is_disabled": 0, "fusion_lon": 0.0, "bike_id": "ba4a8c45caad3b4d5a29c2894fcce061", "lon": -76.9728355, "rental_uris": {"ios": "https://dc.lft.to/lastmile_qr_scan", "android": "https://dc.lft.to/lastmile_qr_scan"}}, {"name": "5dfea4141704536bb36a815ab8de293c", "fusion_lat": 0.0, "type": "electric_scooter", "lat": 38.900368, "is_reserved": 0, "is_disabled": 0, "fusion_lon": 0.0, "bike_id": "5dfea4141704536bb36a815ab8de293c", "lon": -77.006314, "rental_uris": {"ios": "https://dc.lft.to/lastmile_qr_scan", "android": "https://dc.lft.to/lastmile_qr_scan"}}, {"name": "57196671395ec146a4633927a2e473d4", "fusion_lat": 0.0, "type": "electric_scooter", "lat": 38.9027135, "is_reserved": 0, "is_disabled": 0, "fusion_lon": 0.0, "bike_id": "57196671395ec146a4633927a2e473d4", "lon": -77.017634, "rental_uris": {"ios": "https://dc.lft.to/lastmile_qr_scan", "android": "https://dc.lft.to/lastmile_qr_scan"}}, {"name": "14ee1cc7a00ba49ae43e376c17406a67", "fusion_lat": 0.0, "type": "electric_scooter", "lat": 38.90139633333333, "is_reserved": 0, "is_disabled": 0, "fusion_lon": 0.0, "bike_id": "14ee1cc7a00ba49ae43e376c17406a67", "lon": -77.04355816666667, "rental_uris": {"ios": "https://dc.lft.to/lastmile_qr_scan", "android": "https://dc.lft.to/lastmile_qr_scan"}}, {"name": "5cb6eaa1082c92b346be500073272546", "fusion_lat": 0.0, "type": "electric_scooter", "lat": 38.925099833333334, "is_reserved": 0, "is_disabled": 0, "fusion_lon": 0.0, "bike_id": "5cb6eaa1082c92b346be500073272546", "lon": -77.00226066666667, "rental_uris": {"ios": "https://dc.lft.to/lastmile_qr_scan", "android": "https://dc.lft.to/lastmile_qr_scan"}}, {"name": "566334dbd35c4d4119b7dbd8a6f343a2", "fusion_lat": 0.0, "type": "electric_scooter", "lat": 38.884412, "is_reserved": 0, "is_disabled": 0, "fusion_lon": 0.0, "bike_id": "566334dbd35c4d4119b7dbd8a6f343a2", "lon": -76.99625416666666, "rental_uris": {"ios": "https://dc.lft.to/lastmile_qr_scan", "android": "https://dc.lft.to/lastmile_qr_scan"}}, {"name": "93b5a26aefd5f1c17d74db0b522dd0ae", "fusion_lat": 0.0, "type": "electric_bike", "lat": 38.894712, "is_reserved": 0, "is_disabled": 0, "fusion_lon": 0.0, "bike_id": "93b5a26aefd5f1c17d74db0b522dd0ae", "lon": -77.046599, "rental_uris": {"ios": "https://dc.lft.to/lastmile_qr_scan", "android": "https://dc.lft.to/lastmile_qr_scan"}}, {"name": "35618b3aceb4c51b51b9868295a797e6", "fusion_lat": 0.0, "type": "electric_scooter", "lat": 38.932509, "is_reserved": 0, "is_disabled": 0, "fusion_lon": 0.0, "bike_id": "35618b3aceb4c51b51b9868295a797e6", "lon": -77.0400725, "rental_uris": {"ios": "https://dc.lft.to/lastmile_qr_scan", "android": "https://dc.lft.to/lastmile_qr_scan"}}, {"name": "dd3bf741e1e264b0e586e5d872bc476a", "fusion_lat": 0.0, "type": "electric_scooter", "lat": 38.9026965, "is_reserved": 0, "is_disabled": 0, "fusion_lon": 0.0, "bike_id": "dd3bf741e1e264b0e586e5d872bc476a", "lon": -77.04601716666667, "rental_uris": {"ios": "https://dc.lft.to/lastmile_qr_scan", "android": "https://dc.lft.to/lastmile_qr_scan"}}, {"name": "38130238203698e17c5ea26d8a349f9e", "fusion_lat": 0.0, "type": "electric_scooter", "lat": 38.863582666666666, "is_reserved": 0, "is_disabled": 0, "fusion_lon": 0.0, "bike_id": "38130238203698e17c5ea26d8a349f9e", "lon": -76.99063183333334, "rental_uris": {"ios": "https://dc.lft.to/lastmile_qr_scan", "android": "https://dc.lft.to/lastmile_qr_scan"}}, {"name": "a0f57c26f8a6b94f1fac902b9cfa25f3", "fusion_lat": 0.0, "type": "electric_scooter", "lat": 38.910376666666664, "is_reserved": 0, "is_disabled": 0, "fusion_lon": 0.0, "bike_id": "a0f57c26f8a6b94f1fac902b9cfa25f3", "lon": -77.048311, "rental_uris": {"ios": "https://dc.lft.to/lastmile_qr_scan", "android": "https://dc.lft.to/lastmile_qr_scan"}}, {"name": "6132ec6d0bb7f45760e9c5f88fba8e19", "fusion_lat": 0.0, "type": "electric_scooter", "lat": 38.9214645, "is_reserved": 0, "is_disabled": 0, "fusion_lon": 0.0, "bike_id": "6132ec6d0bb7f45760e9c5f88fba8e19", "lon": -77.03507916666666, "rental_uris": {"ios": "https://dc.lft.to/lastmile_qr_scan", "android": "https://dc.lft.to/lastmile_qr_scan"}}, {"name": "2ea663ff5fe08ad204083b1bb2703e69", "fusion_lat": 0.0, "type": "electric_bike", "lat": 38.9397455, "is_reserved": 0, "is_disabled": 0, "fusion_lon": 0.0, "bike_id": "2ea663ff5fe08ad204083b1bb2703e69", "lon": -76.9548805, "rental_uris": {"ios": "https://dc.lft.to/lastmile_qr_scan", "android": "https://dc.lft.to/lastmile_qr_scan"}}, {"name": "b9c5b84316bc3a28ce2aecd095b706cc", "fusion_lat": 0.0, "type": "electric_scooter", "lat": 38.961487, "is_reserved": 0, "is_disabled": 0, "fusion_lon": 0.0, "bike_id": "b9c5b84316bc3a28ce2aecd095b706cc", "lon": -77.02788033333333, "rental_uris": {"ios": "https://dc.lft.to/lastmile_qr_scan", "android": "https://dc.lft.to/lastmile_qr_scan"}}, {"name": "fa7fea664525e9f4962fa6c72e044e6d", "fusion_lat": 0.0, "type": "electric_scooter", "lat": 38.941244, "is_reserved": 0, "is_disabled": 0, "fusion_lon": 0.0, "bike_id": "fa7fea664525e9f4962fa6c72e044e6d", "lon": -77.02053033333334, "rental_uris": {"ios": "https://dc.lft.to/lastmile_qr_scan", "android": "https://dc.lft.to/lastmile_qr_scan"}}, {"name": "c28415f9fead6d1a243082d0249c3c53", "fusion_lat": 0.0, "type": "electric_scooter", "lat": 38.90209316666667, "is_reserved": 0, "is_disabled": 0, "fusion_lon": 0.0, "bike_id": "c28415f9fead6d1a243082d0249c3c53", "lon": -77.0233235, "rental_uris": {"ios": "https://dc.lft.to/lastmile_qr_scan", "android": "https://dc.lft.to/lastmile_qr_scan"}}, {"name": "6e32d1a17339eb523d59106eb0a409ef", "fusion_lat": 0.0, "type": "electric_scooter", "lat": 38.9152545, "is_reserved": 0, "is_disabled": 0, "fusion_lon": 0.0, "bike_id": "6e32d1a17339eb523d59106eb0a409ef", "lon": -77.01425816666666, "rental_uris": {"ios": "https://dc.lft.to/lastmile_qr_scan", "android": "https://dc.lft.to/lastmile_qr_scan"}}, {"name": "5cfe805a2a4e490262969d234c865d58", "fusion_lat": 0.0, "type": "electric_scooter", "lat": 38.90717683333333, "is_reserved": 0, "is_disabled": 0, "fusion_lon": 0.0, "bike_id": "5cfe805a2a4e490262969d234c865d58", "lon": -77.043185, "rental_uris": {"ios": "https://dc.lft.to/lastmile_qr_scan", "android": "https://dc.lft.to/lastmile_qr_scan"}}, {"name": "101d81b37454a1eb8ebaa51d4cf7be5a", "fusion_lat": 0.0, "type": "electric_scooter", "lat": 38.92065866666667, "is_reserved": 0, "is_disabled": 0, "fusion_lon": 0.0, "bike_id": "101d81b37454a1eb8ebaa51d4cf7be5a", "lon": -77.03174266666667, "rental_uris": {"ios": "https://dc.lft.to/lastmile_qr_scan", "android": "https://dc.lft.to/lastmile_qr_scan"}}, {"name": "b200f1fb78d75593f31267f978b7f771", "fusion_lat": 0.0, "type": "electric_scooter", "lat": 38.92047783333334, "is_reserved": 0, "is_disabled": 0, "fusion_lon": 0.0, "bike_id": "b200f1fb78d75593f31267f978b7f771", "lon": -77.0302765, "rental_uris": {"ios": "https://dc.lft.to/lastmile_qr_scan", "android": "https://dc.lft.to/lastmile_qr_scan"}}, {"name": "9b99a89a7c5b9d62153b0462fea22d17", "fusion_lat": 0.0, "type": "electric_scooter", "lat": 38.8982205, "is_reserved": 0, "is_disabled": 0, "fusion_lon": 0.0, "bike_id": "9b99a89a7c5b9d62153b0462fea22d17", "lon": -77.03348216666667, "rental_uris": {"ios": "https://dc.lft.to/lastmile_qr_scan", "android": "https://dc.lft.to/lastmile_qr_scan"}}, {"name": "ccd4db600397b5ea56901c67a51894af", "fusion_lat": 0.0, "type": "electric_scooter", "lat": 38.921653, "is_reserved": 0, "is_disabled": 0, "fusion_lon": 0.0, "bike_id": "ccd4db600397b5ea56901c67a51894af", "lon": -76.99394516666666, "rental_uris": {"ios": "https://dc.lft.to/lastmile_qr_scan", "android": "https://dc.lft.to/lastmile_qr_scan"}}, {"name": "21b977e1c4f040bc0e90efd61493fc5a", "fusion_lat": 0.0, "type": "electric_scooter", "lat": 38.936049, "is_reserved": 0, "is_disabled": 0, "fusion_lon": 0.0, "bike_id": "21b977e1c4f040bc0e90efd61493fc5a", "lon": -77.058592, "rental_uris": {"ios": "https://dc.lft.to/lastmile_qr_scan", "android": "https://dc.lft.to/lastmile_qr_scan"}}, {"name": "97c05638733e4af600c9b54d14407b94", "fusion_lat": 0.0, "type": "electric_scooter", "lat": 38.90263216666666, "is_reserved": 0, "is_disabled": 0, "fusion_lon": 0.0, "bike_id": "97c05638733e4af600c9b54d14407b94", "lon": -77.02941683333333, "rental_uris": {"ios": "https://dc.lft.to/lastmile_qr_scan", "android": "https://dc.lft.to/lastmile_qr_scan"}}, {"name": "bd1d3194a2d9ae4021b61ada76ae50f8", "fusion_lat": 0.0, "type": "electric_scooter", "lat": 38.898844833333335, "is_reserved": 0, "is_disabled": 0, "fusion_lon": 0.0, "bike_id": "bd1d3194a2d9ae4021b61ada76ae50f8", "lon": -76.98569433333333, "rental_uris": {"ios": "https://dc.lft.to/lastmile_qr_scan", "android": "https://dc.lft.to/lastmile_qr_scan"}}, {"name": "8eec413744e19d4da871ad6ff4ec7373", "fusion_lat": 0.0, "type": "electric_scooter", "lat": 38.89883066666667, "is_reserved": 0, "is_disabled": 0, "fusion_lon": 0.0, "bike_id": "8eec413744e19d4da871ad6ff4ec7373", "lon": -76.93300983333333, "rental_uris": {"ios": "https://dc.lft.to/lastmile_qr_scan", "android": "https://dc.lft.to/lastmile_qr_scan"}}, {"name": "5e874e3a40678f4848c0bc2935f4cbd6", "fusion_lat": 0.0, "type": "electric_scooter", "lat": 38.9038765, "is_reserved": 0, "is_disabled": 0, "fusion_lon": 0.0, "bike_id": "5e874e3a40678f4848c0bc2935f4cbd6", "lon": -77.0330655, "rental_uris": {"ios": "https://dc.lft.to/lastmile_qr_scan", "android": "https://dc.lft.to/lastmile_qr_scan"}}, {"name": "0260201c36bc05b0eedd96e9ba6dc686", "fusion_lat": 0.0, "type": "electric_scooter", "lat": 38.914275, "is_reserved": 0, "is_disabled": 0, "fusion_lon": 0.0, "bike_id": "0260201c36bc05b0eedd96e9ba6dc686", "lon": -77.04490833333334, "rental_uris": {"ios": "https://dc.lft.to/lastmile_qr_scan", "android": "https://dc.lft.to/lastmile_qr_scan"}}, {"name": "6864d9ba6bb93c42550e1d18e999a71b", "fusion_lat": 0.0, "type": "electric_scooter", "lat": 38.906569166666664, "is_reserved": 0, "is_disabled": 0, "fusion_lon": 0.0, "bike_id": "6864d9ba6bb93c42550e1d18e999a71b", "lon": -76.98596933333333, "rental_uris": {"ios": "https://dc.lft.to/lastmile_qr_scan", "android": "https://dc.lft.to/lastmile_qr_scan"}}, {"name": "85a03d53b1d63723c1dc79f9ce591676", "fusion_lat": 0.0, "type": "electric_scooter", "lat": 38.9521995, "is_reserved": 0, "is_disabled": 0, "fusion_lon": 0.0, "bike_id": "85a03d53b1d63723c1dc79f9ce591676", "lon": -77.07066933333333, "rental_uris": {"ios": "https://dc.lft.to/lastmile_qr_scan", "android": "https://dc.lft.to/lastmile_qr_scan"}}, {"name": "1144accabac17908a40bc82ebbb41063", "fusion_lat": 0.0, "type": "electric_scooter", "lat": 38.8650435, "is_reserved": 0, "is_disabled": 0, "fusion_lon": 0.0, "bike_id": "1144accabac17908a40bc82ebbb41063", "lon": -76.99000866666667, "rental_uris": {"ios": "https://dc.lft.to/lastmile_qr_scan", "android": "https://dc.lft.to/lastmile_qr_scan"}}, {"name": "d4ed68fe64ccbf8e5aaa558747b97581", "fusion_lat": 0.0, "type": "electric_scooter", "lat": 38.929666833333336, "is_reserved": 0, "is_disabled": 0, "fusion_lon": 0.0, "bike_id": "d4ed68fe64ccbf8e5aaa558747b97581", "lon": -77.02394683333333, "rental_uris": {"ios": "https://dc.lft.to/lastmile_qr_scan", "android": "https://dc.lft.to/lastmile_qr_scan"}}, {"name": "37c43341e4d50b0a455627fcf7b31268", "fusion_lat": 0.0, "type": "electric_scooter", "lat": 38.894761333333335, "is_reserved": 0, "is_disabled": 0, "fusion_lon": 0.0, "bike_id": "37c43341e4d50b0a455627fcf7b31268", "lon": -76.94876533333333, "rental_uris": {"ios": "https://dc.lft.to/lastmile_qr_scan", "android": "https://dc.lft.to/lastmile_qr_scan"}}, {"name": "dc6484ade62ee3a5742f635fed6e2af0", "fusion_lat": 0.0, "type": "electric_scooter", "lat": 38.91057383333333, "is_reserved": 0, "is_disabled": 0, "fusion_lon": 0.0, "bike_id": "dc6484ade62ee3a5742f635fed6e2af0", "lon": -77.0457595, "rental_uris": {"ios": "https://dc.lft.to/lastmile_qr_scan", "android": "https://dc.lft.to/lastmile_qr_scan"}}, {"name": "d8509394c9d524c9e27d769768511481", "fusion_lat": 0.0, "type": "electric_scooter", "lat": 38.9189385, "is_reserved": 0, "is_disabled": 0, "fusion_lon": 0.0, "bike_id": "d8509394c9d524c9e27d769768511481", "lon": -77.05287533333333, "rental_uris": {"ios": "https://dc.lft.to/lastmile_qr_scan", "android": "https://dc.lft.to/lastmile_qr_scan"}}, {"name": "95f6574fd10ca60e71fea91f8e2aa4bd", "fusion_lat": 0.0, "type": "electric_bike", "lat": 38.8792745, "is_reserved": 0, "is_disabled": 0, "fusion_lon": 0.0, "bike_id": "95f6574fd10ca60e71fea91f8e2aa4bd", "lon": -77.02373966666667, "rental_uris": {"ios": "https://dc.lft.to/lastmile_qr_scan", "android": "https://dc.lft.to/lastmile_qr_scan"}}, {"name": "4cee2cdb69dfb2c050c3194f11048748", "fusion_lat": 0.0, "type": "electric_scooter", "lat": 38.895043666666666, "is_reserved": 0, "is_disabled": 0, "fusion_lon": 0.0, "bike_id": "4cee2cdb69dfb2c050c3194f11048748", "lon": -77.02406033333334, "rental_uris": {"ios": "https://dc.lft.to/lastmile_qr_scan", "android": "https://dc.lft.to/lastmile_qr_scan"}}, {"name": "d3bc92bbde5f330c1926340e310f042c", "fusion_lat": 0.0, "type": "electric_scooter", "lat": 38.8838065, "is_reserved": 0, "is_disabled": 0, "fusion_lon": 0.0, "bike_id": "d3bc92bbde5f330c1926340e310f042c", "lon": -76.99520283333334, "rental_uris": {"ios": "https://dc.lft.to/lastmile_qr_scan", "android": "https://dc.lft.to/lastmile_qr_scan"}}, {"name": "7314bebc58bdafa32d104dc0cfe5bb6f", "fusion_lat": 0.0, "type": "electric_bike", "lat": 38.8272935, "is_reserved": 0, "is_disabled": 0, "fusion_lon": 0.0, "bike_id": "7314bebc58bdafa32d104dc0cfe5bb6f", "lon": -77.0086215, "rental_uris": {"ios": "https://dc.lft.to/lastmile_qr_scan", "android": "https://dc.lft.to/lastmile_qr_scan"}}, {"name": "1025de5d0eb46a880e0cb036cdab153c", "fusion_lat": 0.0, "type": "electric_scooter", "lat": 38.886735333333334, "is_reserved": 0, "is_disabled": 0, "fusion_lon": 0.0, "bike_id": "1025de5d0eb46a880e0cb036cdab153c", "lon": -76.936092, "rental_uris": {"ios": "https://dc.lft.to/lastmile_qr_scan", "android": "https://dc.lft.to/lastmile_qr_scan"}}, {"name": "869698c72a327ea3bdc797d718338b76", "fusion_lat": 0.0, "type": "electric_scooter", "lat": 38.92584083333333, "is_reserved": 0, "is_disabled": 0, "fusion_lon": 0.0, "bike_id": "869698c72a327ea3bdc797d718338b76", "lon": -77.05292083333333, "rental_uris": {"ios": "https://dc.lft.to/lastmile_qr_scan", "android": "https://dc.lft.to/lastmile_qr_scan"}}, {"name": "22768d6c262bb77b13f0bd5e591adba9", "fusion_lat": 0.0, "type": "electric_scooter", "lat": 38.909193, "is_reserved": 0, "is_disabled": 0, "fusion_lon": 0.0, "bike_id": "22768d6c262bb77b13f0bd5e591adba9", "lon": -77.01886516666667, "rental_uris": {"ios": "https://dc.lft.to/lastmile_qr_scan", "android": "https://dc.lft.to/lastmile_qr_scan"}}, {"name": "8954f8152f90172e1b3fb61cbe4b5ccf", "fusion_lat": 0.0, "type": "electric_scooter", "lat": 38.89653066666666, "is_reserved": 0, "is_disabled": 0, "fusion_lon": 0.0, "bike_id": "8954f8152f90172e1b3fb61cbe4b5ccf", "lon": -77.05020183333333, "rental_uris": {"ios": "https://dc.lft.to/lastmile_qr_scan", "android": "https://dc.lft.to/lastmile_qr_scan"}}, {"name": "38e6be822c08abf7638aad541029a7fb", "fusion_lat": 0.0, "type": "electric_scooter", "lat": 38.89900883333333, "is_reserved": 0, "is_disabled": 0, "fusion_lon": 0.0, "bike_id": "38e6be822c08abf7638aad541029a7fb", "lon": -77.0328515, "rental_uris": {"ios": "https://dc.lft.to/lastmile_qr_scan", "android": "https://dc.lft.to/lastmile_qr_scan"}}, {"name": "a60b6ca8d5aaebe4afbaabba63dfce90", "fusion_lat": 0.0, "type": "electric_scooter", "lat": 38.89833683333333, "is_reserved": 0, "is_disabled": 0, "fusion_lon": 0.0, "bike_id": "a60b6ca8d5aaebe4afbaabba63dfce90", "lon": -76.9463895, "rental_uris": {"ios": "https://dc.lft.to/lastmile_qr_scan", "android": "https://dc.lft.to/lastmile_qr_scan"}}, {"name": "db26438be7db499db6625fe3f5cdfd29", "fusion_lat": 0.0, "type": "electric_scooter", "lat": 38.90735166666666, "is_reserved": 0, "is_disabled": 0, "fusion_lon": 0.0, "bike_id": "db26438be7db499db6625fe3f5cdfd29", "lon": -77.04523366666666, "rental_uris": {"ios": "https://dc.lft.to/lastmile_qr_scan", "android": "https://dc.lft.to/lastmile_qr_scan"}}, {"name": "2471e381bd6ad5a851594b52d3bc0496", "fusion_lat": 0.0, "type": "electric_scooter", "lat": 38.91105983333333, "is_reserved": 0, "is_disabled": 0, "fusion_lon": 0.0, "bike_id": "2471e381bd6ad5a851594b52d3bc0496", "lon": -77.042809, "rental_uris": {"ios": "https://dc.lft.to/lastmile_qr_scan", "android": "https://dc.lft.to/lastmile_qr_scan"}}, {"name": "319806afd9e3625a25b815cc819f6112", "fusion_lat": 0.0, "type": "electric_bike", "lat": 39.05811666666666, "is_reserved": 0, "is_disabled": 0, "fusion_lon": 0.0, "bike_id": "319806afd9e3625a25b815cc819f6112", "lon": -77.12624883333334, "rental_uris": {"ios": "https://dc.lft.to/lastmile_qr_scan", "android": "https://dc.lft.to/lastmile_qr_scan"}}, {"name": "eaea5102b64431b02cf182f6b1f8c091", "fusion_lat": 0.0, "type": "electric_bike", "lat": 39.08902783333333, "is_reserved": 0, "is_disabled": 0, "fusion_lon": 0.0, "bike_id": "eaea5102b64431b02cf182f6b1f8c091", "lon": -77.17844483333333, "rental_uris": {"ios": "https://dc.lft.to/lastmile_qr_scan", "android": "https://dc.lft.to/lastmile_qr_scan"}}, {"name": "243a7c5eaccc80a13216a89fb81ee5a9", "fusion_lat": 0.0, "type": "electric_scooter", "lat": 38.905624, "is_reserved": 0, "is_disabled": 0, "fusion_lon": 0.0, "bike_id": "243a7c5eaccc80a13216a89fb81ee5a9", "lon": -77.00515516666667, "rental_uris": {"ios": "https://dc.lft.to/lastmile_qr_scan", "android": "https://dc.lft.to/lastmile_qr_scan"}}, {"name": "8fbc1d0719fa34b8373aa52a810ea2b0", "fusion_lat": 0.0, "type": "electric_scooter", "lat": 38.928536, "is_reserved": 0, "is_disabled": 0, "fusion_lon": 0.0, "bike_id": "8fbc1d0719fa34b8373aa52a810ea2b0", "lon": -77.014062, "rental_uris": {"ios": "https://dc.lft.to/lastmile_qr_scan", "android": "https://dc.lft.to/lastmile_qr_scan"}}, {"name": "8c37d56b005e32fd7a3f851be062c116", "fusion_lat": 0.0, "type": "electric_scooter", "lat": 38.901407666666664, "is_reserved": 0, "is_disabled": 0, "fusion_lon": 0.0, "bike_id": "8c37d56b005e32fd7a3f851be062c116", "lon": -77.04383366666667, "rental_uris": {"ios": "https://dc.lft.to/lastmile_qr_scan", "android": "https://dc.lft.to/lastmile_qr_scan"}}, {"name": "13a9c2b983f10b5ef2afa4ebe3427e42", "fusion_lat": 0.0, "type": "electric_scooter", "lat": 38.89635666666667, "is_reserved": 0, "is_disabled": 0, "fusion_lon": 0.0, "bike_id": "13a9c2b983f10b5ef2afa4ebe3427e42", "lon": -77.03220133333333, "rental_uris": {"ios": "https://dc.lft.to/lastmile_qr_scan", "android": "https://dc.lft.to/lastmile_qr_scan"}}, {"name": "4fd0b8282a01eb5d554d38e4fc3dcbd7", "fusion_lat": 0.0, "type": "electric_bike", "lat": 38.846114166666666, "is_reserved": 0, "is_disabled": 0, "fusion_lon": 0.0, "bike_id": "4fd0b8282a01eb5d554d38e4fc3dcbd7", "lon": -76.978255, "rental_uris": {"ios": "https://dc.lft.to/lastmile_qr_scan", "android": "https://dc.lft.to/lastmile_qr_scan"}}, {"name": "30fe48118303247ca5912902fe1a9cbc", "fusion_lat": 0.0, "type": "electric_scooter", "lat": 38.90702733333333, "is_reserved": 0, "is_disabled": 0, "fusion_lon": 0.0, "bike_id": "30fe48118303247ca5912902fe1a9cbc", "lon": -77.03202566666667, "rental_uris": {"ios": "https://dc.lft.to/lastmile_qr_scan", "android": "https://dc.lft.to/lastmile_qr_scan"}}, {"name": "942f4de990b76d352e9029994baab33f", "fusion_lat": 0.0, "type": "electric_scooter", "lat": 38.884888833333335, "is_reserved": 0, "is_disabled": 0, "fusion_lon": 0.0, "bike_id": "942f4de990b76d352e9029994baab33f", "lon": -77.0071095, "rental_uris": {"ios": "https://dc.lft.to/lastmile_qr_scan", "android": "https://dc.lft.to/lastmile_qr_scan"}}, {"name": "15957221a034311ff86b679df0863f43", "fusion_lat": 0.0, "type": "electric_scooter", "lat": 38.89622416666667, "is_reserved": 0, "is_disabled": 0, "fusion_lon": 0.0, "bike_id": "15957221a034311ff86b679df0863f43", "lon": -77.0224675, "rental_uris": {"ios": "https://dc.lft.to/lastmile_qr_scan", "android": "https://dc.lft.to/lastmile_qr_scan"}}, {"name": "7a18d15a3950e7cd48f1c7b36d519f74", "fusion_lat": 0.0, "type": "electric_scooter", "lat": 38.899612166666664, "is_reserved": 0, "is_disabled": 0, "fusion_lon": 0.0, "bike_id": "7a18d15a3950e7cd48f1c7b36d519f74", "lon": -77.02704833333334, "rental_uris": {"ios": "https://dc.lft.to/lastmile_qr_scan", "android": "https://dc.lft.to/lastmile_qr_scan"}}, {"name": "5997a57eb018d3268ed75e61c21b2f96", "fusion_lat": 0.0, "type": "electric_scooter", "lat": 38.89916, "is_reserved": 0, "is_disabled": 0, "fusion_lon": 0.0, "bike_id": "5997a57eb018d3268ed75e61c21b2f96", "lon": -77.03930266666667, "rental_uris": {"ios": "https://dc.lft.to/lastmile_qr_scan", "android": "https://dc.lft.to/lastmile_qr_scan"}}, {"name": "2eaef1c58a7486e3b8b9688ca83c8111", "fusion_lat": 0.0, "type": "electric_scooter", "lat": 38.89604216666667, "is_reserved": 0, "is_disabled": 0, "fusion_lon": 0.0, "bike_id": "2eaef1c58a7486e3b8b9688ca83c8111", "lon": -77.0468455, "rental_uris": {"ios": "https://dc.lft.to/lastmile_qr_scan", "android": "https://dc.lft.to/lastmile_qr_scan"}}, {"name": "546eb5e352dc5856adf030badedcfb1f", "fusion_lat": 0.0, "type": "electric_scooter", "lat": 38.8750475, "is_reserved": 0, "is_disabled": 0, "fusion_lon": 0.0, "bike_id": "546eb5e352dc5856adf030badedcfb1f", "lon": -77.00159333333333, "rental_uris": {"ios": "https://dc.lft.to/lastmile_qr_scan", "android": "https://dc.lft.to/lastmile_qr_scan"}}, {"name": "f239463e2624893f0ec54c5c62989371", "fusion_lat": 0.0, "type": "electric_scooter", "lat": 38.9148765, "is_reserved": 0, "is_disabled": 0, "fusion_lon": 0.0, "bike_id": "f239463e2624893f0ec54c5c62989371", "lon": -77.032478, "rental_uris": {"ios": "https://dc.lft.to/lastmile_qr_scan", "android": "https://dc.lft.to/lastmile_qr_scan"}}, {"name": "1c06f7385eb2b6d2ed9cf4a581b5a081", "fusion_lat": 0.0, "type": "electric_scooter", "lat": 38.93209233333333, "is_reserved": 0, "is_disabled": 0, "fusion_lon": 0.0, "bike_id": "1c06f7385eb2b6d2ed9cf4a581b5a081", "lon": -77.02733883333333, "rental_uris": {"ios": "https://dc.lft.to/lastmile_qr_scan", "android": "https://dc.lft.to/lastmile_qr_scan"}}, {"name": "b041166982b737de0676b46409232ff6", "fusion_lat": 0.0, "type": "electric_bike", "lat": 38.9684315, "is_reserved": 0, "is_disabled": 0, "fusion_lon": 0.0, "bike_id": "b041166982b737de0676b46409232ff6", "lon": -77.0333045, "rental_uris": {"ios": "https://dc.lft.to/lastmile_qr_scan", "android": "https://dc.lft.to/lastmile_qr_scan"}}, {"name": "4a850ef27f92d16b56fb1668d37e135e", "fusion_lat": 0.0, "type": "electric_scooter", "lat": 38.89951833333333, "is_reserved": 0, "is_disabled": 0, "fusion_lon": 0.0, "bike_id": "4a850ef27f92d16b56fb1668d37e135e", "lon": -77.03119116666667, "rental_uris": {"ios": "https://dc.lft.to/lastmile_qr_scan", "android": "https://dc.lft.to/lastmile_qr_scan"}}, {"name": "5c4f343f0b10ad407f60f24bd1daed83", "fusion_lat": 0.0, "type": "electric_scooter", "lat": 38.9133405, "is_reserved": 0, "is_disabled": 0, "fusion_lon": 0.0, "bike_id": "5c4f343f0b10ad407f60f24bd1daed83", "lon": -77.03119216666667, "rental_uris": {"ios": "https://dc.lft.to/lastmile_qr_scan", "android": "https://dc.lft.to/lastmile_qr_scan"}}, {"name": "a28cc63dc4acad1d84dc5e75b3cfa3ff", "fusion_lat": 0.0, "type": "electric_scooter", "lat": 38.91234716666666, "is_reserved": 0, "is_disabled": 0, "fusion_lon": 0.0, "bike_id": "a28cc63dc4acad1d84dc5e75b3cfa3ff", "lon": -77.04867866666666, "rental_uris": {"ios": "https://dc.lft.to/lastmile_qr_scan", "android": "https://dc.lft.to/lastmile_qr_scan"}}, {"name": "a2d65c005a787b6c860d0eba6757f255", "fusion_lat": 0.0, "type": "electric_scooter", "lat": 38.930605166666666, "is_reserved": 0, "is_disabled": 0, "fusion_lon": 0.0, "bike_id": "a2d65c005a787b6c860d0eba6757f255", "lon": -77.03955283333333, "rental_uris": {"ios": "https://dc.lft.to/lastmile_qr_scan", "android": "https://dc.lft.to/lastmile_qr_scan"}}, {"name": "660ed3dd4f7de60b1e1a5644af23577e", "fusion_lat": 0.0, "type": "electric_scooter", "lat": 38.895351, "is_reserved": 0, "is_disabled": 0, "fusion_lon": 0.0, "bike_id": "660ed3dd4f7de60b1e1a5644af23577e", "lon": -77.010959, "rental_uris": {"ios": "https://dc.lft.to/lastmile_qr_scan", "android": "https://dc.lft.to/lastmile_qr_scan"}}, {"name": "f6714c269e9632737433816a3bdcda59", "fusion_lat": 0.0, "type": "electric_scooter", "lat": 38.90323383333333, "is_reserved": 0, "is_disabled": 0, "fusion_lon": 0.0, "bike_id": "f6714c269e9632737433816a3bdcda59", "lon": -77.04170083333334, "rental_uris": {"ios": "https://dc.lft.to/lastmile_qr_scan", "android": "https://dc.lft.to/lastmile_qr_scan"}}, {"name": "9809a1491fe7de0b3505bd51ef9de0a7", "fusion_lat": 0.0, "type": "electric_scooter", "lat": 38.894816666666664, "is_reserved": 0, "is_disabled": 0, "fusion_lon": 0.0, "bike_id": "9809a1491fe7de0b3505bd51ef9de0a7", "lon": -76.94872533333333, "rental_uris": {"ios": "https://dc.lft.to/lastmile_qr_scan", "android": "https://dc.lft.to/lastmile_qr_scan"}}, {"name": "c42c56de1d316c8e1f99f2543f686c0b", "fusion_lat": 0.0, "type": "electric_scooter", "lat": 38.90128, "is_reserved": 0, "is_disabled": 0, "fusion_lon": 0.0, "bike_id": "c42c56de1d316c8e1f99f2543f686c0b", "lon": -77.0396785, "rental_uris": {"ios": "https://dc.lft.to/lastmile_qr_scan", "android": "https://dc.lft.to/lastmile_qr_scan"}}, {"name": "81c2ec4550199a242aaac72ff895bb1f", "fusion_lat": 0.0, "type": "electric_scooter", "lat": 38.91189833333333, "is_reserved": 0, "is_disabled": 0, "fusion_lon": 0.0, "bike_id": "81c2ec4550199a242aaac72ff895bb1f", "lon": -77.06099033333334, "rental_uris": {"ios": "https://dc.lft.to/lastmile_qr_scan", "android": "https://dc.lft.to/lastmile_qr_scan"}}, {"name": "e9e0cd72f26504e028cdd62ddef5ef2e", "fusion_lat": 0.0, "type": "electric_scooter", "lat": 38.89655966666667, "is_reserved": 0, "is_disabled": 0, "fusion_lon": 0.0, "bike_id": "e9e0cd72f26504e028cdd62ddef5ef2e", "lon": -77.02593866666666, "rental_uris": {"ios": "https://dc.lft.to/lastmile_qr_scan", "android": "https://dc.lft.to/lastmile_qr_scan"}}, {"name": "0e2bed150540eebba35d8b490ed10da0", "fusion_lat": 0.0, "type": "electric_scooter", "lat": 38.912114833333334, "is_reserved": 0, "is_disabled": 0, "fusion_lon": 0.0, "bike_id": "0e2bed150540eebba35d8b490ed10da0", "lon": -77.07585666666667, "rental_uris": {"ios": "https://dc.lft.to/lastmile_qr_scan", "android": "https://dc.lft.to/lastmile_qr_scan"}}, {"name": "a8843bb34eb38843971ccfcd1cc3c1f6", "fusion_lat": 0.0, "type": "electric_scooter", "lat": 38.9156675, "is_reserved": 0, "is_disabled": 0, "fusion_lon": 0.0, "bike_id": "a8843bb34eb38843971ccfcd1cc3c1f6", "lon": -77.01198266666667, "rental_uris": {"ios": "https://dc.lft.to/lastmile_qr_scan", "android": "https://dc.lft.to/lastmile_qr_scan"}}, {"name": "12e2923c8036c96ed26856a7a1a32e8a", "fusion_lat": 0.0, "type": "electric_scooter", "lat": 38.8898825, "is_reserved": 0, "is_disabled": 0, "fusion_lon": 0.0, "bike_id": "12e2923c8036c96ed26856a7a1a32e8a", "lon": -76.95417366666666, "rental_uris": {"ios": "https://dc.lft.to/lastmile_qr_scan", "android": "https://dc.lft.to/lastmile_qr_scan"}}, {"name": "1e42311280bcbb055a2c13f0fd396406", "fusion_lat": 0.0, "type": "electric_scooter", "lat": 38.902461, "is_reserved": 0, "is_disabled": 0, "fusion_lon": 0.0, "bike_id": "1e42311280bcbb055a2c13f0fd396406", "lon": -77.04349883333333, "rental_uris": {"ios": "https://dc.lft.to/lastmile_qr_scan", "android": "https://dc.lft.to/lastmile_qr_scan"}}, {"name": "6685df62d46be9c407b22485e309362c", "fusion_lat": 0.0, "type": "electric_scooter", "lat": 38.91707983333333, "is_reserved": 0, "is_disabled": 0, "fusion_lon": 0.0, "bike_id": "6685df62d46be9c407b22485e309362c", "lon": -77.02887633333333, "rental_uris": {"ios": "https://dc.lft.to/lastmile_qr_scan", "android": "https://dc.lft.to/lastmile_qr_scan"}}, {"name": "c7abfc8f0dddf731cf0a8b57c1cac0f9", "fusion_lat": 0.0, "type": "electric_bike", "lat": 38.95553483333333, "is_reserved": 0, "is_disabled": 0, "fusion_lon": 0.0, "bike_id": "c7abfc8f0dddf731cf0a8b57c1cac0f9", "lon": -76.93541766666667, "rental_uris": {"ios": "https://dc.lft.to/lastmile_qr_scan", "android": "https://dc.lft.to/lastmile_qr_scan"}}, {"name": "c3ae49442cbd021bca0c86e03e7b5bd6", "fusion_lat": 0.0, "type": "electric_scooter", "lat": 38.90227466666666, "is_reserved": 0, "is_disabled": 0, "fusion_lon": 0.0, "bike_id": "c3ae49442cbd021bca0c86e03e7b5bd6", "lon": -77.05120233333334, "rental_uris": {"ios": "https://dc.lft.to/lastmile_qr_scan", "android": "https://dc.lft.to/lastmile_qr_scan"}}, {"name": "d73b4806537a6f73aad7f620eee1c04c", "fusion_lat": 0.0, "type": "electric_scooter", "lat": 38.896072333333336, "is_reserved": 0, "is_disabled": 0, "fusion_lon": 0.0, "bike_id": "d73b4806537a6f73aad7f620eee1c04c", "lon": -77.04693733333333, "rental_uris": {"ios": "https://dc.lft.to/lastmile_qr_scan", "android": "https://dc.lft.to/lastmile_qr_scan"}}, {"name": "e4c1db744ac0c3b3697c88fd42567faa", "fusion_lat": 0.0, "type": "electric_scooter", "lat": 38.9066755, "is_reserved": 0, "is_disabled": 0, "fusion_lon": 0.0, "bike_id": "e4c1db744ac0c3b3697c88fd42567faa", "lon": -77.0280815, "rental_uris": {"ios": "https://dc.lft.to/lastmile_qr_scan", "android": "https://dc.lft.to/lastmile_qr_scan"}}, {"name": "5549014dc3c692569dcdf004e2157079", "fusion_lat": 0.0, "type": "electric_scooter", "lat": 38.92250083333333, "is_reserved": 0, "is_disabled": 0, "fusion_lon": 0.0, "bike_id": "5549014dc3c692569dcdf004e2157079", "lon": -77.01944416666667, "rental_uris": {"ios": "https://dc.lft.to/lastmile_qr_scan", "android": "https://dc.lft.to/lastmile_qr_scan"}}, {"name": "b58f3cfd6b2f13c5bd63c0d61c64a518", "fusion_lat": 0.0, "type": "electric_scooter", "lat": 38.906723166666666, "is_reserved": 0, "is_disabled": 0, "fusion_lon": 0.0, "bike_id": "b58f3cfd6b2f13c5bd63c0d61c64a518", "lon": -76.97810033333333, "rental_uris": {"ios": "https://dc.lft.to/lastmile_qr_scan", "android": "https://dc.lft.to/lastmile_qr_scan"}}, {"name": "be6ae38435a7c9759b6397688a0945b5", "fusion_lat": 0.0, "type": "electric_scooter", "lat": 38.90466083333333, "is_reserved": 0, "is_disabled": 0, "fusion_lon": 0.0, "bike_id": "be6ae38435a7c9759b6397688a0945b5", "lon": -77.0384375, "rental_uris": {"ios": "https://dc.lft.to/lastmile_qr_scan", "android": "https://dc.lft.to/lastmile_qr_scan"}}, {"name": "2fe3c33e7ac5c9e1b57992e6d8f9e4a9", "fusion_lat": 0.0, "type": "electric_scooter", "lat": 38.933596333333334, "is_reserved": 0, "is_disabled": 0, "fusion_lon": 0.0, "bike_id": "2fe3c33e7ac5c9e1b57992e6d8f9e4a9", "lon": -77.03723483333333, "rental_uris": {"ios": "https://dc.lft.to/lastmile_qr_scan", "android": "https://dc.lft.to/lastmile_qr_scan"}}, {"name": "3d9ec449330514bb85a8ba21e5484582", "fusion_lat": 0.0, "type": "electric_bike", "lat": 38.813042, "is_reserved": 0, "is_disabled": 0, "fusion_lon": 0.0, "bike_id": "3d9ec449330514bb85a8ba21e5484582", "lon": -77.1120785, "rental_uris": {"ios": "https://dc.lft.to/lastmile_qr_scan", "android": "https://dc.lft.to/lastmile_qr_scan"}}, {"name": "88599893bd5811842070589560a69b6a", "fusion_lat": 0.0, "type": "electric_bike", "lat": 38.89188733333334, "is_reserved": 0, "is_disabled": 0, "fusion_lon": 0.0, "bike_id": "88599893bd5811842070589560a69b6a", "lon": -77.122621, "rental_uris": {"ios": "https://dc.lft.to/lastmile_qr_scan", "android": "https://dc.lft.to/lastmile_qr_scan"}}, {"name": "c210e379515993b12703e49fc3bb1a62", "fusion_lat": 0.0, "type": "electric_scooter", "lat": 38.8923165, "is_reserved": 0, "is_disabled": 0, "fusion_lon": 0.0, "bike_id": "c210e379515993b12703e49fc3bb1a62", "lon": -77.0500425, "rental_uris": {"ios": "https://dc.lft.to/lastmile_qr_scan", "android": "https://dc.lft.to/lastmile_qr_scan"}}, {"name": "82ed134018a0d234591d75bbf95239be", "fusion_lat": 0.0, "type": "electric_bike", "lat": 38.929867333333334, "is_reserved": 0, "is_disabled": 0, "fusion_lon": 0.0, "bike_id": "82ed134018a0d234591d75bbf95239be", "lon": -77.22568816666667, "rental_uris": {"ios": "https://dc.lft.to/lastmile_qr_scan", "android": "https://dc.lft.to/lastmile_qr_scan"}}, {"name": "98fa66d9a0dcfad5cf2b170bb80112ad", "fusion_lat": 0.0, "type": "electric_scooter", "lat": 38.9106245, "is_reserved": 0, "is_disabled": 0, "fusion_lon": 0.0, "bike_id": "98fa66d9a0dcfad5cf2b170bb80112ad", "lon": -77.05323466666667, "rental_uris": {"ios": "https://dc.lft.to/lastmile_qr_scan", "android": "https://dc.lft.to/lastmile_qr_scan"}}, {"name": "518aba23e4423bce5f4e6e7474dd43c9", "fusion_lat": 0.0, "type": "electric_bike", "lat": 38.8319335, "is_reserved": 0, "is_disabled": 0, "fusion_lon": 0.0, "bike_id": "518aba23e4423bce5f4e6e7474dd43c9", "lon": -77.07682633333333, "rental_uris": {"ios": "https://dc.lft.to/lastmile_qr_scan", "android": "https://dc.lft.to/lastmile_qr_scan"}}, {"name": "234e524bd30188f7cc5d2068fe47e01d", "fusion_lat": 0.0, "type": "electric_bike", "lat": 38.86162316666667, "is_reserved": 0, "is_disabled": 0, "fusion_lon": 0.0, "bike_id": "234e524bd30188f7cc5d2068fe47e01d", "lon": -77.13091583333333, "rental_uris": {"ios": "https://dc.lft.to/lastmile_qr_scan", "android": "https://dc.lft.to/lastmile_qr_scan"}}, {"name": "13563de2da88586a4c917a84d2c74760", "fusion_lat": 0.0, "type": "electric_scooter", "lat": 38.88350483333333, "is_reserved": 0, "is_disabled": 0, "fusion_lon": 0.0, "bike_id": "13563de2da88586a4c917a84d2c74760", "lon": -77.02334, "rental_uris": {"ios": "https://dc.lft.to/lastmile_qr_scan", "android": "https://dc.lft.to/lastmile_qr_scan"}}, {"name": "700487c85779e2456f087f839fd76fab", "fusion_lat": 0.0, "type": "electric_scooter", "lat": 38.8972605, "is_reserved": 0, "is_disabled": 0, "fusion_lon": 0.0, "bike_id": "700487c85779e2456f087f839fd76fab", "lon": -77.04947066666666, "rental_uris": {"ios": "https://dc.lft.to/lastmile_qr_scan", "android": "https://dc.lft.to/lastmile_qr_scan"}}, {"name": "627ffae4583b462278c08f2459502f0f", "fusion_lat": 0.0, "type": "electric_bike", "lat": 38.967577, "is_reserved": 0, "is_disabled": 0, "fusion_lon": 0.0, "bike_id": "627ffae4583b462278c08f2459502f0f", "lon": -77.091638, "rental_uris": {"ios": "https://dc.lft.to/lastmile_qr_scan", "android": "https://dc.lft.to/lastmile_qr_scan"}}, {"name": "4fcf982e5d63fa8768cc079e2aa112ee", "fusion_lat": 0.0, "type": "electric_scooter", "lat": 38.913386833333334, "is_reserved": 0, "is_disabled": 0, "fusion_lon": 0.0, "bike_id": "4fcf982e5d63fa8768cc079e2aa112ee", "lon": -77.00227166666667, "rental_uris": {"ios": "https://dc.lft.to/lastmile_qr_scan", "android": "https://dc.lft.to/lastmile_qr_scan"}}, {"name": "bc4c6eaecff3ee3743aa15ad7e49566a", "fusion_lat": 0.0, "type": "electric_scooter", "lat": 38.88741433333333, "is_reserved": 0, "is_disabled": 0, "fusion_lon": 0.0, "bike_id": "bc4c6eaecff3ee3743aa15ad7e49566a", "lon": -77.01537616666667, "rental_uris": {"ios": "https://dc.lft.to/lastmile_qr_scan", "android": "https://dc.lft.to/lastmile_qr_scan"}}, {"name": "4402ff11370494c0b5c01df05dc1da07", "fusion_lat": 0.0, "type": "electric_scooter", "lat": 38.92468183333333, "is_reserved": 0, "is_disabled": 0, "fusion_lon": 0.0, "bike_id": "4402ff11370494c0b5c01df05dc1da07", "lon": -77.02245933333333, "rental_uris": {"ios": "https://dc.lft.to/lastmile_qr_scan", "android": "https://dc.lft.to/lastmile_qr_scan"}}, {"name": "fc4c800d392e47aa519a8d9492efe107", "fusion_lat": 0.0, "type": "electric_scooter", "lat": 38.921764833333334, "is_reserved": 0, "is_disabled": 0, "fusion_lon": 0.0, "bike_id": "fc4c800d392e47aa519a8d9492efe107", "lon": -77.02661466666666, "rental_uris": {"ios": "https://dc.lft.to/lastmile_qr_scan", "android": "https://dc.lft.to/lastmile_qr_scan"}}, {"name": "6ed50c344075a897cfdea18794c3b48b", "fusion_lat": 0.0, "type": "electric_scooter", "lat": 38.9023675, "is_reserved": 0, "is_disabled": 0, "fusion_lon": 0.0, "bike_id": "6ed50c344075a897cfdea18794c3b48b", "lon": -76.97407983333333, "rental_uris": {"ios": "https://dc.lft.to/lastmile_qr_scan", "android": "https://dc.lft.to/lastmile_qr_scan"}}, {"name": "4830bdef32a4fd3ff15b4fa09abf24b6", "fusion_lat": 0.0, "type": "electric_scooter", "lat": 38.9111375, "is_reserved": 0, "is_disabled": 0, "fusion_lon": 0.0, "bike_id": "4830bdef32a4fd3ff15b4fa09abf24b6", "lon": -77.03858733333334, "rental_uris": {"ios": "https://dc.lft.to/lastmile_qr_scan", "android": "https://dc.lft.to/lastmile_qr_scan"}}, {"name": "f13744d7a431de59cbb8625404573214", "fusion_lat": 0.0, "type": "electric_scooter", "lat": 38.90260466666667, "is_reserved": 0, "is_disabled": 0, "fusion_lon": 0.0, "bike_id": "f13744d7a431de59cbb8625404573214", "lon": -77.03068616666667, "rental_uris": {"ios": "https://dc.lft.to/lastmile_qr_scan", "android": "https://dc.lft.to/lastmile_qr_scan"}}, {"name": "370eaeff8d02d611d8ada6414affd0c0", "fusion_lat": 0.0, "type": "electric_scooter", "lat": 38.89230033333333, "is_reserved": 0, "is_disabled": 0, "fusion_lon": 0.0, "bike_id": "370eaeff8d02d611d8ada6414affd0c0", "lon": -77.031822, "rental_uris": {"ios": "https://dc.lft.to/lastmile_qr_scan", "android": "https://dc.lft.to/lastmile_qr_scan"}}, {"name": "480a49418ef8ce0733b66cea1224a133", "fusion_lat": 0.0, "type": "electric_scooter", "lat": 38.91404883333333, "is_reserved": 0, "is_disabled": 0, "fusion_lon": 0.0, "bike_id": "480a49418ef8ce0733b66cea1224a133", "lon": -77.00800783333334, "rental_uris": {"ios": "https://dc.lft.to/lastmile_qr_scan", "android": "https://dc.lft.to/lastmile_qr_scan"}}, {"name": "e793559543351e447c0bd1b57d0af097", "fusion_lat": 0.0, "type": "electric_scooter", "lat": 38.90724866666667, "is_reserved": 0, "is_disabled": 0, "fusion_lon": 0.0, "bike_id": "e793559543351e447c0bd1b57d0af097", "lon": -77.04319866666667, "rental_uris": {"ios": "https://dc.lft.to/lastmile_qr_scan", "android": "https://dc.lft.to/lastmile_qr_scan"}}, {"name": "533929acf6424dd7a6c30bf2dcf260c5", "fusion_lat": 0.0, "type": "electric_scooter", "lat": 38.9041785, "is_reserved": 0, "is_disabled": 0, "fusion_lon": 0.0, "bike_id": "533929acf6424dd7a6c30bf2dcf260c5", "lon": -76.97884216666667, "rental_uris": {"ios": "https://dc.lft.to/lastmile_qr_scan", "android": "https://dc.lft.to/lastmile_qr_scan"}}, {"name": "ddf30e4d8d50d715b557b843515d7caf", "fusion_lat": 0.0, "type": "electric_scooter", "lat": 38.9184575, "is_reserved": 0, "is_disabled": 0, "fusion_lon": 0.0, "bike_id": "ddf30e4d8d50d715b557b843515d7caf", "lon": -77.02597616666667, "rental_uris": {"ios": "https://dc.lft.to/lastmile_qr_scan", "android": "https://dc.lft.to/lastmile_qr_scan"}}, {"name": "89ec712de3aa7fa82be5cd84048d48ee", "fusion_lat": 0.0, "type": "electric_scooter", "lat": 38.899973333333335, "is_reserved": 0, "is_disabled": 0, "fusion_lon": 0.0, "bike_id": "89ec712de3aa7fa82be5cd84048d48ee", "lon": -76.9961725, "rental_uris": {"ios": "https://dc.lft.to/lastmile_qr_scan", "android": "https://dc.lft.to/lastmile_qr_scan"}}, {"name": "372404e03130f4afc1a88331fa2949da", "fusion_lat": 0.0, "type": "electric_scooter", "lat": 38.901070833333335, "is_reserved": 0, "is_disabled": 0, "fusion_lon": 0.0, "bike_id": "372404e03130f4afc1a88331fa2949da", "lon": -77.03193916666666, "rental_uris": {"ios": "https://dc.lft.to/lastmile_qr_scan", "android": "https://dc.lft.to/lastmile_qr_scan"}}, {"name": "965be87a97308d51501894cf30682ce4", "fusion_lat": 0.0, "type": "electric_scooter", "lat": 38.91633866666667, "is_reserved": 0, "is_disabled": 0, "fusion_lon": 0.0, "bike_id": "965be87a97308d51501894cf30682ce4", "lon": -77.00108316666666, "rental_uris": {"ios": "https://dc.lft.to/lastmile_qr_scan", "android": "https://dc.lft.to/lastmile_qr_scan"}}, {"name": "e2185bcedfa9301713971e8368c18196", "fusion_lat": 0.0, "type": "electric_scooter", "lat": 38.883691, "is_reserved": 0, "is_disabled": 0, "fusion_lon": 0.0, "bike_id": "e2185bcedfa9301713971e8368c18196", "lon": -77.02639616666667, "rental_uris": {"ios": "https://dc.lft.to/lastmile_qr_scan", "android": "https://dc.lft.to/lastmile_qr_scan"}}, {"name": "16d288ec33f6c6927fa7f319023bdeb9", "fusion_lat": 0.0, "type": "electric_scooter", "lat": 38.913243, "is_reserved": 0, "is_disabled": 0, "fusion_lon": 0.0, "bike_id": "16d288ec33f6c6927fa7f319023bdeb9", "lon": -77.04535733333333, "rental_uris": {"ios": "https://dc.lft.to/lastmile_qr_scan", "android": "https://dc.lft.to/lastmile_qr_scan"}}, {"name": "caab2bb9a3b4baa483079c2eeffc582e", "fusion_lat": 0.0, "type": "electric_scooter", "lat": 38.896210833333335, "is_reserved": 0, "is_disabled": 0, "fusion_lon": 0.0, "bike_id": "caab2bb9a3b4baa483079c2eeffc582e", "lon": -76.99847566666666, "rental_uris": {"ios": "https://dc.lft.to/lastmile_qr_scan", "android": "https://dc.lft.to/lastmile_qr_scan"}}, {"name": "625b498f996dccee994d18375191db44", "fusion_lat": 0.0, "type": "electric_bike", "lat": 38.85791016666667, "is_reserved": 0, "is_disabled": 0, "fusion_lon": 0.0, "bike_id": "625b498f996dccee994d18375191db44", "lon": -76.98745183333334, "rental_uris": {"ios": "https://dc.lft.to/lastmile_qr_scan", "android": "https://dc.lft.to/lastmile_qr_scan"}}, {"name": "6ea56bfa0bbed2bad71566516898e8dc", "fusion_lat": 0.0, "type": "electric_bike", "lat": 38.959558333333334, "is_reserved": 0, "is_disabled": 0, "fusion_lon": 0.0, "bike_id": "6ea56bfa0bbed2bad71566516898e8dc", "lon": -77.10091333333334, "rental_uris": {"ios": "https://dc.lft.to/lastmile_qr_scan", "android": "https://dc.lft.to/lastmile_qr_scan"}}, {"name": "336481997c74f3f64834345acf1e3fdf", "fusion_lat": 0.0, "type": "electric_scooter", "lat": 38.93268966666667, "is_reserved": 0, "is_disabled": 0, "fusion_lon": 0.0, "bike_id": "336481997c74f3f64834345acf1e3fdf", "lon": -77.03894216666667, "rental_uris": {"ios": "https://dc.lft.to/lastmile_qr_scan", "android": "https://dc.lft.to/lastmile_qr_scan"}}, {"name": "8e270cc5fc17cf8ffccba85f4be63782", "fusion_lat": 0.0, "type": "electric_scooter", "lat": 38.90633, "is_reserved": 0, "is_disabled": 0, "fusion_lon": 0.0, "bike_id": "8e270cc5fc17cf8ffccba85f4be63782", "lon": -77.03470433333334, "rental_uris": {"ios": "https://dc.lft.to/lastmile_qr_scan", "android": "https://dc.lft.to/lastmile_qr_scan"}}, {"name": "168f1593e5defbb3722f4581d071f421", "fusion_lat": 0.0, "type": "electric_scooter", "lat": 38.892255666666664, "is_reserved": 0, "is_disabled": 0, "fusion_lon": 0.0, "bike_id": "168f1593e5defbb3722f4581d071f421", "lon": -77.04999533333333, "rental_uris": {"ios": "https://dc.lft.to/lastmile_qr_scan", "android": "https://dc.lft.to/lastmile_qr_scan"}}, {"name": "a49d20271024653866293fe26a590e70", "fusion_lat": 0.0, "type": "electric_scooter", "lat": 38.907227, "is_reserved": 0, "is_disabled": 0, "fusion_lon": 0.0, "bike_id": "a49d20271024653866293fe26a590e70", "lon": -77.00546683333333, "rental_uris": {"ios": "https://dc.lft.to/lastmile_qr_scan", "android": "https://dc.lft.to/lastmile_qr_scan"}}, {"name": "39653d9c3734a63a10ec8f3a09de3921", "fusion_lat": 0.0, "type": "electric_scooter", "lat": 38.876966833333334, "is_reserved": 0, "is_disabled": 0, "fusion_lon": 0.0, "bike_id": "39653d9c3734a63a10ec8f3a09de3921", "lon": -77.01765316666666, "rental_uris": {"ios": "https://dc.lft.to/lastmile_qr_scan", "android": "https://dc.lft.to/lastmile_qr_scan"}}, {"name": "f2b49ee6d6b322c4a4ef747d25a05527", "fusion_lat": 0.0, "type": "electric_scooter", "lat": 38.937134, "is_reserved": 0, "is_disabled": 0, "fusion_lon": 0.0, "bike_id": "f2b49ee6d6b322c4a4ef747d25a05527", "lon": -77.0245705, "rental_uris": {"ios": "https://dc.lft.to/lastmile_qr_scan", "android": "https://dc.lft.to/lastmile_qr_scan"}}, {"name": "316ad6a408263c2642ee6fee7b6fbaac", "fusion_lat": 0.0, "type": "electric_scooter", "lat": 38.9214645, "is_reserved": 0, "is_disabled": 0, "fusion_lon": 0.0, "bike_id": "316ad6a408263c2642ee6fee7b6fbaac", "lon": -77.03867016666666, "rental_uris": {"ios": "https://dc.lft.to/lastmile_qr_scan", "android": "https://dc.lft.to/lastmile_qr_scan"}}, {"name": "449261d196c26fce77dc5ce248e86e2b", "fusion_lat": 0.0, "type": "electric_scooter", "lat": 38.921663833333334, "is_reserved": 0, "is_disabled": 0, "fusion_lon": 0.0, "bike_id": "449261d196c26fce77dc5ce248e86e2b", "lon": -77.0338105, "rental_uris": {"ios": "https://dc.lft.to/lastmile_qr_scan", "android": "https://dc.lft.to/lastmile_qr_scan"}}, {"name": "e3412b9144094d6c9071973f96be0707", "fusion_lat": 0.0, "type": "electric_scooter", "lat": 38.9032745, "is_reserved": 0, "is_disabled": 0, "fusion_lon": 0.0, "bike_id": "e3412b9144094d6c9071973f96be0707", "lon": -77.03331566666667, "rental_uris": {"ios": "https://dc.lft.to/lastmile_qr_scan", "android": "https://dc.lft.to/lastmile_qr_scan"}}, {"name": "8459297f9c5a690874cead7ff2b72449", "fusion_lat": 0.0, "type": "electric_scooter", "lat": 38.8972535, "is_reserved": 0, "is_disabled": 0, "fusion_lon": 0.0, "bike_id": "8459297f9c5a690874cead7ff2b72449", "lon": -77.02041633333333, "rental_uris": {"ios": "https://dc.lft.to/lastmile_qr_scan", "android": "https://dc.lft.to/lastmile_qr_scan"}}, {"name": "49ad92a61daa7d8055303f1cadf600b5", "fusion_lat": 0.0, "type": "electric_scooter", "lat": 38.900309, "is_reserved": 0, "is_disabled": 0, "fusion_lon": 0.0, "bike_id": "49ad92a61daa7d8055303f1cadf600b5", "lon": -77.03995816666666, "rental_uris": {"ios": "https://dc.lft.to/lastmile_qr_scan", "android": "https://dc.lft.to/lastmile_qr_scan"}}, {"name": "21372e44a6beca42544041f92b691211", "fusion_lat": 0.0, "type": "electric_scooter", "lat": 38.908497, "is_reserved": 0, "is_disabled": 0, "fusion_lon": 0.0, "bike_id": "21372e44a6beca42544041f92b691211", "lon": -77.01094383333333, "rental_uris": {"ios": "https://dc.lft.to/lastmile_qr_scan", "android": "https://dc.lft.to/lastmile_qr_scan"}}, {"name": "5b7a6947ab2be1c705f7b85c2feedae3", "fusion_lat": 0.0, "type": "electric_scooter", "lat": 38.921667, "is_reserved": 0, "is_disabled": 0, "fusion_lon": 0.0, "bike_id": "5b7a6947ab2be1c705f7b85c2feedae3", "lon": -77.03372983333334, "rental_uris": {"ios": "https://dc.lft.to/lastmile_qr_scan", "android": "https://dc.lft.to/lastmile_qr_scan"}}, {"name": "c22ce61815cb55cac814e06449eb7d7c", "fusion_lat": 0.0, "type": "electric_scooter", "lat": 38.93704666666667, "is_reserved": 0, "is_disabled": 0, "fusion_lon": 0.0, "bike_id": "c22ce61815cb55cac814e06449eb7d7c", "lon": -77.02399083333333, "rental_uris": {"ios": "https://dc.lft.to/lastmile_qr_scan", "android": "https://dc.lft.to/lastmile_qr_scan"}}, {"name": "db5fe2acb33d74f9f88d2610a14470ce", "fusion_lat": 0.0, "type": "electric_scooter", "lat": 38.90113616666667, "is_reserved": 0, "is_disabled": 0, "fusion_lon": 0.0, "bike_id": "db5fe2acb33d74f9f88d2610a14470ce", "lon": -77.04230366666667, "rental_uris": {"ios": "https://dc.lft.to/lastmile_qr_scan", "android": "https://dc.lft.to/lastmile_qr_scan"}}, {"name": "fab2ea493dfa57b0e39b26d0e89c8246", "fusion_lat": 0.0, "type": "electric_scooter", "lat": 38.9353505, "is_reserved": 0, "is_disabled": 0, "fusion_lon": 0.0, "bike_id": "fab2ea493dfa57b0e39b26d0e89c8246", "lon": -77.034186, "rental_uris": {"ios": "https://dc.lft.to/lastmile_qr_scan", "android": "https://dc.lft.to/lastmile_qr_scan"}}, {"name": "e7424db5e362f91323163a64104ae552", "fusion_lat": 0.0, "type": "electric_scooter", "lat": 38.903473, "is_reserved": 0, "is_disabled": 0, "fusion_lon": 0.0, "bike_id": "e7424db5e362f91323163a64104ae552", "lon": -77.00567266666667, "rental_uris": {"ios": "https://dc.lft.to/lastmile_qr_scan", "android": "https://dc.lft.to/lastmile_qr_scan"}}, {"name": "2082cf049e4f05578962f84af14c4d11", "fusion_lat": 0.0, "type": "electric_bike", "lat": 38.96549683333333, "is_reserved": 0, "is_disabled": 0, "fusion_lon": 0.0, "bike_id": "2082cf049e4f05578962f84af14c4d11", "lon": -77.03511383333333, "rental_uris": {"ios": "https://dc.lft.to/lastmile_qr_scan", "android": "https://dc.lft.to/lastmile_qr_scan"}}, {"name": "448fc86e0600bdbc2e58893ac2e19390", "fusion_lat": 0.0, "type": "electric_scooter", "lat": 38.891883, "is_reserved": 0, "is_disabled": 0, "fusion_lon": 0.0, "bike_id": "448fc86e0600bdbc2e58893ac2e19390", "lon": -77.003333, "rental_uris": {"ios": "https://dc.lft.to/lastmile_qr_scan", "android": "https://dc.lft.to/lastmile_qr_scan"}}, {"name": "d3a525732fbc58cc1dbc91013cb9517a", "fusion_lat": 0.0, "type": "electric_scooter", "lat": 38.931764333333334, "is_reserved": 0, "is_disabled": 0, "fusion_lon": 0.0, "bike_id": "d3a525732fbc58cc1dbc91013cb9517a", "lon": -77.05615266666666, "rental_uris": {"ios": "https://dc.lft.to/lastmile_qr_scan", "android": "https://dc.lft.to/lastmile_qr_scan"}}, {"name": "651cc2a928ee453fe31a992cbea66f25", "fusion_lat": 0.0, "type": "electric_scooter", "lat": 38.924291833333335, "is_reserved": 0, "is_disabled": 0, "fusion_lon": 0.0, "bike_id": "651cc2a928ee453fe31a992cbea66f25", "lon": -77.04151866666666, "rental_uris": {"ios": "https://dc.lft.to/lastmile_qr_scan", "android": "https://dc.lft.to/lastmile_qr_scan"}}, {"name": "65bb56e060e9d3ceb61eecf5c4095923", "fusion_lat": 0.0, "type": "electric_scooter", "lat": 38.92059483333333, "is_reserved": 0, "is_disabled": 0, "fusion_lon": 0.0, "bike_id": "65bb56e060e9d3ceb61eecf5c4095923", "lon": -77.04697083333333, "rental_uris": {"ios": "https://dc.lft.to/lastmile_qr_scan", "android": "https://dc.lft.to/lastmile_qr_scan"}}, {"name": "3052fe16f752ea5a9fa3b3aad0de3a0f", "fusion_lat": 0.0, "type": "electric_scooter", "lat": 38.9211995, "is_reserved": 0, "is_disabled": 0, "fusion_lon": 0.0, "bike_id": "3052fe16f752ea5a9fa3b3aad0de3a0f", "lon": -77.03185866666666, "rental_uris": {"ios": "https://dc.lft.to/lastmile_qr_scan", "android": "https://dc.lft.to/lastmile_qr_scan"}}, {"name": "c5b9d6f817dfba6ea575a0340cd02c19", "fusion_lat": 0.0, "type": "electric_scooter", "lat": 38.890891833333335, "is_reserved": 0, "is_disabled": 0, "fusion_lon": 0.0, "bike_id": "c5b9d6f817dfba6ea575a0340cd02c19", "lon": -76.99785416666667, "rental_uris": {"ios": "https://dc.lft.to/lastmile_qr_scan", "android": "https://dc.lft.to/lastmile_qr_scan"}}, {"name": "57e288d58f3a1cec761e94d7cd3faa23", "fusion_lat": 0.0, "type": "electric_scooter", "lat": 38.8973135, "is_reserved": 0, "is_disabled": 0, "fusion_lon": 0.0, "bike_id": "57e288d58f3a1cec761e94d7cd3faa23", "lon": -77.04723766666666, "rental_uris": {"ios": "https://dc.lft.to/lastmile_qr_scan", "android": "https://dc.lft.to/lastmile_qr_scan"}}, {"name": "45793fe05202ee6676c7cf6170dfbcd4", "fusion_lat": 0.0, "type": "electric_scooter", "lat": 38.9198165, "is_reserved": 0, "is_disabled": 0, "fusion_lon": 0.0, "bike_id": "45793fe05202ee6676c7cf6170dfbcd4", "lon": -77.0331865, "rental_uris": {"ios": "https://dc.lft.to/lastmile_qr_scan", "android": "https://dc.lft.to/lastmile_qr_scan"}}, {"name": "5456340d1ba1e378ad8eb1f2e76bf84e", "fusion_lat": 0.0, "type": "electric_scooter", "lat": 38.90269933333333, "is_reserved": 0, "is_disabled": 0, "fusion_lon": 0.0, "bike_id": "5456340d1ba1e378ad8eb1f2e76bf84e", "lon": -77.01743333333333, "rental_uris": {"ios": "https://dc.lft.to/lastmile_qr_scan", "android": "https://dc.lft.to/lastmile_qr_scan"}}, {"name": "62cd9c897e3c489174cf80c01a054eac", "fusion_lat": 0.0, "type": "electric_scooter", "lat": 38.9002925, "is_reserved": 0, "is_disabled": 0, "fusion_lon": 0.0, "bike_id": "62cd9c897e3c489174cf80c01a054eac", "lon": -77.011874, "rental_uris": {"ios": "https://dc.lft.to/lastmile_qr_scan", "android": "https://dc.lft.to/lastmile_qr_scan"}}, {"name": "17f794a93bc82bb1da2ca681adae653e", "fusion_lat": 0.0, "type": "electric_scooter", "lat": 38.876987, "is_reserved": 0, "is_disabled": 0, "fusion_lon": 0.0, "bike_id": "17f794a93bc82bb1da2ca681adae653e", "lon": -77.01761416666666, "rental_uris": {"ios": "https://dc.lft.to/lastmile_qr_scan", "android": "https://dc.lft.to/lastmile_qr_scan"}}, {"name": "a7a26bf373744cd8dde5f7c28d7f7395", "fusion_lat": 0.0, "type": "electric_scooter", "lat": 38.91761133333333, "is_reserved": 0, "is_disabled": 0, "fusion_lon": 0.0, "bike_id": "a7a26bf373744cd8dde5f7c28d7f7395", "lon": -77.017606, "rental_uris": {"ios": "https://dc.lft.to/lastmile_qr_scan", "android": "https://dc.lft.to/lastmile_qr_scan"}}, {"name": "0d4f42fb3f1b9faf5e063ae86b6272a5", "fusion_lat": 0.0, "type": "electric_scooter", "lat": 38.90146883333333, "is_reserved": 0, "is_disabled": 0, "fusion_lon": 0.0, "bike_id": "0d4f42fb3f1b9faf5e063ae86b6272a5", "lon": -77.03973133333334, "rental_uris": {"ios": "https://dc.lft.to/lastmile_qr_scan", "android": "https://dc.lft.to/lastmile_qr_scan"}}, {"name": "5731ac9af1c4957c7cd196a708af8dc6", "fusion_lat": 0.0, "type": "electric_scooter", "lat": 38.889911166666664, "is_reserved": 0, "is_disabled": 0, "fusion_lon": 0.0, "bike_id": "5731ac9af1c4957c7cd196a708af8dc6", "lon": -77.00116316666667, "rental_uris": {"ios": "https://dc.lft.to/lastmile_qr_scan", "android": "https://dc.lft.to/lastmile_qr_scan"}}, {"name": "2dfa304cfbb50fb28f64b0cfc97fd113", "fusion_lat": 0.0, "type": "electric_bike", "lat": 38.8707045, "is_reserved": 0, "is_disabled": 0, "fusion_lon": 0.0, "bike_id": "2dfa304cfbb50fb28f64b0cfc97fd113", "lon": -77.1105045, "rental_uris": {"ios": "https://dc.lft.to/lastmile_qr_scan", "android": "https://dc.lft.to/lastmile_qr_scan"}}, {"name": "698e6e9f8aad25307788b74bc54f808c", "fusion_lat": 0.0, "type": "electric_scooter", "lat": 38.94836633333333, "is_reserved": 0, "is_disabled": 0, "fusion_lon": 0.0, "bike_id": "698e6e9f8aad25307788b74bc54f808c", "lon": -77.025486, "rental_uris": {"ios": "https://dc.lft.to/lastmile_qr_scan", "android": "https://dc.lft.to/lastmile_qr_scan"}}, {"name": "da6611f50030c8d8360612f6dbbb4bfa", "fusion_lat": 0.0, "type": "electric_scooter", "lat": 38.9028295, "is_reserved": 0, "is_disabled": 0, "fusion_lon": 0.0, "bike_id": "da6611f50030c8d8360612f6dbbb4bfa", "lon": -77.03848633333334, "rental_uris": {"ios": "https://dc.lft.to/lastmile_qr_scan", "android": "https://dc.lft.to/lastmile_qr_scan"}}, {"name": "fbd846d837b7328cd7f05ef6360f8e2d", "fusion_lat": 0.0, "type": "electric_scooter", "lat": 38.915583833333336, "is_reserved": 0, "is_disabled": 0, "fusion_lon": 0.0, "bike_id": "fbd846d837b7328cd7f05ef6360f8e2d", "lon": -77.03233533333334, "rental_uris": {"ios": "https://dc.lft.to/lastmile_qr_scan", "android": "https://dc.lft.to/lastmile_qr_scan"}}, {"name": "ac98645b2b69e94e82cb6afbf4a35bf6", "fusion_lat": 0.0, "type": "electric_scooter", "lat": 38.87750833333333, "is_reserved": 0, "is_disabled": 0, "fusion_lon": 0.0, "bike_id": "ac98645b2b69e94e82cb6afbf4a35bf6", "lon": -76.9723875, "rental_uris": {"ios": "https://dc.lft.to/lastmile_qr_scan", "android": "https://dc.lft.to/lastmile_qr_scan"}}, {"name": "06fc0fa61c681c3d58738c408f403c4b", "fusion_lat": 0.0, "type": "electric_bike", "lat": 38.878454166666664, "is_reserved": 0, "is_disabled": 0, "fusion_lon": 0.0, "bike_id": "06fc0fa61c681c3d58738c408f403c4b", "lon": -77.007703, "rental_uris": {"ios": "https://dc.lft.to/lastmile_qr_scan", "android": "https://dc.lft.to/lastmile_qr_scan"}}, {"name": "6f128f3198a99cd9cf75299067129ab1", "fusion_lat": 0.0, "type": "electric_scooter", "lat": 38.9220195, "is_reserved": 0, "is_disabled": 0, "fusion_lon": 0.0, "bike_id": "6f128f3198a99cd9cf75299067129ab1", "lon": -77.04133733333333, "rental_uris": {"ios": "https://dc.lft.to/lastmile_qr_scan", "android": "https://dc.lft.to/lastmile_qr_scan"}}, {"name": "5f0aac8fac3ea6233a69f2d4cbf848a1", "fusion_lat": 0.0, "type": "electric_scooter", "lat": 38.92306283333333, "is_reserved": 0, "is_disabled": 0, "fusion_lon": 0.0, "bike_id": "5f0aac8fac3ea6233a69f2d4cbf848a1", "lon": -77.02971583333333, "rental_uris": {"ios": "https://dc.lft.to/lastmile_qr_scan", "android": "https://dc.lft.to/lastmile_qr_scan"}}, {"name": "52dbb39281272bb49c6834bc6444f1af", "fusion_lat": 0.0, "type": "electric_bike", "lat": 38.881314, "is_reserved": 0, "is_disabled": 0, "fusion_lon": 0.0, "bike_id": "52dbb39281272bb49c6834bc6444f1af", "lon": -76.980906, "rental_uris": {"ios": "https://dc.lft.to/lastmile_qr_scan", "android": "https://dc.lft.to/lastmile_qr_scan"}}, {"name": "59202a9c88b17cfdb0aa8649f026091a", "fusion_lat": 0.0, "type": "electric_scooter", "lat": 38.88452066666667, "is_reserved": 0, "is_disabled": 0, "fusion_lon": 0.0, "bike_id": "59202a9c88b17cfdb0aa8649f026091a", "lon": -77.02156933333333, "rental_uris": {"ios": "https://dc.lft.to/lastmile_qr_scan", "android": "https://dc.lft.to/lastmile_qr_scan"}}, {"name": "872b455f727306e9e6d6acf229fa5ec0", "fusion_lat": 0.0, "type": "electric_scooter", "lat": 38.8972695, "is_reserved": 0, "is_disabled": 0, "fusion_lon": 0.0, "bike_id": "872b455f727306e9e6d6acf229fa5ec0", "lon": -77.046477, "rental_uris": {"ios": "https://dc.lft.to/lastmile_qr_scan", "android": "https://dc.lft.to/lastmile_qr_scan"}}, {"name": "5fe4bdde912d4d35820cbce7a9d8c316", "fusion_lat": 0.0, "type": "electric_scooter", "lat": 38.931872, "is_reserved": 0, "is_disabled": 0, "fusion_lon": 0.0, "bike_id": "5fe4bdde912d4d35820cbce7a9d8c316", "lon": -77.02578516666667, "rental_uris": {"ios": "https://dc.lft.to/lastmile_qr_scan", "android": "https://dc.lft.to/lastmile_qr_scan"}}, {"name": "4d34e99a969c7ee178543839abd7ee49", "fusion_lat": 0.0, "type": "electric_scooter", "lat": 38.897134666666666, "is_reserved": 0, "is_disabled": 0, "fusion_lon": 0.0, "bike_id": "4d34e99a969c7ee178543839abd7ee49", "lon": -77.03274483333334, "rental_uris": {"ios": "https://dc.lft.to/lastmile_qr_scan", "android": "https://dc.lft.to/lastmile_qr_scan"}}, {"name": "f3d14956348963c40e377043672932f5", "fusion_lat": 0.0, "type": "electric_bike", "lat": 38.8244705, "is_reserved": 0, "is_disabled": 0, "fusion_lon": 0.0, "bike_id": "f3d14956348963c40e377043672932f5", "lon": -77.07043566666667, "rental_uris": {"ios": "https://dc.lft.to/lastmile_qr_scan", "android": "https://dc.lft.to/lastmile_qr_scan"}}, {"name": "f01b6055ae66270e876b98f5da151591", "fusion_lat": 0.0, "type": "electric_scooter", "lat": 38.910507833333334, "is_reserved": 0, "is_disabled": 0, "fusion_lon": 0.0, "bike_id": "f01b6055ae66270e876b98f5da151591", "lon": -77.0434875, "rental_uris": {"ios": "https://dc.lft.to/lastmile_qr_scan", "android": "https://dc.lft.to/lastmile_qr_scan"}}, {"name": "19ccb185c82940bbdf4f607eb9fe1f7f", "fusion_lat": 0.0, "type": "electric_scooter", "lat": 38.8991835, "is_reserved": 0, "is_disabled": 0, "fusion_lon": 0.0, "bike_id": "19ccb185c82940bbdf4f607eb9fe1f7f", "lon": -76.9338465, "rental_uris": {"ios": "https://dc.lft.to/lastmile_qr_scan", "android": "https://dc.lft.to/lastmile_qr_scan"}}, {"name": "23ba67ae2f5af9c4da9892ff26e747e2", "fusion_lat": 0.0, "type": "electric_scooter", "lat": 38.88428966666667, "is_reserved": 0, "is_disabled": 0, "fusion_lon": 0.0, "bike_id": "23ba67ae2f5af9c4da9892ff26e747e2", "lon": -77.03040683333333, "rental_uris": {"ios": "https://dc.lft.to/lastmile_qr_scan", "android": "https://dc.lft.to/lastmile_qr_scan"}}, {"name": "e218d1548a838bab577348e09d8dedcf", "fusion_lat": 0.0, "type": "electric_bike", "lat": 38.873025166666665, "is_reserved": 0, "is_disabled": 0, "fusion_lon": 0.0, "bike_id": "e218d1548a838bab577348e09d8dedcf", "lon": -77.010922, "rental_uris": {"ios": "https://dc.lft.to/lastmile_qr_scan", "android": "https://dc.lft.to/lastmile_qr_scan"}}, {"name": "e1141d3733ab3a66b8718e7d83081f06", "fusion_lat": 0.0, "type": "electric_scooter", "lat": 38.93425083333333, "is_reserved": 0, "is_disabled": 0, "fusion_lon": 0.0, "bike_id": "e1141d3733ab3a66b8718e7d83081f06", "lon": -77.02208566666667, "rental_uris": {"ios": "https://dc.lft.to/lastmile_qr_scan", "android": "https://dc.lft.to/lastmile_qr_scan"}}, {"name": "908607c635a3529bdc61f4ed34745858", "fusion_lat": 0.0, "type": "electric_scooter", "lat": 38.91711, "is_reserved": 0, "is_disabled": 0, "fusion_lon": 0.0, "bike_id": "908607c635a3529bdc61f4ed34745858", "lon": -77.03120166666666, "rental_uris": {"ios": "https://dc.lft.to/lastmile_qr_scan", "android": "https://dc.lft.to/lastmile_qr_scan"}}, {"name": "688f03a1c0a480614f24f66685dd6055", "fusion_lat": 0.0, "type": "electric_scooter", "lat": 38.90575316666666, "is_reserved": 0, "is_disabled": 0, "fusion_lon": 0.0, "bike_id": "688f03a1c0a480614f24f66685dd6055", "lon": -77.00587716666666, "rental_uris": {"ios": "https://dc.lft.to/lastmile_qr_scan", "android": "https://dc.lft.to/lastmile_qr_scan"}}, {"name": "9187b2f83f2b34a8997e2b74a927a47a", "fusion_lat": 0.0, "type": "electric_scooter", "lat": 38.898492, "is_reserved": 0, "is_disabled": 0, "fusion_lon": 0.0, "bike_id": "9187b2f83f2b34a8997e2b74a927a47a", "lon": -77.01609916666666, "rental_uris": {"ios": "https://dc.lft.to/lastmile_qr_scan", "android": "https://dc.lft.to/lastmile_qr_scan"}}, {"name": "ab339d85b62b818a238cd8cb2be63066", "fusion_lat": 0.0, "type": "electric_scooter", "lat": 38.89537816666667, "is_reserved": 0, "is_disabled": 0, "fusion_lon": 0.0, "bike_id": "ab339d85b62b818a238cd8cb2be63066", "lon": -77.02921083333334, "rental_uris": {"ios": "https://dc.lft.to/lastmile_qr_scan", "android": "https://dc.lft.to/lastmile_qr_scan"}}, {"name": "619c337a42c5af2b1c789fc15d90acc4", "fusion_lat": 0.0, "type": "electric_scooter", "lat": 38.9154655, "is_reserved": 0, "is_disabled": 0, "fusion_lon": 0.0, "bike_id": "619c337a42c5af2b1c789fc15d90acc4", "lon": -77.035129, "rental_uris": {"ios": "https://dc.lft.to/lastmile_qr_scan", "android": "https://dc.lft.to/lastmile_qr_scan"}}, {"name": "6ac7fe24e6df4e30f6cedfa5ee224309", "fusion_lat": 0.0, "type": "electric_scooter", "lat": 38.932379833333336, "is_reserved": 0, "is_disabled": 0, "fusion_lon": 0.0, "bike_id": "6ac7fe24e6df4e30f6cedfa5ee224309", "lon": -77.03854416666667, "rental_uris": {"ios": "https://dc.lft.to/lastmile_qr_scan", "android": "https://dc.lft.to/lastmile_qr_scan"}}, {"name": "901dcd8971b9b76a428ecf4a5c0cd556", "fusion_lat": 0.0, "type": "electric_scooter", "lat": 38.90038666666667, "is_reserved": 0, "is_disabled": 0, "fusion_lon": 0.0, "bike_id": "901dcd8971b9b76a428ecf4a5c0cd556", "lon": -77.03975783333334, "rental_uris": {"ios": "https://dc.lft.to/lastmile_qr_scan", "android": "https://dc.lft.to/lastmile_qr_scan"}}, {"name": "0f1bd951cac4f77501e174682d2d71a4", "fusion_lat": 0.0, "type": "electric_scooter", "lat": 38.91869, "is_reserved": 0, "is_disabled": 0, "fusion_lon": 0.0, "bike_id": "0f1bd951cac4f77501e174682d2d71a4", "lon": -77.04484616666667, "rental_uris": {"ios": "https://dc.lft.to/lastmile_qr_scan", "android": "https://dc.lft.to/lastmile_qr_scan"}}, {"name": "4df2548a7de276987f551fd3325bfd8d", "fusion_lat": 0.0, "type": "electric_scooter", "lat": 38.90651916666667, "is_reserved": 0, "is_disabled": 0, "fusion_lon": 0.0, "bike_id": "4df2548a7de276987f551fd3325bfd8d", "lon": -77.05311333333333, "rental_uris": {"ios": "https://dc.lft.to/lastmile_qr_scan", "android": "https://dc.lft.to/lastmile_qr_scan"}}, {"name": "607be8727504d6f4adaf373d7c0909e4", "fusion_lat": 0.0, "type": "electric_scooter", "lat": 38.891936, "is_reserved": 0, "is_disabled": 0, "fusion_lon": 0.0, "bike_id": "607be8727504d6f4adaf373d7c0909e4", "lon": -77.00296683333333, "rental_uris": {"ios": "https://dc.lft.to/lastmile_qr_scan", "android": "https://dc.lft.to/lastmile_qr_scan"}}, {"name": "2069dc0847c55a5e908367a19ddf3748", "fusion_lat": 0.0, "type": "electric_scooter", "lat": 38.920664, "is_reserved": 0, "is_disabled": 0, "fusion_lon": 0.0, "bike_id": "2069dc0847c55a5e908367a19ddf3748", "lon": -76.99849683333333, "rental_uris": {"ios": "https://dc.lft.to/lastmile_qr_scan", "android": "https://dc.lft.to/lastmile_qr_scan"}}, {"name": "740746388748669a0d13cf5dce6eca8e", "fusion_lat": 0.0, "type": "electric_scooter", "lat": 38.892157166666664, "is_reserved": 0, "is_disabled": 0, "fusion_lon": 0.0, "bike_id": "740746388748669a0d13cf5dce6eca8e", "lon": -77.03165, "rental_uris": {"ios": "https://dc.lft.to/lastmile_qr_scan", "android": "https://dc.lft.to/lastmile_qr_scan"}}, {"name": "9ee10c2f20922fe614f68cc6113070a6", "fusion_lat": 0.0, "type": "electric_scooter", "lat": 38.902152, "is_reserved": 0, "is_disabled": 0, "fusion_lon": 0.0, "bike_id": "9ee10c2f20922fe614f68cc6113070a6", "lon": -77.02161983333333, "rental_uris": {"ios": "https://dc.lft.to/lastmile_qr_scan", "android": "https://dc.lft.to/lastmile_qr_scan"}}, {"name": "1fad35d5b5bdaeff5230787486ba75df", "fusion_lat": 0.0, "type": "electric_scooter", "lat": 38.9039995, "is_reserved": 0, "is_disabled": 0, "fusion_lon": 0.0, "bike_id": "1fad35d5b5bdaeff5230787486ba75df", "lon": -77.04024966666667, "rental_uris": {"ios": "https://dc.lft.to/lastmile_qr_scan", "android": "https://dc.lft.to/lastmile_qr_scan"}}, {"name": "504318ca709eef5c8036dfdece84b32a", "fusion_lat": 0.0, "type": "electric_scooter", "lat": 38.92152933333333, "is_reserved": 0, "is_disabled": 0, "fusion_lon": 0.0, "bike_id": "504318ca709eef5c8036dfdece84b32a", "lon": -77.03437683333334, "rental_uris": {"ios": "https://dc.lft.to/lastmile_qr_scan", "android": "https://dc.lft.to/lastmile_qr_scan"}}, {"name": "53704cdc9760c2b982c1329635f5ecae", "fusion_lat": 0.0, "type": "electric_scooter", "lat": 38.92363783333333, "is_reserved": 0, "is_disabled": 0, "fusion_lon": 0.0, "bike_id": "53704cdc9760c2b982c1329635f5ecae", "lon": -77.01954183333334, "rental_uris": {"ios": "https://dc.lft.to/lastmile_qr_scan", "android": "https://dc.lft.to/lastmile_qr_scan"}}, {"name": "debdefc4b3d03e2e383f340358b0f548", "fusion_lat": 0.0, "type": "electric_scooter", "lat": 38.880530666666665, "is_reserved": 0, "is_disabled": 0, "fusion_lon": 0.0, "bike_id": "debdefc4b3d03e2e383f340358b0f548", "lon": -77.01326266666666, "rental_uris": {"ios": "https://dc.lft.to/lastmile_qr_scan", "android": "https://dc.lft.to/lastmile_qr_scan"}}, {"name": "42e4c2d3510e217bb51db2a8b279aaf0", "fusion_lat": 0.0, "type": "electric_bike", "lat": 38.946231833333336, "is_reserved": 0, "is_disabled": 0, "fusion_lon": 0.0, "bike_id": "42e4c2d3510e217bb51db2a8b279aaf0", "lon": -76.94625366666666, "rental_uris": {"ios": "https://dc.lft.to/lastmile_qr_scan", "android": "https://dc.lft.to/lastmile_qr_scan"}}, {"name": "61a626a42424f3d3dae4a4df39838183", "fusion_lat": 0.0, "type": "electric_scooter", "lat": 38.89912, "is_reserved": 0, "is_disabled": 0, "fusion_lon": 0.0, "bike_id": "61a626a42424f3d3dae4a4df39838183", "lon": -77.039218, "rental_uris": {"ios": "https://dc.lft.to/lastmile_qr_scan", "android": "https://dc.lft.to/lastmile_qr_scan"}}, {"name": "94bcbdef424d1836f3c41ad1b153e0ed", "fusion_lat": 0.0, "type": "electric_scooter", "lat": 38.88038983333333, "is_reserved": 0, "is_disabled": 0, "fusion_lon": 0.0, "bike_id": "94bcbdef424d1836f3c41ad1b153e0ed", "lon": -77.00467666666667, "rental_uris": {"ios": "https://dc.lft.to/lastmile_qr_scan", "android": "https://dc.lft.to/lastmile_qr_scan"}}, {"name": "e37e44fda6ce36f4bee57e952f0748ac", "fusion_lat": 0.0, "type": "electric_bike", "lat": 38.84271833333333, "is_reserved": 0, "is_disabled": 0, "fusion_lon": 0.0, "bike_id": "e37e44fda6ce36f4bee57e952f0748ac", "lon": -76.98836816666666, "rental_uris": {"ios": "https://dc.lft.to/lastmile_qr_scan", "android": "https://dc.lft.to/lastmile_qr_scan"}}, {"name": "b6b6ea676d6dc019a4146989a44cda6a", "fusion_lat": 0.0, "type": "electric_scooter", "lat": 38.877502166666666, "is_reserved": 0, "is_disabled": 0, "fusion_lon": 0.0, "bike_id": "b6b6ea676d6dc019a4146989a44cda6a", "lon": -77.01998316666666, "rental_uris": {"ios": "https://dc.lft.to/lastmile_qr_scan", "android": "https://dc.lft.to/lastmile_qr_scan"}}, {"name": "1b2ce1ff1fa7adf99b70884705933c7b", "fusion_lat": 0.0, "type": "electric_scooter", "lat": 38.90279616666667, "is_reserved": 0, "is_disabled": 0, "fusion_lon": 0.0, "bike_id": "1b2ce1ff1fa7adf99b70884705933c7b", "lon": -77.062731, "rental_uris": {"ios": "https://dc.lft.to/lastmile_qr_scan", "android": "https://dc.lft.to/lastmile_qr_scan"}}, {"name": "689b3156a3d2d95b80b757728518bf46", "fusion_lat": 0.0, "type": "electric_scooter", "lat": 38.92868966666666, "is_reserved": 0, "is_disabled": 0, "fusion_lon": 0.0, "bike_id": "689b3156a3d2d95b80b757728518bf46", "lon": -77.03241866666667, "rental_uris": {"ios": "https://dc.lft.to/lastmile_qr_scan", "android": "https://dc.lft.to/lastmile_qr_scan"}}, {"name": "70c0d838b7603666c0e1177105083ff2", "fusion_lat": 0.0, "type": "electric_scooter", "lat": 38.91818416666667, "is_reserved": 0, "is_disabled": 0, "fusion_lon": 0.0, "bike_id": "70c0d838b7603666c0e1177105083ff2", "lon": -77.04002316666667, "rental_uris": {"ios": "https://dc.lft.to/lastmile_qr_scan", "android": "https://dc.lft.to/lastmile_qr_scan"}}, {"name": "418ca2a848194a805313046ebd5f2325", "fusion_lat": 0.0, "type": "electric_scooter", "lat": 38.923783666666665, "is_reserved": 0, "is_disabled": 0, "fusion_lon": 0.0, "bike_id": "418ca2a848194a805313046ebd5f2325", "lon": -77.04107766666667, "rental_uris": {"ios": "https://dc.lft.to/lastmile_qr_scan", "android": "https://dc.lft.to/lastmile_qr_scan"}}, {"name": "1b7d92014a2d3495a105476440a84eed", "fusion_lat": 0.0, "type": "electric_scooter", "lat": 38.91692283333333, "is_reserved": 0, "is_disabled": 0, "fusion_lon": 0.0, "bike_id": "1b7d92014a2d3495a105476440a84eed", "lon": -77.0125725, "rental_uris": {"ios": "https://dc.lft.to/lastmile_qr_scan", "android": "https://dc.lft.to/lastmile_qr_scan"}}, {"name": "d6e987b9c31406f01796ab6c9173058a", "fusion_lat": 0.0, "type": "electric_scooter", "lat": 38.89223066666667, "is_reserved": 0, "is_disabled": 0, "fusion_lon": 0.0, "bike_id": "d6e987b9c31406f01796ab6c9173058a", "lon": -77.05010066666667, "rental_uris": {"ios": "https://dc.lft.to/lastmile_qr_scan", "android": "https://dc.lft.to/lastmile_qr_scan"}}, {"name": "f60721cb16301dd5bba1d0bb4b2b5121", "fusion_lat": 0.0, "type": "electric_scooter", "lat": 38.94559116666667, "is_reserved": 0, "is_disabled": 0, "fusion_lon": 0.0, "bike_id": "f60721cb16301dd5bba1d0bb4b2b5121", "lon": -77.07771833333334, "rental_uris": {"ios": "https://dc.lft.to/lastmile_qr_scan", "android": "https://dc.lft.to/lastmile_qr_scan"}}, {"name": "30e7b70709d6c9da7dc9b971c1aa46ac", "fusion_lat": 0.0, "type": "electric_scooter", "lat": 38.89354016666667, "is_reserved": 0, "is_disabled": 0, "fusion_lon": 0.0, "bike_id": "30e7b70709d6c9da7dc9b971c1aa46ac", "lon": -77.00338133333334, "rental_uris": {"ios": "https://dc.lft.to/lastmile_qr_scan", "android": "https://dc.lft.to/lastmile_qr_scan"}}, {"name": "6f84791a7bda12830713847d1739aee5", "fusion_lat": 0.0, "type": "electric_scooter", "lat": 38.90036666666666, "is_reserved": 0, "is_disabled": 0, "fusion_lon": 0.0, "bike_id": "6f84791a7bda12830713847d1739aee5", "lon": -77.00193483333334, "rental_uris": {"ios": "https://dc.lft.to/lastmile_qr_scan", "android": "https://dc.lft.to/lastmile_qr_scan"}}, {"name": "cbce03c8ff4b2d1c3744a6489c547de9", "fusion_lat": 0.0, "type": "electric_scooter", "lat": 38.916030666666664, "is_reserved": 0, "is_disabled": 0, "fusion_lon": 0.0, "bike_id": "cbce03c8ff4b2d1c3744a6489c547de9", "lon": -77.03183616666666, "rental_uris": {"ios": "https://dc.lft.to/lastmile_qr_scan", "android": "https://dc.lft.to/lastmile_qr_scan"}}, {"name": "afcbc5b9dc54af24b9c1397fc116e028", "fusion_lat": 0.0, "type": "electric_scooter", "lat": 38.927027833333334, "is_reserved": 0, "is_disabled": 0, "fusion_lon": 0.0, "bike_id": "afcbc5b9dc54af24b9c1397fc116e028", "lon": -77.0210805, "rental_uris": {"ios": "https://dc.lft.to/lastmile_qr_scan", "android": "https://dc.lft.to/lastmile_qr_scan"}}, {"name": "6af1e4e1b4d7050cce971efcaab8c99d", "fusion_lat": 0.0, "type": "electric_scooter", "lat": 38.93398783333333, "is_reserved": 0, "is_disabled": 0, "fusion_lon": 0.0, "bike_id": "6af1e4e1b4d7050cce971efcaab8c99d", "lon": -77.035198, "rental_uris": {"ios": "https://dc.lft.to/lastmile_qr_scan", "android": "https://dc.lft.to/lastmile_qr_scan"}}, {"name": "ad393213f936ec57095921d8927a112a", "fusion_lat": 0.0, "type": "electric_scooter", "lat": 38.91421666666667, "is_reserved": 0, "is_disabled": 0, "fusion_lon": 0.0, "bike_id": "ad393213f936ec57095921d8927a112a", "lon": -77.00883616666667, "rental_uris": {"ios": "https://dc.lft.to/lastmile_qr_scan", "android": "https://dc.lft.to/lastmile_qr_scan"}}, {"name": "fbaefb245737e815812e2248f4d971f9", "fusion_lat": 0.0, "type": "electric_scooter", "lat": 38.91269116666667, "is_reserved": 0, "is_disabled": 0, "fusion_lon": 0.0, "bike_id": "fbaefb245737e815812e2248f4d971f9", "lon": -77.06086816666667, "rental_uris": {"ios": "https://dc.lft.to/lastmile_qr_scan", "android": "https://dc.lft.to/lastmile_qr_scan"}}, {"name": "07da83ba05c33ec1d05d654996bacf5c", "fusion_lat": 0.0, "type": "electric_scooter", "lat": 38.898089, "is_reserved": 0, "is_disabled": 0, "fusion_lon": 0.0, "bike_id": "07da83ba05c33ec1d05d654996bacf5c", "lon": -77.02827716666667, "rental_uris": {"ios": "https://dc.lft.to/lastmile_qr_scan", "android": "https://dc.lft.to/lastmile_qr_scan"}}, {"name": "e000aa3028b4aadfaf723ea8f80333c7", "fusion_lat": 0.0, "type": "electric_scooter", "lat": 38.877014, "is_reserved": 0, "is_disabled": 0, "fusion_lon": 0.0, "bike_id": "e000aa3028b4aadfaf723ea8f80333c7", "lon": -77.01766366666666, "rental_uris": {"ios": "https://dc.lft.to/lastmile_qr_scan", "android": "https://dc.lft.to/lastmile_qr_scan"}}, {"name": "9732fca1de9e544d5b98c84c0efacc77", "fusion_lat": 0.0, "type": "electric_scooter", "lat": 38.916957833333335, "is_reserved": 0, "is_disabled": 0, "fusion_lon": 0.0, "bike_id": "9732fca1de9e544d5b98c84c0efacc77", "lon": -77.042704, "rental_uris": {"ios": "https://dc.lft.to/lastmile_qr_scan", "android": "https://dc.lft.to/lastmile_qr_scan"}}, {"name": "9b1e050878000dd2b57448702945b36c", "fusion_lat": 0.0, "type": "electric_bike", "lat": 38.9200565, "is_reserved": 0, "is_disabled": 0, "fusion_lon": 0.0, "bike_id": "9b1e050878000dd2b57448702945b36c", "lon": -76.97491283333333, "rental_uris": {"ios": "https://dc.lft.to/lastmile_qr_scan", "android": "https://dc.lft.to/lastmile_qr_scan"}}, {"name": "c982c99da2175ba7c669faf87c702d84", "fusion_lat": 0.0, "type": "electric_scooter", "lat": 38.906734666666665, "is_reserved": 0, "is_disabled": 0, "fusion_lon": 0.0, "bike_id": "c982c99da2175ba7c669faf87c702d84", "lon": -77.02069366666667, "rental_uris": {"ios": "https://dc.lft.to/lastmile_qr_scan", "android": "https://dc.lft.to/lastmile_qr_scan"}}, {"name": "772d659534adaf915b3c0c8abe6a1dbd", "fusion_lat": 0.0, "type": "electric_scooter", "lat": 38.88065916666667, "is_reserved": 0, "is_disabled": 0, "fusion_lon": 0.0, "bike_id": "772d659534adaf915b3c0c8abe6a1dbd", "lon": -76.93531433333334, "rental_uris": {"ios": "https://dc.lft.to/lastmile_qr_scan", "android": "https://dc.lft.to/lastmile_qr_scan"}}, {"name": "d85182b48e43a21de26cb9300e89e065", "fusion_lat": 0.0, "type": "electric_scooter", "lat": 38.89638633333333, "is_reserved": 0, "is_disabled": 0, "fusion_lon": 0.0, "bike_id": "d85182b48e43a21de26cb9300e89e065", "lon": -77.00924266666667, "rental_uris": {"ios": "https://dc.lft.to/lastmile_qr_scan", "android": "https://dc.lft.to/lastmile_qr_scan"}}, {"name": "a2763f0e50cb7a1c06de827b0fe1e23f", "fusion_lat": 0.0, "type": "electric_scooter", "lat": 38.9041165, "is_reserved": 0, "is_disabled": 0, "fusion_lon": 0.0, "bike_id": "a2763f0e50cb7a1c06de827b0fe1e23f", "lon": -77.03835783333334, "rental_uris": {"ios": "https://dc.lft.to/lastmile_qr_scan", "android": "https://dc.lft.to/lastmile_qr_scan"}}, {"name": "c22ce733626fdff875b9762bc26e4d20", "fusion_lat": 0.0, "type": "electric_scooter", "lat": 38.895880166666664, "is_reserved": 0, "is_disabled": 0, "fusion_lon": 0.0, "bike_id": "c22ce733626fdff875b9762bc26e4d20", "lon": -76.9372035, "rental_uris": {"ios": "https://dc.lft.to/lastmile_qr_scan", "android": "https://dc.lft.to/lastmile_qr_scan"}}, {"name": "f3b9d828e445141c1b349d2bd3e50765", "fusion_lat": 0.0, "type": "electric_scooter", "lat": 38.912158166666664, "is_reserved": 0, "is_disabled": 0, "fusion_lon": 0.0, "bike_id": "f3b9d828e445141c1b349d2bd3e50765", "lon": -77.07592633333333, "rental_uris": {"ios": "https://dc.lft.to/lastmile_qr_scan", "android": "https://dc.lft.to/lastmile_qr_scan"}}, {"name": "83235cb85f9bc9624033748597709f08", "fusion_lat": 0.0, "type": "electric_scooter", "lat": 38.88500916666667, "is_reserved": 0, "is_disabled": 0, "fusion_lon": 0.0, "bike_id": "83235cb85f9bc9624033748597709f08", "lon": -77.02189316666667, "rental_uris": {"ios": "https://dc.lft.to/lastmile_qr_scan", "android": "https://dc.lft.to/lastmile_qr_scan"}}, {"name": "209939d303f5a5e29fb3406ce1457703", "fusion_lat": 0.0, "type": "electric_scooter", "lat": 38.891823, "is_reserved": 0, "is_disabled": 0, "fusion_lon": 0.0, "bike_id": "209939d303f5a5e29fb3406ce1457703", "lon": -77.003422, "rental_uris": {"ios": "https://dc.lft.to/lastmile_qr_scan", "android": "https://dc.lft.to/lastmile_qr_scan"}}, {"name": "5f31b13b7eb3474f238984fdd297c4cb", "fusion_lat": 0.0, "type": "electric_scooter", "lat": 38.900381333333335, "is_reserved": 0, "is_disabled": 0, "fusion_lon": 0.0, "bike_id": "5f31b13b7eb3474f238984fdd297c4cb", "lon": -77.001873, "rental_uris": {"ios": "https://dc.lft.to/lastmile_qr_scan", "android": "https://dc.lft.to/lastmile_qr_scan"}}, {"name": "47b93f8143c814091787839314385169", "fusion_lat": 0.0, "type": "electric_scooter", "lat": 38.928711166666666, "is_reserved": 0, "is_disabled": 0, "fusion_lon": 0.0, "bike_id": "47b93f8143c814091787839314385169", "lon": -77.03243966666666, "rental_uris": {"ios": "https://dc.lft.to/lastmile_qr_scan", "android": "https://dc.lft.to/lastmile_qr_scan"}}, {"name": "594e22ce141be02267eb3487a0757cfe", "fusion_lat": 0.0, "type": "electric_scooter", "lat": 38.903825, "is_reserved": 0, "is_disabled": 0, "fusion_lon": 0.0, "bike_id": "594e22ce141be02267eb3487a0757cfe", "lon": -77.0386565, "rental_uris": {"ios": "https://dc.lft.to/lastmile_qr_scan", "android": "https://dc.lft.to/lastmile_qr_scan"}}, {"name": "c6b6674455cac7a9b70025a4932f827e", "fusion_lat": 0.0, "type": "electric_scooter", "lat": 38.90905866666667, "is_reserved": 0, "is_disabled": 0, "fusion_lon": 0.0, "bike_id": "c6b6674455cac7a9b70025a4932f827e", "lon": -77.02711483333333, "rental_uris": {"ios": "https://dc.lft.to/lastmile_qr_scan", "android": "https://dc.lft.to/lastmile_qr_scan"}}, {"name": "65edc76509e6fc7678a3c107ef2dc47e", "fusion_lat": 0.0, "type": "electric_bike", "lat": 38.92734033333333, "is_reserved": 0, "is_disabled": 0, "fusion_lon": 0.0, "bike_id": "65edc76509e6fc7678a3c107ef2dc47e", "lon": -77.01348916666667, "rental_uris": {"ios": "https://dc.lft.to/lastmile_qr_scan", "android": "https://dc.lft.to/lastmile_qr_scan"}}, {"name": "2292ea3ecfabbdc5292947f773ab5125", "fusion_lat": 0.0, "type": "electric_scooter", "lat": 38.857124166666665, "is_reserved": 0, "is_disabled": 0, "fusion_lon": 0.0, "bike_id": "2292ea3ecfabbdc5292947f773ab5125", "lon": -76.9808835, "rental_uris": {"ios": "https://dc.lft.to/lastmile_qr_scan", "android": "https://dc.lft.to/lastmile_qr_scan"}}, {"name": "75c0a8f76a4f7b82db933e6779cd928b", "fusion_lat": 0.0, "type": "electric_scooter", "lat": 38.90110766666667, "is_reserved": 0, "is_disabled": 0, "fusion_lon": 0.0, "bike_id": "75c0a8f76a4f7b82db933e6779cd928b", "lon": -77.04980116666667, "rental_uris": {"ios": "https://dc.lft.to/lastmile_qr_scan", "android": "https://dc.lft.to/lastmile_qr_scan"}}, {"name": "c0d5784d7e940ece64b237340f91b4fd", "fusion_lat": 0.0, "type": "electric_scooter", "lat": 38.883179, "is_reserved": 0, "is_disabled": 0, "fusion_lon": 0.0, "bike_id": "c0d5784d7e940ece64b237340f91b4fd", "lon": -77.01641166666667, "rental_uris": {"ios": "https://dc.lft.to/lastmile_qr_scan", "android": "https://dc.lft.to/lastmile_qr_scan"}}, {"name": "081518eebf5c7912d4384188a8d14389", "fusion_lat": 0.0, "type": "electric_scooter", "lat": 38.89855, "is_reserved": 0, "is_disabled": 0, "fusion_lon": 0.0, "bike_id": "081518eebf5c7912d4384188a8d14389", "lon": -76.97666933333333, "rental_uris": {"ios": "https://dc.lft.to/lastmile_qr_scan", "android": "https://dc.lft.to/lastmile_qr_scan"}}, {"name": "96267c7b5bbf70aef2321f1b14708d8d", "fusion_lat": 0.0, "type": "electric_bike", "lat": 38.990612, "is_reserved": 0, "is_disabled": 0, "fusion_lon": 0.0, "bike_id": "96267c7b5bbf70aef2321f1b14708d8d", "lon": -77.100283, "rental_uris": {"ios": "https://dc.lft.to/lastmile_qr_scan", "android": "https://dc.lft.to/lastmile_qr_scan"}}, {"name": "252aeb18b54050ccb0c80a20ac66c766", "fusion_lat": 0.0, "type": "electric_scooter", "lat": 38.846274666666666, "is_reserved": 0, "is_disabled": 0, "fusion_lon": 0.0, "bike_id": "252aeb18b54050ccb0c80a20ac66c766", "lon": -76.9844185, "rental_uris": {"ios": "https://dc.lft.to/lastmile_qr_scan", "android": "https://dc.lft.to/lastmile_qr_scan"}}, {"name": "d16934a4fb32413df2ee21e8f66fb0d6", "fusion_lat": 0.0, "type": "electric_scooter", "lat": 38.905883, "is_reserved": 0, "is_disabled": 0, "fusion_lon": 0.0, "bike_id": "d16934a4fb32413df2ee21e8f66fb0d6", "lon": -77.01613283333333, "rental_uris": {"ios": "https://dc.lft.to/lastmile_qr_scan", "android": "https://dc.lft.to/lastmile_qr_scan"}}, {"name": "322d31f4b10a532eccd93e295fd80297", "fusion_lat": 0.0, "type": "electric_scooter", "lat": 38.88502166666667, "is_reserved": 0, "is_disabled": 0, "fusion_lon": 0.0, "bike_id": "322d31f4b10a532eccd93e295fd80297", "lon": -77.015804, "rental_uris": {"ios": "https://dc.lft.to/lastmile_qr_scan", "android": "https://dc.lft.to/lastmile_qr_scan"}}, {"name": "8df85314e473c16f8bd12f879dacd485", "fusion_lat": 0.0, "type": "electric_scooter", "lat": 38.923520333333336, "is_reserved": 0, "is_disabled": 0, "fusion_lon": 0.0, "bike_id": "8df85314e473c16f8bd12f879dacd485", "lon": -77.03366033333333, "rental_uris": {"ios": "https://dc.lft.to/lastmile_qr_scan", "android": "https://dc.lft.to/lastmile_qr_scan"}}, {"name": "8e3cb93446485e59ee6693441db70f5d", "fusion_lat": 0.0, "type": "electric_scooter", "lat": 38.8467955, "is_reserved": 0, "is_disabled": 0, "fusion_lon": 0.0, "bike_id": "8e3cb93446485e59ee6693441db70f5d", "lon": -76.99207766666666, "rental_uris": {"ios": "https://dc.lft.to/lastmile_qr_scan", "android": "https://dc.lft.to/lastmile_qr_scan"}}, {"name": "cf3e2f460d41ae1d3445b6c7428b0ee4", "fusion_lat": 0.0, "type": "electric_bike", "lat": 38.90714583333333, "is_reserved": 0, "is_disabled": 0, "fusion_lon": 0.0, "bike_id": "cf3e2f460d41ae1d3445b6c7428b0ee4", "lon": -77.043276, "rental_uris": {"ios": "https://dc.lft.to/lastmile_qr_scan", "android": "https://dc.lft.to/lastmile_qr_scan"}}, {"name": "f0f8fe0657e2235b307e77a0a8cd2ecf", "fusion_lat": 0.0, "type": "electric_scooter", "lat": 38.85807716666667, "is_reserved": 0, "is_disabled": 0, "fusion_lon": 0.0, "bike_id": "f0f8fe0657e2235b307e77a0a8cd2ecf", "lon": -76.98655883333333, "rental_uris": {"ios": "https://dc.lft.to/lastmile_qr_scan", "android": "https://dc.lft.to/lastmile_qr_scan"}}, {"name": "b728c1b013bb99fe7145b097e564d7ac", "fusion_lat": 0.0, "type": "electric_scooter", "lat": 38.932643, "is_reserved": 0, "is_disabled": 0, "fusion_lon": 0.0, "bike_id": "b728c1b013bb99fe7145b097e564d7ac", "lon": -77.0389395, "rental_uris": {"ios": "https://dc.lft.to/lastmile_qr_scan", "android": "https://dc.lft.to/lastmile_qr_scan"}}, {"name": "4a70735ff67988437ca2ebc3580cb660", "fusion_lat": 0.0, "type": "electric_scooter", "lat": 38.9381815, "is_reserved": 0, "is_disabled": 0, "fusion_lon": 0.0, "bike_id": "4a70735ff67988437ca2ebc3580cb660", "lon": -77.02480083333333, "rental_uris": {"ios": "https://dc.lft.to/lastmile_qr_scan", "android": "https://dc.lft.to/lastmile_qr_scan"}}, {"name": "731b9a4928839baf5e804de774fbcd3b", "fusion_lat": 0.0, "type": "electric_scooter", "lat": 38.894853499999996, "is_reserved": 0, "is_disabled": 0, "fusion_lon": 0.0, "bike_id": "731b9a4928839baf5e804de774fbcd3b", "lon": -77.02593716666667, "rental_uris": {"ios": "https://dc.lft.to/lastmile_qr_scan", "android": "https://dc.lft.to/lastmile_qr_scan"}}, {"name": "c30e6a94f3fcca2b9ac6170cd58e84a8", "fusion_lat": 0.0, "type": "electric_scooter", "lat": 38.90268716666667, "is_reserved": 0, "is_disabled": 0, "fusion_lon": 0.0, "bike_id": "c30e6a94f3fcca2b9ac6170cd58e84a8", "lon": -77.04361533333334, "rental_uris": {"ios": "https://dc.lft.to/lastmile_qr_scan", "android": "https://dc.lft.to/lastmile_qr_scan"}}, {"name": "efdf77125b0efcd22667664c9760c003", "fusion_lat": 0.0, "type": "electric_scooter", "lat": 38.93017016666667, "is_reserved": 0, "is_disabled": 0, "fusion_lon": 0.0, "bike_id": "efdf77125b0efcd22667664c9760c003", "lon": -77.03791216666667, "rental_uris": {"ios": "https://dc.lft.to/lastmile_qr_scan", "android": "https://dc.lft.to/lastmile_qr_scan"}}, {"name": "5b4e53f2d9db7be34c05e989531494e2", "fusion_lat": 0.0, "type": "electric_scooter", "lat": 38.93873983333334, "is_reserved": 0, "is_disabled": 0, "fusion_lon": 0.0, "bike_id": "5b4e53f2d9db7be34c05e989531494e2", "lon": -77.03256933333333, "rental_uris": {"ios": "https://dc.lft.to/lastmile_qr_scan", "android": "https://dc.lft.to/lastmile_qr_scan"}}, {"name": "fe11ce44b10b18434a457354bc431b05", "fusion_lat": 0.0, "type": "electric_scooter", "lat": 38.96560016666667, "is_reserved": 0, "is_disabled": 0, "fusion_lon": 0.0, "bike_id": "fe11ce44b10b18434a457354bc431b05", "lon": -77.01625166666666, "rental_uris": {"ios": "https://dc.lft.to/lastmile_qr_scan", "android": "https://dc.lft.to/lastmile_qr_scan"}}, {"name": "7876a98403fa9a8800c6aaeea96964fd", "fusion_lat": 0.0, "type": "electric_scooter", "lat": 38.904272166666665, "is_reserved": 0, "is_disabled": 0, "fusion_lon": 0.0, "bike_id": "7876a98403fa9a8800c6aaeea96964fd", "lon": -77.02593, "rental_uris": {"ios": "https://dc.lft.to/lastmile_qr_scan", "android": "https://dc.lft.to/lastmile_qr_scan"}}, {"name": "0cca2863f5a72bea5974617d100bb05f", "fusion_lat": 0.0, "type": "electric_scooter", "lat": 38.906417, "is_reserved": 0, "is_disabled": 0, "fusion_lon": 0.0, "bike_id": "0cca2863f5a72bea5974617d100bb05f", "lon": -77.03900216666666, "rental_uris": {"ios": "https://dc.lft.to/lastmile_qr_scan", "android": "https://dc.lft.to/lastmile_qr_scan"}}, {"name": "4238cb15709bbd731592090d90e90aea", "fusion_lat": 0.0, "type": "electric_scooter", "lat": 38.92680983333333, "is_reserved": 0, "is_disabled": 0, "fusion_lon": 0.0, "bike_id": "4238cb15709bbd731592090d90e90aea", "lon": -77.02785533333333, "rental_uris": {"ios": "https://dc.lft.to/lastmile_qr_scan", "android": "https://dc.lft.to/lastmile_qr_scan"}}, {"name": "d1f6c6c41e081d74161c1a03e26f26cb", "fusion_lat": 0.0, "type": "electric_scooter", "lat": 38.931016666666665, "is_reserved": 0, "is_disabled": 0, "fusion_lon": 0.0, "bike_id": "d1f6c6c41e081d74161c1a03e26f26cb", "lon": -77.03721783333333, "rental_uris": {"ios": "https://dc.lft.to/lastmile_qr_scan", "android": "https://dc.lft.to/lastmile_qr_scan"}}, {"name": "ca659f48f6af1aa0766cc5f55bf11484", "fusion_lat": 0.0, "type": "electric_scooter", "lat": 38.898440666666666, "is_reserved": 0, "is_disabled": 0, "fusion_lon": 0.0, "bike_id": "ca659f48f6af1aa0766cc5f55bf11484", "lon": -77.02012916666666, "rental_uris": {"ios": "https://dc.lft.to/lastmile_qr_scan", "android": "https://dc.lft.to/lastmile_qr_scan"}}, {"name": "19faf1f33368c99970c73591c3eefabe", "fusion_lat": 0.0, "type": "electric_scooter", "lat": 38.909690499999996, "is_reserved": 0, "is_disabled": 0, "fusion_lon": 0.0, "bike_id": "19faf1f33368c99970c73591c3eefabe", "lon": -77.01716016666667, "rental_uris": {"ios": "https://dc.lft.to/lastmile_qr_scan", "android": "https://dc.lft.to/lastmile_qr_scan"}}, {"name": "558851e79b63940117a44d9cd400546a", "fusion_lat": 0.0, "type": "electric_bike", "lat": 38.928649166666666, "is_reserved": 0, "is_disabled": 0, "fusion_lon": 0.0, "bike_id": "558851e79b63940117a44d9cd400546a", "lon": -76.9610855, "rental_uris": {"ios": "https://dc.lft.to/lastmile_qr_scan", "android": "https://dc.lft.to/lastmile_qr_scan"}}, {"name": "44f035b36077495a54228d1f819200d5", "fusion_lat": 0.0, "type": "electric_scooter", "lat": 38.9057455, "is_reserved": 0, "is_disabled": 0, "fusion_lon": 0.0, "bike_id": "44f035b36077495a54228d1f819200d5", "lon": -77.04863183333333, "rental_uris": {"ios": "https://dc.lft.to/lastmile_qr_scan", "android": "https://dc.lft.to/lastmile_qr_scan"}}, {"name": "d8deb97f5c25f0901ce50cb9d874139e", "fusion_lat": 0.0, "type": "electric_scooter", "lat": 38.92016666666667, "is_reserved": 0, "is_disabled": 0, "fusion_lon": 0.0, "bike_id": "d8deb97f5c25f0901ce50cb9d874139e", "lon": -77.03119766666667, "rental_uris": {"ios": "https://dc.lft.to/lastmile_qr_scan", "android": "https://dc.lft.to/lastmile_qr_scan"}}, {"name": "39af54fab5946a77c549970e67fda9da", "fusion_lat": 0.0, "type": "electric_scooter", "lat": 38.91330766666667, "is_reserved": 0, "is_disabled": 0, "fusion_lon": 0.0, "bike_id": "39af54fab5946a77c549970e67fda9da", "lon": -77.04872666666667, "rental_uris": {"ios": "https://dc.lft.to/lastmile_qr_scan", "android": "https://dc.lft.to/lastmile_qr_scan"}}, {"name": "e39cfd8f385d7fbefba66e9c67ecf5bb", "fusion_lat": 0.0, "type": "electric_scooter", "lat": 38.910702, "is_reserved": 0, "is_disabled": 0, "fusion_lon": 0.0, "bike_id": "e39cfd8f385d7fbefba66e9c67ecf5bb", "lon": -77.00848883333333, "rental_uris": {"ios": "https://dc.lft.to/lastmile_qr_scan", "android": "https://dc.lft.to/lastmile_qr_scan"}}, {"name": "e172b1face20555ab56ac8df843f52fc", "fusion_lat": 0.0, "type": "electric_scooter", "lat": 38.905665666666664, "is_reserved": 0, "is_disabled": 0, "fusion_lon": 0.0, "bike_id": "e172b1face20555ab56ac8df843f52fc", "lon": -77.0053775, "rental_uris": {"ios": "https://dc.lft.to/lastmile_qr_scan", "android": "https://dc.lft.to/lastmile_qr_scan"}}, {"name": "08d68ff51cf02d1859d08a0ee0599891", "fusion_lat": 0.0, "type": "electric_scooter", "lat": 38.92625833333334, "is_reserved": 0, "is_disabled": 0, "fusion_lon": 0.0, "bike_id": "08d68ff51cf02d1859d08a0ee0599891", "lon": -77.03780266666666, "rental_uris": {"ios": "https://dc.lft.to/lastmile_qr_scan", "android": "https://dc.lft.to/lastmile_qr_scan"}}, {"name": "5ecae2f78ffbe24ab0f8f7f4a272b73f", "fusion_lat": 0.0, "type": "electric_scooter", "lat": 38.892219833333336, "is_reserved": 0, "is_disabled": 0, "fusion_lon": 0.0, "bike_id": "5ecae2f78ffbe24ab0f8f7f4a272b73f", "lon": -77.03339416666667, "rental_uris": {"ios": "https://dc.lft.to/lastmile_qr_scan", "android": "https://dc.lft.to/lastmile_qr_scan"}}, {"name": "41b4c639b332fcad7eabc5fcea98cca0", "fusion_lat": 0.0, "type": "electric_scooter", "lat": 38.89238866666667, "is_reserved": 0, "is_disabled": 0, "fusion_lon": 0.0, "bike_id": "41b4c639b332fcad7eabc5fcea98cca0", "lon": -77.015174, "rental_uris": {"ios": "https://dc.lft.to/lastmile_qr_scan", "android": "https://dc.lft.to/lastmile_qr_scan"}}, {"name": "61309260962c0949bbd59f726bab8748", "fusion_lat": 0.0, "type": "electric_scooter", "lat": 38.91203983333333, "is_reserved": 0, "is_disabled": 0, "fusion_lon": 0.0, "bike_id": "61309260962c0949bbd59f726bab8748", "lon": -77.0453105, "rental_uris": {"ios": "https://dc.lft.to/lastmile_qr_scan", "android": "https://dc.lft.to/lastmile_qr_scan"}}, {"name": "1a53eceeca8ed11b5e00c0e8d1787197", "fusion_lat": 0.0, "type": "electric_scooter", "lat": 38.9011625, "is_reserved": 0, "is_disabled": 0, "fusion_lon": 0.0, "bike_id": "1a53eceeca8ed11b5e00c0e8d1787197", "lon": -77.046242, "rental_uris": {"ios": "https://dc.lft.to/lastmile_qr_scan", "android": "https://dc.lft.to/lastmile_qr_scan"}}, {"name": "a94a53a5f609531e704075c096677af4", "fusion_lat": 0.0, "type": "electric_scooter", "lat": 38.8765565, "is_reserved": 0, "is_disabled": 0, "fusion_lon": 0.0, "bike_id": "a94a53a5f609531e704075c096677af4", "lon": -77.0042675, "rental_uris": {"ios": "https://dc.lft.to/lastmile_qr_scan", "android": "https://dc.lft.to/lastmile_qr_scan"}}, {"name": "ecf56d68228bb235c270a37c350b3bb7", "fusion_lat": 0.0, "type": "electric_bike", "lat": 38.8637565, "is_reserved": 0, "is_disabled": 0, "fusion_lon": 0.0, "bike_id": "ecf56d68228bb235c270a37c350b3bb7", "lon": -77.12897016666666, "rental_uris": {"ios": "https://dc.lft.to/lastmile_qr_scan", "android": "https://dc.lft.to/lastmile_qr_scan"}}, {"name": "ba249df37c08aee83e751862170a135a", "fusion_lat": 0.0, "type": "electric_scooter", "lat": 38.885040333333336, "is_reserved": 0, "is_disabled": 0, "fusion_lon": 0.0, "bike_id": "ba249df37c08aee83e751862170a135a", "lon": -77.00564733333333, "rental_uris": {"ios": "https://dc.lft.to/lastmile_qr_scan", "android": "https://dc.lft.to/lastmile_qr_scan"}}, {"name": "85f08ea42236c24a5eecc5ad82934f64", "fusion_lat": 0.0, "type": "electric_scooter", "lat": 38.862432166666665, "is_reserved": 0, "is_disabled": 0, "fusion_lon": 0.0, "bike_id": "85f08ea42236c24a5eecc5ad82934f64", "lon": -76.99497116666667, "rental_uris": {"ios": "https://dc.lft.to/lastmile_qr_scan", "android": "https://dc.lft.to/lastmile_qr_scan"}}, {"name": "4270172e694ba15690b47836b9c78b14", "fusion_lat": 0.0, "type": "electric_scooter", "lat": 38.87662783333333, "is_reserved": 0, "is_disabled": 0, "fusion_lon": 0.0, "bike_id": "4270172e694ba15690b47836b9c78b14", "lon": -77.00735883333333, "rental_uris": {"ios": "https://dc.lft.to/lastmile_qr_scan", "android": "https://dc.lft.to/lastmile_qr_scan"}}, {"name": "5e156b3d96eaed57d3922e10a74150da", "fusion_lat": 0.0, "type": "electric_scooter", "lat": 38.9245485, "is_reserved": 0, "is_disabled": 0, "fusion_lon": 0.0, "bike_id": "5e156b3d96eaed57d3922e10a74150da", "lon": -77.0396955, "rental_uris": {"ios": "https://dc.lft.to/lastmile_qr_scan", "android": "https://dc.lft.to/lastmile_qr_scan"}}, {"name": "24573a7d481f652f53c72c3d2185e334", "fusion_lat": 0.0, "type": "electric_scooter", "lat": 38.900725666666666, "is_reserved": 0, "is_disabled": 0, "fusion_lon": 0.0, "bike_id": "24573a7d481f652f53c72c3d2185e334", "lon": -77.05029933333333, "rental_uris": {"ios": "https://dc.lft.to/lastmile_qr_scan", "android": "https://dc.lft.to/lastmile_qr_scan"}}, {"name": "8ac75935602727a1a39532e3b11ce1d2", "fusion_lat": 0.0, "type": "electric_bike", "lat": 38.88749216666667, "is_reserved": 0, "is_disabled": 0, "fusion_lon": 0.0, "bike_id": "8ac75935602727a1a39532e3b11ce1d2", "lon": -76.9007805, "rental_uris": {"ios": "https://dc.lft.to/lastmile_qr_scan", "android": "https://dc.lft.to/lastmile_qr_scan"}}, {"name": "a2bf4fcbd6d4fc63c650b77a4d913f3a", "fusion_lat": 0.0, "type": "electric_scooter", "lat": 38.91246233333333, "is_reserved": 0, "is_disabled": 0, "fusion_lon": 0.0, "bike_id": "a2bf4fcbd6d4fc63c650b77a4d913f3a", "lon": -77.03832966666667, "rental_uris": {"ios": "https://dc.lft.to/lastmile_qr_scan", "android": "https://dc.lft.to/lastmile_qr_scan"}}, {"name": "e52aca716428334618f9962823aa698a", "fusion_lat": 0.0, "type": "electric_scooter", "lat": 38.92978816666667, "is_reserved": 0, "is_disabled": 0, "fusion_lon": 0.0, "bike_id": "e52aca716428334618f9962823aa698a", "lon": -77.01448233333333, "rental_uris": {"ios": "https://dc.lft.to/lastmile_qr_scan", "android": "https://dc.lft.to/lastmile_qr_scan"}},