{"data": {"bikes": [{"lon": -77.01106633333333, "lat": 38.96305316666667, "name": "b0d3c3985c2652350a707ce3569c4843", "fusion_lat": 0.0, "fusion_lon": 0.0, "rental_uris": {"android": "https://dc.lft.to/lastmile_qr_scan", "ios": "https://dc.lft.to/lastmile_qr_scan"}, "is_reserved": 0, "is_disabled": 0, "type": "electric_bike", "bike_id": "b0d3c3985c2652350a707ce3569c4843"}, {"lon": -77.03880133333334, "lat": 38.911871166666664, "name": "11f127d42179d7a4f40ecbb5e9764fe0", "fusion_lat": 0.0, "fusion_lon": 0.0, "rental_uris": {"android": "https://dc.lft.to/lastmile_qr_scan", "ios": "https://dc.lft.to/lastmile_qr_scan"}, "is_reserved": 0, "is_disabled": 0, "type": "electric_scooter", "bike_id": "11f127d42179d7a4f40ecbb5e9764fe0"}, {"lon": -77.0322595, "lat": 38.897922333333334, "name": "561ef0375ba6b852359d3e8d09526146", "fusion_lat": 0.0, "fusion_lon": 0.0, "rental_uris": {"android": "https://dc.lft.to/lastmile_qr_scan", "ios": "https://dc.lft.to/lastmile_qr_scan"}, "is_reserved": 0, "is_disabled": 0, "type": "electric_scooter", "bike_id": "561ef0375ba6b852359d3e8d09526146"}, {"lon": -76.9733245, "lat": 38.9048, "name": "adf9867191b617b76dce156adc8b7287", "fusion_lat": 0.0, "fusion_lon": 0.0, "rental_uris": {"android": "https://dc.lft.to/lastmile_qr_scan", "ios": "https://dc.lft.to/lastmile_qr_scan"}, "is_reserved": 0, "is_disabled": 0, "type": "electric_scooter", "bike_id": "adf9867191b617b76dce156adc8b7287"}, {"lon": -77.02603216666667, "lat": 38.890469, "name": "b18f19d79c1cb540365300e9fda8c89d", "fusion_lat": 0.0, "fusion_lon": 0.0, "rental_uris": {"android": "https://dc.lft.to/lastmile_qr_scan", "ios": "https://dc.lft.to/lastmile_qr_scan"}, "is_reserved": 0, "is_disabled": 0, "type": "electric_bike", "bike_id": "b18f19d79c1cb540365300e9fda8c89d"}, {"lon": -77.0306855, "lat": 38.90580466666667, "name": "0e631eac85ccf7d9e222da5871d1e957", "fusion_lat": 0.0, "fusion_lon": 0.0, "rental_uris": {"android": "https://dc.lft.to/lastmile_qr_scan", "ios": "https://dc.lft.to/lastmile_qr_scan"}, "is_reserved": 0, "is_disabled": 0, "type": "electric_scooter", "bike_id": "0e631eac85ccf7d9e222da5871d1e957"}, {"lon": -77.00143216666666, "lat": 38.90411666666667, "name": "e2de1e808809b724ad6359c6b4919b50", "fusion_lat": 0.0, "fusion_lon": 0.0, "rental_uris": {"android": "https://dc.lft.to/lastmile_qr_scan", "ios": "https://dc.lft.to/lastmile_qr_scan"}, "is_reserved": 0, "is_disabled": 0, "type": "electric_scooter", "bike_id": "e2de1e808809b724ad6359c6b4919b50"}, {"lon": -77.0260695, "lat": 38.89847183333333, "name": "e071a46a6202134949ffcfa07315907b", "fusion_lat": 0.0, "fusion_lon": 0.0, "rental_uris": {"android": "https://dc.lft.to/lastmile_qr_scan", "ios": "https://dc.lft.to/lastmile_qr_scan"}, "is_reserved": 0, "is_disabled": 0, "type": "electric_scooter", "bike_id": "e071a46a6202134949ffcfa07315907b"}, {"lon": -77.10898633333333, "lat": 38.8304225, "name": "a6d5369b0e999f6d8be4b615e8a9045c", "fusion_lat": 0.0, "fusion_lon": 0.0, "rental_uris": {"android": "https://dc.lft.to/lastmile_qr_scan", "ios": "https://dc.lft.to/lastmile_qr_scan"}, "is_reserved": 0, "is_disabled": 0, "type": "electric_bike", "bike_id": "a6d5369b0e999f6d8be4b615e8a9045c"}, {"lon": -77.0354355, "lat": 38.92326516666667, "name": "bb00f47f513d9cb6372b48f572ea0541", "fusion_lat": 0.0, "fusion_lon": 0.0, "rental_uris": {"android": "https://dc.lft.to/lastmile_qr_scan", "ios": "https://dc.lft.to/lastmile_qr_scan"}, "is_reserved": 0, "is_disabled": 0, "type": "electric_scooter", "bike_id": "bb00f47f513d9cb6372b48f572ea0541"}, {"lon": -77.0382815, "lat": 38.931458, "name": "e6fe6cbb123478534706032f29f85d1b", "fusion_lat": 0.0, "fusion_lon": 0.0, "rental_uris": {"android": "https://dc.lft.to/lastmile_qr_scan", "ios": "https://dc.lft.to/lastmile_qr_scan"}, "is_reserved": 0, "is_disabled": 0, "type": "electric_scooter", "bike_id": "e6fe6cbb123478534706032f29f85d1b"}, {"lon": -76.93174, "lat": 38.8988575, "name": "2a20340bb5c157d07e2a96caf8a31620", "fusion_lat": 0.0, "fusion_lon": 0.0, "rental_uris": {"android": "https://dc.lft.to/lastmile_qr_scan", "ios": "https://dc.lft.to/lastmile_qr_scan"}, "is_reserved": 0, "is_disabled": 0, "type": "electric_scooter", "bike_id": "2a20340bb5c157d07e2a96caf8a31620"}, {"lon": -77.02724033333334, "lat": 38.951337333333335, "name": "43b9113afdf0eb2ba86bbb348e1897ce", "fusion_lat": 0.0, "fusion_lon": 0.0, "rental_uris": {"android": "https://dc.lft.to/lastmile_qr_scan", "ios": "https://dc.lft.to/lastmile_qr_scan"}, "is_reserved": 0, "is_disabled": 0, "type": "electric_scooter", "bike_id": "43b9113afdf0eb2ba86bbb348e1897ce"}, {"lon": -77.009273, "lat": 38.89607733333333, "name": "59557d04d466298b52be868cef675dea", "fusion_lat": 0.0, "fusion_lon": 0.0, "rental_uris": {"android": "https://dc.lft.to/lastmile_qr_scan", "ios": "https://dc.lft.to/lastmile_qr_scan"}, "is_reserved": 0, "is_disabled": 0, "type": "electric_scooter", "bike_id": "59557d04d466298b52be868cef675dea"}, {"lon": -77.00726483333334, "lat": 38.884929666666665, "name": "32dc6fb456c0ee044b7500b9b77d27e0", "fusion_lat": 0.0, "fusion_lon": 0.0, "rental_uris": {"android": "https://dc.lft.to/lastmile_qr_scan", "ios": "https://dc.lft.to/lastmile_qr_scan"}, "is_reserved": 0, "is_disabled": 0, "type": "electric_scooter", "bike_id": "32dc6fb456c0ee044b7500b9b77d27e0"}, {"lon": -76.98858266666667, "lat": 38.900331, "name": "31d1d564168794a0f574cac9518dd171", "fusion_lat": 0.0, "fusion_lon": 0.0, "rental_uris": {"android": "https://dc.lft.to/lastmile_qr_scan", "ios": "https://dc.lft.to/lastmile_qr_scan"}, "is_reserved": 0, "is_disabled": 0, "type": "electric_scooter", "bike_id": "31d1d564168794a0f574cac9518dd171"}, {"lon": -77.02126333333334, "lat": 38.903205, "name": "38e9322eb91620b5308e4246effc18ea", "fusion_lat": 0.0, "fusion_lon": 0.0, "rental_uris": {"android": "https://dc.lft.to/lastmile_qr_scan", "ios": "https://dc.lft.to/lastmile_qr_scan"}, "is_reserved": 0, "is_disabled": 0, "type": "electric_scooter", "bike_id": "38e9322eb91620b5308e4246effc18ea"}, {"lon": -77.00756766666667, "lat": 38.87125866666667, "name": "52d21e6afcd5a43e37b3071b7d0fcb4b", "fusion_lat": 0.0, "fusion_lon": 0.0, "rental_uris": {"android": "https://dc.lft.to/lastmile_qr_scan", "ios": "https://dc.lft.to/lastmile_qr_scan"}, "is_reserved": 0, "is_disabled": 0, "type": "electric_scooter", "bike_id": "52d21e6afcd5a43e37b3071b7d0fcb4b"}, {"lon": -77.35309083333334, "lat": 38.94999633333333, "name": "1f01b189ed01730666af808b6d17e04c", "fusion_lat": 0.0, "fusion_lon": 0.0, "rental_uris": {"android": "https://dc.lft.to/lastmile_qr_scan", "ios": "https://dc.lft.to/lastmile_qr_scan"}, "is_reserved": 0, "is_disabled": 0, "type": "electric_bike", "bike_id": "1f01b189ed01730666af808b6d17e04c"}, {"lon": -77.01385716666667, "lat": 38.9287575, "name": "0675e5db7c6ae220393a32473c08147c", "fusion_lat": 0.0, "fusion_lon": 0.0, "rental_uris": {"android": "https://dc.lft.to/lastmile_qr_scan", "ios": "https://dc.lft.to/lastmile_qr_scan"}, "is_reserved": 0, "is_disabled": 0, "type": "electric_scooter", "bike_id": "0675e5db7c6ae220393a32473c08147c"}, {"lon": -77.02180383333334, "lat": 38.9098325, "name": "d079345a28e67b2565f52b51e414ad94", "fusion_lat": 0.0, "fusion_lon": 0.0, "rental_uris": {"android": "https://dc.lft.to/lastmile_qr_scan", "ios": "https://dc.lft.to/lastmile_qr_scan"}, "is_reserved": 0, "is_disabled": 0, "type": "electric_scooter", "bike_id": "d079345a28e67b2565f52b51e414ad94"}, {"lon": -77.07854, "lat": 38.9315945, "name": "d3c68323255d3720499387ee15b904fa", "fusion_lat": 0.0, "fusion_lon": 0.0, "rental_uris": {"android": "https://dc.lft.to/lastmile_qr_scan", "ios": "https://dc.lft.to/lastmile_qr_scan"}, "is_reserved": 0, "is_disabled": 0, "type": "electric_scooter", "bike_id": "d3c68323255d3720499387ee15b904fa"}, {"lon": -77.00576, "lat": 38.872165, "name": "2334a47d43f6ada5df321be3cec50735", "fusion_lat": 0.0, "fusion_lon": 0.0, "rental_uris": {"android": "https://dc.lft.to/lastmile_qr_scan", "ios": "https://dc.lft.to/lastmile_qr_scan"}, "is_reserved": 0, "is_disabled": 0, "type": "electric_scooter", "bike_id": "2334a47d43f6ada5df321be3cec50735"}, {"lon": -77.04853866666667, "lat": 38.9164185, "name": "fe8b8bb6e98f1c28de439821a558c661", "fusion_lat": 0.0, "fusion_lon": 0.0, "rental_uris": {"android": "https://dc.lft.to/lastmile_qr_scan", "ios": "https://dc.lft.to/lastmile_qr_scan"}, "is_reserved": 0, "is_disabled": 0, "type": "electric_bike", "bike_id": "fe8b8bb6e98f1c28de439821a558c661"}, {"lon": -77.04409383333333, "lat": 38.920457, "name": "4da1317a63953288328e27a653f9640a", "fusion_lat": 0.0, "fusion_lon": 0.0, "rental_uris": {"android": "https://dc.lft.to/lastmile_qr_scan", "ios": "https://dc.lft.to/lastmile_qr_scan"}, "is_reserved": 0, "is_disabled": 0, "type": "electric_scooter", "bike_id": "4da1317a63953288328e27a653f9640a"}, {"lon": -77.00218116666667, "lat": 38.90480383333333, "name": "7dcbe6bb3e8200c3317958bfab04b24e", "fusion_lat": 0.0, "fusion_lon": 0.0, "rental_uris": {"android": "https://dc.lft.to/lastmile_qr_scan", "ios": "https://dc.lft.to/lastmile_qr_scan"}, "is_reserved": 0, "is_disabled": 0, "type": "electric_scooter", "bike_id": "7dcbe6bb3e8200c3317958bfab04b24e"}, {"lon": -76.96548633333333, "lat": 38.95105516666667, "name": "f6559fa96f90cdd3d426c8859be5a0aa", "fusion_lat": 0.0, "fusion_lon": 0.0, "rental_uris": {"android": "https://dc.lft.to/lastmile_qr_scan", "ios": "https://dc.lft.to/lastmile_qr_scan"}, "is_reserved": 0, "is_disabled": 0, "type": "electric_bike", "bike_id": "f6559fa96f90cdd3d426c8859be5a0aa"}, {"lon": -77.040348, "lat": 38.9171415, "name": "0a820d05303b6890382ab109f45d6488", "fusion_lat": 0.0, "fusion_lon": 0.0, "rental_uris": {"android": "https://dc.lft.to/lastmile_qr_scan", "ios": "https://dc.lft.to/lastmile_qr_scan"}, "is_reserved": 0, "is_disabled": 0, "type": "electric_scooter", "bike_id": "0a820d05303b6890382ab109f45d6488"}, {"lon": -77.02830533333334, "lat": 38.88770316666667, "name": "0c99a9c9ae9d052a35380c47c75d427e", "fusion_lat": 0.0, "fusion_lon": 0.0, "rental_uris": {"android": "https://dc.lft.to/lastmile_qr_scan", "ios": "https://dc.lft.to/lastmile_qr_scan"}, "is_reserved": 0, "is_disabled": 0, "type": "electric_scooter", "bike_id": "0c99a9c9ae9d052a35380c47c75d427e"}, {"lon": -77.03848316666667, "lat": 38.91481733333333, "name": "2f0b4c5888de2d903093076a63c97c52", "fusion_lat": 0.0, "fusion_lon": 0.0, "rental_uris": {"android": "https://dc.lft.to/lastmile_qr_scan", "ios": "https://dc.lft.to/lastmile_qr_scan"}, "is_reserved": 0, "is_disabled": 0, "type": "electric_scooter", "bike_id": "2f0b4c5888de2d903093076a63c97c52"}, {"lon": -77.04637266666667, "lat": 38.89226216666667, "name": "e54cf0db67da6524ad66f8ace72a8c0c", "fusion_lat": 0.0, "fusion_lon": 0.0, "rental_uris": {"android": "https://dc.lft.to/lastmile_qr_scan", "ios": "https://dc.lft.to/lastmile_qr_scan"}, "is_reserved": 0, "is_disabled": 0, "type": "electric_scooter", "bike_id": "e54cf0db67da6524ad66f8ace72a8c0c"}, {"lon": -77.04147433333333, "lat": 38.923374, "name": "9c0e1802f265f2225dc4f1cd2cc9ba1b", "fusion_lat": 0.0, "fusion_lon": 0.0, "rental_uris": {"android": "https://dc.lft.to/lastmile_qr_scan", "ios": "https://dc.lft.to/lastmile_qr_scan"}, "is_reserved": 0, "is_disabled": 0, "type": "electric_scooter", "bike_id": "9c0e1802f265f2225dc4f1cd2cc9ba1b"}, {"lon": -77.03141616666667, "lat": 38.89729883333333, "name": "1c19139d4e336804978363d702c9689c", "fusion_lat": 0.0, "fusion_lon": 0.0, "rental_uris": {"android": "https://dc.lft.to/lastmile_qr_scan", "ios": "https://dc.lft.to/lastmile_qr_scan"}, "is_reserved": 0, "is_disabled": 0, "type": "electric_scooter", "bike_id": "1c19139d4e336804978363d702c9689c"}, {"lon": -77.06263016666666, "lat": 38.90596766666667, "name": "7bc1ee73410d8bb32b9711a3e76fc3b0", "fusion_lat": 0.0, "fusion_lon": 0.0, "rental_uris": {"android": "https://dc.lft.to/lastmile_qr_scan", "ios": "https://dc.lft.to/lastmile_qr_scan"}, "is_reserved": 0, "is_disabled": 0, "type": "electric_scooter", "bike_id": "7bc1ee73410d8bb32b9711a3e76fc3b0"}, {"lon": -76.99488833333334, "lat": 38.86243183333333, "name": "2d25d71841943fd5ed79c890ffef9441", "fusion_lat": 0.0, "fusion_lon": 0.0, "rental_uris": {"android": "https://dc.lft.to/lastmile_qr_scan", "ios": "https://dc.lft.to/lastmile_qr_scan"}, "is_reserved": 0, "is_disabled": 0, "type": "electric_scooter", "bike_id": "2d25d71841943fd5ed79c890ffef9441"}, {"lon": -77.00687016666667, "lat": 38.8770415, "name": "53b73dfd7dc9582151d3190f566f9953", "fusion_lat": 0.0, "fusion_lon": 0.0, "rental_uris": {"android": "https://dc.lft.to/lastmile_qr_scan", "ios": "https://dc.lft.to/lastmile_qr_scan"}, "is_reserved": 0, "is_disabled": 0, "type": "electric_scooter", "bike_id": "53b73dfd7dc9582151d3190f566f9953"}, {"lon": -77.0340165, "lat": 38.919225, "name": "35defd085f61a75c253d12c70b742174", "fusion_lat": 0.0, "fusion_lon": 0.0, "rental_uris": {"android": "https://dc.lft.to/lastmile_qr_scan", "ios": "https://dc.lft.to/lastmile_qr_scan"}, "is_reserved": 0, "is_disabled": 0, "type": "electric_scooter", "bike_id": "35defd085f61a75c253d12c70b742174"}, {"lon": -76.999083, "lat": 38.909493166666664, "name": "61146123637444a71ae8baf8ccaf2712", "fusion_lat": 0.0, "fusion_lon": 0.0, "rental_uris": {"android": "https://dc.lft.to/lastmile_qr_scan", "ios": "https://dc.lft.to/lastmile_qr_scan"}, "is_reserved": 0, "is_disabled": 0, "type": "electric_scooter", "bike_id": "61146123637444a71ae8baf8ccaf2712"}, {"lon": -77.03855283333333, "lat": 38.93241183333333, "name": "4b9899f91b851b0674878f3806565c40", "fusion_lat": 0.0, "fusion_lon": 0.0, "rental_uris": {"android": "https://dc.lft.to/lastmile_qr_scan", "ios": "https://dc.lft.to/lastmile_qr_scan"}, "is_reserved": 0, "is_disabled": 0, "type": "electric_scooter", "bike_id": "4b9899f91b851b0674878f3806565c40"}, {"lon": -77.1309405, "lat": 38.86164016666667, "name": "e55c6023fe2ccc3e5616c9faf46a3272", "fusion_lat": 0.0, "fusion_lon": 0.0, "rental_uris": {"android": "https://dc.lft.to/lastmile_qr_scan", "ios": "https://dc.lft.to/lastmile_qr_scan"}, "is_reserved": 0, "is_disabled": 0, "type": "electric_bike", "bike_id": "e55c6023fe2ccc3e5616c9faf46a3272"}, {"lon": -77.02292983333334, "lat": 38.918400166666665, "name": "4120a6454494baa44abc11684e41a7ef", "fusion_lat": 0.0, "fusion_lon": 0.0, "rental_uris": {"android": "https://dc.lft.to/lastmile_qr_scan", "ios": "https://dc.lft.to/lastmile_qr_scan"}, "is_reserved": 0, "is_disabled": 0, "type": "electric_scooter", "bike_id": "4120a6454494baa44abc11684e41a7ef"}, {"lon": -77.024545, "lat": 38.9385495, "name": "f32c7e565f792126b48aee17deed8315", "fusion_lat": 0.0, "fusion_lon": 0.0, "rental_uris": {"android": "https://dc.lft.to/lastmile_qr_scan", "ios": "https://dc.lft.to/lastmile_qr_scan"}, "is_reserved": 0, "is_disabled": 0, "type": "electric_scooter", "bike_id": "f32c7e565f792126b48aee17deed8315"}, {"lon": -77.03863, "lat": 38.907701333333335, "name": "4f908d3dfa3fca91051f1defd26ec48d", "fusion_lat": 0.0, "fusion_lon": 0.0, "rental_uris": {"android": "https://dc.lft.to/lastmile_qr_scan", "ios": "https://dc.lft.to/lastmile_qr_scan"}, "is_reserved": 0, "is_disabled": 0, "type": "electric_scooter", "bike_id": "4f908d3dfa3fca91051f1defd26ec48d"}, {"lon": -76.98348666666666, "lat": 38.915371666666665, "name": "cd0902273f8494e9a33ea973aaaff720", "fusion_lat": 0.0, "fusion_lon": 0.0, "rental_uris": {"android": "https://dc.lft.to/lastmile_qr_scan", "ios": "https://dc.lft.to/lastmile_qr_scan"}, "is_reserved": 0, "is_disabled": 0, "type": "electric_scooter", "bike_id": "cd0902273f8494e9a33ea973aaaff720"}, {"lon": -77.03329933333333, "lat": 38.8985135, "name": "30683de7a1424263066f7f29f9492830", "fusion_lat": 0.0, "fusion_lon": 0.0, "rental_uris": {"android": "https://dc.lft.to/lastmile_qr_scan", "ios": "https://dc.lft.to/lastmile_qr_scan"}, "is_reserved": 0, "is_disabled": 0, "type": "electric_scooter", "bike_id": "30683de7a1424263066f7f29f9492830"}, {"lon": -77.03769633333333, "lat": 38.92232583333333, "name": "c64d5ace23602988804a8da258d7394a", "fusion_lat": 0.0, "fusion_lon": 0.0, "rental_uris": {"android": "https://dc.lft.to/lastmile_qr_scan", "ios": "https://dc.lft.to/lastmile_qr_scan"}, "is_reserved": 0, "is_disabled": 0, "type": "electric_scooter", "bike_id": "c64d5ace23602988804a8da258d7394a"}, {"lon": -77.059353, "lat": 38.93669366666666, "name": "a385626eae7b45dec211fc9d5188b71a", "fusion_lat": 0.0, "fusion_lon": 0.0, "rental_uris": {"android": "https://dc.lft.to/lastmile_qr_scan", "ios": "https://dc.lft.to/lastmile_qr_scan"}, "is_reserved": 0, "is_disabled": 0, "type": "electric_scooter", "bike_id": "a385626eae7b45dec211fc9d5188b71a"}, {"lon": -77.05005566666667, "lat": 38.8922975, "name": "05fda84b0e2cb6897c32c5ab7e2ded79", "fusion_lat": 0.0, "fusion_lon": 0.0, "rental_uris": {"android": "https://dc.lft.to/lastmile_qr_scan", "ios": "https://dc.lft.to/lastmile_qr_scan"}, "is_reserved": 0, "is_disabled": 0, "type": "electric_scooter", "bike_id": "05fda84b0e2cb6897c32c5ab7e2ded79"}, {"lon": -77.027213, "lat": 38.94091383333333, "name": "a44744436863e5bdacaec234f03f878d", "fusion_lat": 0.0, "fusion_lon": 0.0, "rental_uris": {"android": "https://dc.lft.to/lastmile_qr_scan", "ios": "https://dc.lft.to/lastmile_qr_scan"}, "is_reserved": 0, "is_disabled": 0, "type": "electric_scooter", "bike_id": "a44744436863e5bdacaec234f03f878d"}, {"lon": -77.02827666666667, "lat": 38.887472, "name": "037dfdfbdceaa1b14007e723257d9473", "fusion_lat": 0.0, "fusion_lon": 0.0, "rental_uris": {"android": "https://dc.lft.to/lastmile_qr_scan", "ios": "https://dc.lft.to/lastmile_qr_scan"}, "is_reserved": 0, "is_disabled": 0, "type": "electric_scooter", "bike_id": "037dfdfbdceaa1b14007e723257d9473"}, {"lon": -76.99061533333334, "lat": 38.86365416666666, "name": "5084d4b2e0f6d04bec622015f6f7c80c", "fusion_lat": 0.0, "fusion_lon": 0.0, "rental_uris": {"android": "https://dc.lft.to/lastmile_qr_scan", "ios": "https://dc.lft.to/lastmile_qr_scan"}, "is_reserved": 0, "is_disabled": 0, "type": "electric_scooter", "bike_id": "5084d4b2e0f6d04bec622015f6f7c80c"}, {"lon": -77.04544133333333, "lat": 38.894814333333336, "name": "0b2425efbbc471d2bc6d65b19911d1cf", "fusion_lat": 0.0, "fusion_lon": 0.0, "rental_uris": {"android": "https://dc.lft.to/lastmile_qr_scan", "ios": "https://dc.lft.to/lastmile_qr_scan"}, "is_reserved": 0, "is_disabled": 0, "type": "electric_scooter", "bike_id": "0b2425efbbc471d2bc6d65b19911d1cf"}, {"lon": -77.03188283333333, "lat": 38.914856, "name": "30a122d3a9e30dbc0bab3e7e961d9cab", "fusion_lat": 0.0, "fusion_lon": 0.0, "rental_uris": {"android": "https://dc.lft.to/lastmile_qr_scan", "ios": "https://dc.lft.to/lastmile_qr_scan"}, "is_reserved": 0, "is_disabled": 0, "type": "electric_scooter", "bike_id": "30a122d3a9e30dbc0bab3e7e961d9cab"}, {"lon": -77.03197316666666, "lat": 38.900379, "name": "4482cc48acef28cae64cef387627ea6b", "fusion_lat": 0.0, "fusion_lon": 0.0, "rental_uris": {"android": "https://dc.lft.to/lastmile_qr_scan", "ios": "https://dc.lft.to/lastmile_qr_scan"}, "is_reserved": 0, "is_disabled": 0, "type": "electric_scooter", "bike_id": "4482cc48acef28cae64cef387627ea6b"}, {"lon": -77.02699616666666, "lat": 38.9094335, "name": "fd9b079dadfaafcfe96e4074694df12a", "fusion_lat": 0.0, "fusion_lon": 0.0, "rental_uris": {"android": "https://dc.lft.to/lastmile_qr_scan", "ios": "https://dc.lft.to/lastmile_qr_scan"}, "is_reserved": 0, "is_disabled": 0, "type": "electric_scooter", "bike_id": "fd9b079dadfaafcfe96e4074694df12a"}, {"lon": -77.0190275, "lat": 38.939185333333334, "name": "bbd43e7cd1445a3b8e9f9463a2f94e9c", "fusion_lat": 0.0, "fusion_lon": 0.0, "rental_uris": {"android": "https://dc.lft.to/lastmile_qr_scan", "ios": "https://dc.lft.to/lastmile_qr_scan"}, "is_reserved": 0, "is_disabled": 0, "type": "electric_scooter", "bike_id": "bbd43e7cd1445a3b8e9f9463a2f94e9c"}, {"lon": -76.947724, "lat": 38.896514333333336, "name": "81d6e625eff5087b1ea3c27fe1ea501d", "fusion_lat": 0.0, "fusion_lon": 0.0, "rental_uris": {"android": "https://dc.lft.to/lastmile_qr_scan", "ios": "https://dc.lft.to/lastmile_qr_scan"}, "is_reserved": 0, "is_disabled": 0, "type": "electric_bike", "bike_id": "81d6e625eff5087b1ea3c27fe1ea501d"}, {"lon": -77.00339416666667, "lat": 38.895277, "name": "c1a4adecf5a2e0affc5aa0dec5e4f30b", "fusion_lat": 0.0, "fusion_lon": 0.0, "rental_uris": {"android": "https://dc.lft.to/lastmile_qr_scan", "ios": "https://dc.lft.to/lastmile_qr_scan"}, "is_reserved": 0, "is_disabled": 0, "type": "electric_scooter", "bike_id": "c1a4adecf5a2e0affc5aa0dec5e4f30b"}, {"lon": -77.0336185, "lat": 38.90275366666667, "name": "b9e4c6801fa79f8b81243107616e109e", "fusion_lat": 0.0, "fusion_lon": 0.0, "rental_uris": {"android": "https://dc.lft.to/lastmile_qr_scan", "ios": "https://dc.lft.to/lastmile_qr_scan"}, "is_reserved": 0, "is_disabled": 0, "type": "electric_scooter", "bike_id": "b9e4c6801fa79f8b81243107616e109e"}, {"lon": -77.044783, "lat": 38.91265883333333, "name": "abe63ea1e2100eb2450a7cd3a76efa91", "fusion_lat": 0.0, "fusion_lon": 0.0, "rental_uris": {"android": "https://dc.lft.to/lastmile_qr_scan", "ios": "https://dc.lft.to/lastmile_qr_scan"}, "is_reserved": 0, "is_disabled": 0, "type": "electric_scooter", "bike_id": "abe63ea1e2100eb2450a7cd3a76efa91"}, {"lon": -77.00586633333333, "lat": 38.9061635, "name": "3c31f8ab7dd40ea16ef89d2c02db6888", "fusion_lat": 0.0, "fusion_lon": 0.0, "rental_uris": {"android": "https://dc.lft.to/lastmile_qr_scan", "ios": "https://dc.lft.to/lastmile_qr_scan"}, "is_reserved": 0, "is_disabled": 0, "type": "electric_scooter", "bike_id": "3c31f8ab7dd40ea16ef89d2c02db6888"}, {"lon": -77.044267, "lat": 38.93155733333333, "name": "78109523fdf5e9702a95c353a4753b5b", "fusion_lat": 0.0, "fusion_lon": 0.0, "rental_uris": {"android": "https://dc.lft.to/lastmile_qr_scan", "ios": "https://dc.lft.to/lastmile_qr_scan"}, "is_reserved": 0, "is_disabled": 0, "type": "electric_scooter", "bike_id": "78109523fdf5e9702a95c353a4753b5b"}, {"lon": -77.0242245, "lat": 38.89223466666667, "name": "8f282245c5f071984477bf4499ea8c13", "fusion_lat": 0.0, "fusion_lon": 0.0, "rental_uris": {"android": "https://dc.lft.to/lastmile_qr_scan", "ios": "https://dc.lft.to/lastmile_qr_scan"}, "is_reserved": 0, "is_disabled": 0, "type": "electric_scooter", "bike_id": "8f282245c5f071984477bf4499ea8c13"}, {"lon": -77.0277295, "lat": 38.92763466666667, "name": "b176777ed777ab7c7c13ca61f2ed7e75", "fusion_lat": 0.0, "fusion_lon": 0.0, "rental_uris": {"android": "https://dc.lft.to/lastmile_qr_scan", "ios": "https://dc.lft.to/lastmile_qr_scan"}, "is_reserved": 0, "is_disabled": 0, "type": "electric_scooter", "bike_id": "b176777ed777ab7c7c13ca61f2ed7e75"}, {"lon": -77.00333783333333, "lat": 38.89354983333333, "name": "2a936ab7d52924c184ac2b3387680946", "fusion_lat": 0.0, "fusion_lon": 0.0, "rental_uris": {"android": "https://dc.lft.to/lastmile_qr_scan", "ios": "https://dc.lft.to/lastmile_qr_scan"}, "is_reserved": 0, "is_disabled": 0, "type": "electric_scooter", "bike_id": "2a936ab7d52924c184ac2b3387680946"}, {"lon": -77.02722333333334, "lat": 38.951364166666664, "name": "02baa8374763d5ae01156aada23b0f9c", "fusion_lat": 0.0, "fusion_lon": 0.0, "rental_uris": {"android": "https://dc.lft.to/lastmile_qr_scan", "ios": "https://dc.lft.to/lastmile_qr_scan"}, "is_reserved": 0, "is_disabled": 0, "type": "electric_scooter", "bike_id": "02baa8374763d5ae01156aada23b0f9c"}, {"lon": -77.033655, "lat": 38.93590733333333, "name": "4f7601db9eb53750164f1b6818b8cbdf", "fusion_lat": 0.0, "fusion_lon": 0.0, "rental_uris": {"android": "https://dc.lft.to/lastmile_qr_scan", "ios": "https://dc.lft.to/lastmile_qr_scan"}, "is_reserved": 0, "is_disabled": 0, "type": "electric_scooter", "bike_id": "4f7601db9eb53750164f1b6818b8cbdf"}, {"lon": -77.0426605, "lat": 38.92238433333333, "name": "2da36bdf2aeba5a5a3f5d3f5172389c3", "fusion_lat": 0.0, "fusion_lon": 0.0, "rental_uris": {"android": "https://dc.lft.to/lastmile_qr_scan", "ios": "https://dc.lft.to/lastmile_qr_scan"}, "is_reserved": 0, "is_disabled": 0, "type": "electric_scooter", "bike_id": "2da36bdf2aeba5a5a3f5d3f5172389c3"}, {"lon": -76.9759525, "lat": 38.903355166666664, "name": "a0db88750d1f9ee0077b515b829e4ca5", "fusion_lat": 0.0, "fusion_lon": 0.0, "rental_uris": {"android": "https://dc.lft.to/lastmile_qr_scan", "ios": "https://dc.lft.to/lastmile_qr_scan"}, "is_reserved": 0, "is_disabled": 0, "type": "electric_scooter", "bike_id": "a0db88750d1f9ee0077b515b829e4ca5"}, {"lon": -77.02893683333333, "lat": 38.958453166666665, "name": "75d46430ecf958fab06a4290100a3c51", "fusion_lat": 0.0, "fusion_lon": 0.0, "rental_uris": {"android": "https://dc.lft.to/lastmile_qr_scan", "ios": "https://dc.lft.to/lastmile_qr_scan"}, "is_reserved": 0, "is_disabled": 0, "type": "electric_scooter", "bike_id": "75d46430ecf958fab06a4290100a3c51"}, {"lon": -77.03605533333334, "lat": 38.95617766666667, "name": "60469f010a7fad6672cd06e74f1a1dec", "fusion_lat": 0.0, "fusion_lon": 0.0, "rental_uris": {"android": "https://dc.lft.to/lastmile_qr_scan", "ios": "https://dc.lft.to/lastmile_qr_scan"}, "is_reserved": 0, "is_disabled": 0, "type": "electric_scooter", "bike_id": "60469f010a7fad6672cd06e74f1a1dec"}, {"lon": -77.02789883333334, "lat": 38.930889666666666, "name": "0560179ddd61aa740081a4e791a9a790", "fusion_lat": 0.0, "fusion_lon": 0.0, "rental_uris": {"android": "https://dc.lft.to/lastmile_qr_scan", "ios": "https://dc.lft.to/lastmile_qr_scan"}, "is_reserved": 0, "is_disabled": 0, "type": "electric_scooter", "bike_id": "0560179ddd61aa740081a4e791a9a790"}, {"lon": -77.055604, "lat": 38.89985383333333, "name": "a1f076b552e02a713976dcbfe605f6a5", "fusion_lat": 0.0, "fusion_lon": 0.0, "rental_uris": {"android": "https://dc.lft.to/lastmile_qr_scan", "ios": "https://dc.lft.to/lastmile_qr_scan"}, "is_reserved": 0, "is_disabled": 0, "type": "electric_scooter", "bike_id": "a1f076b552e02a713976dcbfe605f6a5"}, {"lon": -76.98729333333333, "lat": 38.867165166666666, "name": "81afc39bd75dab646190f18fd7c99949", "fusion_lat": 0.0, "fusion_lon": 0.0, "rental_uris": {"android": "https://dc.lft.to/lastmile_qr_scan", "ios": "https://dc.lft.to/lastmile_qr_scan"}, "is_reserved": 0, "is_disabled": 0, "type": "electric_scooter", "bike_id": "81afc39bd75dab646190f18fd7c99949"}, {"lon": -77.0397355, "lat": 38.90138366666667, "name": "352923086a37577ad0f81d62a0549fd5", "fusion_lat": 0.0, "fusion_lon": 0.0, "rental_uris": {"android": "https://dc.lft.to/lastmile_qr_scan", "ios": "https://dc.lft.to/lastmile_qr_scan"}, "is_reserved": 0, "is_disabled": 0, "type": "electric_scooter", "bike_id": "352923086a37577ad0f81d62a0549fd5"}, {"lon": -77.02464183333333, "lat": 38.9191805, "name": "fba6681cdf65239f54b99c8486edc320", "fusion_lat": 0.0, "fusion_lon": 0.0, "rental_uris": {"android": "https://dc.lft.to/lastmile_qr_scan", "ios": "https://dc.lft.to/lastmile_qr_scan"}, "is_reserved": 0, "is_disabled": 0, "type": "electric_scooter", "bike_id": "fba6681cdf65239f54b99c8486edc320"}, {"lon": -77.0326215, "lat": 38.908690666666665, "name": "3e7dce63b49b9ff5d9f68bb9ec7972ce", "fusion_lat": 0.0, "fusion_lon": 0.0, "rental_uris": {"android": "https://dc.lft.to/lastmile_qr_scan", "ios": "https://dc.lft.to/lastmile_qr_scan"}, "is_reserved": 0, "is_disabled": 0, "type": "electric_scooter", "bike_id": "3e7dce63b49b9ff5d9f68bb9ec7972ce"}, {"lon": -77.0121045, "lat": 38.91982, "name": "e1ae0c205cebca9285868f465d5cb54e", "fusion_lat": 0.0, "fusion_lon": 0.0, "rental_uris": {"android": "https://dc.lft.to/lastmile_qr_scan", "ios": "https://dc.lft.to/lastmile_qr_scan"}, "is_reserved": 0, "is_disabled": 0, "type": "electric_scooter", "bike_id": "e1ae0c205cebca9285868f465d5cb54e"}, {"lon": -77.04862616666666, "lat": 38.89226016666667, "name": "b0ca220272b6071cbc927676bb91e3b1", "fusion_lat": 0.0, "fusion_lon": 0.0, "rental_uris": {"android": "https://dc.lft.to/lastmile_qr_scan", "ios": "https://dc.lft.to/lastmile_qr_scan"}, "is_reserved": 0, "is_disabled": 0, "type": "electric_scooter", "bike_id": "b0ca220272b6071cbc927676bb91e3b1"}, {"lon": -77.0393635, "lat": 38.90142066666667, "name": "90815b9e01a9da7d10e087eafb61400b", "fusion_lat": 0.0, "fusion_lon": 0.0, "rental_uris": {"android": "https://dc.lft.to/lastmile_qr_scan", "ios": "https://dc.lft.to/lastmile_qr_scan"}, "is_reserved": 0, "is_disabled": 0, "type": "electric_scooter", "bike_id": "90815b9e01a9da7d10e087eafb61400b"}, {"lon": -76.999344, "lat": 38.896204166666664, "name": "32bce5fb5effa8469f9d2b878233693e", "fusion_lat": 0.0, "fusion_lon": 0.0, "rental_uris": {"android": "https://dc.lft.to/lastmile_qr_scan", "ios": "https://dc.lft.to/lastmile_qr_scan"}, "is_reserved": 0, "is_disabled": 0, "type": "electric_scooter", "bike_id": "32bce5fb5effa8469f9d2b878233693e"}, {"lon": -77.003417, "lat": 38.89362716666667, "name": "a2ed6080da11b0566adf42479a740888", "fusion_lat": 0.0, "fusion_lon": 0.0, "rental_uris": {"android": "https://dc.lft.to/lastmile_qr_scan", "ios": "https://dc.lft.to/lastmile_qr_scan"}, "is_reserved": 0, "is_disabled": 0, "type": "electric_scooter", "bike_id": "a2ed6080da11b0566adf42479a740888"}, {"lon": -77.027976, "lat": 38.9329765, "name": "61624519b8af34c49c84ffcab09deb66", "fusion_lat": 0.0, "fusion_lon": 0.0, "rental_uris": {"android": "https://dc.lft.to/lastmile_qr_scan", "ios": "https://dc.lft.to/lastmile_qr_scan"}, "is_reserved": 0, "is_disabled": 0, "type": "electric_scooter", "bike_id": "61624519b8af34c49c84ffcab09deb66"}, {"lon": -77.0469225, "lat": 38.921396666666666, "name": "17899520bddccbcab8218329e17095db", "fusion_lat": 0.0, "fusion_lon": 0.0, "rental_uris": {"android": "https://dc.lft.to/lastmile_qr_scan", "ios": "https://dc.lft.to/lastmile_qr_scan"}, "is_reserved": 0, "is_disabled": 0, "type": "electric_scooter", "bike_id": "17899520bddccbcab8218329e17095db"}, {"lon": -77.04740983333333, "lat": 38.912586, "name": "57ba53c5f38bde1959532c03bebf7986", "fusion_lat": 0.0, "fusion_lon": 0.0, "rental_uris": {"android": "https://dc.lft.to/lastmile_qr_scan", "ios": "https://dc.lft.to/lastmile_qr_scan"}, "is_reserved": 0, "is_disabled": 0, "type": "electric_scooter", "bike_id": "57ba53c5f38bde1959532c03bebf7986"}, {"lon": -77.026379, "lat": 38.8967595, "name": "a4dccff9a18607ba867f019e7137ebc8", "fusion_lat": 0.0, "fusion_lon": 0.0, "rental_uris": {"android": "https://dc.lft.to/lastmile_qr_scan", "ios": "https://dc.lft.to/lastmile_qr_scan"}, "is_reserved": 0, "is_disabled": 0, "type": "electric_scooter", "bike_id": "a4dccff9a18607ba867f019e7137ebc8"}, {"lon": -77.03944233333333, "lat": 38.908156166666664, "name": "3fcf0cabf3129b65e7471fd95c915334", "fusion_lat": 0.0, "fusion_lon": 0.0, "rental_uris": {"android": "https://dc.lft.to/lastmile_qr_scan", "ios": "https://dc.lft.to/lastmile_qr_scan"}, "is_reserved": 0, "is_disabled": 0, "type": "electric_scooter", "bike_id": "3fcf0cabf3129b65e7471fd95c915334"}, {"lon": -77.0003255, "lat": 38.876506666666664, "name": "936f038185f9e2c1ce4ce19003eb1cbf", "fusion_lat": 0.0, "fusion_lon": 0.0, "rental_uris": {"android": "https://dc.lft.to/lastmile_qr_scan", "ios": "https://dc.lft.to/lastmile_qr_scan"}, "is_reserved": 0, "is_disabled": 0, "type": "electric_scooter", "bike_id": "936f038185f9e2c1ce4ce19003eb1cbf"}, {"lon": -77.0247075, "lat": 38.9189265, "name": "525ebd0d9865225ae3fc721ba02f7fee", "fusion_lat": 0.0, "fusion_lon": 0.0, "rental_uris": {"android": "https://dc.lft.to/lastmile_qr_scan", "ios": "https://dc.lft.to/lastmile_qr_scan"}, "is_reserved": 0, "is_disabled": 0, "type": "electric_scooter", "bike_id": "525ebd0d9865225ae3fc721ba02f7fee"}, {"lon": -76.94660516666667, "lat": 38.898746, "name": "af0ffd9f48ace16381d132368f2b8315", "fusion_lat": 0.0, "fusion_lon": 0.0, "rental_uris": {"android": "https://dc.lft.to/lastmile_qr_scan", "ios": "https://dc.lft.to/lastmile_qr_scan"}, "is_reserved": 0, "is_disabled": 0, "type": "electric_scooter", "bike_id": "af0ffd9f48ace16381d132368f2b8315"}, {"lon": -76.99516433333334, "lat": 38.89483466666667, "name": "18934def82e705d395c0a70d85ee7c86", "fusion_lat": 0.0, "fusion_lon": 0.0, "rental_uris": {"android": "https://dc.lft.to/lastmile_qr_scan", "ios": "https://dc.lft.to/lastmile_qr_scan"}, "is_reserved": 0, "is_disabled": 0, "type": "electric_scooter", "bike_id": "18934def82e705d395c0a70d85ee7c86"}, {"lon": -77.003398, "lat": 38.89362283333333, "name": "d1967d01a904db25ac473133c49b2bf2", "fusion_lat": 0.0, "fusion_lon": 0.0, "rental_uris": {"android": "https://dc.lft.to/lastmile_qr_scan", "ios": "https://dc.lft.to/lastmile_qr_scan"}, "is_reserved": 0, "is_disabled": 0, "type": "electric_scooter", "bike_id": "d1967d01a904db25ac473133c49b2bf2"}, {"lon": -77.0118575, "lat": 38.90020483333333, "name": "545750088606bea1994ec959476accc9", "fusion_lat": 0.0, "fusion_lon": 0.0, "rental_uris": {"android": "https://dc.lft.to/lastmile_qr_scan", "ios": "https://dc.lft.to/lastmile_qr_scan"}, "is_reserved": 0, "is_disabled": 0, "type": "electric_scooter", "bike_id": "545750088606bea1994ec959476accc9"}, {"lon": -77.00595283333334, "lat": 38.905875333333334, "name": "0337473730e0ea36ea8981ee73b5f5dc", "fusion_lat": 0.0, "fusion_lon": 0.0, "rental_uris": {"android": "https://dc.lft.to/lastmile_qr_scan", "ios": "https://dc.lft.to/lastmile_qr_scan"}, "is_reserved": 0, "is_disabled": 0, "type": "electric_scooter", "bike_id": "0337473730e0ea36ea8981ee73b5f5dc"}, {"lon": -76.93227016666667, "lat": 38.86597866666666, "name": "5325187d191958955e60400c045f4d09", "fusion_lat": 0.0, "fusion_lon": 0.0, "rental_uris": {"android": "https://dc.lft.to/lastmile_qr_scan", "ios": "https://dc.lft.to/lastmile_qr_scan"}, "is_reserved": 0, "is_disabled": 0, "type": "electric_bike", "bike_id": "5325187d191958955e60400c045f4d09"}, {"lon": -77.0463685, "lat": 38.892235666666664, "name": "aaec80e8b1ddc089e6cab006d2723516", "fusion_lat": 0.0, "fusion_lon": 0.0, "rental_uris": {"android": "https://dc.lft.to/lastmile_qr_scan", "ios": "https://dc.lft.to/lastmile_qr_scan"}, "is_reserved": 0, "is_disabled": 0, "type": "electric_scooter", "bike_id": "aaec80e8b1ddc089e6cab006d2723516"}, {"lon": -77.0409495, "lat": 38.90505116666667, "name": "b514b2f3212a4caf9ad5871abe17fbac", "fusion_lat": 0.0, "fusion_lon": 0.0, "rental_uris": {"android": "https://dc.lft.to/lastmile_qr_scan", "ios": "https://dc.lft.to/lastmile_qr_scan"}, "is_reserved": 0, "is_disabled": 0, "type": "electric_scooter", "bike_id": "b514b2f3212a4caf9ad5871abe17fbac"}, {"lon": -77.02227233333333, "lat": 38.9125115, "name": "833c69efcb1c6be029155695855d1b38", "fusion_lat": 0.0, "fusion_lon": 0.0, "rental_uris": {"android": "https://dc.lft.to/lastmile_qr_scan", "ios": "https://dc.lft.to/lastmile_qr_scan"}, "is_reserved": 0, "is_disabled": 0, "type": "electric_scooter", "bike_id": "833c69efcb1c6be029155695855d1b38"}, {"lon": -77.03646733333333, "lat": 38.902831666666664, "name": "d636a73b5cff5f33ea10630e9905b12f", "fusion_lat": 0.0, "fusion_lon": 0.0, "rental_uris": {"android": "https://dc.lft.to/lastmile_qr_scan", "ios": "https://dc.lft.to/lastmile_qr_scan"}, "is_reserved": 0, "is_disabled": 0, "type": "electric_scooter", "bike_id": "d636a73b5cff5f33ea10630e9905b12f"}, {"lon": -77.02485, "lat": 38.9176455, "name": "d79ac67574cdd2560364f20b40bfc0a8", "fusion_lat": 0.0, "fusion_lon": 0.0, "rental_uris": {"android": "https://dc.lft.to/lastmile_qr_scan", "ios": "https://dc.lft.to/lastmile_qr_scan"}, "is_reserved": 0, "is_disabled": 0, "type": "electric_scooter", "bike_id": "d79ac67574cdd2560364f20b40bfc0a8"}, {"lon": -77.12963033333334, "lat": 38.85220366666667, "name": "a69f7ae0db69ae6fab2f59ef0961aea4", "fusion_lat": 0.0, "fusion_lon": 0.0, "rental_uris": {"android": "https://dc.lft.to/lastmile_qr_scan", "ios": "https://dc.lft.to/lastmile_qr_scan"}, "is_reserved": 0, "is_disabled": 0, "type": "electric_bike", "bike_id": "a69f7ae0db69ae6fab2f59ef0961aea4"}, {"lon": -77.00631833333334, "lat": 38.9556775, "name": "cc09afc9f0b85937eb18f33bd7b6167d", "fusion_lat": 0.0, "fusion_lon": 0.0, "rental_uris": {"android": "https://dc.lft.to/lastmile_qr_scan", "ios": "https://dc.lft.to/lastmile_qr_scan"}, "is_reserved": 0, "is_disabled": 0, "type": "electric_scooter", "bike_id": "cc09afc9f0b85937eb18f33bd7b6167d"}, {"lon": -77.00917566666666, "lat": 38.91069983333333, "name": "782064b52cf8040ceb4f3acdd83c1bf8", "fusion_lat": 0.0, "fusion_lon": 0.0, "rental_uris": {"android": "https://dc.lft.to/lastmile_qr_scan", "ios": "https://dc.lft.to/lastmile_qr_scan"}, "is_reserved": 0, "is_disabled": 0, "type": "electric_scooter", "bike_id": "782064b52cf8040ceb4f3acdd83c1bf8"}, {"lon": -77.04514033333334, "lat": 38.892238666666664, "name": "c6e1d31086a845b74e504652023d1d49", "fusion_lat": 0.0, "fusion_lon": 0.0, "rental_uris": {"android": "https://dc.lft.to/lastmile_qr_scan", "ios": "https://dc.lft.to/lastmile_qr_scan"}, "is_reserved": 0, "is_disabled": 0, "type": "electric_scooter", "bike_id": "c6e1d31086a845b74e504652023d1d49"}, {"lon": -77.03262566666666, "lat": 38.933300333333335, "name": "4b8303a8dd5a7bec5e6cffa5e4a17785", "fusion_lat": 0.0, "fusion_lon": 0.0, "rental_uris": {"android": "https://dc.lft.to/lastmile_qr_scan", "ios": "https://dc.lft.to/lastmile_qr_scan"}, "is_reserved": 0, "is_disabled": 0, "type": "electric_scooter", "bike_id": "4b8303a8dd5a7bec5e6cffa5e4a17785"}, {"lon": -76.9422005, "lat": 38.89671, "name": "b558c713384296221ac70704c50eb89b", "fusion_lat": 0.0, "fusion_lon": 0.0, "rental_uris": {"android": "https://dc.lft.to/lastmile_qr_scan", "ios": "https://dc.lft.to/lastmile_qr_scan"}, "is_reserved": 0, "is_disabled": 0, "type": "electric_scooter", "bike_id": "b558c713384296221ac70704c50eb89b"}, {"lon": -77.033385, "lat": 38.921608, "name": "ba62390a69cc074c44a9fd1b5ce57d9e", "fusion_lat": 0.0, "fusion_lon": 0.0, "rental_uris": {"android": "https://dc.lft.to/lastmile_qr_scan", "ios": "https://dc.lft.to/lastmile_qr_scan"}, "is_reserved": 0, "is_disabled": 0, "type": "electric_scooter", "bike_id": "ba62390a69cc074c44a9fd1b5ce57d9e"}, {"lon": -77.09205433333334, "lat": 38.94133333333333, "name": "238ad0f55710531dd8eb36c180d40adb", "fusion_lat": 0.0, "fusion_lon": 0.0, "rental_uris": {"android": "https://dc.lft.to/lastmile_qr_scan", "ios": "https://dc.lft.to/lastmile_qr_scan"}, "is_reserved": 0, "is_disabled": 0, "type": "electric_scooter", "bike_id": "238ad0f55710531dd8eb36c180d40adb"}, {"lon": -77.03240366666667, "lat": 38.93458866666667, "name": "d83baecdb3da2d26fc4e5adc4abeb10e", "fusion_lat": 0.0, "fusion_lon": 0.0, "rental_uris": {"android": "https://dc.lft.to/lastmile_qr_scan", "ios": "https://dc.lft.to/lastmile_qr_scan"}, "is_reserved": 0, "is_disabled": 0, "type": "electric_scooter", "bike_id": "d83baecdb3da2d26fc4e5adc4abeb10e"}, {"lon": -77.025661, "lat": 38.8874415, "name": "209becaf0d75246c0d5b21998adc77c3", "fusion_lat": 0.0, "fusion_lon": 0.0, "rental_uris": {"android": "https://dc.lft.to/lastmile_qr_scan", "ios": "https://dc.lft.to/lastmile_qr_scan"}, "is_reserved": 0, "is_disabled": 0, "type": "electric_scooter", "bike_id": "209becaf0d75246c0d5b21998adc77c3"}, {"lon": -76.99515233333334, "lat": 38.84474733333333, "name": "4cf8bceb370d9b395de906b003a5ff64", "fusion_lat": 0.0, "fusion_lon": 0.0, "rental_uris": {"android": "https://dc.lft.to/lastmile_qr_scan", "ios": "https://dc.lft.to/lastmile_qr_scan"}, "is_reserved": 0, "is_disabled": 0, "type": "electric_scooter", "bike_id": "4cf8bceb370d9b395de906b003a5ff64"}, {"lon": -77.035775, "lat": 38.9036485, "name": "954868ba0e45e45b58337b480269dc2e", "fusion_lat": 0.0, "fusion_lon": 0.0, "rental_uris": {"android": "https://dc.lft.to/lastmile_qr_scan", "ios": "https://dc.lft.to/lastmile_qr_scan"}, "is_reserved": 0, "is_disabled": 0, "type": "electric_scooter", "bike_id": "954868ba0e45e45b58337b480269dc2e"}, {"lon": -77.03182583333333, "lat": 38.893603666666664, "name": "c2c179096e1e7ee4e1bd79b7bacadb28", "fusion_lat": 0.0, "fusion_lon": 0.0, "rental_uris": {"android": "https://dc.lft.to/lastmile_qr_scan", "ios": "https://dc.lft.to/lastmile_qr_scan"}, "is_reserved": 0, "is_disabled": 0, "type": "electric_scooter", "bike_id": "c2c179096e1e7ee4e1bd79b7bacadb28"}, {"lon": -76.99063216666667, "lat": 38.863609833333335, "name": "d8d59226f7abce8f1390bc0f9a31f4dc", "fusion_lat": 0.0, "fusion_lon": 0.0, "rental_uris": {"android": "https://dc.lft.to/lastmile_qr_scan", "ios": "https://dc.lft.to/lastmile_qr_scan"}, "is_reserved": 0, "is_disabled": 0, "type": "electric_scooter", "bike_id": "d8d59226f7abce8f1390bc0f9a31f4dc"}, {"lon": -77.0282065, "lat": 38.909399, "name": "2d2a7745315bfe3095eaebf68f492d52", "fusion_lat": 0.0, "fusion_lon": 0.0, "rental_uris": {"android": "https://dc.lft.to/lastmile_qr_scan", "ios": "https://dc.lft.to/lastmile_qr_scan"}, "is_reserved": 0, "is_disabled": 0, "type": "electric_scooter", "bike_id": "2d2a7745315bfe3095eaebf68f492d52"}, {"lon": -77.01185833333334, "lat": 38.90029083333334, "name": "774f6991d8751fcb4c4423d796e4835f", "fusion_lat": 0.0, "fusion_lon": 0.0, "rental_uris": {"android": "https://dc.lft.to/lastmile_qr_scan", "ios": "https://dc.lft.to/lastmile_qr_scan"}, "is_reserved": 0, "is_disabled": 0, "type": "electric_scooter", "bike_id": "774f6991d8751fcb4c4423d796e4835f"}, {"lon": -77.00599316666667, "lat": 38.88494033333333, "name": "9f7f1b7bcc1f7970993380af7c712f6e", "fusion_lat": 0.0, "fusion_lon": 0.0, "rental_uris": {"android": "https://dc.lft.to/lastmile_qr_scan", "ios": "https://dc.lft.to/lastmile_qr_scan"}, "is_reserved": 0, "is_disabled": 0, "type": "electric_scooter", "bike_id": "9f7f1b7bcc1f7970993380af7c712f6e"}, {"lon": -76.9884015, "lat": 38.84276633333333, "name": "170d1323fd204b0ef86c3ed137bf0483", "fusion_lat": 0.0, "fusion_lon": 0.0, "rental_uris": {"android": "https://dc.lft.to/lastmile_qr_scan", "ios": "https://dc.lft.to/lastmile_qr_scan"}, "is_reserved": 0, "is_disabled": 0, "type": "electric_bike", "bike_id": "170d1323fd204b0ef86c3ed137bf0483"}, {"lon": -76.9989885, "lat": 38.90953833333333, "name": "4a977070b455b9942db2940da875c653", "fusion_lat": 0.0, "fusion_lon": 0.0, "rental_uris": {"android": "https://dc.lft.to/lastmile_qr_scan", "ios": "https://dc.lft.to/lastmile_qr_scan"}, "is_reserved": 0, "is_disabled": 0, "type": "electric_scooter", "bike_id": "4a977070b455b9942db2940da875c653"}, {"lon": -77.025925, "lat": 38.9203875, "name": "e67261271b1f308cc69da4fcd4d03198", "fusion_lat": 0.0, "fusion_lon": 0.0, "rental_uris": {"android": "https://dc.lft.to/lastmile_qr_scan", "ios": "https://dc.lft.to/lastmile_qr_scan"}, "is_reserved": 0, "is_disabled": 0, "type": "electric_scooter", "bike_id": "e67261271b1f308cc69da4fcd4d03198"}, {"lon": -76.9703415, "lat": 38.90313033333334, "name": "064d2ad56fb090ee48c76d0d1a780437", "fusion_lat": 0.0, "fusion_lon": 0.0, "rental_uris": {"android": "https://dc.lft.to/lastmile_qr_scan", "ios": "https://dc.lft.to/lastmile_qr_scan"}, "is_reserved": 0, "is_disabled": 0, "type": "electric_scooter", "bike_id": "064d2ad56fb090ee48c76d0d1a780437"}, {"lon": -77.0256185, "lat": 38.901573, "name": "0cf96772ddf0f422c18b2e1f89686ab7", "fusion_lat": 0.0, "fusion_lon": 0.0, "rental_uris": {"android": "https://dc.lft.to/lastmile_qr_scan", "ios": "https://dc.lft.to/lastmile_qr_scan"}, "is_reserved": 0, "is_disabled": 0, "type": "electric_scooter", "bike_id": "0cf96772ddf0f422c18b2e1f89686ab7"}, {"lon": -77.027456, "lat": 38.96627733333333, "name": "d4659cf138aa108fd6eca21d7503afc0", "fusion_lat": 0.0, "fusion_lon": 0.0, "rental_uris": {"android": "https://dc.lft.to/lastmile_qr_scan", "ios": "https://dc.lft.to/lastmile_qr_scan"}, "is_reserved": 0, "is_disabled": 0, "type": "electric_scooter", "bike_id": "d4659cf138aa108fd6eca21d7503afc0"}, {"lon": -77.039849, "lat": 38.803022, "name": "837823ac13aeeaa7358ef6fa8cf6c407", "fusion_lat": 0.0, "fusion_lon": 0.0, "rental_uris": {"android": "https://dc.lft.to/lastmile_qr_scan", "ios": "https://dc.lft.to/lastmile_qr_scan"}, "is_reserved": 0, "is_disabled": 0, "type": "electric_bike", "bike_id": "837823ac13aeeaa7358ef6fa8cf6c407"}, {"lon": -77.02744966666667, "lat": 38.90963966666666, "name": "fcad67dc5de58bbcd2d2270b4a83a4b4", "fusion_lat": 0.0, "fusion_lon": 0.0, "rental_uris": {"android": "https://dc.lft.to/lastmile_qr_scan", "ios": "https://dc.lft.to/lastmile_qr_scan"}, "is_reserved": 0, "is_disabled": 0, "type": "electric_bike", "bike_id": "fcad67dc5de58bbcd2d2270b4a83a4b4"}, {"lon": -76.9884015, "lat": 38.901813, "name": "bf3227a642e4903d0cf5ede996227a44", "fusion_lat": 0.0, "fusion_lon": 0.0, "rental_uris": {"android": "https://dc.lft.to/lastmile_qr_scan", "ios": "https://dc.lft.to/lastmile_qr_scan"}, "is_reserved": 0, "is_disabled": 0, "type": "electric_scooter", "bike_id": "bf3227a642e4903d0cf5ede996227a44"}, {"lon": -77.02763666666667, "lat": 38.956140166666664, "name": "e1fb795c2d4aba2764ca0b6b753d02a2", "fusion_lat": 0.0, "fusion_lon": 0.0, "rental_uris": {"android": "https://dc.lft.to/lastmile_qr_scan", "ios": "https://dc.lft.to/lastmile_qr_scan"}, "is_reserved": 0, "is_disabled": 0, "type": "electric_scooter", "bike_id": "e1fb795c2d4aba2764ca0b6b753d02a2"}, {"lon": -77.04240466666667, "lat": 38.922844833333336, "name": "4c5c87eaa35cf6bf1d570e731d2e2bf7", "fusion_lat": 0.0, "fusion_lon": 0.0, "rental_uris": {"android": "https://dc.lft.to/lastmile_qr_scan", "ios": "https://dc.lft.to/lastmile_qr_scan"}, "is_reserved": 0, "is_disabled": 0, "type": "electric_scooter", "bike_id": "4c5c87eaa35cf6bf1d570e731d2e2bf7"}, {"lon": -77.02514383333333, "lat": 38.9263975, "name": "5d22c182bf829309a560be361228f6fa", "fusion_lat": 0.0, "fusion_lon": 0.0, "rental_uris": {"android": "https://dc.lft.to/lastmile_qr_scan", "ios": "https://dc.lft.to/lastmile_qr_scan"}, "is_reserved": 0, "is_disabled": 0, "type": "electric_scooter", "bike_id": "5d22c182bf829309a560be361228f6fa"}, {"lon": -77.02958283333334, "lat": 38.95427816666667, "name": "220ba1d07caa77211775dc6c2bfffb1c", "fusion_lat": 0.0, "fusion_lon": 0.0, "rental_uris": {"android": "https://dc.lft.to/lastmile_qr_scan", "ios": "https://dc.lft.to/lastmile_qr_scan"}, "is_reserved": 0, "is_disabled": 0, "type": "electric_scooter", "bike_id": "220ba1d07caa77211775dc6c2bfffb1c"}, {"lon": -77.00595533333333, "lat": 38.874831, "name": "e7bd75ced439cec8abce38b3abacf0a8", "fusion_lat": 0.0, "fusion_lon": 0.0, "rental_uris": {"android": "https://dc.lft.to/lastmile_qr_scan", "ios": "https://dc.lft.to/lastmile_qr_scan"}, "is_reserved": 0, "is_disabled": 0, "type": "electric_scooter", "bike_id": "e7bd75ced439cec8abce38b3abacf0a8"}, {"lon": -77.06956, "lat": 38.99046633333333, "name": "99ebdbaa13163d9148591f8e467b1195", "fusion_lat": 0.0, "fusion_lon": 0.0, "rental_uris": {"android": "https://dc.lft.to/lastmile_qr_scan", "ios": "https://dc.lft.to/lastmile_qr_scan"}, "is_reserved": 0, "is_disabled": 0, "type": "electric_bike", "bike_id": "99ebdbaa13163d9148591f8e467b1195"}, {"lon": -76.93759216666666, "lat": 38.899695333333334, "name": "9cb062f7d0bfcdfceab64501a6942d24", "fusion_lat": 0.0, "fusion_lon": 0.0, "rental_uris": {"android": "https://dc.lft.to/lastmile_qr_scan", "ios": "https://dc.lft.to/lastmile_qr_scan"}, "is_reserved": 0, "is_disabled": 0, "type": "electric_scooter", "bike_id": "9cb062f7d0bfcdfceab64501a6942d24"}, {"lon": -77.029482, "lat": 38.90507066666667, "name": "c6cbf56d4dbc6a040f301d1757bfdd0a", "fusion_lat": 0.0, "fusion_lon": 0.0, "rental_uris": {"android": "https://dc.lft.to/lastmile_qr_scan", "ios": "https://dc.lft.to/lastmile_qr_scan"}, "is_reserved": 0, "is_disabled": 0, "type": "electric_scooter", "bike_id": "c6cbf56d4dbc6a040f301d1757bfdd0a"}, {"lon": -77.04735366666667, "lat": 38.91118, "name": "012a6cb2d1fb73c5a3704b1299d36f6f", "fusion_lat": 0.0, "fusion_lon": 0.0, "rental_uris": {"android": "https://dc.lft.to/lastmile_qr_scan", "ios": "https://dc.lft.to/lastmile_qr_scan"}, "is_reserved": 0, "is_disabled": 0, "type": "electric_scooter", "bike_id": "012a6cb2d1fb73c5a3704b1299d36f6f"}, {"lon": -77.050861, "lat": 38.813331166666664, "name": "47409a794949137a74a6f662ec01c581", "fusion_lat": 0.0, "fusion_lon": 0.0, "rental_uris": {"android": "https://dc.lft.to/lastmile_qr_scan", "ios": "https://dc.lft.to/lastmile_qr_scan"}, "is_reserved": 0, "is_disabled": 0, "type": "electric_bike", "bike_id": "47409a794949137a74a6f662ec01c581"}, {"lon": -77.008608, "lat": 38.869490166666665, "name": "6202a84d6b61a00aee615bcc39d51533", "fusion_lat": 0.0, "fusion_lon": 0.0, "rental_uris": {"android": "https://dc.lft.to/lastmile_qr_scan", "ios": "https://dc.lft.to/lastmile_qr_scan"}, "is_reserved": 0, "is_disabled": 0, "type": "electric_scooter", "bike_id": "6202a84d6b61a00aee615bcc39d51533"}, {"lon": -77.000786, "lat": 38.87369116666667, "name": "77e6de6b24ae3f2e4ceba699483161e8", "fusion_lat": 0.0, "fusion_lon": 0.0, "rental_uris": {"android": "https://dc.lft.to/lastmile_qr_scan", "ios": "https://dc.lft.to/lastmile_qr_scan"}, "is_reserved": 0, "is_disabled": 0, "type": "electric_scooter", "bike_id": "77e6de6b24ae3f2e4ceba699483161e8"}, {"lon": -77.037014, "lat": 38.916617, "name": "ddebb4213fe796ad834aa835168f1e53", "fusion_lat": 0.0, "fusion_lon": 0.0, "rental_uris": {"android": "https://dc.lft.to/lastmile_qr_scan", "ios": "https://dc.lft.to/lastmile_qr_scan"}, "is_reserved": 0, "is_disabled": 0, "type": "electric_scooter", "bike_id": "ddebb4213fe796ad834aa835168f1e53"}, {"lon": -77.079077, "lat": 38.839357, "name": "853aacbff3c507a92ef2801bed26fc69", "fusion_lat": 0.0, "fusion_lon": 0.0, "rental_uris": {"android": "https://dc.lft.to/lastmile_qr_scan", "ios": "https://dc.lft.to/lastmile_qr_scan"}, "is_reserved": 0, "is_disabled": 0, "type": "electric_bike", "bike_id": "853aacbff3c507a92ef2801bed26fc69"}, {"lon": -77.04771333333333, "lat": 38.90511883333333, "name": "21e11d305d1eb3b944102e323a69205e", "fusion_lat": 0.0, "fusion_lon": 0.0, "rental_uris": {"android": "https://dc.lft.to/lastmile_qr_scan", "ios": "https://dc.lft.to/lastmile_qr_scan"}, "is_reserved": 0, "is_disabled": 0, "type": "electric_scooter", "bike_id": "21e11d305d1eb3b944102e323a69205e"}, {"lon": -77.029037, "lat": 38.884299, "name": "3e04d97a58d01a02cbcbfb0776503f77", "fusion_lat": 0.0, "fusion_lon": 0.0, "rental_uris": {"android": "https://dc.lft.to/lastmile_qr_scan", "ios": "https://dc.lft.to/lastmile_qr_scan"}, "is_reserved": 0, "is_disabled": 0, "type": "electric_scooter", "bike_id": "3e04d97a58d01a02cbcbfb0776503f77"}, {"lon": -77.01534883333333, "lat": 38.8873875, "name": "3a5004a67f6f8f4b2d90cc4916907948", "fusion_lat": 0.0, "fusion_lon": 0.0, "rental_uris": {"android": "https://dc.lft.to/lastmile_qr_scan", "ios": "https://dc.lft.to/lastmile_qr_scan"}, "is_reserved": 0, "is_disabled": 0, "type": "electric_scooter", "bike_id": "3a5004a67f6f8f4b2d90cc4916907948"}, {"lon": -77.02775133333333, "lat": 38.91816766666667, "name": "f690828d8e2ea429bb693ea88b2fc9db", "fusion_lat": 0.0, "fusion_lon": 0.0, "rental_uris": {"android": "https://dc.lft.to/lastmile_qr_scan", "ios": "https://dc.lft.to/lastmile_qr_scan"}, "is_reserved": 0, "is_disabled": 0, "type": "electric_scooter", "bike_id": "f690828d8e2ea429bb693ea88b2fc9db"}, {"lon": -77.1142555, "lat": 38.843006333333335, "name": "e12a0afdd9c4e243256071a78c822994", "fusion_lat": 0.0, "fusion_lon": 0.0, "rental_uris": {"android": "https://dc.lft.to/lastmile_qr_scan", "ios": "https://dc.lft.to/lastmile_qr_scan"}, "is_reserved": 0, "is_disabled": 0, "type": "electric_bike", "bike_id": "e12a0afdd9c4e243256071a78c822994"}, {"lon": -77.02180466666667, "lat": 38.909253166666666, "name": "61646fc025daef782dc9bd8332105a30", "fusion_lat": 0.0, "fusion_lon": 0.0, "rental_uris": {"android": "https://dc.lft.to/lastmile_qr_scan", "ios": "https://dc.lft.to/lastmile_qr_scan"}, "is_reserved": 0, "is_disabled": 0, "type": "electric_scooter", "bike_id": "61646fc025daef782dc9bd8332105a30"}, {"lon": -77.0142845, "lat": 38.9140495, "name": "d577fedf15204a5160e265f15ffbbfd3", "fusion_lat": 0.0, "fusion_lon": 0.0, "rental_uris": {"android": "https://dc.lft.to/lastmile_qr_scan", "ios": "https://dc.lft.to/lastmile_qr_scan"}, "is_reserved": 0, "is_disabled": 0, "type": "electric_scooter", "bike_id": "d577fedf15204a5160e265f15ffbbfd3"}, {"lon": -77.02188316666667, "lat": 38.91888616666667, "name": "8b8b01cc46d7393f3b30d5e0e4ffff24", "fusion_lat": 0.0, "fusion_lon": 0.0, "rental_uris": {"android": "https://dc.lft.to/lastmile_qr_scan", "ios": "https://dc.lft.to/lastmile_qr_scan"}, "is_reserved": 0, "is_disabled": 0, "type": "electric_scooter", "bike_id": "8b8b01cc46d7393f3b30d5e0e4ffff24"}, {"lon": -76.988986, "lat": 38.86693966666667, "name": "13f117324bf9e3811512f35ad1cc5a4c", "fusion_lat": 0.0, "fusion_lon": 0.0, "rental_uris": {"android": "https://dc.lft.to/lastmile_qr_scan", "ios": "https://dc.lft.to/lastmile_qr_scan"}, "is_reserved": 0, "is_disabled": 0, "type": "electric_scooter", "bike_id": "13f117324bf9e3811512f35ad1cc5a4c"}, {"lon": -77.02929133333333, "lat": 38.930669333333334, "name": "479254e08808266b1cc8c2e696607ec5", "fusion_lat": 0.0, "fusion_lon": 0.0, "rental_uris": {"android": "https://dc.lft.to/lastmile_qr_scan", "ios": "https://dc.lft.to/lastmile_qr_scan"}, "is_reserved": 0, "is_disabled": 0, "type": "electric_scooter", "bike_id": "479254e08808266b1cc8c2e696607ec5"}, {"lon": -77.02390616666666, "lat": 38.91972333333333, "name": "0daa33f2dee12aa3e10e6e9179dadeb9", "fusion_lat": 0.0, "fusion_lon": 0.0, "rental_uris": {"android": "https://dc.lft.to/lastmile_qr_scan", "ios": "https://dc.lft.to/lastmile_qr_scan"}, "is_reserved": 0, "is_disabled": 0, "type": "electric_scooter", "bike_id": "0daa33f2dee12aa3e10e6e9179dadeb9"}, {"lon": -77.03987933333333, "lat": 38.90725533333333, "name": "c91be52dc04f017ae42f07329a9ee216", "fusion_lat": 0.0, "fusion_lon": 0.0, "rental_uris": {"android": "https://dc.lft.to/lastmile_qr_scan", "ios": "https://dc.lft.to/lastmile_qr_scan"}, "is_reserved": 0, "is_disabled": 0, "type": "electric_scooter", "bike_id": "c91be52dc04f017ae42f07329a9ee216"}, {"lon": -77.03838116666667, "lat": 38.911974, "name": "247f05a5b569953ed0e1d9c32e1097cf", "fusion_lat": 0.0, "fusion_lon": 0.0, "rental_uris": {"android": "https://dc.lft.to/lastmile_qr_scan", "ios": "https://dc.lft.to/lastmile_qr_scan"}, "is_reserved": 0, "is_disabled": 0, "type": "electric_scooter", "bike_id": "247f05a5b569953ed0e1d9c32e1097cf"}, {"lon": -76.99865316666667, "lat": 38.900305, "name": "3af02b50579ec7c774f245d2ecf68b30", "fusion_lat": 0.0, "fusion_lon": 0.0, "rental_uris": {"android": "https://dc.lft.to/lastmile_qr_scan", "ios": "https://dc.lft.to/lastmile_qr_scan"}, "is_reserved": 0, "is_disabled": 0, "type": "electric_scooter", "bike_id": "3af02b50579ec7c774f245d2ecf68b30"}, {"lon": -76.93661866666666, "lat": 38.880296666666666, "name": "600199841338ee7a1ee9c118f41c8f75", "fusion_lat": 0.0, "fusion_lon": 0.0, "rental_uris": {"android": "https://dc.lft.to/lastmile_qr_scan", "ios": "https://dc.lft.to/lastmile_qr_scan"}, "is_reserved": 0, "is_disabled": 0, "type": "electric_scooter", "bike_id": "600199841338ee7a1ee9c118f41c8f75"}, {"lon": -77.03066633333333, "lat": 38.880468666666665, "name": "7304deccf95f9f8a9e99900b0325dd42", "fusion_lat": 0.0, "fusion_lon": 0.0, "rental_uris": {"android": "https://dc.lft.to/lastmile_qr_scan", "ios": "https://dc.lft.to/lastmile_qr_scan"}, "is_reserved": 0, "is_disabled": 0, "type": "electric_scooter", "bike_id": "7304deccf95f9f8a9e99900b0325dd42"}, {"lon": -77.04298616666667, "lat": 38.92256883333334, "name": "2ad7e7ce465759b4ae8214e855b05e89", "fusion_lat": 0.0, "fusion_lon": 0.0, "rental_uris": {"android": "https://dc.lft.to/lastmile_qr_scan", "ios": "https://dc.lft.to/lastmile_qr_scan"}, "is_reserved": 0, "is_disabled": 0, "type": "electric_scooter", "bike_id": "2ad7e7ce465759b4ae8214e855b05e89"}, {"lon": -77.034206, "lat": 38.9294855, "name": "bbf965206d064c92ee7453c2f4586b0a", "fusion_lat": 0.0, "fusion_lon": 0.0, "rental_uris": {"android": "https://dc.lft.to/lastmile_qr_scan", "ios": "https://dc.lft.to/lastmile_qr_scan"}, "is_reserved": 0, "is_disabled": 0, "type": "electric_scooter", "bike_id": "bbf965206d064c92ee7453c2f4586b0a"}, {"lon": -77.03657233333334, "lat": 38.92284933333333, "name": "6aa868a1bc5f130f3d9224c6a3aa79d2", "fusion_lat": 0.0, "fusion_lon": 0.0, "rental_uris": {"android": "https://dc.lft.to/lastmile_qr_scan", "ios": "https://dc.lft.to/lastmile_qr_scan"}, "is_reserved": 0, "is_disabled": 0, "type": "electric_scooter", "bike_id": "6aa868a1bc5f130f3d9224c6a3aa79d2"}, {"lon": -77.0192335, "lat": 38.91661766666667, "name": "02a0415154867d5f93441ece6efb1248", "fusion_lat": 0.0, "fusion_lon": 0.0, "rental_uris": {"android": "https://dc.lft.to/lastmile_qr_scan", "ios": "https://dc.lft.to/lastmile_qr_scan"}, "is_reserved": 0, "is_disabled": 0, "type": "electric_scooter", "bike_id": "02a0415154867d5f93441ece6efb1248"}, {"lon": -77.0241345, "lat": 38.90966483333333, "name": "2ff5bedbcbc7655d5bc836ad86f78dc4", "fusion_lat": 0.0, "fusion_lon": 0.0, "rental_uris": {"android": "https://dc.lft.to/lastmile_qr_scan", "ios": "https://dc.lft.to/lastmile_qr_scan"}, "is_reserved": 0, "is_disabled": 0, "type": "electric_scooter", "bike_id": "2ff5bedbcbc7655d5bc836ad86f78dc4"}, {"lon": -77.02823666666667, "lat": 38.885186833333336, "name": "5a62d33b7e179a9646539a0072f139e7", "fusion_lat": 0.0, "fusion_lon": 0.0, "rental_uris": {"android": "https://dc.lft.to/lastmile_qr_scan", "ios": "https://dc.lft.to/lastmile_qr_scan"}, "is_reserved": 0, "is_disabled": 0, "type": "electric_scooter", "bike_id": "5a62d33b7e179a9646539a0072f139e7"}, {"lon": -77.13175733333334, "lat": 38.86911583333333, "name": "41aea95ae23b13bfa0514db0bf690890", "fusion_lat": 0.0, "fusion_lon": 0.0, "rental_uris": {"android": "https://dc.lft.to/lastmile_qr_scan", "ios": "https://dc.lft.to/lastmile_qr_scan"}, "is_reserved": 0, "is_disabled": 0, "type": "electric_bike", "bike_id": "41aea95ae23b13bfa0514db0bf690890"}, {"lon": -77.042015, "lat": 38.92118933333333, "name": "ddf2406b4f89b140be63e7e3f705ea5e", "fusion_lat": 0.0, "fusion_lon": 0.0, "rental_uris": {"android": "https://dc.lft.to/lastmile_qr_scan", "ios": "https://dc.lft.to/lastmile_qr_scan"}, "is_reserved": 0, "is_disabled": 0, "type": "electric_scooter", "bike_id": "ddf2406b4f89b140be63e7e3f705ea5e"}, {"lon": -77.0465355, "lat": 38.91559933333333, "name": "2ac7b75fc157a9c64e8e16da5d17cb66", "fusion_lat": 0.0, "fusion_lon": 0.0, "rental_uris": {"android": "https://dc.lft.to/lastmile_qr_scan", "ios": "https://dc.lft.to/lastmile_qr_scan"}, "is_reserved": 0, "is_disabled": 0, "type": "electric_scooter", "bike_id": "2ac7b75fc157a9c64e8e16da5d17cb66"}, {"lon": -77.037832, "lat": 38.996728833333336, "name": "7875a5e394218d2697988400100d1709", "fusion_lat": 0.0, "fusion_lon": 0.0, "rental_uris": {"android": "https://dc.lft.to/lastmile_qr_scan", "ios": "https://dc.lft.to/lastmile_qr_scan"}, "is_reserved": 0, "is_disabled": 0, "type": "electric_bike", "bike_id": "7875a5e394218d2697988400100d1709"}, {"lon": -77.04286283333333, "lat": 38.907265, "name": "5eedd6f61eaf267eb437b787dd741a97", "fusion_lat": 0.0, "fusion_lon": 0.0, "rental_uris": {"android": "https://dc.lft.to/lastmile_qr_scan", "ios": "https://dc.lft.to/lastmile_qr_scan"}, "is_reserved": 0, "is_disabled": 0, "type": "electric_scooter", "bike_id": "5eedd6f61eaf267eb437b787dd741a97"}, {"lon": -77.04185083333333, "lat": 38.9133505, "name": "94c52e062c4b9d1c8a1d8b3c868bfb47", "fusion_lat": 0.0, "fusion_lon": 0.0, "rental_uris": {"android": "https://dc.lft.to/lastmile_qr_scan", "ios": "https://dc.lft.to/lastmile_qr_scan"}, "is_reserved": 0, "is_disabled": 0, "type": "electric_scooter", "bike_id": "94c52e062c4b9d1c8a1d8b3c868bfb47"}, {"lon": -77.04297366666667, "lat": 38.9225855, "name": "3ff898ca94115df526e61ed5538fe8bc", "fusion_lat": 0.0, "fusion_lon": 0.0, "rental_uris": {"android": "https://dc.lft.to/lastmile_qr_scan", "ios": "https://dc.lft.to/lastmile_qr_scan"}, "is_reserved": 0, "is_disabled": 0, "type": "electric_scooter", "bike_id": "3ff898ca94115df526e61ed5538fe8bc"}, {"lon": -76.9526165, "lat": 38.88593566666667, "name": "820d5e721da4846b8efbaa726c8cc125", "fusion_lat": 0.0, "fusion_lon": 0.0, "rental_uris": {"android": "https://dc.lft.to/lastmile_qr_scan", "ios": "https://dc.lft.to/lastmile_qr_scan"}, "is_reserved": 0, "is_disabled": 0, "type": "electric_scooter", "bike_id": "820d5e721da4846b8efbaa726c8cc125"}, {"lon": -77.13595966666666, "lat": 39.05348983333333, "name": "b518c9881694ebe4eebefebba6d3fdc1", "fusion_lat": 0.0, "fusion_lon": 0.0, "rental_uris": {"android": "https://dc.lft.to/lastmile_qr_scan", "ios": "https://dc.lft.to/lastmile_qr_scan"}, "is_reserved": 0, "is_disabled": 0, "type": "electric_bike", "bike_id": "b518c9881694ebe4eebefebba6d3fdc1"}, {"lon": -76.98754516666666, "lat": 38.845092666666666, "name": "4c87f54f2249d4e7538d310a635578a7", "fusion_lat": 0.0, "fusion_lon": 0.0, "rental_uris": {"android": "https://dc.lft.to/lastmile_qr_scan", "ios": "https://dc.lft.to/lastmile_qr_scan"}, "is_reserved": 0, "is_disabled": 0, "type": "electric_scooter", "bike_id": "4c87f54f2249d4e7538d310a635578a7"}, {"lon": -77.01443766666667, "lat": 38.87779833333333, "name": "64405eb82451f730ce0bfa04c5035c7d", "fusion_lat": 0.0, "fusion_lon": 0.0, "rental_uris": {"android": "https://dc.lft.to/lastmile_qr_scan", "ios": "https://dc.lft.to/lastmile_qr_scan"}, "is_reserved": 0, "is_disabled": 0, "type": "electric_scooter", "bike_id": "64405eb82451f730ce0bfa04c5035c7d"}, {"lon": -77.03662416666667, "lat": 38.911778166666664, "name": "4f440112b736b6e8638e6980aa8e377c", "fusion_lat": 0.0, "fusion_lon": 0.0, "rental_uris": {"android": "https://dc.lft.to/lastmile_qr_scan", "ios": "https://dc.lft.to/lastmile_qr_scan"}, "is_reserved": 0, "is_disabled": 0, "type": "electric_scooter", "bike_id": "4f440112b736b6e8638e6980aa8e377c"}, {"lon": -77.03646633333334, "lat": 38.9292845, "name": "90ba78b4fb4b8b0ebde604f6fbb56685", "fusion_lat": 0.0, "fusion_lon": 0.0, "rental_uris": {"android": "https://dc.lft.to/lastmile_qr_scan", "ios": "https://dc.lft.to/lastmile_qr_scan"}, "is_reserved": 0, "is_disabled": 0, "type": "electric_scooter", "bike_id": "90ba78b4fb4b8b0ebde604f6fbb56685"}, {"lon": -77.04900233333333, "lat": 38.892303, "name": "0855e0dcd1d63522d14afedd0102689e", "fusion_lat": 0.0, "fusion_lon": 0.0, "rental_uris": {"android": "https://dc.lft.to/lastmile_qr_scan", "ios": "https://dc.lft.to/lastmile_qr_scan"}, "is_reserved": 0, "is_disabled": 0, "type": "electric_scooter", "bike_id": "0855e0dcd1d63522d14afedd0102689e"}, {"lon": -77.02632966666667, "lat": 38.89222683333333, "name": "2440809206b861671256eb2b1086e41b", "fusion_lat": 0.0, "fusion_lon": 0.0, "rental_uris": {"android": "https://dc.lft.to/lastmile_qr_scan", "ios": "https://dc.lft.to/lastmile_qr_scan"}, "is_reserved": 0, "is_disabled": 0, "type": "electric_scooter", "bike_id": "2440809206b861671256eb2b1086e41b"}, {"lon": -77.00835533333333, "lat": 38.915592333333336, "name": "9588b6e9de2b3b747d8ba86f73228c95", "fusion_lat": 0.0, "fusion_lon": 0.0, "rental_uris": {"android": "https://dc.lft.to/lastmile_qr_scan", "ios": "https://dc.lft.to/lastmile_qr_scan"}, "is_reserved": 0, "is_disabled": 0, "type": "electric_scooter", "bike_id": "9588b6e9de2b3b747d8ba86f73228c95"}, {"lon": -77.0308605, "lat": 38.90993383333333, "name": "07a08ebd7b834464efa331f2fd912b2e", "fusion_lat": 0.0, "fusion_lon": 0.0, "rental_uris": {"android": "https://dc.lft.to/lastmile_qr_scan", "ios": "https://dc.lft.to/lastmile_qr_scan"}, "is_reserved": 0, "is_disabled": 0, "type": "electric_scooter", "bike_id": "07a08ebd7b834464efa331f2fd912b2e"}, {"lon": -77.025254, "lat": 38.884985, "name": "13465d9fe8eabc6b32fdaaf568f93135", "fusion_lat": 0.0, "fusion_lon": 0.0, "rental_uris": {"android": "https://dc.lft.to/lastmile_qr_scan", "ios": "https://dc.lft.to/lastmile_qr_scan"}, "is_reserved": 0, "is_disabled": 0, "type": "electric_scooter", "bike_id": "13465d9fe8eabc6b32fdaaf568f93135"}, {"lon": -77.040412, "lat": 38.923175, "name": "32d43aab45092b40bc6e91f63273f4cf", "fusion_lat": 0.0, "fusion_lon": 0.0, "rental_uris": {"android": "https://dc.lft.to/lastmile_qr_scan", "ios": "https://dc.lft.to/lastmile_qr_scan"}, "is_reserved": 0, "is_disabled": 0, "type": "electric_scooter", "bike_id": "32d43aab45092b40bc6e91f63273f4cf"}, {"lon": -77.0371325, "lat": 38.926668666666664, "name": "25841ed897fdccf9930650a7fe586678", "fusion_lat": 0.0, "fusion_lon": 0.0, "rental_uris": {"android": "https://dc.lft.to/lastmile_qr_scan", "ios": "https://dc.lft.to/lastmile_qr_scan"}, "is_reserved": 0, "is_disabled": 0, "type": "electric_scooter", "bike_id": "25841ed897fdccf9930650a7fe586678"}, {"lon": -77.0487485, "lat": 38.912437, "name": "36e124238d5674547b23055aabd92785", "fusion_lat": 0.0, "fusion_lon": 0.0, "rental_uris": {"android": "https://dc.lft.to/lastmile_qr_scan", "ios": "https://dc.lft.to/lastmile_qr_scan"}, "is_reserved": 0, "is_disabled": 0, "type": "electric_scooter", "bike_id": "36e124238d5674547b23055aabd92785"}, {"lon": -77.02575516666667, "lat": 38.9204725, "name": "3f8d107bf8ce76bc753b21e383ae4f86", "fusion_lat": 0.0, "fusion_lon": 0.0, "rental_uris": {"android": "https://dc.lft.to/lastmile_qr_scan", "ios": "https://dc.lft.to/lastmile_qr_scan"}, "is_reserved": 0, "is_disabled": 0, "type": "electric_scooter", "bike_id": "3f8d107bf8ce76bc753b21e383ae4f86"}, {"lon": -77.03785116666667, "lat": 38.92567116666667, "name": "bc1f1498a5fdc14335f0988d3655a6eb", "fusion_lat": 0.0, "fusion_lon": 0.0, "rental_uris": {"android": "https://dc.lft.to/lastmile_qr_scan", "ios": "https://dc.lft.to/lastmile_qr_scan"}, "is_reserved": 0, "is_disabled": 0, "type": "electric_scooter", "bike_id": "bc1f1498a5fdc14335f0988d3655a6eb"}, {"lon": -77.01992833333334, "lat": 38.904754833333335, "name": "e2bb8b4f8969b2093d4039aed3d8aead", "fusion_lat": 0.0, "fusion_lon": 0.0, "rental_uris": {"android": "https://dc.lft.to/lastmile_qr_scan", "ios": "https://dc.lft.to/lastmile_qr_scan"}, "is_reserved": 0, "is_disabled": 0, "type": "electric_scooter", "bike_id": "e2bb8b4f8969b2093d4039aed3d8aead"}, {"lon": -77.03192666666666, "lat": 38.9070675, "name": "c53a0702f3b556996cd589e4e1487567", "fusion_lat": 0.0, "fusion_lon": 0.0, "rental_uris": {"android": "https://dc.lft.to/lastmile_qr_scan", "ios": "https://dc.lft.to/lastmile_qr_scan"}, "is_reserved": 0, "is_disabled": 0, "type": "electric_scooter", "bike_id": "c53a0702f3b556996cd589e4e1487567"}, {"lon": -77.01515533333334, "lat": 38.887386166666666, "name": "01e35c0b6faa061dd6a7508081d82c18", "fusion_lat": 0.0, "fusion_lon": 0.0, "rental_uris": {"android": "https://dc.lft.to/lastmile_qr_scan", "ios": "https://dc.lft.to/lastmile_qr_scan"}, "is_reserved": 0, "is_disabled": 0, "type": "electric_scooter", "bike_id": "01e35c0b6faa061dd6a7508081d82c18"}, {"lon": -76.90536383333334, "lat": 38.89737183333333, "name": "520ce7b5524bb39a83b8f8d81b011d71", "fusion_lat": 0.0, "fusion_lon": 0.0, "rental_uris": {"android": "https://dc.lft.to/lastmile_qr_scan", "ios": "https://dc.lft.to/lastmile_qr_scan"}, "is_reserved": 0, "is_disabled": 0, "type": "electric_bike", "bike_id": "520ce7b5524bb39a83b8f8d81b011d71"}, {"lon": -77.00726466666667, "lat": 38.88493116666667, "name": "483c1f30bdd779497036d07405f8e8c7", "fusion_lat": 0.0, "fusion_lon": 0.0, "rental_uris": {"android": "https://dc.lft.to/lastmile_qr_scan", "ios": "https://dc.lft.to/lastmile_qr_scan"}, "is_reserved": 0, "is_disabled": 0, "type": "electric_scooter", "bike_id": "483c1f30bdd779497036d07405f8e8c7"}, {"lon": -77.03029833333333, "lat": 38.929663, "name": "9538cda284cb4fecd65784550b6e28f3", "fusion_lat": 0.0, "fusion_lon": 0.0, "rental_uris": {"android": "https://dc.lft.to/lastmile_qr_scan", "ios": "https://dc.lft.to/lastmile_qr_scan"}, "is_reserved": 0, "is_disabled": 0, "type": "electric_scooter", "bike_id": "9538cda284cb4fecd65784550b6e28f3"}, {"lon": -77.04153883333333, "lat": 38.919008, "name": "7965bfa329c7e3a7e41bf902239f3967", "fusion_lat": 0.0, "fusion_lon": 0.0, "rental_uris": {"android": "https://dc.lft.to/lastmile_qr_scan", "ios": "https://dc.lft.to/lastmile_qr_scan"}, "is_reserved": 0, "is_disabled": 0, "type": "electric_scooter", "bike_id": "7965bfa329c7e3a7e41bf902239f3967"}, {"lon": -76.97444766666666, "lat": 38.96670133333333, "name": "125adf36e48e5207e93535eb1f0a2485", "fusion_lat": 0.0, "fusion_lon": 0.0, "rental_uris": {"android": "https://dc.lft.to/lastmile_qr_scan", "ios": "https://dc.lft.to/lastmile_qr_scan"}, "is_reserved": 0, "is_disabled": 0, "type": "electric_bike", "bike_id": "125adf36e48e5207e93535eb1f0a2485"}, {"lon": -77.02685216666667, "lat": 38.9248825, "name": "164cdd5194201eae6e2aaed222490ac1", "fusion_lat": 0.0, "fusion_lon": 0.0, "rental_uris": {"android": "https://dc.lft.to/lastmile_qr_scan", "ios": "https://dc.lft.to/lastmile_qr_scan"}, "is_reserved": 0, "is_disabled": 0, "type": "electric_scooter", "bike_id": "164cdd5194201eae6e2aaed222490ac1"}, {"lon": -77.07079016666667, "lat": 38.919327833333334, "name": "457eba1f1b749927c09c6485d82c2b48", "fusion_lat": 0.0, "fusion_lon": 0.0, "rental_uris": {"android": "https://dc.lft.to/lastmile_qr_scan", "ios": "https://dc.lft.to/lastmile_qr_scan"}, "is_reserved": 0, "is_disabled": 0, "type": "electric_bike", "bike_id": "457eba1f1b749927c09c6485d82c2b48"}, {"lon": -77.02296366666667, "lat": 38.9268755, "name": "22424020e73d51d7da564887462ba4ac", "fusion_lat": 0.0, "fusion_lon": 0.0, "rental_uris": {"android": "https://dc.lft.to/lastmile_qr_scan", "ios": "https://dc.lft.to/lastmile_qr_scan"}, "is_reserved": 0, "is_disabled": 0, "type": "electric_scooter", "bike_id": "22424020e73d51d7da564887462ba4ac"}, {"lon": -76.98436233333334, "lat": 38.914313666666665, "name": "b0347f767d3e6672f0a400a60193f10f", "fusion_lat": 0.0, "fusion_lon": 0.0, "rental_uris": {"android": "https://dc.lft.to/lastmile_qr_scan", "ios": "https://dc.lft.to/lastmile_qr_scan"}, "is_reserved": 0, "is_disabled": 0, "type": "electric_scooter", "bike_id": "b0347f767d3e6672f0a400a60193f10f"}, {"lon": -77.04814633333334, "lat": 38.91335933333333, "name": "7d34a900a0c6ba33305edf7ede7fb2e4", "fusion_lat": 0.0, "fusion_lon": 0.0, "rental_uris": {"android": "https://dc.lft.to/lastmile_qr_scan", "ios": "https://dc.lft.to/lastmile_qr_scan"}, "is_reserved": 0, "is_disabled": 0, "type": "electric_scooter", "bike_id": "7d34a900a0c6ba33305edf7ede7fb2e4"}, {"lon": -76.90815533333334, "lat": 38.9945445, "name": "d938c568549ee5c814ff1b6092d4359a", "fusion_lat": 0.0, "fusion_lon": 0.0, "rental_uris": {"android": "https://dc.lft.to/lastmile_qr_scan", "ios": "https://dc.lft.to/lastmile_qr_scan"}, "is_reserved": 0, "is_disabled": 0, "type": "electric_bike", "bike_id": "d938c568549ee5c814ff1b6092d4359a"}, {"lon": -77.0321045, "lat": 38.929695833333334, "name": "3e3a511a44375369ed930a03148cbd8e", "fusion_lat": 0.0, "fusion_lon": 0.0, "rental_uris": {"android": "https://dc.lft.to/lastmile_qr_scan", "ios": "https://dc.lft.to/lastmile_qr_scan"}, "is_reserved": 0, "is_disabled": 0, "type": "electric_scooter", "bike_id": "3e3a511a44375369ed930a03148cbd8e"}, {"lon": -77.03861083333334, "lat": 38.91280066666667, "name": "639ea5fe626747b44ee4e2b8e17b791b", "fusion_lat": 0.0, "fusion_lon": 0.0, "rental_uris": {"android": "https://dc.lft.to/lastmile_qr_scan", "ios": "https://dc.lft.to/lastmile_qr_scan"}, "is_reserved": 0, "is_disabled": 0, "type": "electric_scooter", "bike_id": "639ea5fe626747b44ee4e2b8e17b791b"}, {"lon": -77.03435816666666, "lat": 38.90746766666667, "name": "aa40882f46af78fda5e34ab12da2bf38", "fusion_lat": 0.0, "fusion_lon": 0.0, "rental_uris": {"android": "https://dc.lft.to/lastmile_qr_scan", "ios": "https://dc.lft.to/lastmile_qr_scan"}, "is_reserved": 0, "is_disabled": 0, "type": "electric_scooter", "bike_id": "aa40882f46af78fda5e34ab12da2bf38"}, {"lon": -77.06534566666667, "lat": 38.934752, "name": "2d851b0fdcaeeae5fccdff31837765e6", "fusion_lat": 0.0, "fusion_lon": 0.0, "rental_uris": {"android": "https://dc.lft.to/lastmile_qr_scan", "ios": "https://dc.lft.to/lastmile_qr_scan"}, "is_reserved": 0, "is_disabled": 0, "type": "electric_scooter", "bike_id": "2d851b0fdcaeeae5fccdff31837765e6"}, {"lon": -77.04772133333333, "lat": 38.89741266666667, "name": "ac13e9c3106337810690a2a13bb35934", "fusion_lat": 0.0, "fusion_lon": 0.0, "rental_uris": {"android": "https://dc.lft.to/lastmile_qr_scan", "ios": "https://dc.lft.to/lastmile_qr_scan"}, "is_reserved": 0, "is_disabled": 0, "type": "electric_scooter", "bike_id": "ac13e9c3106337810690a2a13bb35934"}, {"lon": -76.98312083333333, "lat": 38.89976766666667, "name": "67ea7f09c0ee6df525299d79e9100c85", "fusion_lat": 0.0, "fusion_lon": 0.0, "rental_uris": {"android": "https://dc.lft.to/lastmile_qr_scan", "ios": "https://dc.lft.to/lastmile_qr_scan"}, "is_reserved": 0, "is_disabled": 0, "type": "electric_scooter", "bike_id": "67ea7f09c0ee6df525299d79e9100c85"}, {"lon": -77.02894116666667, "lat": 38.90045333333333, "name": "64b98ec7eced748b6de14f1b5008e025", "fusion_lat": 0.0, "fusion_lon": 0.0, "rental_uris": {"android": "https://dc.lft.to/lastmile_qr_scan", "ios": "https://dc.lft.to/lastmile_qr_scan"}, "is_reserved": 0, "is_disabled": 0, "type": "electric_scooter", "bike_id": "64b98ec7eced748b6de14f1b5008e025"}, {"lon": -77.046179, "lat": 38.915435333333335, "name": "e91468becae22641a02d00ee27940198", "fusion_lat": 0.0, "fusion_lon": 0.0, "rental_uris": {"android": "https://dc.lft.to/lastmile_qr_scan", "ios": "https://dc.lft.to/lastmile_qr_scan"}, "is_reserved": 0, "is_disabled": 0, "type": "electric_scooter", "bike_id": "e91468becae22641a02d00ee27940198"}, {"lon": -77.034418, "lat": 38.91809933333333, "name": "3d1463d93208e8b413007d38b26e5d24", "fusion_lat": 0.0, "fusion_lon": 0.0, "rental_uris": {"android": "https://dc.lft.to/lastmile_qr_scan", "ios": "https://dc.lft.to/lastmile_qr_scan"}, "is_reserved": 0, "is_disabled": 0, "type": "electric_scooter", "bike_id": "3d1463d93208e8b413007d38b26e5d24"}, {"lon": -77.03497783333333, "lat": 38.93208216666667, "name": "31a07d6484be6dbc97bc60e5d687955d", "fusion_lat": 0.0, "fusion_lon": 0.0, "rental_uris": {"android": "https://dc.lft.to/lastmile_qr_scan", "ios": "https://dc.lft.to/lastmile_qr_scan"}, "is_reserved": 0, "is_disabled": 0, "type": "electric_scooter", "bike_id": "31a07d6484be6dbc97bc60e5d687955d"}, {"lon": -77.01028716666667, "lat": 38.91818683333333, "name": "8247ad965cdcbafd8c57c0153ac8b90b", "fusion_lat": 0.0, "fusion_lon": 0.0, "rental_uris": {"android": "https://dc.lft.to/lastmile_qr_scan", "ios": "https://dc.lft.to/lastmile_qr_scan"}, "is_reserved": 0, "is_disabled": 0, "type": "electric_scooter", "bike_id": "8247ad965cdcbafd8c57c0153ac8b90b"}, {"lon": -77.037151, "lat": 38.926666, "name": "09e7d7dacb4273f43237926cd00fdf21", "fusion_lat": 0.0, "fusion_lon": 0.0, "rental_uris": {"android": "https://dc.lft.to/lastmile_qr_scan", "ios": "https://dc.lft.to/lastmile_qr_scan"}, "is_reserved": 0, "is_disabled": 0, "type": "electric_scooter", "bike_id": "09e7d7dacb4273f43237926cd00fdf21"}, {"lon": -76.98998916666666, "lat": 38.903953333333334, "name": "5f4294d029de94c729529740b5d47ddf", "fusion_lat": 0.0, "fusion_lon": 0.0, "rental_uris": {"android": "https://dc.lft.to/lastmile_qr_scan", "ios": "https://dc.lft.to/lastmile_qr_scan"}, "is_reserved": 0, "is_disabled": 0, "type": "electric_scooter", "bike_id": "5f4294d029de94c729529740b5d47ddf"}, {"lon": -77.00140316666666, "lat": 38.904089666666664, "name": "c0359f4d3ba4404fa881df0295c5f0aa", "fusion_lat": 0.0, "fusion_lon": 0.0, "rental_uris": {"android": "https://dc.lft.to/lastmile_qr_scan", "ios": "https://dc.lft.to/lastmile_qr_scan"}, "is_reserved": 0, "is_disabled": 0, "type": "electric_scooter", "bike_id": "c0359f4d3ba4404fa881df0295c5f0aa"}, {"lon": -77.02186066666667, "lat": 38.92272633333333, "name": "96b5010d3e8d20593707eb3ce4a855ce", "fusion_lat": 0.0, "fusion_lon": 0.0, "rental_uris": {"android": "https://dc.lft.to/lastmile_qr_scan", "ios": "https://dc.lft.to/lastmile_qr_scan"}, "is_reserved": 0, "is_disabled": 0, "type": "electric_scooter", "bike_id": "96b5010d3e8d20593707eb3ce4a855ce"}, {"lon": -77.03162516666667, "lat": 38.91416983333333, "name": "dea4eb59aa9d70cbb975b962f3f9532a", "fusion_lat": 0.0, "fusion_lon": 0.0, "rental_uris": {"android": "https://dc.lft.to/lastmile_qr_scan", "ios": "https://dc.lft.to/lastmile_qr_scan"}, "is_reserved": 0, "is_disabled": 0, "type": "electric_scooter", "bike_id": "dea4eb59aa9d70cbb975b962f3f9532a"}, {"lon": -77.0297635, "lat": 38.962327, "name": "5ec927650a35a9f6866f8b5634a18b8d", "fusion_lat": 0.0, "fusion_lon": 0.0, "rental_uris": {"android": "https://dc.lft.to/lastmile_qr_scan", "ios": "https://dc.lft.to/lastmile_qr_scan"}, "is_reserved": 0, "is_disabled": 0, "type": "electric_scooter", "bike_id": "5ec927650a35a9f6866f8b5634a18b8d"}, {"lon": -77.0420945, "lat": 38.933377166666666, "name": "3a8696d80cf7f142154d964e81355589", "fusion_lat": 0.0, "fusion_lon": 0.0, "rental_uris": {"android": "https://dc.lft.to/lastmile_qr_scan", "ios": "https://dc.lft.to/lastmile_qr_scan"}, "is_reserved": 0, "is_disabled": 0, "type": "electric_bike", "bike_id": "3a8696d80cf7f142154d964e81355589"}, {"lon": -77.02168866666666, "lat": 38.88634316666667, "name": "2053542131c5735cb9665a173784dd74", "fusion_lat": 0.0, "fusion_lon": 0.0, "rental_uris": {"android": "https://dc.lft.to/lastmile_qr_scan", "ios": "https://dc.lft.to/lastmile_qr_scan"}, "is_reserved": 0, "is_disabled": 0, "type": "electric_scooter", "bike_id": "2053542131c5735cb9665a173784dd74"}, {"lon": -77.10130466666666, "lat": 38.852089666666664, "name": "87c1a16b1d6bc9cdcfb5843a8ef49741", "fusion_lat": 0.0, "fusion_lon": 0.0, "rental_uris": {"android": "https://dc.lft.to/lastmile_qr_scan", "ios": "https://dc.lft.to/lastmile_qr_scan"}, "is_reserved": 0, "is_disabled": 0, "type": "electric_bike", "bike_id": "87c1a16b1d6bc9cdcfb5843a8ef49741"}, {"lon": -77.02242516666666, "lat": 38.912744, "name": "827b607bad3186d371dbb8fe9be145e3", "fusion_lat": 0.0, "fusion_lon": 0.0, "rental_uris": {"android": "https://dc.lft.to/lastmile_qr_scan", "ios": "https://dc.lft.to/lastmile_qr_scan"}, "is_reserved": 0, "is_disabled": 0, "type": "electric_scooter", "bike_id": "827b607bad3186d371dbb8fe9be145e3"}, {"lon": -77.0240235, "lat": 38.904307, "name": "c15148287a09949204fa3ece82690314", "fusion_lat": 0.0, "fusion_lon": 0.0, "rental_uris": {"android": "https://dc.lft.to/lastmile_qr_scan", "ios": "https://dc.lft.to/lastmile_qr_scan"}, "is_reserved": 0, "is_disabled": 0, "type": "electric_scooter", "bike_id": "c15148287a09949204fa3ece82690314"}, {"lon": -77.048796, "lat": 38.90532983333333, "name": "6dc6a26791f2001392225a0f411b28f9", "fusion_lat": 0.0, "fusion_lon": 0.0, "rental_uris": {"android": "https://dc.lft.to/lastmile_qr_scan", "ios": "https://dc.lft.to/lastmile_qr_scan"}, "is_reserved": 0, "is_disabled": 0, "type": "electric_scooter", "bike_id": "6dc6a26791f2001392225a0f411b28f9"}, {"lon": -77.04662116666667, "lat": 38.893385, "name": "2f54834222854b04d53f3846bce293b7", "fusion_lat": 0.0, "fusion_lon": 0.0, "rental_uris": {"android": "https://dc.lft.to/lastmile_qr_scan", "ios": "https://dc.lft.to/lastmile_qr_scan"}, "is_reserved": 0, "is_disabled": 0, "type": "electric_scooter", "bike_id": "2f54834222854b04d53f3846bce293b7"}, {"lon": -77.0433155, "lat": 38.8983565, "name": "6611e14d3db9b5651be5737223a460ba", "fusion_lat": 0.0, "fusion_lon": 0.0, "rental_uris": {"android": "https://dc.lft.to/lastmile_qr_scan", "ios": "https://dc.lft.to/lastmile_qr_scan"}, "is_reserved": 0, "is_disabled": 0, "type": "electric_scooter", "bike_id": "6611e14d3db9b5651be5737223a460ba"}, {"lon": -77.04173316666666, "lat": 38.906271333333336, "name": "533fabc36534bef492c30b82f93ba5db", "fusion_lat": 0.0, "fusion_lon": 0.0, "rental_uris": {"android": "https://dc.lft.to/lastmile_qr_scan", "ios": "https://dc.lft.to/lastmile_qr_scan"}, "is_reserved": 0, "is_disabled": 0, "type": "electric_scooter", "bike_id": "533fabc36534bef492c30b82f93ba5db"}, {"lon": -76.9913255, "lat": 38.900344, "name": "d7e427d9519afce25d67866776d5c70c", "fusion_lat": 0.0, "fusion_lon": 0.0, "rental_uris": {"android": "https://dc.lft.to/lastmile_qr_scan", "ios": "https://dc.lft.to/lastmile_qr_scan"}, "is_reserved": 0, "is_disabled": 0, "type": "electric_scooter", "bike_id": "d7e427d9519afce25d67866776d5c70c"}, {"lon": -77.03804283333334, "lat": 38.90557866666666, "name": "85f7c1ac8e9da1299a3e3420a1b69019", "fusion_lat": 0.0, "fusion_lon": 0.0, "rental_uris": {"android": "https://dc.lft.to/lastmile_qr_scan", "ios": "https://dc.lft.to/lastmile_qr_scan"}, "is_reserved": 0, "is_disabled": 0, "type": "electric_scooter", "bike_id": "85f7c1ac8e9da1299a3e3420a1b69019"}, {"lon": -77.01019783333334, "lat": 38.92129583333333, "name": "2a693ddd5006dbe42d4980baf88b1261", "fusion_lat": 0.0, "fusion_lon": 0.0, "rental_uris": {"android": "https://dc.lft.to/lastmile_qr_scan", "ios": "https://dc.lft.to/lastmile_qr_scan"}, "is_reserved": 0, "is_disabled": 0, "type": "electric_scooter", "bike_id": "2a693ddd5006dbe42d4980baf88b1261"}, {"lon": -77.02360683333333, "lat": 38.89224866666667, "name": "433e4cbde34e08bf7b4d89c7f918a5d4", "fusion_lat": 0.0, "fusion_lon": 0.0, "rental_uris": {"android": "https://dc.lft.to/lastmile_qr_scan", "ios": "https://dc.lft.to/lastmile_qr_scan"}, "is_reserved": 0, "is_disabled": 0, "type": "electric_scooter", "bike_id": "433e4cbde34e08bf7b4d89c7f918a5d4"}, {"lon": -77.106873, "lat": 38.9358035, "name": "b613ae6b8a4ad4dd14cfb88336b96267", "fusion_lat": 0.0, "fusion_lon": 0.0, "rental_uris": {"android": "https://dc.lft.to/lastmile_qr_scan", "ios": "https://dc.lft.to/lastmile_qr_scan"}, "is_reserved": 0, "is_disabled": 0, "type": "electric_bike", "bike_id": "b613ae6b8a4ad4dd14cfb88336b96267"}, {"lon": -77.021854, "lat": 38.911367166666665, "name": "6a301e647c8e27036146a323be079686", "fusion_lat": 0.0, "fusion_lon": 0.0, "rental_uris": {"android": "https://dc.lft.to/lastmile_qr_scan", "ios": "https://dc.lft.to/lastmile_qr_scan"}, "is_reserved": 0, "is_disabled": 0, "type": "electric_scooter", "bike_id": "6a301e647c8e27036146a323be079686"}, {"lon": -77.045476, "lat": 38.91944183333333, "name": "0bac11ef6af5af5a4282aeeb4eca50ac", "fusion_lat": 0.0, "fusion_lon": 0.0, "rental_uris": {"android": "https://dc.lft.to/lastmile_qr_scan", "ios": "https://dc.lft.to/lastmile_qr_scan"}, "is_reserved": 0, "is_disabled": 0, "type": "electric_scooter", "bike_id": "0bac11ef6af5af5a4282aeeb4eca50ac"}, {"lon": -77.03795216666667, "lat": 38.9198295, "name": "4eed47d4a71b71ad39f2de3befb23e84", "fusion_lat": 0.0, "fusion_lon": 0.0, "rental_uris": {"android": "https://dc.lft.to/lastmile_qr_scan", "ios": "https://dc.lft.to/lastmile_qr_scan"}, "is_reserved": 0, "is_disabled": 0, "type": "electric_scooter", "bike_id": "4eed47d4a71b71ad39f2de3befb23e84"}, {"lon": -77.05331516666666, "lat": 38.900267166666666, "name": "82655c62807df8eb40377c1b6fee74eb", "fusion_lat": 0.0, "fusion_lon": 0.0, "rental_uris": {"android": "https://dc.lft.to/lastmile_qr_scan", "ios": "https://dc.lft.to/lastmile_qr_scan"}, "is_reserved": 0, "is_disabled": 0, "type": "electric_scooter", "bike_id": "82655c62807df8eb40377c1b6fee74eb"}, {"lon": -77.01763683333333, "lat": 38.912674833333334, "name": "eb9a7a884057813c02eee134299ad148", "fusion_lat": 0.0, "fusion_lon": 0.0, "rental_uris": {"android": "https://dc.lft.to/lastmile_qr_scan", "ios": "https://dc.lft.to/lastmile_qr_scan"}, "is_reserved": 0, "is_disabled": 0, "type": "electric_scooter", "bike_id": "eb9a7a884057813c02eee134299ad148"}, {"lon": -77.05277766666667, "lat": 38.91020983333333, "name": "17f2269c73a4c0f746b971e34d09e36c", "fusion_lat": 0.0, "fusion_lon": 0.0, "rental_uris": {"android": "https://dc.lft.to/lastmile_qr_scan", "ios": "https://dc.lft.to/lastmile_qr_scan"}, "is_reserved": 0, "is_disabled": 0, "type": "electric_scooter", "bike_id": "17f2269c73a4c0f746b971e34d09e36c"}, {"lon": -77.03809666666666, "lat": 38.9142395, "name": "2cadf4c315149d7159e8137130d7cd21", "fusion_lat": 0.0, "fusion_lon": 0.0, "rental_uris": {"android": "https://dc.lft.to/lastmile_qr_scan", "ios": "https://dc.lft.to/lastmile_qr_scan"}, "is_reserved": 0, "is_disabled": 0, "type": "electric_scooter", "bike_id": "2cadf4c315149d7159e8137130d7cd21"}, {"lon": -76.97330316666667, "lat": 38.85067016666667, "name": "471d3eaf1986cd77952d4e8703e915f3", "fusion_lat": 0.0, "fusion_lon": 0.0, "rental_uris": {"android": "https://dc.lft.to/lastmile_qr_scan", "ios": "https://dc.lft.to/lastmile_qr_scan"}, "is_reserved": 0, "is_disabled": 0, "type": "electric_bike", "bike_id": "471d3eaf1986cd77952d4e8703e915f3"}, {"lon": -77.02364916666667, "lat": 38.933792833333335, "name": "db002e48f27fb1cfb23aab7579f22ae7", "fusion_lat": 0.0, "fusion_lon": 0.0, "rental_uris": {"android": "https://dc.lft.to/lastmile_qr_scan", "ios": "https://dc.lft.to/lastmile_qr_scan"}, "is_reserved": 0, "is_disabled": 0, "type": "electric_scooter", "bike_id": "db002e48f27fb1cfb23aab7579f22ae7"}, {"lon": -77.045761, "lat": 38.90246366666667, "name": "2fa511703bd98ab0de9bbcb152a0c0e3", "fusion_lat": 0.0, "fusion_lon": 0.0, "rental_uris": {"android": "https://dc.lft.to/lastmile_qr_scan", "ios": "https://dc.lft.to/lastmile_qr_scan"}, "is_reserved": 0, "is_disabled": 0, "type": "electric_scooter", "bike_id": "2fa511703bd98ab0de9bbcb152a0c0e3"}, {"lon": -77.03292016666667, "lat": 38.922234, "name": "70d700ee3c6550674fe0d60e84a0fc84", "fusion_lat": 0.0, "fusion_lon": 0.0, "rental_uris": {"android": "https://dc.lft.to/lastmile_qr_scan", "ios": "https://dc.lft.to/lastmile_qr_scan"}, "is_reserved": 0, "is_disabled": 0, "type": "electric_scooter", "bike_id": "70d700ee3c6550674fe0d60e84a0fc84"}, {"lon": -77.04370366666667, "lat": 38.9052725, "name": "2e7636b62acc3627975104271bdedd30", "fusion_lat": 0.0, "fusion_lon": 0.0, "rental_uris": {"android": "https://dc.lft.to/lastmile_qr_scan", "ios": "https://dc.lft.to/lastmile_qr_scan"}, "is_reserved": 0, "is_disabled": 0, "type": "electric_scooter", "bike_id": "2e7636b62acc3627975104271bdedd30"}, {"lon": -76.94781, "lat": 38.89443516666667, "name": "ad08cff4970d61269bcde13799a6993a", "fusion_lat": 0.0, "fusion_lon": 0.0, "rental_uris": {"android": "https://dc.lft.to/lastmile_qr_scan", "ios": "https://dc.lft.to/lastmile_qr_scan"}, "is_reserved": 0, "is_disabled": 0, "type": "electric_bike", "bike_id": "ad08cff4970d61269bcde13799a6993a"}, {"lon": -77.03790416666666, "lat": 38.9057755, "name": "e60c9f4072dfb9da549215771aa5b4dc", "fusion_lat": 0.0, "fusion_lon": 0.0, "rental_uris": {"android": "https://dc.lft.to/lastmile_qr_scan", "ios": "https://dc.lft.to/lastmile_qr_scan"}, "is_reserved": 0, "is_disabled": 0, "type": "electric_scooter", "bike_id": "e60c9f4072dfb9da549215771aa5b4dc"}, {"lon": -77.024025, "lat": 38.9086875, "name": "d56f940424e5f7e357b9619852b2a5b1", "fusion_lat": 0.0, "fusion_lon": 0.0, "rental_uris": {"android": "https://dc.lft.to/lastmile_qr_scan", "ios": "https://dc.lft.to/lastmile_qr_scan"}, "is_reserved": 0, "is_disabled": 0, "type": "electric_scooter", "bike_id": "d56f940424e5f7e357b9619852b2a5b1"}, {"lon": -77.02544016666667, "lat": 38.940944333333334, "name": "60aff940caeb93fd2acecb44e468605e", "fusion_lat": 0.0, "fusion_lon": 0.0, "rental_uris": {"android": "https://dc.lft.to/lastmile_qr_scan", "ios": "https://dc.lft.to/lastmile_qr_scan"}, "is_reserved": 0, "is_disabled": 0, "type": "electric_scooter", "bike_id": "60aff940caeb93fd2acecb44e468605e"}, {"lon": -77.031355, "lat": 38.91568266666667, "name": "e2a88cbaf282ecfb95b6bcd49dd7a18d", "fusion_lat": 0.0, "fusion_lon": 0.0, "rental_uris": {"android": "https://dc.lft.to/lastmile_qr_scan", "ios": "https://dc.lft.to/lastmile_qr_scan"}, "is_reserved": 0, "is_disabled": 0, "type": "electric_scooter", "bike_id": "e2a88cbaf282ecfb95b6bcd49dd7a18d"}, {"lon": -77.01219333333333, "lat": 38.91524533333333, "name": "3831d38a896c74d39743319451e2b222", "fusion_lat": 0.0, "fusion_lon": 0.0, "rental_uris": {"android": "https://dc.lft.to/lastmile_qr_scan", "ios": "https://dc.lft.to/lastmile_qr_scan"}, "is_reserved": 0, "is_disabled": 0, "type": "electric_scooter", "bike_id": "3831d38a896c74d39743319451e2b222"}, {"lon": -77.04880166666666, "lat": 38.9019335, "name": "19a71428e3ec0f4ddb2bcf9eccfc0426", "fusion_lat": 0.0, "fusion_lon": 0.0, "rental_uris": {"android": "https://dc.lft.to/lastmile_qr_scan", "ios": "https://dc.lft.to/lastmile_qr_scan"}, "is_reserved": 0, "is_disabled": 0, "type": "electric_scooter", "bike_id": "19a71428e3ec0f4ddb2bcf9eccfc0426"}, {"lon": -76.97741166666667, "lat": 38.90507316666667, "name": "c35c5d57e5f5d97a20439adf2e836968", "fusion_lat": 0.0, "fusion_lon": 0.0, "rental_uris": {"android": "https://dc.lft.to/lastmile_qr_scan", "ios": "https://dc.lft.to/lastmile_qr_scan"}, "is_reserved": 0, "is_disabled": 0, "type": "electric_scooter", "bike_id": "c35c5d57e5f5d97a20439adf2e836968"}, {"lon": -77.02823966666666, "lat": 38.932975, "name": "6f3ce6ab1cc88d3a8ce0af908deae73f", "fusion_lat": 0.0, "fusion_lon": 0.0, "rental_uris": {"android": "https://dc.lft.to/lastmile_qr_scan", "ios": "https://dc.lft.to/lastmile_qr_scan"}, "is_reserved": 0, "is_disabled": 0, "type": "electric_scooter", "bike_id": "6f3ce6ab1cc88d3a8ce0af908deae73f"}, {"lon": -77.36090383333334, "lat": 38.93959133333333, "name": "2efc9a254db2638ca42aa9772e18e035", "fusion_lat": 0.0, "fusion_lon": 0.0, "rental_uris": {"android": "https://dc.lft.to/lastmile_qr_scan", "ios": "https://dc.lft.to/lastmile_qr_scan"}, "is_reserved": 0, "is_disabled": 0, "type": "electric_bike", "bike_id": "2efc9a254db2638ca42aa9772e18e035"}, {"lon": -77.02114816666666, "lat": 38.91422583333333, "name": "fc7d6e9e1279db28a0dad229acbcd55a", "fusion_lat": 0.0, "fusion_lon": 0.0, "rental_uris": {"android": "https://dc.lft.to/lastmile_qr_scan", "ios": "https://dc.lft.to/lastmile_qr_scan"}, "is_reserved": 0, "is_disabled": 0, "type": "electric_scooter", "bike_id": "fc7d6e9e1279db28a0dad229acbcd55a"}, {"lon": -76.9798845, "lat": 38.877583333333334, "name": "9d37c682bd1cc3ae7976e4531e24d0aa", "fusion_lat": 0.0, "fusion_lon": 0.0, "rental_uris": {"android": "https://dc.lft.to/lastmile_qr_scan", "ios": "https://dc.lft.to/lastmile_qr_scan"}, "is_reserved": 0, "is_disabled": 0, "type": "electric_bike", "bike_id": "9d37c682bd1cc3ae7976e4531e24d0aa"}, {"lon": -77.01878233333333, "lat": 38.90972433333334, "name": "09c132721eff58a1ed873d2c5586bb5a", "fusion_lat": 0.0, "fusion_lon": 0.0, "rental_uris": {"android": "https://dc.lft.to/lastmile_qr_scan", "ios": "https://dc.lft.to/lastmile_qr_scan"}, "is_reserved": 0, "is_disabled": 0, "type": "electric_scooter", "bike_id": "09c132721eff58a1ed873d2c5586bb5a"}, {"lon": -77.033088, "lat": 38.9084085, "name": "232208fd2265d8f7c1e1aa5bd4eb2e0a", "fusion_lat": 0.0, "fusion_lon": 0.0, "rental_uris": {"android": "https://dc.lft.to/lastmile_qr_scan", "ios": "https://dc.lft.to/lastmile_qr_scan"}, "is_reserved": 0, "is_disabled": 0, "type": "electric_scooter", "bike_id": "232208fd2265d8f7c1e1aa5bd4eb2e0a"}, {"lon": -77.02302833333333, "lat": 38.9089765, "name": "12883d990a12f80e93b1a295c3bb7b48", "fusion_lat": 0.0, "fusion_lon": 0.0, "rental_uris": {"android": "https://dc.lft.to/lastmile_qr_scan", "ios": "https://dc.lft.to/lastmile_qr_scan"}, "is_reserved": 0, "is_disabled": 0, "type": "electric_scooter", "bike_id": "12883d990a12f80e93b1a295c3bb7b48"}, {"lon": -76.989543, "lat": 38.867413, "name": "0d097ccb7e0713831a560d8dca871a9f", "fusion_lat": 0.0, "fusion_lon": 0.0, "rental_uris": {"android": "https://dc.lft.to/lastmile_qr_scan", "ios": "https://dc.lft.to/lastmile_qr_scan"}, "is_reserved": 0, "is_disabled": 0, "type": "electric_bike", "bike_id": "0d097ccb7e0713831a560d8dca871a9f"}, {"lon": -77.034401, "lat": 38.910313333333335, "name": "05932854f8a3cbba2666053ceddcbe40", "fusion_lat": 0.0, "fusion_lon": 0.0, "rental_uris": {"android": "https://dc.lft.to/lastmile_qr_scan", "ios": "https://dc.lft.to/lastmile_qr_scan"}, "is_reserved": 0, "is_disabled": 0, "type": "electric_scooter", "bike_id": "05932854f8a3cbba2666053ceddcbe40"}, {"lon": -76.9885255, "lat": 38.903487, "name": "f599b8e343cdc908551f0fa33e49535f", "fusion_lat": 0.0, "fusion_lon": 0.0, "rental_uris": {"android": "https://dc.lft.to/lastmile_qr_scan", "ios": "https://dc.lft.to/lastmile_qr_scan"}, "is_reserved": 0, "is_disabled": 0, "type": "electric_scooter", "bike_id": "f599b8e343cdc908551f0fa33e49535f"}, {"lon": -77.04435166666667, "lat": 38.912696833333335, "name": "bc864b8b7ce75b613d2207bf8d636516", "fusion_lat": 0.0, "fusion_lon": 0.0, "rental_uris": {"android": "https://dc.lft.to/lastmile_qr_scan", "ios": "https://dc.lft.to/lastmile_qr_scan"}, "is_reserved": 0, "is_disabled": 0, "type": "electric_scooter", "bike_id": "bc864b8b7ce75b613d2207bf8d636516"}, {"lon": -77.04192383333333, "lat": 38.927283833333334, "name": "cb347f3c9578be4f84ba3d9f7b6cc8d2", "fusion_lat": 0.0, "fusion_lon": 0.0, "rental_uris": {"android": "https://dc.lft.to/lastmile_qr_scan", "ios": "https://dc.lft.to/lastmile_qr_scan"}, "is_reserved": 0, "is_disabled": 0, "type": "electric_scooter", "bike_id": "cb347f3c9578be4f84ba3d9f7b6cc8d2"}, {"lon": -77.03355183333333, "lat": 38.932193833333336, "name": "db87fd145973613d3af33dd26fa5e68c", "fusion_lat": 0.0, "fusion_lon": 0.0, "rental_uris": {"android": "https://dc.lft.to/lastmile_qr_scan", "ios": "https://dc.lft.to/lastmile_qr_scan"}, "is_reserved": 0, "is_disabled": 0, "type": "electric_scooter", "bike_id": "db87fd145973613d3af33dd26fa5e68c"}, {"lon": -76.97302433333333, "lat": 38.91995683333333, "name": "969e4897cc91030fb0dc01011ae37eb9", "fusion_lat": 0.0, "fusion_lon": 0.0, "rental_uris": {"android": "https://dc.lft.to/lastmile_qr_scan", "ios": "https://dc.lft.to/lastmile_qr_scan"}, "is_reserved": 0, "is_disabled": 0, "type": "electric_scooter", "bike_id": "969e4897cc91030fb0dc01011ae37eb9"}, {"lon": -77.00601166666667, "lat": 38.884956833333334, "name": "378204a5a8f607495b799804d6af5a65", "fusion_lat": 0.0, "fusion_lon": 0.0, "rental_uris": {"android": "https://dc.lft.to/lastmile_qr_scan", "ios": "https://dc.lft.to/lastmile_qr_scan"}, "is_reserved": 0, "is_disabled": 0, "type": "electric_scooter", "bike_id": "378204a5a8f607495b799804d6af5a65"}, {"lon": -77.04655233333334, "lat": 38.904563333333336, "name": "3ae20497a7be3f4bea880f32df6c4f78", "fusion_lat": 0.0, "fusion_lon": 0.0, "rental_uris": {"android": "https://dc.lft.to/lastmile_qr_scan", "ios": "https://dc.lft.to/lastmile_qr_scan"}, "is_reserved": 0, "is_disabled": 0, "type": "electric_bike", "bike_id": "3ae20497a7be3f4bea880f32df6c4f78"}, {"lon": -77.02281966666666, "lat": 38.925534999999996, "name": "965a2204749a878c8e4778ae03473be0", "fusion_lat": 0.0, "fusion_lon": 0.0, "rental_uris": {"android": "https://dc.lft.to/lastmile_qr_scan", "ios": "https://dc.lft.to/lastmile_qr_scan"}, "is_reserved": 0, "is_disabled": 0, "type": "electric_scooter", "bike_id": "965a2204749a878c8e4778ae03473be0"}, {"lon": -77.03256466666667, "lat": 38.93245183333333, "name": "868534c967c73170899a57b822eaf859", "fusion_lat": 0.0, "fusion_lon": 0.0, "rental_uris": {"android": "https://dc.lft.to/lastmile_qr_scan", "ios": "https://dc.lft.to/lastmile_qr_scan"}, "is_reserved": 0, "is_disabled": 0, "type": "electric_scooter", "bike_id": "868534c967c73170899a57b822eaf859"}, {"lon": -77.0322295, "lat": 38.89220483333333, "name": "0fc5678a67042b52aae6e2f4c14631d3", "fusion_lat": 0.0, "fusion_lon": 0.0, "rental_uris": {"android": "https://dc.lft.to/lastmile_qr_scan", "ios": "https://dc.lft.to/lastmile_qr_scan"}, "is_reserved": 0, "is_disabled": 0, "type": "electric_scooter", "bike_id": "0fc5678a67042b52aae6e2f4c14631d3"}, {"lon": -76.945684, "lat": 38.8662815, "name": "c9780aa8aa4d29ab11709ddda35c26b9", "fusion_lat": 0.0, "fusion_lon": 0.0, "rental_uris": {"android": "https://dc.lft.to/lastmile_qr_scan", "ios": "https://dc.lft.to/lastmile_qr_scan"}, "is_reserved": 0, "is_disabled": 0, "type": "electric_bike", "bike_id": "c9780aa8aa4d29ab11709ddda35c26b9"}, {"lon": -77.02497033333333, "lat": 38.938615166666665, "name": "55f743687938f6e51894a2f5e3ee2097", "fusion_lat": 0.0, "fusion_lon": 0.0, "rental_uris": {"android": "https://dc.lft.to/lastmile_qr_scan", "ios": "https://dc.lft.to/lastmile_qr_scan"}, "is_reserved": 0, "is_disabled": 0, "type": "electric_scooter", "bike_id": "55f743687938f6e51894a2f5e3ee2097"}, {"lon": -77.07727366666667, "lat": 38.9470985, "name": "962fb9a0c08c7328325337c197305e4a", "fusion_lat": 0.0, "fusion_lon": 0.0, "rental_uris": {"android": "https://dc.lft.to/lastmile_qr_scan", "ios": "https://dc.lft.to/lastmile_qr_scan"}, "is_reserved": 0, "is_disabled": 0, "type": "electric_scooter", "bike_id": "962fb9a0c08c7328325337c197305e4a"}, {"lon": -77.0141295, "lat": 38.89098833333333, "name": "552bbe6b26beb2b088106193c3644fe4", "fusion_lat": 0.0, "fusion_lon": 0.0, "rental_uris": {"android": "https://dc.lft.to/lastmile_qr_scan", "ios": "https://dc.lft.to/lastmile_qr_scan"}, "is_reserved": 0, "is_disabled": 0, "type": "electric_scooter", "bike_id": "552bbe6b26beb2b088106193c3644fe4"}, {"lon": -77.05123333333333, "lat": 38.999684, "name": "7854d4e2671629335ff551c641f0e2ab", "fusion_lat": 0.0, "fusion_lon": 0.0, "rental_uris": {"android": "https://dc.lft.to/lastmile_qr_scan", "ios": "https://dc.lft.to/lastmile_qr_scan"}, "is_reserved": 0, "is_disabled": 0, "type": "electric_bike", "bike_id": "7854d4e2671629335ff551c641f0e2ab"}, {"lon": -77.20251233333333, "lat": 39.09370716666667, "name": "727379d2801863f201e0481b34b4c94d", "fusion_lat": 0.0, "fusion_lon": 0.0, "rental_uris": {"android": "https://dc.lft.to/lastmile_qr_scan", "ios": "https://dc.lft.to/lastmile_qr_scan"}, "is_reserved": 0, "is_disabled": 0, "type": "electric_bike", "bike_id": "727379d2801863f201e0481b34b4c94d"}, {"lon": -77.02734516666666, "lat": 38.896723, "name": "b6018e734b675bc7b81632a6e39ecb10", "fusion_lat": 0.0, "fusion_lon": 0.0, "rental_uris": {"android": "https://dc.lft.to/lastmile_qr_scan", "ios": "https://dc.lft.to/lastmile_qr_scan"}, "is_reserved": 0, "is_disabled": 0, "type": "electric_scooter", "bike_id": "b6018e734b675bc7b81632a6e39ecb10"}, {"lon": -77.02494433333334, "lat": 38.918105, "name": "22bb85b078c26399079ae3df1a528c22", "fusion_lat": 0.0, "fusion_lon": 0.0, "rental_uris": {"android": "https://dc.lft.to/lastmile_qr_scan", "ios": "https://dc.lft.to/lastmile_qr_scan"}, "is_reserved": 0, "is_disabled": 0, "type": "electric_scooter", "bike_id": "22bb85b078c26399079ae3df1a528c22"}, {"lon": -76.96879466666667, "lat": 38.92446016666667, "name": "8482bc1d149390ffdc0da48ac6c50d64", "fusion_lat": 0.0, "fusion_lon": 0.0, "rental_uris": {"android": "https://dc.lft.to/lastmile_qr_scan", "ios": "https://dc.lft.to/lastmile_qr_scan"}, "is_reserved": 0, "is_disabled": 0, "type": "electric_scooter", "bike_id": "8482bc1d149390ffdc0da48ac6c50d64"}, {"lon": -77.0434885, "lat": 38.90898283333333, "name": "842682e8d04a2911df99e1fda9e8f3d3", "fusion_lat": 0.0, "fusion_lon": 0.0, "rental_uris": {"android": "https://dc.lft.to/lastmile_qr_scan", "ios": "https://dc.lft.to/lastmile_qr_scan"}, "is_reserved": 0, "is_disabled": 0, "type": "electric_bike", "bike_id": "842682e8d04a2911df99e1fda9e8f3d3"}, {"lon": -77.04147216666667, "lat": 38.9229975, "name": "8013d6e50d6ad8f2126c642891139390", "fusion_lat": 0.0, "fusion_lon": 0.0, "rental_uris": {"android": "https://dc.lft.to/lastmile_qr_scan", "ios": "https://dc.lft.to/lastmile_qr_scan"}, "is_reserved": 0, "is_disabled": 0, "type": "electric_scooter", "bike_id": "8013d6e50d6ad8f2126c642891139390"}, {"lon": -77.039916, "lat": 38.89891566666667, "name": "8d8a751296a836d2890f2041a3b0be55", "fusion_lat": 0.0, "fusion_lon": 0.0, "rental_uris": {"android": "https://dc.lft.to/lastmile_qr_scan", "ios": "https://dc.lft.to/lastmile_qr_scan"}, "is_reserved": 0, "is_disabled": 0, "type": "electric_scooter", "bike_id": "8d8a751296a836d2890f2041a3b0be55"}, {"lon": -77.0230705, "lat": 38.917835333333336, "name": "48a2e50e6b92763e2f200eda6e6f5a2e", "fusion_lat": 0.0, "fusion_lon": 0.0, "rental_uris": {"android": "https://dc.lft.to/lastmile_qr_scan", "ios": "https://dc.lft.to/lastmile_qr_scan"}, "is_reserved": 0, "is_disabled": 0, "type": "electric_scooter", "bike_id": "48a2e50e6b92763e2f200eda6e6f5a2e"}, {"lon": -77.03298933333333, "lat": 38.909759333333334, "name": "2c0452d8fe4df28001679080052304f1", "fusion_lat": 0.0, "fusion_lon": 0.0, "rental_uris": {"android": "https://dc.lft.to/lastmile_qr_scan", "ios": "https://dc.lft.to/lastmile_qr_scan"},