{"data": {"bikes": [{"rental_uris": {"ios": "https://dc.lft.to/lastmile_qr_scan", "android": "https://dc.lft.to/lastmile_qr_scan"}, "fusion_lat": 0.0, "name": "c68fadc2db686cca97a55ccf3359ec7f", "bike_id": "c68fadc2db686cca97a55ccf3359ec7f", "is_disabled": 0, "type": "electric_scooter", "lat": 38.904189, "lon": -77.025864, "is_reserved": 0, "fusion_lon": 0.0}, {"rental_uris": {"ios": "https://dc.lft.to/lastmile_qr_scan", "android": "https://dc.lft.to/lastmile_qr_scan"}, "fusion_lat": 0.0, "name": "6a69276c727b90b9c946667afc985ec1", "bike_id": "6a69276c727b90b9c946667afc985ec1", "is_disabled": 0, "type": "electric_scooter", "lat": 38.92846316666667, "lon": -77.015841, "is_reserved": 0, "fusion_lon": 0.0}, {"rental_uris": {"ios": "https://dc.lft.to/lastmile_qr_scan", "android": "https://dc.lft.to/lastmile_qr_scan"}, "fusion_lat": 0.0, "name": "9e1b0ad7e63de6ae971ef18e5644d777", "bike_id": "9e1b0ad7e63de6ae971ef18e5644d777", "is_disabled": 0, "type": "electric_scooter", "lat": 38.876904333333336, "lon": -77.0073465, "is_reserved": 0, "fusion_lon": 0.0}, {"rental_uris": {"ios": "https://dc.lft.to/lastmile_qr_scan", "android": "https://dc.lft.to/lastmile_qr_scan"}, "fusion_lat": 0.0, "name": "ff69723829d9209b92fed6987ade3bcf", "bike_id": "ff69723829d9209b92fed6987ade3bcf", "is_disabled": 0, "type": "electric_scooter", "lat": 38.893016, "lon": -77.021781, "is_reserved": 0, "fusion_lon": 0.0}, {"rental_uris": {"ios": "https://dc.lft.to/lastmile_qr_scan", "android": "https://dc.lft.to/lastmile_qr_scan"}, "fusion_lat": 0.0, "name": "8a5c8f6c4baf4b175c734defa2625d5a", "bike_id": "8a5c8f6c4baf4b175c734defa2625d5a", "is_disabled": 0, "type": "electric_bike", "lat": 38.846306166666665, "lon": -76.98179133333333, "is_reserved": 0, "fusion_lon": 0.0}, {"rental_uris": {"ios": "https://dc.lft.to/lastmile_qr_scan", "android": "https://dc.lft.to/lastmile_qr_scan"}, "fusion_lat": 0.0, "name": "afaf49228a47321692ecf6bb5b1ab2e1", "bike_id": "afaf49228a47321692ecf6bb5b1ab2e1", "is_disabled": 0, "type": "electric_scooter", "lat": 38.92208866666667, "lon": -77.02092333333333, "is_reserved": 0, "fusion_lon": 0.0}, {"rental_uris": {"ios": "https://dc.lft.to/lastmile_qr_scan", "android": "https://dc.lft.to/lastmile_qr_scan"}, "fusion_lat": 0.0, "name": "0173404fb6272aa672f26618f6817092", "bike_id": "0173404fb6272aa672f26618f6817092", "is_disabled": 0, "type": "electric_scooter", "lat": 38.925755833333334, "lon": -77.05752733333334, "is_reserved": 0, "fusion_lon": 0.0}, {"rental_uris": {"ios": "https://dc.lft.to/lastmile_qr_scan", "android": "https://dc.lft.to/lastmile_qr_scan"}, "fusion_lat": 0.0, "name": "47b97abfda51181e3732e6e60d969069", "bike_id": "47b97abfda51181e3732e6e60d969069", "is_disabled": 0, "type": "electric_scooter", "lat": 38.90280383333333, "lon": -77.04607033333333, "is_reserved": 0, "fusion_lon": 0.0}, {"rental_uris": {"ios": "https://dc.lft.to/lastmile_qr_scan", "android": "https://dc.lft.to/lastmile_qr_scan"}, "fusion_lat": 0.0, "name": "49690d755c177bd13326620107f4b3f5", "bike_id": "49690d755c177bd13326620107f4b3f5", "is_disabled": 0, "type": "electric_scooter", "lat": 38.905019833333334, "lon": -77.03480466666667, "is_reserved": 0, "fusion_lon": 0.0}, {"rental_uris": {"ios": "https://dc.lft.to/lastmile_qr_scan", "android": "https://dc.lft.to/lastmile_qr_scan"}, "fusion_lat": 0.0, "name": "57e28a1fa2b22570c88be84c7aca50d0", "bike_id": "57e28a1fa2b22570c88be84c7aca50d0", "is_disabled": 0, "type": "electric_scooter", "lat": 38.89223483333333, "lon": -77.022209, "is_reserved": 0, "fusion_lon": 0.0}, {"rental_uris": {"ios": "https://dc.lft.to/lastmile_qr_scan", "android": "https://dc.lft.to/lastmile_qr_scan"}, "fusion_lat": 0.0, "name": "ebf7628a5577f60585119d441216770a", "bike_id": "ebf7628a5577f60585119d441216770a", "is_disabled": 0, "type": "electric_scooter", "lat": 38.9200165, "lon": -77.03221933333333, "is_reserved": 0, "fusion_lon": 0.0}, {"rental_uris": {"ios": "https://dc.lft.to/lastmile_qr_scan", "android": "https://dc.lft.to/lastmile_qr_scan"}, "fusion_lat": 0.0, "name": "6d30bc2888be92334ba72f552fb45e9b", "bike_id": "6d30bc2888be92334ba72f552fb45e9b", "is_disabled": 0, "type": "electric_scooter", "lat": 38.92474766666667, "lon": -77.02271316666666, "is_reserved": 0, "fusion_lon": 0.0}, {"rental_uris": {"ios": "https://dc.lft.to/lastmile_qr_scan", "android": "https://dc.lft.to/lastmile_qr_scan"}, "fusion_lat": 0.0, "name": "8b7b3973b1d53f52df648b68f38da57f", "bike_id": "8b7b3973b1d53f52df648b68f38da57f", "is_disabled": 0, "type": "electric_scooter", "lat": 38.882782, "lon": -76.9901295, "is_reserved": 0, "fusion_lon": 0.0}, {"rental_uris": {"ios": "https://dc.lft.to/lastmile_qr_scan", "android": "https://dc.lft.to/lastmile_qr_scan"}, "fusion_lat": 0.0, "name": "0774300c2601519356fd006440237952", "bike_id": "0774300c2601519356fd006440237952", "is_disabled": 0, "type": "electric_scooter", "lat": 38.914214666666666, "lon": -77.02116883333333, "is_reserved": 0, "fusion_lon": 0.0}, {"rental_uris": {"ios": "https://dc.lft.to/lastmile_qr_scan", "android": "https://dc.lft.to/lastmile_qr_scan"}, "fusion_lat": 0.0, "name": "818c12ee4fcb4027fc9c6088b7f656f2", "bike_id": "818c12ee4fcb4027fc9c6088b7f656f2", "is_disabled": 0, "type": "electric_scooter", "lat": 38.90686383333333, "lon": -77.02719616666667, "is_reserved": 0, "fusion_lon": 0.0}, {"rental_uris": {"ios": "https://dc.lft.to/lastmile_qr_scan", "android": "https://dc.lft.to/lastmile_qr_scan"}, "fusion_lat": 0.0, "name": "31cd303993f6bc9fbd4caf797e4d57a4", "bike_id": "31cd303993f6bc9fbd4caf797e4d57a4", "is_disabled": 0, "type": "electric_bike", "lat": 38.8450675, "lon": -76.9935245, "is_reserved": 0, "fusion_lon": 0.0}, {"rental_uris": {"ios": "https://dc.lft.to/lastmile_qr_scan", "android": "https://dc.lft.to/lastmile_qr_scan"}, "fusion_lat": 0.0, "name": "40256075928d6bbe4b069837a87f4e14", "bike_id": "40256075928d6bbe4b069837a87f4e14", "is_disabled": 0, "type": "electric_scooter", "lat": 38.93604033333333, "lon": -77.03755066666666, "is_reserved": 0, "fusion_lon": 0.0}, {"rental_uris": {"ios": "https://dc.lft.to/lastmile_qr_scan", "android": "https://dc.lft.to/lastmile_qr_scan"}, "fusion_lat": 0.0, "name": "823cf201c52dd062401750debf8da6fc", "bike_id": "823cf201c52dd062401750debf8da6fc", "is_disabled": 0, "type": "electric_scooter", "lat": 38.925479, "lon": -77.05270966666667, "is_reserved": 0, "fusion_lon": 0.0}, {"rental_uris": {"ios": "https://dc.lft.to/lastmile_qr_scan", "android": "https://dc.lft.to/lastmile_qr_scan"}, "fusion_lat": 0.0, "name": "519f60e33100ad29077904dad41d7156", "bike_id": "519f60e33100ad29077904dad41d7156", "is_disabled": 0, "type": "electric_scooter", "lat": 38.9067205, "lon": -77.027148, "is_reserved": 0, "fusion_lon": 0.0}, {"rental_uris": {"ios": "https://dc.lft.to/lastmile_qr_scan", "android": "https://dc.lft.to/lastmile_qr_scan"}, "fusion_lat": 0.0, "name": "5d1f80924bb45856ec3b80a4d1ddaa47", "bike_id": "5d1f80924bb45856ec3b80a4d1ddaa47", "is_disabled": 0, "type": "electric_bike", "lat": 38.95636783333333, "lon": -77.036512, "is_reserved": 0, "fusion_lon": 0.0}, {"rental_uris": {"ios": "https://dc.lft.to/lastmile_qr_scan", "android": "https://dc.lft.to/lastmile_qr_scan"}, "fusion_lat": 0.0, "name": "acf497c1dbd04908c626dcfc563ae7de", "bike_id": "acf497c1dbd04908c626dcfc563ae7de", "is_disabled": 0, "type": "electric_scooter", "lat": 38.86256983333333, "lon": -76.99516083333333, "is_reserved": 0, "fusion_lon": 0.0}, {"rental_uris": {"ios": "https://dc.lft.to/lastmile_qr_scan", "android": "https://dc.lft.to/lastmile_qr_scan"}, "fusion_lat": 0.0, "name": "60339c3c45bb9e8e7cd2c7686d9db360", "bike_id": "60339c3c45bb9e8e7cd2c7686d9db360", "is_disabled": 0, "type": "electric_scooter", "lat": 38.9037225, "lon": -77.050439, "is_reserved": 0, "fusion_lon": 0.0}, {"rental_uris": {"ios": "https://dc.lft.to/lastmile_qr_scan", "android": "https://dc.lft.to/lastmile_qr_scan"}, "fusion_lat": 0.0, "name": "f606de852b5a5697b97aca460820b215", "bike_id": "f606de852b5a5697b97aca460820b215", "is_disabled": 0, "type": "electric_scooter", "lat": 38.8922925, "lon": -77.031585, "is_reserved": 0, "fusion_lon": 0.0}, {"rental_uris": {"ios": "https://dc.lft.to/lastmile_qr_scan", "android": "https://dc.lft.to/lastmile_qr_scan"}, "fusion_lat": 0.0, "name": "be8585b123f46300ba93f1b149866946", "bike_id": "be8585b123f46300ba93f1b149866946", "is_disabled": 0, "type": "electric_scooter", "lat": 38.9055465, "lon": -77.04561833333334, "is_reserved": 0, "fusion_lon": 0.0}, {"rental_uris": {"ios": "https://dc.lft.to/lastmile_qr_scan", "android": "https://dc.lft.to/lastmile_qr_scan"}, "fusion_lat": 0.0, "name": "b58351eb449cdb024383b81e20c3ecb2", "bike_id": "b58351eb449cdb024383b81e20c3ecb2", "is_disabled": 0, "type": "electric_scooter", "lat": 38.905724666666664, "lon": -77.0375835, "is_reserved": 0, "fusion_lon": 0.0}, {"rental_uris": {"ios": "https://dc.lft.to/lastmile_qr_scan", "android": "https://dc.lft.to/lastmile_qr_scan"}, "fusion_lat": 0.0, "name": "e14eb267ac8cc998d829f3951b9258b6", "bike_id": "e14eb267ac8cc998d829f3951b9258b6", "is_disabled": 0, "type": "electric_scooter", "lat": 38.903365666666666, "lon": -77.03861833333333, "is_reserved": 0, "fusion_lon": 0.0}, {"rental_uris": {"ios": "https://dc.lft.to/lastmile_qr_scan", "android": "https://dc.lft.to/lastmile_qr_scan"}, "fusion_lat": 0.0, "name": "3965cb7f449273c2663dbfed68376371", "bike_id": "3965cb7f449273c2663dbfed68376371", "is_disabled": 0, "type": "electric_scooter", "lat": 38.91064016666667, "lon": -77.06195233333334, "is_reserved": 0, "fusion_lon": 0.0}, {"rental_uris": {"ios": "https://dc.lft.to/lastmile_qr_scan", "android": "https://dc.lft.to/lastmile_qr_scan"}, "fusion_lat": 0.0, "name": "ea9e6850c72749fbc974ed768efb44c1", "bike_id": "ea9e6850c72749fbc974ed768efb44c1", "is_disabled": 0, "type": "electric_scooter", "lat": 38.86724533333334, "lon": -76.98655383333333, "is_reserved": 0, "fusion_lon": 0.0}, {"rental_uris": {"ios": "https://dc.lft.to/lastmile_qr_scan", "android": "https://dc.lft.to/lastmile_qr_scan"}, "fusion_lat": 0.0, "name": "d7c96201f504bd767ab076321b09418a", "bike_id": "d7c96201f504bd767ab076321b09418a", "is_disabled": 0, "type": "electric_scooter", "lat": 38.900184333333335, "lon": -77.03151716666666, "is_reserved": 0, "fusion_lon": 0.0}, {"rental_uris": {"ios": "https://dc.lft.to/lastmile_qr_scan", "android": "https://dc.lft.to/lastmile_qr_scan"}, "fusion_lat": 0.0, "name": "4575340cedfa2021744f775038cc86ff", "bike_id": "4575340cedfa2021744f775038cc86ff", "is_disabled": 0, "type": "electric_scooter", "lat": 38.917085666666665, "lon": -77.04121733333334, "is_reserved": 0, "fusion_lon": 0.0}, {"rental_uris": {"ios": "https://dc.lft.to/lastmile_qr_scan", "android": "https://dc.lft.to/lastmile_qr_scan"}, "fusion_lat": 0.0, "name": "9f1200363375f78e93481297654c92ca", "bike_id": "9f1200363375f78e93481297654c92ca", "is_disabled": 0, "type": "electric_scooter", "lat": 38.89233766666667, "lon": -77.03181583333334, "is_reserved": 0, "fusion_lon": 0.0}, {"rental_uris": {"ios": "https://dc.lft.to/lastmile_qr_scan", "android": "https://dc.lft.to/lastmile_qr_scan"}, "fusion_lat": 0.0, "name": "e2c619146e04487b3b79b9f9cf74e8a4", "bike_id": "e2c619146e04487b3b79b9f9cf74e8a4", "is_disabled": 0, "type": "electric_scooter", "lat": 38.86244633333333, "lon": -76.99494783333333, "is_reserved": 0, "fusion_lon": 0.0}, {"rental_uris": {"ios": "https://dc.lft.to/lastmile_qr_scan", "android": "https://dc.lft.to/lastmile_qr_scan"}, "fusion_lat": 0.0, "name": "e3e80155b867763baf91dcc32b7ce6a0", "bike_id": "e3e80155b867763baf91dcc32b7ce6a0", "is_disabled": 0, "type": "electric_scooter", "lat": 38.923647333333335, "lon": -77.05128, "is_reserved": 0, "fusion_lon": 0.0}, {"rental_uris": {"ios": "https://dc.lft.to/lastmile_qr_scan", "android": "https://dc.lft.to/lastmile_qr_scan"}, "fusion_lat": 0.0, "name": "db722283694c4d948a24b57ce16418ef", "bike_id": "db722283694c4d948a24b57ce16418ef", "is_disabled": 0, "type": "electric_scooter", "lat": 38.905332, "lon": -77.06095883333333, "is_reserved": 0, "fusion_lon": 0.0}, {"rental_uris": {"ios": "https://dc.lft.to/lastmile_qr_scan", "android": "https://dc.lft.to/lastmile_qr_scan"}, "fusion_lat": 0.0, "name": "f108be95d986415ee25777c463600a4c", "bike_id": "f108be95d986415ee25777c463600a4c", "is_disabled": 0, "type": "electric_scooter", "lat": 38.917691166666664, "lon": -77.02709383333334, "is_reserved": 0, "fusion_lon": 0.0}, {"rental_uris": {"ios": "https://dc.lft.to/lastmile_qr_scan", "android": "https://dc.lft.to/lastmile_qr_scan"}, "fusion_lat": 0.0, "name": "07877975667f603c07c838bc47ecdbdf", "bike_id": "07877975667f603c07c838bc47ecdbdf", "is_disabled": 0, "type": "electric_bike", "lat": 38.862143, "lon": -76.9977725, "is_reserved": 0, "fusion_lon": 0.0}, {"rental_uris": {"ios": "https://dc.lft.to/lastmile_qr_scan", "android": "https://dc.lft.to/lastmile_qr_scan"}, "fusion_lat": 0.0, "name": "36ac8b86c330a0a9016d74515087f052", "bike_id": "36ac8b86c330a0a9016d74515087f052", "is_disabled": 0, "type": "electric_scooter", "lat": 38.8988325, "lon": -76.93176383333333, "is_reserved": 0, "fusion_lon": 0.0}, {"rental_uris": {"ios": "https://dc.lft.to/lastmile_qr_scan", "android": "https://dc.lft.to/lastmile_qr_scan"}, "fusion_lat": 0.0, "name": "1049a6f6fb06ef453f5d7a37c5fe382f", "bike_id": "1049a6f6fb06ef453f5d7a37c5fe382f", "is_disabled": 0, "type": "electric_bike", "lat": 38.91351916666667, "lon": -77.03864066666667, "is_reserved": 0, "fusion_lon": 0.0}, {"rental_uris": {"ios": "https://dc.lft.to/lastmile_qr_scan", "android": "https://dc.lft.to/lastmile_qr_scan"}, "fusion_lat": 0.0, "name": "449b16734969b49c8d0aeee064dafb2e", "bike_id": "449b16734969b49c8d0aeee064dafb2e", "is_disabled": 0, "type": "electric_scooter", "lat": 38.928580833333335, "lon": -77.03098166666666, "is_reserved": 0, "fusion_lon": 0.0}, {"rental_uris": {"ios": "https://dc.lft.to/lastmile_qr_scan", "android": "https://dc.lft.to/lastmile_qr_scan"}, "fusion_lat": 0.0, "name": "27e3b72df7a52b0026a665a429b26714", "bike_id": "27e3b72df7a52b0026a665a429b26714", "is_disabled": 0, "type": "electric_scooter", "lat": 38.91881016666667, "lon": -77.03544616666667, "is_reserved": 0, "fusion_lon": 0.0}, {"rental_uris": {"ios": "https://dc.lft.to/lastmile_qr_scan", "android": "https://dc.lft.to/lastmile_qr_scan"}, "fusion_lat": 0.0, "name": "7d42d53bc338da8e413a1f30aab735f5", "bike_id": "7d42d53bc338da8e413a1f30aab735f5", "is_disabled": 0, "type": "electric_scooter", "lat": 38.928164, "lon": -77.028713, "is_reserved": 0, "fusion_lon": 0.0}, {"rental_uris": {"ios": "https://dc.lft.to/lastmile_qr_scan", "android": "https://dc.lft.to/lastmile_qr_scan"}, "fusion_lat": 0.0, "name": "4b9a70ad235de2c420cafe6c6d5d7ba9", "bike_id": "4b9a70ad235de2c420cafe6c6d5d7ba9", "is_disabled": 0, "type": "electric_scooter", "lat": 38.90758833333334, "lon": -77.00099366666667, "is_reserved": 0, "fusion_lon": 0.0}, {"rental_uris": {"ios": "https://dc.lft.to/lastmile_qr_scan", "android": "https://dc.lft.to/lastmile_qr_scan"}, "fusion_lat": 0.0, "name": "57c00279b32a5e3439a0c706549a27c0", "bike_id": "57c00279b32a5e3439a0c706549a27c0", "is_disabled": 0, "type": "electric_bike", "lat": 38.870952833333334, "lon": -77.01205383333334, "is_reserved": 0, "fusion_lon": 0.0}, {"rental_uris": {"ios": "https://dc.lft.to/lastmile_qr_scan", "android": "https://dc.lft.to/lastmile_qr_scan"}, "fusion_lat": 0.0, "name": "3313ff86b85958acf49a0190f5f31339", "bike_id": "3313ff86b85958acf49a0190f5f31339", "is_disabled": 0, "type": "electric_scooter", "lat": 38.916023333333335, "lon": -77.031994, "is_reserved": 0, "fusion_lon": 0.0}, {"rental_uris": {"ios": "https://dc.lft.to/lastmile_qr_scan", "android": "https://dc.lft.to/lastmile_qr_scan"}, "fusion_lat": 0.0, "name": "949fac2210b5087d43ba8d5713746eb9", "bike_id": "949fac2210b5087d43ba8d5713746eb9", "is_disabled": 0, "type": "electric_scooter", "lat": 38.86654133333333, "lon": -76.98518866666667, "is_reserved": 0, "fusion_lon": 0.0}, {"rental_uris": {"ios": "https://dc.lft.to/lastmile_qr_scan", "android": "https://dc.lft.to/lastmile_qr_scan"}, "fusion_lat": 0.0, "name": "b64fc964bcbdcd65908e7ef5686c35df", "bike_id": "b64fc964bcbdcd65908e7ef5686c35df", "is_disabled": 0, "type": "electric_scooter", "lat": 38.914224833333336, "lon": -77.03928133333334, "is_reserved": 0, "fusion_lon": 0.0}, {"rental_uris": {"ios": "https://dc.lft.to/lastmile_qr_scan", "android": "https://dc.lft.to/lastmile_qr_scan"}, "fusion_lat": 0.0, "name": "e55a6a983622a6e3cdab7395f9c1ec39", "bike_id": "e55a6a983622a6e3cdab7395f9c1ec39", "is_disabled": 0, "type": "electric_scooter", "lat": 38.949627166666666, "lon": -77.027236, "is_reserved": 0, "fusion_lon": 0.0}, {"rental_uris": {"ios": "https://dc.lft.to/lastmile_qr_scan", "android": "https://dc.lft.to/lastmile_qr_scan"}, "fusion_lat": 0.0, "name": "82b4ef3dbbee364f9b782120587ec3a4", "bike_id": "82b4ef3dbbee364f9b782120587ec3a4", "is_disabled": 0, "type": "electric_scooter", "lat": 38.9174955, "lon": -77.02403133333334, "is_reserved": 0, "fusion_lon": 0.0}, {"rental_uris": {"ios": "https://dc.lft.to/lastmile_qr_scan", "android": "https://dc.lft.to/lastmile_qr_scan"}, "fusion_lat": 0.0, "name": "6d843b4943116a4f388c7787d68c393a", "bike_id": "6d843b4943116a4f388c7787d68c393a", "is_disabled": 0, "type": "electric_scooter", "lat": 38.90644733333333, "lon": -77.00607633333334, "is_reserved": 0, "fusion_lon": 0.0}, {"rental_uris": {"ios": "https://dc.lft.to/lastmile_qr_scan", "android": "https://dc.lft.to/lastmile_qr_scan"}, "fusion_lat": 0.0, "name": "dc438b2cb586f1ba7537c35ae28e71f3", "bike_id": "dc438b2cb586f1ba7537c35ae28e71f3", "is_disabled": 0, "type": "electric_scooter", "lat": 38.91809583333333, "lon": -77.04177016666667, "is_reserved": 0, "fusion_lon": 0.0}, {"rental_uris": {"ios": "https://dc.lft.to/lastmile_qr_scan", "android": "https://dc.lft.to/lastmile_qr_scan"}, "fusion_lat": 0.0, "name": "9ee18d93e1f87cb1ac197d63a08a53b4", "bike_id": "9ee18d93e1f87cb1ac197d63a08a53b4", "is_disabled": 0, "type": "electric_scooter", "lat": 38.91797616666667, "lon": -77.0366025, "is_reserved": 0, "fusion_lon": 0.0}, {"rental_uris": {"ios": "https://dc.lft.to/lastmile_qr_scan", "android": "https://dc.lft.to/lastmile_qr_scan"}, "fusion_lat": 0.0, "name": "ea4ad07224bed6e1cebe48f0497a385e", "bike_id": "ea4ad07224bed6e1cebe48f0497a385e", "is_disabled": 0, "type": "electric_scooter", "lat": 38.894943166666664, "lon": -77.02828366666667, "is_reserved": 0, "fusion_lon": 0.0}, {"rental_uris": {"ios": "https://dc.lft.to/lastmile_qr_scan", "android": "https://dc.lft.to/lastmile_qr_scan"}, "fusion_lat": 0.0, "name": "38ed422baedfe9c171e0db8d55d40f4b", "bike_id": "38ed422baedfe9c171e0db8d55d40f4b", "is_disabled": 0, "type": "electric_bike", "lat": 38.92064366666666, "lon": -76.99773, "is_reserved": 0, "fusion_lon": 0.0}, {"rental_uris": {"ios": "https://dc.lft.to/lastmile_qr_scan", "android": "https://dc.lft.to/lastmile_qr_scan"}, "fusion_lat": 0.0, "name": "eea912b82ed4bd7bfb13f709c783fddd", "bike_id": "eea912b82ed4bd7bfb13f709c783fddd", "is_disabled": 0, "type": "electric_bike", "lat": 38.959568833333336, "lon": -77.10091216666666, "is_reserved": 0, "fusion_lon": 0.0}, {"rental_uris": {"ios": "https://dc.lft.to/lastmile_qr_scan", "android": "https://dc.lft.to/lastmile_qr_scan"}, "fusion_lat": 0.0, "name": "d1cf438a32341cb693aafdddd954da1f", "bike_id": "d1cf438a32341cb693aafdddd954da1f", "is_disabled": 0, "type": "electric_scooter", "lat": 38.913351, "lon": -77.03270466666666, "is_reserved": 0, "fusion_lon": 0.0}, {"rental_uris": {"ios": "https://dc.lft.to/lastmile_qr_scan", "android": "https://dc.lft.to/lastmile_qr_scan"}, "fusion_lat": 0.0, "name": "a7b46b72c8cffe490a353663302c448b", "bike_id": "a7b46b72c8cffe490a353663302c448b", "is_disabled": 0, "type": "electric_scooter", "lat": 38.905811666666665, "lon": -77.005935, "is_reserved": 0, "fusion_lon": 0.0}, {"rental_uris": {"ios": "https://dc.lft.to/lastmile_qr_scan", "android": "https://dc.lft.to/lastmile_qr_scan"}, "fusion_lat": 0.0, "name": "e9b7abe0179dfa1a187cee3ed511d567", "bike_id": "e9b7abe0179dfa1a187cee3ed511d567", "is_disabled": 0, "type": "electric_scooter", "lat": 38.892259333333335, "lon": -77.04682216666667, "is_reserved": 0, "fusion_lon": 0.0}, {"rental_uris": {"ios": "https://dc.lft.to/lastmile_qr_scan", "android": "https://dc.lft.to/lastmile_qr_scan"}, "fusion_lat": 0.0, "name": "b3e7e71796876952506b8b4e36fb79e1", "bike_id": "b3e7e71796876952506b8b4e36fb79e1", "is_disabled": 0, "type": "electric_scooter", "lat": 38.93462383333333, "lon": -77.03868366666667, "is_reserved": 0, "fusion_lon": 0.0}, {"rental_uris": {"ios": "https://dc.lft.to/lastmile_qr_scan", "android": "https://dc.lft.to/lastmile_qr_scan"}, "fusion_lat": 0.0, "name": "e340831afaccf7441589ee6d4a0f5685", "bike_id": "e340831afaccf7441589ee6d4a0f5685", "is_disabled": 0, "type": "electric_scooter", "lat": 38.881188, "lon": -77.0164855, "is_reserved": 0, "fusion_lon": 0.0}, {"rental_uris": {"ios": "https://dc.lft.to/lastmile_qr_scan", "android": "https://dc.lft.to/lastmile_qr_scan"}, "fusion_lat": 0.0, "name": "6660312e256c4a8d61be3c0605b02837", "bike_id": "6660312e256c4a8d61be3c0605b02837", "is_disabled": 0, "type": "electric_scooter", "lat": 38.9097965, "lon": -77.034412, "is_reserved": 0, "fusion_lon": 0.0}, {"rental_uris": {"ios": "https://dc.lft.to/lastmile_qr_scan", "android": "https://dc.lft.to/lastmile_qr_scan"}, "fusion_lat": 0.0, "name": "86b1006bcf1f0e2226459f0513c1e023", "bike_id": "86b1006bcf1f0e2226459f0513c1e023", "is_disabled": 0, "type": "electric_scooter", "lat": 38.90713483333333, "lon": -77.0239195, "is_reserved": 0, "fusion_lon": 0.0}, {"rental_uris": {"ios": "https://dc.lft.to/lastmile_qr_scan", "android": "https://dc.lft.to/lastmile_qr_scan"}, "fusion_lat": 0.0, "name": "a3c1860df01646d9dc593a4ea223f3fe", "bike_id": "a3c1860df01646d9dc593a4ea223f3fe", "is_disabled": 0, "type": "electric_scooter", "lat": 38.94090816666667, "lon": -77.027195, "is_reserved": 0, "fusion_lon": 0.0}, {"rental_uris": {"ios": "https://dc.lft.to/lastmile_qr_scan", "android": "https://dc.lft.to/lastmile_qr_scan"}, "fusion_lat": 0.0, "name": "ad4d2f3d1beb359cc590adf942d76c57", "bike_id": "ad4d2f3d1beb359cc590adf942d76c57", "is_disabled": 0, "type": "electric_scooter", "lat": 38.892228333333335, "lon": -77.02656366666666, "is_reserved": 0, "fusion_lon": 0.0}, {"rental_uris": {"ios": "https://dc.lft.to/lastmile_qr_scan", "android": "https://dc.lft.to/lastmile_qr_scan"}, "fusion_lat": 0.0, "name": "92d966f13b651b3e2607affd09cf82a6", "bike_id": "92d966f13b651b3e2607affd09cf82a6", "is_disabled": 0, "type": "electric_scooter", "lat": 38.934581333333334, "lon": -77.07277683333334, "is_reserved": 0, "fusion_lon": 0.0}, {"rental_uris": {"ios": "https://dc.lft.to/lastmile_qr_scan", "android": "https://dc.lft.to/lastmile_qr_scan"}, "fusion_lat": 0.0, "name": "0f12ee931b985f07b045b5d620843a6e", "bike_id": "0f12ee931b985f07b045b5d620843a6e", "is_disabled": 0, "type": "electric_bike", "lat": 38.838649833333335, "lon": -76.99694516666666, "is_reserved": 0, "fusion_lon": 0.0}, {"rental_uris": {"ios": "https://dc.lft.to/lastmile_qr_scan", "android": "https://dc.lft.to/lastmile_qr_scan"}, "fusion_lat": 0.0, "name": "31eaa749d9a690f9651e3dbb36bb5a04", "bike_id": "31eaa749d9a690f9651e3dbb36bb5a04", "is_disabled": 0, "type": "electric_scooter", "lat": 38.856765333333335, "lon": -76.98170583333334, "is_reserved": 0, "fusion_lon": 0.0}, {"rental_uris": {"ios": "https://dc.lft.to/lastmile_qr_scan", "android": "https://dc.lft.to/lastmile_qr_scan"}, "fusion_lat": 0.0, "name": "ca3ea75df725b8d7210288a3cd47dead", "bike_id": "ca3ea75df725b8d7210288a3cd47dead", "is_disabled": 0, "type": "electric_scooter", "lat": 38.92935466666667, "lon": -77.03756833333334, "is_reserved": 0, "fusion_lon": 0.0}, {"rental_uris": {"ios": "https://dc.lft.to/lastmile_qr_scan", "android": "https://dc.lft.to/lastmile_qr_scan"}, "fusion_lat": 0.0, "name": "c69d1614add10cc426b7a64af59b7a06", "bike_id": "c69d1614add10cc426b7a64af59b7a06", "is_disabled": 0, "type": "electric_scooter", "lat": 38.920446166666665, "lon": -77.04201933333333, "is_reserved": 0, "fusion_lon": 0.0}, {"rental_uris": {"ios": "https://dc.lft.to/lastmile_qr_scan", "android": "https://dc.lft.to/lastmile_qr_scan"}, "fusion_lat": 0.0, "name": "825bd2a3c067d7f610cfd61ef53a22c9", "bike_id": "825bd2a3c067d7f610cfd61ef53a22c9", "is_disabled": 0, "type": "electric_scooter", "lat": 38.892190666666664, "lon": -77.02222333333333, "is_reserved": 0, "fusion_lon": 0.0}, {"rental_uris": {"ios": "https://dc.lft.to/lastmile_qr_scan", "android": "https://dc.lft.to/lastmile_qr_scan"}, "fusion_lat": 0.0, "name": "2037af99b37759729d9d5bc0a3b2da35", "bike_id": "2037af99b37759729d9d5bc0a3b2da35", "is_disabled": 0, "type": "electric_scooter", "lat": 38.91816633333333, "lon": -77.0271715, "is_reserved": 0, "fusion_lon": 0.0}, {"rental_uris": {"ios": "https://dc.lft.to/lastmile_qr_scan", "android": "https://dc.lft.to/lastmile_qr_scan"}, "fusion_lat": 0.0, "name": "2271433de60e220257bd266eb07ceb44", "bike_id": "2271433de60e220257bd266eb07ceb44", "is_disabled": 0, "type": "electric_scooter", "lat": 38.915723666666665, "lon": -77.0120265, "is_reserved": 0, "fusion_lon": 0.0}, {"rental_uris": {"ios": "https://dc.lft.to/lastmile_qr_scan", "android": "https://dc.lft.to/lastmile_qr_scan"}, "fusion_lat": 0.0, "name": "3c278f384e3e7db21be69109461376a8", "bike_id": "3c278f384e3e7db21be69109461376a8", "is_disabled": 0, "type": "electric_scooter", "lat": 38.90687366666667, "lon": -77.02720066666667, "is_reserved": 0, "fusion_lon": 0.0}, {"rental_uris": {"ios": "https://dc.lft.to/lastmile_qr_scan", "android": "https://dc.lft.to/lastmile_qr_scan"}, "fusion_lat": 0.0, "name": "d54a36b24b04bb9cf0efefe563110dcc", "bike_id": "d54a36b24b04bb9cf0efefe563110dcc", "is_disabled": 0, "type": "electric_scooter", "lat": 38.91749033333333, "lon": -77.02399333333334, "is_reserved": 0, "fusion_lon": 0.0}, {"rental_uris": {"ios": "https://dc.lft.to/lastmile_qr_scan", "android": "https://dc.lft.to/lastmile_qr_scan"}, "fusion_lat": 0.0, "name": "98cf83eb5664797ce7cf5caf9a04ea2c", "bike_id": "98cf83eb5664797ce7cf5caf9a04ea2c", "is_disabled": 0, "type": "electric_scooter", "lat": 38.90135566666667, "lon": -77.04307033333333, "is_reserved": 0, "fusion_lon": 0.0}, {"rental_uris": {"ios": "https://dc.lft.to/lastmile_qr_scan", "android": "https://dc.lft.to/lastmile_qr_scan"}, "fusion_lat": 0.0, "name": "b0f8a2b54179d61dbfbafba23e682ab0", "bike_id": "b0f8a2b54179d61dbfbafba23e682ab0", "is_disabled": 0, "type": "electric_scooter", "lat": 38.91993983333333, "lon": -77.032879, "is_reserved": 0, "fusion_lon": 0.0}, {"rental_uris": {"ios": "https://dc.lft.to/lastmile_qr_scan", "android": "https://dc.lft.to/lastmile_qr_scan"}, "fusion_lat": 0.0, "name": "d1c13c9e3319c6b93923fa9bb4a65b15", "bike_id": "d1c13c9e3319c6b93923fa9bb4a65b15", "is_disabled": 0, "type": "electric_scooter", "lat": 38.921396666666666, "lon": -77.008431, "is_reserved": 0, "fusion_lon": 0.0}, {"rental_uris": {"ios": "https://dc.lft.to/lastmile_qr_scan", "android": "https://dc.lft.to/lastmile_qr_scan"}, "fusion_lat": 0.0, "name": "14d33e5abfb7146e94fa301c632988fa", "bike_id": "14d33e5abfb7146e94fa301c632988fa", "is_disabled": 0, "type": "electric_scooter", "lat": 38.92137533333333, "lon": -77.0191505, "is_reserved": 0, "fusion_lon": 0.0}, {"rental_uris": {"ios": "https://dc.lft.to/lastmile_qr_scan", "android": "https://dc.lft.to/lastmile_qr_scan"}, "fusion_lat": 0.0, "name": "3a32110a128cfed96c006fff492f1498", "bike_id": "3a32110a128cfed96c006fff492f1498", "is_disabled": 0, "type": "electric_scooter", "lat": 38.8962925, "lon": -77.05020566666667, "is_reserved": 0, "fusion_lon": 0.0}, {"rental_uris": {"ios": "https://dc.lft.to/lastmile_qr_scan", "android": "https://dc.lft.to/lastmile_qr_scan"}, "fusion_lat": 0.0, "name": "297ac8f7a04ae5d839e967b3e72073bf", "bike_id": "297ac8f7a04ae5d839e967b3e72073bf", "is_disabled": 0, "type": "electric_scooter", "lat": 38.89501583333333, "lon": -76.9487585, "is_reserved": 0, "fusion_lon": 0.0}, {"rental_uris": {"ios": "https://dc.lft.to/lastmile_qr_scan", "android": "https://dc.lft.to/lastmile_qr_scan"}, "fusion_lat": 0.0, "name": "bfc8b64a6215a0d9e457408e7fcced8d", "bike_id": "bfc8b64a6215a0d9e457408e7fcced8d", "is_disabled": 0, "type": "electric_scooter", "lat": 38.947037, "lon": -77.0216435, "is_reserved": 0, "fusion_lon": 0.0}, {"rental_uris": {"ios": "https://dc.lft.to/lastmile_qr_scan", "android": "https://dc.lft.to/lastmile_qr_scan"}, "fusion_lat": 0.0, "name": "f9e8d233d893d47aeffcf4306c2f3156", "bike_id": "f9e8d233d893d47aeffcf4306c2f3156", "is_disabled": 0, "type": "electric_scooter", "lat": 38.924879833333335, "lon": -77.03181916666666, "is_reserved": 0, "fusion_lon": 0.0}, {"rental_uris": {"ios": "https://dc.lft.to/lastmile_qr_scan", "android": "https://dc.lft.to/lastmile_qr_scan"}, "fusion_lat": 0.0, "name": "e5a78922133d23775cdd71ce8f85e25e", "bike_id": "e5a78922133d23775cdd71ce8f85e25e", "is_disabled": 0, "type": "electric_scooter", "lat": 38.89735833333334, "lon": -77.02764616666667, "is_reserved": 0, "fusion_lon": 0.0}, {"rental_uris": {"ios": "https://dc.lft.to/lastmile_qr_scan", "android": "https://dc.lft.to/lastmile_qr_scan"}, "fusion_lat": 0.0, "name": "d2dcf21699fceefd0011bfe032493e30", "bike_id": "d2dcf21699fceefd0011bfe032493e30", "is_disabled": 0, "type": "electric_scooter", "lat": 38.913136333333334, "lon": -77.03199433333333, "is_reserved": 0, "fusion_lon": 0.0}, {"rental_uris": {"ios": "https://dc.lft.to/lastmile_qr_scan", "android": "https://dc.lft.to/lastmile_qr_scan"}, "fusion_lat": 0.0, "name": "028956fd22bb66f63fa25af28eb8182b", "bike_id": "028956fd22bb66f63fa25af28eb8182b", "is_disabled": 0, "type": "electric_bike", "lat": 38.80576933333333, "lon": -77.06860083333333, "is_reserved": 0, "fusion_lon": 0.0}, {"rental_uris": {"ios": "https://dc.lft.to/lastmile_qr_scan", "android": "https://dc.lft.to/lastmile_qr_scan"}, "fusion_lat": 0.0, "name": "bc6ffba571a0c1a9401e1dfc8b221f5c", "bike_id": "bc6ffba571a0c1a9401e1dfc8b221f5c", "is_disabled": 0, "type": "electric_bike", "lat": 38.96319733333333, "lon": -77.033225, "is_reserved": 0, "fusion_lon": 0.0}, {"rental_uris": {"ios": "https://dc.lft.to/lastmile_qr_scan", "android": "https://dc.lft.to/lastmile_qr_scan"}, "fusion_lat": 0.0, "name": "b115f21d1f6152ad17340f65695b56f5", "bike_id": "b115f21d1f6152ad17340f65695b56f5", "is_disabled": 0, "type": "electric_bike", "lat": 38.9850225, "lon": -76.98197733333333, "is_reserved": 0, "fusion_lon": 0.0}, {"rental_uris": {"ios": "https://dc.lft.to/lastmile_qr_scan", "android": "https://dc.lft.to/lastmile_qr_scan"}, "fusion_lat": 0.0, "name": "707179f22ad4a5d72a678796fdd37a0f", "bike_id": "707179f22ad4a5d72a678796fdd37a0f", "is_disabled": 0, "type": "electric_scooter", "lat": 38.959346333333336, "lon": -77.03129583333333, "is_reserved": 0, "fusion_lon": 0.0}, {"rental_uris": {"ios": "https://dc.lft.to/lastmile_qr_scan", "android": "https://dc.lft.to/lastmile_qr_scan"}, "fusion_lat": 0.0, "name": "c25d68471f9852580286364e71a0fcfb", "bike_id": "c25d68471f9852580286364e71a0fcfb", "is_disabled": 0, "type": "electric_scooter", "lat": 38.8971125, "lon": -77.0267385, "is_reserved": 0, "fusion_lon": 0.0}, {"rental_uris": {"ios": "https://dc.lft.to/lastmile_qr_scan", "android": "https://dc.lft.to/lastmile_qr_scan"}, "fusion_lat": 0.0, "name": "77579e17518a486eac8907b9f300fe6c", "bike_id": "77579e17518a486eac8907b9f300fe6c", "is_disabled": 0, "type": "electric_scooter", "lat": 38.89962516666667, "lon": -77.01615433333333, "is_reserved": 0, "fusion_lon": 0.0}, {"rental_uris": {"ios": "https://dc.lft.to/lastmile_qr_scan", "android": "https://dc.lft.to/lastmile_qr_scan"}, "fusion_lat": 0.0, "name": "3a3adad04e4dd5169e27849a263972a1", "bike_id": "3a3adad04e4dd5169e27849a263972a1", "is_disabled": 0, "type": "electric_scooter", "lat": 38.917090333333334, "lon": -77.0257555, "is_reserved": 0, "fusion_lon": 0.0}, {"rental_uris": {"ios": "https://dc.lft.to/lastmile_qr_scan", "android": "https://dc.lft.to/lastmile_qr_scan"}, "fusion_lat": 0.0, "name": "0265ef25a15aceabc01f305dc19fc695", "bike_id": "0265ef25a15aceabc01f305dc19fc695", "is_disabled": 0, "type": "electric_bike", "lat": 38.9827465, "lon": -77.01771833333333, "is_reserved": 0, "fusion_lon": 0.0}, {"rental_uris": {"ios": "https://dc.lft.to/lastmile_qr_scan", "android": "https://dc.lft.to/lastmile_qr_scan"}, "fusion_lat": 0.0, "name": "31ee398bb7385dc8bd7f92467ca0eea2", "bike_id": "31ee398bb7385dc8bd7f92467ca0eea2", "is_disabled": 0, "type": "electric_scooter", "lat": 38.8945405, "lon": -76.9780615, "is_reserved": 0, "fusion_lon": 0.0}, {"rental_uris": {"ios": "https://dc.lft.to/lastmile_qr_scan", "android": "https://dc.lft.to/lastmile_qr_scan"}, "fusion_lat": 0.0, "name": "737f87072bbde6e19b4631c1a89f5a9a", "bike_id": "737f87072bbde6e19b4631c1a89f5a9a", "is_disabled": 0, "type": "electric_scooter", "lat": 38.90291666666667, "lon": -77.03364016666667, "is_reserved": 0, "fusion_lon": 0.0}, {"rental_uris": {"ios": "https://dc.lft.to/lastmile_qr_scan", "android": "https://dc.lft.to/lastmile_qr_scan"}, "fusion_lat": 0.0, "name": "f5e2ac2c85cb7cf3c7fde3e59561d59f", "bike_id": "f5e2ac2c85cb7cf3c7fde3e59561d59f", "is_disabled": 0, "type": "electric_bike", "lat": 38.90561916666667, "lon": -76.997926, "is_reserved": 0, "fusion_lon": 0.0}, {"rental_uris": {"ios": "https://dc.lft.to/lastmile_qr_scan", "android": "https://dc.lft.to/lastmile_qr_scan"}, "fusion_lat": 0.0, "name": "afdac61fb9a43bc39ce380cc29d22e3e", "bike_id": "afdac61fb9a43bc39ce380cc29d22e3e", "is_disabled": 0, "type": "electric_scooter", "lat": 38.8930305, "lon": -77.021811, "is_reserved": 0, "fusion_lon": 0.0}, {"rental_uris": {"ios": "https://dc.lft.to/lastmile_qr_scan", "android": "https://dc.lft.to/lastmile_qr_scan"}, "fusion_lat": 0.0, "name": "becc4f9109d02652c6b82c12792217d7", "bike_id": "becc4f9109d02652c6b82c12792217d7", "is_disabled": 0, "type": "electric_bike", "lat": 38.9588045, "lon": -77.01034783333333, "is_reserved": 0, "fusion_lon": 0.0}, {"rental_uris": {"ios": "https://dc.lft.to/lastmile_qr_scan", "android": "https://dc.lft.to/lastmile_qr_scan"}, "fusion_lat": 0.0, "name": "0616abaa02211ec9124fa0bb5df62afd", "bike_id": "0616abaa02211ec9124fa0bb5df62afd", "is_disabled": 0, "type": "electric_scooter", "lat": 38.89231516666667, "lon": -77.05000833333334, "is_reserved": 0, "fusion_lon": 0.0}, {"rental_uris": {"ios": "https://dc.lft.to/lastmile_qr_scan", "android": "https://dc.lft.to/lastmile_qr_scan"}, "fusion_lat": 0.0, "name": "2d2cb71c7136dac1725bd62b44a1a1fa", "bike_id": "2d2cb71c7136dac1725bd62b44a1a1fa", "is_disabled": 0, "type": "electric_scooter", "lat": 38.924123333333334, "lon": -77.02128033333334, "is_reserved": 0, "fusion_lon": 0.0}, {"rental_uris": {"ios": "https://dc.lft.to/lastmile_qr_scan", "android": "https://dc.lft.to/lastmile_qr_scan"}, "fusion_lat": 0.0, "name": "5e3febf29dad6f91d6bb23f7c075e022", "bike_id": "5e3febf29dad6f91d6bb23f7c075e022", "is_disabled": 0, "type": "electric_scooter", "lat": 38.908703833333334, "lon": -77.04617033333334, "is_reserved": 0, "fusion_lon": 0.0}, {"rental_uris": {"ios": "https://dc.lft.to/lastmile_qr_scan", "android": "https://dc.lft.to/lastmile_qr_scan"}, "fusion_lat": 0.0, "name": "0afe5d3de6e8c9dc62f8d91959c630df", "bike_id": "0afe5d3de6e8c9dc62f8d91959c630df", "is_disabled": 0, "type": "electric_scooter", "lat": 38.902667, "lon": -77.02147933333333, "is_reserved": 0, "fusion_lon": 0.0}, {"rental_uris": {"ios": "https://dc.lft.to/lastmile_qr_scan", "android": "https://dc.lft.to/lastmile_qr_scan"}, "fusion_lat": 0.0, "name": "6fa0072f4daa2b182a630bca0b05a94d", "bike_id": "6fa0072f4daa2b182a630bca0b05a94d", "is_disabled": 0, "type": "electric_scooter", "lat": 38.914312833333334, "lon": -77.02816633333333, "is_reserved": 0, "fusion_lon": 0.0}, {"rental_uris": {"ios": "https://dc.lft.to/lastmile_qr_scan", "android": "https://dc.lft.to/lastmile_qr_scan"}, "fusion_lat": 0.0, "name": "ed617280bd9708f99e03e5285d78167c", "bike_id": "ed617280bd9708f99e03e5285d78167c", "is_disabled": 0, "type": "electric_scooter", "lat": 38.866953, "lon": -76.98085016666667, "is_reserved": 0, "fusion_lon": 0.0}, {"rental_uris": {"ios": "https://dc.lft.to/lastmile_qr_scan", "android": "https://dc.lft.to/lastmile_qr_scan"}, "fusion_lat": 0.0, "name": "f519925bd29d15edc08a0aa4c7afaec1", "bike_id": "f519925bd29d15edc08a0aa4c7afaec1", "is_disabled": 0, "type": "electric_scooter", "lat": 38.870823, "lon": -76.9686505, "is_reserved": 0, "fusion_lon": 0.0}, {"rental_uris": {"ios": "https://dc.lft.to/lastmile_qr_scan", "android": "https://dc.lft.to/lastmile_qr_scan"}, "fusion_lat": 0.0, "name": "13b1a4f7ba3bfb19d3394ee9a7006bcb", "bike_id": "13b1a4f7ba3bfb19d3394ee9a7006bcb", "is_disabled": 0, "type": "electric_scooter", "lat": 38.88121133333333, "lon": -77.01660633333333, "is_reserved": 0, "fusion_lon": 0.0}, {"rental_uris": {"ios": "https://dc.lft.to/lastmile_qr_scan", "android": "https://dc.lft.to/lastmile_qr_scan"}, "fusion_lat": 0.0, "name": "81671686e6d22c711012dca970fbf7a3", "bike_id": "81671686e6d22c711012dca970fbf7a3", "is_disabled": 0, "type": "electric_scooter", "lat": 38.90790583333333, "lon": -77.00956766666667, "is_reserved": 0, "fusion_lon": 0.0}, {"rental_uris": {"ios": "https://dc.lft.to/lastmile_qr_scan", "android": "https://dc.lft.to/lastmile_qr_scan"}, "fusion_lat": 0.0, "name": "7d1a5c9be8792549b48e404ff6fadd9a", "bike_id": "7d1a5c9be8792549b48e404ff6fadd9a", "is_disabled": 0, "type": "electric_scooter", "lat": 38.863657, "lon": -76.99048333333333, "is_reserved": 0, "fusion_lon": 0.0}, {"rental_uris": {"ios": "https://dc.lft.to/lastmile_qr_scan", "android": "https://dc.lft.to/lastmile_qr_scan"}, "fusion_lat": 0.0, "name": "ec62314144cfdcd7cca748529a9c9d73", "bike_id": "ec62314144cfdcd7cca748529a9c9d73", "is_disabled": 0, "type": "electric_scooter", "lat": 38.9079435, "lon": -77.03433033333333, "is_reserved": 0, "fusion_lon": 0.0}, {"rental_uris": {"ios": "https://dc.lft.to/lastmile_qr_scan", "android": "https://dc.lft.to/lastmile_qr_scan"}, "fusion_lat": 0.0, "name": "3a9eaed3e3c3159d118f02d7c093b591", "bike_id": "3a9eaed3e3c3159d118f02d7c093b591", "is_disabled": 0, "type": "electric_scooter", "lat": 38.916978, "lon": -77.02597366666667, "is_reserved": 0, "fusion_lon": 0.0}, {"rental_uris": {"ios": "https://dc.lft.to/lastmile_qr_scan", "android": "https://dc.lft.to/lastmile_qr_scan"}, "fusion_lat": 0.0, "name": "3e7ca5ebf11eb4c3ce54d3cfb18f90de", "bike_id": "3e7ca5ebf11eb4c3ce54d3cfb18f90de", "is_disabled": 0, "type": "electric_scooter", "lat": 38.862420166666666, "lon": -76.99492333333333, "is_reserved": 0, "fusion_lon": 0.0}, {"rental_uris": {"ios": "https://dc.lft.to/lastmile_qr_scan", "android": "https://dc.lft.to/lastmile_qr_scan"}, "fusion_lat": 0.0, "name": "475758639602791c6c28778e7a254be2", "bike_id": "475758639602791c6c28778e7a254be2", "is_disabled": 0, "type": "electric_scooter", "lat": 38.844320833333335, "lon": -76.997792, "is_reserved": 0, "fusion_lon": 0.0}, {"rental_uris": {"ios": "https://dc.lft.to/lastmile_qr_scan", "android": "https://dc.lft.to/lastmile_qr_scan"}, "fusion_lat": 0.0, "name": "59ef82ee135d01e5af658307b4ba51e0", "bike_id": "59ef82ee135d01e5af658307b4ba51e0", "is_disabled": 0, "type": "electric_scooter", "lat": 38.92061066666667, "lon": -77.03289883333333, "is_reserved": 0, "fusion_lon": 0.0}, {"rental_uris": {"ios": "https://dc.lft.to/lastmile_qr_scan", "android": "https://dc.lft.to/lastmile_qr_scan"}, "fusion_lat": 0.0, "name": "d2d0f55edeef5b68589c14519349ffef", "bike_id": "d2d0f55edeef5b68589c14519349ffef", "is_disabled": 0, "type": "electric_scooter", "lat": 38.9223875, "lon": -77.03516716666667, "is_reserved": 0, "fusion_lon": 0.0}, {"rental_uris": {"ios": "https://dc.lft.to/lastmile_qr_scan", "android": "https://dc.lft.to/lastmile_qr_scan"}, "fusion_lat": 0.0, "name": "63d07dd928d42b5a131fc722be1ca9c9", "bike_id": "63d07dd928d42b5a131fc722be1ca9c9", "is_disabled": 0, "type": "electric_scooter", "lat": 38.91433033333333, "lon": -77.028122, "is_reserved": 0, "fusion_lon": 0.0}, {"rental_uris": {"ios": "https://dc.lft.to/lastmile_qr_scan", "android": "https://dc.lft.to/lastmile_qr_scan"}, "fusion_lat": 0.0, "name": "971082a731fa0b166d218a4ff0e90077", "bike_id": "971082a731fa0b166d218a4ff0e90077", "is_disabled": 0, "type": "electric_scooter", "lat": 38.9358155, "lon": -77.03753916666666, "is_reserved": 0, "fusion_lon": 0.0}, {"rental_uris": {"ios": "https://dc.lft.to/lastmile_qr_scan", "android": "https://dc.lft.to/lastmile_qr_scan"}, "fusion_lat": 0.0, "name": "a07692591e5d349467af1586c3a7e3c2", "bike_id": "a07692591e5d349467af1586c3a7e3c2", "is_disabled": 0, "type": "electric_scooter", "lat": 38.9028175, "lon": -77.03443483333334, "is_reserved": 0, "fusion_lon": 0.0}, {"rental_uris": {"ios": "https://dc.lft.to/lastmile_qr_scan", "android": "https://dc.lft.to/lastmile_qr_scan"}, "fusion_lat": 0.0, "name": "e975640e5ff391eb2e99e3dedda294b9", "bike_id": "e975640e5ff391eb2e99e3dedda294b9", "is_disabled": 0, "type": "electric_scooter", "lat": 38.9254275, "lon": -77.0527005, "is_reserved": 0, "fusion_lon": 0.0}, {"rental_uris": {"ios": "https://dc.lft.to/lastmile_qr_scan", "android": "https://dc.lft.to/lastmile_qr_scan"}, "fusion_lat": 0.0, "name": "a3eb25eff7a7e1a39f9c4e7bb5eddcf2", "bike_id": "a3eb25eff7a7e1a39f9c4e7bb5eddcf2", "is_disabled": 0, "type": "electric_scooter", "lat": 38.90810583333333, "lon": -77.03837966666667, "is_reserved": 0, "fusion_lon": 0.0}, {"rental_uris": {"ios": "https://dc.lft.to/lastmile_qr_scan", "android": "https://dc.lft.to/lastmile_qr_scan"}, "fusion_lat": 0.0, "name": "9c8520cb9ed4496d5270fa7969c553e5", "bike_id": "9c8520cb9ed4496d5270fa7969c553e5", "is_disabled": 0, "type": "electric_scooter", "lat": 38.9148615, "lon": -77.02558966666666, "is_reserved": 0, "fusion_lon": 0.0}, {"rental_uris": {"ios": "https://dc.lft.to/lastmile_qr_scan", "android": "https://dc.lft.to/lastmile_qr_scan"}, "fusion_lat": 0.0, "name": "d7822fdd33fd8f01b0bbb0888de44741", "bike_id": "d7822fdd33fd8f01b0bbb0888de44741", "is_disabled": 0, "type": "electric_scooter", "lat": 38.9080895, "lon": -77.03836566666666, "is_reserved": 0, "fusion_lon": 0.0}, {"rental_uris": {"ios": "https://dc.lft.to/lastmile_qr_scan", "android": "https://dc.lft.to/lastmile_qr_scan"}, "fusion_lat": 0.0, "name": "2639a4df36ecb5ef6d8d062c534fbace", "bike_id": "2639a4df36ecb5ef6d8d062c534fbace", "is_disabled": 0, "type": "electric_scooter", "lat": 38.92082033333333, "lon": -77.0421125, "is_reserved": 0, "fusion_lon": 0.0}, {"rental_uris": {"ios": "https://dc.lft.to/lastmile_qr_scan", "android": "https://dc.lft.to/lastmile_qr_scan"}, "fusion_lat": 0.0, "name": "32227023d1b1396df7923f6b9d294408", "bike_id": "32227023d1b1396df7923f6b9d294408", "is_disabled": 0, "type": "electric_scooter", "lat": 38.90609666666667, "lon": -77.00592733333333, "is_reserved": 0, "fusion_lon": 0.0}, {"rental_uris": {"ios": "https://dc.lft.to/lastmile_qr_scan", "android": "https://dc.lft.to/lastmile_qr_scan"}, "fusion_lat": 0.0, "name": "2d4dd5a0050b8ca4a900af89256f95d6", "bike_id": "2d4dd5a0050b8ca4a900af89256f95d6", "is_disabled": 0, "type": "electric_scooter", "lat": 38.93259033333333, "lon": -76.99526333333333, "is_reserved": 0, "fusion_lon": 0.0}, {"rental_uris": {"ios": "https://dc.lft.to/lastmile_qr_scan", "android": "https://dc.lft.to/lastmile_qr_scan"}, "fusion_lat": 0.0, "name": "93331aeed16c96e5b5ae0159776739b9", "bike_id": "93331aeed16c96e5b5ae0159776739b9", "is_disabled": 0, "type": "electric_scooter", "lat": 38.90238083333333, "lon": -77.06025066666666, "is_reserved": 0, "fusion_lon": 0.0}, {"rental_uris": {"ios": "https://dc.lft.to/lastmile_qr_scan", "android": "https://dc.lft.to/lastmile_qr_scan"}, "fusion_lat": 0.0, "name": "11fae0d64b8ca6cffc9a4e958c552045", "bike_id": "11fae0d64b8ca6cffc9a4e958c552045", "is_disabled": 0, "type": "electric_scooter", "lat": 38.921436166666666, "lon": -77.04363116666667, "is_reserved": 0, "fusion_lon": 0.0}, {"rental_uris": {"ios": "https://dc.lft.to/lastmile_qr_scan", "android": "https://dc.lft.to/lastmile_qr_scan"}, "fusion_lat": 0.0, "name": "1f26e044987b3b3c936f187ce7f12132", "bike_id": "1f26e044987b3b3c936f187ce7f12132", "is_disabled": 0, "type": "electric_scooter", "lat": 38.903786, "lon": -77.031829, "is_reserved": 0, "fusion_lon": 0.0}, {"rental_uris": {"ios": "https://dc.lft.to/lastmile_qr_scan", "android": "https://dc.lft.to/lastmile_qr_scan"}, "fusion_lat": 0.0, "name": "1dfa49d898793fe93fe118c46dee8b59", "bike_id": "1dfa49d898793fe93fe118c46dee8b59", "is_disabled": 0, "type": "electric_scooter", "lat": 38.9097785, "lon": -77.02693033333334, "is_reserved": 0, "fusion_lon": 0.0}, {"rental_uris": {"ios": "https://dc.lft.to/lastmile_qr_scan", "android": "https://dc.lft.to/lastmile_qr_scan"}, "fusion_lat": 0.0, "name": "411ab3fd8752ff2ba191aed3b0761dcb", "bike_id": "411ab3fd8752ff2ba191aed3b0761dcb", "is_disabled": 0, "type": "electric_bike", "lat": 38.870867833333335, "lon": -77.01204966666667, "is_reserved": 0, "fusion_lon": 0.0}, {"rental_uris": {"ios": "https://dc.lft.to/lastmile_qr_scan", "android": "https://dc.lft.to/lastmile_qr_scan"}, "fusion_lat": 0.0, "name": "057c8275c493dabc971406adece2205d", "bike_id": "057c8275c493dabc971406adece2205d", "is_disabled": 0, "type": "electric_scooter", "lat": 38.89234233333333, "lon": -77.03182666666666, "is_reserved": 0, "fusion_lon": 0.0}, {"rental_uris": {"ios": "https://dc.lft.to/lastmile_qr_scan", "android": "https://dc.lft.to/lastmile_qr_scan"}, "fusion_lat": 0.0, "name": "172622f93867942f18d898f657ddec60", "bike_id": "172622f93867942f18d898f657ddec60", "is_disabled": 0, "type": "electric_scooter", "lat": 38.9062405, "lon": -77.02186716666667, "is_reserved": 0, "fusion_lon": 0.0}, {"rental_uris": {"ios": "https://dc.lft.to/lastmile_qr_scan", "android": "https://dc.lft.to/lastmile_qr_scan"}, "fusion_lat": 0.0, "name": "20437dfbef404b8234d960ae1ff7f584", "bike_id": "20437dfbef404b8234d960ae1ff7f584", "is_disabled": 0, "type": "electric_scooter", "lat": 38.905403166666666, "lon": -77.04182266666666, "is_reserved": 0, "fusion_lon": 0.0}, {"rental_uris": {"ios": "https://dc.lft.to/lastmile_qr_scan", "android": "https://dc.lft.to/lastmile_qr_scan"}, "fusion_lat": 0.0, "name": "182c8956ce6ac2ae730b5ba33abf7600", "bike_id": "182c8956ce6ac2ae730b5ba33abf7600", "is_disabled": 0, "type": "electric_scooter", "lat": 38.919546833333335, "lon": -77.0250465, "is_reserved": 0, "fusion_lon": 0.0}, {"rental_uris": {"ios": "https://dc.lft.to/lastmile_qr_scan", "android": "https://dc.lft.to/lastmile_qr_scan"}, "fusion_lat": 0.0, "name": "b40e7512c5d5cd7f5bb0f279165f4092", "bike_id": "b40e7512c5d5cd7f5bb0f279165f4092", "is_disabled": 0, "type": "electric_scooter", "lat": 38.91783133333333, "lon": -77.0363685, "is_reserved": 0, "fusion_lon": 0.0}, {"rental_uris": {"ios": "https://dc.lft.to/lastmile_qr_scan", "android": "https://dc.lft.to/lastmile_qr_scan"}, "fusion_lat": 0.0, "name": "cb86f7f48257be4262a4e2260bc16300", "bike_id": "cb86f7f48257be4262a4e2260bc16300", "is_disabled": 0, "type": "electric_scooter", "lat": 38.90258266666667, "lon": -77.03483683333333, "is_reserved": 0, "fusion_lon": 0.0}, {"rental_uris": {"ios": "https://dc.lft.to/lastmile_qr_scan", "android": "https://dc.lft.to/lastmile_qr_scan"}, "fusion_lat": 0.0, "name": "e1fef9b3ff361c4d792e7fe50f1eeb8a", "bike_id": "e1fef9b3ff361c4d792e7fe50f1eeb8a", "is_disabled": 0, "type": "electric_scooter", "lat": 38.903759666666666, "lon": -77.04512883333334, "is_reserved": 0, "fusion_lon": 0.0}, {"rental_uris": {"ios": "https://dc.lft.to/lastmile_qr_scan", "android": "https://dc.lft.to/lastmile_qr_scan"}, "fusion_lat": 0.0, "name": "68279f1c9c97dcdaebbeded5a1988cb6", "bike_id": "68279f1c9c97dcdaebbeded5a1988cb6", "is_disabled": 0, "type": "electric_scooter", "lat": 38.921069333333335, "lon": -77.04383133333333, "is_reserved": 0, "fusion_lon": 0.0}, {"rental_uris": {"ios": "https://dc.lft.to/lastmile_qr_scan", "android": "https://dc.lft.to/lastmile_qr_scan"}, "fusion_lat": 0.0, "name": "cbac4142e793d6ad9b0c3adb2cdbb2ad", "bike_id": "cbac4142e793d6ad9b0c3adb2cdbb2ad", "is_disabled": 0, "type": "electric_scooter", "lat": 38.88738016666667, "lon": -77.01536666666667, "is_reserved": 0, "fusion_lon": 0.0}, {"rental_uris": {"ios": "https://dc.lft.to/lastmile_qr_scan", "android": "https://dc.lft.to/lastmile_qr_scan"}, "fusion_lat": 0.0, "name": "c211b809e7fdd9207b79680b1062ee90", "bike_id": "c211b809e7fdd9207b79680b1062ee90", "is_disabled": 0, "type": "electric_scooter", "lat": 38.89791666666667, "lon": -77.03178316666667, "is_reserved": 0, "fusion_lon": 0.0}, {"rental_uris": {"ios": "https://dc.lft.to/lastmile_qr_scan", "android": "https://dc.lft.to/lastmile_qr_scan"}, "fusion_lat": 0.0, "name": "07a2789047132ddd8b2f2e5bc2e80c83", "bike_id": "07a2789047132ddd8b2f2e5bc2e80c83", "is_disabled": 0, "type": "electric_scooter", "lat": 38.9015215, "lon": -77.043448, "is_reserved": 0, "fusion_lon": 0.0}, {"rental_uris": {"ios": "https://dc.lft.to/lastmile_qr_scan", "android": "https://dc.lft.to/lastmile_qr_scan"}, "fusion_lat": 0.0, "name": "abcc936c23aa71f2b0f3858aced2d435", "bike_id": "abcc936c23aa71f2b0f3858aced2d435", "is_disabled": 0, "type": "electric_scooter", "lat": 38.884139166666664, "lon": -77.01527466666667, "is_reserved": 0, "fusion_lon": 0.0}, {"rental_uris": {"ios": "https://dc.lft.to/lastmile_qr_scan", "android": "https://dc.lft.to/lastmile_qr_scan"}, "fusion_lat": 0.0, "name": "83f0c55f8c10d081ecdb6a03407952d6", "bike_id": "83f0c55f8c10d081ecdb6a03407952d6", "is_disabled": 0, "type": "electric_scooter", "lat": 38.9015945, "lon": -77.04341116666667, "is_reserved": 0, "fusion_lon": 0.0}, {"rental_uris": {"ios": "https://dc.lft.to/lastmile_qr_scan", "android": "https://dc.lft.to/lastmile_qr_scan"}, "fusion_lat": 0.0, "name": "027e90741a6d954944cc9983ff860f7c", "bike_id": "027e90741a6d954944cc9983ff860f7c", "is_disabled": 0, "type": "electric_bike", "lat": 38.869971666666665, "lon": -77.065695, "is_reserved": 0, "fusion_lon": 0.0}, {"rental_uris": {"ios": "https://dc.lft.to/lastmile_qr_scan", "android": "https://dc.lft.to/lastmile_qr_scan"}, "fusion_lat": 0.0, "name": "b26fa1170de720191b5dddcf7f146869", "bike_id": "b26fa1170de720191b5dddcf7f146869", "is_disabled": 0, "type": "electric_scooter", "lat": 38.92588216666667, "lon": -77.03985283333333, "is_reserved": 0, "fusion_lon": 0.0}, {"rental_uris": {"ios": "https://dc.lft.to/lastmile_qr_scan", "android": "https://dc.lft.to/lastmile_qr_scan"}, "fusion_lat": 0.0, "name": "e8c05688225cb6333668530332e75297", "bike_id": "e8c05688225cb6333668530332e75297", "is_disabled": 0, "type": "electric_scooter", "lat": 38.91597183333333, "lon": -77.02970366666666, "is_reserved": 0, "fusion_lon": 0.0}, {"rental_uris": {"ios": "https://dc.lft.to/lastmile_qr_scan", "android": "https://dc.lft.to/lastmile_qr_scan"}, "fusion_lat": 0.0, "name": "aeb394bac89d496e8c5a6948b2937c2c", "bike_id": "aeb394bac89d496e8c5a6948b2937c2c", "is_disabled": 0, "type": "electric_scooter", "lat": 38.905911833333334, "lon": -77.00595683333333, "is_reserved": 0, "fusion_lon": 0.0}, {"rental_uris": {"ios": "https://dc.lft.to/lastmile_qr_scan", "android": "https://dc.lft.to/lastmile_qr_scan"}, "fusion_lat": 0.0, "name": "df36a1174ed6ffbcbdf54d5e873c481b", "bike_id": "df36a1174ed6ffbcbdf54d5e873c481b", "is_disabled": 0, "type": "electric_bike", "lat": 38.92419666666667, "lon": -77.05045433333333, "is_reserved": 0, "fusion_lon": 0.0}, {"rental_uris": {"ios": "https://dc.lft.to/lastmile_qr_scan", "android": "https://dc.lft.to/lastmile_qr_scan"}, "fusion_lat": 0.0, "name": "99a640502eb38c635fa690512670c5da", "bike_id": "99a640502eb38c635fa690512670c5da", "is_disabled": 0, "type": "electric_scooter", "lat": 38.905545000000004, "lon": -77.03433266666667, "is_reserved": 0, "fusion_lon": 0.0}, {"rental_uris": {"ios": "https://dc.lft.to/lastmile_qr_scan", "android": "https://dc.lft.to/lastmile_qr_scan"}, "fusion_lat": 0.0, "name": "ea03760300d41bd2f5ac903ffc9afd32", "bike_id": "ea03760300d41bd2f5ac903ffc9afd32", "is_disabled": 0, "type": "electric_scooter", "lat": 38.93489266666667, "lon": -77.072763, "is_reserved": 0, "fusion_lon": 0.0}, {"rental_uris": {"ios": "https://dc.lft.to/lastmile_qr_scan", "android": "https://dc.lft.to/lastmile_qr_scan"}, "fusion_lat": 0.0, "name": "54ffccb51a86fa8be174c449dfd306a9", "bike_id": "54ffccb51a86fa8be174c449dfd306a9", "is_disabled": 0, "type": "electric_scooter", "lat": 38.90565133333333, "lon": -77.04488, "is_reserved": 0, "fusion_lon": 0.0}, {"rental_uris": {"ios": "https://dc.lft.to/lastmile_qr_scan", "android": "https://dc.lft.to/lastmile_qr_scan"}, "fusion_lat": 0.0, "name": "b3468d53faa50c33e1b057101838632f", "bike_id": "b3468d53faa50c33e1b057101838632f", "is_disabled": 0, "type": "electric_scooter", "lat": 38.92621, "lon": -77.03948383333334, "is_reserved": 0, "fusion_lon": 0.0}, {"rental_uris": {"ios": "https://dc.lft.to/lastmile_qr_scan", "android": "https://dc.lft.to/lastmile_qr_scan"}, "fusion_lat": 0.0, "name": "e3f22e5cf2dd02a96b30fd500b486bf5", "bike_id": "e3f22e5cf2dd02a96b30fd500b486bf5", "is_disabled": 0, "type": "electric_scooter", "lat": 38.933033, "lon": -77.024673, "is_reserved": 0, "fusion_lon": 0.0}, {"rental_uris": {"ios": "https://dc.lft.to/lastmile_qr_scan", "android": "https://dc.lft.to/lastmile_qr_scan"}, "fusion_lat": 0.0, "name": "6492b11d65a44882fdd6736717195a74", "bike_id": "6492b11d65a44882fdd6736717195a74", "is_disabled": 0, "type": "electric_scooter", "lat": 38.892225, "lon": -77.02220466666667, "is_reserved": 0, "fusion_lon": 0.0}, {"rental_uris": {"ios": "https://dc.lft.to/lastmile_qr_scan", "android": "https://dc.lft.to/lastmile_qr_scan"}, "fusion_lat": 0.0, "name": "ce580d42a6f0074ec51ab214926a8304", "bike_id": "ce580d42a6f0074ec51ab214926a8304", "is_disabled": 0, "type": "electric_scooter", "lat": 38.912674, "lon": -77.04436416666667, "is_reserved": 0, "fusion_lon": 0.0}, {"rental_uris": {"ios": "https://dc.lft.to/lastmile_qr_scan", "android": "https://dc.lft.to/lastmile_qr_scan"}, "fusion_lat": 0.0, "name": "330e1827ee9fcb8062bc54ca45549058", "bike_id": "330e1827ee9fcb8062bc54ca45549058", "is_disabled": 0, "type": "electric_bike", "lat": 38.84286316666667, "lon": -77.04488016666667, "is_reserved": 0, "fusion_lon": 0.0}, {"rental_uris": {"ios": "https://dc.lft.to/lastmile_qr_scan", "android": "https://dc.lft.to/lastmile_qr_scan"}, "fusion_lat": 0.0, "name": "31f5bfcbc21280fdeaebfb8bf36260b2", "bike_id": "31f5bfcbc21280fdeaebfb8bf36260b2", "is_disabled": 0, "type": "electric_scooter", "lat": 38.950770166666665, "lon": -77.03101016666666, "is_reserved": 0, "fusion_lon": 0.0}, {"rental_uris": {"ios": "https://dc.lft.to/lastmile_qr_scan", "android": "https://dc.lft.to/lastmile_qr_scan"}, "fusion_lat": 0.0, "name": "e439cbbd1f5fede07daee54e1056053a", "bike_id": "e439cbbd1f5fede07daee54e1056053a", "is_disabled": 0, "type": "electric_scooter", "lat": 38.8987365, "lon": -77.039738, "is_reserved": 0, "fusion_lon": 0.0}, {"rental_uris": {"ios": "https://dc.lft.to/lastmile_qr_scan", "android": "https://dc.lft.to/lastmile_qr_scan"}, "fusion_lat": 0.0, "name": "2a328f3d992f06c2019ba0fb2c40f636", "bike_id": "2a328f3d992f06c2019ba0fb2c40f636", "is_disabled": 0, "type": "electric_scooter", "lat": 38.92055516666667, "lon": -77.0258465, "is_reserved": 0, "fusion_lon": 0.0}, {"rental_uris": {"ios": "https://dc.lft.to/lastmile_qr_scan", "android": "https://dc.lft.to/lastmile_qr_scan"}, "fusion_lat": 0.0, "name": "be3babae1beb05f2ccd1075a89d123c4", "bike_id": "be3babae1beb05f2ccd1075a89d123c4", "is_disabled": 0, "type": "electric_scooter", "lat": 38.92593133333333, "lon": -77.02143266666667, "is_reserved": 0, "fusion_lon": 0.0}, {"rental_uris": {"ios": "https://dc.lft.to/lastmile_qr_scan", "android": "https://dc.lft.to/lastmile_qr_scan"}, "fusion_lat": 0.0, "name": "2739ae55f633bee9d797ab6f230458b9", "bike_id": "2739ae55f633bee9d797ab6f230458b9", "is_disabled": 0, "type": "electric_scooter", "lat": 38.90012683333333, "lon": -77.04030833333333, "is_reserved": 0, "fusion_lon": 0.0}, {"rental_uris": {"ios": "https://dc.lft.to/lastmile_qr_scan", "android": "https://dc.lft.to/lastmile_qr_scan"}, "fusion_lat": 0.0, "name": "f2f718d707c9c3ea443341db88edaa79", "bike_id": "f2f718d707c9c3ea443341db88edaa79", "is_disabled": 0, "type": "electric_scooter", "lat": 38.877166, "lon": -77.0070535, "is_reserved": 0, "fusion_lon": 0.0}, {"rental_uris": {"ios": "https://dc.lft.to/lastmile_qr_scan", "android": "https://dc.lft.to/lastmile_qr_scan"}, "fusion_lat": 0.0, "name": "2be323a5fbd9146b8ce39cf483770023", "bike_id": "2be323a5fbd9146b8ce39cf483770023", "is_disabled": 0, "type": "electric_scooter", "lat": 38.89474166666667, "lon": -77.02257416666667, "is_reserved": 0, "fusion_lon": 0.0}, {"rental_uris": {"ios": "https://dc.lft.to/lastmile_qr_scan", "android": "https://dc.lft.to/lastmile_qr_scan"}, "fusion_lat": 0.0, "name": "df8bc1eca3bb72e5dd8531bfc008cbc6", "bike_id": "df8bc1eca3bb72e5dd8531bfc008cbc6", "is_disabled": 0, "type": "electric_scooter", "lat": 38.919084833333336, "lon": -77.02189466666667, "is_reserved": 0, "fusion_lon": 0.0}, {"rental_uris": {"ios": "https://dc.lft.to/lastmile_qr_scan", "android": "https://dc.lft.to/lastmile_qr_scan"}, "fusion_lat": 0.0, "name": "783ac6d50048350306388e48ca1b8fec", "bike_id": "783ac6d50048350306388e48ca1b8fec", "is_disabled": 0, "type": "electric_scooter", "lat": 38.944510666666666, "lon": -77.061948, "is_reserved": 0, "fusion_lon": 0.0}, {"rental_uris": {"ios": "https://dc.lft.to/lastmile_qr_scan", "android": "https://dc.lft.to/lastmile_qr_scan"}, "fusion_lat": 0.0, "name": "a3b60bfc205189dd897864a23dd34c57", "bike_id": "a3b60bfc205189dd897864a23dd34c57", "is_disabled": 0, "type": "electric_scooter", "lat": 38.90431933333333, "lon": -77.02952016666667, "is_reserved": 0, "fusion_lon": 0.0}, {"rental_uris": {"ios": "https://dc.lft.to/lastmile_qr_scan", "android": "https://dc.lft.to/lastmile_qr_scan"}, "fusion_lat": 0.0, "name": "043358855cc1ea8cd8e8094410e92319", "bike_id": "043358855cc1ea8cd8e8094410e92319", "is_disabled": 0, "type": "electric_scooter", "lat": 38.9156255, "lon": -77.0386645, "is_reserved": 0, "fusion_lon": 0.0}, {"rental_uris": {"ios": "https://dc.lft.to/lastmile_qr_scan", "android": "https://dc.lft.to/lastmile_qr_scan"}, "fusion_lat": 0.0, "name": "e24a950667b811454eab797a24701717", "bike_id": "e24a950667b811454eab797a24701717", "is_disabled": 0, "type": "electric_scooter", "lat": 38.93747033333333, "lon": -77.03447333333334, "is_reserved": 0, "fusion_lon": 0.0}, {"rental_uris": {"ios": "https://dc.lft.to/lastmile_qr_scan", "android": "https://dc.lft.to/lastmile_qr_scan"}, "fusion_lat": 0.0, "name": "1616e3828e3bd50555f3d7deeb0c910b", "bike_id": "1616e3828e3bd50555f3d7deeb0c910b", "is_disabled": 0, "type": "electric_scooter", "lat": 38.909793666666666, "lon": -77.034239, "is_reserved": 0, "fusion_lon": 0.0}, {"rental_uris": {"ios": "https://dc.lft.to/lastmile_qr_scan", "android": "https://dc.lft.to/lastmile_qr_scan"}, "fusion_lat": 0.0, "name": "24c2e73be4d392ca5772bf3aeac3ebea", "bike_id": "24c2e73be4d392ca5772bf3aeac3ebea", "is_disabled": 0, "type": "electric_scooter", "lat": 38.919937, "lon": -77.04762083333334, "is_reserved": 0, "fusion_lon": 0.0}, {"rental_uris": {"ios": "https://dc.lft.to/lastmile_qr_scan", "android": "https://dc.lft.to/lastmile_qr_scan"}, "fusion_lat": 0.0, "name": "04c5fd7264a20d38bf160474abc1ea54", "bike_id": "04c5fd7264a20d38bf160474abc1ea54", "is_disabled": 0, "type": "electric_scooter", "lat": 38.91604016666667, "lon": -77.03210466666667, "is_reserved": 0, "fusion_lon": 0.0}, {"rental_uris": {"ios": "https://dc.lft.to/lastmile_qr_scan", "android": "https://dc.lft.to/lastmile_qr_scan"}, "fusion_lat": 0.0, "name": "9ef27df18eafe6fdda1e5dd18a910e06", "bike_id": "9ef27df18eafe6fdda1e5dd18a910e06", "is_disabled": 0, "type": "electric_scooter", "lat": 38.921466833333334, "lon": -77.03514183333333, "is_reserved": 0, "fusion_lon": 0.0}, {"rental_uris": {"ios": "https://dc.lft.to/lastmile_qr_scan", "android": "https://dc.lft.to/lastmile_qr_scan"}, "fusion_lat": 0.0, "name": "60241f39d877f94d0d6fb01a6bd07901", "bike_id": "60241f39d877f94d0d6fb01a6bd07901", "is_disabled": 0, "type": "electric_scooter", "lat": 38.84294833333333, "lon": -76.9994745, "is_reserved": 0, "fusion_lon": 0.0}, {"rental_uris": {"ios": "https://dc.lft.to/lastmile_qr_scan", "android": "https://dc.lft.to/lastmile_qr_scan"}, "fusion_lat": 0.0, "name": "63a7d3b69fbd8e36a8aa1306a2998b54", "bike_id": "63a7d3b69fbd8e36a8aa1306a2998b54", "is_disabled": 0, "type": "electric_scooter", "lat": 38.92482016666666, "lon": -77.0348405, "is_reserved": 0, "fusion_lon": 0.0}, {"rental_uris": {"ios": "https://dc.lft.to/lastmile_qr_scan", "android": "https://dc.lft.to/lastmile_qr_scan"}, "fusion_lat": 0.0, "name": "2b7792f414a1a090ae77b921f9459bd2", "bike_id": "2b7792f414a1a090ae77b921f9459bd2", "is_disabled": 0, "type": "electric_scooter", "lat": 38.866918, "lon": -76.98416933333333, "is_reserved": 0, "fusion_lon": 0.0}, {"rental_uris": {"ios": "https://dc.lft.to/lastmile_qr_scan", "android": "https://dc.lft.to/lastmile_qr_scan"}, "fusion_lat": 0.0, "name": "1bd326848a8ec974fe703cb52a6e060d", "bike_id": "1bd326848a8ec974fe703cb52a6e060d", "is_disabled": 0, "type": "electric_bike", "lat": 38.901228, "lon": -77.03695166666667, "is_reserved": 0, "fusion_lon": 0.0}, {"rental_uris": {"ios": "https://dc.lft.to/lastmile_qr_scan", "android": "https://dc.lft.to/lastmile_qr_scan"}, "fusion_lat": 0.0, "name": "3af96cc5681f92702a4c9ad5bf0b9c36", "bike_id": "3af96cc5681f92702a4c9ad5bf0b9c36", "is_disabled": 0, "type": "electric_scooter", "lat": 38.8950035, "lon": -76.94876483333333, "is_reserved": 0, "fusion_lon": 0.0}, {"rental_uris": {"ios": "https://dc.lft.to/lastmile_qr_scan", "android": "https://dc.lft.to/lastmile_qr_scan"}, "fusion_lat": 0.0, "name": "447a5b81630d2eb435e43bdc13a227dd", "bike_id": "447a5b81630d2eb435e43bdc13a227dd", "is_disabled": 0, "type": "electric_scooter", "lat": 38.914306, "lon": -77.03215483333334, "is_reserved": 0, "fusion_lon": 0.0}, {"rental_uris": {"ios": "https://dc.lft.to/lastmile_qr_scan", "android": "https://dc.lft.to/lastmile_qr_scan"}, "fusion_lat": 0.0, "name": "e63c2e00bb50982302e9d88621327776", "bike_id": "e63c2e00bb50982302e9d88621327776", "is_disabled": 0, "type": "electric_scooter", "lat": 38.907025, "lon": -76.98728916666667, "is_reserved": 0, "fusion_lon": 0.0}, {"rental_uris": {"ios": "https://dc.lft.to/lastmile_qr_scan", "android": "https://dc.lft.to/lastmile_qr_scan"}, "fusion_lat": 0.0, "name": "43906f6a3c66cbaebce42360cc703787", "bike_id": "43906f6a3c66cbaebce42360cc703787", "is_disabled": 0, "type": "electric_scooter", "lat": 38.8665155, "lon": -76.9888535, "is_reserved": 0, "fusion_lon": 0.0}, {"rental_uris": {"ios": "https://dc.lft.to/lastmile_qr_scan", "android": "https://dc.lft.to/lastmile_qr_scan"}, "fusion_lat": 0.0, "name": "8e61c9fc6be18cc7067aecf3d112cfd2", "bike_id": "8e61c9fc6be18cc7067aecf3d112cfd2", "is_disabled": 0, "type": "electric_bike", "lat": 38.91614, "lon": -77.04879016666666, "is_reserved": 0, "fusion_lon": 0.0}, {"rental_uris": {"ios": "https://dc.lft.to/lastmile_qr_scan", "android": "https://dc.lft.to/lastmile_qr_scan"}, "fusion_lat": 0.0, "name": "4a205fe62796b19bd6622c2f94fc4ef2", "bike_id": "4a205fe62796b19bd6622c2f94fc4ef2", "is_disabled": 0, "type": "electric_scooter", "lat": 38.90066866666667, "lon": -77.04906583333333, "is_reserved": 0, "fusion_lon": 0.0}, {"rental_uris": {"ios": "https://dc.lft.to/lastmile_qr_scan", "android": "https://dc.lft.to/lastmile_qr_scan"}, "fusion_lat": 0.0, "name": "4ab7733310ce36591216df679af831a4", "bike_id": "4ab7733310ce36591216df679af831a4", "is_disabled": 0, "type": "electric_scooter", "lat": 38.90363983333334, "lon": -77.0342055, "is_reserved": 0, "fusion_lon": 0.0}, {"rental_uris": {"ios": "https://dc.lft.to/lastmile_qr_scan", "android": "https://dc.lft.to/lastmile_qr_scan"}, "fusion_lat": 0.0, "name": "65ea166c2f962e5b5a3f9241a63b887c", "bike_id": "65ea166c2f962e5b5a3f9241a63b887c", "is_disabled": 0, "type": "electric_scooter", "lat": 38.898895833333334, "lon": -76.99902733333333, "is_reserved": 0, "fusion_lon": 0.0}, {"rental_uris": {"ios": "https://dc.lft.to/lastmile_qr_scan", "android": "https://dc.lft.to/lastmile_qr_scan"}, "fusion_lat": 0.0, "name": "70161e8123bb706b9a5b60ed3cc22acc", "bike_id": "70161e8123bb706b9a5b60ed3cc22acc", "is_disabled": 0, "type": "electric_bike", "lat": 38.80069, "lon": -77.07123283333334, "is_reserved": 0, "fusion_lon": 0.0}, {"rental_uris": {"ios": "https://dc.lft.to/lastmile_qr_scan", "android": "https://dc.lft.to/lastmile_qr_scan"}, "fusion_lat": 0.0, "name": "56306db51f249e5c10c3ffb18efdba34", "bike_id": "56306db51f249e5c10c3ffb18efdba34", "is_disabled": 0, "type": "electric_bike", "lat": 38.95792383333333, "lon": -77.0275385, "is_reserved": 0, "fusion_lon": 0.0}, {"rental_uris": {"ios": "https://dc.lft.to/lastmile_qr_scan", "android": "https://dc.lft.to/lastmile_qr_scan"}, "fusion_lat": 0.0, "name": "023cb2f8fe472786bc85e41cbea6145d", "bike_id": "023cb2f8fe472786bc85e41cbea6145d", "is_disabled": 0, "type": "electric_scooter", "lat": 38.9000535, "lon": -76.99617733333334, "is_reserved": 0, "fusion_lon": 0.0}, {"rental_uris": {"ios": "https://dc.lft.to/lastmile_qr_scan", "android": "https://dc.lft.to/lastmile_qr_scan"}, "fusion_lat": 0.0, "name": "39b57f5d46c6be3779bcee76252ce772", "bike_id": "39b57f5d46c6be3779bcee76252ce772", "is_disabled": 0, "type": "electric_scooter", "lat": 38.9185455, "lon": -77.03219066666666, "is_reserved": 0, "fusion_lon": 0.0}, {"rental_uris": {"ios": "https://dc.lft.to/lastmile_qr_scan", "android": "https://dc.lft.to/lastmile_qr_scan"}, "fusion_lat": 0.0, "name": "7744382bb7740c2a5e63961123ec83d5", "bike_id": "7744382bb7740c2a5e63961123ec83d5", "is_disabled": 0, "type": "electric_scooter", "lat": 38.9204875, "lon": -77.03475433333334, "is_reserved": 0, "fusion_lon": 0.0}, {"rental_uris": {"ios": "https://dc.lft.to/lastmile_qr_scan", "android": "https://dc.lft.to/lastmile_qr_scan"}, "fusion_lat": 0.0, "name": "663272e7acffbbcef918fa7184abdb1c", "bike_id": "663272e7acffbbcef918fa7184abdb1c", "is_disabled": 0, "type": "electric_bike", "lat": 38.8322435, "lon": -77.0496985, "is_reserved": 0, "fusion_lon": 0.0}, {"rental_uris": {"ios": "https://dc.lft.to/lastmile_qr_scan", "android": "https://dc.lft.to/lastmile_qr_scan"}, "fusion_lat": 0.0, "name": "da5a2eaabf8d85f1e9aa6cc2bfe341d4", "bike_id": "da5a2eaabf8d85f1e9aa6cc2bfe341d4", "is_disabled": 0, "type": "electric_scooter", "lat": 38.918642166666665, "lon": -77.03889216666667, "is_reserved": 0, "fusion_lon": 0.0}, {"rental_uris": {"ios": "https://dc.lft.to/lastmile_qr_scan", "android": "https://dc.lft.to/lastmile_qr_scan"}, "fusion_lat": 0.0, "name": "0b4b40371f8f0c91d16f3c3762324354", "bike_id": "0b4b40371f8f0c91d16f3c3762324354", "is_disabled": 0, "type": "electric_scooter", "lat": 38.934788833333336, "lon": -77.03579583333334, "is_reserved": 0, "fusion_lon": 0.0}, {"rental_uris": {"ios": "https://dc.lft.to/lastmile_qr_scan", "android": "https://dc.lft.to/lastmile_qr_scan"}, "fusion_lat": 0.0, "name": "5b350c50ef046e1d5e93ba5c9b37d9fd", "bike_id": "5b350c50ef046e1d5e93ba5c9b37d9fd", "is_disabled": 0, "type": "electric_scooter", "lat": 38.89496466666667, "lon": -77.01101633333333, "is_reserved": 0, "fusion_lon": 0.0}, {"rental_uris": {"ios": "https://dc.lft.to/lastmile_qr_scan", "android": "https://dc.lft.to/lastmile_qr_scan"}, "fusion_lat": 0.0, "name": "62d18946a32d8ba82783f477104bf072", "bike_id": "62d18946a32d8ba82783f477104bf072", "is_disabled": 0, "type": "electric_scooter", "lat": 38.92470633333333, "lon": -77.05235483333334, "is_reserved": 0, "fusion_lon": 0.0}, {"rental_uris": {"ios": "https://dc.lft.to/lastmile_qr_scan", "android": "https://dc.lft.to/lastmile_qr_scan"}, "fusion_lat": 0.0, "name": "b78792e843dc0973439ad821d1e96f18", "bike_id": "b78792e843dc0973439ad821d1e96f18", "is_disabled": 0, "type": "electric_scooter", "lat": 38.90950133333333, "lon": -77.04484066666667, "is_reserved": 0, "fusion_lon": 0.0}, {"rental_uris": {"ios": "https://dc.lft.to/lastmile_qr_scan", "android": "https://dc.lft.to/lastmile_qr_scan"}, "fusion_lat": 0.0, "name": "851cd3b7b33c2c9cf81951f0ba7344bf", "bike_id": "851cd3b7b33c2c9cf81951f0ba7344bf", "is_disabled": 0, "type": "electric_scooter", "lat": 38.86501233333333, "lon": -76.98986583333334, "is_reserved": 0, "fusion_lon": 0.0}, {"rental_uris": {"ios": "https://dc.lft.to/lastmile_qr_scan", "android": "https://dc.lft.to/lastmile_qr_scan"}, "fusion_lat": 0.0, "name": "59a3e1c984f1e3553ef5094c95f3c9d2", "bike_id": "59a3e1c984f1e3553ef5094c95f3c9d2", "is_disabled": 0, "type": "electric_scooter", "lat": 38.909653, "lon": -77.022816, "is_reserved": 0, "fusion_lon": 0.0}, {"rental_uris": {"ios": "https://dc.lft.to/lastmile_qr_scan", "android": "https://dc.lft.to/lastmile_qr_scan"}, "fusion_lat": 0.0, "name": "8d0c8f46ccf58654e89f1af2777ae8b5", "bike_id": "8d0c8f46ccf58654e89f1af2777ae8b5", "is_disabled": 0, "type": "electric_scooter", "lat": 38.8771075, "lon": -77.00745583333334, "is_reserved": 0, "fusion_lon": 0.0}, {"rental_uris": {"ios": "https://dc.lft.to/lastmile_qr_scan", "android": "https://dc.lft.to/lastmile_qr_scan"}, "fusion_lat": 0.0, "name": "ffcb772eb17cd5751966cb484317fb81", "bike_id": "ffcb772eb17cd5751966cb484317fb81", "is_disabled": 0, "type": "electric_scooter", "lat": 38.8939285, "lon": -77.0283015, "is_reserved": 0, "fusion_lon": 0.0}, {"rental_uris": {"ios": "https://dc.lft.to/lastmile_qr_scan", "android": "https://dc.lft.to/lastmile_qr_scan"}, "fusion_lat": 0.0, "name": "0df807f0ad191c8175a46fbe225e5ebd", "bike_id": "0df807f0ad191c8175a46fbe225e5ebd", "is_disabled": 0, "type": "electric_scooter", "lat": 38.8626065, "lon": -76.99515116666667, "is_reserved": 0, "fusion_lon": 0.0}, {"rental_uris": {"ios": "https://dc.lft.to/lastmile_qr_scan", "android": "https://dc.lft.to/lastmile_qr_scan"}, "fusion_lat": 0.0, "name": "f62bef6985a7299cd8d3365265a7f4a9", "bike_id": "f62bef6985a7299cd8d3365265a7f4a9", "is_disabled": 0, "type": "electric_scooter", "lat": 38.93067216666667, "lon": -77.03816666666667, "is_reserved": 0, "fusion_lon": 0.0}, {"rental_uris": {"ios": "https://dc.lft.to/lastmile_qr_scan", "android": "https://dc.lft.to/lastmile_qr_scan"}, "fusion_lat": 0.0, "name": "f9d661e032e5102005174e7e50756436", "bike_id": "f9d661e032e5102005174e7e50756436", "is_disabled": 0, "type": "electric_scooter", "lat": 38.91112616666667, "lon": -77.03915833333333, "is_reserved": 0, "fusion_lon": 0.0}, {"rental_uris": {"ios": "https://dc.lft.to/lastmile_qr_scan", "android": "https://dc.lft.to/lastmile_qr_scan"}, "fusion_lat": 0.0, "name": "52a8c450e7dddb8aed6f2e80b7343c79", "bike_id": "52a8c450e7dddb8aed6f2e80b7343c79", "is_disabled": 0, "type": "electric_scooter", "lat": 38.920485, "lon": -77.0020955, "is_reserved": 0, "fusion_lon": 0.0}, {"rental_uris": {"ios": "https://dc.lft.to/lastmile_qr_scan", "android": "https://dc.lft.to/lastmile_qr_scan"}, "fusion_lat": 0.0, "name": "53aed918d9be2b71339eede66023f7eb", "bike_id": "53aed918d9be2b71339eede66023f7eb", "is_disabled": 0, "type": "electric_scooter", "lat": 38.89226133333333, "lon": -77.02328616666667, "is_reserved": 0, "fusion_lon": 0.0}, {"rental_uris": {"ios": "https://dc.lft.to/lastmile_qr_scan", "android": "https://dc.lft.to/lastmile_qr_scan"}, "fusion_lat": 0.0, "name": "7f28421c322e1f51da8b658b062e8307", "bike_id": "7f28421c322e1f51da8b658b062e8307", "is_disabled": 0, "type": "electric_bike", "lat": 38.831552333333335, "lon": -77.1131965, "is_reserved": 0, "fusion_lon": 0.0}, {"rental_uris": {"ios": "https://dc.lft.to/lastmile_qr_scan", "android": "https://dc.lft.to/lastmile_qr_scan"}, "fusion_lat": 0.0, "name": "09353185a74c5eb50d2a1d5de6510c48", "bike_id": "09353185a74c5eb50d2a1d5de6510c48", "is_disabled": 0, "type": "electric_scooter", "lat": 38.885062833333336, "lon": -77.0056715, "is_reserved": 0, "fusion_lon": 0.0}, {"rental_uris": {"ios": "https://dc.lft.to/lastmile_qr_scan", "android": "https://dc.lft.to/lastmile_qr_scan"}, "fusion_lat": 0.0, "name": "022f1906609b25c3e778bfdc7646d84d", "bike_id": "022f1906609b25c3e778bfdc7646d84d", "is_disabled": 0, "type": "electric_scooter", "lat": 38.92215383333333, "lon": -77.03658383333334, "is_reserved": 0, "fusion_lon": 0.0}, {"rental_uris": {"ios": "https://dc.lft.to/lastmile_qr_scan", "android": "https://dc.lft.to/lastmile_qr_scan"}, "fusion_lat": 0.0, "name": "7d13472a9e38eddd105e23b4b67e2f72", "bike_id": "7d13472a9e38eddd105e23b4b67e2f72", "is_disabled": 0, "type": "electric_scooter", "lat": 38.9125805, "lon": -77.0444065, "is_reserved": 0, "fusion_lon": 0.0}, {"rental_uris": {"ios": "https://dc.lft.to/lastmile_qr_scan", "android": "https://dc.lft.to/lastmile_qr_scan"}, "fusion_lat": 0.0, "name": "017ff1900f6ae4fe544dd98fd1265468", "bike_id": "017ff1900f6ae4fe544dd98fd1265468", "is_disabled": 0, "type": "electric_bike", "lat": 38.81514133333334, "lon": -77.1265865, "is_reserved": 0, "fusion_lon": 0.0}, {"rental_uris": {"ios": "https://dc.lft.to/lastmile_qr_scan", "android": "https://dc.lft.to/lastmile_qr_scan"}, "fusion_lat": 0.0, "name": "2f6d9c3b82120742dcf7261b7675d7da", "bike_id": "2f6d9c3b82120742dcf7261b7675d7da", "is_disabled": 0, "type": "electric_scooter", "lat": 38.892352, "lon": -77.02802783333334, "is_reserved": 0, "fusion_lon": 0.0}, {"rental_uris": {"ios": "https://dc.lft.to/lastmile_qr_scan", "android": "https://dc.lft.to/lastmile_qr_scan"}, "fusion_lat": 0.0, "name": "5e991a13cdf1206eee44bd6c9ad14a2b", "bike_id": "5e991a13cdf1206eee44bd6c9ad14a2b", "is_disabled": 0, "type": "electric_scooter", "lat": 38.92105566666667, "lon": -77.04700183333334, "is_reserved": 0, "fusion_lon": 0.0}, {"rental_uris": {"ios": "https://dc.lft.to/lastmile_qr_scan", "android": "https://dc.lft.to/lastmile_qr_scan"}, "fusion_lat": 0.0, "name": "3636e71ecbd8f74ad9312b7c01b51004", "bike_id": "3636e71ecbd8f74ad9312b7c01b51004", "is_disabled": 0, "type": "electric_scooter", "lat": 38.9095675, "lon": -77.044641, "is_reserved": 0, "fusion_lon": 0.0}, {"rental_uris": {"ios": "https://dc.lft.to/lastmile_qr_scan", "android": "https://dc.lft.to/lastmile_qr_scan"}, "fusion_lat": 0.0, "name": "25cb36ab94ebb8b381d7138b38b4e7d2", "bike_id": "25cb36ab94ebb8b381d7138b38b4e7d2", "is_disabled": 0, "type": "electric_scooter", "lat": 38.90816916666667, "lon": -77.034426, "is_reserved": 0, "fusion_lon": 0.0}, {"rental_uris": {"ios": "https://dc.lft.to/lastmile_qr_scan", "android": "https://dc.lft.to/lastmile_qr_scan"}, "fusion_lat": 0.0, "name": "ee11be5c9c28be23ed2b8ec48d03e466", "bike_id": "ee11be5c9c28be23ed2b8ec48d03e466", "is_disabled": 0, "type": "electric_scooter", "lat": 38.89833933333333, "lon": -77.0397055, "is_reserved": 0, "fusion_lon": 0.0}, {"rental_uris": {"ios": "https://dc.lft.to/lastmile_qr_scan", "android": "https://dc.lft.to/lastmile_qr_scan"}, "fusion_lat": 0.0, "name": "ac6155b41cd49aecb23c9698c88c920d", "bike_id": "ac6155b41cd49aecb23c9698c88c920d", "is_disabled": 0, "type": "electric_bike", "lat": 38.9247125, "lon": -77.2084245, "is_reserved": 0, "fusion_lon": 0.0}, {"rental_uris": {"ios": "https://dc.lft.to/lastmile_qr_scan", "android": "https://dc.lft.to/lastmile_qr_scan"}, "fusion_lat": 0.0, "name": "54194ab0eaa7c750f643490047f7776e", "bike_id": "54194ab0eaa7c750f643490047f7776e", "is_disabled": 0, "type": "electric_scooter", "lat": 38.917119166666666, "lon": -77.03247433333334, "is_reserved": 0, "fusion_lon": 0.0}, {"rental_uris": {"ios": "https://dc.lft.to/lastmile_qr_scan", "android": "https://dc.lft.to/lastmile_qr_scan"}, "fusion_lat": 0.0, "name": "ede0a96c6a7f3d090976bf7fc0bd33a3", "bike_id": "ede0a96c6a7f3d090976bf7fc0bd33a3", "is_disabled": 0, "type": "electric_scooter", "lat": 38.91571883333334, "lon": -77.02009433333333, "is_reserved": 0, "fusion_lon": 0.0}, {"rental_uris": {"ios": "https://dc.lft.to/lastmile_qr_scan", "android": "https://dc.lft.to/lastmile_qr_scan"}, "fusion_lat": 0.0, "name": "67399c8938e06b15ffd94f5b61b69a38", "bike_id": "67399c8938e06b15ffd94f5b61b69a38", "is_disabled": 0, "type": "electric_scooter", "lat": 38.92420516666667, "lon": -77.01947666666666, "is_reserved": 0, "fusion_lon": 0.0}, {"rental_uris": {"ios": "https://dc.lft.to/lastmile_qr_scan", "android": "https://dc.lft.to/lastmile_qr_scan"}, "fusion_lat": 0.0, "name": "a94ace14aad6876a1b1276cf758acd61", "bike_id": "a94ace14aad6876a1b1276cf758acd61", "is_disabled": 0, "type": "electric_scooter", "lat": 38.908321, "lon": -76.9970355, "is_reserved": 0, "fusion_lon": 0.0}, {"rental_uris": {"ios": "https://dc.lft.to/lastmile_qr_scan", "android": "https://dc.lft.to/lastmile_qr_scan"}, "fusion_lat": 0.0, "name": "ba4d72944335ee152394e55c3b5884f2", "bike_id": "ba4d72944335ee152394e55c3b5884f2", "is_disabled": 0, "type": "electric_scooter", "lat": 38.90282466666667, "lon": -77.03473333333334, "is_reserved": 0, "fusion_lon": 0.0}, {"rental_uris": {"ios": "https://dc.lft.to/lastmile_qr_scan", "android": "https://dc.lft.to/lastmile_qr_scan"}, "fusion_lat": 0.0, "name": "25c62a9583bb47a64261766dc51be7a8", "bike_id": "25c62a9583bb47a64261766dc51be7a8", "is_disabled": 0, "type": "electric_bike", "lat": 38.900395333333336, "lon": -76.97184983333334, "is_reserved": 0, "fusion_lon": 0.0}, {"rental_uris": {"ios": "https://dc.lft.to/lastmile_qr_scan", "android": "https://dc.lft.to/lastmile_qr_scan"}, "fusion_lat": 0.0, "name": "88902f6246fed988068f4bc482427c1f", "bike_id": "88902f6246fed988068f4bc482427c1f", "is_disabled": 0, "type": "electric_scooter", "lat": 38.8971315, "lon": -77.00675866666667, "is_reserved": 0, "fusion_lon": 0.0}, {"rental_uris": {"ios": "https://dc.lft.to/lastmile_qr_scan", "android": "https://dc.lft.to/lastmile_qr_scan"}, "fusion_lat": 0.0, "name": "6c3571b70e17229d419a62d85231b4f5", "bike_id": "6c3571b70e17229d419a62d85231b4f5", "is_disabled": 0, "type": "electric_bike", "lat": 38.910998666666664, "lon": -76.99682133333333, "is_reserved": 0, "fusion_lon": 0.0}, {"rental_uris": {"ios": "https://dc.lft.to/lastmile_qr_scan", "android": "https://dc.lft.to/lastmile_qr_scan"}, "fusion_lat": 0.0, "name": "afa2f77be89a923c6db323e20a0155a7", "bike_id": "afa2f77be89a923c6db323e20a0155a7", "is_disabled": 0, "type": "electric_scooter", "lat": 38.90786833333333, "lon": -77.0400185, "is_reserved": 0, "fusion_lon": 0.0}, {"rental_uris": {"ios": "https://dc.lft.to/lastmile_qr_scan", "android": "https://dc.lft.to/lastmile_qr_scan"}, "fusion_lat": 0.0, "name": "43f117585b2a98293f572c000fb3508b", "bike_id": "43f117585b2a98293f572c000fb3508b", "is_disabled": 0, "type": "electric_scooter", "lat": 38.90124983333333, "lon": -77.03181266666667, "is_reserved": 0, "fusion_lon": 0.0}, {"rental_uris": {"ios": "https://dc.lft.to/lastmile_qr_scan", "android": "https://dc.lft.to/lastmile_qr_scan"}, "fusion_lat": 0.0, "name": "bae91400b04b070e54ba4d3fc9ddbb7c", "bike_id": "bae91400b04b070e54ba4d3fc9ddbb7c", "is_disabled": 0, "type": "electric_scooter", "lat": 38.917117, "lon": -77.00512966666666, "is_reserved": 0, "fusion_lon": 0.0}, {"rental_uris": {"ios": "https://dc.lft.to/lastmile_qr_scan", "android": "https://dc.lft.to/lastmile_qr_scan"}, "fusion_lat": 0.0, "name": "6db43626af67ff1fa42ff34c06d726d2", "bike_id": "6db43626af67ff1fa42ff34c06d726d2", "is_disabled": 0, "type": "electric_scooter", "lat": 38.90965, "lon": -77.03472966666666, "is_reserved": 0, "fusion_lon": 0.0}, {"rental_uris": {"ios": "https://dc.lft.to/lastmile_qr_scan", "android": "https://dc.lft.to/lastmile_qr_scan"}, "fusion_lat": 0.0, "name": "5ebb8af0a309012ff003e6fcf3e5d1bf", "bike_id": "5ebb8af0a309012ff003e6fcf3e5d1bf", "is_disabled": 0, "type": "electric_scooter", "lat": 38.908327166666666, "lon": -77.00923466666667, "is_reserved": 0, "fusion_lon": 0.0}, {"rental_uris": {"ios": "https://dc.lft.to/lastmile_qr_scan", "android": "https://dc.lft.to/lastmile_qr_scan"}, "fusion_lat": 0.0, "name": "b5bae40427d6582a3a6f5dba1b6e7d78", "bike_id": "b5bae40427d6582a3a6f5dba1b6e7d78", "is_disabled": 0, "type": "electric_scooter", "lat": 38.9192725, "lon": -77.03174683333333, "is_reserved": 0, "fusion_lon": 0.0}, {"rental_uris": {"ios": "https://dc.lft.to/lastmile_qr_scan", "android": "https://dc.lft.to/lastmile_qr_scan"}, "fusion_lat": 0.0, "name": "4e824b79f7778b73f836e603b4a4bc50", "bike_id": "4e824b79f7778b73f836e603b4a4bc50", "is_disabled": 0, "type": "electric_scooter", "lat": 38.887633, "lon": -77.03352466666666, "is_reserved": 0, "fusion_lon": 0.0}, {"rental_uris": {"ios": "https://dc.lft.to/lastmile_qr_scan", "android": "https://dc.lft.to/lastmile_qr_scan"}, "fusion_lat": 0.0, "name": "3f86042a2b37f6c5baaacdcd72b10421", "bike_id": "3f86042a2b37f6c5baaacdcd72b10421", "is_disabled": 0, "type": "electric_scooter", "lat": 38.91653983333333, "lon": -77.02294083333334, "is_reserved": 0, "fusion_lon": 0.0}, {"rental_uris": {"ios": "https://dc.lft.to/lastmile_qr_scan", "android": "https://dc.lft.to/lastmile_qr_scan"}, "fusion_lat": 0.0, "name": "65d4fe7772e440aef76da90de63aeb7e", "bike_id": "65d4fe7772e440aef76da90de63aeb7e", "is_disabled": 0, "type": "electric_scooter", "lat": 38.90547083333333, "lon": -77.03242583333333, "is_reserved": 0, "fusion_lon": 0.0}, {"rental_uris": {"ios": "https://dc.lft.to/lastmile_qr_scan", "android": "https://dc.lft.to/lastmile_qr_scan"}, "fusion_lat": 0.0, "name": "8ae8b506c357faba5fa835ba4a14b291", "bike_id": "8ae8b506c357faba5fa835ba4a14b291", "is_disabled": 0, "type": "electric_bike", "lat": 38.853503333333336, "lon": -77.13472233333333, "is_reserved": 0, "fusion_lon": 0.0}, {"rental_uris": {"ios": "https://dc.lft.to/lastmile_qr_scan", "android": "https://dc.lft.to/lastmile_qr_scan"}, "fusion_lat": 0.0, "name": "e296032f6532ae4fdfb8ef87d81d5d0d", "bike_id": "e296032f6532ae4fdfb8ef87d81d5d0d", "is_disabled": 0, "type": "electric_scooter", "lat": 38.931225166666664, "lon": -77.0340065, "is_reserved": 0, "fusion_lon": 0.0}, {"rental_uris": {"ios": "https://dc.lft.to/lastmile_qr_scan", "android": "https://dc.lft.to/lastmile_qr_scan"}, "fusion_lat": 0.0, "name": "91de97babe3d820fe6f268f1ddb3bf2c", "bike_id": "91de97babe3d820fe6f268f1ddb3bf2c", "is_disabled": 0, "type": "electric_scooter", "lat": 38.910501333333336, "lon": -77.0318465, "is_reserved": 0, "fusion_lon": 0.0}, {"rental_uris": {"ios": "https://dc.lft.to/lastmile_qr_scan", "android": "https://dc.lft.to/lastmile_qr_scan"}, "fusion_lat": 0.0, "name": "ed6a93edf4ee8f5342c235c36f87a767", "bike_id": "ed6a93edf4ee8f5342c235c36f87a767", "is_disabled": 0, "type": "electric_scooter", "lat": 38.91927116666667, "lon": -77.0341125, "is_reserved": 0, "fusion_lon": 0.0}, {"rental_uris": {"ios": "https://dc.lft.to/lastmile_qr_scan", "android": "https://dc.lft.to/lastmile_qr_scan"}, "fusion_lat": 0.0, "name": "8a9738587b20fd1765681c35d0ec6bbb", "bike_id": "8a9738587b20fd1765681c35d0ec6bbb", "is_disabled": 0, "type": "electric_bike", "lat": 38.9589165, "lon": -76.9248205, "is_reserved": 0, "fusion_lon": 0.0}, {"rental_uris": {"ios": "https://dc.lft.to/lastmile_qr_scan", "android": "https://dc.lft.to/lastmile_qr_scan"}, "fusion_lat": 0.0, "name": "9340e5a4664f9e8c8af1cc33f8310016", "bike_id": "9340e5a4664f9e8c8af1cc33f8310016", "is_disabled": 0, "type": "electric_bike", "lat": 38.962301333333336, "lon": -77.02622866666667, "is_reserved": 0, "fusion_lon": 0.0}, {"rental_uris": {"ios": "https://dc.lft.to/lastmile_qr_scan", "android": "https://dc.lft.to/lastmile_qr_scan"}, "fusion_lat": 0.0, "name": "d9c9d610181309db5438039a2b3cc681", "bike_id": "d9c9d610181309db5438039a2b3cc681", "is_disabled": 0, "type": "electric_scooter", "lat": 38.89832, "lon": -77.0331925, "is_reserved": 0, "fusion_lon": 0.0}, {"rental_uris": {"ios": "https://dc.lft.to/lastmile_qr_scan", "android": "https://dc.lft.to/lastmile_qr_scan"}, "fusion_lat": 0.0, "name": "7d02149974f118498061ed6556681949", "bike_id": "7d02149974f118498061ed6556681949", "is_disabled": 0, "type": "electric_scooter", "lat": 38.89042633333333, "lon": -76.95135166666667, "is_reserved": 0, "fusion_lon": 0.0}, {"rental_uris": {"ios": "https://dc.lft.to/lastmile_qr_scan", "android": "https://dc.lft.to/lastmile_qr_scan"}, "fusion_lat": 0.0, "name": "e10e12a78d7e077f5c6b2fb2c65b4903", "bike_id": "e10e12a78d7e077f5c6b2fb2c65b4903", "is_disabled": 0, "type": "electric_scooter", "lat": 38.897708, "lon": -77.0319895, "is_reserved": 0, "fusion_lon": 0.0}, {"rental_uris": {"ios": "https://dc.lft.to/lastmile_qr_scan", "android": "https://dc.lft.to/lastmile_qr_scan"}, "fusion_lat": 0.0, "name": "bb6c7e90befef2dd424fc86b132df509", "bike_id": "bb6c7e90befef2dd424fc86b132df509", "is_disabled": 0, "type": "electric_scooter", "lat": 38.9209125, "lon": -77.03147783333333, "is_reserved": 0, "fusion_lon": 0.0}, {"rental_uris": {"ios": "https://dc.lft.to/lastmile_qr_scan", "android": "https://dc.lft.to/lastmile_qr_scan"}, "fusion_lat": 0.0, "name": "2864fbf6a62adc13f0a4412286e97523", "bike_id": "2864fbf6a62adc13f0a4412286e97523", "is_disabled": 0, "type": "electric_scooter", "lat": 38.89568883333333, "lon": -77.02976883333334, "is_reserved": 0, "fusion_lon": 0.0}, {"rental_uris": {"ios": "https://dc.lft.to/lastmile_qr_scan", "android": "https://dc.lft.to/lastmile_qr_scan"}, "fusion_lat": 0.0, "name": "7e0ac946e7d7e9aedb02192529195cc0", "bike_id": "7e0ac946e7d7e9aedb02192529195cc0", "is_disabled": 0, "type": "electric_scooter", "lat": 38.921124166666665, "lon": -77.03173166666667, "is_reserved": 0, "fusion_lon": 0.0}, {"rental_uris": {"ios": "https://dc.lft.to/lastmile_qr_scan", "android": "https://dc.lft.to/lastmile_qr_scan"}, "fusion_lat": 0.0, "name": "7c08f6510ca803af4a45b3be15d3cfe5", "bike_id": "7c08f6510ca803af4a45b3be15d3cfe5", "is_disabled": 0, "type": "electric_scooter", "lat": 38.938932333333334, "lon": -77.02486233333333, "is_reserved": 0, "fusion_lon": 0.0}, {"rental_uris": {"ios": "https://dc.lft.to/lastmile_qr_scan", "android": "https://dc.lft.to/lastmile_qr_scan"}, "fusion_lat": 0.0, "name": "472359af7ede8174b9684fd5748c159e", "bike_id": "472359af7ede8174b9684fd5748c159e", "is_disabled": 0, "type": "electric_scooter", "lat": 38.92580533333334, "lon": -77.0377895, "is_reserved": 0, "fusion_lon": 0.0}, {"rental_uris": {"ios": "https://dc.lft.to/lastmile_qr_scan", "android": "https://dc.lft.to/lastmile_qr_scan"}, "fusion_lat": 0.0, "name": "c8edb624d968f10f29f32084dbbe3f8a", "bike_id": "c8edb624d968f10f29f32084dbbe3f8a", "is_disabled": 0, "type": "electric_bike", "lat": 38.99824616666667, "lon": -76.883702, "is_reserved": 0, "fusion_lon": 0.0}, {"rental_uris": {"ios": "https://dc.lft.to/lastmile_qr_scan", "android": "https://dc.lft.to/lastmile_qr_scan"}, "fusion_lat": 0.0, "name": "6de06e0cdd0f3bb1e19cfa82c2f77c99", "bike_id": "6de06e0cdd0f3bb1e19cfa82c2f77c99", "is_disabled": 0, "type": "electric_scooter", "lat": 38.89222866666667, "lon": -77.04644833333333, "is_reserved": 0, "fusion_lon": 0.0}, {"rental_uris": {"ios": "https://dc.lft.to/lastmile_qr_scan", "android": "https://dc.lft.to/lastmile_qr_scan"}, "fusion_lat": 0.0, "name": "d2ca215ae688ced4ccef48260f8d65b4", "bike_id": "d2ca215ae688ced4ccef48260f8d65b4", "is_disabled": 0, "type": "electric_bike", "lat": 38.953359166666665, "lon": -76.945783, "is_reserved": 0, "fusion_lon": 0.0}, {"rental_uris": {"ios": "https://dc.lft.to/lastmile_qr_scan", "android": "https://dc.lft.to/lastmile_qr_scan"}, "fusion_lat": 0.0, "name": "811c222f3fa22433a8fbd202c81be1ac", "bike_id": "811c222f3fa22433a8fbd202c81be1ac", "is_disabled": 0, "type": "electric_scooter", "lat": 38.916905666666665, "lon": -77.02953716666667, "is_reserved": 0, "fusion_lon": 0.0}, {"rental_uris": {"ios": "https://dc.lft.to/lastmile_qr_scan", "android": "https://dc.lft.to/lastmile_qr_scan"}, "fusion_lat": 0.0, "name": "f303a220b7e3cb6d2713bb3fe7c05cf9", "bike_id": "f303a220b7e3cb6d2713bb3fe7c05cf9", "is_disabled": 0, "type": "electric_scooter", "lat": 38.89887, "lon": -76.93175866666667, "is_reserved": 0, "fusion_lon": 0.0}, {"rental_uris": {"ios": "https://dc.lft.to/lastmile_qr_scan", "android": "https://dc.lft.to/lastmile_qr_scan"}, "fusion_lat": 0.0, "name": "b5b3ec03238c4dfc71b22f0cd403e0f3", "bike_id": "b5b3ec03238c4dfc71b22f0cd403e0f3", "is_disabled": 0, "type": "electric_scooter", "lat": 38.91994583333334, "lon": -77.0328695, "is_reserved": 0, "fusion_lon": 0.0}, {"rental_uris": {"ios": "https://dc.lft.to/lastmile_qr_scan", "android": "https://dc.lft.to/lastmile_qr_scan"}, "fusion_lat": 0.0, "name": "3ba936123b505b1f50abcb62258fc8e3", "bike_id": "3ba936123b505b1f50abcb62258fc8e3", "is_disabled": 0, "type": "electric_scooter", "lat": 38.933658666666666, "lon": -77.05721483333333, "is_reserved": 0, "fusion_lon": 0.0}, {"rental_uris": {"ios": "https://dc.lft.to/lastmile_qr_scan", "android": "https://dc.lft.to/lastmile_qr_scan"}, "fusion_lat": 0.0, "name": "71c22b6e792b3ce64c91981a68066deb", "bike_id": "71c22b6e792b3ce64c91981a68066deb", "is_disabled": 0, "type": "electric_scooter", "lat": 38.9298025, "lon": -77.03771, "is_reserved": 0, "fusion_lon": 0.0}, {"rental_uris": {"ios": "https://dc.lft.to/lastmile_qr_scan", "android": "https://dc.lft.to/lastmile_qr_scan"}, "fusion_lat": 0.0, "name": "7d7306a31482747b02fc2eace4a3d491", "bike_id": "7d7306a31482747b02fc2eace4a3d491", "is_disabled": 0, "type": "electric_scooter", "lat": 38.927514, "lon": -77.03279966666666, "is_reserved": 0, "fusion_lon": 0.0}, {"rental_uris": {"ios": "https://dc.lft.to/lastmile_qr_scan", "android": "https://dc.lft.to/lastmile_qr_scan"}, "fusion_lat": 0.0, "name": "e491e9162072f122c3cbfdfaa4ac5bf9", "bike_id": "e491e9162072f122c3cbfdfaa4ac5bf9", "is_disabled": 0, "type": "electric_scooter", "lat": 38.92056783333334, "lon": -77.04183616666667, "is_reserved": 0, "fusion_lon": 0.0}, {"rental_uris": {"ios": "https://dc.lft.to/lastmile_qr_scan", "android": "https://dc.lft.to/lastmile_qr_scan"}, "fusion_lat": 0.0, "name": "a78922fad719697e3cb4f31dfe16a617", "bike_id": "a78922fad719697e3cb4f31dfe16a617", "is_disabled": 0, "type": "electric_scooter", "lat": 38.887171, "lon": -77.017791, "is_reserved": 0, "fusion_lon": 0.0}, {"rental_uris": {"ios": "https://dc.lft.to/lastmile_qr_scan", "android": "https://dc.lft.to/lastmile_qr_scan"}, "fusion_lat": 0.0, "name": "b8d0becbab5d2c35ddcb15ba08409856", "bike_id": "b8d0becbab5d2c35ddcb15ba08409856", "is_disabled": 0, "type": "electric_scooter", "lat": 38.92459866666667, "lon": -77.03385516666667, "is_reserved": 0, "fusion_lon": 0.0}, {"rental_uris": {"ios": "https://dc.lft.to/lastmile_qr_scan", "android": "https://dc.lft.to/lastmile_qr_scan"}, "fusion_lat": 0.0, "name": "6146bc184b240a8658e63ee8f45d2caa", "bike_id": "6146bc184b240a8658e63ee8f45d2caa", "is_disabled": 0, "type": "electric_scooter", "lat": 38.910494166666666, "lon": -77.04343416666667, "is_reserved": 0, "fusion_lon": 0.0}, {"rental_uris": {"ios": "https://dc.lft.to/lastmile_qr_scan", "android": "https://dc.lft.to/lastmile_qr_scan"}, "fusion_lat": 0.0, "name": "b8c1c67bb8eea3abfdfea356913022b7", "bike_id": "b8c1c67bb8eea3abfdfea356913022b7", "is_disabled": 0, "type": "electric_scooter", "lat": 38.908521, "lon": -76.99805433333333, "is_reserved": 0, "fusion_lon": 0.0}, {"rental_uris": {"ios": "https://dc.lft.to/lastmile_qr_scan", "android": "https://dc.lft.to/lastmile_qr_scan"}, "fusion_lat": 0.0, "name": "cd2e3b66281ce689d399548cca851a42", "bike_id": "cd2e3b66281ce689d399548cca851a42", "is_disabled": 0, "type": "electric_bike", "lat": 38.8133505, "lon": -77.05088583333334, "is_reserved": 0, "fusion_lon": 0.0}, {"rental_uris": {"ios": "https://dc.lft.to/lastmile_qr_scan", "android": "https://dc.lft.to/lastmile_qr_scan"}, "fusion_lat": 0.0, "name": "d9794b708dd38d133f3de54a5e546f36", "bike_id": "d9794b708dd38d133f3de54a5e546f36", "is_disabled": 0, "type": "electric_scooter", "lat": 38.91813833333333, "lon": -77.03218216666667, "is_reserved": 0, "fusion_lon": 0.0}, {"rental_uris": {"ios": "https://dc.lft.to/lastmile_qr_scan", "android": "https://dc.lft.to/lastmile_qr_scan"}, "fusion_lat": 0.0, "name": "9b670de187b9ee7b608ecd458fff8b08", "bike_id": "9b670de187b9ee7b608ecd458fff8b08", "is_disabled": 0, "type": "electric_scooter", "lat": 38.8903095, "lon": -76.95128183333334, "is_reserved": 0, "fusion_lon": 0.0}, {"rental_uris": {"ios": "https://dc.lft.to/lastmile_qr_scan", "android": "https://dc.lft.to/lastmile_qr_scan"}, "fusion_lat": 0.0, "name": "15ede0f8db318390d3ef2142d4e3d1dd", "bike_id": "15ede0f8db318390d3ef2142d4e3d1dd", "is_disabled": 0, "type": "electric_bike", "lat": 38.84805716666666, "lon": -77.07513966666667, "is_reserved": 0, "fusion_lon": 0.0}, {"rental_uris": {"ios": "https://dc.lft.to/lastmile_qr_scan", "android": "https://dc.lft.to/lastmile_qr_scan"}, "fusion_lat": 0.0, "name": "59a4cde23727d2f122e05e58b00b463f", "bike_id": "59a4cde23727d2f122e05e58b00b463f", "is_disabled": 0, "type": "electric_scooter", "lat": 38.927477833333334, "lon": -77.03416316666667, "is_reserved": 0, "fusion_lon": 0.0}, {"rental_uris": {"ios": "https://dc.lft.to/lastmile_qr_scan", "android": "https://dc.lft.to/lastmile_qr_scan"}, "fusion_lat": 0.0, "name": "3f4c87522470b4f18df2873cd42b712d", "bike_id": "3f4c87522470b4f18df2873cd42b712d", "is_disabled": 0, "type": "electric_scooter", "lat": 38.92841833333333, "lon": -76.99363883333334, "is_reserved": 0, "fusion_lon": 0.0}, {"rental_uris": {"ios": "https://dc.lft.to/lastmile_qr_scan", "android": "https://dc.lft.to/lastmile_qr_scan"}, "fusion_lat": 0.0, "name": "c8411c1db99e932a8351f0b5c9f57d71", "bike_id": "c8411c1db99e932a8351f0b5c9f57d71", "is_disabled": 0, "type": "electric_scooter", "lat": 38.88733666666667, "lon": -77.03217916666667, "is_reserved": 0, "fusion_lon": 0.0}, {"rental_uris": {"ios": "https://dc.lft.to/lastmile_qr_scan", "android": "https://dc.lft.to/lastmile_qr_scan"}, "fusion_lat": 0.0, "name": "6dfee8659294c9ca5f40c4aef1186c05", "bike_id": "6dfee8659294c9ca5f40c4aef1186c05", "is_disabled": 0, "type": "electric_scooter", "lat": 38.901273833333335, "lon": -77.04999033333333, "is_reserved": 0, "fusion_lon": 0.0}, {"rental_uris": {"ios": "https://dc.lft.to/lastmile_qr_scan", "android": "https://dc.lft.to/lastmile_qr_scan"}, "fusion_lat": 0.0, "name": "50b9bab2639dbd111de9836988c61a60", "bike_id": "50b9bab2639dbd111de9836988c61a60", "is_disabled": 0, "type": "electric_scooter", "lat": 38.892225333333336, "lon": -77.0321485, "is_reserved": 0, "fusion_lon": 0.0}, {"rental_uris": {"ios": "https://dc.lft.to/lastmile_qr_scan", "android": "https://dc.lft.to/lastmile_qr_scan"}, "fusion_lat": 0.0, "name": "946ed37eae844dd92b371882c0410050", "bike_id": "946ed37eae844dd92b371882c0410050", "is_disabled": 0, "type": "electric_scooter", "lat": 38.89221766666667, "lon": -77.03217533333333, "is_reserved": 0, "fusion_lon": 0.0}, {"rental_uris": {"ios": "https://dc.lft.to/lastmile_qr_scan", "android": "https://dc.lft.to/lastmile_qr_scan"}, "fusion_lat": 0.0, "name": "0ae55e469669776988fad97d7e87d7d7", "bike_id": "0ae55e469669776988fad97d7e87d7d7", "is_disabled": 0, "type": "electric_scooter", "lat": 38.938795, "lon": -77.03283633333334, "is_reserved": 0, "fusion_lon": 0.0}, {"rental_uris": {"ios": "https://dc.lft.to/lastmile_qr_scan", "android": "https://dc.lft.to/lastmile_qr_scan"}, "fusion_lat": 0.0, "name": "5279b75b574c34e720aae67dbada7232", "bike_id": "5279b75b574c34e720aae67dbada7232", "is_disabled": 0, "type": "electric_scooter", "lat": 38.918689666666666, "lon": -77.03202833333333, "is_reserved": 0, "fusion_lon": 0.0}, {"rental_uris": {"ios": "https://dc.lft.to/lastmile_qr_scan", "android": "https://dc.lft.to/lastmile_qr_scan"}, "fusion_lat": 0.0, "name": "23c4fca52ee9220fa7b653328d3243a4", "bike_id": "23c4fca52ee9220fa7b653328d3243a4", "is_disabled": 0, "type": "electric_scooter", "lat": 38.90890816666667, "lon": -76.9963795, "is_reserved": 0, "fusion_lon": 0.0}, {"rental_uris": {"ios": "https://dc.lft.to/lastmile_qr_scan", "android": "https://dc.lft.to/lastmile_qr_scan"}, "fusion_lat": 0.0, "name": "a5cde83056ec57b8611b57b828bfc095", "bike_id": "a5cde83056ec57b8611b57b828bfc095", "is_disabled": 0, "type": "electric_scooter", "lat": 38.905638333333336, "lon": -77.041928, "is_reserved": 0, "fusion_lon": 0.0}, {"rental_uris": {"ios": "https://dc.lft.to/lastmile_qr_scan", "android": "https://dc.lft.to/lastmile_qr_scan"}, "fusion_lat": 0.0, "name": "b31c430da3357e473395e4dccd0c52db", "bike_id": "b31c430da3357e473395e4dccd0c52db", "is_disabled": 0, "type": "electric_scooter", "lat": 38.893277833333336, "lon": -77.055823, "is_reserved": 0, "fusion_lon": 0.0}, {"rental_uris": {"ios": "https://dc.lft.to/lastmile_qr_scan", "android": "https://dc.lft.to/lastmile_qr_scan"}, "fusion_lat": 0.0, "name": "7d31e50a6380b3f1ede5536b2cf1d733", "bike_id": "7d31e50a6380b3f1ede5536b2cf1d733", "is_disabled": 0, "type": "electric_scooter", "lat": 38.914094, "lon": -77.04563816666666, "is_reserved": 0, "fusion_lon": 0.0}, {"rental_uris": {"ios": "https://dc.lft.to/lastmile_qr_scan", "android": "https://dc.lft.to/lastmile_qr_scan"}, "fusion_lat": 0.0, "name": "d42fa63b31be6950d2e36fe0c1159b3e", "bike_id": "d42fa63b31be6950d2e36fe0c1159b3e", "is_disabled": 0, "type": "electric_scooter", "lat": 38.882371666666664, "lon": -76.99087116666666, "is_reserved": 0, "fusion_lon": 0.0}, {"rental_uris": {"ios": "https://dc.lft.to/lastmile_qr_scan", "android": "https://dc.lft.to/lastmile_qr_scan"}, "fusion_lat": 0.0, "name": "52761029b0748cff7ee95325a23b8dd8", "bike_id": "52761029b0748cff7ee95325a23b8dd8", "is_disabled": 0, "type": "electric_scooter", "lat": 38.888665833333334, "lon": -76.97713016666667, "is_reserved": 0, "fusion_lon": 0.0}, {"rental_uris": {"ios": "https://dc.lft.to/lastmile_qr_scan", "android": "https://dc.lft.to/lastmile_qr_scan"}, "fusion_lat": 0.0, "name": "fd18efd29db87f724e848e81028052cb", "bike_id": "fd18efd29db87f724e848e81028052cb", "is_disabled": 0, "type": "electric_scooter", "lat": 38.905420166666666, "lon": -77.0418835, "is_reserved": 0, "fusion_lon": 0.0}, {"rental_uris": {"ios": "https://dc.lft.to/lastmile_qr_scan", "android": "https://dc.lft.to/lastmile_qr_scan"}, "fusion_lat": 0.0, "name": "2db8439808ecc20de4dd83f299cf543d", "bike_id": "2db8439808ecc20de4dd83f299cf543d", "is_disabled": 0, "type": "electric_scooter", "lat": 38.909645, "lon": -77.04617333333333, "is_reserved": 0, "fusion_lon": 0.0}, {"rental_uris": {"ios": "https://dc.lft.to/lastmile_qr_scan", "android": "https://dc.lft.to/lastmile_qr_scan"}, "fusion_lat": 0.0, "name": "5899c90cb07316b0285c01c70b95314f", "bike_id": "5899c90cb07316b0285c01c70b95314f", "is_disabled": 0, "type": "electric_scooter", "lat": 38.92765283333333, "lon": -77.02850516666666, "is_reserved": 0, "fusion_lon": 0.0}, {"rental_uris": {"ios": "https://dc.lft.to/lastmile_qr_scan", "android": "https://dc.lft.to/lastmile_qr_scan"}, "fusion_lat": 0.0, "name": "6fdafd363847dfded7106fc25d7840c5", "bike_id": "6fdafd363847dfded7106fc25d7840c5", "is_disabled": 0, "type": "electric_scooter", "lat": 38.912250666666665, "lon": -77.0415765, "is_reserved": 0, "fusion_lon": 0.0}, {"rental_uris": {"ios": "https://dc.lft.to/lastmile_qr_scan", "android": "https://dc.lft.to/lastmile_qr_scan"}, "fusion_lat": 0.0, "name": "32bc2d13fe2f1394331aebf7fc87382b", "bike_id": "32bc2d13fe2f1394331aebf7fc87382b", "is_disabled": 0, "type": "electric_scooter", "lat": 38.90169866666667, "lon": -77.0487305, "is_reserved": 0, "fusion_lon": 0.0}, {"rental_uris": {"ios": "https://dc.lft.to/lastmile_qr_scan", "android": "https://dc.lft.to/lastmile_qr_scan"}, "fusion_lat": 0.0, "name": "728c752b3c59ba7b0bfd9116cb9ec890", "bike_id": "728c752b3c59ba7b0bfd9116cb9ec890", "is_disabled": 0, "type": "electric_scooter", "lat": 38.915612833333334, "lon": -77.03146966666667, "is_reserved": 0, "fusion_lon": 0.0}, {"rental_uris": {"ios": "https://dc.lft.to/lastmile_qr_scan", "android": "https://dc.lft.to/lastmile_qr_scan"}, "fusion_lat": 0.0, "name": "c49466cc2c1c56a679719bc916ea9f84", "bike_id": "c49466cc2c1c56a679719bc916ea9f84", "is_disabled": 0, "type": "electric_scooter", "lat": 38.90812316666667, "lon": -77.043579, "is_reserved": 0, "fusion_lon": 0.0}, {"rental_uris": {"ios": "https://dc.lft.to/lastmile_qr_scan", "android": "https://dc.lft.to/lastmile_qr_scan"},