{"data": {"bikes": [{"bike_id": "cdfde3f42be4e57d60038b899f3c373c", "type": "electric_bike", "is_disabled": 0, "lat": 38.942554333333334, "rental_uris": {"ios": "https://dc.lft.to/lastmile_qr_scan", "android": "https://dc.lft.to/lastmile_qr_scan"}, "is_reserved": 0, "fusion_lon": 0.0, "fusion_lat": 0.0, "lon": -76.99073016666667, "name": "cdfde3f42be4e57d60038b899f3c373c"}, {"bike_id": "0fb0833ae18d0b21d8137afd8865f49c", "type": "electric_scooter", "is_disabled": 0, "lat": 38.898823, "rental_uris": {"ios": "https://dc.lft.to/lastmile_qr_scan", "android": "https://dc.lft.to/lastmile_qr_scan"}, "is_reserved": 0, "fusion_lon": 0.0, "fusion_lat": 0.0, "lon": -76.93174633333334, "name": "0fb0833ae18d0b21d8137afd8865f49c"}, {"bike_id": "4b00593d8dc5faa7c64f87db99258e6b", "type": "electric_bike", "is_disabled": 0, "lat": 38.848396666666666, "rental_uris": {"ios": "https://dc.lft.to/lastmile_qr_scan", "android": "https://dc.lft.to/lastmile_qr_scan"}, "is_reserved": 0, "fusion_lon": 0.0, "fusion_lat": 0.0, "lon": -77.0791985, "name": "4b00593d8dc5faa7c64f87db99258e6b"}, {"bike_id": "9fe452e32f0e5a19a24babde77051e44", "type": "electric_scooter", "is_disabled": 0, "lat": 38.88186, "rental_uris": {"ios": "https://dc.lft.to/lastmile_qr_scan", "android": "https://dc.lft.to/lastmile_qr_scan"}, "is_reserved": 0, "fusion_lon": 0.0, "fusion_lat": 0.0, "lon": -77.02090833333334, "name": "9fe452e32f0e5a19a24babde77051e44"}, {"bike_id": "40c4d6ef5d76c5dc3e252a2271c202a8", "type": "electric_scooter", "is_disabled": 0, "lat": 38.91551116666667, "rental_uris": {"ios": "https://dc.lft.to/lastmile_qr_scan", "android": "https://dc.lft.to/lastmile_qr_scan"}, "is_reserved": 0, "fusion_lon": 0.0, "fusion_lat": 0.0, "lon": -77.02414283333333, "name": "40c4d6ef5d76c5dc3e252a2271c202a8"}, {"bike_id": "62c3c5987d6acfc26e6693d08902a7bc", "type": "electric_scooter", "is_disabled": 0, "lat": 38.91543683333333, "rental_uris": {"ios": "https://dc.lft.to/lastmile_qr_scan", "android": "https://dc.lft.to/lastmile_qr_scan"}, "is_reserved": 0, "fusion_lon": 0.0, "fusion_lat": 0.0, "lon": -77.038603, "name": "62c3c5987d6acfc26e6693d08902a7bc"}, {"bike_id": "a6d894379c751f09a206800efb952dad", "type": "electric_scooter", "is_disabled": 0, "lat": 38.90263216666666, "rental_uris": {"ios": "https://dc.lft.to/lastmile_qr_scan", "android": "https://dc.lft.to/lastmile_qr_scan"}, "is_reserved": 0, "fusion_lon": 0.0, "fusion_lat": 0.0, "lon": -77.01748766666667, "name": "a6d894379c751f09a206800efb952dad"}, {"bike_id": "f20e3f3213e8b3c75476f55dc1304406", "type": "electric_scooter", "is_disabled": 0, "lat": 38.95111083333333, "rental_uris": {"ios": "https://dc.lft.to/lastmile_qr_scan", "android": "https://dc.lft.to/lastmile_qr_scan"}, "is_reserved": 0, "fusion_lon": 0.0, "fusion_lat": 0.0, "lon": -77.0143455, "name": "f20e3f3213e8b3c75476f55dc1304406"}, {"bike_id": "e7f812ef248b06c28366e8b8995277c2", "type": "electric_scooter", "is_disabled": 0, "lat": 38.866710833333336, "rental_uris": {"ios": "https://dc.lft.to/lastmile_qr_scan", "android": "https://dc.lft.to/lastmile_qr_scan"}, "is_reserved": 0, "fusion_lon": 0.0, "fusion_lat": 0.0, "lon": -76.9854595, "name": "e7f812ef248b06c28366e8b8995277c2"}, {"bike_id": "786195dabfcd085e3d7012a2bd5179cf", "type": "electric_scooter", "is_disabled": 0, "lat": 38.9142055, "rental_uris": {"ios": "https://dc.lft.to/lastmile_qr_scan", "android": "https://dc.lft.to/lastmile_qr_scan"}, "is_reserved": 0, "fusion_lon": 0.0, "fusion_lat": 0.0, "lon": -77.01985483333333, "name": "786195dabfcd085e3d7012a2bd5179cf"}, {"bike_id": "316cab73d9048861ce7dc17b83e51421", "type": "electric_scooter", "is_disabled": 0, "lat": 38.920462666666666, "rental_uris": {"ios": "https://dc.lft.to/lastmile_qr_scan", "android": "https://dc.lft.to/lastmile_qr_scan"}, "is_reserved": 0, "fusion_lon": 0.0, "fusion_lat": 0.0, "lon": -77.04186683333333, "name": "316cab73d9048861ce7dc17b83e51421"}, {"bike_id": "755b507a940b376e25813528c0484493", "type": "electric_scooter", "is_disabled": 0, "lat": 38.920033, "rental_uris": {"ios": "https://dc.lft.to/lastmile_qr_scan", "android": "https://dc.lft.to/lastmile_qr_scan"}, "is_reserved": 0, "fusion_lon": 0.0, "fusion_lat": 0.0, "lon": -77.0819275, "name": "755b507a940b376e25813528c0484493"}, {"bike_id": "b6df846d16134fc0ea9636dfa5c66c48", "type": "electric_scooter", "is_disabled": 0, "lat": 38.885206333333336, "rental_uris": {"ios": "https://dc.lft.to/lastmile_qr_scan", "android": "https://dc.lft.to/lastmile_qr_scan"}, "is_reserved": 0, "fusion_lon": 0.0, "fusion_lat": 0.0, "lon": -76.97709233333333, "name": "b6df846d16134fc0ea9636dfa5c66c48"}, {"bike_id": "8874aa021fdb3b577a21610c2ac00b66", "type": "electric_scooter", "is_disabled": 0, "lat": 38.908261833333334, "rental_uris": {"ios": "https://dc.lft.to/lastmile_qr_scan", "android": "https://dc.lft.to/lastmile_qr_scan"}, "is_reserved": 0, "fusion_lon": 0.0, "fusion_lat": 0.0, "lon": -77.03207033333334, "name": "8874aa021fdb3b577a21610c2ac00b66"}, {"bike_id": "65479a8edfa93c5865d8a05dce0e636a", "type": "electric_scooter", "is_disabled": 0, "lat": 38.913277666666666, "rental_uris": {"ios": "https://dc.lft.to/lastmile_qr_scan", "android": "https://dc.lft.to/lastmile_qr_scan"}, "is_reserved": 0, "fusion_lon": 0.0, "fusion_lat": 0.0, "lon": -77.03187116666666, "name": "65479a8edfa93c5865d8a05dce0e636a"}, {"bike_id": "673a476e4ae2861a665d932595c1961c", "type": "electric_scooter", "is_disabled": 0, "lat": 38.943295, "rental_uris": {"ios": "https://dc.lft.to/lastmile_qr_scan", "android": "https://dc.lft.to/lastmile_qr_scan"}, "is_reserved": 0, "fusion_lon": 0.0, "fusion_lat": 0.0, "lon": -77.01483916666666, "name": "673a476e4ae2861a665d932595c1961c"}, {"bike_id": "08d2653fa23a6eeb5d5a5e1a16b23cdd", "type": "electric_scooter", "is_disabled": 0, "lat": 38.931448333333336, "rental_uris": {"ios": "https://dc.lft.to/lastmile_qr_scan", "android": "https://dc.lft.to/lastmile_qr_scan"}, "is_reserved": 0, "fusion_lon": 0.0, "fusion_lat": 0.0, "lon": -77.033524, "name": "08d2653fa23a6eeb5d5a5e1a16b23cdd"}, {"bike_id": "6645c9da00bbcf14e839039deafcefed", "type": "electric_scooter", "is_disabled": 0, "lat": 38.9197015, "rental_uris": {"ios": "https://dc.lft.to/lastmile_qr_scan", "android": "https://dc.lft.to/lastmile_qr_scan"}, "is_reserved": 0, "fusion_lon": 0.0, "fusion_lat": 0.0, "lon": -77.07107466666666, "name": "6645c9da00bbcf14e839039deafcefed"}, {"bike_id": "a89d9eaa95b4f8557d46f44ea73dd58f", "type": "electric_scooter", "is_disabled": 0, "lat": 38.86505533333333, "rental_uris": {"ios": "https://dc.lft.to/lastmile_qr_scan", "android": "https://dc.lft.to/lastmile_qr_scan"}, "is_reserved": 0, "fusion_lon": 0.0, "fusion_lat": 0.0, "lon": -76.99001816666667, "name": "a89d9eaa95b4f8557d46f44ea73dd58f"}, {"bike_id": "0d7f344f03206c1cf2b607e4bdfdde73", "type": "electric_scooter", "is_disabled": 0, "lat": 38.92326, "rental_uris": {"ios": "https://dc.lft.to/lastmile_qr_scan", "android": "https://dc.lft.to/lastmile_qr_scan"}, "is_reserved": 0, "fusion_lon": 0.0, "fusion_lat": 0.0, "lon": -77.03677133333333, "name": "0d7f344f03206c1cf2b607e4bdfdde73"}, {"bike_id": "0d985a6051df2aa4f3f6e55f1edfb011", "type": "electric_scooter", "is_disabled": 0, "lat": 38.95731883333333, "rental_uris": {"ios": "https://dc.lft.to/lastmile_qr_scan", "android": "https://dc.lft.to/lastmile_qr_scan"}, "is_reserved": 0, "fusion_lon": 0.0, "fusion_lat": 0.0, "lon": -77.028046, "name": "0d985a6051df2aa4f3f6e55f1edfb011"}, {"bike_id": "ab24cf7c3b2c4c24b3be50450a4d5838", "type": "electric_scooter", "is_disabled": 0, "lat": 38.9227525, "rental_uris": {"ios": "https://dc.lft.to/lastmile_qr_scan", "android": "https://dc.lft.to/lastmile_qr_scan"}, "is_reserved": 0, "fusion_lon": 0.0, "fusion_lat": 0.0, "lon": -77.04235366666667, "name": "ab24cf7c3b2c4c24b3be50450a4d5838"}, {"bike_id": "ae8978d3c527e1b363d984f19df133de", "type": "electric_scooter", "is_disabled": 0, "lat": 38.900454, "rental_uris": {"ios": "https://dc.lft.to/lastmile_qr_scan", "android": "https://dc.lft.to/lastmile_qr_scan"}, "is_reserved": 0, "fusion_lon": 0.0, "fusion_lat": 0.0, "lon": -76.99160816666667, "name": "ae8978d3c527e1b363d984f19df133de"}, {"bike_id": "d9139fe1433944ea48c1d70a986a22b5", "type": "electric_scooter", "is_disabled": 0, "lat": 38.86662166666667, "rental_uris": {"ios": "https://dc.lft.to/lastmile_qr_scan", "android": "https://dc.lft.to/lastmile_qr_scan"}, "is_reserved": 0, "fusion_lon": 0.0, "fusion_lat": 0.0, "lon": -77.01042766666667, "name": "d9139fe1433944ea48c1d70a986a22b5"}, {"bike_id": "f1809e732a236a4d60532e9f4b144db3", "type": "electric_scooter", "is_disabled": 0, "lat": 38.915463833333334, "rental_uris": {"ios": "https://dc.lft.to/lastmile_qr_scan", "android": "https://dc.lft.to/lastmile_qr_scan"}, "is_reserved": 0, "fusion_lon": 0.0, "fusion_lat": 0.0, "lon": -77.02565483333333, "name": "f1809e732a236a4d60532e9f4b144db3"}, {"bike_id": "1bf1a338bd3f744fd5abe6a5196280f7", "type": "electric_scooter", "is_disabled": 0, "lat": 38.91685533333333, "rental_uris": {"ios": "https://dc.lft.to/lastmile_qr_scan", "android": "https://dc.lft.to/lastmile_qr_scan"}, "is_reserved": 0, "fusion_lon": 0.0, "fusion_lat": 0.0, "lon": -77.03861683333334, "name": "1bf1a338bd3f744fd5abe6a5196280f7"}, {"bike_id": "def5aaea1325e08cebbe830c9f0faeb9", "type": "electric_bike", "is_disabled": 0, "lat": 38.853555, "rental_uris": {"ios": "https://dc.lft.to/lastmile_qr_scan", "android": "https://dc.lft.to/lastmile_qr_scan"}, "is_reserved": 0, "fusion_lon": 0.0, "fusion_lat": 0.0, "lon": -77.086866, "name": "def5aaea1325e08cebbe830c9f0faeb9"}, {"bike_id": "ead3c0efe3924549582fab7b5230b798", "type": "electric_bike", "is_disabled": 0, "lat": 38.957565333333335, "rental_uris": {"ios": "https://dc.lft.to/lastmile_qr_scan", "android": "https://dc.lft.to/lastmile_qr_scan"}, "is_reserved": 0, "fusion_lon": 0.0, "fusion_lat": 0.0, "lon": -77.02057933333333, "name": "ead3c0efe3924549582fab7b5230b798"}, {"bike_id": "2c73e1fb67af5a3f34c4e1dd939be415", "type": "electric_scooter", "is_disabled": 0, "lat": 38.922389333333335, "rental_uris": {"ios": "https://dc.lft.to/lastmile_qr_scan", "android": "https://dc.lft.to/lastmile_qr_scan"}, "is_reserved": 0, "fusion_lon": 0.0, "fusion_lat": 0.0, "lon": -77.0298565, "name": "2c73e1fb67af5a3f34c4e1dd939be415"}, {"bike_id": "07a5a0f3ad326ba1c17ac61d194dd2b8", "type": "electric_scooter", "is_disabled": 0, "lat": 38.89227616666667, "rental_uris": {"ios": "https://dc.lft.to/lastmile_qr_scan", "android": "https://dc.lft.to/lastmile_qr_scan"}, "is_reserved": 0, "fusion_lon": 0.0, "fusion_lat": 0.0, "lon": -77.01374866666667, "name": "07a5a0f3ad326ba1c17ac61d194dd2b8"}, {"bike_id": "7b8cc3a74c4f181f2afd2fb75ed7d3d9", "type": "electric_scooter", "is_disabled": 0, "lat": 38.92326833333333, "rental_uris": {"ios": "https://dc.lft.to/lastmile_qr_scan", "android": "https://dc.lft.to/lastmile_qr_scan"}, "is_reserved": 0, "fusion_lon": 0.0, "fusion_lat": 0.0, "lon": -77.03681933333333, "name": "7b8cc3a74c4f181f2afd2fb75ed7d3d9"}, {"bike_id": "6578d950bef7c40c8d3099467a1303c0", "type": "electric_scooter", "is_disabled": 0, "lat": 38.91599316666667, "rental_uris": {"ios": "https://dc.lft.to/lastmile_qr_scan", "android": "https://dc.lft.to/lastmile_qr_scan"}, "is_reserved": 0, "fusion_lon": 0.0, "fusion_lat": 0.0, "lon": -77.03987783333334, "name": "6578d950bef7c40c8d3099467a1303c0"}, {"bike_id": "8e055cb361258308d6bf56d83f360db8", "type": "electric_scooter", "is_disabled": 0, "lat": 38.920003, "rental_uris": {"ios": "https://dc.lft.to/lastmile_qr_scan", "android": "https://dc.lft.to/lastmile_qr_scan"}, "is_reserved": 0, "fusion_lon": 0.0, "fusion_lat": 0.0, "lon": -77.01829516666666, "name": "8e055cb361258308d6bf56d83f360db8"}, {"bike_id": "9b619b2eca55a37889e44a1c09061b00", "type": "electric_scooter", "is_disabled": 0, "lat": 38.903773, "rental_uris": {"ios": "https://dc.lft.to/lastmile_qr_scan", "android": "https://dc.lft.to/lastmile_qr_scan"}, "is_reserved": 0, "fusion_lon": 0.0, "fusion_lat": 0.0, "lon": -77.048416, "name": "9b619b2eca55a37889e44a1c09061b00"}, {"bike_id": "2b40c4a832f6f91ef08892b5fe712a19", "type": "electric_scooter", "is_disabled": 0, "lat": 38.93273083333333, "rental_uris": {"ios": "https://dc.lft.to/lastmile_qr_scan", "android": "https://dc.lft.to/lastmile_qr_scan"}, "is_reserved": 0, "fusion_lon": 0.0, "fusion_lat": 0.0, "lon": -77.03095216666667, "name": "2b40c4a832f6f91ef08892b5fe712a19"}, {"bike_id": "84bc9441c7201c4b4b48354c8833014d", "type": "electric_scooter", "is_disabled": 0, "lat": 38.899686333333335, "rental_uris": {"ios": "https://dc.lft.to/lastmile_qr_scan", "android": "https://dc.lft.to/lastmile_qr_scan"}, "is_reserved": 0, "fusion_lon": 0.0, "fusion_lat": 0.0, "lon": -76.98304266666666, "name": "84bc9441c7201c4b4b48354c8833014d"}, {"bike_id": "f0213b4ceb4aa23f2a4e21ce8dc58de7", "type": "electric_bike", "is_disabled": 0, "lat": 38.943628833333335, "rental_uris": {"ios": "https://dc.lft.to/lastmile_qr_scan", "android": "https://dc.lft.to/lastmile_qr_scan"}, "is_reserved": 0, "fusion_lon": 0.0, "fusion_lat": 0.0, "lon": -77.00350516666667, "name": "f0213b4ceb4aa23f2a4e21ce8dc58de7"}, {"bike_id": "c7326e2582a41a47bd0788cea1ddf0c0", "type": "electric_scooter", "is_disabled": 0, "lat": 38.88716766666667, "rental_uris": {"ios": "https://dc.lft.to/lastmile_qr_scan", "android": "https://dc.lft.to/lastmile_qr_scan"}, "is_reserved": 0, "fusion_lon": 0.0, "fusion_lat": 0.0, "lon": -76.996301, "name": "c7326e2582a41a47bd0788cea1ddf0c0"}, {"bike_id": "42a75f06bf062380cad7d5eb886e86f0", "type": "electric_scooter", "is_disabled": 0, "lat": 38.8667955, "rental_uris": {"ios": "https://dc.lft.to/lastmile_qr_scan", "android": "https://dc.lft.to/lastmile_qr_scan"}, "is_reserved": 0, "fusion_lon": 0.0, "fusion_lat": 0.0, "lon": -76.9856945, "name": "42a75f06bf062380cad7d5eb886e86f0"}, {"bike_id": "f21de1d03cf03a1d7b95dba62524349f", "type": "electric_scooter", "is_disabled": 0, "lat": 38.8863915, "rental_uris": {"ios": "https://dc.lft.to/lastmile_qr_scan", "android": "https://dc.lft.to/lastmile_qr_scan"}, "is_reserved": 0, "fusion_lon": 0.0, "fusion_lat": 0.0, "lon": -77.013715, "name": "f21de1d03cf03a1d7b95dba62524349f"}, {"bike_id": "a15549b2c86898a6d3dc4f59ca7a1258", "type": "electric_scooter", "is_disabled": 0, "lat": 38.897669, "rental_uris": {"ios": "https://dc.lft.to/lastmile_qr_scan", "android": "https://dc.lft.to/lastmile_qr_scan"}, "is_reserved": 0, "fusion_lon": 0.0, "fusion_lat": 0.0, "lon": -77.03245133333333, "name": "a15549b2c86898a6d3dc4f59ca7a1258"}, {"bike_id": "e1b665f4518d738dfb1c00f933bc3ad5", "type": "electric_scooter", "is_disabled": 0, "lat": 38.934966, "rental_uris": {"ios": "https://dc.lft.to/lastmile_qr_scan", "android": "https://dc.lft.to/lastmile_qr_scan"}, "is_reserved": 0, "fusion_lon": 0.0, "fusion_lat": 0.0, "lon": -77.02550683333334, "name": "e1b665f4518d738dfb1c00f933bc3ad5"}, {"bike_id": "9adf6441a52a73adb599847d83d430f4", "type": "electric_scooter", "is_disabled": 0, "lat": 38.89479866666667, "rental_uris": {"ios": "https://dc.lft.to/lastmile_qr_scan", "android": "https://dc.lft.to/lastmile_qr_scan"}, "is_reserved": 0, "fusion_lon": 0.0, "fusion_lat": 0.0, "lon": -76.98776733333334, "name": "9adf6441a52a73adb599847d83d430f4"}, {"bike_id": "6ce2b2e0b9afe97b1001a0a2aef8d924", "type": "electric_scooter", "is_disabled": 0, "lat": 38.858106666666664, "rental_uris": {"ios": "https://dc.lft.to/lastmile_qr_scan", "android": "https://dc.lft.to/lastmile_qr_scan"}, "is_reserved": 0, "fusion_lon": 0.0, "fusion_lat": 0.0, "lon": -76.98922616666667, "name": "6ce2b2e0b9afe97b1001a0a2aef8d924"}, {"bike_id": "976295e3aea2bc2595a8511c2197f2bf", "type": "electric_scooter", "is_disabled": 0, "lat": 38.9078605, "rental_uris": {"ios": "https://dc.lft.to/lastmile_qr_scan", "android": "https://dc.lft.to/lastmile_qr_scan"}, "is_reserved": 0, "fusion_lon": 0.0, "fusion_lat": 0.0, "lon": -76.99430566666666, "name": "976295e3aea2bc2595a8511c2197f2bf"}, {"bike_id": "9edf5bc126b52837bf1812f8229593e9", "type": "electric_scooter", "is_disabled": 0, "lat": 38.89754383333333, "rental_uris": {"ios": "https://dc.lft.to/lastmile_qr_scan", "android": "https://dc.lft.to/lastmile_qr_scan"}, "is_reserved": 0, "fusion_lon": 0.0, "fusion_lat": 0.0, "lon": -77.0214785, "name": "9edf5bc126b52837bf1812f8229593e9"}, {"bike_id": "fa4a603bf3b8803cbd945adc536b7bde", "type": "electric_scooter", "is_disabled": 0, "lat": 38.86625166666666, "rental_uris": {"ios": "https://dc.lft.to/lastmile_qr_scan", "android": "https://dc.lft.to/lastmile_qr_scan"}, "is_reserved": 0, "fusion_lon": 0.0, "fusion_lat": 0.0, "lon": -76.98718116666667, "name": "fa4a603bf3b8803cbd945adc536b7bde"}, {"bike_id": "d34229f4fbb9130bec5653de8f98a9bc", "type": "electric_scooter", "is_disabled": 0, "lat": 38.8706885, "rental_uris": {"ios": "https://dc.lft.to/lastmile_qr_scan", "android": "https://dc.lft.to/lastmile_qr_scan"}, "is_reserved": 0, "fusion_lon": 0.0, "fusion_lat": 0.0, "lon": -76.98135383333333, "name": "d34229f4fbb9130bec5653de8f98a9bc"}, {"bike_id": "59f6f32737cd9f2e13347b4bad9885c1", "type": "electric_scooter", "is_disabled": 0, "lat": 38.921253666666665, "rental_uris": {"ios": "https://dc.lft.to/lastmile_qr_scan", "android": "https://dc.lft.to/lastmile_qr_scan"}, "is_reserved": 0, "fusion_lon": 0.0, "fusion_lat": 0.0, "lon": -77.02718166666666, "name": "59f6f32737cd9f2e13347b4bad9885c1"}, {"bike_id": "c803f0ad4aeb007e1a572b0d73ab59ba", "type": "electric_scooter", "is_disabled": 0, "lat": 38.90575833333333, "rental_uris": {"ios": "https://dc.lft.to/lastmile_qr_scan", "android": "https://dc.lft.to/lastmile_qr_scan"}, "is_reserved": 0, "fusion_lon": 0.0, "fusion_lat": 0.0, "lon": -77.0491945, "name": "c803f0ad4aeb007e1a572b0d73ab59ba"}, {"bike_id": "68ed6e9fc3786fe519d4e6acd084a4fb", "type": "electric_scooter", "is_disabled": 0, "lat": 38.91706533333333, "rental_uris": {"ios": "https://dc.lft.to/lastmile_qr_scan", "android": "https://dc.lft.to/lastmile_qr_scan"}, "is_reserved": 0, "fusion_lon": 0.0, "fusion_lat": 0.0, "lon": -77.04006766666667, "name": "68ed6e9fc3786fe519d4e6acd084a4fb"}, {"bike_id": "b3249dfd50978a26851a5532659b0a4a", "type": "electric_scooter", "is_disabled": 0, "lat": 38.89696983333333, "rental_uris": {"ios": "https://dc.lft.to/lastmile_qr_scan", "android": "https://dc.lft.to/lastmile_qr_scan"}, "is_reserved": 0, "fusion_lon": 0.0, "fusion_lat": 0.0, "lon": -77.02302266666666, "name": "b3249dfd50978a26851a5532659b0a4a"}, {"bike_id": "eca293cd12a06a28cf344bec43b9167a", "type": "electric_scooter", "is_disabled": 0, "lat": 38.94835583333333, "rental_uris": {"ios": "https://dc.lft.to/lastmile_qr_scan", "android": "https://dc.lft.to/lastmile_qr_scan"}, "is_reserved": 0, "fusion_lon": 0.0, "fusion_lat": 0.0, "lon": -77.02544966666666, "name": "eca293cd12a06a28cf344bec43b9167a"}, {"bike_id": "c7911f6b3f4fff9925ace980e87196bf", "type": "electric_scooter", "is_disabled": 0, "lat": 38.9127225, "rental_uris": {"ios": "https://dc.lft.to/lastmile_qr_scan", "android": "https://dc.lft.to/lastmile_qr_scan"}, "is_reserved": 0, "fusion_lon": 0.0, "fusion_lat": 0.0, "lon": -77.029526, "name": "c7911f6b3f4fff9925ace980e87196bf"}, {"bike_id": "bdce82f7a78adf73b1f1c6d1a95027a0", "type": "electric_scooter", "is_disabled": 0, "lat": 38.91266983333333, "rental_uris": {"ios": "https://dc.lft.to/lastmile_qr_scan", "android": "https://dc.lft.to/lastmile_qr_scan"}, "is_reserved": 0, "fusion_lon": 0.0, "fusion_lat": 0.0, "lon": -77.031382, "name": "bdce82f7a78adf73b1f1c6d1a95027a0"}, {"bike_id": "e065fc551691afbf4aa09cccc54a7092", "type": "electric_scooter", "is_disabled": 0, "lat": 38.927743666666665, "rental_uris": {"ios": "https://dc.lft.to/lastmile_qr_scan", "android": "https://dc.lft.to/lastmile_qr_scan"}, "is_reserved": 0, "fusion_lon": 0.0, "fusion_lat": 0.0, "lon": -77.02781816666666, "name": "e065fc551691afbf4aa09cccc54a7092"}, {"bike_id": "079ad1525928ecf62b58676d2c7b1f5a", "type": "electric_bike", "is_disabled": 0, "lat": 38.92066616666666, "rental_uris": {"ios": "https://dc.lft.to/lastmile_qr_scan", "android": "https://dc.lft.to/lastmile_qr_scan"}, "is_reserved": 0, "fusion_lon": 0.0, "fusion_lat": 0.0, "lon": -77.02422866666667, "name": "079ad1525928ecf62b58676d2c7b1f5a"}, {"bike_id": "ddc621d558757434e0d3e0a5c136f6b9", "type": "electric_scooter", "is_disabled": 0, "lat": 38.9147875, "rental_uris": {"ios": "https://dc.lft.to/lastmile_qr_scan", "android": "https://dc.lft.to/lastmile_qr_scan"}, "is_reserved": 0, "fusion_lon": 0.0, "fusion_lat": 0.0, "lon": -77.04566733333333, "name": "ddc621d558757434e0d3e0a5c136f6b9"}, {"bike_id": "2353e77704376aec8716873a2d7ccdcc", "type": "electric_scooter", "is_disabled": 0, "lat": 38.9006, "rental_uris": {"ios": "https://dc.lft.to/lastmile_qr_scan", "android": "https://dc.lft.to/lastmile_qr_scan"}, "is_reserved": 0, "fusion_lon": 0.0, "fusion_lat": 0.0, "lon": -76.93382133333333, "name": "2353e77704376aec8716873a2d7ccdcc"}, {"bike_id": "822d63dcd2e2b84e16529ed5b2a150b6", "type": "electric_scooter", "is_disabled": 0, "lat": 38.866929666666664, "rental_uris": {"ios": "https://dc.lft.to/lastmile_qr_scan", "android": "https://dc.lft.to/lastmile_qr_scan"}, "is_reserved": 0, "fusion_lon": 0.0, "fusion_lat": 0.0, "lon": -76.98711316666666, "name": "822d63dcd2e2b84e16529ed5b2a150b6"}, {"bike_id": "7b7b7f6375dda8aa88cd7c0a10de7f00", "type": "electric_scooter", "is_disabled": 0, "lat": 38.905668666666664, "rental_uris": {"ios": "https://dc.lft.to/lastmile_qr_scan", "android": "https://dc.lft.to/lastmile_qr_scan"}, "is_reserved": 0, "fusion_lon": 0.0, "fusion_lat": 0.0, "lon": -76.97629216666667, "name": "7b7b7f6375dda8aa88cd7c0a10de7f00"}, {"bike_id": "30ddf7c0dc5136dd6b0c057fecf1343b", "type": "electric_scooter", "is_disabled": 0, "lat": 38.90145866666667, "rental_uris": {"ios": "https://dc.lft.to/lastmile_qr_scan", "android": "https://dc.lft.to/lastmile_qr_scan"}, "is_reserved": 0, "fusion_lon": 0.0, "fusion_lat": 0.0, "lon": -77.0150685, "name": "30ddf7c0dc5136dd6b0c057fecf1343b"}, {"bike_id": "4f5e0a66c741b1c6d198aaf3c791faca", "type": "electric_scooter", "is_disabled": 0, "lat": 38.904730666666666, "rental_uris": {"ios": "https://dc.lft.to/lastmile_qr_scan", "android": "https://dc.lft.to/lastmile_qr_scan"}, "is_reserved": 0, "fusion_lon": 0.0, "fusion_lat": 0.0, "lon": -77.04339, "name": "4f5e0a66c741b1c6d198aaf3c791faca"}, {"bike_id": "95024cb519372d44eda66c2c5565aaba", "type": "electric_scooter", "is_disabled": 0, "lat": 38.928448, "rental_uris": {"ios": "https://dc.lft.to/lastmile_qr_scan", "android": "https://dc.lft.to/lastmile_qr_scan"}, "is_reserved": 0, "fusion_lon": 0.0, "fusion_lat": 0.0, "lon": -77.03622983333334, "name": "95024cb519372d44eda66c2c5565aaba"}, {"bike_id": "61f09e02c4ac89b19dfab2364c23fa04", "type": "electric_scooter", "is_disabled": 0, "lat": 38.924800833333336, "rental_uris": {"ios": "https://dc.lft.to/lastmile_qr_scan", "android": "https://dc.lft.to/lastmile_qr_scan"}, "is_reserved": 0, "fusion_lon": 0.0, "fusion_lat": 0.0, "lon": -77.03104683333333, "name": "61f09e02c4ac89b19dfab2364c23fa04"}, {"bike_id": "a478cd0950342cbfe5a104709b063d62", "type": "electric_bike", "is_disabled": 0, "lat": 38.9355115, "rental_uris": {"ios": "https://dc.lft.to/lastmile_qr_scan", "android": "https://dc.lft.to/lastmile_qr_scan"}, "is_reserved": 0, "fusion_lon": 0.0, "fusion_lat": 0.0, "lon": -76.938973, "name": "a478cd0950342cbfe5a104709b063d62"}, {"bike_id": "9403236d723f85574576ef0026af8f57", "type": "electric_scooter", "is_disabled": 0, "lat": 38.92248716666667, "rental_uris": {"ios": "https://dc.lft.to/lastmile_qr_scan", "android": "https://dc.lft.to/lastmile_qr_scan"}, "is_reserved": 0, "fusion_lon": 0.0, "fusion_lat": 0.0, "lon": -77.03084483333333, "name": "9403236d723f85574576ef0026af8f57"}, {"bike_id": "df7abd3d1a3366588b2ee01534406429", "type": "electric_scooter", "is_disabled": 0, "lat": 38.870928, "rental_uris": {"ios": "https://dc.lft.to/lastmile_qr_scan", "android": "https://dc.lft.to/lastmile_qr_scan"}, "is_reserved": 0, "fusion_lon": 0.0, "fusion_lat": 0.0, "lon": -77.01217816666667, "name": "df7abd3d1a3366588b2ee01534406429"}, {"bike_id": "9f7aa1132b1cb1a642e7e5464b50184b", "type": "electric_scooter", "is_disabled": 0, "lat": 38.911888833333336, "rental_uris": {"ios": "https://dc.lft.to/lastmile_qr_scan", "android": "https://dc.lft.to/lastmile_qr_scan"}, "is_reserved": 0, "fusion_lon": 0.0, "fusion_lat": 0.0, "lon": -77.03833683333333, "name": "9f7aa1132b1cb1a642e7e5464b50184b"}, {"bike_id": "5815962df1ed0016a539ebd70771f6f6", "type": "electric_scooter", "is_disabled": 0, "lat": 38.9127975, "rental_uris": {"ios": "https://dc.lft.to/lastmile_qr_scan", "android": "https://dc.lft.to/lastmile_qr_scan"}, "is_reserved": 0, "fusion_lon": 0.0, "fusion_lat": 0.0, "lon": -77.0319705, "name": "5815962df1ed0016a539ebd70771f6f6"}, {"bike_id": "e8b84a3cac4e0a638ef1a7d8a23fb8b6", "type": "electric_scooter", "is_disabled": 0, "lat": 38.91559783333334, "rental_uris": {"ios": "https://dc.lft.to/lastmile_qr_scan", "android": "https://dc.lft.to/lastmile_qr_scan"}, "is_reserved": 0, "fusion_lon": 0.0, "fusion_lat": 0.0, "lon": -77.01043683333333, "name": "e8b84a3cac4e0a638ef1a7d8a23fb8b6"}, {"bike_id": "65510587f2c3808a71024703f630455e", "type": "electric_scooter", "is_disabled": 0, "lat": 38.909516833333335, "rental_uris": {"ios": "https://dc.lft.to/lastmile_qr_scan", "android": "https://dc.lft.to/lastmile_qr_scan"}, "is_reserved": 0, "fusion_lon": 0.0, "fusion_lat": 0.0, "lon": -77.0487165, "name": "65510587f2c3808a71024703f630455e"}, {"bike_id": "c28a589c3d0b7a27eaa9359be82a07cd", "type": "electric_scooter", "is_disabled": 0, "lat": 38.892400333333335, "rental_uris": {"ios": "https://dc.lft.to/lastmile_qr_scan", "android": "https://dc.lft.to/lastmile_qr_scan"}, "is_reserved": 0, "fusion_lon": 0.0, "fusion_lat": 0.0, "lon": -77.04499866666667, "name": "c28a589c3d0b7a27eaa9359be82a07cd"}, {"bike_id": "aeb04414df514cfee819b37c14b4378d", "type": "electric_scooter", "is_disabled": 0, "lat": 38.920953833333336, "rental_uris": {"ios": "https://dc.lft.to/lastmile_qr_scan", "android": "https://dc.lft.to/lastmile_qr_scan"}, "is_reserved": 0, "fusion_lon": 0.0, "fusion_lat": 0.0, "lon": -77.03182183333334, "name": "aeb04414df514cfee819b37c14b4378d"}, {"bike_id": "03400678769daa13ebeed32724dee5cb", "type": "electric_scooter", "is_disabled": 0, "lat": 38.9126985, "rental_uris": {"ios": "https://dc.lft.to/lastmile_qr_scan", "android": "https://dc.lft.to/lastmile_qr_scan"}, "is_reserved": 0, "fusion_lon": 0.0, "fusion_lat": 0.0, "lon": -77.02299683333334, "name": "03400678769daa13ebeed32724dee5cb"}, {"bike_id": "b27de9abaf1ef9136f11eeea0e18a7f4", "type": "electric_scooter", "is_disabled": 0, "lat": 38.9012675, "rental_uris": {"ios": "https://dc.lft.to/lastmile_qr_scan", "android": "https://dc.lft.to/lastmile_qr_scan"}, "is_reserved": 0, "fusion_lon": 0.0, "fusion_lat": 0.0, "lon": -77.01826966666667, "name": "b27de9abaf1ef9136f11eeea0e18a7f4"}, {"bike_id": "efad31efe05f05bde7a79c04ff7abd51", "type": "electric_scooter", "is_disabled": 0, "lat": 38.93074433333334, "rental_uris": {"ios": "https://dc.lft.to/lastmile_qr_scan", "android": "https://dc.lft.to/lastmile_qr_scan"}, "is_reserved": 0, "fusion_lon": 0.0, "fusion_lat": 0.0, "lon": -77.02798566666667, "name": "efad31efe05f05bde7a79c04ff7abd51"}, {"bike_id": "184c7770f0e503bccda2f24acf242bf5", "type": "electric_scooter", "is_disabled": 0, "lat": 38.923122666666664, "rental_uris": {"ios": "https://dc.lft.to/lastmile_qr_scan", "android": "https://dc.lft.to/lastmile_qr_scan"}, "is_reserved": 0, "fusion_lon": 0.0, "fusion_lat": 0.0, "lon": -77.03757966666667, "name": "184c7770f0e503bccda2f24acf242bf5"}, {"bike_id": "ff21f840efe1b15c5e599fbca17b33e0", "type": "electric_scooter", "is_disabled": 0, "lat": 38.9150615, "rental_uris": {"ios": "https://dc.lft.to/lastmile_qr_scan", "android": "https://dc.lft.to/lastmile_qr_scan"}, "is_reserved": 0, "fusion_lon": 0.0, "fusion_lat": 0.0, "lon": -77.01776383333333, "name": "ff21f840efe1b15c5e599fbca17b33e0"}, {"bike_id": "2b4b1b66064bb1b4933a95a9b4a2391e", "type": "electric_scooter", "is_disabled": 0, "lat": 38.922546, "rental_uris": {"ios": "https://dc.lft.to/lastmile_qr_scan", "android": "https://dc.lft.to/lastmile_qr_scan"}, "is_reserved": 0, "fusion_lon": 0.0, "fusion_lat": 0.0, "lon": -77.03673816666667, "name": "2b4b1b66064bb1b4933a95a9b4a2391e"}, {"bike_id": "fcd86b74bc4a5496306bd31207e323d1", "type": "electric_scooter", "is_disabled": 0, "lat": 38.915501, "rental_uris": {"ios": "https://dc.lft.to/lastmile_qr_scan", "android": "https://dc.lft.to/lastmile_qr_scan"}, "is_reserved": 0, "fusion_lon": 0.0, "fusion_lat": 0.0, "lon": -77.01233916666666, "name": "fcd86b74bc4a5496306bd31207e323d1"}, {"bike_id": "127b04f6d087105c688ae0f03a8b69bf", "type": "electric_scooter", "is_disabled": 0, "lat": 38.90263083333333, "rental_uris": {"ios": "https://dc.lft.to/lastmile_qr_scan", "android": "https://dc.lft.to/lastmile_qr_scan"}, "is_reserved": 0, "fusion_lon": 0.0, "fusion_lat": 0.0, "lon": -77.03237833333333, "name": "127b04f6d087105c688ae0f03a8b69bf"}, {"bike_id": "f3e67c0809d526ee491c2d0628da1cab", "type": "electric_bike", "is_disabled": 0, "lat": 38.91548816666667, "rental_uris": {"ios": "https://dc.lft.to/lastmile_qr_scan", "android": "https://dc.lft.to/lastmile_qr_scan"}, "is_reserved": 0, "fusion_lon": 0.0, "fusion_lat": 0.0, "lon": -77.0667255, "name": "f3e67c0809d526ee491c2d0628da1cab"}, {"bike_id": "ac3766a0271fdc39c60eab4be93869a4", "type": "electric_scooter", "is_disabled": 0, "lat": 38.89632916666667, "rental_uris": {"ios": "https://dc.lft.to/lastmile_qr_scan", "android": "https://dc.lft.to/lastmile_qr_scan"}, "is_reserved": 0, "fusion_lon": 0.0, "fusion_lat": 0.0, "lon": -77.02810516666666, "name": "ac3766a0271fdc39c60eab4be93869a4"}, {"bike_id": "1fe1e1e8bd14f82fa9c839039c252971", "type": "electric_bike", "is_disabled": 0, "lat": 38.883996, "rental_uris": {"ios": "https://dc.lft.to/lastmile_qr_scan", "android": "https://dc.lft.to/lastmile_qr_scan"}, "is_reserved": 0, "fusion_lon": 0.0, "fusion_lat": 0.0, "lon": -76.96068233333334, "name": "1fe1e1e8bd14f82fa9c839039c252971"}, {"bike_id": "3004aeb7e54051a6484ec39c713e9252", "type": "electric_scooter", "is_disabled": 0, "lat": 38.91765516666667, "rental_uris": {"ios": "https://dc.lft.to/lastmile_qr_scan", "android": "https://dc.lft.to/lastmile_qr_scan"}, "is_reserved": 0, "fusion_lon": 0.0, "fusion_lat": 0.0, "lon": -77.047718, "name": "3004aeb7e54051a6484ec39c713e9252"}, {"bike_id": "d45ad87a10d6104e8960959419699b7f", "type": "electric_scooter", "is_disabled": 0, "lat": 38.900770666666666, "rental_uris": {"ios": "https://dc.lft.to/lastmile_qr_scan", "android": "https://dc.lft.to/lastmile_qr_scan"}, "is_reserved": 0, "fusion_lon": 0.0, "fusion_lat": 0.0, "lon": -77.012315, "name": "d45ad87a10d6104e8960959419699b7f"}, {"bike_id": "f81bb37a851bd4df03d57d2895ee1c08", "type": "electric_scooter", "is_disabled": 0, "lat": 38.914176, "rental_uris": {"ios": "https://dc.lft.to/lastmile_qr_scan", "android": "https://dc.lft.to/lastmile_qr_scan"}, "is_reserved": 0, "fusion_lon": 0.0, "fusion_lat": 0.0, "lon": -77.041565, "name": "f81bb37a851bd4df03d57d2895ee1c08"}, {"bike_id": "f6cd5c63eb33a42b2a83d34a0f6c1ba9", "type": "electric_scooter", "is_disabled": 0, "lat": 38.91253483333333, "rental_uris": {"ios": "https://dc.lft.to/lastmile_qr_scan", "android": "https://dc.lft.to/lastmile_qr_scan"}, "is_reserved": 0, "fusion_lon": 0.0, "fusion_lat": 0.0, "lon": -77.024336, "name": "f6cd5c63eb33a42b2a83d34a0f6c1ba9"}, {"bike_id": "0ad115f536e9277f83c0f069a12157cd", "type": "electric_scooter", "is_disabled": 0, "lat": 38.918172, "rental_uris": {"ios": "https://dc.lft.to/lastmile_qr_scan", "android": "https://dc.lft.to/lastmile_qr_scan"}, "is_reserved": 0, "fusion_lon": 0.0, "fusion_lat": 0.0, "lon": -77.032632, "name": "0ad115f536e9277f83c0f069a12157cd"}, {"bike_id": "281df2ddcf24d2c41cf4583d809ba3bc", "type": "electric_scooter", "is_disabled": 0, "lat": 38.924779, "rental_uris": {"ios": "https://dc.lft.to/lastmile_qr_scan", "android": "https://dc.lft.to/lastmile_qr_scan"}, "is_reserved": 0, "fusion_lon": 0.0, "fusion_lat": 0.0, "lon": -77.03780983333333, "name": "281df2ddcf24d2c41cf4583d809ba3bc"}, {"bike_id": "c4c619b415988f2a66be15490ffe17a7", "type": "electric_scooter", "is_disabled": 0, "lat": 38.875381833333336, "rental_uris": {"ios": "https://dc.lft.to/lastmile_qr_scan", "android": "https://dc.lft.to/lastmile_qr_scan"}, "is_reserved": 0, "fusion_lon": 0.0, "fusion_lat": 0.0, "lon": -77.00599133333333, "name": "c4c619b415988f2a66be15490ffe17a7"}, {"bike_id": "947bc33baef8e237a9419377692f80ca", "type": "electric_scooter", "is_disabled": 0, "lat": 38.9191075, "rental_uris": {"ios": "https://dc.lft.to/lastmile_qr_scan", "android": "https://dc.lft.to/lastmile_qr_scan"}, "is_reserved": 0, "fusion_lon": 0.0, "fusion_lat": 0.0, "lon": -77.02406066666667, "name": "947bc33baef8e237a9419377692f80ca"}, {"bike_id": "70db39606baf468dd0db6d82cdf1c89a", "type": "electric_scooter", "is_disabled": 0, "lat": 38.906422666666664, "rental_uris": {"ios": "https://dc.lft.to/lastmile_qr_scan", "android": "https://dc.lft.to/lastmile_qr_scan"}, "is_reserved": 0, "fusion_lon": 0.0, "fusion_lat": 0.0, "lon": -77.01793266666667, "name": "70db39606baf468dd0db6d82cdf1c89a"}, {"bike_id": "5b6dc3a64d96d4d6a9af2f8c115af2d7", "type": "electric_scooter", "is_disabled": 0, "lat": 38.91808366666667, "rental_uris": {"ios": "https://dc.lft.to/lastmile_qr_scan", "android": "https://dc.lft.to/lastmile_qr_scan"}, "is_reserved": 0, "fusion_lon": 0.0, "fusion_lat": 0.0, "lon": -77.03441216666667, "name": "5b6dc3a64d96d4d6a9af2f8c115af2d7"}, {"bike_id": "e349f6c6b7e06f0868353fe1ccc16927", "type": "electric_scooter", "is_disabled": 0, "lat": 38.91762933333333, "rental_uris": {"ios": "https://dc.lft.to/lastmile_qr_scan", "android": "https://dc.lft.to/lastmile_qr_scan"}, "is_reserved": 0, "fusion_lon": 0.0, "fusion_lat": 0.0, "lon": -77.00452066666666, "name": "e349f6c6b7e06f0868353fe1ccc16927"}, {"bike_id": "887eb34e3378712093f0b97b57f467b1", "type": "electric_scooter", "is_disabled": 0, "lat": 38.91817066666667, "rental_uris": {"ios": "https://dc.lft.to/lastmile_qr_scan", "android": "https://dc.lft.to/lastmile_qr_scan"}, "is_reserved": 0, "fusion_lon": 0.0, "fusion_lat": 0.0, "lon": -77.002565, "name": "887eb34e3378712093f0b97b57f467b1"}, {"bike_id": "c139727fbb41486bc1aa8f2251556850", "type": "electric_scooter", "is_disabled": 0, "lat": 38.93601966666667, "rental_uris": {"ios": "https://dc.lft.to/lastmile_qr_scan", "android": "https://dc.lft.to/lastmile_qr_scan"}, "is_reserved": 0, "fusion_lon": 0.0, "fusion_lat": 0.0, "lon": -77.03660733333334, "name": "c139727fbb41486bc1aa8f2251556850"}, {"bike_id": "f9da8372623022b40a478a44c66b31df", "type": "electric_scooter", "is_disabled": 0, "lat": 38.92218833333333, "rental_uris": {"ios": "https://dc.lft.to/lastmile_qr_scan", "android": "https://dc.lft.to/lastmile_qr_scan"}, "is_reserved": 0, "fusion_lon": 0.0, "fusion_lat": 0.0, "lon": -77.04241966666666, "name": "f9da8372623022b40a478a44c66b31df"}, {"bike_id": "486649bc9f32a225656a044f638a5c0e", "type": "electric_scooter", "is_disabled": 0, "lat": 38.92313433333333, "rental_uris": {"ios": "https://dc.lft.to/lastmile_qr_scan", "android": "https://dc.lft.to/lastmile_qr_scan"}, "is_reserved": 0, "fusion_lon": 0.0, "fusion_lat": 0.0, "lon": -77.029776, "name": "486649bc9f32a225656a044f638a5c0e"}, {"bike_id": "691f0a2d08e5375f14aedf247a5e54c9", "type": "electric_scooter", "is_disabled": 0, "lat": 38.89753, "rental_uris": {"ios": "https://dc.lft.to/lastmile_qr_scan", "android": "https://dc.lft.to/lastmile_qr_scan"}, "is_reserved": 0, "fusion_lon": 0.0, "fusion_lat": 0.0, "lon": -77.02156616666667, "name": "691f0a2d08e5375f14aedf247a5e54c9"}, {"bike_id": "7acd755e302ac411f3782d5c86649386", "type": "electric_scooter", "is_disabled": 0, "lat": 38.9167995, "rental_uris": {"ios": "https://dc.lft.to/lastmile_qr_scan", "android": "https://dc.lft.to/lastmile_qr_scan"}, "is_reserved": 0, "fusion_lon": 0.0, "fusion_lat": 0.0, "lon": -77.038696, "name": "7acd755e302ac411f3782d5c86649386"}, {"bike_id": "18a8322fc2259be7880fe39f47a8b6f3", "type": "electric_scooter", "is_disabled": 0, "lat": 38.938877833333336, "rental_uris": {"ios": "https://dc.lft.to/lastmile_qr_scan", "android": "https://dc.lft.to/lastmile_qr_scan"}, "is_reserved": 0, "fusion_lon": 0.0, "fusion_lat": 0.0, "lon": -77.033399, "name": "18a8322fc2259be7880fe39f47a8b6f3"}, {"bike_id": "15df7c4f1e43ca22859122c971a1e896", "type": "electric_scooter", "is_disabled": 0, "lat": 38.90565866666667, "rental_uris": {"ios": "https://dc.lft.to/lastmile_qr_scan", "android": "https://dc.lft.to/lastmile_qr_scan"}, "is_reserved": 0, "fusion_lon": 0.0, "fusion_lat": 0.0, "lon": -77.0458425, "name": "15df7c4f1e43ca22859122c971a1e896"}, {"bike_id": "be5caf1e97bda91bebf37a3842037509", "type": "electric_scooter", "is_disabled": 0, "lat": 38.920616, "rental_uris": {"ios": "https://dc.lft.to/lastmile_qr_scan", "android": "https://dc.lft.to/lastmile_qr_scan"}, "is_reserved": 0, "fusion_lon": 0.0, "fusion_lat": 0.0, "lon": -77.01481816666667, "name": "be5caf1e97bda91bebf37a3842037509"}, {"bike_id": "702e57a3d01a9ed88fb6e9f279c3f4aa", "type": "electric_scooter", "is_disabled": 0, "lat": 38.935099, "rental_uris": {"ios": "https://dc.lft.to/lastmile_qr_scan", "android": "https://dc.lft.to/lastmile_qr_scan"}, "is_reserved": 0, "fusion_lon": 0.0, "fusion_lat": 0.0, "lon": -77.01963366666666, "name": "702e57a3d01a9ed88fb6e9f279c3f4aa"}, {"bike_id": "2075eb3bda35cd4b3077a715bb4abbd6", "type": "electric_scooter", "is_disabled": 0, "lat": 38.907985333333336, "rental_uris": {"ios": "https://dc.lft.to/lastmile_qr_scan", "android": "https://dc.lft.to/lastmile_qr_scan"}, "is_reserved": 0, "fusion_lon": 0.0, "fusion_lat": 0.0, "lon": -77.04353166666667, "name": "2075eb3bda35cd4b3077a715bb4abbd6"}, {"bike_id": "17d6457f6ad62a62eb99994bb494ab18", "type": "electric_scooter", "is_disabled": 0, "lat": 38.8973805, "rental_uris": {"ios": "https://dc.lft.to/lastmile_qr_scan", "android": "https://dc.lft.to/lastmile_qr_scan"}, "is_reserved": 0, "fusion_lon": 0.0, "fusion_lat": 0.0, "lon": -77.0216145, "name": "17d6457f6ad62a62eb99994bb494ab18"}, {"bike_id": "3f771453fa7dc44d0ac7348ca12ea568", "type": "electric_scooter", "is_disabled": 0, "lat": 38.91628883333333, "rental_uris": {"ios": "https://dc.lft.to/lastmile_qr_scan", "android": "https://dc.lft.to/lastmile_qr_scan"}, "is_reserved": 0, "fusion_lon": 0.0, "fusion_lat": 0.0, "lon": -77.03047833333333, "name": "3f771453fa7dc44d0ac7348ca12ea568"}, {"bike_id": "d189235347ee1c3a33da8e8151b0875a", "type": "electric_scooter", "is_disabled": 0, "lat": 38.892338333333335, "rental_uris": {"ios": "https://dc.lft.to/lastmile_qr_scan", "android": "https://dc.lft.to/lastmile_qr_scan"}, "is_reserved": 0, "fusion_lon": 0.0, "fusion_lat": 0.0, "lon": -77.041626, "name": "d189235347ee1c3a33da8e8151b0875a"}, {"bike_id": "fd959a109b4f59ad91862de3eb79a2fa", "type": "electric_scooter", "is_disabled": 0, "lat": 38.896933, "rental_uris": {"ios": "https://dc.lft.to/lastmile_qr_scan", "android": "https://dc.lft.to/lastmile_qr_scan"}, "is_reserved": 0, "fusion_lon": 0.0, "fusion_lat": 0.0, "lon": -77.0434315, "name": "fd959a109b4f59ad91862de3eb79a2fa"}, {"bike_id": "a4721c223946e66c36ce58f927fbc016", "type": "electric_scooter", "is_disabled": 0, "lat": 38.922066, "rental_uris": {"ios": "https://dc.lft.to/lastmile_qr_scan", "android": "https://dc.lft.to/lastmile_qr_scan"}, "is_reserved": 0, "fusion_lon": 0.0, "fusion_lat": 0.0, "lon": -77.03393533333333, "name": "a4721c223946e66c36ce58f927fbc016"}, {"bike_id": "dc9398ce640d6b6ad1d359fed2eb2522", "type": "electric_scooter", "is_disabled": 0, "lat": 38.917063666666664, "rental_uris": {"ios": "https://dc.lft.to/lastmile_qr_scan", "android": "https://dc.lft.to/lastmile_qr_scan"}, "is_reserved": 0, "fusion_lon": 0.0, "fusion_lat": 0.0, "lon": -77.03864483333334, "name": "dc9398ce640d6b6ad1d359fed2eb2522"}, {"bike_id": "b77b6ccd21c652fdb322800cd76e3a4d", "type": "electric_scooter", "is_disabled": 0, "lat": 38.89797266666667, "rental_uris": {"ios": "https://dc.lft.to/lastmile_qr_scan", "android": "https://dc.lft.to/lastmile_qr_scan"}, "is_reserved": 0, "fusion_lon": 0.0, "fusion_lat": 0.0, "lon": -77.02481233333333, "name": "b77b6ccd21c652fdb322800cd76e3a4d"}, {"bike_id": "df1391a9a730fa33dba8a799213e60be", "type": "electric_scooter", "is_disabled": 0, "lat": 38.88878966666667, "rental_uris": {"ios": "https://dc.lft.to/lastmile_qr_scan", "android": "https://dc.lft.to/lastmile_qr_scan"}, "is_reserved": 0, "fusion_lon": 0.0, "fusion_lat": 0.0, "lon": -76.99040616666667, "name": "df1391a9a730fa33dba8a799213e60be"}, {"bike_id": "902c96a506e970a47092c986ac1b19ae", "type": "electric_scooter", "is_disabled": 0, "lat": 38.935111, "rental_uris": {"ios": "https://dc.lft.to/lastmile_qr_scan", "android": "https://dc.lft.to/lastmile_qr_scan"}, "is_reserved": 0, "fusion_lon": 0.0, "fusion_lat": 0.0, "lon": -77.032902, "name": "902c96a506e970a47092c986ac1b19ae"}, {"bike_id": "be74f7537de865510df4b1db44668c0f", "type": "electric_scooter", "is_disabled": 0, "lat": 38.94182433333334, "rental_uris": {"ios": "https://dc.lft.to/lastmile_qr_scan", "android": "https://dc.lft.to/lastmile_qr_scan"}, "is_reserved": 0, "fusion_lon": 0.0, "fusion_lat": 0.0, "lon": -77.0248905, "name": "be74f7537de865510df4b1db44668c0f"}, {"bike_id": "913479838212aa895fa5ee401d5dfbb3", "type": "electric_scooter", "is_disabled": 0, "lat": 38.8596805, "rental_uris": {"ios": "https://dc.lft.to/lastmile_qr_scan", "android": "https://dc.lft.to/lastmile_qr_scan"}, "is_reserved": 0, "fusion_lon": 0.0, "fusion_lat": 0.0, "lon": -76.9916085, "name": "913479838212aa895fa5ee401d5dfbb3"}, {"bike_id": "29074b8efd756d8d56cdf50b810436d4", "type": "electric_scooter", "is_disabled": 0, "lat": 38.920240666666665, "rental_uris": {"ios": "https://dc.lft.to/lastmile_qr_scan", "android": "https://dc.lft.to/lastmile_qr_scan"}, "is_reserved": 0, "fusion_lon": 0.0, "fusion_lat": 0.0, "lon": -77.04204366666667, "name": "29074b8efd756d8d56cdf50b810436d4"}, {"bike_id": "8910b67a852005218bfbe7f2d1140e9e", "type": "electric_scooter", "is_disabled": 0, "lat": 38.919050666666664, "rental_uris": {"ios": "https://dc.lft.to/lastmile_qr_scan", "android": "https://dc.lft.to/lastmile_qr_scan"}, "is_reserved": 0, "fusion_lon": 0.0, "fusion_lat": 0.0, "lon": -77.01362133333333, "name": "8910b67a852005218bfbe7f2d1140e9e"}, {"bike_id": "0fc7883b93f4b81b7fcbd9107314c283", "type": "electric_scooter", "is_disabled": 0, "lat": 38.932692833333334, "rental_uris": {"ios": "https://dc.lft.to/lastmile_qr_scan", "android": "https://dc.lft.to/lastmile_qr_scan"}, "is_reserved": 0, "fusion_lon": 0.0, "fusion_lat": 0.0, "lon": -77.03498033333334, "name": "0fc7883b93f4b81b7fcbd9107314c283"}, {"bike_id": "854bd245719c52a6b2ec309d00f87369", "type": "electric_scooter", "is_disabled": 0, "lat": 38.90391366666667, "rental_uris": {"ios": "https://dc.lft.to/lastmile_qr_scan", "android": "https://dc.lft.to/lastmile_qr_scan"}, "is_reserved": 0, "fusion_lon": 0.0, "fusion_lat": 0.0, "lon": -77.02950316666667, "name": "854bd245719c52a6b2ec309d00f87369"}, {"bike_id": "f11bbdcc07c9aef83fe40d8e492d41fc", "type": "electric_scooter", "is_disabled": 0, "lat": 38.928787666666665, "rental_uris": {"ios": "https://dc.lft.to/lastmile_qr_scan", "android": "https://dc.lft.to/lastmile_qr_scan"}, "is_reserved": 0, "fusion_lon": 0.0, "fusion_lat": 0.0, "lon": -77.02696783333333, "name": "f11bbdcc07c9aef83fe40d8e492d41fc"}, {"bike_id": "d28f69cbeaf47da35bcc891d218d1f12", "type": "electric_scooter", "is_disabled": 0, "lat": 38.892360833333335, "rental_uris": {"ios": "https://dc.lft.to/lastmile_qr_scan", "android": "https://dc.lft.to/lastmile_qr_scan"}, "is_reserved": 0, "fusion_lon": 0.0, "fusion_lat": 0.0, "lon": -76.9409595, "name": "d28f69cbeaf47da35bcc891d218d1f12"}, {"bike_id": "0ccb33158dc781573d00418d205bb51c", "type": "electric_scooter", "is_disabled": 0, "lat": 38.900903666666665, "rental_uris": {"ios": "https://dc.lft.to/lastmile_qr_scan", "android": "https://dc.lft.to/lastmile_qr_scan"}, "is_reserved": 0, "fusion_lon": 0.0, "fusion_lat": 0.0, "lon": -77.03827016666666, "name": "0ccb33158dc781573d00418d205bb51c"}, {"bike_id": "31e374bb38830cdb5bb67a1a5dd495fc", "type": "electric_scooter", "is_disabled": 0, "lat": 38.88270816666667, "rental_uris": {"ios": "https://dc.lft.to/lastmile_qr_scan", "android": "https://dc.lft.to/lastmile_qr_scan"}, "is_reserved": 0, "fusion_lon": 0.0, "fusion_lat": 0.0, "lon": -76.99015766666666, "name": "31e374bb38830cdb5bb67a1a5dd495fc"}, {"bike_id": "1ae9093fd8b6534bdf3ac797bb785bba", "type": "electric_scooter", "is_disabled": 0, "lat": 38.90959183333333, "rental_uris": {"ios": "https://dc.lft.to/lastmile_qr_scan", "android": "https://dc.lft.to/lastmile_qr_scan"}, "is_reserved": 0, "fusion_lon": 0.0, "fusion_lat": 0.0, "lon": -77.048619, "name": "1ae9093fd8b6534bdf3ac797bb785bba"}, {"bike_id": "8f44f69192bcd50f785b9b29a72f63e1", "type": "electric_scooter", "is_disabled": 0, "lat": 38.93480183333333, "rental_uris": {"ios": "https://dc.lft.to/lastmile_qr_scan", "android": "https://dc.lft.to/lastmile_qr_scan"}, "is_reserved": 0, "fusion_lon": 0.0, "fusion_lat": 0.0, "lon": -77.081598, "name": "8f44f69192bcd50f785b9b29a72f63e1"}, {"bike_id": "5dd4ef5f327cada98a0c29a93f823f20", "type": "electric_scooter", "is_disabled": 0, "lat": 38.947132333333336, "rental_uris": {"ios": "https://dc.lft.to/lastmile_qr_scan", "android": "https://dc.lft.to/lastmile_qr_scan"}, "is_reserved": 0, "fusion_lon": 0.0, "fusion_lat": 0.0, "lon": -77.03329116666667, "name": "5dd4ef5f327cada98a0c29a93f823f20"}, {"bike_id": "164958b92fce48350761c8f1abaf6e06", "type": "electric_scooter", "is_disabled": 0, "lat": 38.91605, "rental_uris": {"ios": "https://dc.lft.to/lastmile_qr_scan", "android": "https://dc.lft.to/lastmile_qr_scan"}, "is_reserved": 0, "fusion_lon": 0.0, "fusion_lat": 0.0, "lon": -77.023081, "name": "164958b92fce48350761c8f1abaf6e06"}, {"bike_id": "27b2aa503efd5938ea7ced32f8f63b1a", "type": "electric_scooter", "is_disabled": 0, "lat": 38.916364333333334, "rental_uris": {"ios": "https://dc.lft.to/lastmile_qr_scan", "android": "https://dc.lft.to/lastmile_qr_scan"}, "is_reserved": 0, "fusion_lon": 0.0, "fusion_lat": 0.0, "lon": -77.0004645, "name": "27b2aa503efd5938ea7ced32f8f63b1a"}, {"bike_id": "a494fb96cacea16716c89436d92dc3d2", "type": "electric_scooter", "is_disabled": 0, "lat": 38.915811833333336, "rental_uris": {"ios": "https://dc.lft.to/lastmile_qr_scan", "android": "https://dc.lft.to/lastmile_qr_scan"}, "is_reserved": 0, "fusion_lon": 0.0, "fusion_lat": 0.0, "lon": -77.01607916666667, "name": "a494fb96cacea16716c89436d92dc3d2"}, {"bike_id": "1c0077a37f366e832ad4db8346f93189", "type": "electric_scooter", "is_disabled": 0, "lat": 38.95652233333333, "rental_uris": {"ios": "https://dc.lft.to/lastmile_qr_scan", "android": "https://dc.lft.to/lastmile_qr_scan"}, "is_reserved": 0, "fusion_lon": 0.0, "fusion_lat": 0.0, "lon": -77.01966383333334, "name": "1c0077a37f366e832ad4db8346f93189"}, {"bike_id": "9c9d54d326199aa44cffd4161365a7b1", "type": "electric_scooter", "is_disabled": 0, "lat": 38.928564, "rental_uris": {"ios": "https://dc.lft.to/lastmile_qr_scan", "android": "https://dc.lft.to/lastmile_qr_scan"}, "is_reserved": 0, "fusion_lon": 0.0, "fusion_lat": 0.0, "lon": -77.03609166666666, "name": "9c9d54d326199aa44cffd4161365a7b1"}, {"bike_id": "bf980ab3fcc8719e7c52f6d524810532", "type": "electric_scooter", "is_disabled": 0, "lat": 38.915273166666665, "rental_uris": {"ios": "https://dc.lft.to/lastmile_qr_scan", "android": "https://dc.lft.to/lastmile_qr_scan"}, "is_reserved": 0, "fusion_lon": 0.0, "fusion_lat": 0.0, "lon": -77.0200145, "name": "bf980ab3fcc8719e7c52f6d524810532"}, {"bike_id": "9796818d4b7864fecc90e1a018da9453", "type": "electric_scooter", "is_disabled": 0, "lat": 38.920187, "rental_uris": {"ios": "https://dc.lft.to/lastmile_qr_scan", "android": "https://dc.lft.to/lastmile_qr_scan"}, "is_reserved": 0, "fusion_lon": 0.0, "fusion_lat": 0.0, "lon": -77.04200933333334, "name": "9796818d4b7864fecc90e1a018da9453"}, {"bike_id": "4cafd241d888f3702277b5f5aa9b770e", "type": "electric_scooter", "is_disabled": 0, "lat": 38.91578333333333, "rental_uris": {"ios": "https://dc.lft.to/lastmile_qr_scan", "android": "https://dc.lft.to/lastmile_qr_scan"}, "is_reserved": 0, "fusion_lon": 0.0, "fusion_lat": 0.0, "lon": -77.01235716666666, "name": "4cafd241d888f3702277b5f5aa9b770e"}, {"bike_id": "d2fc9650e9f4d27031ffe924fe6dde6f", "type": "electric_scooter", "is_disabled": 0, "lat": 38.92883633333334, "rental_uris": {"ios": "https://dc.lft.to/lastmile_qr_scan", "android": "https://dc.lft.to/lastmile_qr_scan"}, "is_reserved": 0, "fusion_lon": 0.0, "fusion_lat": 0.0, "lon": -77.03414616666667, "name": "d2fc9650e9f4d27031ffe924fe6dde6f"}, {"bike_id": "a3997e81f8250c410c40df892c216438", "type": "electric_scooter", "is_disabled": 0, "lat": 38.92463766666667, "rental_uris": {"ios": "https://dc.lft.to/lastmile_qr_scan", "android": "https://dc.lft.to/lastmile_qr_scan"}, "is_reserved": 0, "fusion_lon": 0.0, "fusion_lat": 0.0, "lon": -77.05200666666667, "name": "a3997e81f8250c410c40df892c216438"}, {"bike_id": "4887f9034b92cddcf78544ce4d33bd74", "type": "electric_bike", "is_disabled": 0, "lat": 38.957105166666665, "rental_uris": {"ios": "https://dc.lft.to/lastmile_qr_scan", "android": "https://dc.lft.to/lastmile_qr_scan"}, "is_reserved": 0, "fusion_lon": 0.0, "fusion_lat": 0.0, "lon": -77.02404633333333, "name": "4887f9034b92cddcf78544ce4d33bd74"}, {"bike_id": "bb6dca64a85c90416ddfdfde09e6b74f", "type": "electric_bike", "is_disabled": 0, "lat": 38.92087183333334, "rental_uris": {"ios": "https://dc.lft.to/lastmile_qr_scan", "android": "https://dc.lft.to/lastmile_qr_scan"}, "is_reserved": 0, "fusion_lon": 0.0, "fusion_lat": 0.0, "lon": -77.03509983333333, "name": "bb6dca64a85c90416ddfdfde09e6b74f"}, {"bike_id": "64784ccdb8939d05537cc61dafd41274", "type": "electric_scooter", "is_disabled": 0, "lat": 38.93182066666667, "rental_uris": {"ios": "https://dc.lft.to/lastmile_qr_scan", "android": "https://dc.lft.to/lastmile_qr_scan"}, "is_reserved": 0, "fusion_lon": 0.0, "fusion_lat": 0.0, "lon": -77.03443683333333, "name": "64784ccdb8939d05537cc61dafd41274"}, {"bike_id": "0f5549948bbbb3dc5ec4604e4ef725f1", "type": "electric_scooter", "is_disabled": 0, "lat": 38.90377616666667, "rental_uris": {"ios": "https://dc.lft.to/lastmile_qr_scan", "android": "https://dc.lft.to/lastmile_qr_scan"}, "is_reserved": 0, "fusion_lon": 0.0, "fusion_lat": 0.0, "lon": -77.048125, "name": "0f5549948bbbb3dc5ec4604e4ef725f1"}, {"bike_id": "514ba30d9157336f8b08e5cf2a3d1958", "type": "electric_scooter", "is_disabled": 0, "lat": 38.934225166666664, "rental_uris": {"ios": "https://dc.lft.to/lastmile_qr_scan", "android": "https://dc.lft.to/lastmile_qr_scan"}, "is_reserved": 0, "fusion_lon": 0.0, "fusion_lat": 0.0, "lon": -77.02842883333334, "name": "514ba30d9157336f8b08e5cf2a3d1958"}, {"bike_id": "edb3426d01667b5a97950e7c6936c19b", "type": "electric_scooter", "is_disabled": 0, "lat": 38.90767366666667, "rental_uris": {"ios": "https://dc.lft.to/lastmile_qr_scan", "android": "https://dc.lft.to/lastmile_qr_scan"}, "is_reserved": 0, "fusion_lon": 0.0, "fusion_lat": 0.0, "lon": -77.0431365, "name": "edb3426d01667b5a97950e7c6936c19b"}, {"bike_id": "8dfbae6b8584422eaa648e35d58401ae", "type": "electric_scooter", "is_disabled": 0, "lat": 38.91915383333333, "rental_uris": {"ios": "https://dc.lft.to/lastmile_qr_scan", "android": "https://dc.lft.to/lastmile_qr_scan"}, "is_reserved": 0, "fusion_lon": 0.0, "fusion_lat": 0.0, "lon": -77.0025765, "name": "8dfbae6b8584422eaa648e35d58401ae"}, {"bike_id": "376402ddd4eb74c0110a859e281b07c3", "type": "electric_scooter", "is_disabled": 0, "lat": 38.92751616666666, "rental_uris": {"ios": "https://dc.lft.to/lastmile_qr_scan", "android": "https://dc.lft.to/lastmile_qr_scan"}, "is_reserved": 0, "fusion_lon": 0.0, "fusion_lat": 0.0, "lon": -77.0238355, "name": "376402ddd4eb74c0110a859e281b07c3"}, {"bike_id": "e04b74782db08b83d4ccd5e51e621848", "type": "electric_scooter", "is_disabled": 0, "lat": 38.884798, "rental_uris": {"ios": "https://dc.lft.to/lastmile_qr_scan", "android": "https://dc.lft.to/lastmile_qr_scan"}, "is_reserved": 0, "fusion_lon": 0.0, "fusion_lat": 0.0, "lon": -77.02533116666666, "name": "e04b74782db08b83d4ccd5e51e621848"}, {"bike_id": "b27d32f72acc87d8a87cffc1e5fdd71c", "type": "electric_scooter", "is_disabled": 0, "lat": 38.90685, "rental_uris": {"ios": "https://dc.lft.to/lastmile_qr_scan", "android": "https://dc.lft.to/lastmile_qr_scan"}, "is_reserved": 0, "fusion_lon": 0.0, "fusion_lat": 0.0, "lon": -77.00063266666666, "name": "b27d32f72acc87d8a87cffc1e5fdd71c"}, {"bike_id": "94f0359094fb211e057a2d9014385d0c", "type": "electric_scooter", "is_disabled": 0, "lat": 38.91779316666667, "rental_uris": {"ios": "https://dc.lft.to/lastmile_qr_scan", "android": "https://dc.lft.to/lastmile_qr_scan"}, "is_reserved": 0, "fusion_lon": 0.0, "fusion_lat": 0.0, "lon": -77.02302366666666, "name": "94f0359094fb211e057a2d9014385d0c"}, {"bike_id": "d27b3134f366cd0bf9ff832a2cf6c71b", "type": "electric_scooter", "is_disabled": 0, "lat": 38.8668095, "rental_uris": {"ios": "https://dc.lft.to/lastmile_qr_scan", "android": "https://dc.lft.to/lastmile_qr_scan"}, "is_reserved": 0, "fusion_lon": 0.0, "fusion_lat": 0.0, "lon": -76.98578566666667, "name": "d27b3134f366cd0bf9ff832a2cf6c71b"}, {"bike_id": "03264d8a7966fd3c57e7c0de389c5632", "type": "electric_scooter", "is_disabled": 0, "lat": 38.927513833333336, "rental_uris": {"ios": "https://dc.lft.to/lastmile_qr_scan", "android": "https://dc.lft.to/lastmile_qr_scan"}, "is_reserved": 0, "fusion_lon": 0.0, "fusion_lat": 0.0, "lon": -77.0253515, "name": "03264d8a7966fd3c57e7c0de389c5632"}, {"bike_id": "78f113c8fd56018100b1da776224066b", "type": "electric_scooter", "is_disabled": 0, "lat": 38.9192925, "rental_uris": {"ios": "https://dc.lft.to/lastmile_qr_scan", "android": "https://dc.lft.to/lastmile_qr_scan"}, "is_reserved": 0, "fusion_lon": 0.0, "fusion_lat": 0.0, "lon": -77.0317345, "name": "78f113c8fd56018100b1da776224066b"}, {"bike_id": "1b1393844902ae8226090eb219fb9b8a", "type": "electric_scooter", "is_disabled": 0, "lat": 38.92587616666667, "rental_uris": {"ios": "https://dc.lft.to/lastmile_qr_scan", "android": "https://dc.lft.to/lastmile_qr_scan"}, "is_reserved": 0, "fusion_lon": 0.0, "fusion_lat": 0.0, "lon": -77.004921, "name": "1b1393844902ae8226090eb219fb9b8a"}, {"bike_id": "a5a2f15f8e5d354102153393b1d19bfc", "type": "electric_scooter", "is_disabled": 0, "lat": 38.88847533333333, "rental_uris": {"ios": "https://dc.lft.to/lastmile_qr_scan", "android": "https://dc.lft.to/lastmile_qr_scan"}, "is_reserved": 0, "fusion_lon": 0.0, "fusion_lat": 0.0, "lon": -76.92679283333334, "name": "a5a2f15f8e5d354102153393b1d19bfc"}, {"bike_id": "54920db47e1c1d3975edd28e2371cdf5", "type": "electric_scooter", "is_disabled": 0, "lat": 38.878627, "rental_uris": {"ios": "https://dc.lft.to/lastmile_qr_scan", "android": "https://dc.lft.to/lastmile_qr_scan"}, "is_reserved": 0, "fusion_lon": 0.0, "fusion_lat": 0.0, "lon": -76.96983, "name": "54920db47e1c1d3975edd28e2371cdf5"}, {"bike_id": "a4d167ed2efa5bbbf9e6f4abd7b083c1", "type": "electric_bike", "is_disabled": 0, "lat": 38.93481666666667, "rental_uris": {"ios": "https://dc.lft.to/lastmile_qr_scan", "android": "https://dc.lft.to/lastmile_qr_scan"}, "is_reserved": 0, "fusion_lon": 0.0, "fusion_lat": 0.0, "lon": -77.03012633333333, "name": "a4d167ed2efa5bbbf9e6f4abd7b083c1"}, {"bike_id": "eacd3d5083b2e424fda7f640cbefeff7", "type": "electric_scooter", "is_disabled": 0, "lat": 38.91963416666667, "rental_uris": {"ios": "https://dc.lft.to/lastmile_qr_scan", "android": "https://dc.lft.to/lastmile_qr_scan"}, "is_reserved": 0, "fusion_lon": 0.0, "fusion_lat": 0.0, "lon": -77.04070416666667, "name": "eacd3d5083b2e424fda7f640cbefeff7"}, {"bike_id": "b60d7886c6e2fdd9e11de34b846a0db5", "type": "electric_scooter", "is_disabled": 0, "lat": 38.887441333333335, "rental_uris": {"ios": "https://dc.lft.to/lastmile_qr_scan", "android": "https://dc.lft.to/lastmile_qr_scan"}, "is_reserved": 0, "fusion_lon": 0.0, "fusion_lat": 0.0, "lon": -77.02563983333333, "name": "b60d7886c6e2fdd9e11de34b846a0db5"}, {"bike_id": "3263bc6fe906ac6876ac3e76af262a74", "type": "electric_scooter", "is_disabled": 0, "lat": 38.905079666666666, "rental_uris": {"ios": "https://dc.lft.to/lastmile_qr_scan", "android": "https://dc.lft.to/lastmile_qr_scan"}, "is_reserved": 0, "fusion_lon": 0.0, "fusion_lat": 0.0, "lon": -77.01703666666667, "name": "3263bc6fe906ac6876ac3e76af262a74"}, {"bike_id": "b2ed2ebfb2125a19a88fe7a39d9b197f", "type": "electric_scooter", "is_disabled": 0, "lat": 38.85319766666667, "rental_uris": {"ios": "https://dc.lft.to/lastmile_qr_scan", "android": "https://dc.lft.to/lastmile_qr_scan"}, "is_reserved": 0, "fusion_lon": 0.0, "fusion_lat": 0.0, "lon": -76.98029766666667, "name": "b2ed2ebfb2125a19a88fe7a39d9b197f"}, {"bike_id": "f4e6d60948babd5f5b38bc3cf29a1785", "type": "electric_scooter", "is_disabled": 0, "lat": 38.87416966666667, "rental_uris": {"ios": "https://dc.lft.to/lastmile_qr_scan", "android": "https://dc.lft.to/lastmile_qr_scan"}, "is_reserved": 0, "fusion_lon": 0.0, "fusion_lat": 0.0, "lon": -76.9691465, "name": "f4e6d60948babd5f5b38bc3cf29a1785"}, {"bike_id": "2beb32636bdda98be5c2ae406a74149a", "type": "electric_scooter", "is_disabled": 0, "lat": 38.929113, "rental_uris": {"ios": "https://dc.lft.to/lastmile_qr_scan", "android": "https://dc.lft.to/lastmile_qr_scan"}, "is_reserved": 0, "fusion_lon": 0.0, "fusion_lat": 0.0, "lon": -77.02089666666667, "name": "2beb32636bdda98be5c2ae406a74149a"}, {"bike_id": "43f10290c7f2b634485e9e8390781ba7", "type": "electric_scooter", "is_disabled": 0, "lat": 38.900314333333334, "rental_uris": {"ios": "https://dc.lft.to/lastmile_qr_scan", "android": "https://dc.lft.to/lastmile_qr_scan"}, "is_reserved": 0, "fusion_lon": 0.0, "fusion_lat": 0.0, "lon": -77.012931, "name": "43f10290c7f2b634485e9e8390781ba7"}, {"bike_id": "1ae59dff7d99e44184af9ca8e50b19ba", "type": "electric_bike", "is_disabled": 0, "lat": 38.932965833333334, "rental_uris": {"ios": "https://dc.lft.to/lastmile_qr_scan", "android": "https://dc.lft.to/lastmile_qr_scan"}, "is_reserved": 0, "fusion_lon": 0.0, "fusion_lat": 0.0, "lon": -77.020598, "name": "1ae59dff7d99e44184af9ca8e50b19ba"}, {"bike_id": "03bebe0713cd68e81af4c57b3a4e25fe", "type": "electric_scooter", "is_disabled": 0, "lat": 38.923166, "rental_uris": {"ios": "https://dc.lft.to/lastmile_qr_scan", "android": "https://dc.lft.to/lastmile_qr_scan"}, "is_reserved": 0, "fusion_lon": 0.0, "fusion_lat": 0.0, "lon": -77.0444025, "name": "03bebe0713cd68e81af4c57b3a4e25fe"}, {"bike_id": "652c4966d8ac70b20c96044085ac7a69", "type": "electric_scooter", "is_disabled": 0, "lat": 38.90026783333333, "rental_uris": {"ios": "https://dc.lft.to/lastmile_qr_scan", "android": "https://dc.lft.to/lastmile_qr_scan"}, "is_reserved": 0, "fusion_lon": 0.0, "fusion_lat": 0.0, "lon": -76.99857616666667, "name": "652c4966d8ac70b20c96044085ac7a69"}, {"bike_id": "6d9b403faa8018756e0278e767e86de4", "type": "electric_scooter", "is_disabled": 0, "lat": 38.949943833333336, "rental_uris": {"ios": "https://dc.lft.to/lastmile_qr_scan", "android": "https://dc.lft.to/lastmile_qr_scan"}, "is_reserved": 0, "fusion_lon": 0.0, "fusion_lat": 0.0, "lon": -77.01832383333333, "name": "6d9b403faa8018756e0278e767e86de4"}, {"bike_id": "f2e0657935fdec4c64f0ce5b750e29dd", "type": "electric_scooter", "is_disabled": 0, "lat": 38.905707166666666, "rental_uris": {"ios": "https://dc.lft.to/lastmile_qr_scan", "android": "https://dc.lft.to/lastmile_qr_scan"}, "is_reserved": 0, "fusion_lon": 0.0, "fusion_lat": 0.0, "lon": -77.051538, "name": "f2e0657935fdec4c64f0ce5b750e29dd"}, {"bike_id": "0b8a6a66a161d1efdbfbe785912fd344", "type": "electric_bike", "is_disabled": 0, "lat": 38.89566216666667, "rental_uris": {"ios": "https://dc.lft.to/lastmile_qr_scan", "android": "https://dc.lft.to/lastmile_qr_scan"}, "is_reserved": 0, "fusion_lon": 0.0, "fusion_lat": 0.0, "lon": -77.1273685, "name": "0b8a6a66a161d1efdbfbe785912fd344"}, {"bike_id": "f42d629cbc923f0146babff22338c8b9", "type": "electric_scooter", "is_disabled": 0, "lat": 38.911052833333336, "rental_uris": {"ios": "https://dc.lft.to/lastmile_qr_scan", "android": "https://dc.lft.to/lastmile_qr_scan"}, "is_reserved": 0, "fusion_lon": 0.0, "fusion_lat": 0.0, "lon": -77.02770133333334, "name": "f42d629cbc923f0146babff22338c8b9"}, {"bike_id": "47d2b1dd0043b64e0d932b4ef7dc9faf", "type": "electric_scooter", "is_disabled": 0, "lat": 38.9175945, "rental_uris": {"ios": "https://dc.lft.to/lastmile_qr_scan", "android": "https://dc.lft.to/lastmile_qr_scan"}, "is_reserved": 0, "fusion_lon": 0.0, "fusion_lat": 0.0, "lon": -77.040418, "name": "47d2b1dd0043b64e0d932b4ef7dc9faf"}, {"bike_id": "c3a3dd8b55a1c06b67dc24fb29aa61b1", "type": "electric_scooter", "is_disabled": 0, "lat": 38.876693333333336, "rental_uris": {"ios": "https://dc.lft.to/lastmile_qr_scan", "android": "https://dc.lft.to/lastmile_qr_scan"}, "is_reserved": 0, "fusion_lon": 0.0, "fusion_lat": 0.0, "lon": -77.0004725, "name": "c3a3dd8b55a1c06b67dc24fb29aa61b1"}, {"bike_id": "0601d7ed8de5a889aa0bda4dcc6b8b2d", "type": "electric_scooter", "is_disabled": 0, "lat": 38.876259166666664, "rental_uris": {"ios": "https://dc.lft.to/lastmile_qr_scan", "android": "https://dc.lft.to/lastmile_qr_scan"}, "is_reserved": 0, "fusion_lon": 0.0, "fusion_lat": 0.0, "lon": -76.96527616666667, "name": "0601d7ed8de5a889aa0bda4dcc6b8b2d"}, {"bike_id": "264d5c6d4266e7aecef1bc0f0907cc19", "type": "electric_scooter", "is_disabled": 0, "lat": 38.900643, "rental_uris": {"ios": "https://dc.lft.to/lastmile_qr_scan", "android": "https://dc.lft.to/lastmile_qr_scan"}, "is_reserved": 0, "fusion_lon": 0.0, "fusion_lat": 0.0, "lon": -76.92743666666667, "name": "264d5c6d4266e7aecef1bc0f0907cc19"}, {"bike_id": "79b3f14151f8a9e98a982b78e74e09d8", "type": "electric_scooter", "is_disabled": 0, "lat": 38.93198316666667, "rental_uris": {"ios": "https://dc.lft.to/lastmile_qr_scan", "android": "https://dc.lft.to/lastmile_qr_scan"}, "is_reserved": 0, "fusion_lon": 0.0, "fusion_lat": 0.0, "lon": -77.02396016666667, "name": "79b3f14151f8a9e98a982b78e74e09d8"}, {"bike_id": "b4c9de5171a10cf392125d6015d89899", "type": "electric_scooter", "is_disabled": 0, "lat": 38.901584, "rental_uris": {"ios": "https://dc.lft.to/lastmile_qr_scan", "android": "https://dc.lft.to/lastmile_qr_scan"}, "is_reserved": 0, "fusion_lon": 0.0, "fusion_lat": 0.0, "lon": -77.02037883333334, "name": "b4c9de5171a10cf392125d6015d89899"}, {"bike_id": "f69d8c2e83d8d5ea15b4f93e45498320", "type": "electric_scooter", "is_disabled": 0, "lat": 38.93927133333333, "rental_uris": {"ios": "https://dc.lft.to/lastmile_qr_scan", "android": "https://dc.lft.to/lastmile_qr_scan"}, "is_reserved": 0, "fusion_lon": 0.0, "fusion_lat": 0.0, "lon": -77.036881, "name": "f69d8c2e83d8d5ea15b4f93e45498320"}, {"bike_id": "04688252a78164418a42d6718d8539bf", "type": "electric_scooter", "is_disabled": 0, "lat": 38.897480333333334, "rental_uris": {"ios": "https://dc.lft.to/lastmile_qr_scan", "android": "https://dc.lft.to/lastmile_qr_scan"}, "is_reserved": 0, "fusion_lon": 0.0, "fusion_lat": 0.0, "lon": -77.02149433333334, "name": "04688252a78164418a42d6718d8539bf"}, {"bike_id": "c361801845e55b31d98f345c543ae194", "type": "electric_scooter", "is_disabled": 0, "lat": 38.905657166666664, "rental_uris": {"ios": "https://dc.lft.to/lastmile_qr_scan", "android": "https://dc.lft.to/lastmile_qr_scan"}, "is_reserved": 0, "fusion_lon": 0.0, "fusion_lat": 0.0, "lon": -77.0180515, "name": "c361801845e55b31d98f345c543ae194"}, {"bike_id": "b7fbbae95ada0c176d7aa510b0520582", "type": "electric_scooter", "is_disabled": 0, "lat": 38.8973315, "rental_uris": {"ios": "https://dc.lft.to/lastmile_qr_scan", "android": "https://dc.lft.to/lastmile_qr_scan"}, "is_reserved": 0, "fusion_lon": 0.0, "fusion_lat": 0.0, "lon": -77.04694616666667, "name": "b7fbbae95ada0c176d7aa510b0520582"}, {"bike_id": "da26b3f46c744eee93fdf2e87851e187", "type": "electric_scooter", "is_disabled": 0, "lat": 38.868284333333335, "rental_uris": {"ios": "https://dc.lft.to/lastmile_qr_scan", "android": "https://dc.lft.to/lastmile_qr_scan"}, "is_reserved": 0, "fusion_lon": 0.0, "fusion_lat": 0.0, "lon": -77.01146, "name": "da26b3f46c744eee93fdf2e87851e187"}, {"bike_id": "09342e4151b66bf213274c6e320c8162", "type": "electric_bike", "is_disabled": 0, "lat": 39.054976333333336, "rental_uris": {"ios": "https://dc.lft.to/lastmile_qr_scan", "android": "https://dc.lft.to/lastmile_qr_scan"}, "is_reserved": 0, "fusion_lon": 0.0, "fusion_lat": 0.0, "lon": -77.11790766666667, "name": "09342e4151b66bf213274c6e320c8162"}, {"bike_id": "4bf38b7dd742c65a43505cd66ab00058", "type": "electric_bike", "is_disabled": 0, "lat": 39.03736266666667, "rental_uris": {"ios": "https://dc.lft.to/lastmile_qr_scan", "android": "https://dc.lft.to/lastmile_qr_scan"}, "is_reserved": 0, "fusion_lon": 0.0, "fusion_lat": 0.0, "lon": -77.05487566666666, "name": "4bf38b7dd742c65a43505cd66ab00058"}, {"bike_id": "7ba5ae2ddd172084df4e716306709d7b", "type": "electric_scooter", "is_disabled": 0, "lat": 38.90836083333333, "rental_uris": {"ios": "https://dc.lft.to/lastmile_qr_scan", "android": "https://dc.lft.to/lastmile_qr_scan"}, "is_reserved": 0, "fusion_lon": 0.0, "fusion_lat": 0.0, "lon": -77.0219915, "name": "7ba5ae2ddd172084df4e716306709d7b"}, {"bike_id": "4699d1a3d6c1457d110930251a8c7cab", "type": "electric_bike", "is_disabled": 0, "lat": 38.90694166666667, "rental_uris": {"ios": "https://dc.lft.to/lastmile_qr_scan", "android": "https://dc.lft.to/lastmile_qr_scan"}, "is_reserved": 0, "fusion_lon": 0.0, "fusion_lat": 0.0, "lon": -76.9525365, "name": "4699d1a3d6c1457d110930251a8c7cab"}, {"bike_id": "bac8494017dcc07d6d320241c4791e99", "type": "electric_scooter", "is_disabled": 0, "lat": 38.926810333333336, "rental_uris": {"ios": "https://dc.lft.to/lastmile_qr_scan", "android": "https://dc.lft.to/lastmile_qr_scan"}, "is_reserved": 0, "fusion_lon": 0.0, "fusion_lat": 0.0, "lon": -77.02789866666667, "name": "bac8494017dcc07d6d320241c4791e99"}, {"bike_id": "a518788dd027a7c22fc8d1447ecfa3bc", "type": "electric_scooter", "is_disabled": 0, "lat": 38.89340983333334, "rental_uris": {"ios": "https://dc.lft.to/lastmile_qr_scan", "android": "https://dc.lft.to/lastmile_qr_scan"}, "is_reserved": 0, "fusion_lon": 0.0, "fusion_lat": 0.0, "lon": -76.99272016666667, "name": "a518788dd027a7c22fc8d1447ecfa3bc"}, {"bike_id": "f170dcbf5333c99366bb46202aa9a8a1", "type": "electric_scooter", "is_disabled": 0, "lat": 38.9127185, "rental_uris": {"ios": "https://dc.lft.to/lastmile_qr_scan", "android": "https://dc.lft.to/lastmile_qr_scan"}, "is_reserved": 0, "fusion_lon": 0.0, "fusion_lat": 0.0, "lon": -77.03138466666667, "name": "f170dcbf5333c99366bb46202aa9a8a1"}, {"bike_id": "51217c3207160c1270215889c3cd5b7d", "type": "electric_scooter", "is_disabled": 0, "lat": 38.873714166666666, "rental_uris": {"ios": "https://dc.lft.to/lastmile_qr_scan", "android": "https://dc.lft.to/lastmile_qr_scan"}, "is_reserved": 0, "fusion_lon": 0.0, "fusion_lat": 0.0, "lon": -77.001141, "name": "51217c3207160c1270215889c3cd5b7d"}, {"bike_id": "2b2f4dcfa5b6dc2cc57ec8acfc2e3207", "type": "electric_scooter", "is_disabled": 0, "lat": 38.89732033333333, "rental_uris": {"ios": "https://dc.lft.to/lastmile_qr_scan", "android": "https://dc.lft.to/lastmile_qr_scan"}, "is_reserved": 0, "fusion_lon": 0.0, "fusion_lat": 0.0, "lon": -77.02455383333333, "name": "2b2f4dcfa5b6dc2cc57ec8acfc2e3207"}, {"bike_id": "4337d3029bb1a533457b113ffb35e78e", "type": "electric_scooter", "is_disabled": 0, "lat": 38.919002, "rental_uris": {"ios": "https://dc.lft.to/lastmile_qr_scan", "android": "https://dc.lft.to/lastmile_qr_scan"}, "is_reserved": 0, "fusion_lon": 0.0, "fusion_lat": 0.0, "lon": -77.01682233333334, "name": "4337d3029bb1a533457b113ffb35e78e"}, {"bike_id": "b4d8143b40c5d1acf27108511b36dbb2", "type": "electric_scooter", "is_disabled": 0, "lat": 38.92073366666666, "rental_uris": {"ios": "https://dc.lft.to/lastmile_qr_scan", "android": "https://dc.lft.to/lastmile_qr_scan"}, "is_reserved": 0, "fusion_lon": 0.0, "fusion_lat": 0.0, "lon": -77.02343916666666, "name": "b4d8143b40c5d1acf27108511b36dbb2"}, {"bike_id": "55467f50ade5e0712d5bab4e5dd9d3ee", "type": "electric_scooter", "is_disabled": 0, "lat": 38.8928745, "rental_uris": {"ios": "https://dc.lft.to/lastmile_qr_scan", "android": "https://dc.lft.to/lastmile_qr_scan"}, "is_reserved": 0, "fusion_lon": 0.0, "fusion_lat": 0.0, "lon": -77.04480666666667, "name": "55467f50ade5e0712d5bab4e5dd9d3ee"}, {"bike_id": "e8003e0bcf083b211a75a059189384a9", "type": "electric_scooter", "is_disabled": 0, "lat": 38.902618333333336, "rental_uris": {"ios": "https://dc.lft.to/lastmile_qr_scan", "android": "https://dc.lft.to/lastmile_qr_scan"}, "is_reserved": 0, "fusion_lon": 0.0, "fusion_lat": 0.0, "lon": -77.02658466666666, "name": "e8003e0bcf083b211a75a059189384a9"}, {"bike_id": "129a37d6fe03137eeeada1b943d41431", "type": "electric_scooter", "is_disabled": 0, "lat": 38.942921166666665, "rental_uris": {"ios": "https://dc.lft.to/lastmile_qr_scan", "android": "https://dc.lft.to/lastmile_qr_scan"}, "is_reserved": 0, "fusion_lon": 0.0, "fusion_lat": 0.0, "lon": -77.021757, "name": "129a37d6fe03137eeeada1b943d41431"}, {"bike_id": "3962fc2536c99f97567e9970539a506f", "type": "electric_scooter", "is_disabled": 0, "lat": 38.920001, "rental_uris": {"ios": "https://dc.lft.to/lastmile_qr_scan", "android": "https://dc.lft.to/lastmile_qr_scan"}, "is_reserved": 0, "fusion_lon": 0.0, "fusion_lat": 0.0, "lon": -77.03210166666666, "name": "3962fc2536c99f97567e9970539a506f"}, {"bike_id": "1d498d133db6b87fc221d54b28532294", "type": "electric_scooter", "is_disabled": 0, "lat": 38.933354666666666, "rental_uris": {"ios": "https://dc.lft.to/lastmile_qr_scan", "android": "https://dc.lft.to/lastmile_qr_scan"}, "is_reserved": 0, "fusion_lon": 0.0, "fusion_lat": 0.0, "lon": -77.039963, "name": "1d498d133db6b87fc221d54b28532294"}, {"bike_id": "c1b6d3454141c719d34454c6968105cd", "type": "electric_scooter", "is_disabled": 0, "lat": 38.92231433333333, "rental_uris": {"ios": "https://dc.lft.to/lastmile_qr_scan", "android": "https://dc.lft.to/lastmile_qr_scan"}, "is_reserved": 0, "fusion_lon": 0.0, "fusion_lat": 0.0, "lon": -77.0427195, "name": "c1b6d3454141c719d34454c6968105cd"}, {"bike_id": "03d0842e6d7d2d892932902f6443b0b0", "type": "electric_bike", "is_disabled": 0, "lat": 38.91299466666667, "rental_uris": {"ios": "https://dc.lft.to/lastmile_qr_scan", "android": "https://dc.lft.to/lastmile_qr_scan"}, "is_reserved": 0, "fusion_lon": 0.0, "fusion_lat": 0.0, "lon": -77.00640866666667, "name": "03d0842e6d7d2d892932902f6443b0b0"}, {"bike_id": "e71a9b76775b0da9cc7271f2ae6c4aaf", "type": "electric_scooter", "is_disabled": 0, "lat": 38.906085833333336, "rental_uris": {"ios": "https://dc.lft.to/lastmile_qr_scan", "android": "https://dc.lft.to/lastmile_qr_scan"}, "is_reserved": 0, "fusion_lon": 0.0, "fusion_lat": 0.0, "lon": -77.0400745, "name": "e71a9b76775b0da9cc7271f2ae6c4aaf"}, {"bike_id": "5bddaea591f7f1471ec7828154df9b8e", "type": "electric_scooter", "is_disabled": 0, "lat": 38.90530566666666, "rental_uris": {"ios": "https://dc.lft.to/lastmile_qr_scan", "android": "https://dc.lft.to/lastmile_qr_scan"}, "is_reserved": 0, "fusion_lon": 0.0, "fusion_lat": 0.0, "lon": -76.98621266666666, "name": "5bddaea591f7f1471ec7828154df9b8e"}, {"bike_id": "d49d35356f2c4dc20f3e343906e5c669", "type": "electric_scooter", "is_disabled": 0, "lat": 38.897174, "rental_uris": {"ios": "https://dc.lft.to/lastmile_qr_scan", "android": "https://dc.lft.to/lastmile_qr_scan"}, "is_reserved": 0, "fusion_lon": 0.0, "fusion_lat": 0.0, "lon": -76.98838833333333, "name": "d49d35356f2c4dc20f3e343906e5c669"}, {"bike_id": "cc1d32792916331f3219209ff1563fa3", "type": "electric_scooter", "is_disabled": 0, "lat": 38.92167333333333, "rental_uris": {"ios": "https://dc.lft.to/lastmile_qr_scan", "android": "https://dc.lft.to/lastmile_qr_scan"}, "is_reserved": 0, "fusion_lon": 0.0, "fusion_lat": 0.0, "lon": -77.038513, "name": "cc1d32792916331f3219209ff1563fa3"}, {"bike_id": "d969312b27d7dc8b46da8c8948c12893", "type": "electric_bike", "is_disabled": 0, "lat": 38.941196, "rental_uris": {"ios": "https://dc.lft.to/lastmile_qr_scan", "android": "https://dc.lft.to/lastmile_qr_scan"}, "is_reserved": 0, "fusion_lon": 0.0, "fusion_lat": 0.0, "lon": -77.0007375, "name": "d969312b27d7dc8b46da8c8948c12893"}, {"bike_id": "25d4a028b41010e3b89fbb298fe8740a", "type": "electric_scooter", "is_disabled": 0, "lat": 38.858331, "rental_uris": {"ios": "https://dc.lft.to/lastmile_qr_scan", "android": "https://dc.lft.to/lastmile_qr_scan"}, "is_reserved": 0, "fusion_lon": 0.0, "fusion_lat": 0.0, "lon": -76.98734516666667, "name": "25d4a028b41010e3b89fbb298fe8740a"}, {"bike_id": "f1c96ffbdcca9b8158730b49ae1761c9", "type": "electric_scooter", "is_disabled": 0, "lat": 38.93345083333333, "rental_uris": {"ios": "https://dc.lft.to/lastmile_qr_scan", "android": "https://dc.lft.to/lastmile_qr_scan"}, "is_reserved": 0, "fusion_lon": 0.0, "fusion_lat": 0.0, "lon": -77.06202466666667, "name": "f1c96ffbdcca9b8158730b49ae1761c9"}, {"bike_id": "162475731fb541913ec8e2f47b258c97", "type": "electric_scooter", "is_disabled": 0, "lat": 38.94626, "rental_uris": {"ios": "https://dc.lft.to/lastmile_qr_scan", "android": "https://dc.lft.to/lastmile_qr_scan"}, "is_reserved": 0, "fusion_lon": 0.0, "fusion_lat": 0.0, "lon": -77.01846366666666, "name": "162475731fb541913ec8e2f47b258c97"}, {"bike_id": "b8ee50d143cc75cec3bdb70afee80116", "type": "electric_scooter", "is_disabled": 0, "lat": 38.89476766666667, "rental_uris": {"ios": "https://dc.lft.to/lastmile_qr_scan", "android": "https://dc.lft.to/lastmile_qr_scan"}, "is_reserved": 0, "fusion_lon": 0.0, "fusion_lat": 0.0, "lon": -76.995235, "name": "b8ee50d143cc75cec3bdb70afee80116"}, {"bike_id": "0769c82463a8153daa99ba33be5855b1", "type": "electric_scooter", "is_disabled": 0, "lat": 38.9240395, "rental_uris": {"ios": "https://dc.lft.to/lastmile_qr_scan", "android": "https://dc.lft.to/lastmile_qr_scan"}, "is_reserved": 0, "fusion_lon": 0.0, "fusion_lat": 0.0, "lon": -77.02542366666667, "name": "0769c82463a8153daa99ba33be5855b1"}, {"bike_id": "2f140ceb25f4e94a46686c7502463794", "type": "electric_scooter", "is_disabled": 0, "lat": 38.91546366666667, "rental_uris": {"ios": "https://dc.lft.to/lastmile_qr_scan", "android": "https://dc.lft.to/lastmile_qr_scan"}, "is_reserved": 0, "fusion_lon": 0.0, "fusion_lat": 0.0, "lon": -77.03855233333333, "name": "2f140ceb25f4e94a46686c7502463794"}, {"bike_id": "32ca360da4a9e9318266a5aae4495490", "type": "electric_scooter", "is_disabled": 0, "lat": 38.89978, "rental_uris": {"ios": "https://dc.lft.to/lastmile_qr_scan", "android": "https://dc.lft.to/lastmile_qr_scan"}, "is_reserved": 0, "fusion_lon": 0.0, "fusion_lat": 0.0, "lon": -77.02187766666667, "name": "32ca360da4a9e9318266a5aae4495490"}, {"bike_id": "14008decab081db0eefdb7b52ea11708", "type": "electric_bike", "is_disabled": 0, "lat": 38.849334999999996, "rental_uris": {"ios": "https://dc.lft.to/lastmile_qr_scan", "android": "https://dc.lft.to/lastmile_qr_scan"}, "is_reserved": 0, "fusion_lon": 0.0, "fusion_lat": 0.0, "lon": -77.10013883333333, "name": "14008decab081db0eefdb7b52ea11708"}, {"bike_id": "3f5ce2bb88d572285b6a2c8262f84b37", "type": "electric_scooter", "is_disabled": 0, "lat": 38.86696833333333, "rental_uris": {"ios": "https://dc.lft.to/lastmile_qr_scan", "android": "https://dc.lft.to/lastmile_qr_scan"}, "is_reserved": 0, "fusion_lon": 0.0, "fusion_lat": 0.0, "lon": -76.9870915, "name": "3f5ce2bb88d572285b6a2c8262f84b37"}, {"bike_id": "710e80fd8f32fbf72c2c3f89797a0787", "type": "electric_scooter", "is_disabled": 0, "lat": 38.85755183333333, "rental_uris": {"ios": "https://dc.lft.to/lastmile_qr_scan", "android": "https://dc.lft.to/lastmile_qr_scan"}, "is_reserved": 0, "fusion_lon": 0.0, "fusion_lat": 0.0, "lon": -76.993019, "name": "710e80fd8f32fbf72c2c3f89797a0787"}, {"bike_id": "c98e5b06992219c868e046da28d354a6", "type": "electric_scooter", "is_disabled": 0, "lat": 38.923942833333335, "rental_uris": {"ios": "https://dc.lft.to/lastmile_qr_scan", "android": "https://dc.lft.to/lastmile_qr_scan"}, "is_reserved": 0, "fusion_lon": 0.0, "fusion_lat": 0.0, "lon": -77.040635, "name": "c98e5b06992219c868e046da28d354a6"}, {"bike_id": "6abdef26d9eb616d61dc6a26504d197a", "type": "electric_scooter", "is_disabled": 0, "lat": 38.93110716666666, "rental_uris": {"ios": "https://dc.lft.to/lastmile_qr_scan", "android": "https://dc.lft.to/lastmile_qr_scan"}, "is_reserved": 0, "fusion_lon": 0.0, "fusion_lat": 0.0, "lon": -77.03031916666667, "name": "6abdef26d9eb616d61dc6a26504d197a"}, {"bike_id": "615588793deeaf2730a582a239207222", "type": "electric_scooter", "is_disabled": 0, "lat": 38.93509983333333, "rental_uris": {"ios": "https://dc.lft.to/lastmile_qr_scan", "android": "https://dc.lft.to/lastmile_qr_scan"}, "is_reserved": 0, "fusion_lon": 0.0, "fusion_lat": 0.0, "lon": -77.03290766666667, "name": "615588793deeaf2730a582a239207222"}, {"bike_id": "c9df7ca3baa644e1a22a1fe49cd464a2", "type": "electric_bike", "is_disabled": 0, "lat": 38.959622833333334, "rental_uris": {"ios": "https://dc.lft.to/lastmile_qr_scan", "android": "https://dc.lft.to/lastmile_qr_scan"}, "is_reserved": 0, "fusion_lon": 0.0, "fusion_lat": 0.0, "lon": -77.03058, "name": "c9df7ca3baa644e1a22a1fe49cd464a2"}, {"bike_id": "0760f270596340dad454b68098ba2db9", "type": "electric_scooter", "is_disabled": 0, "lat": 38.91576766666667, "rental_uris": {"ios": "https://dc.lft.to/lastmile_qr_scan", "android": "https://dc.lft.to/lastmile_qr_scan"}, "is_reserved": 0, "fusion_lon": 0.0, "fusion_lat": 0.0, "lon": -77.0187515, "name": "0760f270596340dad454b68098ba2db9"}, {"bike_id": "98e5539e8c2177b7b57806b4d2c8c93f", "type": "electric_scooter", "is_disabled": 0, "lat": 38.9157875, "rental_uris": {"ios": "https://dc.lft.to/lastmile_qr_scan", "android": "https://dc.lft.to/lastmile_qr_scan"}, "is_reserved": 0, "fusion_lon": 0.0, "fusion_lat": 0.0, "lon": -77.01236966666667, "name": "98e5539e8c2177b7b57806b4d2c8c93f"}, {"bike_id": "655cc44a9469b19e3646a59d8f4759a6", "type": "electric_scooter", "is_disabled": 0, "lat": 38.9142215, "rental_uris": {"ios": "https://dc.lft.to/lastmile_qr_scan", "android": "https://dc.lft.to/lastmile_qr_scan"}, "is_reserved": 0, "fusion_lon": 0.0, "fusion_lat": 0.0, "lon": -77.03182233333334, "name": "655cc44a9469b19e3646a59d8f4759a6"}, {"bike_id": "e62bf7baa5fe13b0c1e67ee1ee116e47", "type": "electric_scooter", "is_disabled": 0, "lat": 38.91746533333333, "rental_uris": {"ios": "https://dc.lft.to/lastmile_qr_scan", "android": "https://dc.lft.to/lastmile_qr_scan"}, "is_reserved": 0, "fusion_lon": 0.0, "fusion_lat": 0.0, "lon": -77.006964, "name": "e62bf7baa5fe13b0c1e67ee1ee116e47"}, {"bike_id": "7eab352a0f6d50a6f4043dc0dda48fe0", "type": "electric_scooter", "is_disabled": 0, "lat": 38.903823, "rental_uris": {"ios": "https://dc.lft.to/lastmile_qr_scan", "android": "https://dc.lft.to/lastmile_qr_scan"}, "is_reserved": 0, "fusion_lon": 0.0, "fusion_lat": 0.0, "lon": -76.98202916666666, "name": "7eab352a0f6d50a6f4043dc0dda48fe0"}, {"bike_id": "4072d868704e3b8dcafda2f974ba5dcf", "type": "electric_scooter", "is_disabled": 0, "lat": 38.93083, "rental_uris": {"ios": "https://dc.lft.to/lastmile_qr_scan", "android": "https://dc.lft.to/lastmile_qr_scan"}, "is_reserved": 0, "fusion_lon": 0.0, "fusion_lat": 0.0, "lon": -77.02158083333333, "name": "4072d868704e3b8dcafda2f974ba5dcf"}, {"bike_id": "310ef9506297b12f910511b52147eadc", "type": "electric_scooter", "is_disabled": 0, "lat": 38.90650333333333, "rental_uris": {"ios": "https://dc.lft.to/lastmile_qr_scan", "android": "https://dc.lft.to/lastmile_qr_scan"}, "is_reserved": 0, "fusion_lon": 0.0, "fusion_lat": 0.0, "lon": -77.042961, "name": "310ef9506297b12f910511b52147eadc"}, {"bike_id": "5f22e6fcfc3360a2d5f7f452d4e02888", "type": "electric_scooter", "is_disabled": 0, "lat": 38.922425833333335, "rental_uris": {"ios": "https://dc.lft.to/lastmile_qr_scan", "android": "https://dc.lft.to/lastmile_qr_scan"}, "is_reserved": 0, "fusion_lon": 0.0, "fusion_lat": 0.0, "lon": -77.04010233333334, "name": "5f22e6fcfc3360a2d5f7f452d4e02888"}, {"bike_id": "9951912924ecf9dfaac3523454fb084b", "type": "electric_scooter", "is_disabled": 0, "lat": 38.89134516666667, "rental_uris": {"ios": "https://dc.lft.to/lastmile_qr_scan", "android": "https://dc.lft.to/lastmile_qr_scan"}, "is_reserved": 0, "fusion_lon": 0.0, "fusion_lat": 0.0, "lon": -76.95190416666667, "name": "9951912924ecf9dfaac3523454fb084b"}, {"bike_id": "8962a7dabdddb1ec64ecefc66532d146", "type": "electric_scooter", "is_disabled": 0, "lat": 38.91518166666667, "rental_uris": {"ios": "https://dc.lft.to/lastmile_qr_scan", "android": "https://dc.lft.to/lastmile_qr_scan"}, "is_reserved": 0, "fusion_lon": 0.0, "fusion_lat": 0.0, "lon": -77.0198335, "name": "8962a7dabdddb1ec64ecefc66532d146"}, {"bike_id": "585c05391cb07117ea60bd605ca82595", "type": "electric_scooter", "is_disabled": 0, "lat": 38.91107, "rental_uris": {"ios": "https://dc.lft.to/lastmile_qr_scan", "android": "https://dc.lft.to/lastmile_qr_scan"}, "is_reserved": 0, "fusion_lon": 0.0, "fusion_lat": 0.0, "lon": -77.03866283333333, "name": "585c05391cb07117ea60bd605ca82595"}, {"bike_id": "66f7dd5e1f8bd0503253e31c09106258", "type": "electric_scooter", "is_disabled": 0, "lat": 38.92629066666667, "rental_uris": {"ios": "https://dc.lft.to/lastmile_qr_scan", "android": "https://dc.lft.to/lastmile_qr_scan"}, "is_reserved": 0, "fusion_lon": 0.0, "fusion_lat": 0.0, "lon": -77.03430366666667, "name": "66f7dd5e1f8bd0503253e31c09106258"}, {"bike_id": "2704c8cac42cafda48d8b8bfca2cff04", "type": "electric_scooter", "is_disabled": 0, "lat": 38.92761983333333, "rental_uris": {"ios": "https://dc.lft.to/lastmile_qr_scan", "android": "https://dc.lft.to/lastmile_qr_scan"}, "is_reserved": 0, "fusion_lon": 0.0, "fusion_lat": 0.0, "lon": -77.0563535, "name": "2704c8cac42cafda48d8b8bfca2cff04"}, {"bike_id": "d1950e24268b434203b3a6518608166c", "type": "electric_scooter", "is_disabled": 0, "lat": 38.90773183333334, "rental_uris": {"ios": "https://dc.lft.to/lastmile_qr_scan", "android": "https://dc.lft.to/lastmile_qr_scan"}, "is_reserved": 0, "fusion_lon": 0.0, "fusion_lat": 0.0, "lon": -77.05798, "name": "d1950e24268b434203b3a6518608166c"}, {"bike_id": "20e62797b1223dfb3c95a97fd164c26b", "type": "electric_scooter", "is_disabled": 0, "lat": 38.90729816666666, "rental_uris": {"ios": "https://dc.lft.to/lastmile_qr_scan", "android": "https://dc.lft.to/lastmile_qr_scan"}, "is_reserved": 0, "fusion_lon": 0.0, "fusion_lat": 0.0, "lon": -77.02977583333333, "name": "20e62797b1223dfb3c95a97fd164c26b"}, {"bike_id": "5807a5eb28a03f6c240f849db05d9b85", "type": "electric_scooter", "is_disabled": 0, "lat": 38.90927583333333, "rental_uris": {"ios": "https://dc.lft.to/lastmile_qr_scan", "android": "https://dc.lft.to/lastmile_qr_scan"}, "is_reserved": 0, "fusion_lon": 0.0, "fusion_lat": 0.0, "lon": -77.04574366666667, "name": "5807a5eb28a03f6c240f849db05d9b85"}, {"bike_id": "21cecbdf42eed9307f274ce6e41e83e8", "type": "electric_scooter", "is_disabled": 0, "lat": 38.91417416666667, "rental_uris": {"ios": "https://dc.lft.to/lastmile_qr_scan", "android": "https://dc.lft.to/lastmile_qr_scan"}, "is_reserved": 0, "fusion_lon": 0.0, "fusion_lat": 0.0, "lon": -77.0281695, "name": "21cecbdf42eed9307f274ce6e41e83e8"}, {"bike_id": "ed616bbaa1fb02f0003971aa1fd8a256", "type": "electric_scooter", "is_disabled": 0, "lat": 38.906516333333336, "rental_uris": {"ios": "https://dc.lft.to/lastmile_qr_scan", "android": "https://dc.lft.to/lastmile_qr_scan"}, "is_reserved": 0, "fusion_lon": 0.0, "fusion_lat": 0.0, "lon": -77.035307, "name": "ed616bbaa1fb02f0003971aa1fd8a256"}, {"bike_id": "b615a4b21c5620179dee1352951a01a7", "type": "electric_scooter", "is_disabled": 0, "lat": 38.915513833333335, "rental_uris": {"ios": "https://dc.lft.to/lastmile_qr_scan", "android": "https://dc.lft.to/lastmile_qr_scan"}, "is_reserved": 0, "fusion_lon": 0.0, "fusion_lat": 0.0, "lon": -77.04450133333333, "name": "b615a4b21c5620179dee1352951a01a7"}, {"bike_id": "5a25bddd69714faf2464a156bf099a5f", "type": "electric_scooter", "is_disabled": 0, "lat": 38.90045416666667, "rental_uris": {"ios": "https://dc.lft.to/lastmile_qr_scan", "android": "https://dc.lft.to/lastmile_qr_scan"}, "is_reserved": 0, "fusion_lon": 0.0, "fusion_lat": 0.0, "lon": -77.04832016666667, "name": "5a25bddd69714faf2464a156bf099a5f"}, {"bike_id": "02f798f80713a112925e79bc410bf686", "type": "electric_scooter", "is_disabled": 0, "lat": 38.933971, "rental_uris": {"ios": "https://dc.lft.to/lastmile_qr_scan", "android": "https://dc.lft.to/lastmile_qr_scan"}, "is_reserved": 0, "fusion_lon": 0.0, "fusion_lat": 0.0, "lon": -77.05743933333333, "name": "02f798f80713a112925e79bc410bf686"}, {"bike_id": "f8ae3f51c035553a8a170cd702422098", "type": "electric_scooter", "is_disabled": 0, "lat": 38.906212, "rental_uris": {"ios": "https://dc.lft.to/lastmile_qr_scan", "android": "https://dc.lft.to/lastmile_qr_scan"}, "is_reserved": 0, "fusion_lon": 0.0, "fusion_lat": 0.0, "lon": -77.02817, "name": "f8ae3f51c035553a8a170cd702422098"}, {"bike_id": "fd432b414fc48e28b3edcc5beb9c755e", "type": "electric_bike", "is_disabled": 0, "lat": 38.906225666666664, "rental_uris": {"ios": "https://dc.lft.to/lastmile_qr_scan", "android": "https://dc.lft.to/lastmile_qr_scan"}, "is_reserved": 0, "fusion_lon": 0.0, "fusion_lat": 0.0, "lon": -76.98604966666667, "name": "fd432b414fc48e28b3edcc5beb9c755e"}, {"bike_id": "c369fa9b9d9daaff63cc9c1ed6a64a9a", "type": "electric_scooter", "is_disabled": 0, "lat": 38.924040166666664, "rental_uris": {"ios": "https://dc.lft.to/lastmile_qr_scan", "android": "https://dc.lft.to/lastmile_qr_scan"}, "is_reserved": 0, "fusion_lon": 0.0, "fusion_lat": 0.0, "lon": -77.02980483333333, "name": "c369fa9b9d9daaff63cc9c1ed6a64a9a"}, {"bike_id": "9594c0e592f06e6c043fd2f0f4894fac", "type": "electric_scooter", "is_disabled": 0, "lat": 38.897498666666664, "rental_uris": {"ios": "https://dc.lft.to/lastmile_qr_scan", "android": "https://dc.lft.to/lastmile_qr_scan"}, "is_reserved": 0, "fusion_lon": 0.0, "fusion_lat": 0.0, "lon": -77.02104733333333, "name": "9594c0e592f06e6c043fd2f0f4894fac"}, {"bike_id": "751785f4e5a2858e0a293734651a1fdd", "type": "electric_scooter", "is_disabled": 0, "lat": 38.90139466666667, "rental_uris": {"ios": "https://dc.lft.to/lastmile_qr_scan", "android": "https://dc.lft.to/lastmile_qr_scan"}, "is_reserved": 0, "fusion_lon": 0.0, "fusion_lat": 0.0, "lon": -77.020109, "name": "751785f4e5a2858e0a293734651a1fdd"}, {"bike_id": "9348892004a5d34a9e247e45bcee382f", "type": "electric_scooter", "is_disabled": 0, "lat": 38.884107, "rental_uris": {"ios": "https://dc.lft.to/lastmile_qr_scan", "android": "https://dc.lft.to/lastmile_qr_scan"}, "is_reserved": 0, "fusion_lon": 0.0, "fusion_lat": 0.0, "lon": -76.94824683333333, "name": "9348892004a5d34a9e247e45bcee382f"}, {"bike_id": "6856f39a9d2f66b22dfd3f9614ffc9ec", "type": "electric_scooter", "is_disabled": 0, "lat": 38.897474333333335, "rental_uris": {"ios": "https://dc.lft.to/lastmile_qr_scan", "android": "https://dc.lft.to/lastmile_qr_scan"}, "is_reserved": 0, "fusion_lon": 0.0, "fusion_lat": 0.0, "lon": -77.04404766666667, "name": "6856f39a9d2f66b22dfd3f9614ffc9ec"}, {"bike_id": "4943ae90acae13ed12851833d882d275", "type": "electric_scooter", "is_disabled": 0, "lat": 38.8961385, "rental_uris": {"ios": "https://dc.lft.to/lastmile_qr_scan", "android": "https://dc.lft.to/lastmile_qr_scan"}, "is_reserved": 0, "fusion_lon": 0.0, "fusion_lat": 0.0, "lon": -77.026377, "name": "4943ae90acae13ed12851833d882d275"}, {"bike_id": "f1b9e25ad19e3c274a3793f7133b9b94", "type": "electric_scooter", "is_disabled": 0, "lat": 38.9075665, "rental_uris": {"ios": "https://dc.lft.to/lastmile_qr_scan", "android": "https://dc.lft.to/lastmile_qr_scan"}, "is_reserved": 0, "fusion_lon": 0.0, "fusion_lat": 0.0, "lon": -77.008835, "name": "f1b9e25ad19e3c274a3793f7133b9b94"}, {"bike_id": "10412063a727744be98378edb8128b49", "type": "electric_scooter", "is_disabled": 0, "lat": 38.888213666666665, "rental_uris": {"ios": "https://dc.lft.to/lastmile_qr_scan", "android": "https://dc.lft.to/lastmile_qr_scan"}, "is_reserved": 0, "fusion_lon": 0.0, "fusion_lat": 0.0, "lon": -76.99160716666667, "name": "10412063a727744be98378edb8128b49"}, {"bike_id": "d0e364662c947f228ec5016d75a2dd21", "type": "electric_scooter", "is_disabled": 0, "lat": 38.923421833333336, "rental_uris": {"ios": "https://dc.lft.to/lastmile_qr_scan", "android": "https://dc.lft.to/lastmile_qr_scan"}, "is_reserved": 0, "fusion_lon": 0.0, "fusion_lat": 0.0, "lon": -77.0512255, "name": "d0e364662c947f228ec5016d75a2dd21"}, {"bike_id": "1ea5afe5de6d4bebcad3aa40b198c98e", "type": "electric_scooter", "is_disabled": 0, "lat": 38.90568716666667, "rental_uris": {"ios": "https://dc.lft.to/lastmile_qr_scan", "android": "https://dc.lft.to/lastmile_qr_scan"}, "is_reserved": 0, "fusion_lon": 0.0, "fusion_lat": 0.0, "lon": -77.04584716666666, "name": "1ea5afe5de6d4bebcad3aa40b198c98e"}, {"bike_id": "c49b8bad24b31aa5b50f7a14dfa85957", "type": "electric_scooter", "is_disabled": 0, "lat": 38.917768, "rental_uris": {"ios": "https://dc.lft.to/lastmile_qr_scan", "android": "https://dc.lft.to/lastmile_qr_scan"}, "is_reserved": 0, "fusion_lon": 0.0, "fusion_lat": 0.0, "lon": -77.03179983333334, "name": "c49b8bad24b31aa5b50f7a14dfa85957"}, {"bike_id": "828b8b174289a11d76097f2bbf618e12", "type": "electric_scooter", "is_disabled": 0, "lat": 38.92050166666667, "rental_uris": {"ios": "https://dc.lft.to/lastmile_qr_scan", "android": "https://dc.lft.to/lastmile_qr_scan"}, "is_reserved": 0, "fusion_lon": 0.0, "fusion_lat": 0.0, "lon": -77.02372666666666, "name": "828b8b174289a11d76097f2bbf618e12"}, {"bike_id": "e745d6b96a1245de155fc8a127941ace", "type": "electric_scooter", "is_disabled": 0, "lat": 38.923351333333336, "rental_uris": {"ios": "https://dc.lft.to/lastmile_qr_scan", "android": "https://dc.lft.to/lastmile_qr_scan"}, "is_reserved": 0, "fusion_lon": 0.0, "fusion_lat": 0.0, "lon": -77.05295466666666, "name": "e745d6b96a1245de155fc8a127941ace"}, {"bike_id": "f361bb571e6ae436ee390c67f8433166", "type": "electric_scooter", "is_disabled": 0, "lat": 38.91103866666667, "rental_uris": {"ios": "https://dc.lft.to/lastmile_qr_scan", "android": "https://dc.lft.to/lastmile_qr_scan"}, "is_reserved": 0, "fusion_lon": 0.0, "fusion_lat": 0.0, "lon": -77.03250666666666, "name": "f361bb571e6ae436ee390c67f8433166"}, {"bike_id": "b8d3f9493d4a0aa1e5107de684869004", "type": "electric_scooter", "is_disabled": 0, "lat": 38.909681, "rental_uris": {"ios": "https://dc.lft.to/lastmile_qr_scan", "android": "https://dc.lft.to/lastmile_qr_scan"}, "is_reserved": 0, "fusion_lon": 0.0, "fusion_lat": 0.0, "lon": -77.02705566666667, "name": "b8d3f9493d4a0aa1e5107de684869004"}, {"bike_id": "d10da04e6158e5b705e217b952d493cb", "type": "electric_scooter", "is_disabled": 0, "lat": 38.9327605, "rental_uris": {"ios": "https://dc.lft.to/lastmile_qr_scan", "android": "https://dc.lft.to/lastmile_qr_scan"}, "is_reserved": 0, "fusion_lon": 0.0, "fusion_lat": 0.0, "lon": -77.03494166666667, "name": "d10da04e6158e5b705e217b952d493cb"}, {"bike_id": "057a6e85da27282ee437046d332acc99", "type": "electric_bike", "is_disabled": 0, "lat": 39.05635616666667, "rental_uris": {"ios": "https://dc.lft.to/lastmile_qr_scan", "android": "https://dc.lft.to/lastmile_qr_scan"}, "is_reserved": 0, "fusion_lon": 0.0, "fusion_lat": 0.0, "lon": -77.12524866666666, "name": "057a6e85da27282ee437046d332acc99"}, {"bike_id": "f3dab0eae9e8222dde7373306bbf3c28", "type": "electric_scooter", "is_disabled": 0, "lat": 38.938166, "rental_uris": {"ios": "https://dc.lft.to/lastmile_qr_scan", "android": "https://dc.lft.to/lastmile_qr_scan"}, "is_reserved": 0, "fusion_lon": 0.0, "fusion_lat": 0.0, "lon": -77.07163616666666, "name": "f3dab0eae9e8222dde7373306bbf3c28"}, {"bike_id": "eade454abbce228b19603f9bc07f4cb1", "type": "electric_scooter", "is_disabled": 0, "lat": 38.9110435, "rental_uris": {"ios": "https://dc.lft.to/lastmile_qr_scan", "android": "https://dc.lft.to/lastmile_qr_scan"}, "is_reserved": 0, "fusion_lon": 0.0, "fusion_lat": 0.0, "lon": -77.03866566666666, "name": "eade454abbce228b19603f9bc07f4cb1"}, {"bike_id": "98866de1b6d2bb792ce9c58a5927d6a7", "type": "electric_scooter", "is_disabled": 0, "lat": 38.94200466666667, "rental_uris": {"ios": "https://dc.lft.to/lastmile_qr_scan", "android": "https://dc.lft.to/lastmile_qr_scan"}, "is_reserved": 0, "fusion_lon": 0.0, "fusion_lat": 0.0, "lon": -77.02578883333334, "name": "98866de1b6d2bb792ce9c58a5927d6a7"}, {"bike_id": "b172ad935edd3e568ccce26e756d0a12", "type": "electric_bike", "is_disabled": 0, "lat": 38.9483195, "rental_uris": {"ios": "https://dc.lft.to/lastmile_qr_scan", "android": "https://dc.lft.to/lastmile_qr_scan"}, "is_reserved": 0, "fusion_lon": 0.0, "fusion_lat": 0.0, "lon": -77.03902383333333, "name": "b172ad935edd3e568ccce26e756d0a12"}, {"bike_id": "04edc60487d642a515f22a301074e326", "type": "electric_scooter", "is_disabled": 0, "lat": 38.91924366666667, "rental_uris": {"ios": "https://dc.lft.to/lastmile_qr_scan", "android": "https://dc.lft.to/lastmile_qr_scan"}, "is_reserved": 0, "fusion_lon": 0.0, "fusion_lat": 0.0, "lon": -77.02421566666666, "name": "04edc60487d642a515f22a301074e326"}, {"bike_id": "f475bb718a2cbe89201d55ecf92f1e80", "type": "electric_scooter", "is_disabled": 0, "lat": 38.92332666666667, "rental_uris": {"ios": "https://dc.lft.to/lastmile_qr_scan", "android": "https://dc.lft.to/lastmile_qr_scan"}, "is_reserved": 0, "fusion_lon": 0.0, "fusion_lat": 0.0, "lon": -77.05746133333334, "name": "f475bb718a2cbe89201d55ecf92f1e80"}, {"bike_id": "dd21ce00345fbeb6fd610297929db614", "type": "electric_scooter", "is_disabled": 0, "lat": 38.9335515, "rental_uris": {"ios": "https://dc.lft.to/lastmile_qr_scan", "android": "https://dc.lft.to/lastmile_qr_scan"}, "is_reserved": 0, "fusion_lon": 0.0, "fusion_lat": 0.0, "lon": -77.04122883333334, "name": "dd21ce00345fbeb6fd610297929db614"}, {"bike_id": "5f697401d8c8295b11c0ce9af4e19267", "type": "electric_scooter", "is_disabled": 0, "lat": 38.928768, "rental_uris": {"ios": "https://dc.lft.to/lastmile_qr_scan", "android": "https://dc.lft.to/lastmile_qr_scan"}, "is_reserved": 0, "fusion_lon": 0.0, "fusion_lat": 0.0, "lon": -77.01848, "name": "5f697401d8c8295b11c0ce9af4e19267"}, {"bike_id": "61c05c76a187fa58a51d52816115e5e5", "type": "electric_scooter", "is_disabled": 0, "lat": 38.90714066666666, "rental_uris": {"ios": "https://dc.lft.to/lastmile_qr_scan", "android": "https://dc.lft.to/lastmile_qr_scan"}, "is_reserved": 0, "fusion_lon": 0.0, "fusion_lat": 0.0, "lon": -77.01923316666667, "name": "61c05c76a187fa58a51d52816115e5e5"}, {"bike_id": "db84f9ee731acf07932c9c328ce6b8e5", "type": "electric_scooter", "is_disabled": 0, "lat": 38.916122, "rental_uris": {"ios": "https://dc.lft.to/lastmile_qr_scan", "android": "https://dc.lft.to/lastmile_qr_scan"}, "is_reserved": 0, "fusion_lon": 0.0, "fusion_lat": 0.0, "lon": -77.0338735, "name": "db84f9ee731acf07932c9c328ce6b8e5"}, {"bike_id": "5d4762c8d716283ea806839ba20f1f9e", "type": "electric_bike", "is_disabled": 0, "lat": 38.80014366666666, "rental_uris": {"ios": "https://dc.lft.to/lastmile_qr_scan", "android": "https://dc.lft.to/lastmile_qr_scan"}, "is_reserved": 0, "fusion_lon": 0.0, "fusion_lat": 0.0, "lon": -77.06340283333333, "name": "5d4762c8d716283ea806839ba20f1f9e"}, {"bike_id": "4fba4631a25e18797f9b99658d603109", "type": "electric_scooter", "is_disabled": 0, "lat": 38.9107155, "rental_uris": {"ios": "https://dc.lft.to/lastmile_qr_scan", "android": "https://dc.lft.to/lastmile_qr_scan"}, "is_reserved": 0, "fusion_lon": 0.0, "fusion_lat": 0.0, "lon": -77.041256, "name": "4fba4631a25e18797f9b99658d603109"}, {"bike_id": "6c78062823a138d5500fad5d0ad36828", "type": "electric_scooter", "is_disabled": 0, "lat": 38.9156355, "rental_uris": {"ios": "https://dc.lft.to/lastmile_qr_scan", "android": "https://dc.lft.to/lastmile_qr_scan"}, "is_reserved": 0, "fusion_lon": 0.0, "fusion_lat": 0.0, "lon": -77.03318633333333, "name": "6c78062823a138d5500fad5d0ad36828"}, {"bike_id": "8e2ea50f554a91d10d295310cc6b316e", "type": "electric_scooter", "is_disabled": 0, "lat": 38.9318885, "rental_uris": {"ios": "https://dc.lft.to/lastmile_qr_scan", "android": "https://dc.lft.to/lastmile_qr_scan"}, "is_reserved": 0, "fusion_lon": 0.0, "fusion_lat": 0.0, "lon": -77.02681716666666, "name": "8e2ea50f554a91d10d295310cc6b316e"}, {"bike_id": "d0de9db20be528e309ea4129636936d0", "type": "electric_scooter", "is_disabled": 0, "lat": 38.92396566666667, "rental_uris": {"ios": "https://dc.lft.to/lastmile_qr_scan", "android": "https://dc.lft.to/lastmile_qr_scan"}, "is_reserved": 0, "fusion_lon": 0.0, "fusion_lat": 0.0, "lon": -77.0447175, "name": "d0de9db20be528e309ea4129636936d0"}, {"bike_id": "9b045c53cc92ff9f8c34cb4f4a038fdb", "type": "electric_scooter", "is_disabled": 0, "lat": 38.865046, "rental_uris": {"ios": "https://dc.lft.to/lastmile_qr_scan", "android": "https://dc.lft.to/lastmile_qr_scan"}, "is_reserved": 0, "fusion_lon": 0.0, "fusion_lat": 0.0, "lon": -76.9900265, "name": "9b045c53cc92ff9f8c34cb4f4a038fdb"}, {"bike_id": "e5e77eeb8600cef19183a433bd7904c7", "type": "electric_scooter", "is_disabled": 0, "lat": 38.92027383333333, "rental_uris": {"ios": "https://dc.lft.to/lastmile_qr_scan", "android": "https://dc.lft.to/lastmile_qr_scan"}, "is_reserved": 0, "fusion_lon": 0.0, "fusion_lat": 0.0, "lon": -77.04201633333334, "name": "e5e77eeb8600cef19183a433bd7904c7"}, {"bike_id": "b328e334c7c65d721f98cdf50e2a6008", "type": "electric_scooter", "is_disabled": 0, "lat": 38.866807333333334, "rental_uris": {"ios": "https://dc.lft.to/lastmile_qr_scan", "android": "https://dc.lft.to/lastmile_qr_scan"}, "is_reserved": 0, "fusion_lon": 0.0, "fusion_lat": 0.0, "lon": -76.9857455, "name": "b328e334c7c65d721f98cdf50e2a6008"}, {"bike_id": "1202d7a2cbee78b8b8a296cd678336c3", "type": "electric_scooter", "is_disabled": 0, "lat": 38.923556833333336, "rental_uris": {"ios": "https://dc.lft.to/lastmile_qr_scan", "android": "https://dc.lft.to/lastmile_qr_scan"}, "is_reserved": 0, "fusion_lon": 0.0, "fusion_lat": 0.0, "lon": -77.0513095, "name": "1202d7a2cbee78b8b8a296cd678336c3"}, {"bike_id": "1e4c7a50ae27d74a56a5397cdbe16c15", "type": "electric_scooter", "is_disabled": 0, "lat": 38.876933, "rental_uris": {"ios": "https://dc.lft.to/lastmile_qr_scan", "android": "https://dc.lft.to/lastmile_qr_scan"}, "is_reserved": 0, "fusion_lon": 0.0, "fusion_lat": 0.0, "lon": -76.931269, "name": "1e4c7a50ae27d74a56a5397cdbe16c15"}, {"bike_id": "a825fd09286d94c6166fd8ed5426767f", "type": "electric_scooter", "is_disabled": 0, "lat": 38.918847166666666, "rental_uris": {"ios": "https://dc.lft.to/lastmile_qr_scan", "android": "https://dc.lft.to/lastmile_qr_scan"}, "is_reserved": 0, "fusion_lon": 0.0, "fusion_lat": 0.0, "lon": -77.04835433333334, "name": "a825fd09286d94c6166fd8ed5426767f"}, {"bike_id": "3764734dfa3c8351a6077a9e272c35c1", "type": "electric_scooter", "is_disabled": 0, "lat": 38.91801366666667, "rental_uris": {"ios": "https://dc.lft.to/lastmile_qr_scan", "android": "https://dc.lft.to/lastmile_qr_scan"}, "is_reserved": 0, "fusion_lon": 0.0, "fusion_lat": 0.0, "lon": -77.03450366666667, "name": "3764734dfa3c8351a6077a9e272c35c1"}, {"bike_id": "a583e777eb89e3305539830cc6d3dc59", "type": "electric_scooter", "is_disabled": 0, "lat": 38.95033433333333, "rental_uris": {"ios": "https://dc.lft.to/lastmile_qr_scan", "android": "https://dc.lft.to/lastmile_qr_scan"}, "is_reserved": 0, "fusion_lon": 0.0, "fusion_lat": 0.0, "lon": -77.02730666666666, "name": "a583e777eb89e3305539830cc6d3dc59"},