{"data": {"bikes": [{"is_disabled": 0, "fusion_lon": 0.0, "fusion_lat": 0.0, "lat": 38.91691216666667, "type": "electric_scooter", "lon": -77.0346805, "bike_id": "ec67f439ba65176a07b01cdf097c8dd7", "rental_uris": {"android": "https://dc.lft.to/lastmile_qr_scan", "ios": "https://dc.lft.to/lastmile_qr_scan"}, "name": "ec67f439ba65176a07b01cdf097c8dd7", "is_reserved": 0}, {"is_disabled": 0, "fusion_lon": 0.0, "fusion_lat": 0.0, "lat": 38.91787816666667, "type": "electric_scooter", "lon": -77.04360066666666, "bike_id": "0ecf9d3c882e085c9517054ed1c6dbef", "rental_uris": {"android": "https://dc.lft.to/lastmile_qr_scan", "ios": "https://dc.lft.to/lastmile_qr_scan"}, "name": "0ecf9d3c882e085c9517054ed1c6dbef", "is_reserved": 0}, {"is_disabled": 0, "fusion_lon": 0.0, "fusion_lat": 0.0, "lat": 38.949040333333336, "type": "electric_bike", "lon": -76.96375166666667, "bike_id": "c879c731847597276770d808351f4745", "rental_uris": {"android": "https://dc.lft.to/lastmile_qr_scan", "ios": "https://dc.lft.to/lastmile_qr_scan"}, "name": "c879c731847597276770d808351f4745", "is_reserved": 0}, {"is_disabled": 0, "fusion_lon": 0.0, "fusion_lat": 0.0, "lat": 38.91656066666667, "type": "electric_scooter", "lon": -77.02962616666667, "bike_id": "cfc7f4ec783122dc8d4fc5c921e3f473", "rental_uris": {"android": "https://dc.lft.to/lastmile_qr_scan", "ios": "https://dc.lft.to/lastmile_qr_scan"}, "name": "cfc7f4ec783122dc8d4fc5c921e3f473", "is_reserved": 0}, {"is_disabled": 0, "fusion_lon": 0.0, "fusion_lat": 0.0, "lat": 38.8883735, "type": "electric_scooter", "lon": -76.917777, "bike_id": "6636a801c26f0c243d5c229820c3fd0f", "rental_uris": {"android": "https://dc.lft.to/lastmile_qr_scan", "ios": "https://dc.lft.to/lastmile_qr_scan"}, "name": "6636a801c26f0c243d5c229820c3fd0f", "is_reserved": 0}, {"is_disabled": 0, "fusion_lon": 0.0, "fusion_lat": 0.0, "lat": 38.93928866666667, "type": "electric_bike", "lon": -76.995156, "bike_id": "dd2a9ef7157c292fdd1e870e343b33f0", "rental_uris": {"android": "https://dc.lft.to/lastmile_qr_scan", "ios": "https://dc.lft.to/lastmile_qr_scan"}, "name": "dd2a9ef7157c292fdd1e870e343b33f0", "is_reserved": 0}, {"is_disabled": 0, "fusion_lon": 0.0, "fusion_lat": 0.0, "lat": 38.932345166666664, "type": "electric_scooter", "lon": -76.99933933333334, "bike_id": "d91a896afba7b5e9f860fef11d79a019", "rental_uris": {"android": "https://dc.lft.to/lastmile_qr_scan", "ios": "https://dc.lft.to/lastmile_qr_scan"}, "name": "d91a896afba7b5e9f860fef11d79a019", "is_reserved": 0}, {"is_disabled": 0, "fusion_lon": 0.0, "fusion_lat": 0.0, "lat": 38.90596716666667, "type": "electric_scooter", "lon": -77.04683483333334, "bike_id": "fc1e26e380a9fb3652afad1c395901fb", "rental_uris": {"android": "https://dc.lft.to/lastmile_qr_scan", "ios": "https://dc.lft.to/lastmile_qr_scan"}, "name": "fc1e26e380a9fb3652afad1c395901fb", "is_reserved": 0}, {"is_disabled": 0, "fusion_lon": 0.0, "fusion_lat": 0.0, "lat": 38.91820033333333, "type": "electric_scooter", "lon": -77.04529366666667, "bike_id": "4eae7bde1e5c5e80e782461eb8e48cca", "rental_uris": {"android": "https://dc.lft.to/lastmile_qr_scan", "ios": "https://dc.lft.to/lastmile_qr_scan"}, "name": "4eae7bde1e5c5e80e782461eb8e48cca", "is_reserved": 0}, {"is_disabled": 0, "fusion_lon": 0.0, "fusion_lat": 0.0, "lat": 38.936678666666666, "type": "electric_scooter", "lon": -77.03637783333333, "bike_id": "2dfa0a28bb879e17db2df1854a86ea3e", "rental_uris": {"android": "https://dc.lft.to/lastmile_qr_scan", "ios": "https://dc.lft.to/lastmile_qr_scan"}, "name": "2dfa0a28bb879e17db2df1854a86ea3e", "is_reserved": 0}, {"is_disabled": 0, "fusion_lon": 0.0, "fusion_lat": 0.0, "lat": 38.83125166666667, "type": "electric_bike", "lon": -77.04330183333333, "bike_id": "dc9120fad64bfae30d5c2b3fe8235488", "rental_uris": {"android": "https://dc.lft.to/lastmile_qr_scan", "ios": "https://dc.lft.to/lastmile_qr_scan"}, "name": "dc9120fad64bfae30d5c2b3fe8235488", "is_reserved": 0}, {"is_disabled": 0, "fusion_lon": 0.0, "fusion_lat": 0.0, "lat": 38.89373916666667, "type": "electric_scooter", "lon": -76.94995883333333, "bike_id": "52e9c2bec9bf334c1682cab26fad007d", "rental_uris": {"android": "https://dc.lft.to/lastmile_qr_scan", "ios": "https://dc.lft.to/lastmile_qr_scan"}, "name": "52e9c2bec9bf334c1682cab26fad007d", "is_reserved": 0}, {"is_disabled": 0, "fusion_lon": 0.0, "fusion_lat": 0.0, "lat": 38.910348, "type": "electric_scooter", "lon": -77.04059283333333, "bike_id": "3767360a1303dc46930659db92f8d5b5", "rental_uris": {"android": "https://dc.lft.to/lastmile_qr_scan", "ios": "https://dc.lft.to/lastmile_qr_scan"}, "name": "3767360a1303dc46930659db92f8d5b5", "is_reserved": 0}, {"is_disabled": 0, "fusion_lon": 0.0, "fusion_lat": 0.0, "lat": 38.940844, "type": "electric_scooter", "lon": -77.0595885, "bike_id": "2eda07d294f80adaf4e77c6ff08f6f1c", "rental_uris": {"android": "https://dc.lft.to/lastmile_qr_scan", "ios": "https://dc.lft.to/lastmile_qr_scan"}, "name": "2eda07d294f80adaf4e77c6ff08f6f1c", "is_reserved": 0}, {"is_disabled": 0, "fusion_lon": 0.0, "fusion_lat": 0.0, "lat": 38.89743083333333, "type": "electric_bike", "lon": -77.0240525, "bike_id": "a8afe0b48f750d8241b7c490b2c126e1", "rental_uris": {"android": "https://dc.lft.to/lastmile_qr_scan", "ios": "https://dc.lft.to/lastmile_qr_scan"}, "name": "a8afe0b48f750d8241b7c490b2c126e1", "is_reserved": 0}, {"is_disabled": 0, "fusion_lon": 0.0, "fusion_lat": 0.0, "lat": 38.91480083333333, "type": "electric_scooter", "lon": -77.021742, "bike_id": "45b418fbe4c522bfa9f50ed846a9b758", "rental_uris": {"android": "https://dc.lft.to/lastmile_qr_scan", "ios": "https://dc.lft.to/lastmile_qr_scan"}, "name": "45b418fbe4c522bfa9f50ed846a9b758", "is_reserved": 0}, {"is_disabled": 0, "fusion_lon": 0.0, "fusion_lat": 0.0, "lat": 38.9050575, "type": "electric_scooter", "lon": -76.98850033333333, "bike_id": "e1ecdeb89f7c864793bee4ac1e8b173f", "rental_uris": {"android": "https://dc.lft.to/lastmile_qr_scan", "ios": "https://dc.lft.to/lastmile_qr_scan"}, "name": "e1ecdeb89f7c864793bee4ac1e8b173f", "is_reserved": 0}, {"is_disabled": 0, "fusion_lon": 0.0, "fusion_lat": 0.0, "lat": 38.905782, "type": "electric_scooter", "lon": -76.98753566666667, "bike_id": "056d5298de978fb8bfec79fed7e89150", "rental_uris": {"android": "https://dc.lft.to/lastmile_qr_scan", "ios": "https://dc.lft.to/lastmile_qr_scan"}, "name": "056d5298de978fb8bfec79fed7e89150", "is_reserved": 0}, {"is_disabled": 0, "fusion_lon": 0.0, "fusion_lat": 0.0, "lat": 38.910208833333336, "type": "electric_scooter", "lon": -77.047981, "bike_id": "acf2ad86b3ef6dfdb01ea456d0f7913e", "rental_uris": {"android": "https://dc.lft.to/lastmile_qr_scan", "ios": "https://dc.lft.to/lastmile_qr_scan"}, "name": "acf2ad86b3ef6dfdb01ea456d0f7913e", "is_reserved": 0}, {"is_disabled": 0, "fusion_lon": 0.0, "fusion_lat": 0.0, "lat": 38.952832666666666, "type": "electric_scooter", "lon": -77.06849333333334, "bike_id": "2ab8ac9397d1098a9458df2e7c3b3f43", "rental_uris": {"android": "https://dc.lft.to/lastmile_qr_scan", "ios": "https://dc.lft.to/lastmile_qr_scan"}, "name": "2ab8ac9397d1098a9458df2e7c3b3f43", "is_reserved": 0}, {"is_disabled": 0, "fusion_lon": 0.0, "fusion_lat": 0.0, "lat": 38.9404355, "type": "electric_scooter", "lon": -77.029073, "bike_id": "82099a74d7c57658857fb07b00905e37", "rental_uris": {"android": "https://dc.lft.to/lastmile_qr_scan", "ios": "https://dc.lft.to/lastmile_qr_scan"}, "name": "82099a74d7c57658857fb07b00905e37", "is_reserved": 0}, {"is_disabled": 0, "fusion_lon": 0.0, "fusion_lat": 0.0, "lat": 38.88799366666667, "type": "electric_bike", "lon": -76.92997516666667, "bike_id": "8d9c8c875bf7e238de943817f5d322b5", "rental_uris": {"android": "https://dc.lft.to/lastmile_qr_scan", "ios": "https://dc.lft.to/lastmile_qr_scan"}, "name": "8d9c8c875bf7e238de943817f5d322b5", "is_reserved": 0}, {"is_disabled": 0, "fusion_lon": 0.0, "fusion_lat": 0.0, "lat": 38.89309883333333, "type": "electric_scooter", "lon": -77.022067, "bike_id": "e78d5a8255c474cc4854b08b97fc2d56", "rental_uris": {"android": "https://dc.lft.to/lastmile_qr_scan", "ios": "https://dc.lft.to/lastmile_qr_scan"}, "name": "e78d5a8255c474cc4854b08b97fc2d56", "is_reserved": 0}, {"is_disabled": 0, "fusion_lon": 0.0, "fusion_lat": 0.0, "lat": 38.96802983333333, "type": "electric_scooter", "lon": -77.02119816666666, "bike_id": "592fd79dbbfba6c78239bf019b3eb365", "rental_uris": {"android": "https://dc.lft.to/lastmile_qr_scan", "ios": "https://dc.lft.to/lastmile_qr_scan"}, "name": "592fd79dbbfba6c78239bf019b3eb365", "is_reserved": 0}, {"is_disabled": 0, "fusion_lon": 0.0, "fusion_lat": 0.0, "lat": 38.9014865, "type": "electric_scooter", "lon": -77.01768916666667, "bike_id": "a23879f85bc59694eb611ccc0bd6679b", "rental_uris": {"android": "https://dc.lft.to/lastmile_qr_scan", "ios": "https://dc.lft.to/lastmile_qr_scan"}, "name": "a23879f85bc59694eb611ccc0bd6679b", "is_reserved": 0}, {"is_disabled": 0, "fusion_lon": 0.0, "fusion_lat": 0.0, "lat": 38.880198166666666, "type": "electric_scooter", "lon": -76.982377, "bike_id": "7c7b224b7d26ff6dab64fdb48d07139e", "rental_uris": {"android": "https://dc.lft.to/lastmile_qr_scan", "ios": "https://dc.lft.to/lastmile_qr_scan"}, "name": "7c7b224b7d26ff6dab64fdb48d07139e", "is_reserved": 0}, {"is_disabled": 0, "fusion_lon": 0.0, "fusion_lat": 0.0, "lat": 38.883214, "type": "electric_scooter", "lon": -77.01693333333333, "bike_id": "ac765d68d7d686e75dab6b9dee448ce3", "rental_uris": {"android": "https://dc.lft.to/lastmile_qr_scan", "ios": "https://dc.lft.to/lastmile_qr_scan"}, "name": "ac765d68d7d686e75dab6b9dee448ce3", "is_reserved": 0}, {"is_disabled": 0, "fusion_lon": 0.0, "fusion_lat": 0.0, "lat": 38.9149555, "type": "electric_scooter", "lon": -77.03205183333333, "bike_id": "a3d7d72f636860a635bd47156538b021", "rental_uris": {"android": "https://dc.lft.to/lastmile_qr_scan", "ios": "https://dc.lft.to/lastmile_qr_scan"}, "name": "a3d7d72f636860a635bd47156538b021", "is_reserved": 0}, {"is_disabled": 0, "fusion_lon": 0.0, "fusion_lat": 0.0, "lat": 38.90148883333333, "type": "electric_scooter", "lon": -77.03988733333334, "bike_id": "8839e133264451df108e63645fd00514", "rental_uris": {"android": "https://dc.lft.to/lastmile_qr_scan", "ios": "https://dc.lft.to/lastmile_qr_scan"}, "name": "8839e133264451df108e63645fd00514", "is_reserved": 0}, {"is_disabled": 0, "fusion_lon": 0.0, "fusion_lat": 0.0, "lat": 38.97169783333333, "type": "electric_bike", "lon": -76.98025583333333, "bike_id": "0d34156392652e6cf844cb9be1bb3026", "rental_uris": {"android": "https://dc.lft.to/lastmile_qr_scan", "ios": "https://dc.lft.to/lastmile_qr_scan"}, "name": "0d34156392652e6cf844cb9be1bb3026", "is_reserved": 0}, {"is_disabled": 0, "fusion_lon": 0.0, "fusion_lat": 0.0, "lat": 38.9408595, "type": "electric_scooter", "lon": -77.03813316666667, "bike_id": "4431c34ff1862a564a544943a4b13c62", "rental_uris": {"android": "https://dc.lft.to/lastmile_qr_scan", "ios": "https://dc.lft.to/lastmile_qr_scan"}, "name": "4431c34ff1862a564a544943a4b13c62", "is_reserved": 0}, {"is_disabled": 0, "fusion_lon": 0.0, "fusion_lat": 0.0, "lat": 38.893592166666664, "type": "electric_scooter", "lon": -76.984724, "bike_id": "db100b7b56bcc8fc9c8b4c094a077cac", "rental_uris": {"android": "https://dc.lft.to/lastmile_qr_scan", "ios": "https://dc.lft.to/lastmile_qr_scan"}, "name": "db100b7b56bcc8fc9c8b4c094a077cac", "is_reserved": 0}, {"is_disabled": 0, "fusion_lon": 0.0, "fusion_lat": 0.0, "lat": 38.93960916666666, "type": "electric_scooter", "lon": -77.02750316666666, "bike_id": "cae0152812ad4d8efef89391078abf6a", "rental_uris": {"android": "https://dc.lft.to/lastmile_qr_scan", "ios": "https://dc.lft.to/lastmile_qr_scan"}, "name": "cae0152812ad4d8efef89391078abf6a", "is_reserved": 0}, {"is_disabled": 0, "fusion_lon": 0.0, "fusion_lat": 0.0, "lat": 38.827300666666666, "type": "electric_bike", "lon": -77.00865466666667, "bike_id": "3dcaa7af1fba57ba3d16c6c7353caae3", "rental_uris": {"android": "https://dc.lft.to/lastmile_qr_scan", "ios": "https://dc.lft.to/lastmile_qr_scan"}, "name": "3dcaa7af1fba57ba3d16c6c7353caae3", "is_reserved": 0}, {"is_disabled": 0, "fusion_lon": 0.0, "fusion_lat": 0.0, "lat": 38.9062225, "type": "electric_scooter", "lon": -77.02802783333334, "bike_id": "c3ea8dffbc7010e9c4a81861a2b4b0ee", "rental_uris": {"android": "https://dc.lft.to/lastmile_qr_scan", "ios": "https://dc.lft.to/lastmile_qr_scan"}, "name": "c3ea8dffbc7010e9c4a81861a2b4b0ee", "is_reserved": 0}, {"is_disabled": 0, "fusion_lon": 0.0, "fusion_lat": 0.0, "lat": 38.93522816666667, "type": "electric_scooter", "lon": -77.02374783333333, "bike_id": "a2760a27697a758990f26933b9eee458", "rental_uris": {"android": "https://dc.lft.to/lastmile_qr_scan", "ios": "https://dc.lft.to/lastmile_qr_scan"}, "name": "a2760a27697a758990f26933b9eee458", "is_reserved": 0}, {"is_disabled": 0, "fusion_lon": 0.0, "fusion_lat": 0.0, "lat": 38.893646833333335, "type": "electric_scooter", "lon": -77.02265216666666, "bike_id": "e813bed70b74e9c68b013fb784653463", "rental_uris": {"android": "https://dc.lft.to/lastmile_qr_scan", "ios": "https://dc.lft.to/lastmile_qr_scan"}, "name": "e813bed70b74e9c68b013fb784653463", "is_reserved": 0}, {"is_disabled": 0, "fusion_lon": 0.0, "fusion_lat": 0.0, "lat": 38.90717583333333, "type": "electric_scooter", "lon": -77.03065, "bike_id": "8b536917ba51f8b3f5e5a8f6d5f10606", "rental_uris": {"android": "https://dc.lft.to/lastmile_qr_scan", "ios": "https://dc.lft.to/lastmile_qr_scan"}, "name": "8b536917ba51f8b3f5e5a8f6d5f10606", "is_reserved": 0}, {"is_disabled": 0, "fusion_lon": 0.0, "fusion_lat": 0.0, "lat": 38.91029066666667, "type": "electric_scooter", "lon": -77.02290166666667, "bike_id": "07b12339b4ae8940f04576b7df1560f0", "rental_uris": {"android": "https://dc.lft.to/lastmile_qr_scan", "ios": "https://dc.lft.to/lastmile_qr_scan"}, "name": "07b12339b4ae8940f04576b7df1560f0", "is_reserved": 0}, {"is_disabled": 0, "fusion_lon": 0.0, "fusion_lat": 0.0, "lat": 38.90564666666667, "type": "electric_scooter", "lon": -77.0301795, "bike_id": "c5afe4a0dc7b0b200a7ec541444066b8", "rental_uris": {"android": "https://dc.lft.to/lastmile_qr_scan", "ios": "https://dc.lft.to/lastmile_qr_scan"}, "name": "c5afe4a0dc7b0b200a7ec541444066b8", "is_reserved": 0}, {"is_disabled": 0, "fusion_lon": 0.0, "fusion_lat": 0.0, "lat": 38.88867033333333, "type": "electric_scooter", "lon": -76.977428, "bike_id": "1845ceb7470e2e84f22ef483c922eaa9", "rental_uris": {"android": "https://dc.lft.to/lastmile_qr_scan", "ios": "https://dc.lft.to/lastmile_qr_scan"}, "name": "1845ceb7470e2e84f22ef483c922eaa9", "is_reserved": 0}, {"is_disabled": 0, "fusion_lon": 0.0, "fusion_lat": 0.0, "lat": 38.931292666666664, "type": "electric_scooter", "lon": -77.0571125, "bike_id": "f928f2df605848c654b61bc0b9588aab", "rental_uris": {"android": "https://dc.lft.to/lastmile_qr_scan", "ios": "https://dc.lft.to/lastmile_qr_scan"}, "name": "f928f2df605848c654b61bc0b9588aab", "is_reserved": 0}, {"is_disabled": 0, "fusion_lon": 0.0, "fusion_lat": 0.0, "lat": 38.906780166666664, "type": "electric_scooter", "lon": -77.0271175, "bike_id": "5b108944d219eef401bb998774cf52bb", "rental_uris": {"android": "https://dc.lft.to/lastmile_qr_scan", "ios": "https://dc.lft.to/lastmile_qr_scan"}, "name": "5b108944d219eef401bb998774cf52bb", "is_reserved": 0}, {"is_disabled": 0, "fusion_lon": 0.0, "fusion_lat": 0.0, "lat": 38.89636016666667, "type": "electric_scooter", "lon": -77.04336683333334, "bike_id": "b8d1c7e917f77e56a4167c5d076bfc2a", "rental_uris": {"android": "https://dc.lft.to/lastmile_qr_scan", "ios": "https://dc.lft.to/lastmile_qr_scan"}, "name": "b8d1c7e917f77e56a4167c5d076bfc2a", "is_reserved": 0}, {"is_disabled": 0, "fusion_lon": 0.0, "fusion_lat": 0.0, "lat": 38.91198766666667, "type": "electric_scooter", "lon": -77.01208416666667, "bike_id": "a753b8cd6800eaad7a179abc2add5e62", "rental_uris": {"android": "https://dc.lft.to/lastmile_qr_scan", "ios": "https://dc.lft.to/lastmile_qr_scan"}, "name": "a753b8cd6800eaad7a179abc2add5e62", "is_reserved": 0}, {"is_disabled": 0, "fusion_lon": 0.0, "fusion_lat": 0.0, "lat": 38.920893, "type": "electric_bike", "lon": -77.00342433333333, "bike_id": "84ed753a459b5ca22a110cd554bddaf6", "rental_uris": {"android": "https://dc.lft.to/lastmile_qr_scan", "ios": "https://dc.lft.to/lastmile_qr_scan"}, "name": "84ed753a459b5ca22a110cd554bddaf6", "is_reserved": 0}, {"is_disabled": 0, "fusion_lon": 0.0, "fusion_lat": 0.0, "lat": 38.91611916666667, "type": "electric_scooter", "lon": -77.0460315, "bike_id": "756d1d85385a79e79052c405262336d2", "rental_uris": {"android": "https://dc.lft.to/lastmile_qr_scan", "ios": "https://dc.lft.to/lastmile_qr_scan"}, "name": "756d1d85385a79e79052c405262336d2", "is_reserved": 0}, {"is_disabled": 0, "fusion_lon": 0.0, "fusion_lat": 0.0, "lat": 38.91345883333334, "type": "electric_scooter", "lon": -77.06411433333334, "bike_id": "8384161f733ff2982c43069c56b2ce71", "rental_uris": {"android": "https://dc.lft.to/lastmile_qr_scan", "ios": "https://dc.lft.to/lastmile_qr_scan"}, "name": "8384161f733ff2982c43069c56b2ce71", "is_reserved": 0}, {"is_disabled": 0, "fusion_lon": 0.0, "fusion_lat": 0.0, "lat": 38.94562466666667, "type": "electric_bike", "lon": -77.05127433333334, "bike_id": "f3f458384be37ce67a3f399a2898e4ab", "rental_uris": {"android": "https://dc.lft.to/lastmile_qr_scan", "ios": "https://dc.lft.to/lastmile_qr_scan"}, "name": "f3f458384be37ce67a3f399a2898e4ab", "is_reserved": 0}, {"is_disabled": 0, "fusion_lon": 0.0, "fusion_lat": 0.0, "lat": 38.88631266666667, "type": "electric_scooter", "lon": -76.95509166666666, "bike_id": "d454c232995c7ebd4b98a8b7fc7c5e45", "rental_uris": {"android": "https://dc.lft.to/lastmile_qr_scan", "ios": "https://dc.lft.to/lastmile_qr_scan"}, "name": "d454c232995c7ebd4b98a8b7fc7c5e45", "is_reserved": 0}, {"is_disabled": 0, "fusion_lon": 0.0, "fusion_lat": 0.0, "lat": 38.9159785, "type": "electric_scooter", "lon": -77.02125883333333, "bike_id": "c314bbf901bd93d1698b3b3b05b1bfe0", "rental_uris": {"android": "https://dc.lft.to/lastmile_qr_scan", "ios": "https://dc.lft.to/lastmile_qr_scan"}, "name": "c314bbf901bd93d1698b3b3b05b1bfe0", "is_reserved": 0}, {"is_disabled": 0, "fusion_lon": 0.0, "fusion_lat": 0.0, "lat": 38.8554275, "type": "electric_bike", "lon": -77.10724633333334, "bike_id": "f33dfc4b5e4a46472ef503ad92e82d7e", "rental_uris": {"android": "https://dc.lft.to/lastmile_qr_scan", "ios": "https://dc.lft.to/lastmile_qr_scan"}, "name": "f33dfc4b5e4a46472ef503ad92e82d7e", "is_reserved": 0}, {"is_disabled": 0, "fusion_lon": 0.0, "fusion_lat": 0.0, "lat": 38.924782666666665, "type": "electric_scooter", "lon": -77.03779233333333, "bike_id": "381953accd5a46c5a4295c6429827ae3", "rental_uris": {"android": "https://dc.lft.to/lastmile_qr_scan", "ios": "https://dc.lft.to/lastmile_qr_scan"}, "name": "381953accd5a46c5a4295c6429827ae3", "is_reserved": 0}, {"is_disabled": 0, "fusion_lon": 0.0, "fusion_lat": 0.0, "lat": 38.86357266666667, "type": "electric_scooter", "lon": -76.99071983333333, "bike_id": "36783ec226a46bf8dfc8e8ae4b09861e", "rental_uris": {"android": "https://dc.lft.to/lastmile_qr_scan", "ios": "https://dc.lft.to/lastmile_qr_scan"}, "name": "36783ec226a46bf8dfc8e8ae4b09861e", "is_reserved": 0}, {"is_disabled": 0, "fusion_lon": 0.0, "fusion_lat": 0.0, "lat": 38.9053185, "type": "electric_scooter", "lon": -77.050217, "bike_id": "00f24b4ce9abfed3f153f7011c56f4a2", "rental_uris": {"android": "https://dc.lft.to/lastmile_qr_scan", "ios": "https://dc.lft.to/lastmile_qr_scan"}, "name": "00f24b4ce9abfed3f153f7011c56f4a2", "is_reserved": 0}, {"is_disabled": 0, "fusion_lon": 0.0, "fusion_lat": 0.0, "lat": 38.99062983333334, "type": "electric_bike", "lon": -77.10027766666667, "bike_id": "4cb3be8b4fefc3388967a6b4c451607b", "rental_uris": {"android": "https://dc.lft.to/lastmile_qr_scan", "ios": "https://dc.lft.to/lastmile_qr_scan"}, "name": "4cb3be8b4fefc3388967a6b4c451607b", "is_reserved": 0}, {"is_disabled": 0, "fusion_lon": 0.0, "fusion_lat": 0.0, "lat": 38.927947333333336, "type": "electric_scooter", "lon": -77.014626, "bike_id": "a005441f6cc4213adfb113ede30924d2", "rental_uris": {"android": "https://dc.lft.to/lastmile_qr_scan", "ios": "https://dc.lft.to/lastmile_qr_scan"}, "name": "a005441f6cc4213adfb113ede30924d2", "is_reserved": 0}, {"is_disabled": 0, "fusion_lon": 0.0, "fusion_lat": 0.0, "lat": 38.990904, "type": "electric_bike", "lon": -76.8749465, "bike_id": "4ff6220580edf16c3e9eb41accc4b364", "rental_uris": {"android": "https://dc.lft.to/lastmile_qr_scan", "ios": "https://dc.lft.to/lastmile_qr_scan"}, "name": "4ff6220580edf16c3e9eb41accc4b364", "is_reserved": 0}, {"is_disabled": 0, "fusion_lon": 0.0, "fusion_lat": 0.0, "lat": 38.885843, "type": "electric_scooter", "lon": -77.0199845, "bike_id": "ff238f123dda59df2a40ab1052d26708", "rental_uris": {"android": "https://dc.lft.to/lastmile_qr_scan", "ios": "https://dc.lft.to/lastmile_qr_scan"}, "name": "ff238f123dda59df2a40ab1052d26708", "is_reserved": 0}, {"is_disabled": 0, "fusion_lon": 0.0, "fusion_lat": 0.0, "lat": 38.92690783333333, "type": "electric_scooter", "lon": -77.03736333333333, "bike_id": "32a8a5dfd1ba1666d12adca060bfe024", "rental_uris": {"android": "https://dc.lft.to/lastmile_qr_scan", "ios": "https://dc.lft.to/lastmile_qr_scan"}, "name": "32a8a5dfd1ba1666d12adca060bfe024", "is_reserved": 0}, {"is_disabled": 0, "fusion_lon": 0.0, "fusion_lat": 0.0, "lat": 38.90772116666667, "type": "electric_scooter", "lon": -77.03178233333334, "bike_id": "e29d99fd1d0bf8e226255f7e815dbc5a", "rental_uris": {"android": "https://dc.lft.to/lastmile_qr_scan", "ios": "https://dc.lft.to/lastmile_qr_scan"}, "name": "e29d99fd1d0bf8e226255f7e815dbc5a", "is_reserved": 0}, {"is_disabled": 0, "fusion_lon": 0.0, "fusion_lat": 0.0, "lat": 38.903701833333336, "type": "electric_scooter", "lon": -77.02910716666666, "bike_id": "5ac0865e7114e25360350d05d5713433", "rental_uris": {"android": "https://dc.lft.to/lastmile_qr_scan", "ios": "https://dc.lft.to/lastmile_qr_scan"}, "name": "5ac0865e7114e25360350d05d5713433", "is_reserved": 0}, {"is_disabled": 0, "fusion_lon": 0.0, "fusion_lat": 0.0, "lat": 38.9330225, "type": "electric_scooter", "lon": -77.02142166666667, "bike_id": "6e64829602c3c1e7ed54241ba55b4833", "rental_uris": {"android": "https://dc.lft.to/lastmile_qr_scan", "ios": "https://dc.lft.to/lastmile_qr_scan"}, "name": "6e64829602c3c1e7ed54241ba55b4833", "is_reserved": 0}, {"is_disabled": 0, "fusion_lon": 0.0, "fusion_lat": 0.0, "lat": 38.908981833333335, "type": "electric_scooter", "lon": -76.9985515, "bike_id": "c0f7af06c4f19defadc11aaacc6e2eac", "rental_uris": {"android": "https://dc.lft.to/lastmile_qr_scan", "ios": "https://dc.lft.to/lastmile_qr_scan"}, "name": "c0f7af06c4f19defadc11aaacc6e2eac", "is_reserved": 0}, {"is_disabled": 0, "fusion_lon": 0.0, "fusion_lat": 0.0, "lat": 38.92025433333333, "type": "electric_scooter", "lon": -77.03879966666666, "bike_id": "b14c4cf6d3fd437df84a13dc72f8711a", "rental_uris": {"android": "https://dc.lft.to/lastmile_qr_scan", "ios": "https://dc.lft.to/lastmile_qr_scan"}, "name": "b14c4cf6d3fd437df84a13dc72f8711a", "is_reserved": 0}, {"is_disabled": 0, "fusion_lon": 0.0, "fusion_lat": 0.0, "lat": 38.93389483333333, "type": "electric_scooter", "lon": -77.03111216666667, "bike_id": "2467929a25b246bc0e79a47f82ea3eff", "rental_uris": {"android": "https://dc.lft.to/lastmile_qr_scan", "ios": "https://dc.lft.to/lastmile_qr_scan"}, "name": "2467929a25b246bc0e79a47f82ea3eff", "is_reserved": 0}, {"is_disabled": 0, "fusion_lon": 0.0, "fusion_lat": 0.0, "lat": 38.90706083333333, "type": "electric_scooter", "lon": -77.02696233333333, "bike_id": "fb7c318ccbc8597417c942da95c7ac2e", "rental_uris": {"android": "https://dc.lft.to/lastmile_qr_scan", "ios": "https://dc.lft.to/lastmile_qr_scan"}, "name": "fb7c318ccbc8597417c942da95c7ac2e", "is_reserved": 0}, {"is_disabled": 0, "fusion_lon": 0.0, "fusion_lat": 0.0, "lat": 38.920389166666666, "type": "electric_scooter", "lon": -77.0258945, "bike_id": "d47704ba782cc5d9aede3bf64f39548c", "rental_uris": {"android": "https://dc.lft.to/lastmile_qr_scan", "ios": "https://dc.lft.to/lastmile_qr_scan"}, "name": "d47704ba782cc5d9aede3bf64f39548c", "is_reserved": 0}, {"is_disabled": 0, "fusion_lon": 0.0, "fusion_lat": 0.0, "lat": 38.988279666666664, "type": "electric_bike", "lon": -76.9874775, "bike_id": "d590679d0df7c9d2fc7b3cc05ebe2367", "rental_uris": {"android": "https://dc.lft.to/lastmile_qr_scan", "ios": "https://dc.lft.to/lastmile_qr_scan"}, "name": "d590679d0df7c9d2fc7b3cc05ebe2367", "is_reserved": 0}, {"is_disabled": 0, "fusion_lon": 0.0, "fusion_lat": 0.0, "lat": 38.885155, "type": "electric_scooter", "lon": -76.99852316666667, "bike_id": "287d9a445d28bec76730d1d1ec4e0512", "rental_uris": {"android": "https://dc.lft.to/lastmile_qr_scan", "ios": "https://dc.lft.to/lastmile_qr_scan"}, "name": "287d9a445d28bec76730d1d1ec4e0512", "is_reserved": 0}, {"is_disabled": 0, "fusion_lon": 0.0, "fusion_lat": 0.0, "lat": 38.87932266666667, "type": "electric_scooter", "lon": -77.01345483333333, "bike_id": "d0762aec72b7e0bf592531ce7b46c6e6", "rental_uris": {"android": "https://dc.lft.to/lastmile_qr_scan", "ios": "https://dc.lft.to/lastmile_qr_scan"}, "name": "d0762aec72b7e0bf592531ce7b46c6e6", "is_reserved": 0}, {"is_disabled": 0, "fusion_lon": 0.0, "fusion_lat": 0.0, "lat": 38.89510416666667, "type": "electric_scooter", "lon": -77.01076183333333, "bike_id": "d5630fad37c482bdcef70c324dc4da7c", "rental_uris": {"android": "https://dc.lft.to/lastmile_qr_scan", "ios": "https://dc.lft.to/lastmile_qr_scan"}, "name": "d5630fad37c482bdcef70c324dc4da7c", "is_reserved": 0}, {"is_disabled": 0, "fusion_lon": 0.0, "fusion_lat": 0.0, "lat": 38.83935733333333, "type": "electric_bike", "lon": -77.07900933333333, "bike_id": "8e0fcc39706d5c9fd906ebe2e1c6c6d7", "rental_uris": {"android": "https://dc.lft.to/lastmile_qr_scan", "ios": "https://dc.lft.to/lastmile_qr_scan"}, "name": "8e0fcc39706d5c9fd906ebe2e1c6c6d7", "is_reserved": 0}, {"is_disabled": 0, "fusion_lon": 0.0, "fusion_lat": 0.0, "lat": 38.89756283333333, "type": "electric_scooter", "lon": -77.01005116666667, "bike_id": "790f73b0af5889411ab7b6d45e001c0c", "rental_uris": {"android": "https://dc.lft.to/lastmile_qr_scan", "ios": "https://dc.lft.to/lastmile_qr_scan"}, "name": "790f73b0af5889411ab7b6d45e001c0c", "is_reserved": 0}, {"is_disabled": 0, "fusion_lon": 0.0, "fusion_lat": 0.0, "lat": 38.917645, "type": "electric_scooter", "lon": -77.0473955, "bike_id": "4b38b27bcc6f046e20dbfbcde4d87b4a", "rental_uris": {"android": "https://dc.lft.to/lastmile_qr_scan", "ios": "https://dc.lft.to/lastmile_qr_scan"}, "name": "4b38b27bcc6f046e20dbfbcde4d87b4a", "is_reserved": 0}, {"is_disabled": 0, "fusion_lon": 0.0, "fusion_lat": 0.0, "lat": 38.934704833333335, "type": "electric_scooter", "lon": -77.068867, "bike_id": "1e8397353c12585dd126f63e14876a3a", "rental_uris": {"android": "https://dc.lft.to/lastmile_qr_scan", "ios": "https://dc.lft.to/lastmile_qr_scan"}, "name": "1e8397353c12585dd126f63e14876a3a", "is_reserved": 0}, {"is_disabled": 0, "fusion_lon": 0.0, "fusion_lat": 0.0, "lat": 38.89422533333333, "type": "electric_scooter", "lon": -77.010987, "bike_id": "4d132e8ef6388212014e8d3172255920", "rental_uris": {"android": "https://dc.lft.to/lastmile_qr_scan", "ios": "https://dc.lft.to/lastmile_qr_scan"}, "name": "4d132e8ef6388212014e8d3172255920", "is_reserved": 0}, {"is_disabled": 0, "fusion_lon": 0.0, "fusion_lat": 0.0, "lat": 38.91929616666667, "type": "electric_scooter", "lon": -77.0339595, "bike_id": "aa49f9e1afb422fd8350f6f4686cc46e", "rental_uris": {"android": "https://dc.lft.to/lastmile_qr_scan", "ios": "https://dc.lft.to/lastmile_qr_scan"}, "name": "aa49f9e1afb422fd8350f6f4686cc46e", "is_reserved": 0}, {"is_disabled": 0, "fusion_lon": 0.0, "fusion_lat": 0.0, "lat": 38.9038425, "type": "electric_scooter", "lon": -77.01647983333334, "bike_id": "e42ff9f802a1e3971d08a2e23038e94b", "rental_uris": {"android": "https://dc.lft.to/lastmile_qr_scan", "ios": "https://dc.lft.to/lastmile_qr_scan"}, "name": "e42ff9f802a1e3971d08a2e23038e94b", "is_reserved": 0}, {"is_disabled": 0, "fusion_lon": 0.0, "fusion_lat": 0.0, "lat": 38.97265066666667, "type": "electric_bike", "lon": -76.99168683333333, "bike_id": "6657252e532d3282356f8b6ce3e1d763", "rental_uris": {"android": "https://dc.lft.to/lastmile_qr_scan", "ios": "https://dc.lft.to/lastmile_qr_scan"}, "name": "6657252e532d3282356f8b6ce3e1d763", "is_reserved": 0}, {"is_disabled": 0, "fusion_lon": 0.0, "fusion_lat": 0.0, "lat": 38.896168, "type": "electric_scooter", "lon": -76.99636616666666, "bike_id": "eb350c3c2ceb61c6e4500a541d2eedad", "rental_uris": {"android": "https://dc.lft.to/lastmile_qr_scan", "ios": "https://dc.lft.to/lastmile_qr_scan"}, "name": "eb350c3c2ceb61c6e4500a541d2eedad", "is_reserved": 0}, {"is_disabled": 0, "fusion_lon": 0.0, "fusion_lat": 0.0, "lat": 38.91874166666667, "type": "electric_scooter", "lon": -77.04416133333334, "bike_id": "dd1d7d888cf435a69f57600e3822f81d", "rental_uris": {"android": "https://dc.lft.to/lastmile_qr_scan", "ios": "https://dc.lft.to/lastmile_qr_scan"}, "name": "dd1d7d888cf435a69f57600e3822f81d", "is_reserved": 0}, {"is_disabled": 0, "fusion_lon": 0.0, "fusion_lat": 0.0, "lat": 38.9080545, "type": "electric_scooter", "lon": -77.03398333333334, "bike_id": "1a7d836fa5cf9e989f10731791efdbd7", "rental_uris": {"android": "https://dc.lft.to/lastmile_qr_scan", "ios": "https://dc.lft.to/lastmile_qr_scan"}, "name": "1a7d836fa5cf9e989f10731791efdbd7", "is_reserved": 0}, {"is_disabled": 0, "fusion_lon": 0.0, "fusion_lat": 0.0, "lat": 38.94782933333333, "type": "electric_scooter", "lon": -77.09275233333334, "bike_id": "6a98ca0c2ba0d793ac26694d7a251823", "rental_uris": {"android": "https://dc.lft.to/lastmile_qr_scan", "ios": "https://dc.lft.to/lastmile_qr_scan"}, "name": "6a98ca0c2ba0d793ac26694d7a251823", "is_reserved": 0}, {"is_disabled": 0, "fusion_lon": 0.0, "fusion_lat": 0.0, "lat": 38.900001, "type": "electric_scooter", "lon": -76.992613, "bike_id": "c0cda129e23e4aabd7f43cea6caf076c", "rental_uris": {"android": "https://dc.lft.to/lastmile_qr_scan", "ios": "https://dc.lft.to/lastmile_qr_scan"}, "name": "c0cda129e23e4aabd7f43cea6caf076c", "is_reserved": 0}, {"is_disabled": 0, "fusion_lon": 0.0, "fusion_lat": 0.0, "lat": 38.9053945, "type": "electric_scooter", "lon": -77.04668983333333, "bike_id": "572ee5ea09b6a9c94692936dae8060d7", "rental_uris": {"android": "https://dc.lft.to/lastmile_qr_scan", "ios": "https://dc.lft.to/lastmile_qr_scan"}, "name": "572ee5ea09b6a9c94692936dae8060d7", "is_reserved": 0}, {"is_disabled": 0, "fusion_lon": 0.0, "fusion_lat": 0.0, "lat": 38.91679366666666, "type": "electric_scooter", "lon": -77.02714216666666, "bike_id": "2d126bd6b1c02430d5b7e61cd612ad8e", "rental_uris": {"android": "https://dc.lft.to/lastmile_qr_scan", "ios": "https://dc.lft.to/lastmile_qr_scan"}, "name": "2d126bd6b1c02430d5b7e61cd612ad8e", "is_reserved": 0}, {"is_disabled": 0, "fusion_lon": 0.0, "fusion_lat": 0.0, "lat": 38.865866, "type": "electric_scooter", "lon": -76.99015833333333, "bike_id": "af808e7c96fdd19cd57480941a61d71d", "rental_uris": {"android": "https://dc.lft.to/lastmile_qr_scan", "ios": "https://dc.lft.to/lastmile_qr_scan"}, "name": "af808e7c96fdd19cd57480941a61d71d", "is_reserved": 0}, {"is_disabled": 0, "fusion_lon": 0.0, "fusion_lat": 0.0, "lat": 38.9018455, "type": "electric_scooter", "lon": -76.92829366666666, "bike_id": "c85eb2bc66179826d60e7ae955489587", "rental_uris": {"android": "https://dc.lft.to/lastmile_qr_scan", "ios": "https://dc.lft.to/lastmile_qr_scan"}, "name": "c85eb2bc66179826d60e7ae955489587", "is_reserved": 0}, {"is_disabled": 0, "fusion_lon": 0.0, "fusion_lat": 0.0, "lat": 38.92068666666667, "type": "electric_scooter", "lon": -77.017983, "bike_id": "9a3bc6fb1e820aca288d5ac59311637d", "rental_uris": {"android": "https://dc.lft.to/lastmile_qr_scan", "ios": "https://dc.lft.to/lastmile_qr_scan"}, "name": "9a3bc6fb1e820aca288d5ac59311637d", "is_reserved": 0}, {"is_disabled": 0, "fusion_lon": 0.0, "fusion_lat": 0.0, "lat": 38.918733, "type": "electric_bike", "lon": -76.96124133333333, "bike_id": "85afac931c4cd72157f2daa8bc82805d", "rental_uris": {"android": "https://dc.lft.to/lastmile_qr_scan", "ios": "https://dc.lft.to/lastmile_qr_scan"}, "name": "85afac931c4cd72157f2daa8bc82805d", "is_reserved": 0}, {"is_disabled": 0, "fusion_lon": 0.0, "fusion_lat": 0.0, "lat": 38.93104683333333, "type": "electric_scooter", "lon": -77.03497266666666, "bike_id": "6b2f3f49a57a5b0ed1594686f4c83d9a", "rental_uris": {"android": "https://dc.lft.to/lastmile_qr_scan", "ios": "https://dc.lft.to/lastmile_qr_scan"}, "name": "6b2f3f49a57a5b0ed1594686f4c83d9a", "is_reserved": 0}, {"is_disabled": 0, "fusion_lon": 0.0, "fusion_lat": 0.0, "lat": 38.932059, "type": "electric_scooter", "lon": -77.03669683333334, "bike_id": "754afbd37d100842c23f211e9aacd291", "rental_uris": {"android": "https://dc.lft.to/lastmile_qr_scan", "ios": "https://dc.lft.to/lastmile_qr_scan"}, "name": "754afbd37d100842c23f211e9aacd291", "is_reserved": 0}, {"is_disabled": 0, "fusion_lon": 0.0, "fusion_lat": 0.0, "lat": 38.898415166666666, "type": "electric_scooter", "lon": -77.00738866666667, "bike_id": "ed8eb551cc2f42a99aa5adfeff9d0d97", "rental_uris": {"android": "https://dc.lft.to/lastmile_qr_scan", "ios": "https://dc.lft.to/lastmile_qr_scan"}, "name": "ed8eb551cc2f42a99aa5adfeff9d0d97", "is_reserved": 0}, {"is_disabled": 0, "fusion_lon": 0.0, "fusion_lat": 0.0, "lat": 38.90374, "type": "electric_scooter", "lon": -77.0344065, "bike_id": "167d22b0e13846100ce3da504519d905", "rental_uris": {"android": "https://dc.lft.to/lastmile_qr_scan", "ios": "https://dc.lft.to/lastmile_qr_scan"}, "name": "167d22b0e13846100ce3da504519d905", "is_reserved": 0}, {"is_disabled": 0, "fusion_lon": 0.0, "fusion_lat": 0.0, "lat": 38.9263545, "type": "electric_bike", "lon": -77.033308, "bike_id": "5c70bcf20d8c982041a1757405dc8c8a", "rental_uris": {"android": "https://dc.lft.to/lastmile_qr_scan", "ios": "https://dc.lft.to/lastmile_qr_scan"}, "name": "5c70bcf20d8c982041a1757405dc8c8a", "is_reserved": 0}, {"is_disabled": 0, "fusion_lon": 0.0, "fusion_lat": 0.0, "lat": 38.981472833333335, "type": "electric_bike", "lon": -77.00774366666667, "bike_id": "6e2aa7cc4e313cacccd37480019cec1a", "rental_uris": {"android": "https://dc.lft.to/lastmile_qr_scan", "ios": "https://dc.lft.to/lastmile_qr_scan"}, "name": "6e2aa7cc4e313cacccd37480019cec1a", "is_reserved": 0}, {"is_disabled": 0, "fusion_lon": 0.0, "fusion_lat": 0.0, "lat": 38.848982666666664, "type": "electric_scooter", "lon": -77.00523966666667, "bike_id": "5ff8061876fbfa2371b09e585aeec5fe", "rental_uris": {"android": "https://dc.lft.to/lastmile_qr_scan", "ios": "https://dc.lft.to/lastmile_qr_scan"}, "name": "5ff8061876fbfa2371b09e585aeec5fe", "is_reserved": 0}, {"is_disabled": 0, "fusion_lon": 0.0, "fusion_lat": 0.0, "lat": 38.86355966666667, "type": "electric_scooter", "lon": -76.99065633333333, "bike_id": "afe8260827f469974f28f5456281664d", "rental_uris": {"android": "https://dc.lft.to/lastmile_qr_scan", "ios": "https://dc.lft.to/lastmile_qr_scan"}, "name": "afe8260827f469974f28f5456281664d", "is_reserved": 0}, {"is_disabled": 0, "fusion_lon": 0.0, "fusion_lat": 0.0, "lat": 38.8991645, "type": "electric_scooter", "lon": -77.03931866666667, "bike_id": "c4d1452564bf98cdd5323b6efcaed720", "rental_uris": {"android": "https://dc.lft.to/lastmile_qr_scan", "ios": "https://dc.lft.to/lastmile_qr_scan"}, "name": "c4d1452564bf98cdd5323b6efcaed720", "is_reserved": 0}, {"is_disabled": 0, "fusion_lon": 0.0, "fusion_lat": 0.0, "lat": 38.91414416666667, "type": "electric_scooter", "lon": -77.03585633333333, "bike_id": "8f77efdde8878f508989805df8cefb67", "rental_uris": {"android": "https://dc.lft.to/lastmile_qr_scan", "ios": "https://dc.lft.to/lastmile_qr_scan"}, "name": "8f77efdde8878f508989805df8cefb67", "is_reserved": 0}, {"is_disabled": 0, "fusion_lon": 0.0, "fusion_lat": 0.0, "lat": 38.93101166666667, "type": "electric_scooter", "lon": -77.0247515, "bike_id": "d85dc27bd6904d3ff3fcbe7ae6d418d8", "rental_uris": {"android": "https://dc.lft.to/lastmile_qr_scan", "ios": "https://dc.lft.to/lastmile_qr_scan"}, "name": "d85dc27bd6904d3ff3fcbe7ae6d418d8", "is_reserved": 0}, {"is_disabled": 0, "fusion_lon": 0.0, "fusion_lat": 0.0, "lat": 38.935493, "type": "electric_scooter", "lon": -77.0580365, "bike_id": "f6ad6bd90b514821ccba8cb7988a264f", "rental_uris": {"android": "https://dc.lft.to/lastmile_qr_scan", "ios": "https://dc.lft.to/lastmile_qr_scan"}, "name": "f6ad6bd90b514821ccba8cb7988a264f", "is_reserved": 0}, {"is_disabled": 0, "fusion_lon": 0.0, "fusion_lat": 0.0, "lat": 38.905824833333334, "type": "electric_scooter", "lon": -77.05126833333334, "bike_id": "3a8d52181bfce8930582b468cb1b5624", "rental_uris": {"android": "https://dc.lft.to/lastmile_qr_scan", "ios": "https://dc.lft.to/lastmile_qr_scan"}, "name": "3a8d52181bfce8930582b468cb1b5624", "is_reserved": 0}, {"is_disabled": 0, "fusion_lon": 0.0, "fusion_lat": 0.0, "lat": 38.87776483333333, "type": "electric_scooter", "lon": -77.01434233333333, "bike_id": "050979a286b9eb923d545af48898c8cd", "rental_uris": {"android": "https://dc.lft.to/lastmile_qr_scan", "ios": "https://dc.lft.to/lastmile_qr_scan"}, "name": "050979a286b9eb923d545af48898c8cd", "is_reserved": 0}, {"is_disabled": 0, "fusion_lon": 0.0, "fusion_lat": 0.0, "lat": 38.90385783333333, "type": "electric_scooter", "lon": -76.9900215, "bike_id": "66ad229bf285aba211e376d4a628b70d", "rental_uris": {"android": "https://dc.lft.to/lastmile_qr_scan", "ios": "https://dc.lft.to/lastmile_qr_scan"}, "name": "66ad229bf285aba211e376d4a628b70d", "is_reserved": 0}, {"is_disabled": 0, "fusion_lon": 0.0, "fusion_lat": 0.0, "lat": 38.946267166666665, "type": "electric_bike", "lon": -76.93413783333334, "bike_id": "b077f53627e94d63b4e876d28194f552", "rental_uris": {"android": "https://dc.lft.to/lastmile_qr_scan", "ios": "https://dc.lft.to/lastmile_qr_scan"}, "name": "b077f53627e94d63b4e876d28194f552", "is_reserved": 0}, {"is_disabled": 0, "fusion_lon": 0.0, "fusion_lat": 0.0, "lat": 38.88115283333333, "type": "electric_bike", "lon": -77.0168355, "bike_id": "fd85d521e9302cc40c110891b0f5403c", "rental_uris": {"android": "https://dc.lft.to/lastmile_qr_scan", "ios": "https://dc.lft.to/lastmile_qr_scan"}, "name": "fd85d521e9302cc40c110891b0f5403c", "is_reserved": 0}, {"is_disabled": 0, "fusion_lon": 0.0, "fusion_lat": 0.0, "lat": 38.951902, "type": "electric_scooter", "lon": -77.026102, "bike_id": "2dc4e182f3f67b669971a5d7f419f203", "rental_uris": {"android": "https://dc.lft.to/lastmile_qr_scan", "ios": "https://dc.lft.to/lastmile_qr_scan"}, "name": "2dc4e182f3f67b669971a5d7f419f203", "is_reserved": 0}, {"is_disabled": 0, "fusion_lon": 0.0, "fusion_lat": 0.0, "lat": 38.928103666666665, "type": "electric_scooter", "lon": -77.03621716666666, "bike_id": "de062c4afff37e599b299b21f8402675", "rental_uris": {"android": "https://dc.lft.to/lastmile_qr_scan", "ios": "https://dc.lft.to/lastmile_qr_scan"}, "name": "de062c4afff37e599b299b21f8402675", "is_reserved": 0}, {"is_disabled": 0, "fusion_lon": 0.0, "fusion_lat": 0.0, "lat": 38.8695385, "type": "electric_scooter", "lon": -76.97592933333334, "bike_id": "bd85bf0d2063e5896505d486ad20871a", "rental_uris": {"android": "https://dc.lft.to/lastmile_qr_scan", "ios": "https://dc.lft.to/lastmile_qr_scan"}, "name": "bd85bf0d2063e5896505d486ad20871a", "is_reserved": 0}, {"is_disabled": 0, "fusion_lon": 0.0, "fusion_lat": 0.0, "lat": 38.89825733333333, "type": "electric_scooter", "lon": -76.9465375, "bike_id": "cbe96342c1758d5706d169412d71eebd", "rental_uris": {"android": "https://dc.lft.to/lastmile_qr_scan", "ios": "https://dc.lft.to/lastmile_qr_scan"}, "name": "cbe96342c1758d5706d169412d71eebd", "is_reserved": 0}, {"is_disabled": 0, "fusion_lon": 0.0, "fusion_lat": 0.0, "lat": 38.902656, "type": "electric_scooter", "lon": -77.0342805, "bike_id": "d7ca4eb74a17710e577301fd10a2ebd4", "rental_uris": {"android": "https://dc.lft.to/lastmile_qr_scan", "ios": "https://dc.lft.to/lastmile_qr_scan"}, "name": "d7ca4eb74a17710e577301fd10a2ebd4", "is_reserved": 0}, {"is_disabled": 0, "fusion_lon": 0.0, "fusion_lat": 0.0, "lat": 38.91054333333334, "type": "electric_scooter", "lon": -77.02293983333334, "bike_id": "f47b9aa5e00921a6c19ea56dd9c007fa", "rental_uris": {"android": "https://dc.lft.to/lastmile_qr_scan", "ios": "https://dc.lft.to/lastmile_qr_scan"}, "name": "f47b9aa5e00921a6c19ea56dd9c007fa", "is_reserved": 0}, {"is_disabled": 0, "fusion_lon": 0.0, "fusion_lat": 0.0, "lat": 38.924596666666666, "type": "electric_scooter", "lon": -77.02964583333333, "bike_id": "3c61c3a8802ce3d1ac64a9d383dbfc86", "rental_uris": {"android": "https://dc.lft.to/lastmile_qr_scan", "ios": "https://dc.lft.to/lastmile_qr_scan"}, "name": "3c61c3a8802ce3d1ac64a9d383dbfc86", "is_reserved": 0}, {"is_disabled": 0, "fusion_lon": 0.0, "fusion_lat": 0.0, "lat": 38.916972, "type": "electric_scooter", "lon": -77.03311, "bike_id": "1a4042da2dd1ec9bed12e5bfeb6f2d8c", "rental_uris": {"android": "https://dc.lft.to/lastmile_qr_scan", "ios": "https://dc.lft.to/lastmile_qr_scan"}, "name": "1a4042da2dd1ec9bed12e5bfeb6f2d8c", "is_reserved": 0}, {"is_disabled": 0, "fusion_lon": 0.0, "fusion_lat": 0.0, "lat": 38.91800683333334, "type": "electric_scooter", "lon": -77.03539433333333, "bike_id": "3e8af8e803ff28dfb60f75458705ea87", "rental_uris": {"android": "https://dc.lft.to/lastmile_qr_scan", "ios": "https://dc.lft.to/lastmile_qr_scan"}, "name": "3e8af8e803ff28dfb60f75458705ea87", "is_reserved": 0}, {"is_disabled": 0, "fusion_lon": 0.0, "fusion_lat": 0.0, "lat": 38.92796533333333, "type": "electric_scooter", "lon": -77.02296333333334, "bike_id": "13708de7f7e87a9ac8044910b36d4082", "rental_uris": {"android": "https://dc.lft.to/lastmile_qr_scan", "ios": "https://dc.lft.to/lastmile_qr_scan"}, "name": "13708de7f7e87a9ac8044910b36d4082", "is_reserved": 0}, {"is_disabled": 0, "fusion_lon": 0.0, "fusion_lat": 0.0, "lat": 38.9050585, "type": "electric_scooter", "lon": -77.02953116666667, "bike_id": "8b3265247762f1dea1498e9421de17df", "rental_uris": {"android": "https://dc.lft.to/lastmile_qr_scan", "ios": "https://dc.lft.to/lastmile_qr_scan"}, "name": "8b3265247762f1dea1498e9421de17df", "is_reserved": 0}, {"is_disabled": 0, "fusion_lon": 0.0, "fusion_lat": 0.0, "lat": 38.937596666666664, "type": "electric_scooter", "lon": -77.02459733333333, "bike_id": "33c5848550f4288f0bf37a93944b455c", "rental_uris": {"android": "https://dc.lft.to/lastmile_qr_scan", "ios": "https://dc.lft.to/lastmile_qr_scan"}, "name": "33c5848550f4288f0bf37a93944b455c", "is_reserved": 0}, {"is_disabled": 0, "fusion_lon": 0.0, "fusion_lat": 0.0, "lat": 38.90251383333333, "type": "electric_scooter", "lon": -77.03443766666666, "bike_id": "9f3f0027ae3011364aee828c30f97571", "rental_uris": {"android": "https://dc.lft.to/lastmile_qr_scan", "ios": "https://dc.lft.to/lastmile_qr_scan"}, "name": "9f3f0027ae3011364aee828c30f97571", "is_reserved": 0}, {"is_disabled": 0, "fusion_lon": 0.0, "fusion_lat": 0.0, "lat": 38.927380166666666, "type": "electric_bike", "lon": -76.99363933333333, "bike_id": "05328fea01c174ef9d9a139f97917e13", "rental_uris": {"android": "https://dc.lft.to/lastmile_qr_scan", "ios": "https://dc.lft.to/lastmile_qr_scan"}, "name": "05328fea01c174ef9d9a139f97917e13", "is_reserved": 0}, {"is_disabled": 0, "fusion_lon": 0.0, "fusion_lat": 0.0, "lat": 38.95636433333333, "type": "electric_scooter", "lon": -77.02981166666666, "bike_id": "5358368e41ddfa6765217c3b6df48e15", "rental_uris": {"android": "https://dc.lft.to/lastmile_qr_scan", "ios": "https://dc.lft.to/lastmile_qr_scan"}, "name": "5358368e41ddfa6765217c3b6df48e15", "is_reserved": 0}, {"is_disabled": 0, "fusion_lon": 0.0, "fusion_lat": 0.0, "lat": 38.881565333333334, "type": "electric_scooter", "lon": -77.0088665, "bike_id": "2a25da3d4c3216ed56df4f53d629ef1e", "rental_uris": {"android": "https://dc.lft.to/lastmile_qr_scan", "ios": "https://dc.lft.to/lastmile_qr_scan"}, "name": "2a25da3d4c3216ed56df4f53d629ef1e", "is_reserved": 0}, {"is_disabled": 0, "fusion_lon": 0.0, "fusion_lat": 0.0, "lat": 38.850685, "type": "electric_bike", "lon": -76.973321, "bike_id": "8af94bd833405b0393cd0eb00e786aab", "rental_uris": {"android": "https://dc.lft.to/lastmile_qr_scan", "ios": "https://dc.lft.to/lastmile_qr_scan"}, "name": "8af94bd833405b0393cd0eb00e786aab", "is_reserved": 0}, {"is_disabled": 0, "fusion_lon": 0.0, "fusion_lat": 0.0, "lat": 38.859705, "type": "electric_scooter", "lon": -76.98420516666667, "bike_id": "161c9d30a8ac4a46d4e0483867516c16", "rental_uris": {"android": "https://dc.lft.to/lastmile_qr_scan", "ios": "https://dc.lft.to/lastmile_qr_scan"}, "name": "161c9d30a8ac4a46d4e0483867516c16", "is_reserved": 0}, {"is_disabled": 0, "fusion_lon": 0.0, "fusion_lat": 0.0, "lat": 38.91905583333333, "type": "electric_scooter", "lon": -77.0276005, "bike_id": "4f7561e743164cd83107ca1b7b565b9f", "rental_uris": {"android": "https://dc.lft.to/lastmile_qr_scan", "ios": "https://dc.lft.to/lastmile_qr_scan"}, "name": "4f7561e743164cd83107ca1b7b565b9f", "is_reserved": 0}, {"is_disabled": 0, "fusion_lon": 0.0, "fusion_lat": 0.0, "lat": 38.877925833333336, "type": "electric_scooter", "lon": -77.01354433333333, "bike_id": "06ccdc93002a36667c7a8b2f3e0c252b", "rental_uris": {"android": "https://dc.lft.to/lastmile_qr_scan", "ios": "https://dc.lft.to/lastmile_qr_scan"}, "name": "06ccdc93002a36667c7a8b2f3e0c252b", "is_reserved": 0}, {"is_disabled": 0, "fusion_lon": 0.0, "fusion_lat": 0.0, "lat": 38.867192833333334, "type": "electric_scooter", "lon": -76.97916866666667, "bike_id": "11329548efff96e5c2a02ce99fa13504", "rental_uris": {"android": "https://dc.lft.to/lastmile_qr_scan", "ios": "https://dc.lft.to/lastmile_qr_scan"}, "name": "11329548efff96e5c2a02ce99fa13504", "is_reserved": 0}, {"is_disabled": 0, "fusion_lon": 0.0, "fusion_lat": 0.0, "lat": 38.93886116666667, "type": "electric_scooter", "lon": -77.028261, "bike_id": "e850b34de05de2ce8465949dcdb8da21", "rental_uris": {"android": "https://dc.lft.to/lastmile_qr_scan", "ios": "https://dc.lft.to/lastmile_qr_scan"}, "name": "e850b34de05de2ce8465949dcdb8da21", "is_reserved": 0}, {"is_disabled": 0, "fusion_lon": 0.0, "fusion_lat": 0.0, "lat": 38.9574325, "type": "electric_scooter", "lon": -77.02427283333333, "bike_id": "9962287c376df4092c76a55ff4d27885", "rental_uris": {"android": "https://dc.lft.to/lastmile_qr_scan", "ios": "https://dc.lft.to/lastmile_qr_scan"}, "name": "9962287c376df4092c76a55ff4d27885", "is_reserved": 0}, {"is_disabled": 0, "fusion_lon": 0.0, "fusion_lat": 0.0, "lat": 38.93332683333333, "type": "electric_scooter", "lon": -77.041302, "bike_id": "5d5a885e1642f971485800bb5bbca466", "rental_uris": {"android": "https://dc.lft.to/lastmile_qr_scan", "ios": "https://dc.lft.to/lastmile_qr_scan"}, "name": "5d5a885e1642f971485800bb5bbca466", "is_reserved": 0}, {"is_disabled": 0, "fusion_lon": 0.0, "fusion_lat": 0.0, "lat": 38.928702666666666, "type": "electric_scooter", "lon": -76.99029, "bike_id": "3154890c8e1c3b4a414432a6ab03a3e5", "rental_uris": {"android": "https://dc.lft.to/lastmile_qr_scan", "ios": "https://dc.lft.to/lastmile_qr_scan"}, "name": "3154890c8e1c3b4a414432a6ab03a3e5", "is_reserved": 0}, {"is_disabled": 0, "fusion_lon": 0.0, "fusion_lat": 0.0, "lat": 38.91340666666667, "type": "electric_scooter", "lon": -77.052179, "bike_id": "c79fef9a908cf768a54893df786f135f", "rental_uris": {"android": "https://dc.lft.to/lastmile_qr_scan", "ios": "https://dc.lft.to/lastmile_qr_scan"}, "name": "c79fef9a908cf768a54893df786f135f", "is_reserved": 0}, {"is_disabled": 0, "fusion_lon": 0.0, "fusion_lat": 0.0, "lat": 38.98475416666667, "type": "electric_scooter", "lon": -77.02650616666666, "bike_id": "a712dadcf6217e15209e5c80a922651b", "rental_uris": {"android": "https://dc.lft.to/lastmile_qr_scan", "ios": "https://dc.lft.to/lastmile_qr_scan"}, "name": "a712dadcf6217e15209e5c80a922651b", "is_reserved": 0}, {"is_disabled": 0, "fusion_lon": 0.0, "fusion_lat": 0.0, "lat": 38.90775683333333, "type": "electric_scooter", "lon": -77.03525866666666, "bike_id": "0319c6223eb18d16481052cf618c7e9f", "rental_uris": {"android": "https://dc.lft.to/lastmile_qr_scan", "ios": "https://dc.lft.to/lastmile_qr_scan"}, "name": "0319c6223eb18d16481052cf618c7e9f", "is_reserved": 0}, {"is_disabled": 0, "fusion_lon": 0.0, "fusion_lat": 0.0, "lat": 38.89362933333334, "type": "electric_scooter", "lon": -76.939882, "bike_id": "0ff8d4bc08e60b2f4246f99fdbaa1e62", "rental_uris": {"android": "https://dc.lft.to/lastmile_qr_scan", "ios": "https://dc.lft.to/lastmile_qr_scan"}, "name": "0ff8d4bc08e60b2f4246f99fdbaa1e62", "is_reserved": 0}, {"is_disabled": 0, "fusion_lon": 0.0, "fusion_lat": 0.0, "lat": 38.9283155, "type": "electric_scooter", "lon": -77.02259833333333, "bike_id": "11d1bd948ca0b61bf96897974f0ab419", "rental_uris": {"android": "https://dc.lft.to/lastmile_qr_scan", "ios": "https://dc.lft.to/lastmile_qr_scan"}, "name": "11d1bd948ca0b61bf96897974f0ab419", "is_reserved": 0}, {"is_disabled": 0, "fusion_lon": 0.0, "fusion_lat": 0.0, "lat": 38.946145333333334, "type": "electric_scooter", "lon": -77.03619916666666, "bike_id": "f137275048e80d0bf1c0b33bdd24fa01", "rental_uris": {"android": "https://dc.lft.to/lastmile_qr_scan", "ios": "https://dc.lft.to/lastmile_qr_scan"}, "name": "f137275048e80d0bf1c0b33bdd24fa01", "is_reserved": 0}, {"is_disabled": 0, "fusion_lon": 0.0, "fusion_lat": 0.0, "lat": 38.96625016666667, "type": "electric_scooter", "lon": -77.03533366666667, "bike_id": "8f28ff2e6c6981b342b85cdaaee8baa2", "rental_uris": {"android": "https://dc.lft.to/lastmile_qr_scan", "ios": "https://dc.lft.to/lastmile_qr_scan"}, "name": "8f28ff2e6c6981b342b85cdaaee8baa2", "is_reserved": 0}, {"is_disabled": 0, "fusion_lon": 0.0, "fusion_lat": 0.0, "lat": 38.934296, "type": "electric_scooter", "lon": -77.0258895, "bike_id": "5887a19cf74b0c033fec4197ef2c29b8", "rental_uris": {"android": "https://dc.lft.to/lastmile_qr_scan", "ios": "https://dc.lft.to/lastmile_qr_scan"}, "name": "5887a19cf74b0c033fec4197ef2c29b8", "is_reserved": 0}, {"is_disabled": 0, "fusion_lon": 0.0, "fusion_lat": 0.0, "lat": 38.91309583333334, "type": "electric_scooter", "lon": -77.00845533333333, "bike_id": "b8d72001cc381799a805c34f6a112dc4", "rental_uris": {"android": "https://dc.lft.to/lastmile_qr_scan", "ios": "https://dc.lft.to/lastmile_qr_scan"}, "name": "b8d72001cc381799a805c34f6a112dc4", "is_reserved": 0}, {"is_disabled": 0, "fusion_lon": 0.0, "fusion_lat": 0.0, "lat": 38.912693, "type": "electric_scooter", "lon": -77.0336645, "bike_id": "6c53a8e05f47a3976d913120cc5e6e40", "rental_uris": {"android": "https://dc.lft.to/lastmile_qr_scan", "ios": "https://dc.lft.to/lastmile_qr_scan"}, "name": "6c53a8e05f47a3976d913120cc5e6e40", "is_reserved": 0}, {"is_disabled": 0, "fusion_lon": 0.0, "fusion_lat": 0.0, "lat": 38.951742, "type": "electric_scooter", "lon": -77.03332433333334, "bike_id": "cef7c0ab7b245efa11f5a489aee8f437", "rental_uris": {"android": "https://dc.lft.to/lastmile_qr_scan", "ios": "https://dc.lft.to/lastmile_qr_scan"}, "name": "cef7c0ab7b245efa11f5a489aee8f437", "is_reserved": 0}, {"is_disabled": 0, "fusion_lon": 0.0, "fusion_lat": 0.0, "lat": 38.929685666666664, "type": "electric_scooter", "lon": -77.04204333333334, "bike_id": "fb4efb92dbdc7500f9dac994878273d4", "rental_uris": {"android": "https://dc.lft.to/lastmile_qr_scan", "ios": "https://dc.lft.to/lastmile_qr_scan"}, "name": "fb4efb92dbdc7500f9dac994878273d4", "is_reserved": 0}, {"is_disabled": 0, "fusion_lon": 0.0, "fusion_lat": 0.0, "lat": 38.91545633333333, "type": "electric_scooter", "lon": -77.03796466666667, "bike_id": "690abebc62d4ed000084c19d91338893", "rental_uris": {"android": "https://dc.lft.to/lastmile_qr_scan", "ios": "https://dc.lft.to/lastmile_qr_scan"}, "name": "690abebc62d4ed000084c19d91338893", "is_reserved": 0}, {"is_disabled": 0, "fusion_lon": 0.0, "fusion_lat": 0.0, "lat": 38.9181245, "type": "electric_scooter", "lon": -77.03133266666667, "bike_id": "a98562c484d22b109350832aee838f47", "rental_uris": {"android": "https://dc.lft.to/lastmile_qr_scan", "ios": "https://dc.lft.to/lastmile_qr_scan"}, "name": "a98562c484d22b109350832aee838f47", "is_reserved": 0}, {"is_disabled": 0, "fusion_lon": 0.0, "fusion_lat": 0.0, "lat": 38.96019366666667, "type": "electric_scooter", "lon": -77.03315533333334, "bike_id": "77ff8e6d6eee39bffc864b7a27c9edea", "rental_uris": {"android": "https://dc.lft.to/lastmile_qr_scan", "ios": "https://dc.lft.to/lastmile_qr_scan"}, "name": "77ff8e6d6eee39bffc864b7a27c9edea", "is_reserved": 0}, {"is_disabled": 0, "fusion_lon": 0.0, "fusion_lat": 0.0, "lat": 38.92761333333333, "type": "electric_scooter", "lon": -77.02790516666667, "bike_id": "fc97d29b56f94eef670d1f58e6337b4e", "rental_uris": {"android": "https://dc.lft.to/lastmile_qr_scan", "ios": "https://dc.lft.to/lastmile_qr_scan"}, "name": "fc97d29b56f94eef670d1f58e6337b4e", "is_reserved": 0}, {"is_disabled": 0, "fusion_lon": 0.0, "fusion_lat": 0.0, "lat": 38.865192666666665, "type": "electric_scooter", "lon": -76.9896185, "bike_id": "af9a51b09b031712b50bcd467081895a", "rental_uris": {"android": "https://dc.lft.to/lastmile_qr_scan", "ios": "https://dc.lft.to/lastmile_qr_scan"}, "name": "af9a51b09b031712b50bcd467081895a", "is_reserved": 0}, {"is_disabled": 0, "fusion_lon": 0.0, "fusion_lat": 0.0, "lat": 38.898991, "type": "electric_scooter", "lon": -77.03972516666667, "bike_id": "c7570c94bb92dc005199779ef41eb2d5", "rental_uris": {"android": "https://dc.lft.to/lastmile_qr_scan", "ios": "https://dc.lft.to/lastmile_qr_scan"}, "name": "c7570c94bb92dc005199779ef41eb2d5", "is_reserved": 0}, {"is_disabled": 0, "fusion_lon": 0.0, "fusion_lat": 0.0, "lat": 38.84622, "type": "electric_scooter", "lon": -76.99630233333333, "bike_id": "361b5c33191819a7195fcb8601cd1dcd", "rental_uris": {"android": "https://dc.lft.to/lastmile_qr_scan", "ios": "https://dc.lft.to/lastmile_qr_scan"}, "name": "361b5c33191819a7195fcb8601cd1dcd", "is_reserved": 0}, {"is_disabled": 0, "fusion_lon": 0.0, "fusion_lat": 0.0, "lat": 38.903353, "type": "electric_scooter", "lon": -76.98017416666667, "bike_id": "1ee0824232e71e4d22d2681c6996ab98", "rental_uris": {"android": "https://dc.lft.to/lastmile_qr_scan", "ios": "https://dc.lft.to/lastmile_qr_scan"}, "name": "1ee0824232e71e4d22d2681c6996ab98", "is_reserved": 0}, {"is_disabled": 0, "fusion_lon": 0.0, "fusion_lat": 0.0, "lat": 38.92442416666667, "type": "electric_scooter", "lon": -77.02608533333333, "bike_id": "94a6fbd828f057d5a5012ad4ee695811", "rental_uris": {"android": "https://dc.lft.to/lastmile_qr_scan", "ios": "https://dc.lft.to/lastmile_qr_scan"}, "name": "94a6fbd828f057d5a5012ad4ee695811", "is_reserved": 0}, {"is_disabled": 0, "fusion_lon": 0.0, "fusion_lat": 0.0, "lat": 38.962896, "type": "electric_bike", "lon": -77.02869033333333, "bike_id": "335a0e982e07063228701886568d31cf", "rental_uris": {"android": "https://dc.lft.to/lastmile_qr_scan", "ios": "https://dc.lft.to/lastmile_qr_scan"}, "name": "335a0e982e07063228701886568d31cf", "is_reserved": 0}, {"is_disabled": 0, "fusion_lon": 0.0, "fusion_lat": 0.0, "lat": 38.910569833333334, "type": "electric_scooter", "lon": -77.05445066666667, "bike_id": "b240dfbf5597fea15c775371e362c661", "rental_uris": {"android": "https://dc.lft.to/lastmile_qr_scan", "ios": "https://dc.lft.to/lastmile_qr_scan"}, "name": "b240dfbf5597fea15c775371e362c661", "is_reserved": 0}, {"is_disabled": 0, "fusion_lon": 0.0, "fusion_lat": 0.0, "lat": 38.90474533333333, "type": "electric_scooter", "lon": -77.03563383333334, "bike_id": "f423d2451624f2d4c4bc662cc71002be", "rental_uris": {"android": "https://dc.lft.to/lastmile_qr_scan", "ios": "https://dc.lft.to/lastmile_qr_scan"}, "name": "f423d2451624f2d4c4bc662cc71002be", "is_reserved": 0}, {"is_disabled": 0, "fusion_lon": 0.0, "fusion_lat": 0.0, "lat": 38.93470033333333, "type": "electric_scooter", "lon": -77.0300465, "bike_id": "8f474329470542612c7b51f6c1060a78", "rental_uris": {"android": "https://dc.lft.to/lastmile_qr_scan", "ios": "https://dc.lft.to/lastmile_qr_scan"}, "name": "8f474329470542612c7b51f6c1060a78", "is_reserved": 0}, {"is_disabled": 0, "fusion_lon": 0.0, "fusion_lat": 0.0, "lat": 38.9018175, "type": "electric_scooter", "lon": -77.02498066666666, "bike_id": "5352c1ebccd161ebc3613caf0dfb158a", "rental_uris": {"android": "https://dc.lft.to/lastmile_qr_scan", "ios": "https://dc.lft.to/lastmile_qr_scan"}, "name": "5352c1ebccd161ebc3613caf0dfb158a", "is_reserved": 0}, {"is_disabled": 0, "fusion_lon": 0.0, "fusion_lat": 0.0, "lat": 38.897188666666665, "type": "electric_scooter", "lon": -77.03034766666667, "bike_id": "ec535e982d56286b879fcd87d04eb266", "rental_uris": {"android": "https://dc.lft.to/lastmile_qr_scan", "ios": "https://dc.lft.to/lastmile_qr_scan"}, "name": "ec535e982d56286b879fcd87d04eb266", "is_reserved": 0}, {"is_disabled": 0, "fusion_lon": 0.0, "fusion_lat": 0.0, "lat": 38.82388783333333, "type": "electric_scooter", "lon": -77.00698, "bike_id": "5570e368bf5de0f2cfca6f4e6ab61356", "rental_uris": {"android": "https://dc.lft.to/lastmile_qr_scan", "ios": "https://dc.lft.to/lastmile_qr_scan"}, "name": "5570e368bf5de0f2cfca6f4e6ab61356", "is_reserved": 0}, {"is_disabled": 0, "fusion_lon": 0.0, "fusion_lat": 0.0, "lat": 38.923015, "type": "electric_scooter", "lon": -77.041787, "bike_id": "cd392a278bd9cd58f06f3c483cbfad52", "rental_uris": {"android": "https://dc.lft.to/lastmile_qr_scan", "ios": "https://dc.lft.to/lastmile_qr_scan"}, "name": "cd392a278bd9cd58f06f3c483cbfad52", "is_reserved": 0}, {"is_disabled": 0, "fusion_lon": 0.0, "fusion_lat": 0.0, "lat": 38.94578033333333, "type": "electric_bike", "lon": -76.98775566666667, "bike_id": "cac8ca1debd31d663260cb1afdb164ea", "rental_uris": {"android": "https://dc.lft.to/lastmile_qr_scan", "ios": "https://dc.lft.to/lastmile_qr_scan"}, "name": "cac8ca1debd31d663260cb1afdb164ea", "is_reserved": 0}, {"is_disabled": 0, "fusion_lon": 0.0, "fusion_lat": 0.0, "lat": 38.93643433333333, "type": "electric_bike", "lon": -76.95457533333334, "bike_id": "75901b380251686ec818a9c5b1cfd29d", "rental_uris": {"android": "https://dc.lft.to/lastmile_qr_scan", "ios": "https://dc.lft.to/lastmile_qr_scan"}, "name": "75901b380251686ec818a9c5b1cfd29d", "is_reserved": 0}, {"is_disabled": 0, "fusion_lon": 0.0, "fusion_lat": 0.0, "lat": 38.89001016666667, "type": "electric_scooter", "lon": -77.04900666666667, "bike_id": "cb69bdca9ed9d8598f177ada56cf5a8f", "rental_uris": {"android": "https://dc.lft.to/lastmile_qr_scan", "ios": "https://dc.lft.to/lastmile_qr_scan"}, "name": "cb69bdca9ed9d8598f177ada56cf5a8f", "is_reserved": 0}, {"is_disabled": 0, "fusion_lon": 0.0, "fusion_lat": 0.0, "lat": 38.9357865, "type": "electric_bike", "lon": -77.036575, "bike_id": "76d70d3f6f780e0e75730da757c58534", "rental_uris": {"android": "https://dc.lft.to/lastmile_qr_scan", "ios": "https://dc.lft.to/lastmile_qr_scan"}, "name": "76d70d3f6f780e0e75730da757c58534", "is_reserved": 0}, {"is_disabled": 0, "fusion_lon": 0.0, "fusion_lat": 0.0, "lat": 38.878594, "type": "electric_bike", "lon": -77.017677, "bike_id": "63f9442ce8fe2b9f390f37298e290e89", "rental_uris": {"android": "https://dc.lft.to/lastmile_qr_scan", "ios": "https://dc.lft.to/lastmile_qr_scan"}, "name": "63f9442ce8fe2b9f390f37298e290e89", "is_reserved": 0}, {"is_disabled": 0, "fusion_lon": 0.0, "fusion_lat": 0.0, "lat": 38.90534383333333, "type": "electric_scooter", "lon": -77.05030016666667, "bike_id": "698b690b35a33edef97e84dd5b71c4b8", "rental_uris": {"android": "https://dc.lft.to/lastmile_qr_scan", "ios": "https://dc.lft.to/lastmile_qr_scan"}, "name": "698b690b35a33edef97e84dd5b71c4b8", "is_reserved": 0}, {"is_disabled": 0, "fusion_lon": 0.0, "fusion_lat": 0.0, "lat": 38.88458883333333, "type": "electric_bike", "lon": -76.91635716666667, "bike_id": "b797d87a0b30a8896a94f9e086fae35c", "rental_uris": {"android": "https://dc.lft.to/lastmile_qr_scan", "ios": "https://dc.lft.to/lastmile_qr_scan"}, "name": "b797d87a0b30a8896a94f9e086fae35c", "is_reserved": 0}, {"is_disabled": 0, "fusion_lon": 0.0, "fusion_lat": 0.0, "lat": 38.937018333333334, "type": "electric_scooter", "lon": -77.055971, "bike_id": "60a5ee219d24f91c88f55fc19e0a4a0d", "rental_uris": {"android": "https://dc.lft.to/lastmile_qr_scan", "ios": "https://dc.lft.to/lastmile_qr_scan"}, "name": "60a5ee219d24f91c88f55fc19e0a4a0d", "is_reserved": 0}, {"is_disabled": 0, "fusion_lon": 0.0, "fusion_lat": 0.0, "lat": 38.949011666666664, "type": "electric_bike", "lon": -76.9637215, "bike_id": "918f288c292f20222d56828ce31b0467", "rental_uris": {"android": "https://dc.lft.to/lastmile_qr_scan", "ios": "https://dc.lft.to/lastmile_qr_scan"}, "name": "918f288c292f20222d56828ce31b0467", "is_reserved": 0}, {"is_disabled": 0, "fusion_lon": 0.0, "fusion_lat": 0.0, "lat": 38.91704283333333, "type": "electric_scooter", "lon": -77.00112966666667, "bike_id": "dff63ee36deb67001c5b03ea61b3f8cf", "rental_uris": {"android": "https://dc.lft.to/lastmile_qr_scan", "ios": "https://dc.lft.to/lastmile_qr_scan"}, "name": "dff63ee36deb67001c5b03ea61b3f8cf", "is_reserved": 0}, {"is_disabled": 0, "fusion_lon": 0.0, "fusion_lat": 0.0, "lat": 39.0526775, "type": "electric_bike", "lon": -77.04381666666667, "bike_id": "338565a948e22fd5fb0e73d7abfea91c", "rental_uris": {"android": "https://dc.lft.to/lastmile_qr_scan", "ios": "https://dc.lft.to/lastmile_qr_scan"}, "name": "338565a948e22fd5fb0e73d7abfea91c", "is_reserved": 0}, {"is_disabled": 0, "fusion_lon": 0.0, "fusion_lat": 0.0, "lat": 38.91594966666667, "type": "electric_scooter", "lon": -77.07277966666666, "bike_id": "007560bbcddf84b3e40bdebb96239b34", "rental_uris": {"android": "https://dc.lft.to/lastmile_qr_scan", "ios": "https://dc.lft.to/lastmile_qr_scan"}, "name": "007560bbcddf84b3e40bdebb96239b34", "is_reserved": 0}, {"is_disabled": 0, "fusion_lon": 0.0, "fusion_lat": 0.0, "lat": 38.916193166666666, "type": "electric_scooter", "lon": -77.02288183333333, "bike_id": "e486e9abaef6cbf904ca0f8680e89f52", "rental_uris": {"android": "https://dc.lft.to/lastmile_qr_scan", "ios": "https://dc.lft.to/lastmile_qr_scan"}, "name": "e486e9abaef6cbf904ca0f8680e89f52", "is_reserved": 0}, {"is_disabled": 0, "fusion_lon": 0.0, "fusion_lat": 0.0, "lat": 38.90848966666667, "type": "electric_scooter", "lon": -77.0382905, "bike_id": "bc530edeed73f20f38f49edc33a2bd52", "rental_uris": {"android": "https://dc.lft.to/lastmile_qr_scan", "ios": "https://dc.lft.to/lastmile_qr_scan"}, "name": "bc530edeed73f20f38f49edc33a2bd52", "is_reserved": 0}, {"is_disabled": 0, "fusion_lon": 0.0, "fusion_lat": 0.0, "lat": 38.87204883333333, "type": "electric_bike", "lon": -77.0162455, "bike_id": "d61464d5374fa4731a9e06896feb79f9", "rental_uris": {"android": "https://dc.lft.to/lastmile_qr_scan", "ios": "https://dc.lft.to/lastmile_qr_scan"}, "name": "d61464d5374fa4731a9e06896feb79f9", "is_reserved": 0}, {"is_disabled": 0, "fusion_lon": 0.0, "fusion_lat": 0.0, "lat": 38.86950016666667, "type": "electric_scooter", "lon": -76.97932516666667, "bike_id": "c7e7a6ff765719ae3516e84cc8567f3a", "rental_uris": {"android": "https://dc.lft.to/lastmile_qr_scan", "ios": "https://dc.lft.to/lastmile_qr_scan"}, "name": "c7e7a6ff765719ae3516e84cc8567f3a", "is_reserved": 0}, {"is_disabled": 0, "fusion_lon": 0.0, "fusion_lat": 0.0, "lat": 38.92558066666667, "type": "electric_scooter", "lon": -77.02564283333334, "bike_id": "62d2a0a36af010783a9e29470c5f244c", "rental_uris": {"android": "https://dc.lft.to/lastmile_qr_scan", "ios": "https://dc.lft.to/lastmile_qr_scan"}, "name": "62d2a0a36af010783a9e29470c5f244c", "is_reserved": 0}, {"is_disabled": 0, "fusion_lon": 0.0, "fusion_lat": 0.0, "lat": 38.918085166666664, "type": "electric_scooter", "lon": -77.02395133333333, "bike_id": "ca2e80ebb62179e68b99f10365b10a5e", "rental_uris": {"android": "https://dc.lft.to/lastmile_qr_scan", "ios": "https://dc.lft.to/lastmile_qr_scan"}, "name": "ca2e80ebb62179e68b99f10365b10a5e", "is_reserved": 0}, {"is_disabled": 0, "fusion_lon": 0.0, "fusion_lat": 0.0, "lat": 38.906637333333336, "type": "electric_scooter", "lon": -77.02698683333334, "bike_id": "2fb0719e0031d4dd78d6b8484b3ad098", "rental_uris": {"android": "https://dc.lft.to/lastmile_qr_scan", "ios": "https://dc.lft.to/lastmile_qr_scan"}, "name": "2fb0719e0031d4dd78d6b8484b3ad098", "is_reserved": 0}, {"is_disabled": 0, "fusion_lon": 0.0, "fusion_lat": 0.0, "lat": 38.928253, "type": "electric_scooter", "lon": -77.02255283333334, "bike_id": "37b5a46790292b5cb2f0a555f0eff934", "rental_uris": {"android": "https://dc.lft.to/lastmile_qr_scan", "ios": "https://dc.lft.to/lastmile_qr_scan"}, "name": "37b5a46790292b5cb2f0a555f0eff934", "is_reserved": 0}, {"is_disabled": 0, "fusion_lon": 0.0, "fusion_lat": 0.0, "lat": 38.91121783333333, "type": "electric_scooter", "lon": -77.04166616666667, "bike_id": "4b7c292140523affd0b65b17595eca3b", "rental_uris": {"android": "https://dc.lft.to/lastmile_qr_scan", "ios": "https://dc.lft.to/lastmile_qr_scan"}, "name": "4b7c292140523affd0b65b17595eca3b", "is_reserved": 0}, {"is_disabled": 0, "fusion_lon": 0.0, "fusion_lat": 0.0, "lat": 38.842928, "type": "electric_scooter", "lon": -76.99949583333333, "bike_id": "b77429443a14faf7232fcd4c075e4f62", "rental_uris": {"android": "https://dc.lft.to/lastmile_qr_scan", "ios": "https://dc.lft.to/lastmile_qr_scan"}, "name": "b77429443a14faf7232fcd4c075e4f62", "is_reserved": 0}, {"is_disabled": 0, "fusion_lon": 0.0, "fusion_lat": 0.0, "lat": 38.9198035, "type": "electric_scooter", "lon": -77.00022283333334, "bike_id": "5138ef9a213d4d1e73b4e1b419db0569", "rental_uris": {"android": "https://dc.lft.to/lastmile_qr_scan", "ios": "https://dc.lft.to/lastmile_qr_scan"}, "name": "5138ef9a213d4d1e73b4e1b419db0569", "is_reserved": 0}, {"is_disabled": 0, "fusion_lon": 0.0, "fusion_lat": 0.0, "lat": 38.91586316666667, "type": "electric_scooter", "lon": -77.03214833333334, "bike_id": "ed2bab2ae5897e993a823f99409b2e94", "rental_uris": {"android": "https://dc.lft.to/lastmile_qr_scan", "ios": "https://dc.lft.to/lastmile_qr_scan"}, "name": "ed2bab2ae5897e993a823f99409b2e94", "is_reserved": 0}, {"is_disabled": 0, "fusion_lon": 0.0, "fusion_lat": 0.0, "lat": 38.9002415, "type": "electric_scooter", "lon": -76.9968835, "bike_id": "48b3586307280fb1765fc1b28b93b388", "rental_uris": {"android": "https://dc.lft.to/lastmile_qr_scan", "ios": "https://dc.lft.to/lastmile_qr_scan"}, "name": "48b3586307280fb1765fc1b28b93b388", "is_reserved": 0}, {"is_disabled": 0, "fusion_lon": 0.0, "fusion_lat": 0.0, "lat": 38.90062733333333, "type": "electric_scooter", "lon": -76.98682183333334, "bike_id": "fd6fefc8aa6561b60b2eb55d66b4ee94", "rental_uris": {"android": "https://dc.lft.to/lastmile_qr_scan", "ios": "https://dc.lft.to/lastmile_qr_scan"}, "name": "fd6fefc8aa6561b60b2eb55d66b4ee94", "is_reserved": 0}, {"is_disabled": 0, "fusion_lon": 0.0, "fusion_lat": 0.0, "lat": 38.913836333333336, "type": "electric_scooter", "lon": -77.0296745, "bike_id": "5e5d58a257efc291fc2f197d0b8de746", "rental_uris": {"android": "https://dc.lft.to/lastmile_qr_scan", "ios": "https://dc.lft.to/lastmile_qr_scan"}, "name": "5e5d58a257efc291fc2f197d0b8de746", "is_reserved": 0}, {"is_disabled": 0, "fusion_lon": 0.0, "fusion_lat": 0.0, "lat": 38.88699583333333, "type": "electric_scooter", "lon": -76.9536745, "bike_id": "2871d14238247f19e0d21af31e043074", "rental_uris": {"android": "https://dc.lft.to/lastmile_qr_scan", "ios": "https://dc.lft.to/lastmile_qr_scan"}, "name": "2871d14238247f19e0d21af31e043074", "is_reserved": 0}, {"is_disabled": 0, "fusion_lon": 0.0, "fusion_lat": 0.0, "lat": 38.888204, "type": "electric_bike", "lon": -77.12738983333334, "bike_id": "6cec401bf506e4268a451d527b34b8ed", "rental_uris": {"android": "https://dc.lft.to/lastmile_qr_scan", "ios": "https://dc.lft.to/lastmile_qr_scan"}, "name": "6cec401bf506e4268a451d527b34b8ed", "is_reserved": 0}, {"is_disabled": 0, "fusion_lon": 0.0, "fusion_lat": 0.0, "lat": 38.93434033333333, "type": "electric_scooter", "lon": -77.03279683333334, "bike_id": "87f2f8a67b769381b1eba661ad8fa300", "rental_uris": {"android": "https://dc.lft.to/lastmile_qr_scan", "ios": "https://dc.lft.to/lastmile_qr_scan"}, "name": "87f2f8a67b769381b1eba661ad8fa300", "is_reserved": 0}, {"is_disabled": 0, "fusion_lon": 0.0, "fusion_lat": 0.0, "lat": 38.975797, "type": "electric_bike", "lon": -76.96408333333333, "bike_id": "e982e913ce5cf874e5243a2f599a27c2", "rental_uris": {"android": "https://dc.lft.to/lastmile_qr_scan", "ios": "https://dc.lft.to/lastmile_qr_scan"}, "name": "e982e913ce5cf874e5243a2f599a27c2", "is_reserved": 0}, {"is_disabled": 0, "fusion_lon": 0.0, "fusion_lat": 0.0, "lat": 38.990929333333334, "type": "electric_bike", "lon": -76.87495466666667, "bike_id": "d702e112a5b13e0d7350f2ec46c80ef2", "rental_uris": {"android": "https://dc.lft.to/lastmile_qr_scan", "ios": "https://dc.lft.to/lastmile_qr_scan"}, "name": "d702e112a5b13e0d7350f2ec46c80ef2", "is_reserved": 0}, {"is_disabled": 0, "fusion_lon": 0.0, "fusion_lat": 0.0, "lat": 38.88970833333333, "type": "electric_bike", "lon": -76.9486775, "bike_id": "6c0fc4630fc8e347b01fcd40d040d197", "rental_uris": {"android": "https://dc.lft.to/lastmile_qr_scan", "ios": "https://dc.lft.to/lastmile_qr_scan"}, "name": "6c0fc4630fc8e347b01fcd40d040d197", "is_reserved": 0}, {"is_disabled": 0, "fusion_lon": 0.0, "fusion_lat": 0.0, "lat": 38.907766333333335, "type": "electric_scooter", "lon": -77.03267433333333, "bike_id": "a30e4a18b30fd52a3588677eb85af15d", "rental_uris": {"android": "https://dc.lft.to/lastmile_qr_scan", "ios": "https://dc.lft.to/lastmile_qr_scan"}, "name": "a30e4a18b30fd52a3588677eb85af15d", "is_reserved": 0}, {"is_disabled": 0, "fusion_lon": 0.0, "fusion_lat": 0.0, "lat": 38.9060605, "type": "electric_scooter", "lon": -77.04157783333333, "bike_id": "42ba0359cd990a8aad2b144df3af1266", "rental_uris": {"android": "https://dc.lft.to/lastmile_qr_scan", "ios": "https://dc.lft.to/lastmile_qr_scan"}, "name": "42ba0359cd990a8aad2b144df3af1266", "is_reserved": 0}, {"is_disabled": 0, "fusion_lon": 0.0, "fusion_lat": 0.0, "lat": 38.92971166666667, "type": "electric_scooter", "lon": -77.03653816666667, "bike_id": "1009980ff73d93f5c2fa1c33db13e01e", "rental_uris": {"android": "https://dc.lft.to/lastmile_qr_scan", "ios": "https://dc.lft.to/lastmile_qr_scan"}, "name": "1009980ff73d93f5c2fa1c33db13e01e", "is_reserved": 0}, {"is_disabled": 0, "fusion_lon": 0.0, "fusion_lat": 0.0, "lat": 38.91035633333333, "type": "electric_scooter", "lon": -77.03837183333333, "bike_id": "cab4c9975824bfd30fff1e16f5f81ef8", "rental_uris": {"android": "https://dc.lft.to/lastmile_qr_scan", "ios": "https://dc.lft.to/lastmile_qr_scan"}, "name": "cab4c9975824bfd30fff1e16f5f81ef8", "is_reserved": 0}, {"is_disabled": 0, "fusion_lon": 0.0, "fusion_lat": 0.0, "lat": 38.92323366666667, "type": "electric_scooter", "lon": -77.045278, "bike_id": "d4a6c2a0fc541968e7c2d51383f6c3f9", "rental_uris": {"android": "https://dc.lft.to/lastmile_qr_scan", "ios": "https://dc.lft.to/lastmile_qr_scan"}, "name": "d4a6c2a0fc541968e7c2d51383f6c3f9", "is_reserved": 0}, {"is_disabled": 0, "fusion_lon": 0.0, "fusion_lat": 0.0, "lat": 38.859178, "type": "electric_scooter", "lon": -76.9878475, "bike_id": "2176ce9dc5648ec25c34fc3eed139220", "rental_uris": {"android": "https://dc.lft.to/lastmile_qr_scan", "ios": "https://dc.lft.to/lastmile_qr_scan"}, "name": "2176ce9dc5648ec25c34fc3eed139220", "is_reserved": 0}, {"is_disabled": 0, "fusion_lon": 0.0, "fusion_lat": 0.0, "lat": 38.92607316666667, "type": "electric_scooter", "lon": -77.0215785, "bike_id": "2136975af1e3c420343b2898051352a7", "rental_uris": {"android": "https://dc.lft.to/lastmile_qr_scan", "ios": "https://dc.lft.to/lastmile_qr_scan"}, "name": "2136975af1e3c420343b2898051352a7", "is_reserved": 0}, {"is_disabled": 0, "fusion_lon": 0.0, "fusion_lat": 0.0, "lat": 38.90251683333334, "type": "electric_scooter", "lon": -77.01682016666666, "bike_id": "e00bdf599bc0a90069896b9387eef4f7", "rental_uris": {"android": "https://dc.lft.to/lastmile_qr_scan", "ios": "https://dc.lft.to/lastmile_qr_scan"}, "name": "e00bdf599bc0a90069896b9387eef4f7", "is_reserved": 0}, {"is_disabled": 0, "fusion_lon": 0.0, "fusion_lat": 0.0, "lat": 38.88401266666666, "type": "electric_scooter", "lon": -77.01742483333334, "bike_id": "c3dbf6c8d4b4ac5a9b40c20c1cc1a502", "rental_uris": {"android": "https://dc.lft.to/lastmile_qr_scan", "ios": "https://dc.lft.to/lastmile_qr_scan"}, "name": "c3dbf6c8d4b4ac5a9b40c20c1cc1a502", "is_reserved": 0}, {"is_disabled": 0, "fusion_lon": 0.0, "fusion_lat": 0.0, "lat": 38.93498433333333, "type": "electric_scooter", "lon": -77.02605933333334, "bike_id": "49987c3ee13afc42cd89162b64b9375d", "rental_uris": {"android": "https://dc.lft.to/lastmile_qr_scan", "ios": "https://dc.lft.to/lastmile_qr_scan"}, "name": "49987c3ee13afc42cd89162b64b9375d", "is_reserved": 0}, {"is_disabled": 0, "fusion_lon": 0.0, "fusion_lat": 0.0, "lat": 38.928270499999996, "type": "electric_scooter", "lon": -77.01412166666667, "bike_id": "17a203a0397a316ecfaf83dc04fa8bd1", "rental_uris": {"android": "https://dc.lft.to/lastmile_qr_scan", "ios": "https://dc.lft.to/lastmile_qr_scan"}, "name": "17a203a0397a316ecfaf83dc04fa8bd1", "is_reserved": 0}, {"is_disabled": 0, "fusion_lon": 0.0, "fusion_lat": 0.0, "lat": 38.907184, "type": "electric_scooter", "lon": -77.02713733333333, "bike_id": "2bbf5236138e32191019e8d25b5a34e2", "rental_uris": {"android": "https://dc.lft.to/lastmile_qr_scan", "ios": "https://dc.lft.to/lastmile_qr_scan"}, "name": "2bbf5236138e32191019e8d25b5a34e2", "is_reserved": 0}, {"is_disabled": 0, "fusion_lon": 0.0, "fusion_lat": 0.0, "lat": 38.93631583333333, "type": "electric_scooter", "lon": -77.02464516666667, "bike_id": "86b1a97ebae6d387c2904f95a3587e3b", "rental_uris": {"android": "https://dc.lft.to/lastmile_qr_scan", "ios": "https://dc.lft.to/lastmile_qr_scan"}, "name": "86b1a97ebae6d387c2904f95a3587e3b", "is_reserved": 0}, {"is_disabled": 0, "fusion_lon": 0.0, "fusion_lat": 0.0, "lat": 38.84513316666666, "type": "electric_bike", "lon": -76.97214016666666, "bike_id": "1ef6ac8876e67709adc6efe7dd4ddf15", "rental_uris": {"android": "https://dc.lft.to/lastmile_qr_scan", "ios": "https://dc.lft.to/lastmile_qr_scan"}, "name": "1ef6ac8876e67709adc6efe7dd4ddf15", "is_reserved": 0}, {"is_disabled": 0, "fusion_lon": 0.0, "fusion_lat": 0.0, "lat": 38.9166135, "type": "electric_scooter", "lon": -77.0279825, "bike_id": "44de852dc731d6e6589f8ff8d8fe6179", "rental_uris": {"android": "https://dc.lft.to/lastmile_qr_scan", "ios": "https://dc.lft.to/lastmile_qr_scan"}, "name": "44de852dc731d6e6589f8ff8d8fe6179", "is_reserved": 0}, {"is_disabled": 0, "fusion_lon": 0.0, "fusion_lat": 0.0, "lat": 38.9370395, "type": "electric_scooter", "lon": -77.0610355, "bike_id": "6315b204d1a8449759497392dd20e4eb", "rental_uris": {"android": "https://dc.lft.to/lastmile_qr_scan", "ios": "https://dc.lft.to/lastmile_qr_scan"}, "name": "6315b204d1a8449759497392dd20e4eb", "is_reserved": 0}, {"is_disabled": 0, "fusion_lon": 0.0, "fusion_lat": 0.0, "lat": 38.90170416666667, "type": "electric_scooter", "lon": -77.050409, "bike_id": "4295ba9f2cf338edf1465b5a7e9d8da9", "rental_uris": {"android": "https://dc.lft.to/lastmile_qr_scan", "ios": "https://dc.lft.to/lastmile_qr_scan"}, "name": "4295ba9f2cf338edf1465b5a7e9d8da9", "is_reserved": 0}, {"is_disabled": 0, "fusion_lon": 0.0, "fusion_lat": 0.0, "lat": 38.8983865, "type": "electric_scooter", "lon": -77.04339666666667, "bike_id": "514b6c9d90dc6d323b39be41e3bde046", "rental_uris": {"android": "https://dc.lft.to/lastmile_qr_scan", "ios": "https://dc.lft.to/lastmile_qr_scan"}, "name": "514b6c9d90dc6d323b39be41e3bde046", "is_reserved": 0}, {"is_disabled": 0, "fusion_lon": 0.0, "fusion_lat": 0.0, "lat": 38.91983483333333, "type": "electric_scooter", "lon": -77.032567, "bike_id": "bd438c4f84aa5eac34f2935c273c7ecb", "rental_uris": {"android": "https://dc.lft.to/lastmile_qr_scan", "ios": "https://dc.lft.to/lastmile_qr_scan"}, "name": "bd438c4f84aa5eac34f2935c273c7ecb", "is_reserved": 0}, {"is_disabled": 0, "fusion_lon": 0.0, "fusion_lat": 0.0, "lat": 38.895378666666666, "type": "electric_bike", "lon": -77.04053766666667, "bike_id": "ef849d90c6b472200a4113e084789615", "rental_uris": {"android": "https://dc.lft.to/lastmile_qr_scan", "ios": "https://dc.lft.to/lastmile_qr_scan"}, "name": "ef849d90c6b472200a4113e084789615", "is_reserved": 0}, {"is_disabled": 0, "fusion_lon": 0.0, "fusion_lat": 0.0, "lat": 38.93254316666667, "type": "electric_scooter", "lon": -77.0327145, "bike_id": "180cc0a586945494fdb50755f6c59b3c", "rental_uris": {"android": "https://dc.lft.to/lastmile_qr_scan", "ios": "https://dc.lft.to/lastmile_qr_scan"}, "name": "180cc0a586945494fdb50755f6c59b3c", "is_reserved": 0}, {"is_disabled": 0, "fusion_lon": 0.0, "fusion_lat": 0.0, "lat": 38.8635135, "type": "electric_scooter", "lon": -76.99065983333334, "bike_id": "e7bbe008f99e4c886ca4faf70536b8b3", "rental_uris": {"android": "https://dc.lft.to/lastmile_qr_scan", "ios": "https://dc.lft.to/lastmile_qr_scan"}, "name": "e7bbe008f99e4c886ca4faf70536b8b3", "is_reserved": 0}, {"is_disabled": 0, "fusion_lon": 0.0, "fusion_lat": 0.0, "lat": 38.936992333333336, "type": "electric_scooter", "lon": -77.05599183333334, "bike_id": "81f79e9be2dc6e233c44f2e1610c58b5", "rental_uris": {"android": "https://dc.lft.to/lastmile_qr_scan", "ios": "https://dc.lft.to/lastmile_qr_scan"}, "name": "81f79e9be2dc6e233c44f2e1610c58b5", "is_reserved": 0}, {"is_disabled": 0, "fusion_lon": 0.0, "fusion_lat": 0.0, "lat": 38.91701666666667, "type": "electric_scooter", "lon": -77.01169566666667, "bike_id": "34ce3362b75cd33750417c41d8e6f668", "rental_uris": {"android": "https://dc.lft.to/lastmile_qr_scan", "ios": "https://dc.lft.to/lastmile_qr_scan"}, "name": "34ce3362b75cd33750417c41d8e6f668", "is_reserved": 0}, {"is_disabled": 0, "fusion_lon": 0.0, "fusion_lat": 0.0, "lat": 38.903763, "type": "electric_scooter", "lon": -77.053784, "bike_id": "d262c69d4ab5a5982139f28e3093ab31", "rental_uris": {"android": "https://dc.lft.to/lastmile_qr_scan", "ios": "https://dc.lft.to/lastmile_qr_scan"}, "name": "d262c69d4ab5a5982139f28e3093ab31", "is_reserved": 0}, {"is_disabled": 0, "fusion_lon": 0.0, "fusion_lat": 0.0, "lat": 38.913136333333334, "type": "electric_scooter", "lon": -77.01435083333334, "bike_id": "4b28be3146cb4aab1b8fcd411cc92850", "rental_uris": {"android": "https://dc.lft.to/lastmile_qr_scan", "ios": "https://dc.lft.to/lastmile_qr_scan"}, "name": "4b28be3146cb4aab1b8fcd411cc92850", "is_reserved": 0}, {"is_disabled": 0, "fusion_lon": 0.0, "fusion_lat": 0.0, "lat": 38.87051816666666, "type": "electric_scooter", "lon": -76.9808795, "bike_id": "d26b6f7563ac03efd3f2f61f16410a5b", "rental_uris": {"android": "https://dc.lft.to/lastmile_qr_scan", "ios": "https://dc.lft.to/lastmile_qr_scan"}, "name": "d26b6f7563ac03efd3f2f61f16410a5b", "is_reserved": 0}, {"is_disabled": 0, "fusion_lon": 0.0, "fusion_lat": 0.0, "lat": 38.956395, "type": "electric_scooter", "lon": -77.09100083333334, "bike_id": "3ace0f0baa0fc10827242f6ad3587129", "rental_uris": {"android": "https://dc.lft.to/lastmile_qr_scan", "ios": "https://dc.lft.to/lastmile_qr_scan"}, "name": "3ace0f0baa0fc10827242f6ad3587129", "is_reserved": 0}, {"is_disabled": 0, "fusion_lon": 0.0, "fusion_lat": 0.0, "lat": 38.90770966666667, "type": "electric_scooter", "lon": -77.00101783333334, "bike_id": "30ede6815172a72204e8d52ca50209e1", "rental_uris": {"android": "https://dc.lft.to/lastmile_qr_scan", "ios": "https://dc.lft.to/lastmile_qr_scan"}, "name": "30ede6815172a72204e8d52ca50209e1", "is_reserved": 0}, {"is_disabled": 0, "fusion_lon": 0.0, "fusion_lat": 0.0, "lat": 38.84930033333333, "type": "electric_bike", "lon": -77.10015616666666, "bike_id": "d910b1a0d78615fea5102954daef9cd9", "rental_uris": {"android": "https://dc.lft.to/lastmile_qr_scan", "ios": "https://dc.lft.to/lastmile_qr_scan"}, "name": "d910b1a0d78615fea5102954daef9cd9", "is_reserved": 0}, {"is_disabled": 0, "fusion_lon": 0.0, "fusion_lat": 0.0, "lat": 38.856508833333336, "type": "electric_bike", "lon": -77.08526983333333, "bike_id": "70726c1dd3e0641556833bf544463d20", "rental_uris": {"android": "https://dc.lft.to/lastmile_qr_scan", "ios": "https://dc.lft.to/lastmile_qr_scan"}, "name": "70726c1dd3e0641556833bf544463d20", "is_reserved": 0}, {"is_disabled": 0, "fusion_lon": 0.0, "fusion_lat": 0.0, "lat": 38.885986833333334, "type": "electric_scooter", "lon": -77.0060095, "bike_id": "2c5468be31ef1de6aa7e2777dcf823a6", "rental_uris": {"android": "https://dc.lft.to/lastmile_qr_scan", "ios": "https://dc.lft.to/lastmile_qr_scan"}, "name": "2c5468be31ef1de6aa7e2777dcf823a6", "is_reserved": 0}, {"is_disabled": 0, "fusion_lon": 0.0, "fusion_lat": 0.0, "lat": 38.8869835, "type": "electric_scooter", "lon": -76.98796466666667, "bike_id": "b96ff893613deed769f792fddfe40219", "rental_uris": {"android": "https://dc.lft.to/lastmile_qr_scan", "ios": "https://dc.lft.to/lastmile_qr_scan"}, "name": "b96ff893613deed769f792fddfe40219", "is_reserved": 0}, {"is_disabled": 0, "fusion_lon": 0.0, "fusion_lat": 0.0, "lat": 38.9191565, "type": "electric_scooter", "lon": -77.02408866666667, "bike_id": "dc6e89e2b89b7ef5675c302981438679", "rental_uris": {"android": "https://dc.lft.to/lastmile_qr_scan", "ios": "https://dc.lft.to/lastmile_qr_scan"}, "name": "dc6e89e2b89b7ef5675c302981438679", "is_reserved": 0}, {"is_disabled": 0, "fusion_lon": 0.0, "fusion_lat": 0.0, "lat": 38.874967833333336, "type": "electric_scooter", "lon": -76.99795116666667, "bike_id": "9ac622d92caf7eea8c2cdff8f8307f4f", "rental_uris": {"android": "https://dc.lft.to/lastmile_qr_scan", "ios": "https://dc.lft.to/lastmile_qr_scan"}, "name": "9ac622d92caf7eea8c2cdff8f8307f4f", "is_reserved": 0}, {"is_disabled": 0, "fusion_lon": 0.0, "fusion_lat": 0.0, "lat": 38.864683166666666, "type": "electric_scooter", "lon": -76.99606833333333, "bike_id": "cfb1b42e5bb0a3bbb5ad59b71f626c75", "rental_uris": {"android": "https://dc.lft.to/lastmile_qr_scan", "ios": "https://dc.lft.to/lastmile_qr_scan"}, "name": "cfb1b42e5bb0a3bbb5ad59b71f626c75", "is_reserved": 0}, {"is_disabled": 0, "fusion_lon": 0.0, "fusion_lat": 0.0, "lat": 38.921398333333336, "type": "electric_scooter", "lon": -77.00916666666667, "bike_id": "4255f148b68acb42f4d61b9c66fca5db", "rental_uris": {"android": "https://dc.lft.to/lastmile_qr_scan", "ios": "https://dc.lft.to/lastmile_qr_scan"}, "name": "4255f148b68acb42f4d61b9c66fca5db", "is_reserved": 0}, {"is_disabled": 0, "fusion_lon": 0.0, "fusion_lat": 0.0, "lat": 38.93101033333333, "type": "electric_scooter", "lon": -77.0245415, "bike_id": "9be3ef38921ca71708e646be264c2522", "rental_uris": {"android": "https://dc.lft.to/lastmile_qr_scan", "ios": "https://dc.lft.to/lastmile_qr_scan"}, "name": "9be3ef38921ca71708e646be264c2522", "is_reserved": 0}, {"is_disabled": 0, "fusion_lon": 0.0, "fusion_lat": 0.0, "lat": 38.907374, "type": "electric_scooter", "lon": -77.02415166666667, "bike_id": "3f612431b2ff310e31b06ee76312664d", "rental_uris": {"android": "https://dc.lft.to/lastmile_qr_scan", "ios": "https://dc.lft.to/lastmile_qr_scan"}, "name": "3f612431b2ff310e31b06ee76312664d", "is_reserved": 0}, {"is_disabled": 0, "fusion_lon": 0.0, "fusion_lat": 0.0, "lat": 38.919101833333336, "type": "electric_scooter", "lon": -77.04449366666667, "bike_id": "6df840bf62a553a2e4de9e1d85661963", "rental_uris": {"android": "https://dc.lft.to/lastmile_qr_scan", "ios": "https://dc.lft.to/lastmile_qr_scan"}, "name": "6df840bf62a553a2e4de9e1d85661963", "is_reserved": 0}, {"is_disabled": 0, "fusion_lon": 0.0, "fusion_lat": 0.0, "lat": 38.84532466666667, "type": "electric_scooter", "lon": -76.98148766666667, "bike_id": "64f7ff5adb396442b4ef7008e8d39522", "rental_uris": {"android": "https://dc.lft.to/lastmile_qr_scan", "ios": "https://dc.lft.to/lastmile_qr_scan"}, "name": "64f7ff5adb396442b4ef7008e8d39522", "is_reserved": 0}, {"is_disabled": 0, "fusion_lon": 0.0, "fusion_lat": 0.0, "lat": 38.91343966666667, "type": "electric_scooter", "lon": -77.04221133333333, "bike_id": "14b75bb9cac3197eb916e5e8fb82c3f7", "rental_uris": {"android": "https://dc.lft.to/lastmile_qr_scan", "ios": "https://dc.lft.to/lastmile_qr_scan"}, "name": "14b75bb9cac3197eb916e5e8fb82c3f7", "is_reserved": 0}, {"is_disabled": 0, "fusion_lon": 0.0, "fusion_lat": 0.0, "lat": 38.88722766666667, "type": "electric_scooter", "lon": -77.02207383333334, "bike_id": "39078584ac3b765ac022f70f823b905b", "rental_uris": {"android": "https://dc.lft.to/lastmile_qr_scan", "ios": "https://dc.lft.to/lastmile_qr_scan"}, "name": "39078584ac3b765ac022f70f823b905b", "is_reserved": 0}, {"is_disabled": 0, "fusion_lon": 0.0, "fusion_lat": 0.0, "lat": 38.902571333333334, "type": "electric_scooter", "lon": -77.0001985, "bike_id": "c16cf02072c4907c9875ebfc197e4b12", "rental_uris": {"android": "https://dc.lft.to/lastmile_qr_scan", "ios": "https://dc.lft.to/lastmile_qr_scan"}, "name": "c16cf02072c4907c9875ebfc197e4b12", "is_reserved": 0}, {"is_disabled": 0, "fusion_lon": 0.0, "fusion_lat": 0.0, "lat": 38.906870166666664, "type": "electric_scooter", "lon": -77.0269325, "bike_id": "8c53b7dafa554e37d7d902dec927bff3", "rental_uris": {"android": "https://dc.lft.to/lastmile_qr_scan", "ios": "https://dc.lft.to/lastmile_qr_scan"}, "name": "8c53b7dafa554e37d7d902dec927bff3", "is_reserved": 0}, {"is_disabled": 0, "fusion_lon": 0.0, "fusion_lat": 0.0, "lat": 38.92262733333333, "type": "electric_bike", "lon": -77.07716333333333, "bike_id": "61bc98f600e2a6c595679b0fd7392f8e", "rental_uris": {"android": "https://dc.lft.to/lastmile_qr_scan", "ios": "https://dc.lft.to/lastmile_qr_scan"}, "name": "61bc98f600e2a6c595679b0fd7392f8e", "is_reserved": 0}, {"is_disabled": 0, "fusion_lon": 0.0, "fusion_lat": 0.0, "lat": 38.91268783333334, "type": "electric_scooter", "lon": -77.00831716666667, "bike_id": "5c898ab5d62ca8d62c34de7e802584f7", "rental_uris": {"android": "https://dc.lft.to/lastmile_qr_scan", "ios": "https://dc.lft.to/lastmile_qr_scan"}, "name": "5c898ab5d62ca8d62c34de7e802584f7", "is_reserved": 0}, {"is_disabled": 0, "fusion_lon": 0.0, "fusion_lat": 0.0, "lat": 38.90833116666667, "type": "electric_scooter", "lon": -76.996916, "bike_id": "88c903e970a1bbefa6d0ea78575b8785", "rental_uris": {"android": "https://dc.lft.to/lastmile_qr_scan", "ios": "https://dc.lft.to/lastmile_qr_scan"}, "name": "88c903e970a1bbefa6d0ea78575b8785", "is_reserved": 0}, {"is_disabled": 0, "fusion_lon": 0.0, "fusion_lat": 0.0, "lat": 38.91682766666667, "type": "electric_scooter", "lon": -77.02720883333333, "bike_id": "c2a93bff821141b808072263691fd291", "rental_uris": {"android": "https://dc.lft.to/lastmile_qr_scan", "ios": "https://dc.lft.to/lastmile_qr_scan"}, "name": "c2a93bff821141b808072263691fd291", "is_reserved": 0}, {"is_disabled": 0, "fusion_lon": 0.0, "fusion_lat": 0.0, "lat": 38.90213883333333, "type": "electric_scooter", "lon": -77.03911866666667, "bike_id": "b4162377845505ce023a5b1f7e786394", "rental_uris": {"android": "https://dc.lft.to/lastmile_qr_scan", "ios": "https://dc.lft.to/lastmile_qr_scan"}, "name": "b4162377845505ce023a5b1f7e786394", "is_reserved": 0}, {"is_disabled": 0, "fusion_lon": 0.0, "fusion_lat": 0.0, "lat": 38.901832666666664, "type": "electric_scooter", "lon": -77.024952, "bike_id": "014f4d7ab4267ade93ee4d4d5074772b", "rental_uris": {"android": "https://dc.lft.to/lastmile_qr_scan", "ios": "https://dc.lft.to/lastmile_qr_scan"}, "name": "014f4d7ab4267ade93ee4d4d5074772b", "is_reserved": 0}, {"is_disabled": 0, "fusion_lon": 0.0, "fusion_lat": 0.0, "lat": 38.90544716666667, "type": "electric_scooter", "lon": -77.04708266666667, "bike_id": "320cd5dee3009549b4198e87eb507a0a", "rental_uris": {"android": "https://dc.lft.to/lastmile_qr_scan", "ios": "https://dc.lft.to/lastmile_qr_scan"}, "name": "320cd5dee3009549b4198e87eb507a0a", "is_reserved": 0}, {"is_disabled": 0, "fusion_lon": 0.0, "fusion_lat": 0.0, "lat": 38.845172, "type": "electric_bike", "lon": -77.07795866666666, "bike_id": "c3a3139ca739b9bec3f168384de44cab", "rental_uris": {"android": "https://dc.lft.to/lastmile_qr_scan", "ios": "https://dc.lft.to/lastmile_qr_scan"}, "name": "c3a3139ca739b9bec3f168384de44cab", "is_reserved": 0}, {"is_disabled": 0, "fusion_lon": 0.0, "fusion_lat": 0.0, "lat": 38.879199, "type": "electric_scooter", "lon": -77.005823, "bike_id": "de53ac0158d5259427df6ea81ff6d5ca", "rental_uris": {"android": "https://dc.lft.to/lastmile_qr_scan", "ios": "https://dc.lft.to/lastmile_qr_scan"}, "name": "de53ac0158d5259427df6ea81ff6d5ca", "is_reserved": 0}, {"is_disabled": 0, "fusion_lon": 0.0, "fusion_lat": 0.0, "lat": 38.892610166666664, "type": "electric_scooter", "lon": -76.94155383333333, "bike_id": "7c4ef4cfefc7f16990d0efe22c06358b", "rental_uris": {"android": "https://dc.lft.to/lastmile_qr_scan", "ios": "https://dc.lft.to/lastmile_qr_scan"}, "name": "7c4ef4cfefc7f16990d0efe22c06358b", "is_reserved": 0}, {"is_disabled": 0, "fusion_lon": 0.0, "fusion_lat": 0.0, "lat": 38.9083315, "type": "electric_scooter", "lon": -77.033438, "bike_id": "e94042aa534b1895e4891396acf99881", "rental_uris": {"android": "https://dc.lft.to/lastmile_qr_scan", "ios": "https://dc.lft.to/lastmile_qr_scan"}, "name": "e94042aa534b1895e4891396acf99881", "is_reserved": 0}, {"is_disabled": 0, "fusion_lon": 0.0, "fusion_lat": 0.0, "lat": 38.903813666666665, "type": "electric_scooter", "lon": -77.03813066666666, "bike_id": "6e3a6a90953a822da18cddff715e0b1d", "rental_uris": {"android": "https://dc.lft.to/lastmile_qr_scan", "ios": "https://dc.lft.to/lastmile_qr_scan"}, "name": "6e3a6a90953a822da18cddff715e0b1d", "is_reserved": 0}, {"is_disabled": 0, "fusion_lon": 0.0, "fusion_lat": 0.0, "lat": 38.89852116666667, "type": "electric_bike", "lon": -76.931896, "bike_id": "c319cc534bac1283ccb2ef2a2b5585b0", "rental_uris": {"android": "https://dc.lft.to/lastmile_qr_scan", "ios": "https://dc.lft.to/lastmile_qr_scan"}, "name": "c319cc534bac1283ccb2ef2a2b5585b0", "is_reserved": 0}, {"is_disabled": 0, "fusion_lon": 0.0, "fusion_lat": 0.0, "lat": 38.906577166666665, "type": "electric_scooter", "lon": -77.02528483333333, "bike_id": "b7805fd67be451a9d070b2d89e32da7b", "rental_uris": {"android": "https://dc.lft.to/lastmile_qr_scan", "ios": "https://dc.lft.to/lastmile_qr_scan"}, "name": "b7805fd67be451a9d070b2d89e32da7b", "is_reserved": 0}, {"is_disabled": 0, "fusion_lon": 0.0, "fusion_lat": 0.0, "lat": 38.9138575, "type": "electric_scooter", "lon": -77.0296885, "bike_id": "737e945143227adaeb8a2d443f1fdb49", "rental_uris": {"android": "https://dc.lft.to/lastmile_qr_scan", "ios": "https://dc.lft.to/lastmile_qr_scan"}, "name": "737e945143227adaeb8a2d443f1fdb49", "is_reserved": 0}, {"is_disabled": 0, "fusion_lon": 0.0, "fusion_lat": 0.0, "lat": 38.831747166666666, "type": "electric_bike", "lon": -76.99751016666667, "bike_id": "a5790c7648d5025f44983e57f28a239f", "rental_uris": {"android": "https://dc.lft.to/lastmile_qr_scan", "ios": "https://dc.lft.to/lastmile_qr_scan"}, "name": "a5790c7648d5025f44983e57f28a239f", "is_reserved": 0}, {"is_disabled": 0, "fusion_lon": 0.0, "fusion_lat": 0.0, "lat": 38.923953833333336, "type": "electric_scooter", "lon": -77.027636, "bike_id": "f3406f1fc3f10a25449e35f28bb0fba5", "rental_uris": {"android": "https://dc.lft.to/lastmile_qr_scan", "ios": "https://dc.lft.to/lastmile_qr_scan"}, "name": "f3406f1fc3f10a25449e35f28bb0fba5", "is_reserved": 0}, {"is_disabled": 0, "fusion_lon": 0.0, "fusion_lat": 0.0, "lat": 38.9094405, "type": "electric_scooter", "lon": -77.01530766666667, "bike_id": "4571fbfe916268534e90adf7e9614c77", "rental_uris": {"android": "https://dc.lft.to/lastmile_qr_scan", "ios": "https://dc.lft.to/lastmile_qr_scan"}, "name": "4571fbfe916268534e90adf7e9614c77", "is_reserved": 0}, {"is_disabled": 0, "fusion_lon": 0.0, "fusion_lat": 0.0, "lat": 38.8834905, "type": "electric_scooter", "lon": -76.92786283333334, "bike_id": "dacbec571e3b30a32c4085b9eab9608c", "rental_uris": {"android": "https://dc.lft.to/lastmile_qr_scan", "ios": "https://dc.lft.to/lastmile_qr_scan"}, "name": "dacbec571e3b30a32c4085b9eab9608c", "is_reserved": 0}, {"is_disabled": 0, "fusion_lon": 0.0, "fusion_lat": 0.0, "lat": 38.917837166666665, "type": "electric_scooter", "lon": -77.043013, "bike_id": "b578abefef3a88b3e09506fa5ef12799", "rental_uris": {"android": "https://dc.lft.to/lastmile_qr_scan", "ios": "https://dc.lft.to/lastmile_qr_scan"}, "name": "b578abefef3a88b3e09506fa5ef12799", "is_reserved": 0}, {"is_disabled": 0, "fusion_lon": 0.0, "fusion_lat": 0.0, "lat": 38.88577866666667, "type": "electric_scooter", "lon": -76.9191085, "bike_id": "eb365b7432f8fda3c0d2a9042637667b", "rental_uris": {"android": "https://dc.lft.to/lastmile_qr_scan", "ios": "https://dc.lft.to/lastmile_qr_scan"}, "name": "eb365b7432f8fda3c0d2a9042637667b", "is_reserved": 0}, {"is_disabled": 0, "fusion_lon": 0.0, "fusion_lat": 0.0, "lat": 38.916625333333336, "type": "electric_scooter", "lon": -77.038537, "bike_id": "c86710cfdef79e04fba464b5ee94bddc", "rental_uris": {"android": "https://dc.lft.to/lastmile_qr_scan", "ios": "https://dc.lft.to/lastmile_qr_scan"}, "name": "c86710cfdef79e04fba464b5ee94bddc", "is_reserved": 0}, {"is_disabled": 0, "fusion_lon": 0.0, "fusion_lat": 0.0, "lat": 38.90839316666667, "type": "electric_scooter", "lon": -77.02698316666667, "bike_id": "cfaad471dcbd60e2de36341ccad8c93d", "rental_uris": {"android": "https://dc.lft.to/lastmile_qr_scan", "ios": "https://dc.lft.to/lastmile_qr_scan"}, "name": "cfaad471dcbd60e2de36341ccad8c93d", "is_reserved": 0}, {"is_disabled": 0, "fusion_lon": 0.0, "fusion_lat": 0.0, "lat": 38.94497033333333, "type": "electric_bike", "lon": -76.98660183333334, "bike_id": "02936a2b3624670133106b3d2fbd8a36", "rental_uris": {"android": "https://dc.lft.to/lastmile_qr_scan", "ios": "https://dc.lft.to/lastmile_qr_scan"}, "name": "02936a2b3624670133106b3d2fbd8a36", "is_reserved": 0}, {"is_disabled": 0, "fusion_lon": 0.0, "fusion_lat": 0.0, "lat": 38.91403316666667, "type": "electric_scooter", "lon": -77.00324883333333, "bike_id": "c8a2411ab3929d8d991ca98aaf3bc2c3", "rental_uris": {"android": "https://dc.lft.to/lastmile_qr_scan", "ios": "https://dc.lft.to/lastmile_qr_scan"}, "name": "c8a2411ab3929d8d991ca98aaf3bc2c3", "is_reserved": 0}, {"is_disabled": 0, "fusion_lon": 0.0, "fusion_lat": 0.0, "lat": 38.9305505, "type": "electric_scooter", "lon": -77.02804233333333, "bike_id": "6c71b1b141c08832d31015cc1616a8b9", "rental_uris": {"android": "https://dc.lft.to/lastmile_qr_scan", "ios": "https://dc.lft.to/lastmile_qr_scan"}, "name": "6c71b1b141c08832d31015cc1616a8b9", "is_reserved": 0}, {"is_disabled": 0, "fusion_lon": 0.0, "fusion_lat": 0.0, "lat": 38.897296833333336, "type": "electric_scooter", "lon": -77.02706433333333, "bike_id": "349f05cd52952f506eb3423e2a8b614a", "rental_uris": {"android": "https://dc.lft.to/lastmile_qr_scan", "ios": "https://dc.lft.to/lastmile_qr_scan"}, "name": "349f05cd52952f506eb3423e2a8b614a", "is_reserved": 0}, {"is_disabled": 0, "fusion_lon": 0.0, "fusion_lat": 0.0, "lat": 38.914747, "type": "electric_bike", "lon": -77.00924583333334, "bike_id": "e8980631c25c407c439ab0d7fd7fa137", "rental_uris": {"android": "https://dc.lft.to/lastmile_qr_scan", "ios": "https://dc.lft.to/lastmile_qr_scan"}, "name": "e8980631c25c407c439ab0d7fd7fa137", "is_reserved": 0}, {"is_disabled": 0, "fusion_lon": 0.0, "fusion_lat": 0.0, "lat": 38.8962555, "type": "electric_scooter", "lon": -76.95637016666667, "bike_id": "934baa539fa2a033c91ee11c2b3aae1d", "rental_uris": {"android": "https://dc.lft.to/lastmile_qr_scan", "ios": "https://dc.lft.to/lastmile_qr_scan"}, "name": "934baa539fa2a033c91ee11c2b3aae1d", "is_reserved": 0}, {"is_disabled": 0, "fusion_lon": 0.0, "fusion_lat": 0.0, "lat": 38.913332, "type": "electric_scooter", "lon": -77.04019783333334, "bike_id": "da2064d98ff7a8107590dd799dda9128", "rental_uris": {"android": "https://dc.lft.to/lastmile_qr_scan", "ios": "https://dc.lft.to/lastmile_qr_scan"}, "name": "da2064d98ff7a8107590dd799dda9128", "is_reserved": 0}, {"is_disabled": 0, "fusion_lon": 0.0, "fusion_lat": 0.0, "lat": 38.93191016666667, "type": "electric_bike", "lon": -77.22937883333333, "bike_id": "3311416f07d1aec3bd375b8690524d6b", "rental_uris": {"android": "https://dc.lft.to/lastmile_qr_scan", "ios": "https://dc.lft.to/lastmile_qr_scan"}, "name": "3311416f07d1aec3bd375b8690524d6b", "is_reserved": 0}, {"is_disabled": 0, "fusion_lon": 0.0, "fusion_lat": 0.0, "lat": 38.95078566666667, "type": "electric_scooter", "lon": -77.0287745, "bike_id": "db6d5417ff36cc432bc0d76a0ed06862", "rental_uris": {"android": "https://dc.lft.to/lastmile_qr_scan", "ios": "https://dc.lft.to/lastmile_qr_scan"}, "name": "db6d5417ff36cc432bc0d76a0ed06862", "is_reserved": 0}, {"is_disabled": 0, "fusion_lon": 0.0, "fusion_lat": 0.0, "lat": 38.917579333333336, "type": "electric_scooter", "lon": -77.03587733333333, "bike_id": "b129c3dc7e9f84e1e293e15307fe99ca", "rental_uris": {"android": "https://dc.lft.to/lastmile_qr_scan", "ios": "https://dc.lft.to/lastmile_qr_scan"}, "name": "b129c3dc7e9f84e1e293e15307fe99ca", "is_reserved": 0}, {"is_disabled": 0, "fusion_lon": 0.0, "fusion_lat": 0.0, "lat": 38.918872666666665, "type": "electric_scooter", "lon": -77.0160355, "bike_id": "4f0b9bd97e720fdb3b8d2e70fdc49318", "rental_uris": {"android": "https://dc.lft.to/lastmile_qr_scan", "ios": "https://dc.lft.to/lastmile_qr_scan"}, "name": "4f0b9bd97e720fdb3b8d2e70fdc49318", "is_reserved": 0}, {"is_disabled": 0, "fusion_lon": 0.0, "fusion_lat": 0.0, "lat": 38.920589166666666, "type": "electric_scooter", "lon": -76.998746, "bike_id": "48df8e105ddf674b2f76ca1c64131b9f", "rental_uris": {"android": "https://dc.lft.to/lastmile_qr_scan", "ios": "https://dc.lft.to/lastmile_qr_scan"}, "name": "48df8e105ddf674b2f76ca1c64131b9f", "is_reserved": 0}, {"is_disabled": 0, "fusion_lon": 0.0, "fusion_lat": 0.0, "lat": 38.99254216666667, "type": "electric_bike", "lon": -77.04998366666666, "bike_id": "260627e97130f4216df2553282be29e9", "rental_uris": {"android": "https://dc.lft.to/lastmile_qr_scan", "ios": "https://dc.lft.to/lastmile_qr_scan"}, "name": "260627e97130f4216df2553282be29e9", "is_reserved": 0}, {"is_disabled": 0, "fusion_lon": 0.0, "fusion_lat": 0.0, "lat": 38.8837805, "type": "electric_scooter", "lon": -76.92645766666666, "bike_id": "5f7a0393cbd515b5ab3f110b0c8e07df", "rental_uris": {"android": "https://dc.lft.to/lastmile_qr_scan", "ios": "https://dc.lft.to/lastmile_qr_scan"}, "name": "5f7a0393cbd515b5ab3f110b0c8e07df", "is_reserved": 0}, {"is_disabled": 0, "fusion_lon": 0.0, "fusion_lat": 0.0, "lat": 38.907985333333336, "type": "electric_scooter", "lon": -77.0340325, "bike_id": "a84644fc2cf368b7ed55f812433fd20f", "rental_uris": {"android": "https://dc.lft.to/lastmile_qr_scan", "ios": "https://dc.lft.to/lastmile_qr_scan"}, "name": "a84644fc2cf368b7ed55f812433fd20f", "is_reserved": 0}, {"is_disabled": 0, "fusion_lon": 0.0, "fusion_lat": 0.0, "lat": 38.92227783333333, "type": "electric_scooter", "lon": -77.03314216666666, "bike_id": "86f65100c479c44200c934463c900e57", "rental_uris": {"android": "https://dc.lft.to/lastmile_qr_scan", "ios": "https://dc.lft.to/lastmile_qr_scan"}, "name": "86f65100c479c44200c934463c900e57", "is_reserved": 0}, {"is_disabled": 0, "fusion_lon": 0.0, "fusion_lat": 0.0, "lat": 38.936611, "type": "electric_scooter", "lon": -77.05938066666667, "bike_id": "9591d8145668c77648ee14108e488d4a", "rental_uris": {"android": "https://dc.lft.to/lastmile_qr_scan", "ios": "https://dc.lft.to/lastmile_qr_scan"}, "name": "9591d8145668c77648ee14108e488d4a", "is_reserved": 0}, {"is_disabled": 0, "fusion_lon": 0.0, "fusion_lat": 0.0, "lat": 38.80303216666667, "type": "electric_bike", "lon": -77.03989083333333, "bike_id": "9a88ed6e6d7d1912156bbc23310c2df3", "rental_uris": {"android": "https://dc.lft.to/lastmile_qr_scan", "ios": "https://dc.lft.to/lastmile_qr_scan"}, "name": "9a88ed6e6d7d1912156bbc23310c2df3", "is_reserved": 0}, {"is_disabled": 0, "fusion_lon": 0.0, "fusion_lat": 0.0, "lat": 38.85496783333333, "type": "electric_bike", "lon": -77.120443, "bike_id": "dda99e17dd9ecb19c8df3d5fb7ad8364", "rental_uris": {"android": "https://dc.lft.to/lastmile_qr_scan", "ios": "https://dc.lft.to/lastmile_qr_scan"}, "name": "dda99e17dd9ecb19c8df3d5fb7ad8364", "is_reserved": 0},