{"data": {"bikes": [{"rental_uris": {"ios": "https://dc.lft.to/lastmile_qr_scan", "android": "https://dc.lft.to/lastmile_qr_scan"}, "lon": -77.04708666666667, "type": "electric_scooter", "fusion_lat": 0.0, "lat": 38.91667066666667, "name": "eaa4562d6e0ced80ea5f0da447d50525", "fusion_lon": 0.0, "bike_id": "eaa4562d6e0ced80ea5f0da447d50525", "is_disabled": 0, "is_reserved": 0}, {"rental_uris": {"ios": "https://dc.lft.to/lastmile_qr_scan", "android": "https://dc.lft.to/lastmile_qr_scan"}, "lon": -77.01520766666667, "type": "electric_scooter", "fusion_lat": 0.0, "lat": 38.9014835, "name": "31d5d2a294c2a693521d1bebcf755d64", "fusion_lon": 0.0, "bike_id": "31d5d2a294c2a693521d1bebcf755d64", "is_disabled": 0, "is_reserved": 0}, {"rental_uris": {"ios": "https://dc.lft.to/lastmile_qr_scan", "android": "https://dc.lft.to/lastmile_qr_scan"}, "lon": -76.97216966666667, "type": "electric_scooter", "fusion_lat": 0.0, "lat": 38.854949500000004, "name": "bc5f968f66a7e7c66126f81ac2ef0feb", "fusion_lon": 0.0, "bike_id": "bc5f968f66a7e7c66126f81ac2ef0feb", "is_disabled": 0, "is_reserved": 0}, {"rental_uris": {"ios": "https://dc.lft.to/lastmile_qr_scan", "android": "https://dc.lft.to/lastmile_qr_scan"}, "lon": -77.038393, "type": "electric_scooter", "fusion_lat": 0.0, "lat": 38.907630833333336, "name": "e14d89fb9d533fdd8402870be878b32d", "fusion_lon": 0.0, "bike_id": "e14d89fb9d533fdd8402870be878b32d", "is_disabled": 0, "is_reserved": 0}, {"rental_uris": {"ios": "https://dc.lft.to/lastmile_qr_scan", "android": "https://dc.lft.to/lastmile_qr_scan"}, "lon": -77.03933316666667, "type": "electric_scooter", "fusion_lat": 0.0, "lat": 38.89899916666667, "name": "2ad3e01a4731fc68d784abf614911122", "fusion_lon": 0.0, "bike_id": "2ad3e01a4731fc68d784abf614911122", "is_disabled": 0, "is_reserved": 0}, {"rental_uris": {"ios": "https://dc.lft.to/lastmile_qr_scan", "android": "https://dc.lft.to/lastmile_qr_scan"}, "lon": -77.04337983333333, "type": "electric_scooter", "fusion_lat": 0.0, "lat": 38.895924666666666, "name": "a3a1ff81989523aaafdfa8a7845cbe71", "fusion_lon": 0.0, "bike_id": "a3a1ff81989523aaafdfa8a7845cbe71", "is_disabled": 0, "is_reserved": 0}, {"rental_uris": {"ios": "https://dc.lft.to/lastmile_qr_scan", "android": "https://dc.lft.to/lastmile_qr_scan"}, "lon": -77.04687333333334, "type": "electric_scooter", "fusion_lat": 0.0, "lat": 38.9038345, "name": "6c3aff18f432f58a7dab35e0c02c8434", "fusion_lon": 0.0, "bike_id": "6c3aff18f432f58a7dab35e0c02c8434", "is_disabled": 0, "is_reserved": 0}, {"rental_uris": {"ios": "https://dc.lft.to/lastmile_qr_scan", "android": "https://dc.lft.to/lastmile_qr_scan"}, "lon": -76.94630733333334, "type": "electric_bike", "fusion_lat": 0.0, "lat": 38.94626616666667, "name": "584234f1872c891c2863c2b2731955cb", "fusion_lon": 0.0, "bike_id": "584234f1872c891c2863c2b2731955cb", "is_disabled": 0, "is_reserved": 0}, {"rental_uris": {"ios": "https://dc.lft.to/lastmile_qr_scan", "android": "https://dc.lft.to/lastmile_qr_scan"}, "lon": -77.032006, "type": "electric_scooter", "fusion_lat": 0.0, "lat": 38.907686, "name": "0153b6e86815f5326b9f3b028d3e6dcc", "fusion_lon": 0.0, "bike_id": "0153b6e86815f5326b9f3b028d3e6dcc", "is_disabled": 0, "is_reserved": 0}, {"rental_uris": {"ios": "https://dc.lft.to/lastmile_qr_scan", "android": "https://dc.lft.to/lastmile_qr_scan"}, "lon": -77.026402, "type": "electric_scooter", "fusion_lat": 0.0, "lat": 38.896206, "name": "af5a661873c03c6ec57024dc670fbded", "fusion_lon": 0.0, "bike_id": "af5a661873c03c6ec57024dc670fbded", "is_disabled": 0, "is_reserved": 0}, {"rental_uris": {"ios": "https://dc.lft.to/lastmile_qr_scan", "android": "https://dc.lft.to/lastmile_qr_scan"}, "lon": -77.0347145, "type": "electric_scooter", "fusion_lat": 0.0, "lat": 38.91718133333333, "name": "37a48f711e9b910f18d9714519765c37", "fusion_lon": 0.0, "bike_id": "37a48f711e9b910f18d9714519765c37", "is_disabled": 0, "is_reserved": 0}, {"rental_uris": {"ios": "https://dc.lft.to/lastmile_qr_scan", "android": "https://dc.lft.to/lastmile_qr_scan"}, "lon": -77.04486866666667, "type": "electric_scooter", "fusion_lat": 0.0, "lat": 38.91868266666667, "name": "618ee3940da1535f38d7cd8de2d45481", "fusion_lon": 0.0, "bike_id": "618ee3940da1535f38d7cd8de2d45481", "is_disabled": 0, "is_reserved": 0}, {"rental_uris": {"ios": "https://dc.lft.to/lastmile_qr_scan", "android": "https://dc.lft.to/lastmile_qr_scan"}, "lon": -76.99893616666667, "type": "electric_scooter", "fusion_lat": 0.0, "lat": 38.9074475, "name": "32c2a403c7940de91c3011fbf605e558", "fusion_lon": 0.0, "bike_id": "32c2a403c7940de91c3011fbf605e558", "is_disabled": 0, "is_reserved": 0}, {"rental_uris": {"ios": "https://dc.lft.to/lastmile_qr_scan", "android": "https://dc.lft.to/lastmile_qr_scan"}, "lon": -77.038411, "type": "electric_scooter", "fusion_lat": 0.0, "lat": 38.926475333333336, "name": "93c63255edf4b539e498763c95cf66c5", "fusion_lon": 0.0, "bike_id": "93c63255edf4b539e498763c95cf66c5", "is_disabled": 0, "is_reserved": 0}, {"rental_uris": {"ios": "https://dc.lft.to/lastmile_qr_scan", "android": "https://dc.lft.to/lastmile_qr_scan"}, "lon": -77.03404133333333, "type": "electric_scooter", "fusion_lat": 0.0, "lat": 38.906194, "name": "283c8a3906e1b7982e458d531eaa9a93", "fusion_lon": 0.0, "bike_id": "283c8a3906e1b7982e458d531eaa9a93", "is_disabled": 0, "is_reserved": 0}, {"rental_uris": {"ios": "https://dc.lft.to/lastmile_qr_scan", "android": "https://dc.lft.to/lastmile_qr_scan"}, "lon": -77.04819183333333, "type": "electric_scooter", "fusion_lat": 0.0, "lat": 38.90977066666667, "name": "f28c76683e5fcbe4894a16a5e6f93b65", "fusion_lon": 0.0, "bike_id": "f28c76683e5fcbe4894a16a5e6f93b65", "is_disabled": 0, "is_reserved": 0}, {"rental_uris": {"ios": "https://dc.lft.to/lastmile_qr_scan", "android": "https://dc.lft.to/lastmile_qr_scan"}, "lon": -77.01075983333334, "type": "electric_bike", "fusion_lat": 0.0, "lat": 38.95656283333334, "name": "075fc13d53a00da9ad858a8d8a29fb0e", "fusion_lon": 0.0, "bike_id": "075fc13d53a00da9ad858a8d8a29fb0e", "is_disabled": 0, "is_reserved": 0}, {"rental_uris": {"ios": "https://dc.lft.to/lastmile_qr_scan", "android": "https://dc.lft.to/lastmile_qr_scan"}, "lon": -77.03282766666666, "type": "electric_scooter", "fusion_lat": 0.0, "lat": 38.9349735, "name": "7f4fe198b15380c2ebf60694493ce9fe", "fusion_lon": 0.0, "bike_id": "7f4fe198b15380c2ebf60694493ce9fe", "is_disabled": 0, "is_reserved": 0}, {"rental_uris": {"ios": "https://dc.lft.to/lastmile_qr_scan", "android": "https://dc.lft.to/lastmile_qr_scan"}, "lon": -77.00264866666667, "type": "electric_scooter", "fusion_lat": 0.0, "lat": 38.89897166666667, "name": "17e985577248dda11515100f06b2ef24", "fusion_lon": 0.0, "bike_id": "17e985577248dda11515100f06b2ef24", "is_disabled": 0, "is_reserved": 0}, {"rental_uris": {"ios": "https://dc.lft.to/lastmile_qr_scan", "android": "https://dc.lft.to/lastmile_qr_scan"}, "lon": -76.98955083333334, "type": "electric_scooter", "fusion_lat": 0.0, "lat": 38.901357, "name": "8178a399dc4df81e6a0f6569f0354661", "fusion_lon": 0.0, "bike_id": "8178a399dc4df81e6a0f6569f0354661", "is_disabled": 0, "is_reserved": 0}, {"rental_uris": {"ios": "https://dc.lft.to/lastmile_qr_scan", "android": "https://dc.lft.to/lastmile_qr_scan"}, "lon": -77.07777133333333, "type": "electric_scooter", "fusion_lat": 0.0, "lat": 38.945622166666666, "name": "e3be3e8406496c758fade5c5eeef27f5", "fusion_lon": 0.0, "bike_id": "e3be3e8406496c758fade5c5eeef27f5", "is_disabled": 0, "is_reserved": 0}, {"rental_uris": {"ios": "https://dc.lft.to/lastmile_qr_scan", "android": "https://dc.lft.to/lastmile_qr_scan"}, "lon": -77.00558, "type": "electric_scooter", "fusion_lat": 0.0, "lat": 38.87927, "name": "b3dfa985d51b93baa78da892930cb44d", "fusion_lon": 0.0, "bike_id": "b3dfa985d51b93baa78da892930cb44d", "is_disabled": 0, "is_reserved": 0}, {"rental_uris": {"ios": "https://dc.lft.to/lastmile_qr_scan", "android": "https://dc.lft.to/lastmile_qr_scan"}, "lon": -77.008271, "type": "electric_scooter", "fusion_lat": 0.0, "lat": 38.879148, "name": "c15b98718524fd9244ba055e95721f97", "fusion_lon": 0.0, "bike_id": "c15b98718524fd9244ba055e95721f97", "is_disabled": 0, "is_reserved": 0}, {"rental_uris": {"ios": "https://dc.lft.to/lastmile_qr_scan", "android": "https://dc.lft.to/lastmile_qr_scan"}, "lon": -77.01886416666666, "type": "electric_scooter", "fusion_lat": 0.0, "lat": 38.91743566666667, "name": "cac5a06b887a0890231518338e39c0b2", "fusion_lon": 0.0, "bike_id": "cac5a06b887a0890231518338e39c0b2", "is_disabled": 0, "is_reserved": 0}, {"rental_uris": {"ios": "https://dc.lft.to/lastmile_qr_scan", "android": "https://dc.lft.to/lastmile_qr_scan"}, "lon": -77.03204216666667, "type": "electric_scooter", "fusion_lat": 0.0, "lat": 38.90760216666666, "name": "f106de7698107b8510b625430cde3738", "fusion_lon": 0.0, "bike_id": "f106de7698107b8510b625430cde3738", "is_disabled": 0, "is_reserved": 0}, {"rental_uris": {"ios": "https://dc.lft.to/lastmile_qr_scan", "android": "https://dc.lft.to/lastmile_qr_scan"}, "lon": -77.0128585, "type": "electric_scooter", "fusion_lat": 0.0, "lat": 38.906173333333335, "name": "3002fe0a3cc2b5511969564d6e04c972", "fusion_lon": 0.0, "bike_id": "3002fe0a3cc2b5511969564d6e04c972", "is_disabled": 0, "is_reserved": 0}, {"rental_uris": {"ios": "https://dc.lft.to/lastmile_qr_scan", "android": "https://dc.lft.to/lastmile_qr_scan"}, "lon": -76.988456, "type": "electric_bike", "fusion_lat": 0.0, "lat": 38.8427605, "name": "a9270fbe05a19add8881aa2e99d827af", "fusion_lon": 0.0, "bike_id": "a9270fbe05a19add8881aa2e99d827af", "is_disabled": 0, "is_reserved": 0}, {"rental_uris": {"ios": "https://dc.lft.to/lastmile_qr_scan", "android": "https://dc.lft.to/lastmile_qr_scan"}, "lon": -76.979887, "type": "electric_bike", "fusion_lat": 0.0, "lat": 38.877589, "name": "ad8447d593f77b48e7584c0f53ad72e7", "fusion_lon": 0.0, "bike_id": "ad8447d593f77b48e7584c0f53ad72e7", "is_disabled": 0, "is_reserved": 0}, {"rental_uris": {"ios": "https://dc.lft.to/lastmile_qr_scan", "android": "https://dc.lft.to/lastmile_qr_scan"}, "lon": -77.36098816666667, "type": "electric_bike", "fusion_lat": 0.0, "lat": 38.939604833333334, "name": "1a75ffb0a52b9ca12e537a3cd7ccdb76", "fusion_lon": 0.0, "bike_id": "1a75ffb0a52b9ca12e537a3cd7ccdb76", "is_disabled": 0, "is_reserved": 0}, {"rental_uris": {"ios": "https://dc.lft.to/lastmile_qr_scan", "android": "https://dc.lft.to/lastmile_qr_scan"}, "lon": -77.017658, "type": "electric_scooter", "fusion_lat": 0.0, "lat": 38.88730266666666, "name": "50649a2ea0ff55de41f4f6e0ddea12b7", "fusion_lon": 0.0, "bike_id": "50649a2ea0ff55de41f4f6e0ddea12b7", "is_disabled": 0, "is_reserved": 0}, {"rental_uris": {"ios": "https://dc.lft.to/lastmile_qr_scan", "android": "https://dc.lft.to/lastmile_qr_scan"}, "lon": -77.02823716666667, "type": "electric_scooter", "fusion_lat": 0.0, "lat": 38.898406666666666, "name": "a3f17d12204beadca3793bb40c9e4f7f", "fusion_lon": 0.0, "bike_id": "a3f17d12204beadca3793bb40c9e4f7f", "is_disabled": 0, "is_reserved": 0}, {"rental_uris": {"ios": "https://dc.lft.to/lastmile_qr_scan", "android": "https://dc.lft.to/lastmile_qr_scan"}, "lon": -77.05330716666667, "type": "electric_scooter", "fusion_lat": 0.0, "lat": 38.900232333333335, "name": "bbbf23129a7275b9910337f1f29f3434", "fusion_lon": 0.0, "bike_id": "bbbf23129a7275b9910337f1f29f3434", "is_disabled": 0, "is_reserved": 0}, {"rental_uris": {"ios": "https://dc.lft.to/lastmile_qr_scan", "android": "https://dc.lft.to/lastmile_qr_scan"}, "lon": -77.04105966666667, "type": "electric_scooter", "fusion_lat": 0.0, "lat": 38.91775766666667, "name": "6d1aa0452e9bcbd054ca9b0825b28de6", "fusion_lon": 0.0, "bike_id": "6d1aa0452e9bcbd054ca9b0825b28de6", "is_disabled": 0, "is_reserved": 0}, {"rental_uris": {"ios": "https://dc.lft.to/lastmile_qr_scan", "android": "https://dc.lft.to/lastmile_qr_scan"}, "lon": -77.03359666666667, "type": "electric_scooter", "fusion_lat": 0.0, "lat": 38.899644, "name": "93223d0147ae5b85584d3b7c4aaef816", "fusion_lon": 0.0, "bike_id": "93223d0147ae5b85584d3b7c4aaef816", "is_disabled": 0, "is_reserved": 0}, {"rental_uris": {"ios": "https://dc.lft.to/lastmile_qr_scan", "android": "https://dc.lft.to/lastmile_qr_scan"}, "lon": -77.0402195, "type": "electric_scooter", "fusion_lat": 0.0, "lat": 38.900307166666664, "name": "96f751f495eadb73e45d57c3202ec5c1", "fusion_lon": 0.0, "bike_id": "96f751f495eadb73e45d57c3202ec5c1", "is_disabled": 0, "is_reserved": 0}, {"rental_uris": {"ios": "https://dc.lft.to/lastmile_qr_scan", "android": "https://dc.lft.to/lastmile_qr_scan"}, "lon": -77.001986, "type": "electric_bike", "fusion_lat": 0.0, "lat": 38.9414735, "name": "28ea11d24482a385aefc7f57a685f0cb", "fusion_lon": 0.0, "bike_id": "28ea11d24482a385aefc7f57a685f0cb", "is_disabled": 0, "is_reserved": 0}, {"rental_uris": {"ios": "https://dc.lft.to/lastmile_qr_scan", "android": "https://dc.lft.to/lastmile_qr_scan"}, "lon": -77.03171733333333, "type": "electric_scooter", "fusion_lat": 0.0, "lat": 38.91335383333333, "name": "e4ac76a214dc097425c6df0cffb61435", "fusion_lon": 0.0, "bike_id": "e4ac76a214dc097425c6df0cffb61435", "is_disabled": 0, "is_reserved": 0}, {"rental_uris": {"ios": "https://dc.lft.to/lastmile_qr_scan", "android": "https://dc.lft.to/lastmile_qr_scan"}, "lon": -77.02816083333333, "type": "electric_scooter", "fusion_lat": 0.0, "lat": 38.961412333333335, "name": "40ef9ab6ec18181fd68447a01f348574", "fusion_lon": 0.0, "bike_id": "40ef9ab6ec18181fd68447a01f348574", "is_disabled": 0, "is_reserved": 0}, {"rental_uris": {"ios": "https://dc.lft.to/lastmile_qr_scan", "android": "https://dc.lft.to/lastmile_qr_scan"}, "lon": -76.9414585, "type": "electric_scooter", "fusion_lat": 0.0, "lat": 38.896839166666666, "name": "0362c5283a1e6605abb8a46a1ca52c24", "fusion_lon": 0.0, "bike_id": "0362c5283a1e6605abb8a46a1ca52c24", "is_disabled": 0, "is_reserved": 0}, {"rental_uris": {"ios": "https://dc.lft.to/lastmile_qr_scan", "android": "https://dc.lft.to/lastmile_qr_scan"}, "lon": -77.02894166666667, "type": "electric_scooter", "fusion_lat": 0.0, "lat": 38.90713816666667, "name": "518d4813f082c72852022ae69033fd1d", "fusion_lon": 0.0, "bike_id": "518d4813f082c72852022ae69033fd1d", "is_disabled": 0, "is_reserved": 0}, {"rental_uris": {"ios": "https://dc.lft.to/lastmile_qr_scan", "android": "https://dc.lft.to/lastmile_qr_scan"}, "lon": -77.00375883333334, "type": "electric_bike", "fusion_lat": 0.0, "lat": 38.836050666666665, "name": "6a213b59acab8030187ab6c7a6daa12a", "fusion_lon": 0.0, "bike_id": "6a213b59acab8030187ab6c7a6daa12a", "is_disabled": 0, "is_reserved": 0}, {"rental_uris": {"ios": "https://dc.lft.to/lastmile_qr_scan", "android": "https://dc.lft.to/lastmile_qr_scan"}, "lon": -76.97017533333333, "type": "electric_bike", "fusion_lat": 0.0, "lat": 38.863655, "name": "6db3e3f64f8a3d774433a5f84e39705f", "fusion_lon": 0.0, "bike_id": "6db3e3f64f8a3d774433a5f84e39705f", "is_disabled": 0, "is_reserved": 0}, {"rental_uris": {"ios": "https://dc.lft.to/lastmile_qr_scan", "android": "https://dc.lft.to/lastmile_qr_scan"}, "lon": -76.99059683333333, "type": "electric_scooter", "fusion_lat": 0.0, "lat": 38.86353666666667, "name": "35bf48b7c58ad94ffb491852c8ba184b", "fusion_lon": 0.0, "bike_id": "35bf48b7c58ad94ffb491852c8ba184b", "is_disabled": 0, "is_reserved": 0}, {"rental_uris": {"ios": "https://dc.lft.to/lastmile_qr_scan", "android": "https://dc.lft.to/lastmile_qr_scan"}, "lon": -77.09552783333334, "type": "electric_bike", "fusion_lat": 0.0, "lat": 38.8373385, "name": "8e9b4db01a3b828edd85ee75e1cdf532", "fusion_lon": 0.0, "bike_id": "8e9b4db01a3b828edd85ee75e1cdf532", "is_disabled": 0, "is_reserved": 0}, {"rental_uris": {"ios": "https://dc.lft.to/lastmile_qr_scan", "android": "https://dc.lft.to/lastmile_qr_scan"}, "lon": -77.02716183333334, "type": "electric_scooter", "fusion_lat": 0.0, "lat": 38.90907766666667, "name": "752bd56e9b3b38dec2684859dcd6cbeb", "fusion_lon": 0.0, "bike_id": "752bd56e9b3b38dec2684859dcd6cbeb", "is_disabled": 0, "is_reserved": 0}, {"rental_uris": {"ios": "https://dc.lft.to/lastmile_qr_scan", "android": "https://dc.lft.to/lastmile_qr_scan"}, "lon": -77.03894966666667, "type": "electric_scooter", "fusion_lat": 0.0, "lat": 38.9439845, "name": "ce514aeb75b437909acb6019bd385257", "fusion_lon": 0.0, "bike_id": "ce514aeb75b437909acb6019bd385257", "is_disabled": 0, "is_reserved": 0}, {"rental_uris": {"ios": "https://dc.lft.to/lastmile_qr_scan", "android": "https://dc.lft.to/lastmile_qr_scan"}, "lon": -76.9316285, "type": "electric_bike", "fusion_lat": 0.0, "lat": 38.90864083333334, "name": "2e704c7439f10f7c500c6194e4a8311b", "fusion_lon": 0.0, "bike_id": "2e704c7439f10f7c500c6194e4a8311b", "is_disabled": 0, "is_reserved": 0}, {"rental_uris": {"ios": "https://dc.lft.to/lastmile_qr_scan", "android": "https://dc.lft.to/lastmile_qr_scan"}, "lon": -77.0126965, "type": "electric_scooter", "fusion_lat": 0.0, "lat": 38.9153885, "name": "8afa72c0d3288bb838a1fa498cc947a2", "fusion_lon": 0.0, "bike_id": "8afa72c0d3288bb838a1fa498cc947a2", "is_disabled": 0, "is_reserved": 0}, {"rental_uris": {"ios": "https://dc.lft.to/lastmile_qr_scan", "android": "https://dc.lft.to/lastmile_qr_scan"}, "lon": -77.00642266666667, "type": "electric_scooter", "fusion_lat": 0.0, "lat": 38.876421, "name": "94ba598e9452d4abedcd92119f2c4a6c", "fusion_lon": 0.0, "bike_id": "94ba598e9452d4abedcd92119f2c4a6c", "is_disabled": 0, "is_reserved": 0}, {"rental_uris": {"ios": "https://dc.lft.to/lastmile_qr_scan", "android": "https://dc.lft.to/lastmile_qr_scan"}, "lon": -76.980901, "type": "electric_bike", "fusion_lat": 0.0, "lat": 38.902897, "name": "70e7dc5fc6c4cb18a757842f4d6d92d5", "fusion_lon": 0.0, "bike_id": "70e7dc5fc6c4cb18a757842f4d6d92d5", "is_disabled": 0, "is_reserved": 0}, {"rental_uris": {"ios": "https://dc.lft.to/lastmile_qr_scan", "android": "https://dc.lft.to/lastmile_qr_scan"}, "lon": -77.024596, "type": "electric_scooter", "fusion_lat": 0.0, "lat": 38.9386445, "name": "04b71548197f60fd2945cf90fc7449a1", "fusion_lon": 0.0, "bike_id": "04b71548197f60fd2945cf90fc7449a1", "is_disabled": 0, "is_reserved": 0}, {"rental_uris": {"ios": "https://dc.lft.to/lastmile_qr_scan", "android": "https://dc.lft.to/lastmile_qr_scan"}, "lon": -77.079046, "type": "electric_bike", "fusion_lat": 0.0, "lat": 38.83935666666667, "name": "a30438ef0d7ff4393e9819de324521f9", "fusion_lon": 0.0, "bike_id": "a30438ef0d7ff4393e9819de324521f9", "is_disabled": 0, "is_reserved": 0}, {"rental_uris": {"ios": "https://dc.lft.to/lastmile_qr_scan", "android": "https://dc.lft.to/lastmile_qr_scan"}, "lon": -77.00198833333333, "type": "electric_scooter", "fusion_lat": 0.0, "lat": 38.911968, "name": "cb9ae0598041580f9975fa2f69d4a4ff", "fusion_lon": 0.0, "bike_id": "cb9ae0598041580f9975fa2f69d4a4ff", "is_disabled": 0, "is_reserved": 0}, {"rental_uris": {"ios": "https://dc.lft.to/lastmile_qr_scan", "android": "https://dc.lft.to/lastmile_qr_scan"}, "lon": -76.936206, "type": "electric_bike", "fusion_lat": 0.0, "lat": 38.970530333333336, "name": "d32bec40a8f7984cf341ca826ccd4e4d", "fusion_lon": 0.0, "bike_id": "d32bec40a8f7984cf341ca826ccd4e4d", "is_disabled": 0, "is_reserved": 0}, {"rental_uris": {"ios": "https://dc.lft.to/lastmile_qr_scan", "android": "https://dc.lft.to/lastmile_qr_scan"}, "lon": -77.051034, "type": "electric_scooter", "fusion_lat": 0.0, "lat": 38.905275833333334, "name": "405e2ba061af6eb19eea1e1e002c8f25", "fusion_lon": 0.0, "bike_id": "405e2ba061af6eb19eea1e1e002c8f25", "is_disabled": 0, "is_reserved": 0}, {"rental_uris": {"ios": "https://dc.lft.to/lastmile_qr_scan", "android": "https://dc.lft.to/lastmile_qr_scan"}, "lon": -76.99869283333334, "type": "electric_scooter", "fusion_lat": 0.0, "lat": 38.900306666666665, "name": "ac1fc88f388b5f19c16aa04c884de3ac", "fusion_lon": 0.0, "bike_id": "ac1fc88f388b5f19c16aa04c884de3ac", "is_disabled": 0, "is_reserved": 0}, {"rental_uris": {"ios": "https://dc.lft.to/lastmile_qr_scan", "android": "https://dc.lft.to/lastmile_qr_scan"}, "lon": -77.04879633333333, "type": "electric_scooter", "fusion_lat": 0.0, "lat": 38.90309333333333, "name": "f7f8cede8b2b2e3082292e8b3e5e3c62", "fusion_lon": 0.0, "bike_id": "f7f8cede8b2b2e3082292e8b3e5e3c62", "is_disabled": 0, "is_reserved": 0}, {"rental_uris": {"ios": "https://dc.lft.to/lastmile_qr_scan", "android": "https://dc.lft.to/lastmile_qr_scan"}, "lon": -76.98960333333333, "type": "electric_scooter", "fusion_lat": 0.0, "lat": 38.900317666666666, "name": "ea4aa4527a10bb5dc961be12790dcefc", "fusion_lon": 0.0, "bike_id": "ea4aa4527a10bb5dc961be12790dcefc", "is_disabled": 0, "is_reserved": 0}, {"rental_uris": {"ios": "https://dc.lft.to/lastmile_qr_scan", "android": "https://dc.lft.to/lastmile_qr_scan"}, "lon": -77.05292433333334, "type": "electric_scooter", "fusion_lat": 0.0, "lat": 38.92799866666667, "name": "a793ee0f3f2de097958a94932f8bd9e3", "fusion_lon": 0.0, "bike_id": "a793ee0f3f2de097958a94932f8bd9e3", "is_disabled": 0, "is_reserved": 0}, {"rental_uris": {"ios": "https://dc.lft.to/lastmile_qr_scan", "android": "https://dc.lft.to/lastmile_qr_scan"}, "lon": -77.12903316666667, "type": "electric_bike", "fusion_lat": 0.0, "lat": 38.863791, "name": "81ad0adc739583a2f2d0faa9a5f3ba52", "fusion_lon": 0.0, "bike_id": "81ad0adc739583a2f2d0faa9a5f3ba52", "is_disabled": 0, "is_reserved": 0}, {"rental_uris": {"ios": "https://dc.lft.to/lastmile_qr_scan", "android": "https://dc.lft.to/lastmile_qr_scan"}, "lon": -77.03225816666667, "type": "electric_scooter", "fusion_lat": 0.0, "lat": 38.92667983333333, "name": "07c64e87eb00d0639eab016988e55893", "fusion_lon": 0.0, "bike_id": "07c64e87eb00d0639eab016988e55893", "is_disabled": 0, "is_reserved": 0}, {"rental_uris": {"ios": "https://dc.lft.to/lastmile_qr_scan", "android": "https://dc.lft.to/lastmile_qr_scan"}, "lon": -77.03268616666666, "type": "electric_scooter", "fusion_lat": 0.0, "lat": 38.93236816666667, "name": "ae2d5c0429c4f1b6702e84d24d210e12", "fusion_lon": 0.0, "bike_id": "ae2d5c0429c4f1b6702e84d24d210e12", "is_disabled": 0, "is_reserved": 0}, {"rental_uris": {"ios": "https://dc.lft.to/lastmile_qr_scan", "android": "https://dc.lft.to/lastmile_qr_scan"}, "lon": -77.047205, "type": "electric_scooter", "fusion_lat": 0.0, "lat": 38.916736666666665, "name": "45632d8dda5ec43c2c94753c9186f041", "fusion_lon": 0.0, "bike_id": "45632d8dda5ec43c2c94753c9186f041", "is_disabled": 0, "is_reserved": 0}, {"rental_uris": {"ios": "https://dc.lft.to/lastmile_qr_scan", "android": "https://dc.lft.to/lastmile_qr_scan"}, "lon": -77.04623966666666, "type": "electric_scooter", "fusion_lat": 0.0, "lat": 38.91919733333334, "name": "998c36600710458578ba746d0dfca75f", "fusion_lon": 0.0, "bike_id": "998c36600710458578ba746d0dfca75f", "is_disabled": 0, "is_reserved": 0}, {"rental_uris": {"ios": "https://dc.lft.to/lastmile_qr_scan", "android": "https://dc.lft.to/lastmile_qr_scan"}, "lon": -77.19909833333334, "type": "electric_bike", "fusion_lat": 0.0, "lat": 38.8753075, "name": "d98eb22dea5535a7074f4b2b92e69cb5", "fusion_lon": 0.0, "bike_id": "d98eb22dea5535a7074f4b2b92e69cb5", "is_disabled": 0, "is_reserved": 0}, {"rental_uris": {"ios": "https://dc.lft.to/lastmile_qr_scan", "android": "https://dc.lft.to/lastmile_qr_scan"}, "lon": -77.00583416666667, "type": "electric_scooter", "fusion_lat": 0.0, "lat": 38.878722333333336, "name": "1920cfba62b5eee05a29051ed5c81795", "fusion_lon": 0.0, "bike_id": "1920cfba62b5eee05a29051ed5c81795", "is_disabled": 0, "is_reserved": 0}, {"rental_uris": {"ios": "https://dc.lft.to/lastmile_qr_scan", "android": "https://dc.lft.to/lastmile_qr_scan"}, "lon": -77.15000583333334, "type": "electric_bike", "fusion_lat": 0.0, "lat": 39.0946305, "name": "130a573da3c56ea939cb09026f0640d6", "fusion_lon": 0.0, "bike_id": "130a573da3c56ea939cb09026f0640d6", "is_disabled": 0, "is_reserved": 0}, {"rental_uris": {"ios": "https://dc.lft.to/lastmile_qr_scan", "android": "https://dc.lft.to/lastmile_qr_scan"}, "lon": -76.933672, "type": "electric_scooter", "fusion_lat": 0.0, "lat": 38.899164999999996, "name": "98b9610b71210a225012d788e32b758a", "fusion_lon": 0.0, "bike_id": "98b9610b71210a225012d788e32b758a", "is_disabled": 0, "is_reserved": 0}, {"rental_uris": {"ios": "https://dc.lft.to/lastmile_qr_scan", "android": "https://dc.lft.to/lastmile_qr_scan"}, "lon": -76.92895, "type": "electric_scooter", "fusion_lat": 0.0, "lat": 38.89332733333333, "name": "3524803d9d5e8bd27efc594ddbe51c61", "fusion_lon": 0.0, "bike_id": "3524803d9d5e8bd27efc594ddbe51c61", "is_disabled": 0, "is_reserved": 0}, {"rental_uris": {"ios": "https://dc.lft.to/lastmile_qr_scan", "android": "https://dc.lft.to/lastmile_qr_scan"}, "lon": -77.03180633333334, "type": "electric_scooter", "fusion_lat": 0.0, "lat": 38.89957283333333, "name": "1f4a0ed929f8e75ebce02c8421ed22fd", "fusion_lon": 0.0, "bike_id": "1f4a0ed929f8e75ebce02c8421ed22fd", "is_disabled": 0, "is_reserved": 0}, {"rental_uris": {"ios": "https://dc.lft.to/lastmile_qr_scan", "android": "https://dc.lft.to/lastmile_qr_scan"}, "lon": -77.02697933333333, "type": "electric_scooter", "fusion_lat": 0.0, "lat": 38.949823, "name": "1eb7fc4224d21e1ea2f798ea07c5877c", "fusion_lon": 0.0, "bike_id": "1eb7fc4224d21e1ea2f798ea07c5877c", "is_disabled": 0, "is_reserved": 0}, {"rental_uris": {"ios": "https://dc.lft.to/lastmile_qr_scan", "android": "https://dc.lft.to/lastmile_qr_scan"}, "lon": -77.000363, "type": "electric_scooter", "fusion_lat": 0.0, "lat": 38.9075685, "name": "0d1b4f31c3d1b2f8457e1adb5fe1c537", "fusion_lon": 0.0, "bike_id": "0d1b4f31c3d1b2f8457e1adb5fe1c537", "is_disabled": 0, "is_reserved": 0}, {"rental_uris": {"ios": "https://dc.lft.to/lastmile_qr_scan", "android": "https://dc.lft.to/lastmile_qr_scan"}, "lon": -77.0222095, "type": "electric_scooter", "fusion_lat": 0.0, "lat": 38.892222833333335, "name": "9f96e2d3f77050362cd26dd56159f38c", "fusion_lon": 0.0, "bike_id": "9f96e2d3f77050362cd26dd56159f38c", "is_disabled": 0, "is_reserved": 0}, {"rental_uris": {"ios": "https://dc.lft.to/lastmile_qr_scan", "android": "https://dc.lft.to/lastmile_qr_scan"}, "lon": -77.04694116666667, "type": "electric_scooter", "fusion_lat": 0.0, "lat": 38.9054265, "name": "289abfd35d4a349534ff7768090ba97c", "fusion_lon": 0.0, "bike_id": "289abfd35d4a349534ff7768090ba97c", "is_disabled": 0, "is_reserved": 0}, {"rental_uris": {"ios": "https://dc.lft.to/lastmile_qr_scan", "android": "https://dc.lft.to/lastmile_qr_scan"}, "lon": -77.02117233333334, "type": "electric_scooter", "fusion_lat": 0.0, "lat": 38.913004, "name": "92840e6c3ae268823ffd7c9f28e8a640", "fusion_lon": 0.0, "bike_id": "92840e6c3ae268823ffd7c9f28e8a640", "is_disabled": 0, "is_reserved": 0}, {"rental_uris": {"ios": "https://dc.lft.to/lastmile_qr_scan", "android": "https://dc.lft.to/lastmile_qr_scan"}, "lon": -77.01053933333333, "type": "electric_scooter", "fusion_lat": 0.0, "lat": 38.879341833333335, "name": "2f309d60cbdb7661385e2ef85039f1d8", "fusion_lon": 0.0, "bike_id": "2f309d60cbdb7661385e2ef85039f1d8", "is_disabled": 0, "is_reserved": 0}, {"rental_uris": {"ios": "https://dc.lft.to/lastmile_qr_scan", "android": "https://dc.lft.to/lastmile_qr_scan"}, "lon": -77.00928016666667, "type": "electric_scooter", "fusion_lat": 0.0, "lat": 38.903822, "name": "b6fed5ff81187127a9dd88d7c36604f2", "fusion_lon": 0.0, "bike_id": "b6fed5ff81187127a9dd88d7c36604f2", "is_disabled": 0, "is_reserved": 0}, {"rental_uris": {"ios": "https://dc.lft.to/lastmile_qr_scan", "android": "https://dc.lft.to/lastmile_qr_scan"}, "lon": -77.04614116666667, "type": "electric_scooter", "fusion_lat": 0.0, "lat": 38.90394383333334, "name": "ba210c29dbecd73116bbcb39516e03e3", "fusion_lon": 0.0, "bike_id": "ba210c29dbecd73116bbcb39516e03e3", "is_disabled": 0, "is_reserved": 0}, {"rental_uris": {"ios": "https://dc.lft.to/lastmile_qr_scan", "android": "https://dc.lft.to/lastmile_qr_scan"}, "lon": -76.96629316666667, "type": "electric_bike", "fusion_lat": 0.0, "lat": 38.94202416666667, "name": "2389e05c173dd02447098ee2c25fbf0f", "fusion_lon": 0.0, "bike_id": "2389e05c173dd02447098ee2c25fbf0f", "is_disabled": 0, "is_reserved": 0}, {"rental_uris": {"ios": "https://dc.lft.to/lastmile_qr_scan", "android": "https://dc.lft.to/lastmile_qr_scan"}, "lon": -77.0018645, "type": "electric_scooter", "fusion_lat": 0.0, "lat": 38.873848, "name": "06dbf8b311deeb77e5afdc9ffb64c22b", "fusion_lon": 0.0, "bike_id": "06dbf8b311deeb77e5afdc9ffb64c22b", "is_disabled": 0, "is_reserved": 0}, {"rental_uris": {"ios": "https://dc.lft.to/lastmile_qr_scan", "android": "https://dc.lft.to/lastmile_qr_scan"}, "lon": -77.03969283333333, "type": "electric_scooter", "fusion_lat": 0.0, "lat": 38.9198535, "name": "4a1b5f61bc6b579dba10f449262b98b2", "fusion_lon": 0.0, "bike_id": "4a1b5f61bc6b579dba10f449262b98b2", "is_disabled": 0, "is_reserved": 0}, {"rental_uris": {"ios": "https://dc.lft.to/lastmile_qr_scan", "android": "https://dc.lft.to/lastmile_qr_scan"}, "lon": -77.04686833333334, "type": "electric_scooter", "fusion_lat": 0.0, "lat": 38.89223766666667, "name": "7ba0bb5831c9417606388d8fd37b46eb", "fusion_lon": 0.0, "bike_id": "7ba0bb5831c9417606388d8fd37b46eb", "is_disabled": 0, "is_reserved": 0}, {"rental_uris": {"ios": "https://dc.lft.to/lastmile_qr_scan", "android": "https://dc.lft.to/lastmile_qr_scan"}, "lon": -77.03195616666666, "type": "electric_scooter", "fusion_lat": 0.0, "lat": 38.912675666666665, "name": "5f84e22b8b7c23dd45ac03365f7e3f0d", "fusion_lon": 0.0, "bike_id": "5f84e22b8b7c23dd45ac03365f7e3f0d", "is_disabled": 0, "is_reserved": 0}, {"rental_uris": {"ios": "https://dc.lft.to/lastmile_qr_scan", "android": "https://dc.lft.to/lastmile_qr_scan"}, "lon": -77.01217833333334, "type": "electric_bike", "fusion_lat": 0.0, "lat": 38.87094233333333, "name": "aea9118a6e7f052cb25324c2fc21af7f", "fusion_lon": 0.0, "bike_id": "aea9118a6e7f052cb25324c2fc21af7f", "is_disabled": 0, "is_reserved": 0}, {"rental_uris": {"ios": "https://dc.lft.to/lastmile_qr_scan", "android": "https://dc.lft.to/lastmile_qr_scan"}, "lon": -77.073244, "type": "electric_scooter", "fusion_lat": 0.0, "lat": 38.92499516666667, "name": "534df19f285344453b6afe21964e458d", "fusion_lon": 0.0, "bike_id": "534df19f285344453b6afe21964e458d", "is_disabled": 0, "is_reserved": 0}, {"rental_uris": {"ios": "https://dc.lft.to/lastmile_qr_scan", "android": "https://dc.lft.to/lastmile_qr_scan"}, "lon": -77.03634833333334, "type": "electric_scooter", "fusion_lat": 0.0, "lat": 38.92936233333333, "name": "2a2b4cd2e2f9323ab5f6214acf366262", "fusion_lon": 0.0, "bike_id": "2a2b4cd2e2f9323ab5f6214acf366262", "is_disabled": 0, "is_reserved": 0}, {"rental_uris": {"ios": "https://dc.lft.to/lastmile_qr_scan", "android": "https://dc.lft.to/lastmile_qr_scan"}, "lon": -77.0756365, "type": "electric_scooter", "fusion_lat": 0.0, "lat": 38.9142905, "name": "612dece9a064afc23306ac759c2377f3", "fusion_lon": 0.0, "bike_id": "612dece9a064afc23306ac759c2377f3", "is_disabled": 0, "is_reserved": 0}, {"rental_uris": {"ios": "https://dc.lft.to/lastmile_qr_scan", "android": "https://dc.lft.to/lastmile_qr_scan"}, "lon": -77.02336533333333, "type": "electric_scooter", "fusion_lat": 0.0, "lat": 38.9223, "name": "841f4c5ec032fb7a705bce27b8a360df", "fusion_lon": 0.0, "bike_id": "841f4c5ec032fb7a705bce27b8a360df", "is_disabled": 0, "is_reserved": 0}, {"rental_uris": {"ios": "https://dc.lft.to/lastmile_qr_scan", "android": "https://dc.lft.to/lastmile_qr_scan"}, "lon": -77.01623583333334, "type": "electric_scooter", "fusion_lat": 0.0, "lat": 38.902473, "name": "8f06f63d14d96d28831673a0e3f7d20c", "fusion_lon": 0.0, "bike_id": "8f06f63d14d96d28831673a0e3f7d20c", "is_disabled": 0, "is_reserved": 0}, {"rental_uris": {"ios": "https://dc.lft.to/lastmile_qr_scan", "android": "https://dc.lft.to/lastmile_qr_scan"}, "lon": -77.017425, "type": "electric_scooter", "fusion_lat": 0.0, "lat": 38.8833, "name": "e0e379f2a9ee5ba6946b8c7440dc081a", "fusion_lon": 0.0, "bike_id": "e0e379f2a9ee5ba6946b8c7440dc081a", "is_disabled": 0, "is_reserved": 0}, {"rental_uris": {"ios": "https://dc.lft.to/lastmile_qr_scan", "android": "https://dc.lft.to/lastmile_qr_scan"}, "lon": -77.02818033333334, "type": "electric_scooter", "fusion_lat": 0.0, "lat": 38.89621533333333, "name": "4c8931baef99b5bb9388c5fc548d7418", "fusion_lon": 0.0, "bike_id": "4c8931baef99b5bb9388c5fc548d7418", "is_disabled": 0, "is_reserved": 0}, {"rental_uris": {"ios": "https://dc.lft.to/lastmile_qr_scan", "android": "https://dc.lft.to/lastmile_qr_scan"}, "lon": -77.04502583333333, "type": "electric_scooter", "fusion_lat": 0.0, "lat": 38.91119666666667, "name": "782826bccc12c52eae4ecde444f1a169", "fusion_lon": 0.0, "bike_id": "782826bccc12c52eae4ecde444f1a169", "is_disabled": 0, "is_reserved": 0}, {"rental_uris": {"ios": "https://dc.lft.to/lastmile_qr_scan", "android": "https://dc.lft.to/lastmile_qr_scan"}, "lon": -77.032104, "type": "electric_scooter", "fusion_lat": 0.0, "lat": 38.91121416666667, "name": "151c941928868f4f0f78873e04637e52", "fusion_lon": 0.0, "bike_id": "151c941928868f4f0f78873e04637e52", "is_disabled": 0, "is_reserved": 0}, {"rental_uris": {"ios": "https://dc.lft.to/lastmile_qr_scan", "android": "https://dc.lft.to/lastmile_qr_scan"}, "lon": -77.0223075, "type": "electric_scooter", "fusion_lat": 0.0, "lat": 38.8919645, "name": "eb2526ab690d553904afcb1d79a05eba", "fusion_lon": 0.0, "bike_id": "eb2526ab690d553904afcb1d79a05eba", "is_disabled": 0, "is_reserved": 0}, {"rental_uris": {"ios": "https://dc.lft.to/lastmile_qr_scan", "android": "https://dc.lft.to/lastmile_qr_scan"}, "lon": -77.03205566666666, "type": "electric_scooter", "fusion_lat": 0.0, "lat": 38.91797, "name": "59392ce31a577fe33271abf0bbc1b437", "fusion_lon": 0.0, "bike_id": "59392ce31a577fe33271abf0bbc1b437", "is_disabled": 0, "is_reserved": 0}, {"rental_uris": {"ios": "https://dc.lft.to/lastmile_qr_scan", "android": "https://dc.lft.to/lastmile_qr_scan"}, "lon": -77.01110633333333, "type": "electric_scooter", "fusion_lat": 0.0, "lat": 38.90364683333333, "name": "9161440a021c3fae839bb5f84f9178e5", "fusion_lon": 0.0, "bike_id": "9161440a021c3fae839bb5f84f9178e5", "is_disabled": 0, "is_reserved": 0}, {"rental_uris": {"ios": "https://dc.lft.to/lastmile_qr_scan", "android": "https://dc.lft.to/lastmile_qr_scan"}, "lon": -77.03225683333334, "type": "electric_scooter", "fusion_lat": 0.0, "lat": 38.92587266666666, "name": "8ab86fda24d563381dad2e6a9e03711a", "fusion_lon": 0.0, "bike_id": "8ab86fda24d563381dad2e6a9e03711a", "is_disabled": 0, "is_reserved": 0}, {"rental_uris": {"ios": "https://dc.lft.to/lastmile_qr_scan", "android": "https://dc.lft.to/lastmile_qr_scan"}, "lon": -76.963796, "type": "electric_bike", "fusion_lat": 0.0, "lat": 38.949009, "name": "a2e947f2f1893e54d55e6c917974128d", "fusion_lon": 0.0, "bike_id": "a2e947f2f1893e54d55e6c917974128d", "is_disabled": 0, "is_reserved": 0}, {"rental_uris": {"ios": "https://dc.lft.to/lastmile_qr_scan", "android": "https://dc.lft.to/lastmile_qr_scan"}, "lon": -77.02476566666667, "type": "electric_scooter", "fusion_lat": 0.0, "lat": 38.93827116666667, "name": "73740f8d1ee76dd3d4aceb02ec1f2754", "fusion_lon": 0.0, "bike_id": "73740f8d1ee76dd3d4aceb02ec1f2754", "is_disabled": 0, "is_reserved": 0}, {"rental_uris": {"ios": "https://dc.lft.to/lastmile_qr_scan", "android": "https://dc.lft.to/lastmile_qr_scan"}, "lon": -76.96529783333334, "type": "electric_scooter", "fusion_lat": 0.0, "lat": 38.87626683333333, "name": "9215640222bb75142f3b9a45cf704345", "fusion_lon": 0.0, "bike_id": "9215640222bb75142f3b9a45cf704345", "is_disabled": 0, "is_reserved": 0}, {"rental_uris": {"ios": "https://dc.lft.to/lastmile_qr_scan", "android": "https://dc.lft.to/lastmile_qr_scan"}, "lon": -76.94757933333334, "type": "electric_scooter", "fusion_lat": 0.0, "lat": 38.900608, "name": "16ea4143036529ca005dbf95255b400d", "fusion_lon": 0.0, "bike_id": "16ea4143036529ca005dbf95255b400d", "is_disabled": 0, "is_reserved": 0}, {"rental_uris": {"ios": "https://dc.lft.to/lastmile_qr_scan", "android": "https://dc.lft.to/lastmile_qr_scan"}, "lon": -77.03644333333334, "type": "electric_scooter", "fusion_lat": 0.0, "lat": 38.917331, "name": "a84a1d87c578df0bcf623104c2aaf993", "fusion_lon": 0.0, "bike_id": "a84a1d87c578df0bcf623104c2aaf993", "is_disabled": 0, "is_reserved": 0}, {"rental_uris": {"ios": "https://dc.lft.to/lastmile_qr_scan", "android": "https://dc.lft.to/lastmile_qr_scan"}, "lon": -77.0502965, "type": "electric_scooter", "fusion_lat": 0.0, "lat": 38.900527833333335, "name": "bfb2575a0c12f99cee5fe270e9541f12", "fusion_lon": 0.0, "bike_id": "bfb2575a0c12f99cee5fe270e9541f12", "is_disabled": 0, "is_reserved": 0}, {"rental_uris": {"ios": "https://dc.lft.to/lastmile_qr_scan", "android": "https://dc.lft.to/lastmile_qr_scan"}, "lon": -76.90437033333333, "type": "electric_bike", "fusion_lat": 0.0, "lat": 38.8977685, "name": "4ecd67681633ed32cf1297d5019683ce", "fusion_lon": 0.0, "bike_id": "4ecd67681633ed32cf1297d5019683ce", "is_disabled": 0, "is_reserved": 0}, {"rental_uris": {"ios": "https://dc.lft.to/lastmile_qr_scan", "android": "https://dc.lft.to/lastmile_qr_scan"}, "lon": -76.981595, "type": "electric_scooter", "fusion_lat": 0.0, "lat": 38.93296683333333, "name": "8b61b909841aa695ca040026e0fd79da", "fusion_lon": 0.0, "bike_id": "8b61b909841aa695ca040026e0fd79da", "is_disabled": 0, "is_reserved": 0}, {"rental_uris": {"ios": "https://dc.lft.to/lastmile_qr_scan", "android": "https://dc.lft.to/lastmile_qr_scan"}, "lon": -77.03842183333333, "type": "electric_scooter", "fusion_lat": 0.0, "lat": 38.907642, "name": "7535cbe142a0fde180e11be4f7cf8897", "fusion_lon": 0.0, "bike_id": "7535cbe142a0fde180e11be4f7cf8897", "is_disabled": 0, "is_reserved": 0}, {"rental_uris": {"ios": "https://dc.lft.to/lastmile_qr_scan", "android": "https://dc.lft.to/lastmile_qr_scan"}, "lon": -76.99505066666667, "type": "electric_scooter", "fusion_lat": 0.0, "lat": 38.92707133333333, "name": "49b3c136fe74bd8563ab3c93a2f56856", "fusion_lon": 0.0, "bike_id": "49b3c136fe74bd8563ab3c93a2f56856", "is_disabled": 0, "is_reserved": 0}, {"rental_uris": {"ios": "https://dc.lft.to/lastmile_qr_scan", "android": "https://dc.lft.to/lastmile_qr_scan"}, "lon": -77.01743366666666, "type": "electric_scooter", "fusion_lat": 0.0, "lat": 38.883369333333334, "name": "057d40a2aac3696a8719d7539c8ed551", "fusion_lon": 0.0, "bike_id": "057d40a2aac3696a8719d7539c8ed551", "is_disabled": 0, "is_reserved": 0}, {"rental_uris": {"ios": "https://dc.lft.to/lastmile_qr_scan", "android": "https://dc.lft.to/lastmile_qr_scan"}, "lon": -77.0068285, "type": "electric_scooter", "fusion_lat": 0.0, "lat": 38.916926833333335, "name": "eff155d9178bfe889fcade8e4ef1bdb9", "fusion_lon": 0.0, "bike_id": "eff155d9178bfe889fcade8e4ef1bdb9", "is_disabled": 0, "is_reserved": 0}, {"rental_uris": {"ios": "https://dc.lft.to/lastmile_qr_scan", "android": "https://dc.lft.to/lastmile_qr_scan"}, "lon": -77.0222005, "type": "electric_scooter", "fusion_lat": 0.0, "lat": 38.8976185, "name": "9e78e249c6289ccdeaa9ade71ae1561a", "fusion_lon": 0.0, "bike_id": "9e78e249c6289ccdeaa9ade71ae1561a", "is_disabled": 0, "is_reserved": 0}, {"rental_uris": {"ios": "https://dc.lft.to/lastmile_qr_scan", "android": "https://dc.lft.to/lastmile_qr_scan"}, "lon": -77.03181616666667, "type": "electric_scooter", "fusion_lat": 0.0, "lat": 38.91802066666666, "name": "ca50f18054283a648d6782d98b2bcfe8", "fusion_lon": 0.0, "bike_id": "ca50f18054283a648d6782d98b2bcfe8", "is_disabled": 0, "is_reserved": 0}, {"rental_uris": {"ios": "https://dc.lft.to/lastmile_qr_scan", "android": "https://dc.lft.to/lastmile_qr_scan"}, "lon": -77.04200783333333, "type": "electric_scooter", "fusion_lat": 0.0, "lat": 38.9211055, "name": "e66355cabade4b974ab12c9125ee67e4", "fusion_lon": 0.0, "bike_id": "e66355cabade4b974ab12c9125ee67e4", "is_disabled": 0, "is_reserved": 0}, {"rental_uris": {"ios": "https://dc.lft.to/lastmile_qr_scan", "android": "https://dc.lft.to/lastmile_qr_scan"}, "lon": -77.0425495, "type": "electric_scooter", "fusion_lat": 0.0, "lat": 38.92430566666667, "name": "76a6fcaff335dae06e0ce597633cf833", "fusion_lon": 0.0, "bike_id": "76a6fcaff335dae06e0ce597633cf833", "is_disabled": 0, "is_reserved": 0}, {"rental_uris": {"ios": "https://dc.lft.to/lastmile_qr_scan", "android": "https://dc.lft.to/lastmile_qr_scan"}, "lon": -77.04685966666666, "type": "electric_scooter", "fusion_lat": 0.0, "lat": 38.892228833333334, "name": "1974fc4b5afea5d27ee75ffc5b7e7761", "fusion_lon": 0.0, "bike_id": "1974fc4b5afea5d27ee75ffc5b7e7761", "is_disabled": 0, "is_reserved": 0}, {"rental_uris": {"ios": "https://dc.lft.to/lastmile_qr_scan", "android": "https://dc.lft.to/lastmile_qr_scan"}, "lon": -77.019662, "type": "electric_scooter", "fusion_lat": 0.0, "lat": 38.934206833333334, "name": "faa4eb2185f9d1cea262f1df54ab5e04", "fusion_lon": 0.0, "bike_id": "faa4eb2185f9d1cea262f1df54ab5e04", "is_disabled": 0, "is_reserved": 0}, {"rental_uris": {"ios": "https://dc.lft.to/lastmile_qr_scan", "android": "https://dc.lft.to/lastmile_qr_scan"}, "lon": -77.04831883333334, "type": "electric_scooter", "fusion_lat": 0.0, "lat": 38.9203215, "name": "1f60733f86a41bf94e497ba82267a0a2", "fusion_lon": 0.0, "bike_id": "1f60733f86a41bf94e497ba82267a0a2", "is_disabled": 0, "is_reserved": 0}, {"rental_uris": {"ios": "https://dc.lft.to/lastmile_qr_scan", "android": "https://dc.lft.to/lastmile_qr_scan"}, "lon": -77.03907166666667, "type": "electric_scooter", "fusion_lat": 0.0, "lat": 38.9141735, "name": "9eac6955c8a5fa158bf63c2155ecbd06", "fusion_lon": 0.0, "bike_id": "9eac6955c8a5fa158bf63c2155ecbd06", "is_disabled": 0, "is_reserved": 0}, {"rental_uris": {"ios": "https://dc.lft.to/lastmile_qr_scan", "android": "https://dc.lft.to/lastmile_qr_scan"}, "lon": -77.03660666666667, "type": "electric_scooter", "fusion_lat": 0.0, "lat": 38.921258, "name": "80f119a0f6488ded697ab20a2350bafa", "fusion_lon": 0.0, "bike_id": "80f119a0f6488ded697ab20a2350bafa", "is_disabled": 0, "is_reserved": 0}, {"rental_uris": {"ios": "https://dc.lft.to/lastmile_qr_scan", "android": "https://dc.lft.to/lastmile_qr_scan"}, "lon": -76.99070383333333, "type": "electric_scooter", "fusion_lat": 0.0, "lat": 38.86363266666667, "name": "4e0c5aa8bf712e8fd85da8f1120591e9", "fusion_lon": 0.0, "bike_id": "4e0c5aa8bf712e8fd85da8f1120591e9", "is_disabled": 0, "is_reserved": 0}, {"rental_uris": {"ios": "https://dc.lft.to/lastmile_qr_scan", "android": "https://dc.lft.to/lastmile_qr_scan"}, "lon": -76.99083166666667, "type": "electric_scooter", "fusion_lat": 0.0, "lat": 38.89356866666667, "name": "f3dd58a09a316e7ea2d35d00d34c7632", "fusion_lon": 0.0, "bike_id": "f3dd58a09a316e7ea2d35d00d34c7632", "is_disabled": 0, "is_reserved": 0}, {"rental_uris": {"ios": "https://dc.lft.to/lastmile_qr_scan", "android": "https://dc.lft.to/lastmile_qr_scan"}, "lon": -77.03891366666667, "type": "electric_scooter", "fusion_lat": 0.0, "lat": 38.9326225, "name": "a1fd80b8f74eeec7b1531a90139563db", "fusion_lon": 0.0, "bike_id": "a1fd80b8f74eeec7b1531a90139563db", "is_disabled": 0, "is_reserved": 0}, {"rental_uris": {"ios": "https://dc.lft.to/lastmile_qr_scan", "android": "https://dc.lft.to/lastmile_qr_scan"}, "lon": -77.05830433333334, "type": "electric_scooter", "fusion_lat": 0.0, "lat": 38.93423666666666, "name": "be3c8cdaf31c2123e51f34a8f4578db1", "fusion_lon": 0.0, "bike_id": "be3c8cdaf31c2123e51f34a8f4578db1", "is_disabled": 0, "is_reserved": 0}, {"rental_uris": {"ios": "https://dc.lft.to/lastmile_qr_scan", "android": "https://dc.lft.to/lastmile_qr_scan"}, "lon": -77.03566583333334, "type": "electric_scooter", "fusion_lat": 0.0, "lat": 38.918113166666664, "name": "b910c23aab94c8817c1630ef87a446ba", "fusion_lon": 0.0, "bike_id": "b910c23aab94c8817c1630ef87a446ba", "is_disabled": 0, "is_reserved": 0}, {"rental_uris": {"ios": "https://dc.lft.to/lastmile_qr_scan", "android": "https://dc.lft.to/lastmile_qr_scan"}, "lon": -77.0222055, "type": "electric_scooter", "fusion_lat": 0.0, "lat": 38.89215133333333, "name": "1b11e3918ce7effb561ca7bfd036e21c", "fusion_lon": 0.0, "bike_id": "1b11e3918ce7effb561ca7bfd036e21c", "is_disabled": 0, "is_reserved": 0}, {"rental_uris": {"ios": "https://dc.lft.to/lastmile_qr_scan", "android": "https://dc.lft.to/lastmile_qr_scan"}, "lon": -77.05588116666667, "type": "electric_scooter", "fusion_lat": 0.0, "lat": 38.9278605, "name": "f50a505994ac362f45a7780a77348aa4", "fusion_lon": 0.0, "bike_id": "f50a505994ac362f45a7780a77348aa4", "is_disabled": 0, "is_reserved": 0}, {"rental_uris": {"ios": "https://dc.lft.to/lastmile_qr_scan", "android": "https://dc.lft.to/lastmile_qr_scan"}, "lon": -77.02216433333334, "type": "electric_scooter", "fusion_lat": 0.0, "lat": 38.91271066666667, "name": "acde2dc936f4ad191d4d886cc3543673", "fusion_lon": 0.0, "bike_id": "acde2dc936f4ad191d4d886cc3543673", "is_disabled": 0, "is_reserved": 0}, {"rental_uris": {"ios": "https://dc.lft.to/lastmile_qr_scan", "android": "https://dc.lft.to/lastmile_qr_scan"}, "lon": -77.04277266666666, "type": "electric_scooter", "fusion_lat": 0.0, "lat": 38.9086705, "name": "2d611ee19987a41f9063f37fee65a5e7", "fusion_lon": 0.0, "bike_id": "2d611ee19987a41f9063f37fee65a5e7", "is_disabled": 0, "is_reserved": 0}, {"rental_uris": {"ios": "https://dc.lft.to/lastmile_qr_scan", "android": "https://dc.lft.to/lastmile_qr_scan"}, "lon": -77.03337166666667, "type": "electric_scooter", "fusion_lat": 0.0, "lat": 38.91931183333333, "name": "d0f780059ad4d56473cca5e04e5c7b51", "fusion_lon": 0.0, "bike_id": "d0f780059ad4d56473cca5e04e5c7b51", "is_disabled": 0, "is_reserved": 0}, {"rental_uris": {"ios": "https://dc.lft.to/lastmile_qr_scan", "android": "https://dc.lft.to/lastmile_qr_scan"}, "lon": -77.095248, "type": "electric_bike", "fusion_lat": 0.0, "lat": 38.83814183333333, "name": "f7e4b112c9e5fc31b6d97224f6c1b564", "fusion_lon": 0.0, "bike_id": "f7e4b112c9e5fc31b6d97224f6c1b564", "is_disabled": 0, "is_reserved": 0}, {"rental_uris": {"ios": "https://dc.lft.to/lastmile_qr_scan", "android": "https://dc.lft.to/lastmile_qr_scan"}, "lon": -77.02132533333334, "type": "electric_scooter", "fusion_lat": 0.0, "lat": 38.9156305, "name": "b6ba06f7d5d43927abe051d351fdab05", "fusion_lon": 0.0, "bike_id": "b6ba06f7d5d43927abe051d351fdab05", "is_disabled": 0, "is_reserved": 0}, {"rental_uris": {"ios": "https://dc.lft.to/lastmile_qr_scan", "android": "https://dc.lft.to/lastmile_qr_scan"}, "lon": -77.0450685, "type": "electric_scooter", "fusion_lat": 0.0, "lat": 38.9127925, "name": "402a546a20ec297ba917c110a2b30491", "fusion_lon": 0.0, "bike_id": "402a546a20ec297ba917c110a2b30491", "is_disabled": 0, "is_reserved": 0}, {"rental_uris": {"ios": "https://dc.lft.to/lastmile_qr_scan", "android": "https://dc.lft.to/lastmile_qr_scan"}, "lon": -77.041208, "type": "electric_scooter", "fusion_lat": 0.0, "lat": 38.92147666666666, "name": "dc7705b2bdb87ea2e655db8d671c3652", "fusion_lon": 0.0, "bike_id": "dc7705b2bdb87ea2e655db8d671c3652", "is_disabled": 0, "is_reserved": 0}, {"rental_uris": {"ios": "https://dc.lft.to/lastmile_qr_scan", "android": "https://dc.lft.to/lastmile_qr_scan"}, "lon": -77.01739416666666, "type": "electric_scooter", "fusion_lat": 0.0, "lat": 38.903913, "name": "17d6ef71f8bffaa5cd9236035f5bc642", "fusion_lon": 0.0, "bike_id": "17d6ef71f8bffaa5cd9236035f5bc642", "is_disabled": 0, "is_reserved": 0}, {"rental_uris": {"ios": "https://dc.lft.to/lastmile_qr_scan", "android": "https://dc.lft.to/lastmile_qr_scan"}, "lon": -76.9573925, "type": "electric_scooter", "fusion_lat": 0.0, "lat": 38.891853166666664, "name": "8850b6108eef827470798762a352f9da", "fusion_lon": 0.0, "bike_id": "8850b6108eef827470798762a352f9da", "is_disabled": 0, "is_reserved": 0}, {"rental_uris": {"ios": "https://dc.lft.to/lastmile_qr_scan", "android": "https://dc.lft.to/lastmile_qr_scan"}, "lon": -76.98619833333333, "type": "electric_scooter", "fusion_lat": 0.0, "lat": 38.868218666666664, "name": "4c7ae551a76325b990c8337d6ef6622c", "fusion_lon": 0.0, "bike_id": "4c7ae551a76325b990c8337d6ef6622c", "is_disabled": 0, "is_reserved": 0}, {"rental_uris": {"ios": "https://dc.lft.to/lastmile_qr_scan", "android": "https://dc.lft.to/lastmile_qr_scan"}, "lon": -77.0326475, "type": "electric_scooter", "fusion_lat": 0.0, "lat": 38.925565, "name": "a111ac9514cddded4ea3379437004762", "fusion_lon": 0.0, "bike_id": "a111ac9514cddded4ea3379437004762", "is_disabled": 0, "is_reserved": 0}, {"rental_uris": {"ios": "https://dc.lft.to/lastmile_qr_scan", "android": "https://dc.lft.to/lastmile_qr_scan"}, "lon": -77.047352, "type": "electric_bike", "fusion_lat": 0.0, "lat": 38.90577316666667, "name": "b5a8fa3505040f895df07b8845e32613", "fusion_lon": 0.0, "bike_id": "b5a8fa3505040f895df07b8845e32613", "is_disabled": 0, "is_reserved": 0}, {"rental_uris": {"ios": "https://dc.lft.to/lastmile_qr_scan", "android": "https://dc.lft.to/lastmile_qr_scan"}, "lon": -77.04714016666667, "type": "electric_scooter", "fusion_lat": 0.0, "lat": 38.92241583333333, "name": "829d64a7f19ecb66e05073128eada50b", "fusion_lon": 0.0, "bike_id": "829d64a7f19ecb66e05073128eada50b", "is_disabled": 0, "is_reserved": 0}, {"rental_uris": {"ios": "https://dc.lft.to/lastmile_qr_scan", "android": "https://dc.lft.to/lastmile_qr_scan"}, "lon": -77.0194935, "type": "electric_scooter", "fusion_lat": 0.0, "lat": 38.9241805, "name": "202e7ad59b5f4b2c54238582cc81e88d", "fusion_lon": 0.0, "bike_id": "202e7ad59b5f4b2c54238582cc81e88d", "is_disabled": 0, "is_reserved": 0}, {"rental_uris": {"ios": "https://dc.lft.to/lastmile_qr_scan", "android": "https://dc.lft.to/lastmile_qr_scan"}, "lon": -77.01769033333333, "type": "electric_scooter", "fusion_lat": 0.0, "lat": 38.921154, "name": "415b3815db3f2ca9b0de2b07e80095bf", "fusion_lon": 0.0, "bike_id": "415b3815db3f2ca9b0de2b07e80095bf", "is_disabled": 0, "is_reserved": 0}, {"rental_uris": {"ios": "https://dc.lft.to/lastmile_qr_scan", "android": "https://dc.lft.to/lastmile_qr_scan"}, "lon": -77.01630583333333, "type": "electric_scooter", "fusion_lat": 0.0, "lat": 38.89966166666667, "name": "430bda7f9ed0e448c4007f9ac93b2b5b", "fusion_lon": 0.0, "bike_id": "430bda7f9ed0e448c4007f9ac93b2b5b", "is_disabled": 0, "is_reserved": 0}, {"rental_uris": {"ios": "https://dc.lft.to/lastmile_qr_scan", "android": "https://dc.lft.to/lastmile_qr_scan"}, "lon": -77.03508516666666, "type": "electric_scooter", "fusion_lat": 0.0, "lat": 38.921500333333334, "name": "7ad4b0dd98c9863dea2e6a7c3fbf4121", "fusion_lon": 0.0, "bike_id": "7ad4b0dd98c9863dea2e6a7c3fbf4121", "is_disabled": 0, "is_reserved": 0}, {"rental_uris": {"ios": "https://dc.lft.to/lastmile_qr_scan", "android": "https://dc.lft.to/lastmile_qr_scan"}, "lon": -77.055032, "type": "electric_scooter", "fusion_lat": 0.0, "lat": 38.929801499999996, "name": "dc9a9d56b794641ee6794c07a83221da", "fusion_lon": 0.0, "bike_id": "dc9a9d56b794641ee6794c07a83221da", "is_disabled": 0, "is_reserved": 0}, {"rental_uris": {"ios": "https://dc.lft.to/lastmile_qr_scan", "android": "https://dc.lft.to/lastmile_qr_scan"}, "lon": -77.031107, "type": "electric_scooter", "fusion_lat": 0.0, "lat": 38.914176, "name": "9e4ba08fe872b693725b4697569c60f6", "fusion_lon": 0.0, "bike_id": "9e4ba08fe872b693725b4697569c60f6", "is_disabled": 0, "is_reserved": 0}, {"rental_uris": {"ios": "https://dc.lft.to/lastmile_qr_scan", "android": "https://dc.lft.to/lastmile_qr_scan"}, "lon": -77.0379965, "type": "electric_scooter", "fusion_lat": 0.0, "lat": 38.9015895, "name": "8614b78226f7176210b1808b2987faac", "fusion_lon": 0.0, "bike_id": "8614b78226f7176210b1808b2987faac", "is_disabled": 0, "is_reserved": 0}, {"rental_uris": {"ios": "https://dc.lft.to/lastmile_qr_scan", "android": "https://dc.lft.to/lastmile_qr_scan"}, "lon": -77.02187, "type": "electric_scooter", "fusion_lat": 0.0, "lat": 38.90542766666667, "name": "c45c9ed4825bf778f43da89f39f59365", "fusion_lon": 0.0, "bike_id": "c45c9ed4825bf778f43da89f39f59365", "is_disabled": 0, "is_reserved": 0}, {"rental_uris": {"ios": "https://dc.lft.to/lastmile_qr_scan", "android": "https://dc.lft.to/lastmile_qr_scan"}, "lon": -76.94894, "type": "electric_scooter", "fusion_lat": 0.0, "lat": 38.895314666666664, "name": "c5e5ddfb76c1da4272072f667b53823e", "fusion_lon": 0.0, "bike_id": "c5e5ddfb76c1da4272072f667b53823e", "is_disabled": 0, "is_reserved": 0}, {"rental_uris": {"ios": "https://dc.lft.to/lastmile_qr_scan", "android": "https://dc.lft.to/lastmile_qr_scan"}, "lon": -77.02729083333334, "type": "electric_scooter", "fusion_lat": 0.0, "lat": 38.916970166666665, "name": "9e2964a6e9d7e5e9c88d16d137292f5e", "fusion_lon": 0.0, "bike_id": "9e2964a6e9d7e5e9c88d16d137292f5e", "is_disabled": 0, "is_reserved": 0}, {"rental_uris": {"ios": "https://dc.lft.to/lastmile_qr_scan", "android": "https://dc.lft.to/lastmile_qr_scan"}, "lon": -77.05292, "type": "electric_scooter", "fusion_lat": 0.0, "lat": 38.918929, "name": "d2ed95d2ff6d68188564a42bcf327d68", "fusion_lon": 0.0, "bike_id": "d2ed95d2ff6d68188564a42bcf327d68", "is_disabled": 0, "is_reserved": 0}, {"rental_uris": {"ios": "https://dc.lft.to/lastmile_qr_scan", "android": "https://dc.lft.to/lastmile_qr_scan"}, "lon": -77.00863466666667, "type": "electric_bike", "fusion_lat": 0.0, "lat": 38.827345, "name": "19f1fbdfcd63ef149f1812b0276796a4", "fusion_lon": 0.0, "bike_id": "19f1fbdfcd63ef149f1812b0276796a4", "is_disabled": 0, "is_reserved": 0}, {"rental_uris": {"ios": "https://dc.lft.to/lastmile_qr_scan", "android": "https://dc.lft.to/lastmile_qr_scan"}, "lon": -76.9900375, "type": "electric_scooter", "fusion_lat": 0.0, "lat": 38.8650675, "name": "290c093b5bb045c5431d9ba557516b12", "fusion_lon": 0.0, "bike_id": "290c093b5bb045c5431d9ba557516b12", "is_disabled": 0, "is_reserved": 0}, {"rental_uris": {"ios": "https://dc.lft.to/lastmile_qr_scan", "android": "https://dc.lft.to/lastmile_qr_scan"}, "lon": -77.07068233333334, "type": "electric_scooter", "fusion_lat": 0.0, "lat": 38.95220666666667, "name": "8c278fd97c88dbfc5b055c6e7a434f6a", "fusion_lon": 0.0, "bike_id": "8c278fd97c88dbfc5b055c6e7a434f6a", "is_disabled": 0, "is_reserved": 0}, {"rental_uris": {"ios": "https://dc.lft.to/lastmile_qr_scan", "android": "https://dc.lft.to/lastmile_qr_scan"}, "lon": -77.0419305, "type": "electric_scooter", "fusion_lat": 0.0, "lat": 38.90336716666667, "name": "78dfaa856dcc31091cbd56c2cf4f2154", "fusion_lon": 0.0, "bike_id": "78dfaa856dcc31091cbd56c2cf4f2154", "is_disabled": 0, "is_reserved": 0}, {"rental_uris": {"ios": "https://dc.lft.to/lastmile_qr_scan", "android": "https://dc.lft.to/lastmile_qr_scan"}, "lon": -77.05401216666667, "type": "electric_scooter", "fusion_lat": 0.0, "lat": 38.902593, "name": "ff8db54e7d2851a32f6b97971c9b7c87", "fusion_lon": 0.0, "bike_id": "ff8db54e7d2851a32f6b97971c9b7c87", "is_disabled": 0, "is_reserved": 0}, {"rental_uris": {"ios": "https://dc.lft.to/lastmile_qr_scan", "android": "https://dc.lft.to/lastmile_qr_scan"}, "lon": -77.0020955, "type": "electric_bike", "fusion_lat": 0.0, "lat": 38.883053333333336, "name": "7cc770417f9a2d95910725134bf79608", "fusion_lon": 0.0, "bike_id": "7cc770417f9a2d95910725134bf79608", "is_disabled": 0, "is_reserved": 0}, {"rental_uris": {"ios": "https://dc.lft.to/lastmile_qr_scan", "android": "https://dc.lft.to/lastmile_qr_scan"}, "lon": -77.03122716666667, "type": "electric_scooter", "fusion_lat": 0.0, "lat": 38.913332, "name": "4afe3c4b3ef493fc951b72a4a44c83f0", "fusion_lon": 0.0, "bike_id": "4afe3c4b3ef493fc951b72a4a44c83f0", "is_disabled": 0, "is_reserved": 0}, {"rental_uris": {"ios": "https://dc.lft.to/lastmile_qr_scan", "android": "https://dc.lft.to/lastmile_qr_scan"}, "lon": -77.02895933333333, "type": "electric_scooter", "fusion_lat": 0.0, "lat": 38.9256985, "name": "863de7e8e44af7e1680664fe3bf90d1d", "fusion_lon": 0.0, "bike_id": "863de7e8e44af7e1680664fe3bf90d1d", "is_disabled": 0, "is_reserved": 0}, {"rental_uris": {"ios": "https://dc.lft.to/lastmile_qr_scan", "android": "https://dc.lft.to/lastmile_qr_scan"}, "lon": -77.05888016666667, "type": "electric_scooter", "fusion_lat": 0.0, "lat": 38.93635783333333, "name": "763477ef3310489a2e2c27e36157d536", "fusion_lon": 0.0, "bike_id": "763477ef3310489a2e2c27e36157d536", "is_disabled": 0, "is_reserved": 0}, {"rental_uris": {"ios": "https://dc.lft.to/lastmile_qr_scan", "android": "https://dc.lft.to/lastmile_qr_scan"}, "lon": -76.976323, "type": "electric_scooter", "fusion_lat": 0.0, "lat": 38.90574733333333, "name": "5a0d074248629f74ae93228f4ee1aed6", "fusion_lon": 0.0, "bike_id": "5a0d074248629f74ae93228f4ee1aed6", "is_disabled": 0, "is_reserved": 0}, {"rental_uris": {"ios": "https://dc.lft.to/lastmile_qr_scan", "android": "https://dc.lft.to/lastmile_qr_scan"}, "lon": -77.0520795, "type": "electric_scooter", "fusion_lat": 0.0, "lat": 38.92442166666667, "name": "ca46f6af7e2f2496c52aead5fcf4391b", "fusion_lon": 0.0, "bike_id": "ca46f6af7e2f2496c52aead5fcf4391b", "is_disabled": 0, "is_reserved": 0}, {"rental_uris": {"ios": "https://dc.lft.to/lastmile_qr_scan", "android": "https://dc.lft.to/lastmile_qr_scan"}, "lon": -77.0334365, "type": "electric_bike", "fusion_lat": 0.0, "lat": 38.96804866666667, "name": "479b7e0f4fb0b6f3c4d7312eaeb756fc", "fusion_lon": 0.0, "bike_id": "479b7e0f4fb0b6f3c4d7312eaeb756fc", "is_disabled": 0, "is_reserved": 0}, {"rental_uris": {"ios": "https://dc.lft.to/lastmile_qr_scan", "android": "https://dc.lft.to/lastmile_qr_scan"}, "lon": -76.99483266666667, "type": "electric_bike", "fusion_lat": 0.0, "lat": 38.89988783333333, "name": "c80d689ceeab253c28474c5f76c57ce1", "fusion_lon": 0.0, "bike_id": "c80d689ceeab253c28474c5f76c57ce1", "is_disabled": 0, "is_reserved": 0}, {"rental_uris": {"ios": "https://dc.lft.to/lastmile_qr_scan", "android": "https://dc.lft.to/lastmile_qr_scan"}, "lon": -76.994983, "type": "electric_scooter", "fusion_lat": 0.0, "lat": 38.8624385, "name": "96d158c97fc0336c6c3f2991ed722f49", "fusion_lon": 0.0, "bike_id": "96d158c97fc0336c6c3f2991ed722f49", "is_disabled": 0, "is_reserved": 0}, {"rental_uris": {"ios": "https://dc.lft.to/lastmile_qr_scan", "android": "https://dc.lft.to/lastmile_qr_scan"}, "lon": -77.04687483333333, "type": "electric_scooter", "fusion_lat": 0.0, "lat": 38.89607, "name": "eb4cacd1b9ac1fe1242f13abafbb9583", "fusion_lon": 0.0, "bike_id": "eb4cacd1b9ac1fe1242f13abafbb9583", "is_disabled": 0, "is_reserved": 0}, {"rental_uris": {"ios": "https://dc.lft.to/lastmile_qr_scan", "android": "https://dc.lft.to/lastmile_qr_scan"}, "lon": -77.04784483333333, "type": "electric_scooter", "fusion_lat": 0.0, "lat": 38.908502166666665, "name": "e48b033ee4b1be48890d3b7e0041f0c4", "fusion_lon": 0.0, "bike_id": "e48b033ee4b1be48890d3b7e0041f0c4", "is_disabled": 0, "is_reserved": 0}, {"rental_uris": {"ios": "https://dc.lft.to/lastmile_qr_scan", "android": "https://dc.lft.to/lastmile_qr_scan"}, "lon": -77.03868916666667, "type": "electric_scooter", "fusion_lat": 0.0, "lat": 38.915690166666664, "name": "d0d114e2d1a388778a08391c79864c3f", "fusion_lon": 0.0, "bike_id": "d0d114e2d1a388778a08391c79864c3f", "is_disabled": 0, "is_reserved": 0}, {"rental_uris": {"ios": "https://dc.lft.to/lastmile_qr_scan", "android": "https://dc.lft.to/lastmile_qr_scan"}, "lon": -77.0317185, "type": "electric_scooter", "fusion_lat": 0.0, "lat": 38.91118816666667, "name": "e336ce51e74cd71e405dae3e918028d2", "fusion_lon": 0.0, "bike_id": "e336ce51e74cd71e405dae3e918028d2", "is_disabled": 0, "is_reserved": 0}, {"rental_uris": {"ios": "https://dc.lft.to/lastmile_qr_scan", "android": "https://dc.lft.to/lastmile_qr_scan"}, "lon": -76.98679233333333, "type": "electric_scooter", "fusion_lat": 0.0, "lat": 38.8821615, "name": "3e44532074be57a16f0bec58a934b586", "fusion_lon": 0.0, "bike_id": "3e44532074be57a16f0bec58a934b586", "is_disabled": 0, "is_reserved": 0}, {"rental_uris": {"ios": "https://dc.lft.to/lastmile_qr_scan", "android": "https://dc.lft.to/lastmile_qr_scan"}, "lon": -77.03208766666667, "type": "electric_scooter", "fusion_lat": 0.0, "lat": 38.907706, "name": "06c752f649d274f0b488c80c9715e450", "fusion_lon": 0.0, "bike_id": "06c752f649d274f0b488c80c9715e450", "is_disabled": 0, "is_reserved": 0}, {"rental_uris": {"ios": "https://dc.lft.to/lastmile_qr_scan", "android": "https://dc.lft.to/lastmile_qr_scan"}, "lon": -77.0372685, "type": "electric_scooter", "fusion_lat": 0.0, "lat": 38.933629, "name": "e5ee635ee63974d62139d542ebc6a734", "fusion_lon": 0.0, "bike_id": "e5ee635ee63974d62139d542ebc6a734", "is_disabled": 0, "is_reserved": 0}, {"rental_uris": {"ios": "https://dc.lft.to/lastmile_qr_scan", "android": "https://dc.lft.to/lastmile_qr_scan"}, "lon": -77.05137783333333, "type": "electric_scooter", "fusion_lat": 0.0, "lat": 38.90251716666667, "name": "9e8a73d58ea05736312d50f799172893", "fusion_lon": 0.0, "bike_id": "9e8a73d58ea05736312d50f799172893", "is_disabled": 0, "is_reserved": 0}, {"rental_uris": {"ios": "https://dc.lft.to/lastmile_qr_scan", "android": "https://dc.lft.to/lastmile_qr_scan"}, "lon": -77.0220225, "type": "electric_scooter", "fusion_lat": 0.0, "lat": 38.895069166666666, "name": "8e7a26260358c2f5496e47b890cc42f4", "fusion_lon": 0.0, "bike_id": "8e7a26260358c2f5496e47b890cc42f4", "is_disabled": 0, "is_reserved": 0}, {"rental_uris": {"ios": "https://dc.lft.to/lastmile_qr_scan", "android": "https://dc.lft.to/lastmile_qr_scan"}, "lon": -77.02299616666667, "type": "electric_scooter", "fusion_lat": 0.0, "lat": 38.910858, "name": "515ea5472706a6eb61f4624cc2061373", "fusion_lon": 0.0, "bike_id": "515ea5472706a6eb61f4624cc2061373", "is_disabled": 0, "is_reserved": 0}, {"rental_uris": {"ios": "https://dc.lft.to/lastmile_qr_scan", "android": "https://dc.lft.to/lastmile_qr_scan"}, "lon": -77.03319716666667, "type": "electric_scooter", "fusion_lat": 0.0, "lat": 38.9204945, "name": "167a2a1abf1b7cca7ca5e2c77161b6eb", "fusion_lon": 0.0, "bike_id": "167a2a1abf1b7cca7ca5e2c77161b6eb", "is_disabled": 0, "is_reserved": 0}, {"rental_uris": {"ios": "https://dc.lft.to/lastmile_qr_scan", "android": "https://dc.lft.to/lastmile_qr_scan"}, "lon": -77.02965266666666, "type": "electric_scooter", "fusion_lat": 0.0, "lat": 38.88435, "name": "7e37ff1e4c267304a7e9b7b0b0a06047", "fusion_lon": 0.0, "bike_id": "7e37ff1e4c267304a7e9b7b0b0a06047", "is_disabled": 0, "is_reserved": 0}, {"rental_uris": {"ios": "https://dc.lft.to/lastmile_qr_scan", "android": "https://dc.lft.to/lastmile_qr_scan"}, "lon": -77.05136583333334, "type": "electric_scooter", "fusion_lat": 0.0, "lat": 38.905178, "name": "38470ec75e551da72f7f02ed9f6fa61c", "fusion_lon": 0.0, "bike_id": "38470ec75e551da72f7f02ed9f6fa61c", "is_disabled": 0, "is_reserved": 0}, {"rental_uris": {"ios": "https://dc.lft.to/lastmile_qr_scan", "android": "https://dc.lft.to/lastmile_qr_scan"}, "lon": -76.97814816666667, "type": "electric_scooter", "fusion_lat": 0.0, "lat": 38.906765166666666, "name": "ef5e9c0184c1b6c987adaf519da5bb91", "fusion_lon": 0.0, "bike_id": "ef5e9c0184c1b6c987adaf519da5bb91", "is_disabled": 0, "is_reserved": 0}, {"rental_uris": {"ios": "https://dc.lft.to/lastmile_qr_scan", "android": "https://dc.lft.to/lastmile_qr_scan"}, "lon": -76.93553333333334, "type": "electric_bike", "fusion_lat": 0.0, "lat": 38.9556835, "name": "4a9c765590735e8589a73dc2926cda4c", "fusion_lon": 0.0, "bike_id": "4a9c765590735e8589a73dc2926cda4c", "is_disabled": 0, "is_reserved": 0}, {"rental_uris": {"ios": "https://dc.lft.to/lastmile_qr_scan", "android": "https://dc.lft.to/lastmile_qr_scan"}, "lon": -77.0287475, "type": "electric_scooter", "fusion_lat": 0.0, "lat": 38.9134765, "name": "db1f16bca5ada00c121ebd7d2bf36b39", "fusion_lon": 0.0, "bike_id": "db1f16bca5ada00c121ebd7d2bf36b39", "is_disabled": 0, "is_reserved": 0}, {"rental_uris": {"ios": "https://dc.lft.to/lastmile_qr_scan", "android": "https://dc.lft.to/lastmile_qr_scan"}, "lon": -77.1226085, "type": "electric_bike", "fusion_lat": 0.0, "lat": 38.891948166666666, "name": "d5c22d66165cf86117e4eab5b91d20e7", "fusion_lon": 0.0, "bike_id": "d5c22d66165cf86117e4eab5b91d20e7", "is_disabled": 0, "is_reserved": 0}, {"rental_uris": {"ios": "https://dc.lft.to/lastmile_qr_scan", "android": "https://dc.lft.to/lastmile_qr_scan"}, "lon": -77.0768625, "type": "electric_bike", "fusion_lat": 0.0, "lat": 38.83191466666667, "name": "c74b44d7cf417590197bd0bcf4901f3b", "fusion_lon": 0.0, "bike_id": "c74b44d7cf417590197bd0bcf4901f3b", "is_disabled": 0, "is_reserved": 0}, {"rental_uris": {"ios": "https://dc.lft.to/lastmile_qr_scan", "android": "https://dc.lft.to/lastmile_qr_scan"}, "lon": -77.04379466666667, "type": "electric_scooter", "fusion_lat": 0.0, "lat": 38.9206675, "name": "2e3ce4d77ddf91e7ac6af9a993777573", "fusion_lon": 0.0, "bike_id": "2e3ce4d77ddf91e7ac6af9a993777573", "is_disabled": 0, "is_reserved": 0}, {"rental_uris": {"ios": "https://dc.lft.to/lastmile_qr_scan", "android": "https://dc.lft.to/lastmile_qr_scan"}, "lon": -77.03222016666666, "type": "electric_scooter", "fusion_lat": 0.0, "lat": 38.9258965, "name": "c211c5202529b4eb472a390329c0d0d3", "fusion_lon": 0.0, "bike_id": "c211c5202529b4eb472a390329c0d0d3", "is_disabled": 0, "is_reserved": 0}, {"rental_uris": {"ios": "https://dc.lft.to/lastmile_qr_scan", "android": "https://dc.lft.to/lastmile_qr_scan"}, "lon": -77.11210116666666, "type": "electric_bike", "fusion_lat": 0.0, "lat": 38.81310466666667, "name": "ebecea89496e54c446d6965fc8eadc09", "fusion_lon": 0.0, "bike_id": "ebecea89496e54c446d6965fc8eadc09", "is_disabled": 0, "is_reserved": 0}, {"rental_uris": {"ios": "https://dc.lft.to/lastmile_qr_scan", "android": "https://dc.lft.to/lastmile_qr_scan"}, "lon": -77.04807783333334, "type": "electric_scooter", "fusion_lat": 0.0, "lat": 38.89612866666667, "name": "8e9080c5e2857736736da30a8176cc59", "fusion_lon": 0.0, "bike_id": "8e9080c5e2857736736da30a8176cc59", "is_disabled": 0, "is_reserved": 0}, {"rental_uris": {"ios": "https://dc.lft.to/lastmile_qr_scan", "android": "https://dc.lft.to/lastmile_qr_scan"}, "lon": -77.044599, "type": "electric_scooter", "fusion_lat": 0.0, "lat": 38.91124, "name": "71dbfb886210f01572aee28a2d1f33c4", "fusion_lon": 0.0, "bike_id": "71dbfb886210f01572aee28a2d1f33c4", "is_disabled": 0, "is_reserved": 0}, {"rental_uris": {"ios": "https://dc.lft.to/lastmile_qr_scan", "android": "https://dc.lft.to/lastmile_qr_scan"}, "lon": -77.03394066666667, "type": "electric_scooter", "fusion_lat": 0.0, "lat": 38.9216375, "name": "69e5d85d1c0f20c3c20877c66ec80e83", "fusion_lon": 0.0, "bike_id": "69e5d85d1c0f20c3c20877c66ec80e83", "is_disabled": 0, "is_reserved": 0}, {"rental_uris": {"ios": "https://dc.lft.to/lastmile_qr_scan", "android": "https://dc.lft.to/lastmile_qr_scan"}, "lon": -76.9879505, "type": "electric_bike", "fusion_lat": 0.0, "lat": 38.9041965, "name": "94945c71bfd079b7c64d5c4081fe1a06", "fusion_lon": 0.0, "bike_id": "94945c71bfd079b7c64d5c4081fe1a06", "is_disabled": 0, "is_reserved": 0}, {"rental_uris": {"ios": "https://dc.lft.to/lastmile_qr_scan", "android": "https://dc.lft.to/lastmile_qr_scan"}, "lon": -77.01243633333333, "type": "electric_scooter", "fusion_lat": 0.0, "lat": 38.917134833333336, "name": "01f6b5a8ab3c44d8c17676c37431feb0", "fusion_lon": 0.0, "bike_id": "01f6b5a8ab3c44d8c17676c37431feb0", "is_disabled": 0, "is_reserved": 0}, {"rental_uris": {"ios": "https://dc.lft.to/lastmile_qr_scan", "android": "https://dc.lft.to/lastmile_qr_scan"}, "lon": -76.9547175, "type": "electric_bike", "fusion_lat": 0.0, "lat": 38.886417, "name": "6de9afa6cddefb7158bae64cdc6cc5df", "fusion_lon": 0.0, "bike_id": "6de9afa6cddefb7158bae64cdc6cc5df", "is_disabled": 0, "is_reserved": 0}, {"rental_uris": {"ios": "https://dc.lft.to/lastmile_qr_scan", "android": "https://dc.lft.to/lastmile_qr_scan"}, "lon": -77.0033185, "type": "electric_scooter", "fusion_lat": 0.0, "lat": 38.8972365, "name": "13712f1485265d5e39e3981e25354cf0", "fusion_lon": 0.0, "bike_id": "13712f1485265d5e39e3981e25354cf0", "is_disabled": 0, "is_reserved": 0}, {"rental_uris": {"ios": "https://dc.lft.to/lastmile_qr_scan", "android": "https://dc.lft.to/lastmile_qr_scan"}, "lon": -77.01209866666666, "type": "electric_scooter", "fusion_lat": 0.0, "lat": 38.914991, "name": "c915f14393fe42d6aa2601c479c6e4b6", "fusion_lon": 0.0, "bike_id": "c915f14393fe42d6aa2601c479c6e4b6", "is_disabled": 0, "is_reserved": 0}, {"rental_uris": {"ios": "https://dc.lft.to/lastmile_qr_scan", "android": "https://dc.lft.to/lastmile_qr_scan"}, "lon": -77.05984933333333, "type": "electric_scooter", "fusion_lat": 0.0, "lat": 38.935476, "name": "956742d3154fdecec283a5999d62700b", "fusion_lon": 0.0, "bike_id": "956742d3154fdecec283a5999d62700b", "is_disabled": 0, "is_reserved": 0}, {"rental_uris": {"ios": "https://dc.lft.to/lastmile_qr_scan", "android": "https://dc.lft.to/lastmile_qr_scan"}, "lon": -77.0521875, "type": "electric_scooter", "fusion_lat": 0.0, "lat": 38.89817433333333, "name": "72ce28a38b5cf146b406bcd0c596a37f", "fusion_lon": 0.0, "bike_id": "72ce28a38b5cf146b406bcd0c596a37f", "is_disabled": 0, "is_reserved": 0}, {"rental_uris": {"ios": "https://dc.lft.to/lastmile_qr_scan", "android": "https://dc.lft.to/lastmile_qr_scan"}, "lon": -77.11799433333333, "type": "electric_bike", "fusion_lat": 0.0, "lat": 38.89835, "name": "9360f1a1292676e59b0540794c648e8f", "fusion_lon": 0.0, "bike_id": "9360f1a1292676e59b0540794c648e8f", "is_disabled": 0, "is_reserved": 0}, {"rental_uris": {"ios": "https://dc.lft.to/lastmile_qr_scan", "android": "https://dc.lft.to/lastmile_qr_scan"}, "lon": -77.029657, "type": "electric_scooter", "fusion_lat": 0.0, "lat": 38.9256475, "name": "7527de41322b81e5ec27a3b6b48b0479", "fusion_lon": 0.0, "bike_id": "7527de41322b81e5ec27a3b6b48b0479", "is_disabled": 0, "is_reserved": 0}, {"rental_uris": {"ios": "https://dc.lft.to/lastmile_qr_scan", "android": "https://dc.lft.to/lastmile_qr_scan"}, "lon": -77.0385255, "type": "electric_scooter", "fusion_lat": 0.0, "lat": 38.92647066666667, "name": "ed48fdadb4229b017789f9f346d5cfea", "fusion_lon": 0.0, "bike_id": "ed48fdadb4229b017789f9f346d5cfea", "is_disabled": 0, "is_reserved": 0}, {"rental_uris": {"ios": "https://dc.lft.to/lastmile_qr_scan", "android": "https://dc.lft.to/lastmile_qr_scan"}, "lon": -77.015129, "type": "electric_scooter", "fusion_lat": 0.0, "lat": 38.887401833333335, "name": "85808f4eb15596d4e6a12e7026fcffdb", "fusion_lon": 0.0, "bike_id": "85808f4eb15596d4e6a12e7026fcffdb", "is_disabled": 0, "is_reserved": 0}, {"rental_uris": {"ios": "https://dc.lft.to/lastmile_qr_scan", "android": "https://dc.lft.to/lastmile_qr_scan"}, "lon": -77.02707566666666, "type": "electric_scooter", "fusion_lat": 0.0, "lat": 38.918114833333334, "name": "1dcc11c856736e5e090c78dccb4a2261", "fusion_lon": 0.0, "bike_id": "1dcc11c856736e5e090c78dccb4a2261", "is_disabled": 0, "is_reserved": 0}, {"rental_uris": {"ios": "https://dc.lft.to/lastmile_qr_scan", "android": "https://dc.lft.to/lastmile_qr_scan"}, "lon": -77.04616016666667, "type": "electric_scooter", "fusion_lat": 0.0, "lat": 38.919037, "name": "c73be01c27bcff8846899d5b4f7b9c30", "fusion_lon": 0.0, "bike_id": "c73be01c27bcff8846899d5b4f7b9c30", "is_disabled": 0, "is_reserved": 0}, {"rental_uris": {"ios": "https://dc.lft.to/lastmile_qr_scan", "android": "https://dc.lft.to/lastmile_qr_scan"}, "lon": -77.00942883333333, "type": "electric_scooter", "fusion_lat": 0.0, "lat": 38.87191416666667, "name": "f52075b06c35a1b96601746e24ffc9f8", "fusion_lon": 0.0, "bike_id": "f52075b06c35a1b96601746e24ffc9f8", "is_disabled": 0, "is_reserved": 0}, {"rental_uris": {"ios": "https://dc.lft.to/lastmile_qr_scan", "android": "https://dc.lft.to/lastmile_qr_scan"}, "lon": -76.97461966666667, "type": "electric_scooter", "fusion_lat": 0.0, "lat": 38.86542983333333, "name": "f92376e9c5cce4b571b90af25382b5ae", "fusion_lon": 0.0, "bike_id": "f92376e9c5cce4b571b90af25382b5ae", "is_disabled": 0, "is_reserved": 0}, {"rental_uris": {"ios": "https://dc.lft.to/lastmile_qr_scan", "android": "https://dc.lft.to/lastmile_qr_scan"}, "lon": -77.03205283333334, "type": "electric_scooter", "fusion_lat": 0.0, "lat": 38.9002505, "name": "6d2bcaaaa4f71d4f8f47141fae078703", "fusion_lon": 0.0, "bike_id": "6d2bcaaaa4f71d4f8f47141fae078703", "is_disabled": 0, "is_reserved": 0}, {"rental_uris": {"ios": "https://dc.lft.to/lastmile_qr_scan", "android": "https://dc.lft.to/lastmile_qr_scan"}, "lon": -76.99065216666666, "type": "electric_scooter", "fusion_lat": 0.0, "lat": 38.86361483333334, "name": "954da3af5c6c3b1617014f86173431c7", "fusion_lon": 0.0, "bike_id": "954da3af5c6c3b1617014f86173431c7", "is_disabled": 0, "is_reserved": 0}, {"rental_uris": {"ios": "https://dc.lft.to/lastmile_qr_scan", "android": "https://dc.lft.to/lastmile_qr_scan"}, "lon": -77.02226, "type": "electric_scooter", "fusion_lat": 0.0, "lat": 38.91272766666667, "name": "f6f6cb875976a72e9f087b6da4d9fbab", "fusion_lon": 0.0, "bike_id": "f6f6cb875976a72e9f087b6da4d9fbab", "is_disabled": 0, "is_reserved": 0}, {"rental_uris": {"ios": "https://dc.lft.to/lastmile_qr_scan", "android": "https://dc.lft.to/lastmile_qr_scan"}, "lon": -77.03636533333334, "type": "electric_scooter", "fusion_lat": 0.0, "lat": 38.9181415, "name": "08c875e1e3399ac80a1a7eeb8c796038", "fusion_lon": 0.0, "bike_id": "08c875e1e3399ac80a1a7eeb8c796038", "is_disabled": 0, "is_reserved": 0}, {"rental_uris": {"ios": "https://dc.lft.to/lastmile_qr_scan", "android": "https://dc.lft.to/lastmile_qr_scan"}, "lon": -76.9938355, "type": "electric_scooter", "fusion_lat": 0.0, "lat": 38.88721316666667, "name": "df9809c004db0d68ee26e62a00c689f9", "fusion_lon": 0.0, "bike_id": "df9809c004db0d68ee26e62a00c689f9", "is_disabled": 0, "is_reserved": 0}, {"rental_uris": {"ios": "https://dc.lft.to/lastmile_qr_scan", "android": "https://dc.lft.to/lastmile_qr_scan"}, "lon": -77.00303783333334, "type": "electric_scooter", "fusion_lat": 0.0, "lat": 38.9090645, "name": "eb53d6a4648c26ab7d7dbc5e07176baa", "fusion_lon": 0.0, "bike_id": "eb53d6a4648c26ab7d7dbc5e07176baa", "is_disabled": 0, "is_reserved": 0}, {"rental_uris": {"ios": "https://dc.lft.to/lastmile_qr_scan", "android": "https://dc.lft.to/lastmile_qr_scan"}, "lon": -77.002287, "type": "electric_scooter", "fusion_lat": 0.0, "lat": 38.905771, "name": "cef4030bb48c41064add1b089c897cef", "fusion_lon": 0.0, "bike_id": "cef4030bb48c41064add1b089c897cef", "is_disabled": 0, "is_reserved": 0}, {"rental_uris": {"ios": "https://dc.lft.to/lastmile_qr_scan", "android": "https://dc.lft.to/lastmile_qr_scan"}, "lon": -76.96781833333333, "type": "electric_scooter", "fusion_lat": 0.0, "lat": 38.86143083333333, "name": "9dfe61f88625c5f933f4ba9c58b38022", "fusion_lon": 0.0, "bike_id": "9dfe61f88625c5f933f4ba9c58b38022", "is_disabled": 0, "is_reserved": 0}, {"rental_uris": {"ios": "https://dc.lft.to/lastmile_qr_scan", "android": "https://dc.lft.to/lastmile_qr_scan"}, "lon": -77.022092, "type": "electric_scooter", "fusion_lat": 0.0, "lat": 38.909757666666664, "name": "a12a39501bef73274b6a4613c622fd9e", "fusion_lon": 0.0, "bike_id": "a12a39501bef73274b6a4613c622fd9e", "is_disabled": 0, "is_reserved": 0}, {"rental_uris": {"ios": "https://dc.lft.to/lastmile_qr_scan", "android": "https://dc.lft.to/lastmile_qr_scan"}, "lon": -77.03169933333334, "type": "electric_scooter", "fusion_lat": 0.0, "lat": 38.899759333333336, "name": "8dc8b9408e33da60990a12965fa1f9aa", "fusion_lon": 0.0, "bike_id": "8dc8b9408e33da60990a12965fa1f9aa", "is_disabled": 0, "is_reserved": 0}, {"rental_uris": {"ios": "https://dc.lft.to/lastmile_qr_scan", "android": "https://dc.lft.to/lastmile_qr_scan"}, "lon": -77.050275, "type": "electric_scooter", "fusion_lat": 0.0, "lat": 38.896565, "name": "29056334090eb456329acf8b95af7b0d", "fusion_lon": 0.0, "bike_id": "29056334090eb456329acf8b95af7b0d", "is_disabled": 0, "is_reserved": 0}, {"rental_uris": {"ios": "https://dc.lft.to/lastmile_qr_scan", "android": "https://dc.lft.to/lastmile_qr_scan"}, "lon": -77.11431583333334, "type": "electric_bike", "fusion_lat": 0.0, "lat": 38.852457333333334, "name": "d41d3f200b46f9121a248b4acc2a723b", "fusion_lon": 0.0, "bike_id": "d41d3f200b46f9121a248b4acc2a723b", "is_disabled": 0, "is_reserved": 0}, {"rental_uris": {"ios": "https://dc.lft.to/lastmile_qr_scan", "android": "https://dc.lft.to/lastmile_qr_scan"}, "lon": -77.03480283333333, "type": "electric_scooter", "fusion_lat": 0.0, "lat": 38.902795833333336, "name": "e48a455bd2663becf37caf17cd8cbe70", "fusion_lon": 0.0, "bike_id": "e48a455bd2663becf37caf17cd8cbe70", "is_disabled": 0, "is_reserved": 0}, {"rental_uris": {"ios": "https://dc.lft.to/lastmile_qr_scan", "android": "https://dc.lft.to/lastmile_qr_scan"}, "lon": -77.0332255, "type": "electric_scooter", "fusion_lat": 0.0, "lat": 38.92164283333334, "name": "9f1cbd7241b62350ae6d970427fc919a", "fusion_lon": 0.0, "bike_id": "9f1cbd7241b62350ae6d970427fc919a", "is_disabled": 0, "is_reserved": 0}, {"rental_uris": {"ios": "https://dc.lft.to/lastmile_qr_scan", "android": "https://dc.lft.to/lastmile_qr_scan"}, "lon": -77.02391133333333, "type": "electric_scooter", "fusion_lat": 0.0, "lat": 38.917900833333334, "name": "da8e38abd4583af6aa1d3c99939518cf", "fusion_lon": 0.0, "bike_id": "da8e38abd4583af6aa1d3c99939518cf", "is_disabled": 0, "is_reserved": 0}, {"rental_uris": {"ios": "https://dc.lft.to/lastmile_qr_scan", "android": "https://dc.lft.to/lastmile_qr_scan"}, "lon": -76.98411333333334, "type": "electric_scooter", "fusion_lat": 0.0, "lat": 38.913880166666665, "name": "54b44ca1b53098fa4c0a4df8b7b4c800", "fusion_lon": 0.0, "bike_id": "54b44ca1b53098fa4c0a4df8b7b4c800", "is_disabled": 0, "is_reserved": 0}, {"rental_uris": {"ios": "https://dc.lft.to/lastmile_qr_scan", "android": "https://dc.lft.to/lastmile_qr_scan"}, "lon": -76.948682, "type": "electric_scooter", "fusion_lat": 0.0, "lat": 38.895993, "name": "2b1f0708298a44a692244f6ef16a52db", "fusion_lon": 0.0, "bike_id": "2b1f0708298a44a692244f6ef16a52db", "is_disabled": 0, "is_reserved": 0}, {"rental_uris": {"ios": "https://dc.lft.to/lastmile_qr_scan", "android": "https://dc.lft.to/lastmile_qr_scan"}, "lon": -77.032936, "type": "electric_scooter", "fusion_lat": 0.0, "lat": 38.909729666666664, "name": "da089775049ea5f53ab94d48c472d7ba", "fusion_lon": 0.0, "bike_id": "da089775049ea5f53ab94d48c472d7ba", "is_disabled": 0, "is_reserved": 0}, {"rental_uris": {"ios": "https://dc.lft.to/lastmile_qr_scan", "android": "https://dc.lft.to/lastmile_qr_scan"}, "lon": -77.01072916666666, "type": "electric_scooter", "fusion_lat": 0.0, "lat": 38.874763333333334, "name": "92c6be37889291e18acad469dce4dc20", "fusion_lon": 0.0, "bike_id": "92c6be37889291e18acad469dce4dc20", "is_disabled": 0, "is_reserved": 0}, {"rental_uris": {"ios": "https://dc.lft.to/lastmile_qr_scan", "android": "https://dc.lft.to/lastmile_qr_scan"}, "lon": -77.02814683333334, "type": "electric_scooter", "fusion_lat": 0.0, "lat": 38.910637666666666, "name": "48a26ef4e7e10a7bca89c0714ceb0cd8", "fusion_lon": 0.0, "bike_id": "48a26ef4e7e10a7bca89c0714ceb0cd8", "is_disabled": 0, "is_reserved": 0}, {"rental_uris": {"ios": "https://dc.lft.to/lastmile_qr_scan", "android": "https://dc.lft.to/lastmile_qr_scan"}, "lon": -76.99004033333334, "type": "electric_scooter", "fusion_lat": 0.0, "lat": 38.903979166666666, "name": "57e1e2570d5ae7df3b429bc0a9819fbd", "fusion_lon": 0.0, "bike_id": "57e1e2570d5ae7df3b429bc0a9819fbd", "is_disabled": 0, "is_reserved": 0}, {"rental_uris": {"ios": "https://dc.lft.to/lastmile_qr_scan", "android": "https://dc.lft.to/lastmile_qr_scan"}, "lon": -76.91652666666667, "type": "electric_bike", "fusion_lat": 0.0, "lat": 38.86859116666667, "name": "c6a5bde858103ee6c94d64a95c07f14d", "fusion_lon": 0.0, "bike_id": "c6a5bde858103ee6c94d64a95c07f14d", "is_disabled": 0, "is_reserved": 0}, {"rental_uris": {"ios": "https://dc.lft.to/lastmile_qr_scan", "android": "https://dc.lft.to/lastmile_qr_scan"}, "lon": -77.00976183333333, "type": "electric_scooter", "fusion_lat": 0.0, "lat": 38.91418066666667, "name": "1638969aaf2d036c7817cd4e1c9ddbf1", "fusion_lon": 0.0, "bike_id": "1638969aaf2d036c7817cd4e1c9ddbf1", "is_disabled": 0, "is_reserved": 0}, {"rental_uris": {"ios": "https://dc.lft.to/lastmile_qr_scan", "android": "https://dc.lft.to/lastmile_qr_scan"}, "lon": -77.046766, "type": "electric_scooter", "fusion_lat": 0.0, "lat": 38.892307, "name": "6d439e8909dede03f8cfa3696d4dc07e", "fusion_lon": 0.0, "bike_id": "6d439e8909dede03f8cfa3696d4dc07e", "is_disabled": 0, "is_reserved": 0}, {"rental_uris": {"ios": "https://dc.lft.to/lastmile_qr_scan", "android": "https://dc.lft.to/lastmile_qr_scan"}, "lon": -77.16235683333333, "type": "electric_bike", "fusion_lat": 0.0, "lat": 38.886631333333334, "name": "89377e33a7e6783a9bf8837002751516", "fusion_lon": 0.0, "bike_id": "89377e33a7e6783a9bf8837002751516", "is_disabled": 0, "is_reserved": 0}, {"rental_uris": {"ios": "https://dc.lft.to/lastmile_qr_scan", "android": "https://dc.lft.to/lastmile_qr_scan"}, "lon": -77.04492883333333, "type": "electric_scooter", "fusion_lat": 0.0, "lat": 38.918712166666666, "name": "8cb4d5da2392c982bb8b6d8c8cb5e98d", "fusion_lon": 0.0, "bike_id": "8cb4d5da2392c982bb8b6d8c8cb5e98d", "is_disabled": 0, "is_reserved": 0}, {"rental_uris": {"ios": "https://dc.lft.to/lastmile_qr_scan", "android": "https://dc.lft.to/lastmile_qr_scan"}, "lon": -77.03231266666667, "type": "electric_scooter", "fusion_lat": 0.0, "lat": 38.91720333333333, "name": "d0e640764e458dfa8242d5622ca876ed", "fusion_lon": 0.0, "bike_id": "d0e640764e458dfa8242d5622ca876ed", "is_disabled": 0, "is_reserved": 0}, {"rental_uris": {"ios": "https://dc.lft.to/lastmile_qr_scan", "android": "https://dc.lft.to/lastmile_qr_scan"}, "lon": -77.0592835, "type": "electric_scooter", "fusion_lat": 0.0, "lat": 38.909114833333334, "name": "f649eb698807b2c346903f24174ee03f", "fusion_lon": 0.0, "bike_id": "f649eb698807b2c346903f24174ee03f", "is_disabled": 0, "is_reserved": 0}, {"rental_uris": {"ios": "https://dc.lft.to/lastmile_qr_scan", "android": "https://dc.lft.to/lastmile_qr_scan"}, "lon": -76.997588, "type": "electric_scooter", "fusion_lat": 0.0, "lat": 38.90939983333333, "name": "b989177452085e33f9e100c149c1b236", "fusion_lon": 0.0, "bike_id": "b989177452085e33f9e100c149c1b236", "is_disabled": 0, "is_reserved": 0}, {"rental_uris": {"ios": "https://dc.lft.to/lastmile_qr_scan", "android": "https://dc.lft.to/lastmile_qr_scan"}, "lon": -77.043346, "type": "electric_scooter", "fusion_lat": 0.0, "lat": 38.91120683333333, "name": "b28f704055d71214abfa25aa039f391a", "fusion_lon": 0.0, "bike_id": "b28f704055d71214abfa25aa039f391a", "is_disabled": 0, "is_reserved": 0}, {"rental_uris": {"ios": "https://dc.lft.to/lastmile_qr_scan", "android": "https://dc.lft.to/lastmile_qr_scan"}, "lon": -77.04790033333333, "type": "electric_scooter", "fusion_lat": 0.0, "lat": 38.89769866666666, "name": "da77b4c593c1fca81e9accc3798d3436", "fusion_lon": 0.0, "bike_id": "da77b4c593c1fca81e9accc3798d3436", "is_disabled": 0, "is_reserved": 0}, {"rental_uris": {"ios": "https://dc.lft.to/lastmile_qr_scan", "android": "https://dc.lft.to/lastmile_qr_scan"}, "lon": -77.08820583333333, "type": "electric_bike", "fusion_lat": 0.0, "lat": 38.911713166666665, "name": "796338360199a29d98fe2f0b9b8b732f", "fusion_lon": 0.0, "bike_id": "796338360199a29d98fe2f0b9b8b732f", "is_disabled": 0, "is_reserved": 0}, {"rental_uris": {"ios": "https://dc.lft.to/lastmile_qr_scan", "android": "https://dc.lft.to/lastmile_qr_scan"}, "lon": -77.06614983333333, "type": "electric_scooter", "fusion_lat": 0.0, "lat": 38.90535583333333, "name": "b9f74c472d837d71ba240eaf9b942c1c", "fusion_lon": 0.0, "bike_id": "b9f74c472d837d71ba240eaf9b942c1c", "is_disabled": 0, "is_reserved": 0}, {"rental_uris": {"ios": "https://dc.lft.to/lastmile_qr_scan", "android": "https://dc.lft.to/lastmile_qr_scan"}, "lon": -76.96529266666667, "type": "electric_scooter", "fusion_lat": 0.0, "lat": 38.876272, "name": "8f1d2c15fc3905c152662990dd183792", "fusion_lon": 0.0, "bike_id": "8f1d2c15fc3905c152662990dd183792", "is_disabled": 0, "is_reserved": 0}, {"rental_uris": {"ios": "https://dc.lft.to/lastmile_qr_scan", "android": "https://dc.lft.to/lastmile_qr_scan"}, "lon": -77.0187015, "type": "electric_scooter", "fusion_lat": 0.0, "lat": 38.94897666666667, "name": "9e6f7c333834733362480ce8e9edf79d", "fusion_lon": 0.0, "bike_id": "9e6f7c333834733362480ce8e9edf79d", "is_disabled": 0, "is_reserved": 0}, {"rental_uris": {"ios": "https://dc.lft.to/lastmile_qr_scan", "android": "https://dc.lft.to/lastmile_qr_scan"}, "lon": -77.0020595, "type": "electric_scooter", "fusion_lat": 0.0, "lat": 38.90035533333333, "name": "7635ca02d589523cfa21d8d06df9b387", "fusion_lon": 0.0, "bike_id": "7635ca02d589523cfa21d8d06df9b387", "is_disabled": 0, "is_reserved": 0}, {"rental_uris": {"ios": "https://dc.lft.to/lastmile_qr_scan", "android": "https://dc.lft.to/lastmile_qr_scan"}, "lon": -76.93235966666667, "type": "electric_bike", "fusion_lat": 0.0, "lat": 38.8659615, "name": "dc4d64fcecf85daa1d3b2354cb48ff12", "fusion_lon": 0.0, "bike_id": "dc4d64fcecf85daa1d3b2354cb48ff12", "is_disabled": 0, "is_reserved": 0}, {"rental_uris": {"ios": "https://dc.lft.to/lastmile_qr_scan", "android": "https://dc.lft.to/lastmile_qr_scan"}, "lon": -76.983758, "type": "electric_scooter", "fusion_lat": 0.0, "lat": 38.89554416666667, "name": "f840a196abbf8a796e8147401cc17f9b", "fusion_lon": 0.0, "bike_id": "f840a196abbf8a796e8147401cc17f9b", "is_disabled": 0, "is_reserved": 0}, {"rental_uris": {"ios": "https://dc.lft.to/lastmile_qr_scan", "android": "https://dc.lft.to/lastmile_qr_scan"}, "lon": -77.0547615, "type": "electric_scooter", "fusion_lat": 0.0, "lat": 38.89391283333333, "name": "dbfe2aeb98a59722821f1a0541ec25dd", "fusion_lon": 0.0, "bike_id": "dbfe2aeb98a59722821f1a0541ec25dd", "is_disabled": 0, "is_reserved": 0}, {"rental_uris": {"ios": "https://dc.lft.to/lastmile_qr_scan", "android": "https://dc.lft.to/lastmile_qr_scan"}, "lon": -77.00202366666667, "type": "electric_scooter", "fusion_lat": 0.0, "lat": 38.89987466666667, "name": "8c77ae5085d300cc26a156c8b40a0c19", "fusion_lon": 0.0, "bike_id": "8c77ae5085d300cc26a156c8b40a0c19", "is_disabled": 0, "is_reserved": 0}, {"rental_uris": {"ios": "https://dc.lft.to/lastmile_qr_scan", "android": "https://dc.lft.to/lastmile_qr_scan"}, "lon": -77.02602433333334, "type": "electric_bike", "fusion_lat": 0.0, "lat": 38.962671666666665, "name": "497ddd5dc796c0edb500f36473926568", "fusion_lon": 0.0, "bike_id": "497ddd5dc796c0edb500f36473926568", "is_disabled": 0, "is_reserved": 0}, {"rental_uris": {"ios": "https://dc.lft.to/lastmile_qr_scan", "android": "https://dc.lft.to/lastmile_qr_scan"}, "lon": -76.996959, "type": "electric_scooter", "fusion_lat": 0.0, "lat": 38.900728, "name": "3746e7b574aa780a07b7cdd5aab64215", "fusion_lon": 0.0, "bike_id": "3746e7b574aa780a07b7cdd5aab64215", "is_disabled": 0, "is_reserved": 0}, {"rental_uris": {"ios": "https://dc.lft.to/lastmile_qr_scan", "android": "https://dc.lft.to/lastmile_qr_scan"}, "lon": -76.95991, "type": "electric_scooter", "fusion_lat": 0.0, "lat": 38.880483, "name": "21b794e33d5707ef4cf0f13a94dd28f9", "fusion_lon": 0.0, "bike_id": "21b794e33d5707ef4cf0f13a94dd28f9", "is_disabled": 0, "is_reserved": 0}, {"rental_uris": {"ios": "https://dc.lft.to/lastmile_qr_scan", "android": "https://dc.lft.to/lastmile_qr_scan"}, "lon": -77.0305285, "type": "electric_scooter", "fusion_lat": 0.0, "lat": 38.9170855, "name": "997ebd296cc728572e1f88ccd28ecb19", "fusion_lon": 0.0, "bike_id": "997ebd296cc728572e1f88ccd28ecb19", "is_disabled": 0, "is_reserved": 0}, {"rental_uris": {"ios": "https://dc.lft.to/lastmile_qr_scan", "android": "https://dc.lft.to/lastmile_qr_scan"}, "lon": -77.06611133333334, "type": "electric_scooter", "fusion_lat": 0.0, "lat": 38.905825166666666, "name": "88447b9c44ef5979dc54a1880bfa8ea1", "fusion_lon": 0.0, "bike_id": "88447b9c44ef5979dc54a1880bfa8ea1", "is_disabled": 0, "is_reserved": 0}, {"rental_uris": {"ios": "https://dc.lft.to/lastmile_qr_scan", "android": "https://dc.lft.to/lastmile_qr_scan"}, "lon": -76.94757533333333, "type": "electric_scooter", "fusion_lat": 0.0, "lat": 38.90052633333333, "name": "51b9a4dda7ded5f4ead8bcc9a162f429", "fusion_lon": 0.0, "bike_id": "51b9a4dda7ded5f4ead8bcc9a162f429", "is_disabled": 0, "is_reserved": 0}, {"rental_uris": {"ios": "https://dc.lft.to/lastmile_qr_scan", "android": "https://dc.lft.to/lastmile_qr_scan"}, "lon": -76.9590055, "type": "electric_bike", "fusion_lat": 0.0, "lat": 38.985088166666664, "name": "9f6b9a5407b1a134682894a5cda18b50", "fusion_lon": 0.0, "bike_id": "9f6b9a5407b1a134682894a5cda18b50", "is_disabled": 0, "is_reserved": 0}, {"rental_uris": {"ios": "https://dc.lft.to/lastmile_qr_scan", "android": "https://dc.lft.to/lastmile_qr_scan"}, "lon": -77.0213345, "type": "electric_scooter", "fusion_lat": 0.0, "lat": 38.89496366666667, "name": "fb500306606e9d39106c0774247dac3b", "fusion_lon": 0.0, "bike_id": "fb500306606e9d39106c0774247dac3b", "is_disabled": 0, "is_reserved": 0}, {"rental_uris": {"ios": "https://dc.lft.to/lastmile_qr_scan", "android": "https://dc.lft.to/lastmile_qr_scan"}, "lon": -76.97295916666667, "type": "electric_scooter", "fusion_lat": 0.0, "lat": 38.90338066666666, "name": "971f936942468f889f3af30f38ccc973", "fusion_lon": 0.0, "bike_id": "971f936942468f889f3af30f38ccc973", "is_disabled": 0, "is_reserved": 0}, {"rental_uris": {"ios": "https://dc.lft.to/lastmile_qr_scan", "android": "https://dc.lft.to/lastmile_qr_scan"}, "lon": -77.12963033333334, "type": "electric_bike", "fusion_lat": 0.0, "lat": 38.852162166666666, "name": "61384153c473a7eba1377a4e15429744", "fusion_lon": 0.0, "bike_id": "61384153c473a7eba1377a4e15429744", "is_disabled": 0, "is_reserved": 0}, {"rental_uris": {"ios": "https://dc.lft.to/lastmile_qr_scan", "android": "https://dc.lft.to/lastmile_qr_scan"}, "lon": -76.98130233333333, "type": "electric_scooter", "fusion_lat": 0.0, "lat": 38.85706366666667, "name": "08fdeac6b9e7ac7e4aef9056c656bd61", "fusion_lon": 0.0, "bike_id": "08fdeac6b9e7ac7e4aef9056c656bd61", "is_disabled": 0, "is_reserved": 0}, {"rental_uris": {"ios": "https://dc.lft.to/lastmile_qr_scan", "android": "https://dc.lft.to/lastmile_qr_scan"}, "lon": -77.0261985, "type": "electric_scooter", "fusion_lat": 0.0, "lat": 38.915281, "name": "28a44a450fc5ed02e3d69571d1045720", "fusion_lon": 0.0, "bike_id": "28a44a450fc5ed02e3d69571d1045720", "is_disabled": 0, "is_reserved": 0}, {"rental_uris": {"ios": "https://dc.lft.to/lastmile_qr_scan", "android": "https://dc.lft.to/lastmile_qr_scan"}, "lon": -77.03835183333334, "type": "electric_scooter", "fusion_lat": 0.0, "lat": 38.90790533333333, "name": "23da156365c1ae016113f0bfc02492ce", "fusion_lon": 0.0, "bike_id": "23da156365c1ae016113f0bfc02492ce", "is_disabled": 0, "is_reserved": 0}, {"rental_uris": {"ios": "https://dc.lft.to/lastmile_qr_scan", "android": "https://dc.lft.to/lastmile_qr_scan"}, "lon": -77.03568916666667, "type": "electric_scooter", "fusion_lat": 0.0, "lat": 38.93984366666667, "name": "f80d7f848990b7369eb0ca4c181123bb", "fusion_lon": 0.0, "bike_id": "f80d7f848990b7369eb0ca4c181123bb", "is_disabled": 0, "is_reserved": 0}, {"rental_uris": {"ios": "https://dc.lft.to/lastmile_qr_scan", "android": "https://dc.lft.to/lastmile_qr_scan"}, "lon": -77.0547565, "type": "electric_scooter", "fusion_lat": 0.0, "lat": 38.910693333333334, "name": "39dc05bd50975504202d813a1a8255d2", "fusion_lon": 0.0, "bike_id": "39dc05bd50975504202d813a1a8255d2", "is_disabled": 0, "is_reserved": 0}, {"rental_uris": {"ios": "https://dc.lft.to/lastmile_qr_scan", "android": "https://dc.lft.to/lastmile_qr_scan"}, "lon": -76.9946015, "type": "electric_scooter", "fusion_lat": 0.0, "lat": 38.85162916666667, "name": "3df685ae5f640d153c652ca259298912", "fusion_lon": 0.0, "bike_id": "3df685ae5f640d153c652ca259298912", "is_disabled": 0, "is_reserved": 0}, {"rental_uris": {"ios": "https://dc.lft.to/lastmile_qr_scan", "android": "https://dc.lft.to/lastmile_qr_scan"}, "lon": -77.05568883333333, "type": "electric_scooter", "fusion_lat": 0.0, "lat": 38.899936, "name": "5666c292f12c47c99752198b928cddb5", "fusion_lon": 0.0, "bike_id": "5666c292f12c47c99752198b928cddb5", "is_disabled": 0, "is_reserved": 0}, {"rental_uris": {"ios": "https://dc.lft.to/lastmile_qr_scan", "android": "https://dc.lft.to/lastmile_qr_scan"}, "lon": -77.05543116666666, "type": "electric_scooter", "fusion_lat": 0.0, "lat": 38.9253215, "name": "f435c417fe1187691dab9d891ed05bc0", "fusion_lon": 0.0, "bike_id": "f435c417fe1187691dab9d891ed05bc0", "is_disabled": 0, "is_reserved": 0}, {"rental_uris": {"ios": "https://dc.lft.to/lastmile_qr_scan", "android": "https://dc.lft.to/lastmile_qr_scan"}, "lon": -76.95757483333334, "type": "electric_scooter", "fusion_lat": 0.0, "lat": 38.884338666666665, "name": "66e9dcf77461365dc2029729a8a9eabd", "fusion_lon": 0.0, "bike_id": "66e9dcf77461365dc2029729a8a9eabd", "is_disabled": 0, "is_reserved": 0}, {"rental_uris": {"ios": "https://dc.lft.to/lastmile_qr_scan", "android": "https://dc.lft.to/lastmile_qr_scan"}, "lon": -77.03864633333333, "type": "electric_scooter", "fusion_lat": 0.0, "lat": 38.90967633333333, "name": "517f39b72a4811cca5eec2e038aafeb7", "fusion_lon": 0.0, "bike_id": "517f39b72a4811cca5eec2e038aafeb7", "is_disabled": 0, "is_reserved": 0}, {"rental_uris": {"ios": "https://dc.lft.to/lastmile_qr_scan", "android": "https://dc.lft.to/lastmile_qr_scan"}, "lon": -77.02140766666666, "type": "electric_scooter", "fusion_lat": 0.0, "lat": 38.894794833333336, "name": "dc61b70620ba571237c994e9952e92ee", "fusion_lon": 0.0, "bike_id": "dc61b70620ba571237c994e9952e92ee", "is_disabled": 0, "is_reserved": 0}, {"rental_uris": {"ios": "https://dc.lft.to/lastmile_qr_scan", "android": "https://dc.lft.to/lastmile_qr_scan"}, "lon": -76.93967133333334, "type": "electric_scooter", "fusion_lat": 0.0, "lat": 38.89972516666667, "name": "a7182bd21bfa3ccc5ef8f40020684032", "fusion_lon": 0.0, "bike_id": "a7182bd21bfa3ccc5ef8f40020684032", "is_disabled": 0, "is_reserved": 0}, {"rental_uris": {"ios": "https://dc.lft.to/lastmile_qr_scan", "android": "https://dc.lft.to/lastmile_qr_scan"}, "lon": -77.0805335, "type": "electric_bike", "fusion_lat": 0.0, "lat": 38.8484415, "name": "310b6c0eb60338647b08f56d792fd165", "fusion_lon": 0.0, "bike_id": "310b6c0eb60338647b08f56d792fd165", "is_disabled": 0, "is_reserved": 0}, {"rental_uris": {"ios": "https://dc.lft.to/lastmile_qr_scan", "android": "https://dc.lft.to/lastmile_qr_scan"}, "lon": -77.04253933333334, "type": "electric_bike", "fusion_lat": 0.0, "lat": 38.92280783333333, "name": "3b8fb350bf62e91ee96e26907d598f53", "fusion_lon": 0.0, "bike_id": "3b8fb350bf62e91ee96e26907d598f53", "is_disabled": 0, "is_reserved": 0}, {"rental_uris": {"ios": "https://dc.lft.to/lastmile_qr_scan", "android": "https://dc.lft.to/lastmile_qr_scan"}, "lon": -76.98607216666667, "type": "electric_scooter", "fusion_lat": 0.0, "lat": 38.878371, "name": "3e560418106ef798aef646fef6680088", "fusion_lon": 0.0, "bike_id": "3e560418106ef798aef646fef6680088", "is_disabled": 0, "is_reserved": 0}, {"rental_uris": {"ios": "https://dc.lft.to/lastmile_qr_scan", "android": "https://dc.lft.to/lastmile_qr_scan"}, "lon": -77.03207666666667, "type": "electric_scooter", "fusion_lat": 0.0, "lat": 38.9201325, "name": "ecc67b5eb6576070604585acdcdebc5a", "fusion_lon": 0.0, "bike_id": "ecc67b5eb6576070604585acdcdebc5a", "is_disabled": 0, "is_reserved": 0}, {"rental_uris": {"ios": "https://dc.lft.to/lastmile_qr_scan", "android": "https://dc.lft.to/lastmile_qr_scan"}, "lon": -77.0243065, "type": "electric_scooter", "fusion_lat": 0.0, "lat": 38.90721716666667, "name": "d926157540392f2b823ed871d9d1dd66", "fusion_lon": 0.0, "bike_id": "d926157540392f2b823ed871d9d1dd66", "is_disabled": 0, "is_reserved": 0}, {"rental_uris": {"ios": "https://dc.lft.to/lastmile_qr_scan", "android": "https://dc.lft.to/lastmile_qr_scan"}, "lon": -77.002789, "type": "electric_scooter", "fusion_lat": 0.0, "lat": 38.90136066666667, "name": "aa5089718335506ae1b49cd6811330d2", "fusion_lon": 0.0, "bike_id": "aa5089718335506ae1b49cd6811330d2", "is_disabled": 0, "is_reserved": 0}, {"rental_uris": {"ios": "https://dc.lft.to/lastmile_qr_scan", "android": "https://dc.lft.to/lastmile_qr_scan"}, "lon": -76.996117, "type": "electric_scooter", "fusion_lat": 0.0, "lat": 38.8862325, "name": "78dfa46ba7408c9a55e6a4d392deef9b", "fusion_lon": 0.0, "bike_id": "78dfa46ba7408c9a55e6a4d392deef9b", "is_disabled": 0, "is_reserved": 0}, {"rental_uris": {"ios": "https://dc.lft.to/lastmile_qr_scan", "android": "https://dc.lft.to/lastmile_qr_scan"}, "lon": -76.98885533333333, "type": "electric_scooter", "fusion_lat": 0.0, "lat": 38.8666105, "name": "1ed6a4b76e3aa55a594e6a9513c2cefd", "fusion_lon": 0.0, "bike_id": "1ed6a4b76e3aa55a594e6a9513c2cefd", "is_disabled": 0, "is_reserved": 0}, {"rental_uris": {"ios": "https://dc.lft.to/lastmile_qr_scan", "android": "https://dc.lft.to/lastmile_qr_scan"}, "lon": -77.038417, "type": "electric_scooter", "fusion_lat": 0.0, "lat": 38.93114333333333, "name": "e35b5a93d2f689d90fa0de71ac1dc2ed", "fusion_lon": 0.0, "bike_id": "e35b5a93d2f689d90fa0de71ac1dc2ed", "is_disabled": 0, "is_reserved": 0}, {"rental_uris": {"ios": "https://dc.lft.to/lastmile_qr_scan", "android": "https://dc.lft.to/lastmile_qr_scan"}, "lon": -77.04502366666667, "type": "electric_scooter", "fusion_lat": 0.0, "lat": 38.9194755, "name": "412c783a3ee93d5be9f5be3f6fc3c663", "fusion_lon": 0.0, "bike_id": "412c783a3ee93d5be9f5be3f6fc3c663", "is_disabled": 0, "is_reserved": 0}, {"rental_uris": {"ios": "https://dc.lft.to/lastmile_qr_scan", "android": "https://dc.lft.to/lastmile_qr_scan"}, "lon": -77.00339966666667, "type": "electric_scooter", "fusion_lat": 0.0, "lat": 38.90742633333333, "name": "82a80a109591926e34234994f912cb8c", "fusion_lon": 0.0, "bike_id": "82a80a109591926e34234994f912cb8c", "is_disabled": 0, "is_reserved": 0}, {"rental_uris": {"ios": "https://dc.lft.to/lastmile_qr_scan", "android": "https://dc.lft.to/lastmile_qr_scan"}, "lon": -76.97555433333333, "type": "electric_scooter", "fusion_lat": 0.0, "lat": 38.904422833333335, "name": "97bd3b16dcd4304c86812807f482f793", "fusion_lon": 0.0, "bike_id": "97bd3b16dcd4304c86812807f482f793", "is_disabled": 0, "is_reserved": 0}, {"rental_uris": {"ios": "https://dc.lft.to/lastmile_qr_scan", "android": "https://dc.lft.to/lastmile_qr_scan"}, "lon": -76.9886525, "type": "electric_scooter", "fusion_lat": 0.0, "lat": 38.900284166666665, "name": "435f8a5c89981cb612a08ae5cbb5d468", "fusion_lon": 0.0, "bike_id": "435f8a5c89981cb612a08ae5cbb5d468", "is_disabled": 0, "is_reserved": 0}, {"rental_uris": {"ios": "https://dc.lft.to/lastmile_qr_scan", "android": "https://dc.lft.to/lastmile_qr_scan"}, "lon": -77.048425, "type": "electric_scooter", "fusion_lat": 0.0, "lat": 38.9094755, "name": "4f77e8224c25309945ffdff0733f841d", "fusion_lon": 0.0, "bike_id": "4f77e8224c25309945ffdff0733f841d", "is_disabled": 0, "is_reserved": 0}, {"rental_uris": {"ios": "https://dc.lft.to/lastmile_qr_scan", "android": "https://dc.lft.to/lastmile_qr_scan"}, "lon": -77.0111415, "type": "electric_scooter", "fusion_lat": 0.0, "lat": 38.8950395, "name": "78258460c8dd625aa4a94cabc9263f9f", "fusion_lon": 0.0, "bike_id": "78258460c8dd625aa4a94cabc9263f9f", "is_disabled": 0, "is_reserved": 0}, {"rental_uris": {"ios": "https://dc.lft.to/lastmile_qr_scan", "android": "https://dc.lft.to/lastmile_qr_scan"}, "lon": -77.04229633333334, "type": "electric_scooter", "fusion_lat": 0.0, "lat": 38.92132483333334, "name": "8d842a0b47ec51bcaa07ab2db4b906af", "fusion_lon": 0.0, "bike_id": "8d842a0b47ec51bcaa07ab2db4b906af", "is_disabled": 0, "is_reserved": 0}, {"rental_uris": {"ios": "https://dc.lft.to/lastmile_qr_scan", "android": "https://dc.lft.to/lastmile_qr_scan"}, "lon": -76.985772, "type": "electric_scooter", "fusion_lat": 0.0, "lat": 38.8615505, "name": "13dafefb6bf809f69871e32742354055", "fusion_lon": 0.0, "bike_id": "13dafefb6bf809f69871e32742354055", "is_disabled": 0, "is_reserved": 0}, {"rental_uris": {"ios": "https://dc.lft.to/lastmile_qr_scan", "android": "https://dc.lft.to/lastmile_qr_scan"}, "lon": -77.04894666666667, "type": "electric_scooter", "fusion_lat": 0.0, "lat": 38.91893783333333, "name": "166cfd3388e16173ab92267969187c11", "fusion_lon": 0.0, "bike_id": "166cfd3388e16173ab92267969187c11", "is_disabled": 0, "is_reserved": 0}, {"rental_uris": {"ios": "https://dc.lft.to/lastmile_qr_scan", "android": "https://dc.lft.to/lastmile_qr_scan"}, "lon": -76.997796, "type": "electric_bike", "fusion_lat": 0.0, "lat": 38.909251, "name": "3f0e2500204b5d757ca02c64639f3194", "fusion_lon": 0.0, "bike_id": "3f0e2500204b5d757ca02c64639f3194", "is_disabled": 0, "is_reserved": 0}, {"rental_uris": {"ios": "https://dc.lft.to/lastmile_qr_scan", "android": "https://dc.lft.to/lastmile_qr_scan"},