{"data": {"bikes": [{"name": "53946c38271d9629002b47f514031fb1", "type": "electric_scooter", "lat": 38.9056905, "is_reserved": 0, "lon": -77.03448933333334, "fusion_lon": 0.0, "is_disabled": 0, "fusion_lat": 0.0, "bike_id": "53946c38271d9629002b47f514031fb1", "rental_uris": {"ios": "https://dc.lft.to/lastmile_qr_scan", "android": "https://dc.lft.to/lastmile_qr_scan"}}, {"name": "dd07e0ef572db86fe273b34a43c970ba", "type": "electric_scooter", "lat": 38.900211666666664, "is_reserved": 0, "lon": -77.04028066666666, "fusion_lon": 0.0, "is_disabled": 0, "fusion_lat": 0.0, "bike_id": "dd07e0ef572db86fe273b34a43c970ba", "rental_uris": {"ios": "https://dc.lft.to/lastmile_qr_scan", "android": "https://dc.lft.to/lastmile_qr_scan"}}, {"name": "cff1c8e9d11645d828d603a312740e1c", "type": "electric_scooter", "lat": 38.9142295, "is_reserved": 0, "lon": -77.03813766666667, "fusion_lon": 0.0, "is_disabled": 0, "fusion_lat": 0.0, "bike_id": "cff1c8e9d11645d828d603a312740e1c", "rental_uris": {"ios": "https://dc.lft.to/lastmile_qr_scan", "android": "https://dc.lft.to/lastmile_qr_scan"}}, {"name": "264b2413caec5dc1aab0d36d9517a902", "type": "electric_scooter", "lat": 38.89727716666667, "is_reserved": 0, "lon": -77.043392, "fusion_lon": 0.0, "is_disabled": 0, "fusion_lat": 0.0, "bike_id": "264b2413caec5dc1aab0d36d9517a902", "rental_uris": {"ios": "https://dc.lft.to/lastmile_qr_scan", "android": "https://dc.lft.to/lastmile_qr_scan"}}, {"name": "ca9d9c34ac64c4f1480181f5f40a6e91", "type": "electric_scooter", "lat": 38.907477166666666, "is_reserved": 0, "lon": -77.04169966666667, "fusion_lon": 0.0, "is_disabled": 0, "fusion_lat": 0.0, "bike_id": "ca9d9c34ac64c4f1480181f5f40a6e91", "rental_uris": {"ios": "https://dc.lft.to/lastmile_qr_scan", "android": "https://dc.lft.to/lastmile_qr_scan"}}, {"name": "98d9a236ef837a8f9e9c5c9df6bacacf", "type": "electric_scooter", "lat": 38.90013, "is_reserved": 0, "lon": -77.0118925, "fusion_lon": 0.0, "is_disabled": 0, "fusion_lat": 0.0, "bike_id": "98d9a236ef837a8f9e9c5c9df6bacacf", "rental_uris": {"ios": "https://dc.lft.to/lastmile_qr_scan", "android": "https://dc.lft.to/lastmile_qr_scan"}}, {"name": "8eb77456226c7ef105cf92330059d758", "type": "electric_scooter", "lat": 38.90972216666667, "is_reserved": 0, "lon": -77.027181, "fusion_lon": 0.0, "is_disabled": 0, "fusion_lat": 0.0, "bike_id": "8eb77456226c7ef105cf92330059d758", "rental_uris": {"ios": "https://dc.lft.to/lastmile_qr_scan", "android": "https://dc.lft.to/lastmile_qr_scan"}}, {"name": "d35d40e2767f84b4ab36c06ee7673d39", "type": "electric_scooter", "lat": 38.906652666666666, "is_reserved": 0, "lon": -77.0515925, "fusion_lon": 0.0, "is_disabled": 0, "fusion_lat": 0.0, "bike_id": "d35d40e2767f84b4ab36c06ee7673d39", "rental_uris": {"ios": "https://dc.lft.to/lastmile_qr_scan", "android": "https://dc.lft.to/lastmile_qr_scan"}}, {"name": "9e72e90c6405b900b28b52761a8d1a62", "type": "electric_scooter", "lat": 38.90607933333333, "is_reserved": 0, "lon": -77.03980166666666, "fusion_lon": 0.0, "is_disabled": 0, "fusion_lat": 0.0, "bike_id": "9e72e90c6405b900b28b52761a8d1a62", "rental_uris": {"ios": "https://dc.lft.to/lastmile_qr_scan", "android": "https://dc.lft.to/lastmile_qr_scan"}}, {"name": "a4de6c2a491d18f5c0a2f6383e29aa53", "type": "electric_scooter", "lat": 38.92166, "is_reserved": 0, "lon": -77.02676116666666, "fusion_lon": 0.0, "is_disabled": 0, "fusion_lat": 0.0, "bike_id": "a4de6c2a491d18f5c0a2f6383e29aa53", "rental_uris": {"ios": "https://dc.lft.to/lastmile_qr_scan", "android": "https://dc.lft.to/lastmile_qr_scan"}}, {"name": "59ee7c622e0df678aca5eb837aa25ae1", "type": "electric_scooter", "lat": 38.905829833333335, "is_reserved": 0, "lon": -77.041899, "fusion_lon": 0.0, "is_disabled": 0, "fusion_lat": 0.0, "bike_id": "59ee7c622e0df678aca5eb837aa25ae1", "rental_uris": {"ios": "https://dc.lft.to/lastmile_qr_scan", "android": "https://dc.lft.to/lastmile_qr_scan"}}, {"name": "bde5cf66d362c32a8944e89189fa5797", "type": "electric_scooter", "lat": 38.919231833333335, "is_reserved": 0, "lon": -77.03268766666666, "fusion_lon": 0.0, "is_disabled": 0, "fusion_lat": 0.0, "bike_id": "bde5cf66d362c32a8944e89189fa5797", "rental_uris": {"ios": "https://dc.lft.to/lastmile_qr_scan", "android": "https://dc.lft.to/lastmile_qr_scan"}}, {"name": "f706f8acd0828f310bd89998f0eb4f2a", "type": "electric_scooter", "lat": 38.89811383333333, "is_reserved": 0, "lon": -77.02726716666666, "fusion_lon": 0.0, "is_disabled": 0, "fusion_lat": 0.0, "bike_id": "f706f8acd0828f310bd89998f0eb4f2a", "rental_uris": {"ios": "https://dc.lft.to/lastmile_qr_scan", "android": "https://dc.lft.to/lastmile_qr_scan"}}, {"name": "5582ff12e9d85b0198b4b7b8de4561ec", "type": "electric_scooter", "lat": 38.92843966666667, "is_reserved": 0, "lon": -77.01589033333333, "fusion_lon": 0.0, "is_disabled": 0, "fusion_lat": 0.0, "bike_id": "5582ff12e9d85b0198b4b7b8de4561ec", "rental_uris": {"ios": "https://dc.lft.to/lastmile_qr_scan", "android": "https://dc.lft.to/lastmile_qr_scan"}}, {"name": "568352f561e0107f638d2df0fd098d26", "type": "electric_bike", "lat": 38.874824, "is_reserved": 0, "lon": -76.96528166666667, "fusion_lon": 0.0, "is_disabled": 0, "fusion_lat": 0.0, "bike_id": "568352f561e0107f638d2df0fd098d26", "rental_uris": {"ios": "https://dc.lft.to/lastmile_qr_scan", "android": "https://dc.lft.to/lastmile_qr_scan"}}, {"name": "2954bb33e6074d3a8f93f928dcefd596", "type": "electric_scooter", "lat": 38.89378833333333, "is_reserved": 0, "lon": -76.949832, "fusion_lon": 0.0, "is_disabled": 0, "fusion_lat": 0.0, "bike_id": "2954bb33e6074d3a8f93f928dcefd596", "rental_uris": {"ios": "https://dc.lft.to/lastmile_qr_scan", "android": "https://dc.lft.to/lastmile_qr_scan"}}, {"name": "5dde8746013587f14fa2121d1c77609d", "type": "electric_scooter", "lat": 38.9087515, "is_reserved": 0, "lon": -77.04271716666666, "fusion_lon": 0.0, "is_disabled": 0, "fusion_lat": 0.0, "bike_id": "5dde8746013587f14fa2121d1c77609d", "rental_uris": {"ios": "https://dc.lft.to/lastmile_qr_scan", "android": "https://dc.lft.to/lastmile_qr_scan"}}, {"name": "a384f528c4ed4edbbe9b184c300bd84d", "type": "electric_scooter", "lat": 38.9083215, "is_reserved": 0, "lon": -77.04347183333333, "fusion_lon": 0.0, "is_disabled": 0, "fusion_lat": 0.0, "bike_id": "a384f528c4ed4edbbe9b184c300bd84d", "rental_uris": {"ios": "https://dc.lft.to/lastmile_qr_scan", "android": "https://dc.lft.to/lastmile_qr_scan"}}, {"name": "22df67025eb995d99efd64455c69c07d", "type": "electric_scooter", "lat": 38.92541166666667, "is_reserved": 0, "lon": -77.035214, "fusion_lon": 0.0, "is_disabled": 0, "fusion_lat": 0.0, "bike_id": "22df67025eb995d99efd64455c69c07d", "rental_uris": {"ios": "https://dc.lft.to/lastmile_qr_scan", "android": "https://dc.lft.to/lastmile_qr_scan"}}, {"name": "607d2e0540e7f999139fed0dc518cc4e", "type": "electric_scooter", "lat": 38.9039215, "is_reserved": 0, "lon": -77.04499333333334, "fusion_lon": 0.0, "is_disabled": 0, "fusion_lat": 0.0, "bike_id": "607d2e0540e7f999139fed0dc518cc4e", "rental_uris": {"ios": "https://dc.lft.to/lastmile_qr_scan", "android": "https://dc.lft.to/lastmile_qr_scan"}}, {"name": "4fb216a5401459c11167ce6b9884770d", "type": "electric_scooter", "lat": 38.927157666666666, "is_reserved": 0, "lon": -77.0209435, "fusion_lon": 0.0, "is_disabled": 0, "fusion_lat": 0.0, "bike_id": "4fb216a5401459c11167ce6b9884770d", "rental_uris": {"ios": "https://dc.lft.to/lastmile_qr_scan", "android": "https://dc.lft.to/lastmile_qr_scan"}}, {"name": "73bcca7b12c2bf95d117c6ab2fd27e92", "type": "electric_scooter", "lat": 38.905099666666665, "is_reserved": 0, "lon": -77.06939866666667, "fusion_lon": 0.0, "is_disabled": 0, "fusion_lat": 0.0, "bike_id": "73bcca7b12c2bf95d117c6ab2fd27e92", "rental_uris": {"ios": "https://dc.lft.to/lastmile_qr_scan", "android": "https://dc.lft.to/lastmile_qr_scan"}}, {"name": "67eb8ac759249a50f2d32661a3975a3d", "type": "electric_scooter", "lat": 38.9106615, "is_reserved": 0, "lon": -77.02200566666667, "fusion_lon": 0.0, "is_disabled": 0, "fusion_lat": 0.0, "bike_id": "67eb8ac759249a50f2d32661a3975a3d", "rental_uris": {"ios": "https://dc.lft.to/lastmile_qr_scan", "android": "https://dc.lft.to/lastmile_qr_scan"}}, {"name": "2a6c7bdc39ce040c8d39bc2d96f645d2", "type": "electric_scooter", "lat": 38.896578166666664, "is_reserved": 0, "lon": -77.05026, "fusion_lon": 0.0, "is_disabled": 0, "fusion_lat": 0.0, "bike_id": "2a6c7bdc39ce040c8d39bc2d96f645d2", "rental_uris": {"ios": "https://dc.lft.to/lastmile_qr_scan", "android": "https://dc.lft.to/lastmile_qr_scan"}}, {"name": "66577ab3be97efcaf29d57a9914d8856", "type": "electric_scooter", "lat": 38.92349183333333, "is_reserved": 0, "lon": -77.01905183333334, "fusion_lon": 0.0, "is_disabled": 0, "fusion_lat": 0.0, "bike_id": "66577ab3be97efcaf29d57a9914d8856", "rental_uris": {"ios": "https://dc.lft.to/lastmile_qr_scan", "android": "https://dc.lft.to/lastmile_qr_scan"}}, {"name": "a1dcb09edaa0600ba34c16d00eae92da", "type": "electric_bike", "lat": 38.86168083333333, "is_reserved": 0, "lon": -76.95066983333334, "fusion_lon": 0.0, "is_disabled": 0, "fusion_lat": 0.0, "bike_id": "a1dcb09edaa0600ba34c16d00eae92da", "rental_uris": {"ios": "https://dc.lft.to/lastmile_qr_scan", "android": "https://dc.lft.to/lastmile_qr_scan"}}, {"name": "b9a2432661ce5cfedcb595b7b91e3045", "type": "electric_scooter", "lat": 38.892337, "is_reserved": 0, "lon": -77.0321515, "fusion_lon": 0.0, "is_disabled": 0, "fusion_lat": 0.0, "bike_id": "b9a2432661ce5cfedcb595b7b91e3045", "rental_uris": {"ios": "https://dc.lft.to/lastmile_qr_scan", "android": "https://dc.lft.to/lastmile_qr_scan"}}, {"name": "efd6802e448c6c3f4c49900962d6763b", "type": "electric_scooter", "lat": 38.9391705, "is_reserved": 0, "lon": -77.02474516666666, "fusion_lon": 0.0, "is_disabled": 0, "fusion_lat": 0.0, "bike_id": "efd6802e448c6c3f4c49900962d6763b", "rental_uris": {"ios": "https://dc.lft.to/lastmile_qr_scan", "android": "https://dc.lft.to/lastmile_qr_scan"}}, {"name": "cc05509181bbf132a615737696dfcf7e", "type": "electric_scooter", "lat": 38.91692183333333, "is_reserved": 0, "lon": -77.02525766666666, "fusion_lon": 0.0, "is_disabled": 0, "fusion_lat": 0.0, "bike_id": "cc05509181bbf132a615737696dfcf7e", "rental_uris": {"ios": "https://dc.lft.to/lastmile_qr_scan", "android": "https://dc.lft.to/lastmile_qr_scan"}}, {"name": "b7fd0d2651a50a991c584e3014def808", "type": "electric_scooter", "lat": 38.91681783333333, "is_reserved": 0, "lon": -77.02975383333333, "fusion_lon": 0.0, "is_disabled": 0, "fusion_lat": 0.0, "bike_id": "b7fd0d2651a50a991c584e3014def808", "rental_uris": {"ios": "https://dc.lft.to/lastmile_qr_scan", "android": "https://dc.lft.to/lastmile_qr_scan"}}, {"name": "b2445c832ca263441dd69ed4b9fa89fb", "type": "electric_scooter", "lat": 38.925656833333335, "is_reserved": 0, "lon": -77.02286483333333, "fusion_lon": 0.0, "is_disabled": 0, "fusion_lat": 0.0, "bike_id": "b2445c832ca263441dd69ed4b9fa89fb", "rental_uris": {"ios": "https://dc.lft.to/lastmile_qr_scan", "android": "https://dc.lft.to/lastmile_qr_scan"}}, {"name": "d354a70328560c6d7096e62a9c450aa8", "type": "electric_scooter", "lat": 38.92339916666667, "is_reserved": 0, "lon": -77.03900033333333, "fusion_lon": 0.0, "is_disabled": 0, "fusion_lat": 0.0, "bike_id": "d354a70328560c6d7096e62a9c450aa8", "rental_uris": {"ios": "https://dc.lft.to/lastmile_qr_scan", "android": "https://dc.lft.to/lastmile_qr_scan"}}, {"name": "6a9d9040602df18806cdf5d06ce6a0f9", "type": "electric_scooter", "lat": 38.903123666666666, "is_reserved": 0, "lon": -77.04345733333334, "fusion_lon": 0.0, "is_disabled": 0, "fusion_lat": 0.0, "bike_id": "6a9d9040602df18806cdf5d06ce6a0f9", "rental_uris": {"ios": "https://dc.lft.to/lastmile_qr_scan", "android": "https://dc.lft.to/lastmile_qr_scan"}}, {"name": "7442d44c16eef9446b622c7d202eaa8b", "type": "electric_scooter", "lat": 38.900884166666664, "is_reserved": 0, "lon": -77.0490105, "fusion_lon": 0.0, "is_disabled": 0, "fusion_lat": 0.0, "bike_id": "7442d44c16eef9446b622c7d202eaa8b", "rental_uris": {"ios": "https://dc.lft.to/lastmile_qr_scan", "android": "https://dc.lft.to/lastmile_qr_scan"}}, {"name": "3955caf2958fc08d29a135610b31ed9a", "type": "electric_scooter", "lat": 38.91001716666667, "is_reserved": 0, "lon": -77.02177866666666, "fusion_lon": 0.0, "is_disabled": 0, "fusion_lat": 0.0, "bike_id": "3955caf2958fc08d29a135610b31ed9a", "rental_uris": {"ios": "https://dc.lft.to/lastmile_qr_scan", "android": "https://dc.lft.to/lastmile_qr_scan"}}, {"name": "0cdcab5651ae772d254072f032fc73bd", "type": "electric_bike", "lat": 38.973310833333336, "is_reserved": 0, "lon": -77.02152583333333, "fusion_lon": 0.0, "is_disabled": 0, "fusion_lat": 0.0, "bike_id": "0cdcab5651ae772d254072f032fc73bd", "rental_uris": {"ios": "https://dc.lft.to/lastmile_qr_scan", "android": "https://dc.lft.to/lastmile_qr_scan"}}, {"name": "ad37ad37f6e8a1c37464144dab72cfd8", "type": "electric_scooter", "lat": 38.932262333333334, "is_reserved": 0, "lon": -77.035406, "fusion_lon": 0.0, "is_disabled": 0, "fusion_lat": 0.0, "bike_id": "ad37ad37f6e8a1c37464144dab72cfd8", "rental_uris": {"ios": "https://dc.lft.to/lastmile_qr_scan", "android": "https://dc.lft.to/lastmile_qr_scan"}}, {"name": "1ff1a9b4a93e135c0fd40c4093147b81", "type": "electric_scooter", "lat": 38.9041255, "is_reserved": 0, "lon": -77.02952583333334, "fusion_lon": 0.0, "is_disabled": 0, "fusion_lat": 0.0, "bike_id": "1ff1a9b4a93e135c0fd40c4093147b81", "rental_uris": {"ios": "https://dc.lft.to/lastmile_qr_scan", "android": "https://dc.lft.to/lastmile_qr_scan"}}, {"name": "d34ac3f53f498ff27d6006bf919cf248", "type": "electric_bike", "lat": 38.90092416666667, "is_reserved": 0, "lon": -76.98007683333333, "fusion_lon": 0.0, "is_disabled": 0, "fusion_lat": 0.0, "bike_id": "d34ac3f53f498ff27d6006bf919cf248", "rental_uris": {"ios": "https://dc.lft.to/lastmile_qr_scan", "android": "https://dc.lft.to/lastmile_qr_scan"}}, {"name": "c60392d0893354284442e7255e531503", "type": "electric_scooter", "lat": 38.90018633333333, "is_reserved": 0, "lon": -76.99447533333333, "fusion_lon": 0.0, "is_disabled": 0, "fusion_lat": 0.0, "bike_id": "c60392d0893354284442e7255e531503", "rental_uris": {"ios": "https://dc.lft.to/lastmile_qr_scan", "android": "https://dc.lft.to/lastmile_qr_scan"}}, {"name": "86de3bbe47f9d6d1a62c14f9aeacee5b", "type": "electric_bike", "lat": 38.83863733333333, "is_reserved": 0, "lon": -77.0886575, "fusion_lon": 0.0, "is_disabled": 0, "fusion_lat": 0.0, "bike_id": "86de3bbe47f9d6d1a62c14f9aeacee5b", "rental_uris": {"ios": "https://dc.lft.to/lastmile_qr_scan", "android": "https://dc.lft.to/lastmile_qr_scan"}}, {"name": "90728614346fe4a68da0e48d221f5784", "type": "electric_scooter", "lat": 38.90320966666667, "is_reserved": 0, "lon": -77.0384225, "fusion_lon": 0.0, "is_disabled": 0, "fusion_lat": 0.0, "bike_id": "90728614346fe4a68da0e48d221f5784", "rental_uris": {"ios": "https://dc.lft.to/lastmile_qr_scan", "android": "https://dc.lft.to/lastmile_qr_scan"}}, {"name": "8bde7d2dca7e81db054e46e6eb18bcaf", "type": "electric_scooter", "lat": 38.890524166666665, "is_reserved": 0, "lon": -76.937564, "fusion_lon": 0.0, "is_disabled": 0, "fusion_lat": 0.0, "bike_id": "8bde7d2dca7e81db054e46e6eb18bcaf", "rental_uris": {"ios": "https://dc.lft.to/lastmile_qr_scan", "android": "https://dc.lft.to/lastmile_qr_scan"}}, {"name": "f7a0c2d7eee4f3106ed441e304244782", "type": "electric_scooter", "lat": 38.88399316666667, "is_reserved": 0, "lon": -76.93043383333334, "fusion_lon": 0.0, "is_disabled": 0, "fusion_lat": 0.0, "bike_id": "f7a0c2d7eee4f3106ed441e304244782", "rental_uris": {"ios": "https://dc.lft.to/lastmile_qr_scan", "android": "https://dc.lft.to/lastmile_qr_scan"}}, {"name": "977a35eac9835e62bdb2f1ef65c4de45", "type": "electric_scooter", "lat": 38.898741, "is_reserved": 0, "lon": -77.03311566666666, "fusion_lon": 0.0, "is_disabled": 0, "fusion_lat": 0.0, "bike_id": "977a35eac9835e62bdb2f1ef65c4de45", "rental_uris": {"ios": "https://dc.lft.to/lastmile_qr_scan", "android": "https://dc.lft.to/lastmile_qr_scan"}}, {"name": "537c19cf4c1d9895ee8fa3e69376da8a", "type": "electric_bike", "lat": 38.92210333333333, "is_reserved": 0, "lon": -76.98802266666667, "fusion_lon": 0.0, "is_disabled": 0, "fusion_lat": 0.0, "bike_id": "537c19cf4c1d9895ee8fa3e69376da8a", "rental_uris": {"ios": "https://dc.lft.to/lastmile_qr_scan", "android": "https://dc.lft.to/lastmile_qr_scan"}}, {"name": "fd0ef8490a3b5ad683a8fb6b64078023", "type": "electric_scooter", "lat": 38.89475733333333, "is_reserved": 0, "lon": -77.04661433333334, "fusion_lon": 0.0, "is_disabled": 0, "fusion_lat": 0.0, "bike_id": "fd0ef8490a3b5ad683a8fb6b64078023", "rental_uris": {"ios": "https://dc.lft.to/lastmile_qr_scan", "android": "https://dc.lft.to/lastmile_qr_scan"}}, {"name": "8f4347e389ba53d6aecc4cabbdc672eb", "type": "electric_scooter", "lat": 38.94368266666667, "is_reserved": 0, "lon": -77.02179766666667, "fusion_lon": 0.0, "is_disabled": 0, "fusion_lat": 0.0, "bike_id": "8f4347e389ba53d6aecc4cabbdc672eb", "rental_uris": {"ios": "https://dc.lft.to/lastmile_qr_scan", "android": "https://dc.lft.to/lastmile_qr_scan"}}, {"name": "5fe4767af9323e4f92bf40ee04409df7", "type": "electric_scooter", "lat": 38.88756766666667, "is_reserved": 0, "lon": -76.9798075, "fusion_lon": 0.0, "is_disabled": 0, "fusion_lat": 0.0, "bike_id": "5fe4767af9323e4f92bf40ee04409df7", "rental_uris": {"ios": "https://dc.lft.to/lastmile_qr_scan", "android": "https://dc.lft.to/lastmile_qr_scan"}}, {"name": "b6a795dff0600ed83b90b8d32cd26b86", "type": "electric_bike", "lat": 38.87580966666667, "is_reserved": 0, "lon": -77.10568016666667, "fusion_lon": 0.0, "is_disabled": 0, "fusion_lat": 0.0, "bike_id": "b6a795dff0600ed83b90b8d32cd26b86", "rental_uris": {"ios": "https://dc.lft.to/lastmile_qr_scan", "android": "https://dc.lft.to/lastmile_qr_scan"}}, {"name": "81798a4bfa084bdba6f143cbd6fb9706", "type": "electric_scooter", "lat": 38.894905666666666, "is_reserved": 0, "lon": -77.01016033333333, "fusion_lon": 0.0, "is_disabled": 0, "fusion_lat": 0.0, "bike_id": "81798a4bfa084bdba6f143cbd6fb9706", "rental_uris": {"ios": "https://dc.lft.to/lastmile_qr_scan", "android": "https://dc.lft.to/lastmile_qr_scan"}}, {"name": "ad736c7b6aa7020e49b7fe40dc59c080", "type": "electric_scooter", "lat": 38.93505533333333, "is_reserved": 0, "lon": -77.0199895, "fusion_lon": 0.0, "is_disabled": 0, "fusion_lat": 0.0, "bike_id": "ad736c7b6aa7020e49b7fe40dc59c080", "rental_uris": {"ios": "https://dc.lft.to/lastmile_qr_scan", "android": "https://dc.lft.to/lastmile_qr_scan"}}, {"name": "bcc58b1c59b698f4625797df09cc5b75", "type": "electric_bike", "lat": 39.05402766666667, "is_reserved": 0, "lon": -77.11934916666667, "fusion_lon": 0.0, "is_disabled": 0, "fusion_lat": 0.0, "bike_id": "bcc58b1c59b698f4625797df09cc5b75", "rental_uris": {"ios": "https://dc.lft.to/lastmile_qr_scan", "android": "https://dc.lft.to/lastmile_qr_scan"}}, {"name": "c2500e2fd9dd2a732c009c605c159f02", "type": "electric_scooter", "lat": 38.925664, "is_reserved": 0, "lon": -77.02980666666667, "fusion_lon": 0.0, "is_disabled": 0, "fusion_lat": 0.0, "bike_id": "c2500e2fd9dd2a732c009c605c159f02", "rental_uris": {"ios": "https://dc.lft.to/lastmile_qr_scan", "android": "https://dc.lft.to/lastmile_qr_scan"}}, {"name": "7b4d1ed20f6e176c4217665d64211196", "type": "electric_scooter", "lat": 38.91559916666667, "is_reserved": 0, "lon": -77.07280083333333, "fusion_lon": 0.0, "is_disabled": 0, "fusion_lat": 0.0, "bike_id": "7b4d1ed20f6e176c4217665d64211196", "rental_uris": {"ios": "https://dc.lft.to/lastmile_qr_scan", "android": "https://dc.lft.to/lastmile_qr_scan"}}, {"name": "648995c0e52dcac9261eaf7ba96bd200", "type": "electric_scooter", "lat": 38.923487333333334, "is_reserved": 0, "lon": -77.03488633333333, "fusion_lon": 0.0, "is_disabled": 0, "fusion_lat": 0.0, "bike_id": "648995c0e52dcac9261eaf7ba96bd200", "rental_uris": {"ios": "https://dc.lft.to/lastmile_qr_scan", "android": "https://dc.lft.to/lastmile_qr_scan"}}, {"name": "3ce489ea00cd8a52d23dcaff5ad99f53", "type": "electric_scooter", "lat": 38.842997833333335, "is_reserved": 0, "lon": -76.99948883333333, "fusion_lon": 0.0, "is_disabled": 0, "fusion_lat": 0.0, "bike_id": "3ce489ea00cd8a52d23dcaff5ad99f53", "rental_uris": {"ios": "https://dc.lft.to/lastmile_qr_scan", "android": "https://dc.lft.to/lastmile_qr_scan"}}, {"name": "97b7fd2f447cf41b728156e7257980de", "type": "electric_scooter", "lat": 38.903882, "is_reserved": 0, "lon": -77.04189416666667, "fusion_lon": 0.0, "is_disabled": 0, "fusion_lat": 0.0, "bike_id": "97b7fd2f447cf41b728156e7257980de", "rental_uris": {"ios": "https://dc.lft.to/lastmile_qr_scan", "android": "https://dc.lft.to/lastmile_qr_scan"}}, {"name": "004b9eda9414dd5e30f89c82ead0c512", "type": "electric_scooter", "lat": 38.9105525, "is_reserved": 0, "lon": -77.01688433333334, "fusion_lon": 0.0, "is_disabled": 0, "fusion_lat": 0.0, "bike_id": "004b9eda9414dd5e30f89c82ead0c512", "rental_uris": {"ios": "https://dc.lft.to/lastmile_qr_scan", "android": "https://dc.lft.to/lastmile_qr_scan"}}, {"name": "915304a9841f71d255163635757ae3e6", "type": "electric_scooter", "lat": 38.933048166666666, "is_reserved": 0, "lon": -77.02804866666666, "fusion_lon": 0.0, "is_disabled": 0, "fusion_lat": 0.0, "bike_id": "915304a9841f71d255163635757ae3e6", "rental_uris": {"ios": "https://dc.lft.to/lastmile_qr_scan", "android": "https://dc.lft.to/lastmile_qr_scan"}}, {"name": "36b686f29698fd00fb321fc8e5e48dd8", "type": "electric_scooter", "lat": 38.89623383333333, "is_reserved": 0, "lon": -77.0229595, "fusion_lon": 0.0, "is_disabled": 0, "fusion_lat": 0.0, "bike_id": "36b686f29698fd00fb321fc8e5e48dd8", "rental_uris": {"ios": "https://dc.lft.to/lastmile_qr_scan", "android": "https://dc.lft.to/lastmile_qr_scan"}}, {"name": "e9eaf6d03fb3489a310cf2693aa699d5", "type": "electric_scooter", "lat": 38.92033466666667, "is_reserved": 0, "lon": -77.01117566666667, "fusion_lon": 0.0, "is_disabled": 0, "fusion_lat": 0.0, "bike_id": "e9eaf6d03fb3489a310cf2693aa699d5", "rental_uris": {"ios": "https://dc.lft.to/lastmile_qr_scan", "android": "https://dc.lft.to/lastmile_qr_scan"}}, {"name": "07ccf9027259552bba3807635f418d67", "type": "electric_scooter", "lat": 38.94023166666667, "is_reserved": 0, "lon": -77.06316333333334, "fusion_lon": 0.0, "is_disabled": 0, "fusion_lat": 0.0, "bike_id": "07ccf9027259552bba3807635f418d67", "rental_uris": {"ios": "https://dc.lft.to/lastmile_qr_scan", "android": "https://dc.lft.to/lastmile_qr_scan"}}, {"name": "72aa1fa0540ecd66dbf7a6bb874e2ced", "type": "electric_scooter", "lat": 38.90628183333333, "is_reserved": 0, "lon": -77.05003666666667, "fusion_lon": 0.0, "is_disabled": 0, "fusion_lat": 0.0, "bike_id": "72aa1fa0540ecd66dbf7a6bb874e2ced", "rental_uris": {"ios": "https://dc.lft.to/lastmile_qr_scan", "android": "https://dc.lft.to/lastmile_qr_scan"}}, {"name": "7a81c4a549391c438dea0e665a23318c", "type": "electric_scooter", "lat": 38.96113283333333, "is_reserved": 0, "lon": -77.02813383333333, "fusion_lon": 0.0, "is_disabled": 0, "fusion_lat": 0.0, "bike_id": "7a81c4a549391c438dea0e665a23318c", "rental_uris": {"ios": "https://dc.lft.to/lastmile_qr_scan", "android": "https://dc.lft.to/lastmile_qr_scan"}}, {"name": "4a04950843e10fb71e33c5203da0d456", "type": "electric_bike", "lat": 38.85806916666667, "is_reserved": 0, "lon": -76.98758716666667, "fusion_lon": 0.0, "is_disabled": 0, "fusion_lat": 0.0, "bike_id": "4a04950843e10fb71e33c5203da0d456", "rental_uris": {"ios": "https://dc.lft.to/lastmile_qr_scan", "android": "https://dc.lft.to/lastmile_qr_scan"}}, {"name": "7cad745c5145dce15ba2e9a3723a8eeb", "type": "electric_scooter", "lat": 38.892236, "is_reserved": 0, "lon": -77.03082783333333, "fusion_lon": 0.0, "is_disabled": 0, "fusion_lat": 0.0, "bike_id": "7cad745c5145dce15ba2e9a3723a8eeb", "rental_uris": {"ios": "https://dc.lft.to/lastmile_qr_scan", "android": "https://dc.lft.to/lastmile_qr_scan"}}, {"name": "c49800a45e28037b4d67bb8673d57b1d", "type": "electric_scooter", "lat": 38.897260333333335, "is_reserved": 0, "lon": -77.02704383333334, "fusion_lon": 0.0, "is_disabled": 0, "fusion_lat": 0.0, "bike_id": "c49800a45e28037b4d67bb8673d57b1d", "rental_uris": {"ios": "https://dc.lft.to/lastmile_qr_scan", "android": "https://dc.lft.to/lastmile_qr_scan"}}, {"name": "b23358292e40c65bff7c8bd14ae86255", "type": "electric_scooter", "lat": 38.89482816666667, "is_reserved": 0, "lon": -76.94873433333333, "fusion_lon": 0.0, "is_disabled": 0, "fusion_lat": 0.0, "bike_id": "b23358292e40c65bff7c8bd14ae86255", "rental_uris": {"ios": "https://dc.lft.to/lastmile_qr_scan", "android": "https://dc.lft.to/lastmile_qr_scan"}}, {"name": "d039ec2b2dcb40344705fd20f6356614", "type": "electric_scooter", "lat": 38.924918166666664, "is_reserved": 0, "lon": -77.02716933333333, "fusion_lon": 0.0, "is_disabled": 0, "fusion_lat": 0.0, "bike_id": "d039ec2b2dcb40344705fd20f6356614", "rental_uris": {"ios": "https://dc.lft.to/lastmile_qr_scan", "android": "https://dc.lft.to/lastmile_qr_scan"}}, {"name": "88b4a9e43d9a586e28c5ebd9dffa8361", "type": "electric_scooter", "lat": 38.9286405, "is_reserved": 0, "lon": -77.01390466666666, "fusion_lon": 0.0, "is_disabled": 0, "fusion_lat": 0.0, "bike_id": "88b4a9e43d9a586e28c5ebd9dffa8361", "rental_uris": {"ios": "https://dc.lft.to/lastmile_qr_scan", "android": "https://dc.lft.to/lastmile_qr_scan"}}, {"name": "f447fb817c13f525476755351ad322d8", "type": "electric_scooter", "lat": 38.9059595, "is_reserved": 0, "lon": -77.05094483333333, "fusion_lon": 0.0, "is_disabled": 0, "fusion_lat": 0.0, "bike_id": "f447fb817c13f525476755351ad322d8", "rental_uris": {"ios": "https://dc.lft.to/lastmile_qr_scan", "android": "https://dc.lft.to/lastmile_qr_scan"}}, {"name": "659eaeb55274226241e014d335e03b81", "type": "electric_scooter", "lat": 38.898259, "is_reserved": 0, "lon": -77.01060033333333, "fusion_lon": 0.0, "is_disabled": 0, "fusion_lat": 0.0, "bike_id": "659eaeb55274226241e014d335e03b81", "rental_uris": {"ios": "https://dc.lft.to/lastmile_qr_scan", "android": "https://dc.lft.to/lastmile_qr_scan"}}, {"name": "14663c4bba17b98c969251f254053f71", "type": "electric_bike", "lat": 38.83729183333333, "is_reserved": 0, "lon": -76.99765666666667, "fusion_lon": 0.0, "is_disabled": 0, "fusion_lat": 0.0, "bike_id": "14663c4bba17b98c969251f254053f71", "rental_uris": {"ios": "https://dc.lft.to/lastmile_qr_scan", "android": "https://dc.lft.to/lastmile_qr_scan"}}, {"name": "42b291b8a832d09a4c2aa39ffd3ac0a5", "type": "electric_scooter", "lat": 38.914274166666665, "is_reserved": 0, "lon": -77.04653266666666, "fusion_lon": 0.0, "is_disabled": 0, "fusion_lat": 0.0, "bike_id": "42b291b8a832d09a4c2aa39ffd3ac0a5", "rental_uris": {"ios": "https://dc.lft.to/lastmile_qr_scan", "android": "https://dc.lft.to/lastmile_qr_scan"}}, {"name": "b8d840de8969517bb7f58d5f2544ab67", "type": "electric_scooter", "lat": 38.9397325, "is_reserved": 0, "lon": -77.03262716666667, "fusion_lon": 0.0, "is_disabled": 0, "fusion_lat": 0.0, "bike_id": "b8d840de8969517bb7f58d5f2544ab67", "rental_uris": {"ios": "https://dc.lft.to/lastmile_qr_scan", "android": "https://dc.lft.to/lastmile_qr_scan"}}, {"name": "cf0987e51eb6b437c1c65550fe94b617", "type": "electric_scooter", "lat": 38.89709883333333, "is_reserved": 0, "lon": -77.03251183333333, "fusion_lon": 0.0, "is_disabled": 0, "fusion_lat": 0.0, "bike_id": "cf0987e51eb6b437c1c65550fe94b617", "rental_uris": {"ios": "https://dc.lft.to/lastmile_qr_scan", "android": "https://dc.lft.to/lastmile_qr_scan"}}, {"name": "db6f9992bb5b8800e0678bc8eeada191", "type": "electric_bike", "lat": 38.950787166666665, "is_reserved": 0, "lon": -77.01207833333333, "fusion_lon": 0.0, "is_disabled": 0, "fusion_lat": 0.0, "bike_id": "db6f9992bb5b8800e0678bc8eeada191", "rental_uris": {"ios": "https://dc.lft.to/lastmile_qr_scan", "android": "https://dc.lft.to/lastmile_qr_scan"}}, {"name": "13e19392997a67f72ccca1a9e09b69e2", "type": "electric_scooter", "lat": 38.9025825, "is_reserved": 0, "lon": -77.03073483333333, "fusion_lon": 0.0, "is_disabled": 0, "fusion_lat": 0.0, "bike_id": "13e19392997a67f72ccca1a9e09b69e2", "rental_uris": {"ios": "https://dc.lft.to/lastmile_qr_scan", "android": "https://dc.lft.to/lastmile_qr_scan"}}, {"name": "295ef649820e03611c34e12998414c0f", "type": "electric_scooter", "lat": 38.937167333333335, "is_reserved": 0, "lon": -77.02943616666667, "fusion_lon": 0.0, "is_disabled": 0, "fusion_lat": 0.0, "bike_id": "295ef649820e03611c34e12998414c0f", "rental_uris": {"ios": "https://dc.lft.to/lastmile_qr_scan", "android": "https://dc.lft.to/lastmile_qr_scan"}}, {"name": "62da27aac4c49d3deced75848a25c67b", "type": "electric_bike", "lat": 38.831441166666664, "is_reserved": 0, "lon": -77.11312366666667, "fusion_lon": 0.0, "is_disabled": 0, "fusion_lat": 0.0, "bike_id": "62da27aac4c49d3deced75848a25c67b", "rental_uris": {"ios": "https://dc.lft.to/lastmile_qr_scan", "android": "https://dc.lft.to/lastmile_qr_scan"}}, {"name": "4c4704964f025e9cb1740e6300d3133d", "type": "electric_scooter", "lat": 38.90040366666667, "is_reserved": 0, "lon": -77.0020575, "fusion_lon": 0.0, "is_disabled": 0, "fusion_lat": 0.0, "bike_id": "4c4704964f025e9cb1740e6300d3133d", "rental_uris": {"ios": "https://dc.lft.to/lastmile_qr_scan", "android": "https://dc.lft.to/lastmile_qr_scan"}}, {"name": "cddf34b6deeaa778462c4642ce9ba9b1", "type": "electric_scooter", "lat": 38.885153833333334, "is_reserved": 0, "lon": -77.00571116666667, "fusion_lon": 0.0, "is_disabled": 0, "fusion_lat": 0.0, "bike_id": "cddf34b6deeaa778462c4642ce9ba9b1", "rental_uris": {"ios": "https://dc.lft.to/lastmile_qr_scan", "android": "https://dc.lft.to/lastmile_qr_scan"}}, {"name": "23eac84f32bc63d4ef1725cd0f86d23c", "type": "electric_scooter", "lat": 38.90103966666667, "is_reserved": 0, "lon": -77.01927733333333, "fusion_lon": 0.0, "is_disabled": 0, "fusion_lat": 0.0, "bike_id": "23eac84f32bc63d4ef1725cd0f86d23c", "rental_uris": {"ios": "https://dc.lft.to/lastmile_qr_scan", "android": "https://dc.lft.to/lastmile_qr_scan"}}, {"name": "619e9be204931282497c6eaa3b5a5a1b", "type": "electric_scooter", "lat": 38.93439733333334, "is_reserved": 0, "lon": -77.040033, "fusion_lon": 0.0, "is_disabled": 0, "fusion_lat": 0.0, "bike_id": "619e9be204931282497c6eaa3b5a5a1b", "rental_uris": {"ios": "https://dc.lft.to/lastmile_qr_scan", "android": "https://dc.lft.to/lastmile_qr_scan"}}, {"name": "901b090639aee094cafdb7594ac48a93", "type": "electric_scooter", "lat": 38.94057733333333, "is_reserved": 0, "lon": -77.03287866666666, "fusion_lon": 0.0, "is_disabled": 0, "fusion_lat": 0.0, "bike_id": "901b090639aee094cafdb7594ac48a93", "rental_uris": {"ios": "https://dc.lft.to/lastmile_qr_scan", "android": "https://dc.lft.to/lastmile_qr_scan"}}, {"name": "8d558a54caba8885e251347901c8534c", "type": "electric_scooter", "lat": 38.92102416666667, "is_reserved": 0, "lon": -77.03752716666666, "fusion_lon": 0.0, "is_disabled": 0, "fusion_lat": 0.0, "bike_id": "8d558a54caba8885e251347901c8534c", "rental_uris": {"ios": "https://dc.lft.to/lastmile_qr_scan", "android": "https://dc.lft.to/lastmile_qr_scan"}}, {"name": "33ae1a2ad3910ddcdacddfa061f9b54e", "type": "electric_scooter", "lat": 38.89879966666667, "is_reserved": 0, "lon": -76.93161216666667, "fusion_lon": 0.0, "is_disabled": 0, "fusion_lat": 0.0, "bike_id": "33ae1a2ad3910ddcdacddfa061f9b54e", "rental_uris": {"ios": "https://dc.lft.to/lastmile_qr_scan", "android": "https://dc.lft.to/lastmile_qr_scan"}}, {"name": "5274e0406a9b85c33bfdb6e4900a2d3b", "type": "electric_scooter", "lat": 38.86374033333333, "is_reserved": 0, "lon": -76.99061733333333, "fusion_lon": 0.0, "is_disabled": 0, "fusion_lat": 0.0, "bike_id": "5274e0406a9b85c33bfdb6e4900a2d3b", "rental_uris": {"ios": "https://dc.lft.to/lastmile_qr_scan", "android": "https://dc.lft.to/lastmile_qr_scan"}}, {"name": "50e93c5eefd46aaf3e0f296e1ab581c7", "type": "electric_scooter", "lat": 38.904248833333334, "is_reserved": 0, "lon": -77.04659766666667, "fusion_lon": 0.0, "is_disabled": 0, "fusion_lat": 0.0, "bike_id": "50e93c5eefd46aaf3e0f296e1ab581c7", "rental_uris": {"ios": "https://dc.lft.to/lastmile_qr_scan", "android": "https://dc.lft.to/lastmile_qr_scan"}}, {"name": "77a18a0909158915a63051c424f5f6cf", "type": "electric_scooter", "lat": 38.893667666666666, "is_reserved": 0, "lon": -77.01981516666666, "fusion_lon": 0.0, "is_disabled": 0, "fusion_lat": 0.0, "bike_id": "77a18a0909158915a63051c424f5f6cf", "rental_uris": {"ios": "https://dc.lft.to/lastmile_qr_scan", "android": "https://dc.lft.to/lastmile_qr_scan"}}, {"name": "66069f535ba5e2a58de64ac35b2150a1", "type": "electric_scooter", "lat": 38.89772983333334, "is_reserved": 0, "lon": -76.97729216666667, "fusion_lon": 0.0, "is_disabled": 0, "fusion_lat": 0.0, "bike_id": "66069f535ba5e2a58de64ac35b2150a1", "rental_uris": {"ios": "https://dc.lft.to/lastmile_qr_scan", "android": "https://dc.lft.to/lastmile_qr_scan"}}, {"name": "b671159995f86d6bb5e1c9a054b72992", "type": "electric_scooter", "lat": 38.925454, "is_reserved": 0, "lon": -77.038731, "fusion_lon": 0.0, "is_disabled": 0, "fusion_lat": 0.0, "bike_id": "b671159995f86d6bb5e1c9a054b72992", "rental_uris": {"ios": "https://dc.lft.to/lastmile_qr_scan", "android": "https://dc.lft.to/lastmile_qr_scan"}}, {"name": "1132a02ed17ab736c9678d8c6efbe163", "type": "electric_bike", "lat": 38.89226266666667, "is_reserved": 0, "lon": -76.970267, "fusion_lon": 0.0, "is_disabled": 0, "fusion_lat": 0.0, "bike_id": "1132a02ed17ab736c9678d8c6efbe163", "rental_uris": {"ios": "https://dc.lft.to/lastmile_qr_scan", "android": "https://dc.lft.to/lastmile_qr_scan"}}, {"name": "56c980399f2359c0c8b5d968d58d9e9b", "type": "electric_scooter", "lat": 38.949748666666665, "is_reserved": 0, "lon": -77.07894266666666, "fusion_lon": 0.0, "is_disabled": 0, "fusion_lat": 0.0, "bike_id": "56c980399f2359c0c8b5d968d58d9e9b", "rental_uris": {"ios": "https://dc.lft.to/lastmile_qr_scan", "android": "https://dc.lft.to/lastmile_qr_scan"}}, {"name": "f4dc5a5bc3f1c17226ce8f4b8bccbbd3", "type": "electric_scooter", "lat": 38.91692833333333, "is_reserved": 0, "lon": -77.02970966666666, "fusion_lon": 0.0, "is_disabled": 0, "fusion_lat": 0.0, "bike_id": "f4dc5a5bc3f1c17226ce8f4b8bccbbd3", "rental_uris": {"ios": "https://dc.lft.to/lastmile_qr_scan", "android": "https://dc.lft.to/lastmile_qr_scan"}}, {"name": "aed3cd6f801de525ae1b7d5f456cb55f", "type": "electric_scooter", "lat": 38.877681333333335, "is_reserved": 0, "lon": -77.00812283333333, "fusion_lon": 0.0, "is_disabled": 0, "fusion_lat": 0.0, "bike_id": "aed3cd6f801de525ae1b7d5f456cb55f", "rental_uris": {"ios": "https://dc.lft.to/lastmile_qr_scan", "android": "https://dc.lft.to/lastmile_qr_scan"}}, {"name": "9a79a28a8ea1b5e2191ab487a6d63717", "type": "electric_scooter", "lat": 38.89837083333333, "is_reserved": 0, "lon": -76.94637783333333, "fusion_lon": 0.0, "is_disabled": 0, "fusion_lat": 0.0, "bike_id": "9a79a28a8ea1b5e2191ab487a6d63717", "rental_uris": {"ios": "https://dc.lft.to/lastmile_qr_scan", "android": "https://dc.lft.to/lastmile_qr_scan"}}, {"name": "7600540e2b14e77f0233d0b827ca7968", "type": "electric_scooter", "lat": 38.920033333333336, "is_reserved": 0, "lon": -76.95812633333334, "fusion_lon": 0.0, "is_disabled": 0, "fusion_lat": 0.0, "bike_id": "7600540e2b14e77f0233d0b827ca7968", "rental_uris": {"ios": "https://dc.lft.to/lastmile_qr_scan", "android": "https://dc.lft.to/lastmile_qr_scan"}}, {"name": "84936ec757ad5d0cb11c51cd4028628c", "type": "electric_scooter", "lat": 38.90954983333334, "is_reserved": 0, "lon": -77.04661566666667, "fusion_lon": 0.0, "is_disabled": 0, "fusion_lat": 0.0, "bike_id": "84936ec757ad5d0cb11c51cd4028628c", "rental_uris": {"ios": "https://dc.lft.to/lastmile_qr_scan", "android": "https://dc.lft.to/lastmile_qr_scan"}}, {"name": "678358b60adccfc1af044efab31be008", "type": "electric_scooter", "lat": 38.890172166666666, "is_reserved": 0, "lon": -76.93736516666667, "fusion_lon": 0.0, "is_disabled": 0, "fusion_lat": 0.0, "bike_id": "678358b60adccfc1af044efab31be008", "rental_uris": {"ios": "https://dc.lft.to/lastmile_qr_scan", "android": "https://dc.lft.to/lastmile_qr_scan"}}, {"name": "1dc0e4e0d7a6df8791cd48637d6075d3", "type": "electric_scooter", "lat": 38.96236583333334, "is_reserved": 0, "lon": -77.02980833333334, "fusion_lon": 0.0, "is_disabled": 0, "fusion_lat": 0.0, "bike_id": "1dc0e4e0d7a6df8791cd48637d6075d3", "rental_uris": {"ios": "https://dc.lft.to/lastmile_qr_scan", "android": "https://dc.lft.to/lastmile_qr_scan"}}, {"name": "c0fafc7fc0e25c900908fd98a71c1176", "type": "electric_scooter", "lat": 38.903806333333335, "is_reserved": 0, "lon": -77.04453166666667, "fusion_lon": 0.0, "is_disabled": 0, "fusion_lat": 0.0, "bike_id": "c0fafc7fc0e25c900908fd98a71c1176", "rental_uris": {"ios": "https://dc.lft.to/lastmile_qr_scan", "android": "https://dc.lft.to/lastmile_qr_scan"}}, {"name": "13039899caa30bbc3e2ef4a1706af513", "type": "electric_scooter", "lat": 38.9027995, "is_reserved": 0, "lon": -77.0336695, "fusion_lon": 0.0, "is_disabled": 0, "fusion_lat": 0.0, "bike_id": "13039899caa30bbc3e2ef4a1706af513", "rental_uris": {"ios": "https://dc.lft.to/lastmile_qr_scan", "android": "https://dc.lft.to/lastmile_qr_scan"}}, {"name": "9130adb99e2aacf89f36329f2fdb1221", "type": "electric_scooter", "lat": 38.923735, "is_reserved": 0, "lon": -77.021264, "fusion_lon": 0.0, "is_disabled": 0, "fusion_lat": 0.0, "bike_id": "9130adb99e2aacf89f36329f2fdb1221", "rental_uris": {"ios": "https://dc.lft.to/lastmile_qr_scan", "android": "https://dc.lft.to/lastmile_qr_scan"}}, {"name": "e3ebf39813476fad74c194c960a4f667", "type": "electric_scooter", "lat": 38.912614, "is_reserved": 0, "lon": -77.0093115, "fusion_lon": 0.0, "is_disabled": 0, "fusion_lat": 0.0, "bike_id": "e3ebf39813476fad74c194c960a4f667", "rental_uris": {"ios": "https://dc.lft.to/lastmile_qr_scan", "android": "https://dc.lft.to/lastmile_qr_scan"}}, {"name": "e0e9f5c4148529fd180d3ccb69e7080b", "type": "electric_scooter", "lat": 38.9081, "is_reserved": 0, "lon": -77.03841016666667, "fusion_lon": 0.0, "is_disabled": 0, "fusion_lat": 0.0, "bike_id": "e0e9f5c4148529fd180d3ccb69e7080b", "rental_uris": {"ios": "https://dc.lft.to/lastmile_qr_scan", "android": "https://dc.lft.to/lastmile_qr_scan"}}, {"name": "75d2f4b22927751473e906b950fe2f33", "type": "electric_scooter", "lat": 38.90388316666667, "is_reserved": 0, "lon": -77.03206366666667, "fusion_lon": 0.0, "is_disabled": 0, "fusion_lat": 0.0, "bike_id": "75d2f4b22927751473e906b950fe2f33", "rental_uris": {"ios": "https://dc.lft.to/lastmile_qr_scan", "android": "https://dc.lft.to/lastmile_qr_scan"}}, {"name": "122ea1293464e97d8ce038c614179887", "type": "electric_scooter", "lat": 38.92688366666667, "is_reserved": 0, "lon": -77.09557966666667, "fusion_lon": 0.0, "is_disabled": 0, "fusion_lat": 0.0, "bike_id": "122ea1293464e97d8ce038c614179887", "rental_uris": {"ios": "https://dc.lft.to/lastmile_qr_scan", "android": "https://dc.lft.to/lastmile_qr_scan"}}, {"name": "65951d44871a91b8545b4936ba81bbdb", "type": "electric_scooter", "lat": 38.929322, "is_reserved": 0, "lon": -77.03275666666667, "fusion_lon": 0.0, "is_disabled": 0, "fusion_lat": 0.0, "bike_id": "65951d44871a91b8545b4936ba81bbdb", "rental_uris": {"ios": "https://dc.lft.to/lastmile_qr_scan", "android": "https://dc.lft.to/lastmile_qr_scan"}}, {"name": "6d539b7daf45302c52b74fa58b4d5ba9", "type": "electric_scooter", "lat": 38.918794166666665, "is_reserved": 0, "lon": -77.04383983333334, "fusion_lon": 0.0, "is_disabled": 0, "fusion_lat": 0.0, "bike_id": "6d539b7daf45302c52b74fa58b4d5ba9", "rental_uris": {"ios": "https://dc.lft.to/lastmile_qr_scan", "android": "https://dc.lft.to/lastmile_qr_scan"}}, {"name": "a477d346df70b09664d8fc4c0a04931a", "type": "electric_scooter", "lat": 38.93348116666667, "is_reserved": 0, "lon": -76.99437316666666, "fusion_lon": 0.0, "is_disabled": 0, "fusion_lat": 0.0, "bike_id": "a477d346df70b09664d8fc4c0a04931a", "rental_uris": {"ios": "https://dc.lft.to/lastmile_qr_scan", "android": "https://dc.lft.to/lastmile_qr_scan"}}, {"name": "23503f441294f5e2c500c562b4039a42", "type": "electric_scooter", "lat": 38.9038085, "is_reserved": 0, "lon": -77.03463416666666, "fusion_lon": 0.0, "is_disabled": 0, "fusion_lat": 0.0, "bike_id": "23503f441294f5e2c500c562b4039a42", "rental_uris": {"ios": "https://dc.lft.to/lastmile_qr_scan", "android": "https://dc.lft.to/lastmile_qr_scan"}}, {"name": "82c93493c134979587ef3b0aa84199f8", "type": "electric_scooter", "lat": 38.91597216666667, "is_reserved": 0, "lon": -77.0447495, "fusion_lon": 0.0, "is_disabled": 0, "fusion_lat": 0.0, "bike_id": "82c93493c134979587ef3b0aa84199f8", "rental_uris": {"ios": "https://dc.lft.to/lastmile_qr_scan", "android": "https://dc.lft.to/lastmile_qr_scan"}}, {"name": "2c204e82d3c00e009195fff4d1a1f499", "type": "electric_scooter", "lat": 38.894017833333336, "is_reserved": 0, "lon": -76.948078, "fusion_lon": 0.0, "is_disabled": 0, "fusion_lat": 0.0, "bike_id": "2c204e82d3c00e009195fff4d1a1f499", "rental_uris": {"ios": "https://dc.lft.to/lastmile_qr_scan", "android": "https://dc.lft.to/lastmile_qr_scan"}}, {"name": "43165756010fc8e8597a304e1a9c4bb1", "type": "electric_scooter", "lat": 38.924792833333335, "is_reserved": 0, "lon": -77.03765033333333, "fusion_lon": 0.0, "is_disabled": 0, "fusion_lat": 0.0, "bike_id": "43165756010fc8e8597a304e1a9c4bb1", "rental_uris": {"ios": "https://dc.lft.to/lastmile_qr_scan", "android": "https://dc.lft.to/lastmile_qr_scan"}}, {"name": "85f03c633b979d9cacf2b271eb9693fd", "type": "electric_scooter", "lat": 38.9223185, "is_reserved": 0, "lon": -77.03353833333334, "fusion_lon": 0.0, "is_disabled": 0, "fusion_lat": 0.0, "bike_id": "85f03c633b979d9cacf2b271eb9693fd", "rental_uris": {"ios": "https://dc.lft.to/lastmile_qr_scan", "android": "https://dc.lft.to/lastmile_qr_scan"}}, {"name": "361bbc3b52899d9c246802475222280a", "type": "electric_scooter", "lat": 38.901533, "is_reserved": 0, "lon": -76.93065666666666, "fusion_lon": 0.0, "is_disabled": 0, "fusion_lat": 0.0, "bike_id": "361bbc3b52899d9c246802475222280a", "rental_uris": {"ios": "https://dc.lft.to/lastmile_qr_scan", "android": "https://dc.lft.to/lastmile_qr_scan"}}, {"name": "3de8ec47c46e72a5340b54b457086414", "type": "electric_scooter", "lat": 38.92535566666667, "is_reserved": 0, "lon": -77.0555885, "fusion_lon": 0.0, "is_disabled": 0, "fusion_lat": 0.0, "bike_id": "3de8ec47c46e72a5340b54b457086414", "rental_uris": {"ios": "https://dc.lft.to/lastmile_qr_scan", "android": "https://dc.lft.to/lastmile_qr_scan"}}, {"name": "fcb46d40ac82a2aa2d4e7797d23ed6c8", "type": "electric_bike", "lat": 38.8461225, "is_reserved": 0, "lon": -76.97829683333333, "fusion_lon": 0.0, "is_disabled": 0, "fusion_lat": 0.0, "bike_id": "fcb46d40ac82a2aa2d4e7797d23ed6c8", "rental_uris": {"ios": "https://dc.lft.to/lastmile_qr_scan", "android": "https://dc.lft.to/lastmile_qr_scan"}}, {"name": "112bfb533b8e7615124e32601e82c633", "type": "electric_scooter", "lat": 38.8902645, "is_reserved": 0, "lon": -76.93686433333333, "fusion_lon": 0.0, "is_disabled": 0, "fusion_lat": 0.0, "bike_id": "112bfb533b8e7615124e32601e82c633", "rental_uris": {"ios": "https://dc.lft.to/lastmile_qr_scan", "android": "https://dc.lft.to/lastmile_qr_scan"}}, {"name": "66f4784f6bb729fc5c0a1464bf3fdab6", "type": "electric_scooter", "lat": 38.914800166666666, "is_reserved": 0, "lon": -77.00837166666666, "fusion_lon": 0.0, "is_disabled": 0, "fusion_lat": 0.0, "bike_id": "66f4784f6bb729fc5c0a1464bf3fdab6", "rental_uris": {"ios": "https://dc.lft.to/lastmile_qr_scan", "android": "https://dc.lft.to/lastmile_qr_scan"}}, {"name": "263195654396f3c5684e8cb85584faa7", "type": "electric_bike", "lat": 39.058139833333335, "is_reserved": 0, "lon": -77.1262685, "fusion_lon": 0.0, "is_disabled": 0, "fusion_lat": 0.0, "bike_id": "263195654396f3c5684e8cb85584faa7", "rental_uris": {"ios": "https://dc.lft.to/lastmile_qr_scan", "android": "https://dc.lft.to/lastmile_qr_scan"}}, {"name": "b0e7a5873ed6461232e995f65bf8ddfa", "type": "electric_scooter", "lat": 38.8990365, "is_reserved": 0, "lon": -77.03273816666666, "fusion_lon": 0.0, "is_disabled": 0, "fusion_lat": 0.0, "bike_id": "b0e7a5873ed6461232e995f65bf8ddfa", "rental_uris": {"ios": "https://dc.lft.to/lastmile_qr_scan", "android": "https://dc.lft.to/lastmile_qr_scan"}}, {"name": "1416f90831dd504ee170bfc3ae7275b4", "type": "electric_scooter", "lat": 38.94190316666667, "is_reserved": 0, "lon": -77.030332, "fusion_lon": 0.0, "is_disabled": 0, "fusion_lat": 0.0, "bike_id": "1416f90831dd504ee170bfc3ae7275b4", "rental_uris": {"ios": "https://dc.lft.to/lastmile_qr_scan", "android": "https://dc.lft.to/lastmile_qr_scan"}}, {"name": "0b7f5da91949cc20812cf426bcc45de9", "type": "electric_scooter", "lat": 38.90256633333333, "is_reserved": 0, "lon": -77.03168833333334, "fusion_lon": 0.0, "is_disabled": 0, "fusion_lat": 0.0, "bike_id": "0b7f5da91949cc20812cf426bcc45de9", "rental_uris": {"ios": "https://dc.lft.to/lastmile_qr_scan", "android": "https://dc.lft.to/lastmile_qr_scan"}}, {"name": "aeb27c8f8c18783c3476ff1d5faf364f", "type": "electric_scooter", "lat": 38.88503566666667, "is_reserved": 0, "lon": -76.998443, "fusion_lon": 0.0, "is_disabled": 0, "fusion_lat": 0.0, "bike_id": "aeb27c8f8c18783c3476ff1d5faf364f", "rental_uris": {"ios": "https://dc.lft.to/lastmile_qr_scan", "android": "https://dc.lft.to/lastmile_qr_scan"}}, {"name": "87159a5a130e72a8e9a1d2f545a4e6f6", "type": "electric_scooter", "lat": 38.896725333333336, "is_reserved": 0, "lon": -77.02813266666666, "fusion_lon": 0.0, "is_disabled": 0, "fusion_lat": 0.0, "bike_id": "87159a5a130e72a8e9a1d2f545a4e6f6", "rental_uris": {"ios": "https://dc.lft.to/lastmile_qr_scan", "android": "https://dc.lft.to/lastmile_qr_scan"}}, {"name": "55e23a28372c1b80ee5b252d2b749b9a", "type": "electric_bike", "lat": 38.95291666666667, "is_reserved": 0, "lon": -76.97806666666666, "fusion_lon": 0.0, "is_disabled": 0, "fusion_lat": 0.0, "bike_id": "55e23a28372c1b80ee5b252d2b749b9a", "rental_uris": {"ios": "https://dc.lft.to/lastmile_qr_scan", "android": "https://dc.lft.to/lastmile_qr_scan"}}, {"name": "f7ae53447ec306a59eecd33186bde7ce", "type": "electric_scooter", "lat": 38.916043333333334, "is_reserved": 0, "lon": -76.98383716666666, "fusion_lon": 0.0, "is_disabled": 0, "fusion_lat": 0.0, "bike_id": "f7ae53447ec306a59eecd33186bde7ce", "rental_uris": {"ios": "https://dc.lft.to/lastmile_qr_scan", "android": "https://dc.lft.to/lastmile_qr_scan"}}, {"name": "da8960de5f595802231513e08666bb4f", "type": "electric_scooter", "lat": 38.923742, "is_reserved": 0, "lon": -77.01915016666666, "fusion_lon": 0.0, "is_disabled": 0, "fusion_lat": 0.0, "bike_id": "da8960de5f595802231513e08666bb4f", "rental_uris": {"ios": "https://dc.lft.to/lastmile_qr_scan", "android": "https://dc.lft.to/lastmile_qr_scan"}}, {"name": "ab000c19ca145aa9f44adc94aa306056", "type": "electric_scooter", "lat": 38.89832116666667, "is_reserved": 0, "lon": -76.946501, "fusion_lon": 0.0, "is_disabled": 0, "fusion_lat": 0.0, "bike_id": "ab000c19ca145aa9f44adc94aa306056", "rental_uris": {"ios": "https://dc.lft.to/lastmile_qr_scan", "android": "https://dc.lft.to/lastmile_qr_scan"}}, {"name": "c4426a56b536e19b134c4f8f29256cc7", "type": "electric_scooter", "lat": 38.89018316666667, "is_reserved": 0, "lon": -76.93733683333333, "fusion_lon": 0.0, "is_disabled": 0, "fusion_lat": 0.0, "bike_id": "c4426a56b536e19b134c4f8f29256cc7", "rental_uris": {"ios": "https://dc.lft.to/lastmile_qr_scan", "android": "https://dc.lft.to/lastmile_qr_scan"}}, {"name": "c8db6b1474a0546a11e5d6b8be03b639", "type": "electric_scooter", "lat": 38.902774666666666, "is_reserved": 0, "lon": -77.03853566666666, "fusion_lon": 0.0, "is_disabled": 0, "fusion_lat": 0.0, "bike_id": "c8db6b1474a0546a11e5d6b8be03b639", "rental_uris": {"ios": "https://dc.lft.to/lastmile_qr_scan", "android": "https://dc.lft.to/lastmile_qr_scan"}}, {"name": "e7d42a8f95ba670c466f29d32a6917f7", "type": "electric_scooter", "lat": 38.89674566666667, "is_reserved": 0, "lon": -77.02603616666667, "fusion_lon": 0.0, "is_disabled": 0, "fusion_lat": 0.0, "bike_id": "e7d42a8f95ba670c466f29d32a6917f7", "rental_uris": {"ios": "https://dc.lft.to/lastmile_qr_scan", "android": "https://dc.lft.to/lastmile_qr_scan"}}, {"name": "12447789a0563c98443866c61177a702", "type": "electric_scooter", "lat": 38.92754266666667, "is_reserved": 0, "lon": -77.03264316666667, "fusion_lon": 0.0, "is_disabled": 0, "fusion_lat": 0.0, "bike_id": "12447789a0563c98443866c61177a702", "rental_uris": {"ios": "https://dc.lft.to/lastmile_qr_scan", "android": "https://dc.lft.to/lastmile_qr_scan"}}, {"name": "6bd2e62493a12e1b5eab441048dbc663", "type": "electric_scooter", "lat": 38.89224816666667, "is_reserved": 0, "lon": -77.0486895, "fusion_lon": 0.0, "is_disabled": 0, "fusion_lat": 0.0, "bike_id": "6bd2e62493a12e1b5eab441048dbc663", "rental_uris": {"ios": "https://dc.lft.to/lastmile_qr_scan", "android": "https://dc.lft.to/lastmile_qr_scan"}}, {"name": "817462b3ff0fcb17ec0dbefd0fdbd3a3", "type": "electric_scooter", "lat": 38.93160966666667, "is_reserved": 0, "lon": -77.0564855, "fusion_lon": 0.0, "is_disabled": 0, "fusion_lat": 0.0, "bike_id": "817462b3ff0fcb17ec0dbefd0fdbd3a3", "rental_uris": {"ios": "https://dc.lft.to/lastmile_qr_scan", "android": "https://dc.lft.to/lastmile_qr_scan"}}, {"name": "d6de8a636cce5cec0d72e61d97b21235", "type": "electric_scooter", "lat": 38.92969333333333, "is_reserved": 0, "lon": -77.00540566666666, "fusion_lon": 0.0, "is_disabled": 0, "fusion_lat": 0.0, "bike_id": "d6de8a636cce5cec0d72e61d97b21235", "rental_uris": {"ios": "https://dc.lft.to/lastmile_qr_scan", "android": "https://dc.lft.to/lastmile_qr_scan"}}, {"name": "032487ea7639c4619f24df0ea69df6c0", "type": "electric_scooter", "lat": 38.897877333333334, "is_reserved": 0, "lon": -77.05481833333333, "fusion_lon": 0.0, "is_disabled": 0, "fusion_lat": 0.0, "bike_id": "032487ea7639c4619f24df0ea69df6c0", "rental_uris": {"ios": "https://dc.lft.to/lastmile_qr_scan", "android": "https://dc.lft.to/lastmile_qr_scan"}}, {"name": "6eb0525416027aaedea70a303dc4812f", "type": "electric_scooter", "lat": 38.898256833333335, "is_reserved": 0, "lon": -76.94653716666667, "fusion_lon": 0.0, "is_disabled": 0, "fusion_lat": 0.0, "bike_id": "6eb0525416027aaedea70a303dc4812f", "rental_uris": {"ios": "https://dc.lft.to/lastmile_qr_scan", "android": "https://dc.lft.to/lastmile_qr_scan"}}, {"name": "21a758539699d280502f30eae66c4de1", "type": "electric_scooter", "lat": 38.887744166666664, "is_reserved": 0, "lon": -76.93264533333334, "fusion_lon": 0.0, "is_disabled": 0, "fusion_lat": 0.0, "bike_id": "21a758539699d280502f30eae66c4de1", "rental_uris": {"ios": "https://dc.lft.to/lastmile_qr_scan", "android": "https://dc.lft.to/lastmile_qr_scan"}}, {"name": "06c3341e651efa77d71017b3489ce371", "type": "electric_scooter", "lat": 38.922545, "is_reserved": 0, "lon": -77.03473866666667, "fusion_lon": 0.0, "is_disabled": 0, "fusion_lat": 0.0, "bike_id": "06c3341e651efa77d71017b3489ce371", "rental_uris": {"ios": "https://dc.lft.to/lastmile_qr_scan", "android": "https://dc.lft.to/lastmile_qr_scan"}}, {"name": "6bbb3aef0bcaba9954d5c8e9ac47b553", "type": "electric_scooter", "lat": 38.91738216666667, "is_reserved": 0, "lon": -77.01028383333333, "fusion_lon": 0.0, "is_disabled": 0, "fusion_lat": 0.0, "bike_id": "6bbb3aef0bcaba9954d5c8e9ac47b553", "rental_uris": {"ios": "https://dc.lft.to/lastmile_qr_scan", "android": "https://dc.lft.to/lastmile_qr_scan"}}, {"name": "0767a24c761e8c5964dd5e3b826da4df", "type": "electric_scooter", "lat": 38.92588333333333, "is_reserved": 0, "lon": -77.039884, "fusion_lon": 0.0, "is_disabled": 0, "fusion_lat": 0.0, "bike_id": "0767a24c761e8c5964dd5e3b826da4df", "rental_uris": {"ios": "https://dc.lft.to/lastmile_qr_scan", "android": "https://dc.lft.to/lastmile_qr_scan"}}, {"name": "75460bfe713824238f982f9fcbc4740f", "type": "electric_scooter", "lat": 38.90144883333333, "is_reserved": 0, "lon": -77.02294633333334, "fusion_lon": 0.0, "is_disabled": 0, "fusion_lat": 0.0, "bike_id": "75460bfe713824238f982f9fcbc4740f", "rental_uris": {"ios": "https://dc.lft.to/lastmile_qr_scan", "android": "https://dc.lft.to/lastmile_qr_scan"}}, {"name": "d8ec92ca835815b13375f7091dbabbc8", "type": "electric_scooter", "lat": 38.9155675, "is_reserved": 0, "lon": -77.04623666666667, "fusion_lon": 0.0, "is_disabled": 0, "fusion_lat": 0.0, "bike_id": "d8ec92ca835815b13375f7091dbabbc8", "rental_uris": {"ios": "https://dc.lft.to/lastmile_qr_scan", "android": "https://dc.lft.to/lastmile_qr_scan"}}, {"name": "7c56e727bc9dd48209a0954a4800ddb1", "type": "electric_bike", "lat": 38.96129666666667, "is_reserved": 0, "lon": -77.032725, "fusion_lon": 0.0, "is_disabled": 0, "fusion_lat": 0.0, "bike_id": "7c56e727bc9dd48209a0954a4800ddb1", "rental_uris": {"ios": "https://dc.lft.to/lastmile_qr_scan", "android": "https://dc.lft.to/lastmile_qr_scan"}}, {"name": "c63f2379e8411c92ff466506792d3331", "type": "electric_scooter", "lat": 38.89879883333333, "is_reserved": 0, "lon": -76.93159766666666, "fusion_lon": 0.0, "is_disabled": 0, "fusion_lat": 0.0, "bike_id": "c63f2379e8411c92ff466506792d3331", "rental_uris": {"ios": "https://dc.lft.to/lastmile_qr_scan", "android": "https://dc.lft.to/lastmile_qr_scan"}}, {"name": "621c9fb021281faf24585d0ddc0ae92f", "type": "electric_scooter", "lat": 38.924474833333335, "is_reserved": 0, "lon": -76.99336416666667, "fusion_lon": 0.0, "is_disabled": 0, "fusion_lat": 0.0, "bike_id": "621c9fb021281faf24585d0ddc0ae92f", "rental_uris": {"ios": "https://dc.lft.to/lastmile_qr_scan", "android": "https://dc.lft.to/lastmile_qr_scan"}}, {"name": "f5e2401661b839d3be42a80da9537614", "type": "electric_scooter", "lat": 38.94404433333333, "is_reserved": 0, "lon": -77.0389235, "fusion_lon": 0.0, "is_disabled": 0, "fusion_lat": 0.0, "bike_id": "f5e2401661b839d3be42a80da9537614", "rental_uris": {"ios": "https://dc.lft.to/lastmile_qr_scan", "android": "https://dc.lft.to/lastmile_qr_scan"}}, {"name": "37d152740c3f49ab8e958bd06a332daa", "type": "electric_scooter", "lat": 38.90893716666667, "is_reserved": 0, "lon": -77.00567916666667, "fusion_lon": 0.0, "is_disabled": 0, "fusion_lat": 0.0, "bike_id": "37d152740c3f49ab8e958bd06a332daa", "rental_uris": {"ios": "https://dc.lft.to/lastmile_qr_scan", "android": "https://dc.lft.to/lastmile_qr_scan"}}, {"name": "eb294ba493a38ffff4667ff41560dbe1", "type": "electric_scooter", "lat": 38.88612616666666, "is_reserved": 0, "lon": -77.02170183333334, "fusion_lon": 0.0, "is_disabled": 0, "fusion_lat": 0.0, "bike_id": "eb294ba493a38ffff4667ff41560dbe1", "rental_uris": {"ios": "https://dc.lft.to/lastmile_qr_scan", "android": "https://dc.lft.to/lastmile_qr_scan"}}, {"name": "eb8d6728c373bc618f788bec1c7ae34a", "type": "electric_scooter", "lat": 38.917124333333334, "is_reserved": 0, "lon": -77.0333895, "fusion_lon": 0.0, "is_disabled": 0, "fusion_lat": 0.0, "bike_id": "eb8d6728c373bc618f788bec1c7ae34a", "rental_uris": {"ios": "https://dc.lft.to/lastmile_qr_scan", "android": "https://dc.lft.to/lastmile_qr_scan"}}, {"name": "47e5abec14e639aee9ef016a38b79dfe", "type": "electric_scooter", "lat": 38.90365583333333, "is_reserved": 0, "lon": -77.0298805, "fusion_lon": 0.0, "is_disabled": 0, "fusion_lat": 0.0, "bike_id": "47e5abec14e639aee9ef016a38b79dfe", "rental_uris": {"ios": "https://dc.lft.to/lastmile_qr_scan", "android": "https://dc.lft.to/lastmile_qr_scan"}}, {"name": "53b9bb63e15951040a06281b00da2b87", "type": "electric_scooter", "lat": 38.926168833333335, "is_reserved": 0, "lon": -77.02163783333333, "fusion_lon": 0.0, "is_disabled": 0, "fusion_lat": 0.0, "bike_id": "53b9bb63e15951040a06281b00da2b87", "rental_uris": {"ios": "https://dc.lft.to/lastmile_qr_scan", "android": "https://dc.lft.to/lastmile_qr_scan"}}, {"name": "11d56397a15716f8f879226530098e18", "type": "electric_scooter", "lat": 38.8788205, "is_reserved": 0, "lon": -77.022787, "fusion_lon": 0.0, "is_disabled": 0, "fusion_lat": 0.0, "bike_id": "11d56397a15716f8f879226530098e18", "rental_uris": {"ios": "https://dc.lft.to/lastmile_qr_scan", "android": "https://dc.lft.to/lastmile_qr_scan"}}, {"name": "05455809e91dae7d92ae2c2eb8c43159", "type": "electric_scooter", "lat": 38.9026015, "is_reserved": 0, "lon": -77.04360283333334, "fusion_lon": 0.0, "is_disabled": 0, "fusion_lat": 0.0, "bike_id": "05455809e91dae7d92ae2c2eb8c43159", "rental_uris": {"ios": "https://dc.lft.to/lastmile_qr_scan", "android": "https://dc.lft.to/lastmile_qr_scan"}}, {"name": "f864163f275ff9f2bcb9abfae6cbcf34", "type": "electric_scooter", "lat": 38.90733616666667, "is_reserved": 0, "lon": -77.043538, "fusion_lon": 0.0, "is_disabled": 0, "fusion_lat": 0.0, "bike_id": "f864163f275ff9f2bcb9abfae6cbcf34", "rental_uris": {"ios": "https://dc.lft.to/lastmile_qr_scan", "android": "https://dc.lft.to/lastmile_qr_scan"}}, {"name": "c0124c896bcb69d3159bf3f8eae9581b", "type": "electric_scooter", "lat": 38.91664566666667, "is_reserved": 0, "lon": -77.0050775, "fusion_lon": 0.0, "is_disabled": 0, "fusion_lat": 0.0, "bike_id": "c0124c896bcb69d3159bf3f8eae9581b", "rental_uris": {"ios": "https://dc.lft.to/lastmile_qr_scan", "android": "https://dc.lft.to/lastmile_qr_scan"}}, {"name": "87dac50b6c923006fa0838998963708f", "type": "electric_scooter", "lat": 38.91639516666667, "is_reserved": 0, "lon": -77.03200633333333, "fusion_lon": 0.0, "is_disabled": 0, "fusion_lat": 0.0, "bike_id": "87dac50b6c923006fa0838998963708f", "rental_uris": {"ios": "https://dc.lft.to/lastmile_qr_scan", "android": "https://dc.lft.to/lastmile_qr_scan"}}, {"name": "2017969aab5fd8b241edfd663aea7d76", "type": "electric_scooter", "lat": 38.89675716666667, "is_reserved": 0, "lon": -76.94723066666667, "fusion_lon": 0.0, "is_disabled": 0, "fusion_lat": 0.0, "bike_id": "2017969aab5fd8b241edfd663aea7d76", "rental_uris": {"ios": "https://dc.lft.to/lastmile_qr_scan", "android": "https://dc.lft.to/lastmile_qr_scan"}}, {"name": "ce09de0af1eadef70451162c620be110", "type": "electric_scooter", "lat": 38.9165945, "is_reserved": 0, "lon": -77.02697933333333, "fusion_lon": 0.0, "is_disabled": 0, "fusion_lat": 0.0, "bike_id": "ce09de0af1eadef70451162c620be110", "rental_uris": {"ios": "https://dc.lft.to/lastmile_qr_scan", "android": "https://dc.lft.to/lastmile_qr_scan"}}, {"name": "f7efc53d5180bcdf3b82f52fbea3b080", "type": "electric_scooter", "lat": 38.90027116666667, "is_reserved": 0, "lon": -76.99081183333334, "fusion_lon": 0.0, "is_disabled": 0, "fusion_lat": 0.0, "bike_id": "f7efc53d5180bcdf3b82f52fbea3b080", "rental_uris": {"ios": "https://dc.lft.to/lastmile_qr_scan", "android": "https://dc.lft.to/lastmile_qr_scan"}}, {"name": "d124e729f9fa640eed04f9de7996e341", "type": "electric_bike", "lat": 38.838089, "is_reserved": 0, "lon": -76.99838366666667, "fusion_lon": 0.0, "is_disabled": 0, "fusion_lat": 0.0, "bike_id": "d124e729f9fa640eed04f9de7996e341", "rental_uris": {"ios": "https://dc.lft.to/lastmile_qr_scan", "android": "https://dc.lft.to/lastmile_qr_scan"}}, {"name": "2510ed272d4c7b8024922f041075f09f", "type": "electric_scooter", "lat": 38.917175, "is_reserved": 0, "lon": -77.03858916666667, "fusion_lon": 0.0, "is_disabled": 0, "fusion_lat": 0.0, "bike_id": "2510ed272d4c7b8024922f041075f09f", "rental_uris": {"ios": "https://dc.lft.to/lastmile_qr_scan", "android": "https://dc.lft.to/lastmile_qr_scan"}}, {"name": "8992cbe9279c1c9763ee3979aceac8d5", "type": "electric_bike", "lat": 38.903000166666665, "is_reserved": 0, "lon": -76.94443283333334, "fusion_lon": 0.0, "is_disabled": 0, "fusion_lat": 0.0, "bike_id": "8992cbe9279c1c9763ee3979aceac8d5", "rental_uris": {"ios": "https://dc.lft.to/lastmile_qr_scan", "android": "https://dc.lft.to/lastmile_qr_scan"}}, {"name": "2d3b288e32775cf38703c8d3ffd2b342", "type": "electric_scooter", "lat": 38.904291666666666, "is_reserved": 0, "lon": -77.02805283333333, "fusion_lon": 0.0, "is_disabled": 0, "fusion_lat": 0.0, "bike_id": "2d3b288e32775cf38703c8d3ffd2b342", "rental_uris": {"ios": "https://dc.lft.to/lastmile_qr_scan", "android": "https://dc.lft.to/lastmile_qr_scan"}}, {"name": "b2eb76a25c68892f7d35d8bd9fdbaf42", "type": "electric_scooter", "lat": 38.90577583333334, "is_reserved": 0, "lon": -77.04025083333333, "fusion_lon": 0.0, "is_disabled": 0, "fusion_lat": 0.0, "bike_id": "b2eb76a25c68892f7d35d8bd9fdbaf42", "rental_uris": {"ios": "https://dc.lft.to/lastmile_qr_scan", "android": "https://dc.lft.to/lastmile_qr_scan"}}, {"name": "9f8ad25d45aaaedfde5d22fcc6bb545c", "type": "electric_scooter", "lat": 38.90124383333333, "is_reserved": 0, "lon": -77.04991983333333, "fusion_lon": 0.0, "is_disabled": 0, "fusion_lat": 0.0, "bike_id": "9f8ad25d45aaaedfde5d22fcc6bb545c", "rental_uris": {"ios": "https://dc.lft.to/lastmile_qr_scan", "android": "https://dc.lft.to/lastmile_qr_scan"}}, {"name": "16cb0d2892a222c34ba14323c7e338b0", "type": "electric_scooter", "lat": 38.90337816666667, "is_reserved": 0, "lon": -77.03846216666666, "fusion_lon": 0.0, "is_disabled": 0, "fusion_lat": 0.0, "bike_id": "16cb0d2892a222c34ba14323c7e338b0", "rental_uris": {"ios": "https://dc.lft.to/lastmile_qr_scan", "android": "https://dc.lft.to/lastmile_qr_scan"}}, {"name": "380197394839e6e20af8310a8b0ffd18", "type": "electric_scooter", "lat": 38.923518333333334, "is_reserved": 0, "lon": -77.0348235, "fusion_lon": 0.0, "is_disabled": 0, "fusion_lat": 0.0, "bike_id": "380197394839e6e20af8310a8b0ffd18", "rental_uris": {"ios": "https://dc.lft.to/lastmile_qr_scan", "android": "https://dc.lft.to/lastmile_qr_scan"}}, {"name": "46a5e9dd98be200c3698a616898efcef", "type": "electric_scooter", "lat": 38.900619666666664, "is_reserved": 0, "lon": -77.02597766666666, "fusion_lon": 0.0, "is_disabled": 0, "fusion_lat": 0.0, "bike_id": "46a5e9dd98be200c3698a616898efcef", "rental_uris": {"ios": "https://dc.lft.to/lastmile_qr_scan", "android": "https://dc.lft.to/lastmile_qr_scan"}}, {"name": "ab5332fc045269105e147807f3f29f26", "type": "electric_scooter", "lat": 38.898779833333336, "is_reserved": 0, "lon": -76.93162533333333, "fusion_lon": 0.0, "is_disabled": 0, "fusion_lat": 0.0, "bike_id": "ab5332fc045269105e147807f3f29f26", "rental_uris": {"ios": "https://dc.lft.to/lastmile_qr_scan", "android": "https://dc.lft.to/lastmile_qr_scan"}}, {"name": "0cc6acd7a40aca3187afcbe596b73f06", "type": "electric_bike", "lat": 38.8748655, "is_reserved": 0, "lon": -77.00243333333333, "fusion_lon": 0.0, "is_disabled": 0, "fusion_lat": 0.0, "bike_id": "0cc6acd7a40aca3187afcbe596b73f06", "rental_uris": {"ios": "https://dc.lft.to/lastmile_qr_scan", "android": "https://dc.lft.to/lastmile_qr_scan"}}, {"name": "b7d07bec98bad17027749c930903a340", "type": "electric_scooter", "lat": 38.90668466666666, "is_reserved": 0, "lon": -77.038658, "fusion_lon": 0.0, "is_disabled": 0, "fusion_lat": 0.0, "bike_id": "b7d07bec98bad17027749c930903a340", "rental_uris": {"ios": "https://dc.lft.to/lastmile_qr_scan", "android": "https://dc.lft.to/lastmile_qr_scan"}}, {"name": "34a4d4dfd2e36573540f00e53f4b9fa8", "type": "electric_scooter", "lat": 38.915825166666664, "is_reserved": 0, "lon": -77.04683983333334, "fusion_lon": 0.0, "is_disabled": 0, "fusion_lat": 0.0, "bike_id": "34a4d4dfd2e36573540f00e53f4b9fa8", "rental_uris": {"ios": "https://dc.lft.to/lastmile_qr_scan", "android": "https://dc.lft.to/lastmile_qr_scan"}}, {"name": "4bc145e57896ca06d2641d701bc0d17d", "type": "electric_scooter", "lat": 38.94939466666666, "is_reserved": 0, "lon": -77.01616983333334, "fusion_lon": 0.0, "is_disabled": 0, "fusion_lat": 0.0, "bike_id": "4bc145e57896ca06d2641d701bc0d17d", "rental_uris": {"ios": "https://dc.lft.to/lastmile_qr_scan", "android": "https://dc.lft.to/lastmile_qr_scan"}}, {"name": "2c0f531d512ddf6ee79a45e4da6f4da5", "type": "electric_scooter", "lat": 38.926875833333334, "is_reserved": 0, "lon": -77.037615, "fusion_lon": 0.0, "is_disabled": 0, "fusion_lat": 0.0, "bike_id": "2c0f531d512ddf6ee79a45e4da6f4da5", "rental_uris": {"ios": "https://dc.lft.to/lastmile_qr_scan", "android": "https://dc.lft.to/lastmile_qr_scan"}}, {"name": "2d251ae03de64cc78483e15e6db1d18f", "type": "electric_bike", "lat": 38.919663, "is_reserved": 0, "lon": -76.97268816666667, "fusion_lon": 0.0, "is_disabled": 0, "fusion_lat": 0.0, "bike_id": "2d251ae03de64cc78483e15e6db1d18f", "rental_uris": {"ios": "https://dc.lft.to/lastmile_qr_scan", "android": "https://dc.lft.to/lastmile_qr_scan"}}, {"name": "b96877ccfc62f990905ae4194f244ade", "type": "electric_scooter", "lat": 38.9031025, "is_reserved": 0, "lon": -77.03975466666667, "fusion_lon": 0.0, "is_disabled": 0, "fusion_lat": 0.0, "bike_id": "b96877ccfc62f990905ae4194f244ade", "rental_uris": {"ios": "https://dc.lft.to/lastmile_qr_scan", "android": "https://dc.lft.to/lastmile_qr_scan"}}, {"name": "bd5a96251bf07536be703ab3f6569762", "type": "electric_scooter", "lat": 38.9362065, "is_reserved": 0, "lon": -77.03223816666667, "fusion_lon": 0.0, "is_disabled": 0, "fusion_lat": 0.0, "bike_id": "bd5a96251bf07536be703ab3f6569762", "rental_uris": {"ios": "https://dc.lft.to/lastmile_qr_scan", "android": "https://dc.lft.to/lastmile_qr_scan"}}, {"name": "81e3a6d5445188e297fa7887ae115b89", "type": "electric_scooter", "lat": 38.86443883333333, "is_reserved": 0, "lon": -76.9801905, "fusion_lon": 0.0, "is_disabled": 0, "fusion_lat": 0.0, "bike_id": "81e3a6d5445188e297fa7887ae115b89", "rental_uris": {"ios": "https://dc.lft.to/lastmile_qr_scan", "android": "https://dc.lft.to/lastmile_qr_scan"}}, {"name": "bc181338f68472d53398210a6a3251fa", "type": "electric_scooter", "lat": 38.9051305, "is_reserved": 0, "lon": -77.053186, "fusion_lon": 0.0, "is_disabled": 0, "fusion_lat": 0.0, "bike_id": "bc181338f68472d53398210a6a3251fa", "rental_uris": {"ios": "https://dc.lft.to/lastmile_qr_scan", "android": "https://dc.lft.to/lastmile_qr_scan"}}, {"name": "fefcc06a3f09639b7a8a53ff61a822ab", "type": "electric_scooter", "lat": 38.898358, "is_reserved": 0, "lon": -77.0299975, "fusion_lon": 0.0, "is_disabled": 0, "fusion_lat": 0.0, "bike_id": "fefcc06a3f09639b7a8a53ff61a822ab", "rental_uris": {"ios": "https://dc.lft.to/lastmile_qr_scan", "android": "https://dc.lft.to/lastmile_qr_scan"}}, {"name": "c711bbf9c2aef90659c6b42beeed6da1", "type": "electric_scooter", "lat": 38.902766166666666, "is_reserved": 0, "lon": -77.03845116666666, "fusion_lon": 0.0, "is_disabled": 0, "fusion_lat": 0.0, "bike_id": "c711bbf9c2aef90659c6b42beeed6da1", "rental_uris": {"ios": "https://dc.lft.to/lastmile_qr_scan", "android": "https://dc.lft.to/lastmile_qr_scan"}}, {"name": "032ebc8566bab28b51eef2f16cf29dd4", "type": "electric_scooter", "lat": 38.90528783333333, "is_reserved": 0, "lon": -77.0416035, "fusion_lon": 0.0, "is_disabled": 0, "fusion_lat": 0.0, "bike_id": "032ebc8566bab28b51eef2f16cf29dd4", "rental_uris": {"ios": "https://dc.lft.to/lastmile_qr_scan", "android": "https://dc.lft.to/lastmile_qr_scan"}}, {"name": "5f0480471a3e35ee299f267af03687ca", "type": "electric_scooter", "lat": 38.915681, "is_reserved": 0, "lon": -77.038371, "fusion_lon": 0.0, "is_disabled": 0, "fusion_lat": 0.0, "bike_id": "5f0480471a3e35ee299f267af03687ca", "rental_uris": {"ios": "https://dc.lft.to/lastmile_qr_scan", "android": "https://dc.lft.to/lastmile_qr_scan"}}, {"name": "f4b9c25c459f7a42e14ad3347eb669ae", "type": "electric_scooter", "lat": 38.93355016666667, "is_reserved": 0, "lon": -77.05865366666667, "fusion_lon": 0.0, "is_disabled": 0, "fusion_lat": 0.0, "bike_id": "f4b9c25c459f7a42e14ad3347eb669ae", "rental_uris": {"ios": "https://dc.lft.to/lastmile_qr_scan", "android": "https://dc.lft.to/lastmile_qr_scan"}}, {"name": "63a5f3ec42da42b1caafa569905b178f", "type": "electric_scooter", "lat": 38.93615966666667, "is_reserved": 0, "lon": -77.0225105, "fusion_lon": 0.0, "is_disabled": 0, "fusion_lat": 0.0, "bike_id": "63a5f3ec42da42b1caafa569905b178f", "rental_uris": {"ios": "https://dc.lft.to/lastmile_qr_scan", "android": "https://dc.lft.to/lastmile_qr_scan"}}, {"name": "a52ee143d63c12b8c91e5d9f9893c52a", "type": "electric_scooter", "lat": 38.870189, "is_reserved": 0, "lon": -77.01233183333333, "fusion_lon": 0.0, "is_disabled": 0, "fusion_lat": 0.0, "bike_id": "a52ee143d63c12b8c91e5d9f9893c52a", "rental_uris": {"ios": "https://dc.lft.to/lastmile_qr_scan", "android": "https://dc.lft.to/lastmile_qr_scan"}}, {"name": "94f4288c5db910c89691077b47fda86e", "type": "electric_bike", "lat": 38.869939333333335, "is_reserved": 0, "lon": -76.95986566666667, "fusion_lon": 0.0, "is_disabled": 0, "fusion_lat": 0.0, "bike_id": "94f4288c5db910c89691077b47fda86e", "rental_uris": {"ios": "https://dc.lft.to/lastmile_qr_scan", "android": "https://dc.lft.to/lastmile_qr_scan"}}, {"name": "266679e46a7d02bee56008ec82eef77e", "type": "electric_scooter", "lat": 38.92491866666667, "is_reserved": 0, "lon": -77.05215283333334, "fusion_lon": 0.0, "is_disabled": 0, "fusion_lat": 0.0, "bike_id": "266679e46a7d02bee56008ec82eef77e", "rental_uris": {"ios": "https://dc.lft.to/lastmile_qr_scan", "android": "https://dc.lft.to/lastmile_qr_scan"}}, {"name": "9ad1458f623bec55ffc82da93a4230a1", "type": "electric_scooter", "lat": 38.922753666666665, "is_reserved": 0, "lon": -77.01821516666666, "fusion_lon": 0.0, "is_disabled": 0, "fusion_lat": 0.0, "bike_id": "9ad1458f623bec55ffc82da93a4230a1", "rental_uris": {"ios": "https://dc.lft.to/lastmile_qr_scan", "android": "https://dc.lft.to/lastmile_qr_scan"}}, {"name": "19dc82f269977f4286493cbcdc43b5ad", "type": "electric_scooter", "lat": 38.884932, "is_reserved": 0, "lon": -77.00710766666667, "fusion_lon": 0.0, "is_disabled": 0, "fusion_lat": 0.0, "bike_id": "19dc82f269977f4286493cbcdc43b5ad", "rental_uris": {"ios": "https://dc.lft.to/lastmile_qr_scan", "android": "https://dc.lft.to/lastmile_qr_scan"}}, {"name": "921939cf0664aa7f7002fc0af8eb2326", "type": "electric_bike", "lat": 38.98509083333333, "is_reserved": 0, "lon": -76.9821055, "fusion_lon": 0.0, "is_disabled": 0, "fusion_lat": 0.0, "bike_id": "921939cf0664aa7f7002fc0af8eb2326", "rental_uris": {"ios": "https://dc.lft.to/lastmile_qr_scan", "android": "https://dc.lft.to/lastmile_qr_scan"}}, {"name": "d261cbb5f6af71b0bf00d3561ebd4f03", "type": "electric_scooter", "lat": 38.94464983333334, "is_reserved": 0, "lon": -77.0065985, "fusion_lon": 0.0, "is_disabled": 0, "fusion_lat": 0.0, "bike_id": "d261cbb5f6af71b0bf00d3561ebd4f03", "rental_uris": {"ios": "https://dc.lft.to/lastmile_qr_scan", "android": "https://dc.lft.to/lastmile_qr_scan"}}, {"name": "6b595e750db5cb53cac381ba13b96085", "type": "electric_bike", "lat": 38.82051466666667, "is_reserved": 0, "lon": -77.0531325, "fusion_lon": 0.0, "is_disabled": 0, "fusion_lat": 0.0, "bike_id": "6b595e750db5cb53cac381ba13b96085", "rental_uris": {"ios": "https://dc.lft.to/lastmile_qr_scan", "android": "https://dc.lft.to/lastmile_qr_scan"}}, {"name": "eef8d8218e8c441fa83ba4a0de0e8ee1", "type": "electric_scooter", "lat": 38.8657205, "is_reserved": 0, "lon": -76.98551816666667, "fusion_lon": 0.0, "is_disabled": 0, "fusion_lat": 0.0, "bike_id": "eef8d8218e8c441fa83ba4a0de0e8ee1", "rental_uris": {"ios": "https://dc.lft.to/lastmile_qr_scan", "android": "https://dc.lft.to/lastmile_qr_scan"}}, {"name": "b1d9f893b3ee1522afd16836c635d9a7", "type": "electric_scooter", "lat": 38.909336333333336, "is_reserved": 0, "lon": -76.99962983333333, "fusion_lon": 0.0, "is_disabled": 0, "fusion_lat": 0.0, "bike_id": "b1d9f893b3ee1522afd16836c635d9a7", "rental_uris": {"ios": "https://dc.lft.to/lastmile_qr_scan", "android": "https://dc.lft.to/lastmile_qr_scan"}}, {"name": "ed00a27802bea205f199f0d7fd458243", "type": "electric_scooter", "lat": 38.90796566666667, "is_reserved": 0, "lon": -77.036596, "fusion_lon": 0.0, "is_disabled": 0, "fusion_lat": 0.0, "bike_id": "ed00a27802bea205f199f0d7fd458243", "rental_uris": {"ios": "https://dc.lft.to/lastmile_qr_scan", "android": "https://dc.lft.to/lastmile_qr_scan"}}, {"name": "4bf645e532f659c2a1d47da6cd4e7552", "type": "electric_scooter", "lat": 38.94441533333333, "is_reserved": 0, "lon": -77.06351716666667, "fusion_lon": 0.0, "is_disabled": 0, "fusion_lat": 0.0, "bike_id": "4bf645e532f659c2a1d47da6cd4e7552", "rental_uris": {"ios": "https://dc.lft.to/lastmile_qr_scan", "android": "https://dc.lft.to/lastmile_qr_scan"}}, {"name": "cfe10a93739ae17ff178edcd5610fb17", "type": "electric_scooter", "lat": 38.93074716666667, "is_reserved": 0, "lon": -77.03402316666667, "fusion_lon": 0.0, "is_disabled": 0, "fusion_lat": 0.0, "bike_id": "cfe10a93739ae17ff178edcd5610fb17", "rental_uris": {"ios": "https://dc.lft.to/lastmile_qr_scan", "android": "https://dc.lft.to/lastmile_qr_scan"}}, {"name": "dd7e8625cca12fa713cb1be10ee30a15", "type": "electric_scooter", "lat": 38.932338666666666, "is_reserved": 0, "lon": -77.03835516666666, "fusion_lon": 0.0, "is_disabled": 0, "fusion_lat": 0.0, "bike_id": "dd7e8625cca12fa713cb1be10ee30a15", "rental_uris": {"ios": "https://dc.lft.to/lastmile_qr_scan", "android": "https://dc.lft.to/lastmile_qr_scan"}}, {"name": "9ae012407c6308d5f659de653aa5c38a", "type": "electric_scooter", "lat": 38.90067166666667, "is_reserved": 0, "lon": -76.98711716666666, "fusion_lon": 0.0, "is_disabled": 0, "fusion_lat": 0.0, "bike_id": "9ae012407c6308d5f659de653aa5c38a", "rental_uris": {"ios": "https://dc.lft.to/lastmile_qr_scan", "android": "https://dc.lft.to/lastmile_qr_scan"}}, {"name": "743674f484cce676659bc4b7d0b3dca7", "type": "electric_scooter", "lat": 38.903095, "is_reserved": 0, "lon": -77.03205216666667, "fusion_lon": 0.0, "is_disabled": 0, "fusion_lat": 0.0, "bike_id": "743674f484cce676659bc4b7d0b3dca7", "rental_uris": {"ios": "https://dc.lft.to/lastmile_qr_scan", "android": "https://dc.lft.to/lastmile_qr_scan"}}, {"name": "49924adabb4024dc37a640e6da193240", "type": "electric_scooter", "lat": 38.885377166666665, "is_reserved": 0, "lon": -77.00586666666666, "fusion_lon": 0.0, "is_disabled": 0, "fusion_lat": 0.0, "bike_id": "49924adabb4024dc37a640e6da193240", "rental_uris": {"ios": "https://dc.lft.to/lastmile_qr_scan", "android": "https://dc.lft.to/lastmile_qr_scan"}}, {"name": "564b02073669b9ee39a432c0b741f343", "type": "electric_scooter", "lat": 38.86241966666667, "is_reserved": 0, "lon": -76.99496233333333, "fusion_lon": 0.0, "is_disabled": 0, "fusion_lat": 0.0, "bike_id": "564b02073669b9ee39a432c0b741f343", "rental_uris": {"ios": "https://dc.lft.to/lastmile_qr_scan", "android": "https://dc.lft.to/lastmile_qr_scan"}}, {"name": "c5bb6f86110a81fd0779c13f3136721f", "type": "electric_scooter", "lat": 38.90921566666667, "is_reserved": 0, "lon": -77.07278583333333, "fusion_lon": 0.0, "is_disabled": 0, "fusion_lat": 0.0, "bike_id": "c5bb6f86110a81fd0779c13f3136721f", "rental_uris": {"ios": "https://dc.lft.to/lastmile_qr_scan", "android": "https://dc.lft.to/lastmile_qr_scan"}}, {"name": "97da5a2640abc6e7dea5b88055b35492", "type": "electric_scooter", "lat": 38.926724166666666, "is_reserved": 0, "lon": -77.01489316666667, "fusion_lon": 0.0, "is_disabled": 0, "fusion_lat": 0.0, "bike_id": "97da5a2640abc6e7dea5b88055b35492", "rental_uris": {"ios": "https://dc.lft.to/lastmile_qr_scan", "android": "https://dc.lft.to/lastmile_qr_scan"}}, {"name": "584161c327bb237fe54357bd44f64ec0", "type": "electric_bike", "lat": 38.83937233333333, "is_reserved": 0, "lon": -77.079022, "fusion_lon": 0.0, "is_disabled": 0, "fusion_lat": 0.0, "bike_id": "584161c327bb237fe54357bd44f64ec0", "rental_uris": {"ios": "https://dc.lft.to/lastmile_qr_scan", "android": "https://dc.lft.to/lastmile_qr_scan"}}, {"name": "7f9198a213e2db63afa7c418b4a68cb9", "type": "electric_scooter", "lat": 38.90024983333333, "is_reserved": 0, "lon": -77.0115865, "fusion_lon": 0.0, "is_disabled": 0, "fusion_lat": 0.0, "bike_id": "7f9198a213e2db63afa7c418b4a68cb9", "rental_uris": {"ios": "https://dc.lft.to/lastmile_qr_scan", "android": "https://dc.lft.to/lastmile_qr_scan"}}, {"name": "017573d198786366726eeaf5f070448c", "type": "electric_scooter", "lat": 38.884977, "is_reserved": 0, "lon": -77.00725983333334, "fusion_lon": 0.0, "is_disabled": 0, "fusion_lat": 0.0, "bike_id": "017573d198786366726eeaf5f070448c", "rental_uris": {"ios": "https://dc.lft.to/lastmile_qr_scan", "android": "https://dc.lft.to/lastmile_qr_scan"}}, {"name": "fbcd144206a1766b08587b06dfaeb437", "type": "electric_scooter", "lat": 38.915624666666666, "is_reserved": 0, "lon": -77.02175133333333, "fusion_lon": 0.0, "is_disabled": 0, "fusion_lat": 0.0, "bike_id": "fbcd144206a1766b08587b06dfaeb437", "rental_uris": {"ios": "https://dc.lft.to/lastmile_qr_scan", "android": "https://dc.lft.to/lastmile_qr_scan"}}, {"name": "918684f90bd05fd2eddd66fe3e65bc04", "type": "electric_scooter", "lat": 38.90595283333333, "is_reserved": 0, "lon": -77.01617216666666, "fusion_lon": 0.0, "is_disabled": 0, "fusion_lat": 0.0, "bike_id": "918684f90bd05fd2eddd66fe3e65bc04", "rental_uris": {"ios": "https://dc.lft.to/lastmile_qr_scan", "android": "https://dc.lft.to/lastmile_qr_scan"}}, {"name": "4cb913a9b22c57477dcd6af01c1fe495", "type": "electric_bike", "lat": 38.90136316666667, "is_reserved": 0, "lon": -77.04491116666667, "fusion_lon": 0.0, "is_disabled": 0, "fusion_lat": 0.0, "bike_id": "4cb913a9b22c57477dcd6af01c1fe495", "rental_uris": {"ios": "https://dc.lft.to/lastmile_qr_scan", "android": "https://dc.lft.to/lastmile_qr_scan"}}, {"name": "8750deb765c48324898bac235b3bc270", "type": "electric_scooter", "lat": 38.903193333333334, "is_reserved": 0, "lon": -77.03351116666667, "fusion_lon": 0.0, "is_disabled": 0, "fusion_lat": 0.0, "bike_id": "8750deb765c48324898bac235b3bc270", "rental_uris": {"ios": "https://dc.lft.to/lastmile_qr_scan", "android": "https://dc.lft.to/lastmile_qr_scan"}}, {"name": "50fc27e648ee7ac57f366193f533a801", "type": "electric_scooter", "lat": 38.89815266666667, "is_reserved": 0, "lon": -77.0329555, "fusion_lon": 0.0, "is_disabled": 0, "fusion_lat": 0.0, "bike_id": "50fc27e648ee7ac57f366193f533a801", "rental_uris": {"ios": "https://dc.lft.to/lastmile_qr_scan", "android": "https://dc.lft.to/lastmile_qr_scan"}}, {"name": "73bd54a70fd15505d108f1ce58accae6", "type": "electric_bike", "lat": 38.880501333333335, "is_reserved": 0, "lon": -77.0132515, "fusion_lon": 0.0, "is_disabled": 0, "fusion_lat": 0.0, "bike_id": "73bd54a70fd15505d108f1ce58accae6", "rental_uris": {"ios": "https://dc.lft.to/lastmile_qr_scan", "android": "https://dc.lft.to/lastmile_qr_scan"}}, {"name": "fc6bf5b628985d2cad50f5f37bc75787", "type": "electric_bike", "lat": 38.84280183333333, "is_reserved": 0, "lon": -76.98844783333334, "fusion_lon": 0.0, "is_disabled": 0, "fusion_lat": 0.0, "bike_id": "fc6bf5b628985d2cad50f5f37bc75787", "rental_uris": {"ios": "https://dc.lft.to/lastmile_qr_scan", "android": "https://dc.lft.to/lastmile_qr_scan"}}, {"name": "7f90524506cafd1dd8d14a6ae5b8f6b2", "type": "electric_scooter", "lat": 38.90617533333333, "is_reserved": 0, "lon": -77.04346683333333, "fusion_lon": 0.0, "is_disabled": 0, "fusion_lat": 0.0, "bike_id": "7f90524506cafd1dd8d14a6ae5b8f6b2", "rental_uris": {"ios": "https://dc.lft.to/lastmile_qr_scan", "android": "https://dc.lft.to/lastmile_qr_scan"}}, {"name": "bff930dd4c6459ea90bfb9efe015a5f2", "type": "electric_scooter", "lat": 38.914647333333335, "is_reserved": 0, "lon": -77.0049065, "fusion_lon": 0.0, "is_disabled": 0, "fusion_lat": 0.0, "bike_id": "bff930dd4c6459ea90bfb9efe015a5f2", "rental_uris": {"ios": "https://dc.lft.to/lastmile_qr_scan", "android": "https://dc.lft.to/lastmile_qr_scan"}}, {"name": "58a5925eaac1d764611216470c39a87e", "type": "electric_scooter", "lat": 38.89746133333333, "is_reserved": 0, "lon": -77.01313283333333, "fusion_lon": 0.0, "is_disabled": 0, "fusion_lat": 0.0, "bike_id": "58a5925eaac1d764611216470c39a87e", "rental_uris": {"ios": "https://dc.lft.to/lastmile_qr_scan", "android": "https://dc.lft.to/lastmile_qr_scan"}}, {"name": "761cf765d23c784548c1c48773639057", "type": "electric_scooter", "lat": 38.927418, "is_reserved": 0, "lon": -77.01204516666667, "fusion_lon": 0.0, "is_disabled": 0, "fusion_lat": 0.0, "bike_id": "761cf765d23c784548c1c48773639057", "rental_uris": {"ios": "https://dc.lft.to/lastmile_qr_scan", "android": "https://dc.lft.to/lastmile_qr_scan"}}, {"name": "6b6314f479eba147de6950399e7f904c", "type": "electric_scooter", "lat": 38.904247166666664, "is_reserved": 0, "lon": -77.02981333333334, "fusion_lon": 0.0, "is_disabled": 0, "fusion_lat": 0.0, "bike_id": "6b6314f479eba147de6950399e7f904c", "rental_uris": {"ios": "https://dc.lft.to/lastmile_qr_scan", "android": "https://dc.lft.to/lastmile_qr_scan"}}, {"name": "a6cd1bc573cfb58bfbc9238bb4fe46a0", "type": "electric_scooter", "lat": 38.91343283333333, "is_reserved": 0, "lon": -77.03118816666667, "fusion_lon": 0.0, "is_disabled": 0, "fusion_lat": 0.0, "bike_id": "a6cd1bc573cfb58bfbc9238bb4fe46a0", "rental_uris": {"ios": "https://dc.lft.to/lastmile_qr_scan", "android": "https://dc.lft.to/lastmile_qr_scan"}}, {"name": "912ab2ee784f1e3ef7c9b36b655be24e", "type": "electric_scooter", "lat": 38.9201365, "is_reserved": 0, "lon": -77.03889383333333, "fusion_lon": 0.0, "is_disabled": 0, "fusion_lat": 0.0, "bike_id": "912ab2ee784f1e3ef7c9b36b655be24e", "rental_uris": {"ios": "https://dc.lft.to/lastmile_qr_scan", "android": "https://dc.lft.to/lastmile_qr_scan"}}, {"name": "28517a1ae57a1a2db882560176bea110", "type": "electric_scooter", "lat": 38.8998715, "is_reserved": 0, "lon": -77.029338, "fusion_lon": 0.0, "is_disabled": 0, "fusion_lat": 0.0, "bike_id": "28517a1ae57a1a2db882560176bea110", "rental_uris": {"ios": "https://dc.lft.to/lastmile_qr_scan", "android": "https://dc.lft.to/lastmile_qr_scan"}}, {"name": "d4d13fb7013a498c230f441e0fb195ff", "type": "electric_scooter", "lat": 38.9496915, "is_reserved": 0, "lon": -77.07930133333333, "fusion_lon": 0.0, "is_disabled": 0, "fusion_lat": 0.0, "bike_id": "d4d13fb7013a498c230f441e0fb195ff", "rental_uris": {"ios": "https://dc.lft.to/lastmile_qr_scan", "android": "https://dc.lft.to/lastmile_qr_scan"}}, {"name": "ce611fc332d921f2a99a79433c2a5f11", "type": "electric_scooter", "lat": 38.88413033333333, "is_reserved": 0, "lon": -76.976023, "fusion_lon": 0.0, "is_disabled": 0, "fusion_lat": 0.0, "bike_id": "ce611fc332d921f2a99a79433c2a5f11", "rental_uris": {"ios": "https://dc.lft.to/lastmile_qr_scan", "android": "https://dc.lft.to/lastmile_qr_scan"}}, {"name": "8850b7517fc0c3d65ee52c159a589408", "type": "electric_scooter", "lat": 38.969795833333336, "is_reserved": 0, "lon": -77.02715516666666, "fusion_lon": 0.0, "is_disabled": 0, "fusion_lat": 0.0, "bike_id": "8850b7517fc0c3d65ee52c159a589408", "rental_uris": {"ios": "https://dc.lft.to/lastmile_qr_scan", "android": "https://dc.lft.to/lastmile_qr_scan"}}, {"name": "23101fd91c3c7280c9941bf8e3ea86d5", "type": "electric_scooter", "lat": 38.84294666666667, "is_reserved": 0, "lon": -76.9995045, "fusion_lon": 0.0, "is_disabled": 0, "fusion_lat": 0.0, "bike_id": "23101fd91c3c7280c9941bf8e3ea86d5", "rental_uris": {"ios": "https://dc.lft.to/lastmile_qr_scan", "android": "https://dc.lft.to/lastmile_qr_scan"}}, {"name": "0befc6f18dd04b82eea9848b796fc9a4", "type": "electric_scooter", "lat": 38.867052666666666, "is_reserved": 0, "lon": -76.98716316666666, "fusion_lon": 0.0, "is_disabled": 0, "fusion_lat": 0.0, "bike_id": "0befc6f18dd04b82eea9848b796fc9a4", "rental_uris": {"ios": "https://dc.lft.to/lastmile_qr_scan", "android": "https://dc.lft.to/lastmile_qr_scan"}}, {"name": "7831fcc39982f56eb640fd0893670538", "type": "electric_scooter", "lat": 38.87692166666667, "is_reserved": 0, "lon": -77.00074083333334, "fusion_lon": 0.0, "is_disabled": 0, "fusion_lat": 0.0, "bike_id": "7831fcc39982f56eb640fd0893670538", "rental_uris": {"ios": "https://dc.lft.to/lastmile_qr_scan", "android": "https://dc.lft.to/lastmile_qr_scan"}}, {"name": "8a387fe641b737d166fd68707cfee533", "type": "electric_scooter", "lat": 38.90550366666667, "is_reserved": 0, "lon": -77.00549333333333, "fusion_lon": 0.0, "is_disabled": 0, "fusion_lat": 0.0, "bike_id": "8a387fe641b737d166fd68707cfee533", "rental_uris": {"ios": "https://dc.lft.to/lastmile_qr_scan", "android": "https://dc.lft.to/lastmile_qr_scan"}}, {"name": "dcf7f188b21d9f61c499133f32a6f921", "type": "electric_scooter", "lat": 38.90333433333333, "is_reserved": 0, "lon": -77.03850633333333, "fusion_lon": 0.0, "is_disabled": 0, "fusion_lat": 0.0, "bike_id": "dcf7f188b21d9f61c499133f32a6f921", "rental_uris": {"ios": "https://dc.lft.to/lastmile_qr_scan", "android": "https://dc.lft.to/lastmile_qr_scan"}}, {"name": "c6777988bde1b68116ce6651875e63ef", "type": "electric_scooter", "lat": 38.927155666666664, "is_reserved": 0, "lon": -77.04049666666667, "fusion_lon": 0.0, "is_disabled": 0, "fusion_lat": 0.0, "bike_id": "c6777988bde1b68116ce6651875e63ef", "rental_uris": {"ios": "https://dc.lft.to/lastmile_qr_scan", "android": "https://dc.lft.to/lastmile_qr_scan"}}, {"name": "9544fb728e31bb9bbaeaa218b94c87b0", "type": "electric_scooter", "lat": 38.9227495, "is_reserved": 0, "lon": -77.01824616666667, "fusion_lon": 0.0, "is_disabled": 0, "fusion_lat": 0.0, "bike_id": "9544fb728e31bb9bbaeaa218b94c87b0", "rental_uris": {"ios": "https://dc.lft.to/lastmile_qr_scan", "android": "https://dc.lft.to/lastmile_qr_scan"}}, {"name": "457f2bba7d20415068d834ddcde9e0c8", "type": "electric_scooter", "lat": 38.90035183333333, "is_reserved": 0, "lon": -76.99865033333333, "fusion_lon": 0.0, "is_disabled": 0, "fusion_lat": 0.0, "bike_id": "457f2bba7d20415068d834ddcde9e0c8", "rental_uris": {"ios": "https://dc.lft.to/lastmile_qr_scan", "android": "https://dc.lft.to/lastmile_qr_scan"}}, {"name": "43ee7949c6d647c2deae95c20b421bf0", "type": "electric_scooter", "lat": 38.925589, "is_reserved": 0, "lon": -77.0009465, "fusion_lon": 0.0, "is_disabled": 0, "fusion_lat": 0.0, "bike_id": "43ee7949c6d647c2deae95c20b421bf0", "rental_uris": {"ios": "https://dc.lft.to/lastmile_qr_scan", "android": "https://dc.lft.to/lastmile_qr_scan"}}, {"name": "145ee57c6d44e40993b0dddeb0f6aeff", "type": "electric_scooter", "lat": 38.90532866666667, "is_reserved": 0, "lon": -77.0652245, "fusion_lon": 0.0, "is_disabled": 0, "fusion_lat": 0.0, "bike_id": "145ee57c6d44e40993b0dddeb0f6aeff", "rental_uris": {"ios": "https://dc.lft.to/lastmile_qr_scan", "android": "https://dc.lft.to/lastmile_qr_scan"}}, {"name": "f7524f77e911a0f71479668389b3fa2f", "type": "electric_scooter", "lat": 38.903802166666665, "is_reserved": 0, "lon": -77.0448535, "fusion_lon": 0.0, "is_disabled": 0, "fusion_lat": 0.0, "bike_id": "f7524f77e911a0f71479668389b3fa2f", "rental_uris": {"ios": "https://dc.lft.to/lastmile_qr_scan", "android": "https://dc.lft.to/lastmile_qr_scan"}}, {"name": "d363e5c737913985ec51d81a1047529f", "type": "electric_scooter", "lat": 38.8995855, "is_reserved": 0, "lon": -77.05275283333333, "fusion_lon": 0.0, "is_disabled": 0, "fusion_lat": 0.0, "bike_id": "d363e5c737913985ec51d81a1047529f", "rental_uris": {"ios": "https://dc.lft.to/lastmile_qr_scan", "android": "https://dc.lft.to/lastmile_qr_scan"}}, {"name": "3bd5ff0f6a92835af9c3c22574cd9d78", "type": "electric_scooter", "lat": 38.90117033333333, "is_reserved": 0, "lon": -77.05170966666667, "fusion_lon": 0.0, "is_disabled": 0, "fusion_lat": 0.0, "bike_id": "3bd5ff0f6a92835af9c3c22574cd9d78", "rental_uris": {"ios": "https://dc.lft.to/lastmile_qr_scan", "android": "https://dc.lft.to/lastmile_qr_scan"}}, {"name": "1274433019dc1f303b104e08643ab316", "type": "electric_scooter", "lat": 38.90349666666667, "is_reserved": 0, "lon": -77.03837233333333, "fusion_lon": 0.0, "is_disabled": 0, "fusion_lat": 0.0, "bike_id": "1274433019dc1f303b104e08643ab316", "rental_uris": {"ios": "https://dc.lft.to/lastmile_qr_scan", "android": "https://dc.lft.to/lastmile_qr_scan"}}, {"name": "facb1a20f6afe5992fb61f98cf6b72b8", "type": "electric_scooter", "lat": 38.90582933333334, "is_reserved": 0, "lon": -77.03972166666667, "fusion_lon": 0.0, "is_disabled": 0, "fusion_lat": 0.0, "bike_id": "facb1a20f6afe5992fb61f98cf6b72b8", "rental_uris": {"ios": "https://dc.lft.to/lastmile_qr_scan", "android": "https://dc.lft.to/lastmile_qr_scan"}}, {"name": "de2f1264624c98a7458a1f87ca2e77b1", "type": "electric_bike", "lat": 38.90508166666667, "is_reserved": 0, "lon": -77.06016983333333, "fusion_lon": 0.0, "is_disabled": 0, "fusion_lat": 0.0, "bike_id": "de2f1264624c98a7458a1f87ca2e77b1", "rental_uris": {"ios": "https://dc.lft.to/lastmile_qr_scan", "android": "https://dc.lft.to/lastmile_qr_scan"}}, {"name": "a1f1a952d39e535410160db966775549", "type": "electric_scooter", "lat": 38.95927366666667, "is_reserved": 0, "lon": -77.03327216666666, "fusion_lon": 0.0, "is_disabled": 0, "fusion_lat": 0.0, "bike_id": "a1f1a952d39e535410160db966775549", "rental_uris": {"ios": "https://dc.lft.to/lastmile_qr_scan", "android": "https://dc.lft.to/lastmile_qr_scan"}}, {"name": "291ae3a4ce195b06ba90986680d16b98", "type": "electric_scooter", "lat": 38.905639, "is_reserved": 0, "lon": -77.0031375, "fusion_lon": 0.0, "is_disabled": 0, "fusion_lat": 0.0, "bike_id": "291ae3a4ce195b06ba90986680d16b98", "rental_uris": {"ios": "https://dc.lft.to/lastmile_qr_scan", "android": "https://dc.lft.to/lastmile_qr_scan"}}, {"name": "f3cf7694dc3fb46d43d240643191cd25", "type": "electric_scooter", "lat": 38.9288215, "is_reserved": 0, "lon": -77.0545555, "fusion_lon": 0.0, "is_disabled": 0, "fusion_lat": 0.0, "bike_id": "f3cf7694dc3fb46d43d240643191cd25", "rental_uris": {"ios": "https://dc.lft.to/lastmile_qr_scan", "android": "https://dc.lft.to/lastmile_qr_scan"}}, {"name": "3f8cd43fb87a669e08ed73c59398663b", "type": "electric_scooter", "lat": 38.942841333333334, "is_reserved": 0, "lon": -77.02505383333333, "fusion_lon": 0.0, "is_disabled": 0, "fusion_lat": 0.0, "bike_id": "3f8cd43fb87a669e08ed73c59398663b", "rental_uris": {"ios": "https://dc.lft.to/lastmile_qr_scan", "android": "https://dc.lft.to/lastmile_qr_scan"}}, {"name": "8b68ffb18987476c66938d23d247b641", "type": "electric_bike", "lat": 38.906955333333336, "is_reserved": 0, "lon": -77.03589383333333, "fusion_lon": 0.0, "is_disabled": 0, "fusion_lat": 0.0, "bike_id": "8b68ffb18987476c66938d23d247b641", "rental_uris": {"ios": "https://dc.lft.to/lastmile_qr_scan", "android": "https://dc.lft.to/lastmile_qr_scan"}}, {"name": "d796244eee35d561acee6277ab138ce5", "type": "electric_scooter", "lat": 38.906967, "is_reserved": 0, "lon": -77.04353416666666, "fusion_lon": 0.0, "is_disabled": 0, "fusion_lat": 0.0, "bike_id": "d796244eee35d561acee6277ab138ce5", "rental_uris": {"ios": "https://dc.lft.to/lastmile_qr_scan", "android": "https://dc.lft.to/lastmile_qr_scan"}}, {"name": "ec802859979169b60ccee437aecb1a38", "type": "electric_scooter", "lat": 38.897562, "is_reserved": 0, "lon": -77.02909783333334, "fusion_lon": 0.0, "is_disabled": 0, "fusion_lat": 0.0, "bike_id": "ec802859979169b60ccee437aecb1a38", "rental_uris": {"ios": "https://dc.lft.to/lastmile_qr_scan", "android": "https://dc.lft.to/lastmile_qr_scan"}}, {"name": "3350f4a58146060fb8e3f48e548b5545", "type": "electric_scooter", "lat": 38.89363933333333, "is_reserved": 0, "lon": -77.00333516666667, "fusion_lon": 0.0, "is_disabled": 0, "fusion_lat": 0.0, "bike_id": "3350f4a58146060fb8e3f48e548b5545", "rental_uris": {"ios": "https://dc.lft.to/lastmile_qr_scan", "android": "https://dc.lft.to/lastmile_qr_scan"}}, {"name": "f6573626341abc1c384ac7fe3512279f", "type": "electric_scooter", "lat": 38.908195, "is_reserved": 0, "lon": -77.03943966666667, "fusion_lon": 0.0, "is_disabled": 0, "fusion_lat": 0.0, "bike_id": "f6573626341abc1c384ac7fe3512279f", "rental_uris": {"ios": "https://dc.lft.to/lastmile_qr_scan", "android": "https://dc.lft.to/lastmile_qr_scan"}}, {"name": "ecedc2b6ee1a85c1abc0ed0610b0ae9f", "type": "electric_scooter", "lat": 38.9037885, "is_reserved": 0, "lon": -77.04342166666666, "fusion_lon": 0.0, "is_disabled": 0, "fusion_lat": 0.0, "bike_id": "ecedc2b6ee1a85c1abc0ed0610b0ae9f", "rental_uris": {"ios": "https://dc.lft.to/lastmile_qr_scan", "android": "https://dc.lft.to/lastmile_qr_scan"}}, {"name": "38cf406e2a53e3cbfd4c8eb9f1a812fe", "type": "electric_scooter", "lat": 38.901998166666665, "is_reserved": 0, "lon": -76.98196233333333, "fusion_lon": 0.0, "is_disabled": 0, "fusion_lat": 0.0, "bike_id": "38cf406e2a53e3cbfd4c8eb9f1a812fe", "rental_uris": {"ios": "https://dc.lft.to/lastmile_qr_scan", "android": "https://dc.lft.to/lastmile_qr_scan"}}, {"name": "cf9798452663da27a5899418c8b88009", "type": "electric_scooter", "lat": 38.890489333333335, "is_reserved": 0, "lon": -76.93750866666667, "fusion_lon": 0.0, "is_disabled": 0, "fusion_lat": 0.0, "bike_id": "cf9798452663da27a5899418c8b88009", "rental_uris": {"ios": "https://dc.lft.to/lastmile_qr_scan", "android": "https://dc.lft.to/lastmile_qr_scan"}}, {"name": "cc91f73bc43461d7fdf0c0214f9e192b", "type": "electric_scooter", "lat": 38.914453333333334, "is_reserved": 0, "lon": -77.00352166666667, "fusion_lon": 0.0, "is_disabled": 0, "fusion_lat": 0.0, "bike_id": "cc91f73bc43461d7fdf0c0214f9e192b", "rental_uris": {"ios": "https://dc.lft.to/lastmile_qr_scan", "android": "https://dc.lft.to/lastmile_qr_scan"}}, {"name": "cf3d442a452d166652e1202e6b4d55cc", "type": "electric_scooter", "lat": 38.908466, "is_reserved": 0, "lon": -77.08529383333334, "fusion_lon": 0.0, "is_disabled": 0, "fusion_lat": 0.0, "bike_id": "cf3d442a452d166652e1202e6b4d55cc", "rental_uris": {"ios": "https://dc.lft.to/lastmile_qr_scan", "android": "https://dc.lft.to/lastmile_qr_scan"}}, {"name": "3c25129d434c16d5c51057e468e3a9f3", "type": "electric_scooter", "lat": 38.876907833333334, "is_reserved": 0, "lon": -77.000673, "fusion_lon": 0.0, "is_disabled": 0, "fusion_lat": 0.0, "bike_id": "3c25129d434c16d5c51057e468e3a9f3", "rental_uris": {"ios": "https://dc.lft.to/lastmile_qr_scan", "android": "https://dc.lft.to/lastmile_qr_scan"}}, {"name": "b7da2cc8f6b78c332f982afc3bd9a787", "type": "electric_scooter", "lat": 38.972405, "is_reserved": 0, "lon": -77.027179, "fusion_lon": 0.0, "is_disabled": 0, "fusion_lat": 0.0, "bike_id": "b7da2cc8f6b78c332f982afc3bd9a787", "rental_uris": {"ios": "https://dc.lft.to/lastmile_qr_scan", "android": "https://dc.lft.to/lastmile_qr_scan"}}, {"name": "3cc593ec4ec1e5812e71d7baab9a5180", "type": "electric_scooter", "lat": 38.895297666666664, "is_reserved": 0, "lon": -77.03347833333333, "fusion_lon": 0.0, "is_disabled": 0, "fusion_lat": 0.0, "bike_id": "3cc593ec4ec1e5812e71d7baab9a5180", "rental_uris": {"ios": "https://dc.lft.to/lastmile_qr_scan", "android": "https://dc.lft.to/lastmile_qr_scan"}}, {"name": "a31fcf6ede9acc2e60c861c1a521dcd5", "type": "electric_scooter", "lat": 38.90152966666667, "is_reserved": 0, "lon": -77.03322333333334, "fusion_lon": 0.0, "is_disabled": 0, "fusion_lat": 0.0, "bike_id": "a31fcf6ede9acc2e60c861c1a521dcd5", "rental_uris": {"ios": "https://dc.lft.to/lastmile_qr_scan", "android": "https://dc.lft.to/lastmile_qr_scan"}}, {"name": "c07cf7a5eb6d2f2e5ad6fd57b400bcdf", "type": "electric_scooter", "lat": 38.912742, "is_reserved": 0, "lon": -77.0408675, "fusion_lon": 0.0, "is_disabled": 0, "fusion_lat": 0.0, "bike_id": "c07cf7a5eb6d2f2e5ad6fd57b400bcdf", "rental_uris": {"ios": "https://dc.lft.to/lastmile_qr_scan", "android": "https://dc.lft.to/lastmile_qr_scan"}}, {"name": "4c35b0e4cc3191c5f8bddcce2fbe00fe", "type": "electric_scooter", "lat": 38.92450516666667, "is_reserved": 0, "lon": -77.02040116666667, "fusion_lon": 0.0, "is_disabled": 0, "fusion_lat": 0.0, "bike_id": "4c35b0e4cc3191c5f8bddcce2fbe00fe", "rental_uris": {"ios": "https://dc.lft.to/lastmile_qr_scan", "android": "https://dc.lft.to/lastmile_qr_scan"}}, {"name": "3f5f2c7228df5a7f79ad4d09a0559355", "type": "electric_scooter", "lat": 38.855323, "is_reserved": 0, "lon": -76.9692175, "fusion_lon": 0.0, "is_disabled": 0, "fusion_lat": 0.0, "bike_id": "3f5f2c7228df5a7f79ad4d09a0559355", "rental_uris": {"ios": "https://dc.lft.to/lastmile_qr_scan", "android": "https://dc.lft.to/lastmile_qr_scan"}}, {"name": "1461c67f83d22d72037c30928ae7d84d", "type": "electric_scooter", "lat": 38.91408083333334, "is_reserved": 0, "lon": -77.0457075, "fusion_lon": 0.0, "is_disabled": 0, "fusion_lat": 0.0, "bike_id": "1461c67f83d22d72037c30928ae7d84d", "rental_uris": {"ios": "https://dc.lft.to/lastmile_qr_scan", "android": "https://dc.lft.to/lastmile_qr_scan"}}, {"name": "e23d7d1e044f4e27bdb5c015176de9e7", "type": "electric_scooter", "lat": 38.893994, "is_reserved": 0, "lon": -76.948052, "fusion_lon": 0.0, "is_disabled": 0, "fusion_lat": 0.0, "bike_id": "e23d7d1e044f4e27bdb5c015176de9e7", "rental_uris": {"ios": "https://dc.lft.to/lastmile_qr_scan", "android": "https://dc.lft.to/lastmile_qr_scan"}}, {"name": "76db57998184d7b98d00b9ad692721a9", "type": "electric_scooter", "lat": 38.94099333333333, "is_reserved": 0, "lon": -77.032825, "fusion_lon": 0.0, "is_disabled": 0, "fusion_lat": 0.0, "bike_id": "76db57998184d7b98d00b9ad692721a9", "rental_uris": {"ios": "https://dc.lft.to/lastmile_qr_scan", "android": "https://dc.lft.to/lastmile_qr_scan"}}, {"name": "2e7af75563ad10f0e6e54381b7d053f2", "type": "electric_scooter", "lat": 38.919521333333336, "is_reserved": 0, "lon": -77.03210616666667, "fusion_lon": 0.0, "is_disabled": 0, "fusion_lat": 0.0, "bike_id": "2e7af75563ad10f0e6e54381b7d053f2", "rental_uris": {"ios": "https://dc.lft.to/lastmile_qr_scan", "android": "https://dc.lft.to/lastmile_qr_scan"}}, {"name": "29881915650108a54d8403f137092d31", "type": "electric_scooter", "lat": 38.9320565, "is_reserved": 0, "lon": -77.038513, "fusion_lon": 0.0, "is_disabled": 0, "fusion_lat": 0.0, "bike_id": "29881915650108a54d8403f137092d31", "rental_uris": {"ios": "https://dc.lft.to/lastmile_qr_scan", "android": "https://dc.lft.to/lastmile_qr_scan"}}, {"name": "dd648fbadb9aca94103d5b49358bb71a", "type": "electric_scooter", "lat": 38.90000966666667, "is_reserved": 0, "lon": -76.99505666666667, "fusion_lon": 0.0, "is_disabled": 0, "fusion_lat": 0.0, "bike_id": "dd648fbadb9aca94103d5b49358bb71a", "rental_uris": {"ios": "https://dc.lft.to/lastmile_qr_scan", "android": "https://dc.lft.to/lastmile_qr_scan"}}, {"name": "7d0da4135010c595487018ca5dee9e55", "type": "electric_scooter", "lat": 38.92450983333333, "is_reserved": 0, "lon": -77.03376333333334, "fusion_lon": 0.0, "is_disabled": 0, "fusion_lat": 0.0, "bike_id": "7d0da4135010c595487018ca5dee9e55", "rental_uris": {"ios": "https://dc.lft.to/lastmile_qr_scan", "android": "https://dc.lft.to/lastmile_qr_scan"}}, {"name": "3eb42881237950bb1aa13845baaedfa1", "type": "electric_bike", "lat": 38.932474166666665, "is_reserved": 0, "lon": -77.03853016666666, "fusion_lon": 0.0, "is_disabled": 0, "fusion_lat": 0.0, "bike_id": "3eb42881237950bb1aa13845baaedfa1", "rental_uris": {"ios": "https://dc.lft.to/lastmile_qr_scan", "android": "https://dc.lft.to/lastmile_qr_scan"}}, {"name": "b571247eda553024ac6f590eabe6d8d8", "type": "electric_scooter", "lat": 38.86415233333334, "is_reserved": 0, "lon": -76.98045166666667, "fusion_lon": 0.0, "is_disabled": 0, "fusion_lat": 0.0, "bike_id": "b571247eda553024ac6f590eabe6d8d8", "rental_uris": {"ios": "https://dc.lft.to/lastmile_qr_scan", "android": "https://dc.lft.to/lastmile_qr_scan"}}, {"name": "3cadb54c3cb987ef4c442b01cdf43b78", "type": "electric_scooter", "lat": 38.903105833333335, "is_reserved": 0, "lon": -77.03461966666667, "fusion_lon": 0.0, "is_disabled": 0, "fusion_lat": 0.0, "bike_id": "3cadb54c3cb987ef4c442b01cdf43b78", "rental_uris": {"ios": "https://dc.lft.to/lastmile_qr_scan", "android": "https://dc.lft.to/lastmile_qr_scan"}}, {"name": "9d2df26d1ef0e4a83f2178327788a7e2", "type": "electric_scooter", "lat": 38.92060516666667, "is_reserved": 0, "lon": -77.0298255, "fusion_lon": 0.0, "is_disabled": 0, "fusion_lat": 0.0, "bike_id": "9d2df26d1ef0e4a83f2178327788a7e2", "rental_uris": {"ios": "https://dc.lft.to/lastmile_qr_scan", "android": "https://dc.lft.to/lastmile_qr_scan"}}, {"name": "35cd595be58a9038e3849ab673f02748", "type": "electric_scooter", "lat": 38.923495833333334, "is_reserved": 0, "lon": -77.0189505, "fusion_lon": 0.0, "is_disabled": 0, "fusion_lat": 0.0, "bike_id": "35cd595be58a9038e3849ab673f02748", "rental_uris": {"ios": "https://dc.lft.to/lastmile_qr_scan", "android": "https://dc.lft.to/lastmile_qr_scan"}}, {"name": "971c5290c7fe3d40669e18020a64b08f", "type": "electric_scooter", "lat": 38.89670266666667, "is_reserved": 0, "lon": -77.02959266666667, "fusion_lon": 0.0, "is_disabled": 0, "fusion_lat": 0.0, "bike_id": "971c5290c7fe3d40669e18020a64b08f", "rental_uris": {"ios": "https://dc.lft.to/lastmile_qr_scan", "android": "https://dc.lft.to/lastmile_qr_scan"}},