{"data": {"bikes": [{"rental_uris": {"ios": "https://dc.lft.to/lastmile_qr_scan", "android": "https://dc.lft.to/lastmile_qr_scan"}, "lon": -77.022987, "type": "electric_scooter", "fusion_lat": 0.0, "lat": 38.91552216666667, "name": "df37da014115d88893a6478f00331776", "fusion_lon": 0.0, "bike_id": "df37da014115d88893a6478f00331776", "is_disabled": 0, "is_reserved": 0}, {"rental_uris": {"ios": "https://dc.lft.to/lastmile_qr_scan", "android": "https://dc.lft.to/lastmile_qr_scan"}, "lon": -76.99517433333334, "type": "electric_scooter", "fusion_lat": 0.0, "lat": 38.86259233333333, "name": "d5d9db840305689bf826ce2899ce4b51", "fusion_lon": 0.0, "bike_id": "d5d9db840305689bf826ce2899ce4b51", "is_disabled": 0, "is_reserved": 0}, {"rental_uris": {"ios": "https://dc.lft.to/lastmile_qr_scan", "android": "https://dc.lft.to/lastmile_qr_scan"}, "lon": -76.95758, "type": "electric_scooter", "fusion_lat": 0.0, "lat": 38.8842675, "name": "7f5ff8452d4d815167acdb29c825c9f8", "fusion_lon": 0.0, "bike_id": "7f5ff8452d4d815167acdb29c825c9f8", "is_disabled": 0, "is_reserved": 0}, {"rental_uris": {"ios": "https://dc.lft.to/lastmile_qr_scan", "android": "https://dc.lft.to/lastmile_qr_scan"}, "lon": -76.99462083333333, "type": "electric_scooter", "fusion_lat": 0.0, "lat": 38.851574666666664, "name": "eed473826d51f9b7ef84a2ce2d4e297f", "fusion_lon": 0.0, "bike_id": "eed473826d51f9b7ef84a2ce2d4e297f", "is_disabled": 0, "is_reserved": 0}, {"rental_uris": {"ios": "https://dc.lft.to/lastmile_qr_scan", "android": "https://dc.lft.to/lastmile_qr_scan"}, "lon": -76.9381285, "type": "electric_scooter", "fusion_lat": 0.0, "lat": 38.8908445, "name": "15d5c21bd1a3e95fe0b189f71d568de2", "fusion_lon": 0.0, "bike_id": "15d5c21bd1a3e95fe0b189f71d568de2", "is_disabled": 0, "is_reserved": 0}, {"rental_uris": {"ios": "https://dc.lft.to/lastmile_qr_scan", "android": "https://dc.lft.to/lastmile_qr_scan"}, "lon": -77.03562533333333, "type": "electric_scooter", "fusion_lat": 0.0, "lat": 38.939739, "name": "330f7a9dc8f4c62316b887512b1545d2", "fusion_lon": 0.0, "bike_id": "330f7a9dc8f4c62316b887512b1545d2", "is_disabled": 0, "is_reserved": 0}, {"rental_uris": {"ios": "https://dc.lft.to/lastmile_qr_scan", "android": "https://dc.lft.to/lastmile_qr_scan"}, "lon": -77.02952983333333, "type": "electric_scooter", "fusion_lat": 0.0, "lat": 38.91718983333333, "name": "73b1616aad00e4573ecf3df6408b5361", "fusion_lon": 0.0, "bike_id": "73b1616aad00e4573ecf3df6408b5361", "is_disabled": 0, "is_reserved": 0}, {"rental_uris": {"ios": "https://dc.lft.to/lastmile_qr_scan", "android": "https://dc.lft.to/lastmile_qr_scan"}, "lon": -76.98751333333334, "type": "electric_scooter", "fusion_lat": 0.0, "lat": 38.910168666666664, "name": "b524eaf838758de333b5f61c9308735a", "fusion_lon": 0.0, "bike_id": "b524eaf838758de333b5f61c9308735a", "is_disabled": 0, "is_reserved": 0}, {"rental_uris": {"ios": "https://dc.lft.to/lastmile_qr_scan", "android": "https://dc.lft.to/lastmile_qr_scan"}, "lon": -76.9740815, "type": "electric_scooter", "fusion_lat": 0.0, "lat": 38.90235333333333, "name": "0656bfcd26077fb8f4343b9a625f4015", "fusion_lon": 0.0, "bike_id": "0656bfcd26077fb8f4343b9a625f4015", "is_disabled": 0, "is_reserved": 0}, {"rental_uris": {"ios": "https://dc.lft.to/lastmile_qr_scan", "android": "https://dc.lft.to/lastmile_qr_scan"}, "lon": -77.03506383333334, "type": "electric_scooter", "fusion_lat": 0.0, "lat": 38.921510833333336, "name": "4249b049cd2251ed39025d5c964ad369", "fusion_lon": 0.0, "bike_id": "4249b049cd2251ed39025d5c964ad369", "is_disabled": 0, "is_reserved": 0}, {"rental_uris": {"ios": "https://dc.lft.to/lastmile_qr_scan", "android": "https://dc.lft.to/lastmile_qr_scan"}, "lon": -77.08060783333333, "type": "electric_bike", "fusion_lat": 0.0, "lat": 38.84834, "name": "6ba942e47785e13e70db822c7cda2f6e", "fusion_lon": 0.0, "bike_id": "6ba942e47785e13e70db822c7cda2f6e", "is_disabled": 0, "is_reserved": 0}, {"rental_uris": {"ios": "https://dc.lft.to/lastmile_qr_scan", "android": "https://dc.lft.to/lastmile_qr_scan"}, "lon": -77.0341005, "type": "electric_scooter", "fusion_lat": 0.0, "lat": 38.92424116666667, "name": "ba051f09b06b9ad037205cf65bd526f2", "fusion_lon": 0.0, "bike_id": "ba051f09b06b9ad037205cf65bd526f2", "is_disabled": 0, "is_reserved": 0}, {"rental_uris": {"ios": "https://dc.lft.to/lastmile_qr_scan", "android": "https://dc.lft.to/lastmile_qr_scan"}, "lon": -76.9288855, "type": "electric_bike", "fusion_lat": 0.0, "lat": 39.005312833333335, "name": "0f750ff7766b714cd4333f9992a672a6", "fusion_lon": 0.0, "bike_id": "0f750ff7766b714cd4333f9992a672a6", "is_disabled": 0, "is_reserved": 0}, {"rental_uris": {"ios": "https://dc.lft.to/lastmile_qr_scan", "android": "https://dc.lft.to/lastmile_qr_scan"}, "lon": -77.03659833333333, "type": "electric_scooter", "fusion_lat": 0.0, "lat": 38.922429666666666, "name": "8307702a0edca167e945898ab23cb60f", "fusion_lon": 0.0, "bike_id": "8307702a0edca167e945898ab23cb60f", "is_disabled": 0, "is_reserved": 0}, {"rental_uris": {"ios": "https://dc.lft.to/lastmile_qr_scan", "android": "https://dc.lft.to/lastmile_qr_scan"}, "lon": -76.93962533333334, "type": "electric_scooter", "fusion_lat": 0.0, "lat": 38.8996765, "name": "28a38eec9c80bd0624d44557c9284b74", "fusion_lon": 0.0, "bike_id": "28a38eec9c80bd0624d44557c9284b74", "is_disabled": 0, "is_reserved": 0}, {"rental_uris": {"ios": "https://dc.lft.to/lastmile_qr_scan", "android": "https://dc.lft.to/lastmile_qr_scan"}, "lon": -77.03846416666667, "type": "electric_scooter", "fusion_lat": 0.0, "lat": 38.90768516666667, "name": "19af634a64008e718b64c74fad92fa23", "fusion_lon": 0.0, "bike_id": "19af634a64008e718b64c74fad92fa23", "is_disabled": 0, "is_reserved": 0}, {"rental_uris": {"ios": "https://dc.lft.to/lastmile_qr_scan", "android": "https://dc.lft.to/lastmile_qr_scan"}, "lon": -77.04232416666666, "type": "electric_scooter", "fusion_lat": 0.0, "lat": 38.90343266666667, "name": "c01879c19c6874b305b071b13c40caab", "fusion_lon": 0.0, "bike_id": "c01879c19c6874b305b071b13c40caab", "is_disabled": 0, "is_reserved": 0}, {"rental_uris": {"ios": "https://dc.lft.to/lastmile_qr_scan", "android": "https://dc.lft.to/lastmile_qr_scan"}, "lon": -77.05550766666667, "type": "electric_scooter", "fusion_lat": 0.0, "lat": 38.925291, "name": "d0a6b117d28b39f006fa209a0bc927b7", "fusion_lon": 0.0, "bike_id": "d0a6b117d28b39f006fa209a0bc927b7", "is_disabled": 0, "is_reserved": 0}, {"rental_uris": {"ios": "https://dc.lft.to/lastmile_qr_scan", "android": "https://dc.lft.to/lastmile_qr_scan"}, "lon": -77.05992566666667, "type": "electric_scooter", "fusion_lat": 0.0, "lat": 38.905142166666664, "name": "4b3e9d008c4a9b7366c0546cdeaa3b19", "fusion_lon": 0.0, "bike_id": "4b3e9d008c4a9b7366c0546cdeaa3b19", "is_disabled": 0, "is_reserved": 0}, {"rental_uris": {"ios": "https://dc.lft.to/lastmile_qr_scan", "android": "https://dc.lft.to/lastmile_qr_scan"}, "lon": -76.92875616666667, "type": "electric_scooter", "fusion_lat": 0.0, "lat": 38.884378166666664, "name": "24088e3bf7d0f21013f7afa62033789c", "fusion_lon": 0.0, "bike_id": "24088e3bf7d0f21013f7afa62033789c", "is_disabled": 0, "is_reserved": 0}, {"rental_uris": {"ios": "https://dc.lft.to/lastmile_qr_scan", "android": "https://dc.lft.to/lastmile_qr_scan"}, "lon": -76.98906766666667, "type": "electric_scooter", "fusion_lat": 0.0, "lat": 38.866825, "name": "6e7d24c71b974ea515ac08bb3003b255", "fusion_lon": 0.0, "bike_id": "6e7d24c71b974ea515ac08bb3003b255", "is_disabled": 0, "is_reserved": 0}, {"rental_uris": {"ios": "https://dc.lft.to/lastmile_qr_scan", "android": "https://dc.lft.to/lastmile_qr_scan"}, "lon": -77.01774133333333, "type": "electric_scooter", "fusion_lat": 0.0, "lat": 38.88713833333333, "name": "36c708cae000028d653a44820d20af21", "fusion_lon": 0.0, "bike_id": "36c708cae000028d653a44820d20af21", "is_disabled": 0, "is_reserved": 0}, {"rental_uris": {"ios": "https://dc.lft.to/lastmile_qr_scan", "android": "https://dc.lft.to/lastmile_qr_scan"}, "lon": -77.02305966666667, "type": "electric_scooter", "fusion_lat": 0.0, "lat": 38.916718333333336, "name": "828bfaf90c30042c9f86de778f375206", "fusion_lon": 0.0, "bike_id": "828bfaf90c30042c9f86de778f375206", "is_disabled": 0, "is_reserved": 0}, {"rental_uris": {"ios": "https://dc.lft.to/lastmile_qr_scan", "android": "https://dc.lft.to/lastmile_qr_scan"}, "lon": -77.06630783333334, "type": "electric_scooter", "fusion_lat": 0.0, "lat": 38.92801933333333, "name": "82796fea820ed91fae030e850fa8f18d", "fusion_lon": 0.0, "bike_id": "82796fea820ed91fae030e850fa8f18d", "is_disabled": 0, "is_reserved": 0}, {"rental_uris": {"ios": "https://dc.lft.to/lastmile_qr_scan", "android": "https://dc.lft.to/lastmile_qr_scan"}, "lon": -77.0121125, "type": "electric_scooter", "fusion_lat": 0.0, "lat": 38.869747833333335, "name": "d2bb8e4b4f0191d2d5911b35f88bc792", "fusion_lon": 0.0, "bike_id": "d2bb8e4b4f0191d2d5911b35f88bc792", "is_disabled": 0, "is_reserved": 0}, {"rental_uris": {"ios": "https://dc.lft.to/lastmile_qr_scan", "android": "https://dc.lft.to/lastmile_qr_scan"}, "lon": -76.92710666666666, "type": "electric_scooter", "fusion_lat": 0.0, "lat": 38.88764616666667, "name": "5d643852f9accdef93bd186562f259a3", "fusion_lon": 0.0, "bike_id": "5d643852f9accdef93bd186562f259a3", "is_disabled": 0, "is_reserved": 0}, {"rental_uris": {"ios": "https://dc.lft.to/lastmile_qr_scan", "android": "https://dc.lft.to/lastmile_qr_scan"}, "lon": -77.10780033333333, "type": "electric_bike", "fusion_lat": 0.0, "lat": 38.892180333333336, "name": "771609502e4f3483a8c2861949448367", "fusion_lon": 0.0, "bike_id": "771609502e4f3483a8c2861949448367", "is_disabled": 0, "is_reserved": 0}, {"rental_uris": {"ios": "https://dc.lft.to/lastmile_qr_scan", "android": "https://dc.lft.to/lastmile_qr_scan"}, "lon": -77.02204583333334, "type": "electric_scooter", "fusion_lat": 0.0, "lat": 38.89714333333333, "name": "c1139f5b762e9fbabcef6632887b5554", "fusion_lon": 0.0, "bike_id": "c1139f5b762e9fbabcef6632887b5554", "is_disabled": 0, "is_reserved": 0}, {"rental_uris": {"ios": "https://dc.lft.to/lastmile_qr_scan", "android": "https://dc.lft.to/lastmile_qr_scan"}, "lon": -77.02489033333333, "type": "electric_scooter", "fusion_lat": 0.0, "lat": 38.90353116666667, "name": "b02fddc6e84dfc2c338294740f9940e9", "fusion_lon": 0.0, "bike_id": "b02fddc6e84dfc2c338294740f9940e9", "is_disabled": 0, "is_reserved": 0}, {"rental_uris": {"ios": "https://dc.lft.to/lastmile_qr_scan", "android": "https://dc.lft.to/lastmile_qr_scan"}, "lon": -77.01807966666667, "type": "electric_scooter", "fusion_lat": 0.0, "lat": 38.919491, "name": "81cd1218f7bc1c9d500515721f083e53", "fusion_lon": 0.0, "bike_id": "81cd1218f7bc1c9d500515721f083e53", "is_disabled": 0, "is_reserved": 0}, {"rental_uris": {"ios": "https://dc.lft.to/lastmile_qr_scan", "android": "https://dc.lft.to/lastmile_qr_scan"}, "lon": -76.94437116666667, "type": "electric_bike", "fusion_lat": 0.0, "lat": 38.902963166666666, "name": "72c0246c085a0a6f8b9dc04c06919a86", "fusion_lon": 0.0, "bike_id": "72c0246c085a0a6f8b9dc04c06919a86", "is_disabled": 0, "is_reserved": 0}, {"rental_uris": {"ios": "https://dc.lft.to/lastmile_qr_scan", "android": "https://dc.lft.to/lastmile_qr_scan"}, "lon": -77.03217916666667, "type": "electric_scooter", "fusion_lat": 0.0, "lat": 38.8941065, "name": "d8bf091cf8456ce0180958602d25f3c9", "fusion_lon": 0.0, "bike_id": "d8bf091cf8456ce0180958602d25f3c9", "is_disabled": 0, "is_reserved": 0}, {"rental_uris": {"ios": "https://dc.lft.to/lastmile_qr_scan", "android": "https://dc.lft.to/lastmile_qr_scan"}, "lon": -77.03842383333334, "type": "electric_scooter", "fusion_lat": 0.0, "lat": 38.9077275, "name": "c133b1e31cda8619bd9b0de48ce54973", "fusion_lon": 0.0, "bike_id": "c133b1e31cda8619bd9b0de48ce54973", "is_disabled": 0, "is_reserved": 0}, {"rental_uris": {"ios": "https://dc.lft.to/lastmile_qr_scan", "android": "https://dc.lft.to/lastmile_qr_scan"}, "lon": -76.97217316666666, "type": "electric_bike", "fusion_lat": 0.0, "lat": 38.84484466666667, "name": "78e84784829305b71b9d7a2c2a26a6b4", "fusion_lon": 0.0, "bike_id": "78e84784829305b71b9d7a2c2a26a6b4", "is_disabled": 0, "is_reserved": 0}, {"rental_uris": {"ios": "https://dc.lft.to/lastmile_qr_scan", "android": "https://dc.lft.to/lastmile_qr_scan"}, "lon": -77.034359, "type": "electric_scooter", "fusion_lat": 0.0, "lat": 38.928611, "name": "6172aca4d1ab1f66a3d5786abd96ee57", "fusion_lon": 0.0, "bike_id": "6172aca4d1ab1f66a3d5786abd96ee57", "is_disabled": 0, "is_reserved": 0}, {"rental_uris": {"ios": "https://dc.lft.to/lastmile_qr_scan", "android": "https://dc.lft.to/lastmile_qr_scan"}, "lon": -77.01121, "type": "electric_scooter", "fusion_lat": 0.0, "lat": 38.90400183333333, "name": "44f1487ed621bbce45f20510b8a3f522", "fusion_lon": 0.0, "bike_id": "44f1487ed621bbce45f20510b8a3f522", "is_disabled": 0, "is_reserved": 0}, {"rental_uris": {"ios": "https://dc.lft.to/lastmile_qr_scan", "android": "https://dc.lft.to/lastmile_qr_scan"}, "lon": -77.00809633333333, "type": "electric_scooter", "fusion_lat": 0.0, "lat": 38.88328333333333, "name": "ae053e71b4b3b2c889563403eb188d97", "fusion_lon": 0.0, "bike_id": "ae053e71b4b3b2c889563403eb188d97", "is_disabled": 0, "is_reserved": 0}, {"rental_uris": {"ios": "https://dc.lft.to/lastmile_qr_scan", "android": "https://dc.lft.to/lastmile_qr_scan"}, "lon": -77.01343716666666, "type": "electric_bike", "fusion_lat": 0.0, "lat": 38.999969, "name": "a48460e8d67499bdb8929791aab15ddb", "fusion_lon": 0.0, "bike_id": "a48460e8d67499bdb8929791aab15ddb", "is_disabled": 0, "is_reserved": 0}, {"rental_uris": {"ios": "https://dc.lft.to/lastmile_qr_scan", "android": "https://dc.lft.to/lastmile_qr_scan"}, "lon": -77.00060166666667, "type": "electric_scooter", "fusion_lat": 0.0, "lat": 38.88892966666667, "name": "a003430a41328dd67a01f7f308fb9c2c", "fusion_lon": 0.0, "bike_id": "a003430a41328dd67a01f7f308fb9c2c", "is_disabled": 0, "is_reserved": 0}, {"rental_uris": {"ios": "https://dc.lft.to/lastmile_qr_scan", "android": "https://dc.lft.to/lastmile_qr_scan"}, "lon": -77.02552416666667, "type": "electric_scooter", "fusion_lat": 0.0, "lat": 38.918139333333336, "name": "1134d7672abeca51ac86b949fe1fd8fa", "fusion_lon": 0.0, "bike_id": "1134d7672abeca51ac86b949fe1fd8fa", "is_disabled": 0, "is_reserved": 0}, {"rental_uris": {"ios": "https://dc.lft.to/lastmile_qr_scan", "android": "https://dc.lft.to/lastmile_qr_scan"}, "lon": -77.05000816666667, "type": "electric_scooter", "fusion_lat": 0.0, "lat": 38.8923155, "name": "7f0470565528ba7cf2281878b0277269", "fusion_lon": 0.0, "bike_id": "7f0470565528ba7cf2281878b0277269", "is_disabled": 0, "is_reserved": 0}, {"rental_uris": {"ios": "https://dc.lft.to/lastmile_qr_scan", "android": "https://dc.lft.to/lastmile_qr_scan"}, "lon": -77.03121333333333, "type": "electric_scooter", "fusion_lat": 0.0, "lat": 38.914, "name": "2f6c9959e09afc67f1fdcfa63fb86853", "fusion_lon": 0.0, "bike_id": "2f6c9959e09afc67f1fdcfa63fb86853", "is_disabled": 0, "is_reserved": 0}, {"rental_uris": {"ios": "https://dc.lft.to/lastmile_qr_scan", "android": "https://dc.lft.to/lastmile_qr_scan"}, "lon": -77.0281775, "type": "electric_scooter", "fusion_lat": 0.0, "lat": 38.895338333333335, "name": "7e2afaf0b62192bd325a83f9a325ba10", "fusion_lon": 0.0, "bike_id": "7e2afaf0b62192bd325a83f9a325ba10", "is_disabled": 0, "is_reserved": 0}, {"rental_uris": {"ios": "https://dc.lft.to/lastmile_qr_scan", "android": "https://dc.lft.to/lastmile_qr_scan"}, "lon": -77.01934966666667, "type": "electric_scooter", "fusion_lat": 0.0, "lat": 38.9492535, "name": "8a13b12d655e0f052dd96a2839711d1f", "fusion_lon": 0.0, "bike_id": "8a13b12d655e0f052dd96a2839711d1f", "is_disabled": 0, "is_reserved": 0}, {"rental_uris": {"ios": "https://dc.lft.to/lastmile_qr_scan", "android": "https://dc.lft.to/lastmile_qr_scan"}, "lon": -77.03274933333333, "type": "electric_scooter", "fusion_lat": 0.0, "lat": 38.9287105, "name": "a806dc1714691d3c1e19b71eb23b7bb2", "fusion_lon": 0.0, "bike_id": "a806dc1714691d3c1e19b71eb23b7bb2", "is_disabled": 0, "is_reserved": 0}, {"rental_uris": {"ios": "https://dc.lft.to/lastmile_qr_scan", "android": "https://dc.lft.to/lastmile_qr_scan"}, "lon": -77.0245745, "type": "electric_scooter", "fusion_lat": 0.0, "lat": 38.9385345, "name": "64ded3fe4bfec4fb0777bd85a5d82a19", "fusion_lon": 0.0, "bike_id": "64ded3fe4bfec4fb0777bd85a5d82a19", "is_disabled": 0, "is_reserved": 0}, {"rental_uris": {"ios": "https://dc.lft.to/lastmile_qr_scan", "android": "https://dc.lft.to/lastmile_qr_scan"}, "lon": -77.04679883333333, "type": "electric_scooter", "fusion_lat": 0.0, "lat": 38.905138666666666, "name": "32bf1e1db1f4785dc8aa8e4ecc62cf0f", "fusion_lon": 0.0, "bike_id": "32bf1e1db1f4785dc8aa8e4ecc62cf0f", "is_disabled": 0, "is_reserved": 0}, {"rental_uris": {"ios": "https://dc.lft.to/lastmile_qr_scan", "android": "https://dc.lft.to/lastmile_qr_scan"}, "lon": -77.02444, "type": "electric_scooter", "fusion_lat": 0.0, "lat": 38.91837433333333, "name": "058cb94012178976b96d5bd90bdae2ec", "fusion_lon": 0.0, "bike_id": "058cb94012178976b96d5bd90bdae2ec", "is_disabled": 0, "is_reserved": 0}, {"rental_uris": {"ios": "https://dc.lft.to/lastmile_qr_scan", "android": "https://dc.lft.to/lastmile_qr_scan"}, "lon": -77.01295533333334, "type": "electric_bike", "fusion_lat": 0.0, "lat": 39.0037385, "name": "a6011888f7eff73c5184a2b368a5c510", "fusion_lon": 0.0, "bike_id": "a6011888f7eff73c5184a2b368a5c510", "is_disabled": 0, "is_reserved": 0}, {"rental_uris": {"ios": "https://dc.lft.to/lastmile_qr_scan", "android": "https://dc.lft.to/lastmile_qr_scan"}, "lon": -76.93244016666667, "type": "electric_scooter", "fusion_lat": 0.0, "lat": 38.8940785, "name": "54398718a1526e596f9076375306c359", "fusion_lon": 0.0, "bike_id": "54398718a1526e596f9076375306c359", "is_disabled": 0, "is_reserved": 0}, {"rental_uris": {"ios": "https://dc.lft.to/lastmile_qr_scan", "android": "https://dc.lft.to/lastmile_qr_scan"}, "lon": -77.05522033333334, "type": "electric_scooter", "fusion_lat": 0.0, "lat": 38.89724416666667, "name": "4442eb0b2a77d9bb9d8b3282bd1913d0", "fusion_lon": 0.0, "bike_id": "4442eb0b2a77d9bb9d8b3282bd1913d0", "is_disabled": 0, "is_reserved": 0}, {"rental_uris": {"ios": "https://dc.lft.to/lastmile_qr_scan", "android": "https://dc.lft.to/lastmile_qr_scan"}, "lon": -76.99063866666667, "type": "electric_scooter", "fusion_lat": 0.0, "lat": 38.86346366666667, "name": "0f8c54cfdcc8ec98513c47abfe3957a7", "fusion_lon": 0.0, "bike_id": "0f8c54cfdcc8ec98513c47abfe3957a7", "is_disabled": 0, "is_reserved": 0}, {"rental_uris": {"ios": "https://dc.lft.to/lastmile_qr_scan", "android": "https://dc.lft.to/lastmile_qr_scan"}, "lon": -77.032101, "type": "electric_scooter", "fusion_lat": 0.0, "lat": 38.897471, "name": "4878c9a640f5654f83455a7aada7317e", "fusion_lon": 0.0, "bike_id": "4878c9a640f5654f83455a7aada7317e", "is_disabled": 0, "is_reserved": 0}, {"rental_uris": {"ios": "https://dc.lft.to/lastmile_qr_scan", "android": "https://dc.lft.to/lastmile_qr_scan"}, "lon": -77.05527383333333, "type": "electric_scooter", "fusion_lat": 0.0, "lat": 38.897202666666665, "name": "95b6a3764f633174e24da5f4718b471d", "fusion_lon": 0.0, "bike_id": "95b6a3764f633174e24da5f4718b471d", "is_disabled": 0, "is_reserved": 0}, {"rental_uris": {"ios": "https://dc.lft.to/lastmile_qr_scan", "android": "https://dc.lft.to/lastmile_qr_scan"}, "lon": -77.04822766666666, "type": "electric_scooter", "fusion_lat": 0.0, "lat": 38.90798816666667, "name": "72468aedf7707b23e80db0994d0fd6fe", "fusion_lon": 0.0, "bike_id": "72468aedf7707b23e80db0994d0fd6fe", "is_disabled": 0, "is_reserved": 0}, {"rental_uris": {"ios": "https://dc.lft.to/lastmile_qr_scan", "android": "https://dc.lft.to/lastmile_qr_scan"}, "lon": -77.031836, "type": "electric_scooter", "fusion_lat": 0.0, "lat": 38.910101, "name": "a951b0cb51292b0ea60c60e8d80fbd37", "fusion_lon": 0.0, "bike_id": "a951b0cb51292b0ea60c60e8d80fbd37", "is_disabled": 0, "is_reserved": 0}, {"rental_uris": {"ios": "https://dc.lft.to/lastmile_qr_scan", "android": "https://dc.lft.to/lastmile_qr_scan"}, "lon": -77.04628366666667, "type": "electric_scooter", "fusion_lat": 0.0, "lat": 38.90655866666667, "name": "8a880d5d9efe997d3b9045f6184ac0ba", "fusion_lon": 0.0, "bike_id": "8a880d5d9efe997d3b9045f6184ac0ba", "is_disabled": 0, "is_reserved": 0}, {"rental_uris": {"ios": "https://dc.lft.to/lastmile_qr_scan", "android": "https://dc.lft.to/lastmile_qr_scan"}, "lon": -77.04643683333333, "type": "electric_bike", "fusion_lat": 0.0, "lat": 38.8520955, "name": "b0bb88d76091d25ab0c6ed88de147795", "fusion_lon": 0.0, "bike_id": "b0bb88d76091d25ab0c6ed88de147795", "is_disabled": 0, "is_reserved": 0}, {"rental_uris": {"ios": "https://dc.lft.to/lastmile_qr_scan", "android": "https://dc.lft.to/lastmile_qr_scan"}, "lon": -77.05861316666666, "type": "electric_scooter", "fusion_lat": 0.0, "lat": 38.936052333333336, "name": "45e91c01692fb22436cb9dda262dc785", "fusion_lon": 0.0, "bike_id": "45e91c01692fb22436cb9dda262dc785", "is_disabled": 0, "is_reserved": 0}, {"rental_uris": {"ios": "https://dc.lft.to/lastmile_qr_scan", "android": "https://dc.lft.to/lastmile_qr_scan"}, "lon": -77.0306825, "type": "electric_scooter", "fusion_lat": 0.0, "lat": 38.899536833333336, "name": "ea3f85880670ab666ef5d6931ef6a3a2", "fusion_lon": 0.0, "bike_id": "ea3f85880670ab666ef5d6931ef6a3a2", "is_disabled": 0, "is_reserved": 0}, {"rental_uris": {"ios": "https://dc.lft.to/lastmile_qr_scan", "android": "https://dc.lft.to/lastmile_qr_scan"}, "lon": -77.03762016666667, "type": "electric_scooter", "fusion_lat": 0.0, "lat": 38.9287545, "name": "651ed6f55a69988d8318dab15c4b40c0", "fusion_lon": 0.0, "bike_id": "651ed6f55a69988d8318dab15c4b40c0", "is_disabled": 0, "is_reserved": 0}, {"rental_uris": {"ios": "https://dc.lft.to/lastmile_qr_scan", "android": "https://dc.lft.to/lastmile_qr_scan"}, "lon": -77.0269, "type": "electric_bike", "fusion_lat": 0.0, "lat": 38.9068505, "name": "b270e80e14e6ef45923efbfd634a3051", "fusion_lon": 0.0, "bike_id": "b270e80e14e6ef45923efbfd634a3051", "is_disabled": 0, "is_reserved": 0}, {"rental_uris": {"ios": "https://dc.lft.to/lastmile_qr_scan", "android": "https://dc.lft.to/lastmile_qr_scan"}, "lon": -77.0465875, "type": "electric_scooter", "fusion_lat": 0.0, "lat": 38.893340333333335, "name": "6b0da5af471fd8e3ecc72ab62bf57827", "fusion_lon": 0.0, "bike_id": "6b0da5af471fd8e3ecc72ab62bf57827", "is_disabled": 0, "is_reserved": 0}, {"rental_uris": {"ios": "https://dc.lft.to/lastmile_qr_scan", "android": "https://dc.lft.to/lastmile_qr_scan"}, "lon": -76.93181633333333, "type": "electric_scooter", "fusion_lat": 0.0, "lat": 38.89880816666667, "name": "af95dfc4b38690c520181756d4d0c7f3", "fusion_lon": 0.0, "bike_id": "af95dfc4b38690c520181756d4d0c7f3", "is_disabled": 0, "is_reserved": 0}, {"rental_uris": {"ios": "https://dc.lft.to/lastmile_qr_scan", "android": "https://dc.lft.to/lastmile_qr_scan"}, "lon": -77.026166, "type": "electric_scooter", "fusion_lat": 0.0, "lat": 38.91709066666667, "name": "59be6d7f464e30e9e6d48046e4033ae6", "fusion_lon": 0.0, "bike_id": "59be6d7f464e30e9e6d48046e4033ae6", "is_disabled": 0, "is_reserved": 0}, {"rental_uris": {"ios": "https://dc.lft.to/lastmile_qr_scan", "android": "https://dc.lft.to/lastmile_qr_scan"}, "lon": -77.120417, "type": "electric_bike", "fusion_lat": 0.0, "lat": 38.855099833333334, "name": "e604d5f5a4954d8cbf91f77cf269fbc7", "fusion_lon": 0.0, "bike_id": "e604d5f5a4954d8cbf91f77cf269fbc7", "is_disabled": 0, "is_reserved": 0}, {"rental_uris": {"ios": "https://dc.lft.to/lastmile_qr_scan", "android": "https://dc.lft.to/lastmile_qr_scan"}, "lon": -77.00070366666667, "type": "electric_scooter", "fusion_lat": 0.0, "lat": 38.90569266666667, "name": "8d544538c1c3b1226ad84c1c2ab0c2b1", "fusion_lon": 0.0, "bike_id": "8d544538c1c3b1226ad84c1c2ab0c2b1", "is_disabled": 0, "is_reserved": 0}, {"rental_uris": {"ios": "https://dc.lft.to/lastmile_qr_scan", "android": "https://dc.lft.to/lastmile_qr_scan"}, "lon": -77.0049725, "type": "electric_scooter", "fusion_lat": 0.0, "lat": 38.89679133333333, "name": "e0a558e6432236a2e7b393af6807d56e", "fusion_lon": 0.0, "bike_id": "e0a558e6432236a2e7b393af6807d56e", "is_disabled": 0, "is_reserved": 0}, {"rental_uris": {"ios": "https://dc.lft.to/lastmile_qr_scan", "android": "https://dc.lft.to/lastmile_qr_scan"}, "lon": -77.04807516666666, "type": "electric_scooter", "fusion_lat": 0.0, "lat": 38.92015333333333, "name": "b2e8a344fba25a01d6c1ee81466857f5", "fusion_lon": 0.0, "bike_id": "b2e8a344fba25a01d6c1ee81466857f5", "is_disabled": 0, "is_reserved": 0}, {"rental_uris": {"ios": "https://dc.lft.to/lastmile_qr_scan", "android": "https://dc.lft.to/lastmile_qr_scan"}, "lon": -77.03212866666667, "type": "electric_scooter", "fusion_lat": 0.0, "lat": 38.916018, "name": "5c8d6a15ce58c4c4ed132d49057e899b", "fusion_lon": 0.0, "bike_id": "5c8d6a15ce58c4c4ed132d49057e899b", "is_disabled": 0, "is_reserved": 0}, {"rental_uris": {"ios": "https://dc.lft.to/lastmile_qr_scan", "android": "https://dc.lft.to/lastmile_qr_scan"}, "lon": -76.99813216666666, "type": "electric_bike", "fusion_lat": 0.0, "lat": 38.8443345, "name": "45784ab1d387a9231e7e5a292e32b056", "fusion_lon": 0.0, "bike_id": "45784ab1d387a9231e7e5a292e32b056", "is_disabled": 0, "is_reserved": 0}, {"rental_uris": {"ios": "https://dc.lft.to/lastmile_qr_scan", "android": "https://dc.lft.to/lastmile_qr_scan"}, "lon": -77.043103, "type": "electric_bike", "fusion_lat": 0.0, "lat": 38.927802, "name": "c9b770bc54531f0d0d4696fc09e20f97", "fusion_lon": 0.0, "bike_id": "c9b770bc54531f0d0d4696fc09e20f97", "is_disabled": 0, "is_reserved": 0}, {"rental_uris": {"ios": "https://dc.lft.to/lastmile_qr_scan", "android": "https://dc.lft.to/lastmile_qr_scan"}, "lon": -77.000654, "type": "electric_scooter", "fusion_lat": 0.0, "lat": 38.925488333333334, "name": "3502e33eaecbe0261f4d908fe3e2e807", "fusion_lon": 0.0, "bike_id": "3502e33eaecbe0261f4d908fe3e2e807", "is_disabled": 0, "is_reserved": 0}, {"rental_uris": {"ios": "https://dc.lft.to/lastmile_qr_scan", "android": "https://dc.lft.to/lastmile_qr_scan"}, "lon": -77.03554716666666, "type": "electric_scooter", "fusion_lat": 0.0, "lat": 38.9125925, "name": "77bdc17ced45376a1c569cf584b61bf9", "fusion_lon": 0.0, "bike_id": "77bdc17ced45376a1c569cf584b61bf9", "is_disabled": 0, "is_reserved": 0}, {"rental_uris": {"ios": "https://dc.lft.to/lastmile_qr_scan", "android": "https://dc.lft.to/lastmile_qr_scan"}, "lon": -77.02292783333333, "type": "electric_scooter", "fusion_lat": 0.0, "lat": 38.91569533333333, "name": "e44d9c7f3289377e59b7d79cbfd3dfc6", "fusion_lon": 0.0, "bike_id": "e44d9c7f3289377e59b7d79cbfd3dfc6", "is_disabled": 0, "is_reserved": 0}, {"rental_uris": {"ios": "https://dc.lft.to/lastmile_qr_scan", "android": "https://dc.lft.to/lastmile_qr_scan"}, "lon": -77.03389416666667, "type": "electric_scooter", "fusion_lat": 0.0, "lat": 38.91911983333333, "name": "f4f851278dde824309351fc7af5a8026", "fusion_lon": 0.0, "bike_id": "f4f851278dde824309351fc7af5a8026", "is_disabled": 0, "is_reserved": 0}, {"rental_uris": {"ios": "https://dc.lft.to/lastmile_qr_scan", "android": "https://dc.lft.to/lastmile_qr_scan"}, "lon": -77.045069, "type": "electric_scooter", "fusion_lat": 0.0, "lat": 38.90953366666667, "name": "b3662fcfb7d810cafe1489481105efb1", "fusion_lon": 0.0, "bike_id": "b3662fcfb7d810cafe1489481105efb1", "is_disabled": 0, "is_reserved": 0}, {"rental_uris": {"ios": "https://dc.lft.to/lastmile_qr_scan", "android": "https://dc.lft.to/lastmile_qr_scan"}, "lon": -76.99519316666667, "type": "electric_scooter", "fusion_lat": 0.0, "lat": 38.862591, "name": "e230438b2be0bb355ce2437c0dade804", "fusion_lon": 0.0, "bike_id": "e230438b2be0bb355ce2437c0dade804", "is_disabled": 0, "is_reserved": 0}, {"rental_uris": {"ios": "https://dc.lft.to/lastmile_qr_scan", "android": "https://dc.lft.to/lastmile_qr_scan"}, "lon": -77.020926, "type": "electric_scooter", "fusion_lat": 0.0, "lat": 38.886851666666665, "name": "0c77021c87892edfc15230bbc55c11be", "fusion_lon": 0.0, "bike_id": "0c77021c87892edfc15230bbc55c11be", "is_disabled": 0, "is_reserved": 0}, {"rental_uris": {"ios": "https://dc.lft.to/lastmile_qr_scan", "android": "https://dc.lft.to/lastmile_qr_scan"}, "lon": -77.00581316666667, "type": "electric_scooter", "fusion_lat": 0.0, "lat": 38.874174833333335, "name": "e62eac844eb454cc4ccffb4f87a63071", "fusion_lon": 0.0, "bike_id": "e62eac844eb454cc4ccffb4f87a63071", "is_disabled": 0, "is_reserved": 0}, {"rental_uris": {"ios": "https://dc.lft.to/lastmile_qr_scan", "android": "https://dc.lft.to/lastmile_qr_scan"}, "lon": -77.02295633333334, "type": "electric_scooter", "fusion_lat": 0.0, "lat": 38.9181335, "name": "9550a9639419614af7e1dd2af1dac73e", "fusion_lon": 0.0, "bike_id": "9550a9639419614af7e1dd2af1dac73e", "is_disabled": 0, "is_reserved": 0}, {"rental_uris": {"ios": "https://dc.lft.to/lastmile_qr_scan", "android": "https://dc.lft.to/lastmile_qr_scan"}, "lon": -77.03276716666667, "type": "electric_scooter", "fusion_lat": 0.0, "lat": 38.919166, "name": "28fa8b31a5c4490a927922310dc28a01", "fusion_lon": 0.0, "bike_id": "28fa8b31a5c4490a927922310dc28a01", "is_disabled": 0, "is_reserved": 0}, {"rental_uris": {"ios": "https://dc.lft.to/lastmile_qr_scan", "android": "https://dc.lft.to/lastmile_qr_scan"}, "lon": -77.0136955, "type": "electric_scooter", "fusion_lat": 0.0, "lat": 38.8636285, "name": "b4ccabd06bec8b8169c62963443b54e7", "fusion_lon": 0.0, "bike_id": "b4ccabd06bec8b8169c62963443b54e7", "is_disabled": 0, "is_reserved": 0}, {"rental_uris": {"ios": "https://dc.lft.to/lastmile_qr_scan", "android": "https://dc.lft.to/lastmile_qr_scan"}, "lon": -77.00845116666666, "type": "electric_bike", "fusion_lat": 0.0, "lat": 38.949164333333336, "name": "9de62fa97187b86eb9748476bd4df4b8", "fusion_lon": 0.0, "bike_id": "9de62fa97187b86eb9748476bd4df4b8", "is_disabled": 0, "is_reserved": 0}, {"rental_uris": {"ios": "https://dc.lft.to/lastmile_qr_scan", "android": "https://dc.lft.to/lastmile_qr_scan"}, "lon": -77.03786833333334, "type": "electric_scooter", "fusion_lat": 0.0, "lat": 38.95493533333333, "name": "efd55ecf9c00ee22696ccf99d2d8502e", "fusion_lon": 0.0, "bike_id": "efd55ecf9c00ee22696ccf99d2d8502e", "is_disabled": 0, "is_reserved": 0}, {"rental_uris": {"ios": "https://dc.lft.to/lastmile_qr_scan", "android": "https://dc.lft.to/lastmile_qr_scan"}, "lon": -77.14120233333334, "type": "electric_bike", "fusion_lat": 0.0, "lat": 38.81599883333333, "name": "24b4d31c50b5fbfd8f095be974541bfe", "fusion_lon": 0.0, "bike_id": "24b4d31c50b5fbfd8f095be974541bfe", "is_disabled": 0, "is_reserved": 0}, {"rental_uris": {"ios": "https://dc.lft.to/lastmile_qr_scan", "android": "https://dc.lft.to/lastmile_qr_scan"}, "lon": -77.03664683333334, "type": "electric_scooter", "fusion_lat": 0.0, "lat": 38.92238733333333, "name": "150854f8630bb2fdf3b60671bbe30800", "fusion_lon": 0.0, "bike_id": "150854f8630bb2fdf3b60671bbe30800", "is_disabled": 0, "is_reserved": 0}, {"rental_uris": {"ios": "https://dc.lft.to/lastmile_qr_scan", "android": "https://dc.lft.to/lastmile_qr_scan"}, "lon": -77.015287, "type": "electric_scooter", "fusion_lat": 0.0, "lat": 38.89195683333333, "name": "79e0322dfe553da943f6d8b64852c78c", "fusion_lon": 0.0, "bike_id": "79e0322dfe553da943f6d8b64852c78c", "is_disabled": 0, "is_reserved": 0}, {"rental_uris": {"ios": "https://dc.lft.to/lastmile_qr_scan", "android": "https://dc.lft.to/lastmile_qr_scan"}, "lon": -77.00694966666667, "type": "electric_scooter", "fusion_lat": 0.0, "lat": 38.90037133333333, "name": "cfa5ae741a83a8a21ae4841fb0780240", "fusion_lon": 0.0, "bike_id": "cfa5ae741a83a8a21ae4841fb0780240", "is_disabled": 0, "is_reserved": 0}, {"rental_uris": {"ios": "https://dc.lft.to/lastmile_qr_scan", "android": "https://dc.lft.to/lastmile_qr_scan"}, "lon": -77.00286416666667, "type": "electric_scooter", "fusion_lat": 0.0, "lat": 38.89732216666667, "name": "74a31702b493c34ce6086597a7e4342a", "fusion_lon": 0.0, "bike_id": "74a31702b493c34ce6086597a7e4342a", "is_disabled": 0, "is_reserved": 0}, {"rental_uris": {"ios": "https://dc.lft.to/lastmile_qr_scan", "android": "https://dc.lft.to/lastmile_qr_scan"}, "lon": -77.031913, "type": "electric_scooter", "fusion_lat": 0.0, "lat": 38.913135833333335, "name": "8dab9ac9c3d6943c2319401456433259", "fusion_lon": 0.0, "bike_id": "8dab9ac9c3d6943c2319401456433259", "is_disabled": 0, "is_reserved": 0}, {"rental_uris": {"ios": "https://dc.lft.to/lastmile_qr_scan", "android": "https://dc.lft.to/lastmile_qr_scan"}, "lon": -77.0486555, "type": "electric_scooter", "fusion_lat": 0.0, "lat": 38.90361166666667, "name": "22728556c9a7456e2b1bee0fba794894", "fusion_lon": 0.0, "bike_id": "22728556c9a7456e2b1bee0fba794894", "is_disabled": 0, "is_reserved": 0}, {"rental_uris": {"ios": "https://dc.lft.to/lastmile_qr_scan", "android": "https://dc.lft.to/lastmile_qr_scan"}, "lon": -77.06003333333334, "type": "electric_scooter", "fusion_lat": 0.0, "lat": 38.9053135, "name": "61eb0b2e4636b80751813ed5fbab643c", "fusion_lon": 0.0, "bike_id": "61eb0b2e4636b80751813ed5fbab643c", "is_disabled": 0, "is_reserved": 0}, {"rental_uris": {"ios": "https://dc.lft.to/lastmile_qr_scan", "android": "https://dc.lft.to/lastmile_qr_scan"}, "lon": -76.96863633333334, "type": "electric_scooter", "fusion_lat": 0.0, "lat": 38.86059616666667, "name": "4683af4f0a699ab8cb26fbb5eac0500d", "fusion_lon": 0.0, "bike_id": "4683af4f0a699ab8cb26fbb5eac0500d", "is_disabled": 0, "is_reserved": 0}, {"rental_uris": {"ios": "https://dc.lft.to/lastmile_qr_scan", "android": "https://dc.lft.to/lastmile_qr_scan"}, "lon": -77.10509083333334, "type": "electric_bike", "fusion_lat": 0.0, "lat": 38.92842733333333, "name": "d6b3852391e6e1aa3e6362706b0abdf4", "fusion_lon": 0.0, "bike_id": "d6b3852391e6e1aa3e6362706b0abdf4", "is_disabled": 0, "is_reserved": 0}, {"rental_uris": {"ios": "https://dc.lft.to/lastmile_qr_scan", "android": "https://dc.lft.to/lastmile_qr_scan"}, "lon": -77.0153275, "type": "electric_scooter", "fusion_lat": 0.0, "lat": 38.88739366666667, "name": "4ab449eda0209dda271107e5d0a47655", "fusion_lon": 0.0, "bike_id": "4ab449eda0209dda271107e5d0a47655", "is_disabled": 0, "is_reserved": 0}, {"rental_uris": {"ios": "https://dc.lft.to/lastmile_qr_scan", "android": "https://dc.lft.to/lastmile_qr_scan"}, "lon": -77.05362233333334, "type": "electric_scooter", "fusion_lat": 0.0, "lat": 38.9271585, "name": "b4c98c4ca3e9ae0aff27ad3f85b01b19", "fusion_lon": 0.0, "bike_id": "b4c98c4ca3e9ae0aff27ad3f85b01b19", "is_disabled": 0, "is_reserved": 0}, {"rental_uris": {"ios": "https://dc.lft.to/lastmile_qr_scan", "android": "https://dc.lft.to/lastmile_qr_scan"}, "lon": -77.04126766666667, "type": "electric_scooter", "fusion_lat": 0.0, "lat": 38.92426016666667, "name": "6a8a28044f8daa17638e803f8f556dea", "fusion_lon": 0.0, "bike_id": "6a8a28044f8daa17638e803f8f556dea", "is_disabled": 0, "is_reserved": 0}, {"rental_uris": {"ios": "https://dc.lft.to/lastmile_qr_scan", "android": "https://dc.lft.to/lastmile_qr_scan"}, "lon": -77.03996516666666, "type": "electric_scooter", "fusion_lat": 0.0, "lat": 38.8921975, "name": "980d4f4ddf2afd35f9995cf5365fd2ec", "fusion_lon": 0.0, "bike_id": "980d4f4ddf2afd35f9995cf5365fd2ec", "is_disabled": 0, "is_reserved": 0}, {"rental_uris": {"ios": "https://dc.lft.to/lastmile_qr_scan", "android": "https://dc.lft.to/lastmile_qr_scan"}, "lon": -77.03700183333333, "type": "electric_scooter", "fusion_lat": 0.0, "lat": 38.91548816666667, "name": "ec78b2e0caaecbed9ce4168d271dd857", "fusion_lon": 0.0, "bike_id": "ec78b2e0caaecbed9ce4168d271dd857", "is_disabled": 0, "is_reserved": 0}, {"rental_uris": {"ios": "https://dc.lft.to/lastmile_qr_scan", "android": "https://dc.lft.to/lastmile_qr_scan"}, "lon": -77.02229333333334, "type": "electric_scooter", "fusion_lat": 0.0, "lat": 38.914235833333336, "name": "ebe17f84d9b71b4b74c34e585e2ec737", "fusion_lon": 0.0, "bike_id": "ebe17f84d9b71b4b74c34e585e2ec737", "is_disabled": 0, "is_reserved": 0}, {"rental_uris": {"ios": "https://dc.lft.to/lastmile_qr_scan", "android": "https://dc.lft.to/lastmile_qr_scan"}, "lon": -77.02318783333334, "type": "electric_scooter", "fusion_lat": 0.0, "lat": 38.91670466666667, "name": "e3a36ec97741b52ea88ead9855db94c8", "fusion_lon": 0.0, "bike_id": "e3a36ec97741b52ea88ead9855db94c8", "is_disabled": 0, "is_reserved": 0}, {"rental_uris": {"ios": "https://dc.lft.to/lastmile_qr_scan", "android": "https://dc.lft.to/lastmile_qr_scan"}, "lon": -76.98571316666667, "type": "electric_scooter", "fusion_lat": 0.0, "lat": 38.8988205, "name": "47593cb72031d6cc26a86215d43d752b", "fusion_lon": 0.0, "bike_id": "47593cb72031d6cc26a86215d43d752b", "is_disabled": 0, "is_reserved": 0}, {"rental_uris": {"ios": "https://dc.lft.to/lastmile_qr_scan", "android": "https://dc.lft.to/lastmile_qr_scan"}, "lon": -77.03471533333334, "type": "electric_scooter", "fusion_lat": 0.0, "lat": 38.929841833333334, "name": "0a0738be4cda83532110a72f9e21f4e0", "fusion_lon": 0.0, "bike_id": "0a0738be4cda83532110a72f9e21f4e0", "is_disabled": 0, "is_reserved": 0}, {"rental_uris": {"ios": "https://dc.lft.to/lastmile_qr_scan", "android": "https://dc.lft.to/lastmile_qr_scan"}, "lon": -76.97927533333333, "type": "electric_scooter", "fusion_lat": 0.0, "lat": 38.90500466666667, "name": "f2316860b74d5789ab2483b9c5c78741", "fusion_lon": 0.0, "bike_id": "f2316860b74d5789ab2483b9c5c78741", "is_disabled": 0, "is_reserved": 0}, {"rental_uris": {"ios": "https://dc.lft.to/lastmile_qr_scan", "android": "https://dc.lft.to/lastmile_qr_scan"}, "lon": -76.99040133333334, "type": "electric_scooter", "fusion_lat": 0.0, "lat": 38.90135566666667, "name": "cfb3ae92ee816d9a10adc60d1f4338a0", "fusion_lon": 0.0, "bike_id": "cfb3ae92ee816d9a10adc60d1f4338a0", "is_disabled": 0, "is_reserved": 0}, {"rental_uris": {"ios": "https://dc.lft.to/lastmile_qr_scan", "android": "https://dc.lft.to/lastmile_qr_scan"}, "lon": -77.06257083333334, "type": "electric_scooter", "fusion_lat": 0.0, "lat": 38.908516666666664, "name": "7bb0dbe71b26c7f6e8e17732dadbbe3c", "fusion_lon": 0.0, "bike_id": "7bb0dbe71b26c7f6e8e17732dadbbe3c", "is_disabled": 0, "is_reserved": 0}, {"rental_uris": {"ios": "https://dc.lft.to/lastmile_qr_scan", "android": "https://dc.lft.to/lastmile_qr_scan"}, "lon": -76.9465215, "type": "electric_scooter", "fusion_lat": 0.0, "lat": 38.898235166666666, "name": "cf782f6c25228b958d9c57e89a908ffc", "fusion_lon": 0.0, "bike_id": "cf782f6c25228b958d9c57e89a908ffc", "is_disabled": 0, "is_reserved": 0}, {"rental_uris": {"ios": "https://dc.lft.to/lastmile_qr_scan", "android": "https://dc.lft.to/lastmile_qr_scan"}, "lon": -77.0490085, "type": "electric_bike", "fusion_lat": 0.0, "lat": 38.87493766666667, "name": "b0056cf856c4d117de545f00317d4f73", "fusion_lon": 0.0, "bike_id": "b0056cf856c4d117de545f00317d4f73", "is_disabled": 0, "is_reserved": 0}, {"rental_uris": {"ios": "https://dc.lft.to/lastmile_qr_scan", "android": "https://dc.lft.to/lastmile_qr_scan"}, "lon": -76.98655433333333, "type": "electric_scooter", "fusion_lat": 0.0, "lat": 38.858033666666664, "name": "1b0ab3fbd01f883dd91f06d732631c91", "fusion_lon": 0.0, "bike_id": "1b0ab3fbd01f883dd91f06d732631c91", "is_disabled": 0, "is_reserved": 0}, {"rental_uris": {"ios": "https://dc.lft.to/lastmile_qr_scan", "android": "https://dc.lft.to/lastmile_qr_scan"}, "lon": -77.00362133333333, "type": "electric_scooter", "fusion_lat": 0.0, "lat": 38.89750866666667, "name": "1f4f2d84b9d5a8282434a9c69fe0ca90", "fusion_lon": 0.0, "bike_id": "1f4f2d84b9d5a8282434a9c69fe0ca90", "is_disabled": 0, "is_reserved": 0}, {"rental_uris": {"ios": "https://dc.lft.to/lastmile_qr_scan", "android": "https://dc.lft.to/lastmile_qr_scan"}, "lon": -77.03211833333333, "type": "electric_scooter", "fusion_lat": 0.0, "lat": 38.9624165, "name": "a6cd2b39eafaa4470137798a9f648a34", "fusion_lon": 0.0, "bike_id": "a6cd2b39eafaa4470137798a9f648a34", "is_disabled": 0, "is_reserved": 0}, {"rental_uris": {"ios": "https://dc.lft.to/lastmile_qr_scan", "android": "https://dc.lft.to/lastmile_qr_scan"}, "lon": -76.99943033333334, "type": "electric_scooter", "fusion_lat": 0.0, "lat": 38.842833666666664, "name": "b71fc2e7e3bb133121e6d5391aee4ddc", "fusion_lon": 0.0, "bike_id": "b71fc2e7e3bb133121e6d5391aee4ddc", "is_disabled": 0, "is_reserved": 0}, {"rental_uris": {"ios": "https://dc.lft.to/lastmile_qr_scan", "android": "https://dc.lft.to/lastmile_qr_scan"}, "lon": -76.98654566666667, "type": "electric_scooter", "fusion_lat": 0.0, "lat": 38.85803816666667, "name": "131777815897601fef99fad1b362ae0a", "fusion_lon": 0.0, "bike_id": "131777815897601fef99fad1b362ae0a", "is_disabled": 0, "is_reserved": 0}, {"rental_uris": {"ios": "https://dc.lft.to/lastmile_qr_scan", "android": "https://dc.lft.to/lastmile_qr_scan"}, "lon": -77.10027216666667, "type": "electric_bike", "fusion_lat": 0.0, "lat": 38.990576833333336, "name": "94e69077bf33988166e2e534e43bbd4e", "fusion_lon": 0.0, "bike_id": "94e69077bf33988166e2e534e43bbd4e", "is_disabled": 0, "is_reserved": 0}, {"rental_uris": {"ios": "https://dc.lft.to/lastmile_qr_scan", "android": "https://dc.lft.to/lastmile_qr_scan"}, "lon": -77.0363155, "type": "electric_scooter", "fusion_lat": 0.0, "lat": 38.956393, "name": "372f181f1f241405fdd99b03c795a8d0", "fusion_lon": 0.0, "bike_id": "372f181f1f241405fdd99b03c795a8d0", "is_disabled": 0, "is_reserved": 0}, {"rental_uris": {"ios": "https://dc.lft.to/lastmile_qr_scan", "android": "https://dc.lft.to/lastmile_qr_scan"}, "lon": -77.03879283333333, "type": "electric_scooter", "fusion_lat": 0.0, "lat": 38.932401, "name": "bd05bca7a997b1f3e23475a896cbab1a", "fusion_lon": 0.0, "bike_id": "bd05bca7a997b1f3e23475a896cbab1a", "is_disabled": 0, "is_reserved": 0}, {"rental_uris": {"ios": "https://dc.lft.to/lastmile_qr_scan", "android": "https://dc.lft.to/lastmile_qr_scan"}, "lon": -77.02677766666666, "type": "electric_scooter", "fusion_lat": 0.0, "lat": 38.899823, "name": "e64c279ca2ec8886b23b3068dc8e7ecf", "fusion_lon": 0.0, "bike_id": "e64c279ca2ec8886b23b3068dc8e7ecf", "is_disabled": 0, "is_reserved": 0}, {"rental_uris": {"ios": "https://dc.lft.to/lastmile_qr_scan", "android": "https://dc.lft.to/lastmile_qr_scan"}, "lon": -77.045374, "type": "electric_scooter", "fusion_lat": 0.0, "lat": 38.919346, "name": "15f3d0fbc86bad3c0da5e0129ee4de55", "fusion_lon": 0.0, "bike_id": "15f3d0fbc86bad3c0da5e0129ee4de55", "is_disabled": 0, "is_reserved": 0}, {"rental_uris": {"ios": "https://dc.lft.to/lastmile_qr_scan", "android": "https://dc.lft.to/lastmile_qr_scan"}, "lon": -77.0220145, "type": "electric_scooter", "fusion_lat": 0.0, "lat": 38.88053716666667, "name": "c057b46e744b0da35bd87c27ec06536e", "fusion_lon": 0.0, "bike_id": "c057b46e744b0da35bd87c27ec06536e", "is_disabled": 0, "is_reserved": 0}, {"rental_uris": {"ios": "https://dc.lft.to/lastmile_qr_scan", "android": "https://dc.lft.to/lastmile_qr_scan"}, "lon": -77.0396335, "type": "electric_scooter", "fusion_lat": 0.0, "lat": 38.9023625, "name": "3bcc3a1aa9183757b7cdcdf68222a55b", "fusion_lon": 0.0, "bike_id": "3bcc3a1aa9183757b7cdcdf68222a55b", "is_disabled": 0, "is_reserved": 0}, {"rental_uris": {"ios": "https://dc.lft.to/lastmile_qr_scan", "android": "https://dc.lft.to/lastmile_qr_scan"}, "lon": -76.97331116666666, "type": "electric_bike", "fusion_lat": 0.0, "lat": 38.85062716666667, "name": "9eaedcb745b09e490ac16a51b0ad1980", "fusion_lon": 0.0, "bike_id": "9eaedcb745b09e490ac16a51b0ad1980", "is_disabled": 0, "is_reserved": 0}, {"rental_uris": {"ios": "https://dc.lft.to/lastmile_qr_scan", "android": "https://dc.lft.to/lastmile_qr_scan"}, "lon": -77.0527255, "type": "electric_scooter", "fusion_lat": 0.0, "lat": 38.910258, "name": "c4d6efad8b96b2b40d05221c9731cd4e", "fusion_lon": 0.0, "bike_id": "c4d6efad8b96b2b40d05221c9731cd4e", "is_disabled": 0, "is_reserved": 0}, {"rental_uris": {"ios": "https://dc.lft.to/lastmile_qr_scan", "android": "https://dc.lft.to/lastmile_qr_scan"}, "lon": -77.025798, "type": "electric_scooter", "fusion_lat": 0.0, "lat": 38.918152, "name": "44960f511d7f053d21ccd9cf1eb06b00", "fusion_lon": 0.0, "bike_id": "44960f511d7f053d21ccd9cf1eb06b00", "is_disabled": 0, "is_reserved": 0}, {"rental_uris": {"ios": "https://dc.lft.to/lastmile_qr_scan", "android": "https://dc.lft.to/lastmile_qr_scan"}, "lon": -77.041666, "type": "electric_scooter", "fusion_lat": 0.0, "lat": 38.91767566666667, "name": "0f725c0b683b218a55f8040145479786", "fusion_lon": 0.0, "bike_id": "0f725c0b683b218a55f8040145479786", "is_disabled": 0, "is_reserved": 0}, {"rental_uris": {"ios": "https://dc.lft.to/lastmile_qr_scan", "android": "https://dc.lft.to/lastmile_qr_scan"}, "lon": -77.02453433333334, "type": "electric_scooter", "fusion_lat": 0.0, "lat": 38.9793705, "name": "ac3b595a431cc4279bfe7846fb201cab", "fusion_lon": 0.0, "bike_id": "ac3b595a431cc4279bfe7846fb201cab", "is_disabled": 0, "is_reserved": 0}, {"rental_uris": {"ios": "https://dc.lft.to/lastmile_qr_scan", "android": "https://dc.lft.to/lastmile_qr_scan"}, "lon": -77.03221033333334, "type": "electric_scooter", "fusion_lat": 0.0, "lat": 38.91811666666667, "name": "33414aca67e3001106ff7635427f9dc7", "fusion_lon": 0.0, "bike_id": "33414aca67e3001106ff7635427f9dc7", "is_disabled": 0, "is_reserved": 0}, {"rental_uris": {"ios": "https://dc.lft.to/lastmile_qr_scan", "android": "https://dc.lft.to/lastmile_qr_scan"}, "lon": -77.02199416666667, "type": "electric_scooter", "fusion_lat": 0.0, "lat": 38.91416233333333, "name": "aba45d954bc9db2c41831ddf63c48cb4", "fusion_lon": 0.0, "bike_id": "aba45d954bc9db2c41831ddf63c48cb4", "is_disabled": 0, "is_reserved": 0}, {"rental_uris": {"ios": "https://dc.lft.to/lastmile_qr_scan", "android": "https://dc.lft.to/lastmile_qr_scan"}, "lon": -77.00898616666667, "type": "electric_scooter", "fusion_lat": 0.0, "lat": 38.905185333333336, "name": "b1c62db303dc7cd4be3a4cfca87ebd2f", "fusion_lon": 0.0, "bike_id": "b1c62db303dc7cd4be3a4cfca87ebd2f", "is_disabled": 0, "is_reserved": 0}, {"rental_uris": {"ios": "https://dc.lft.to/lastmile_qr_scan", "android": "https://dc.lft.to/lastmile_qr_scan"}, "lon": -77.025031, "type": "electric_scooter", "fusion_lat": 0.0, "lat": 38.901987, "name": "274b14cf7a5a27effbe5305ac9ecfb9d", "fusion_lon": 0.0, "bike_id": "274b14cf7a5a27effbe5305ac9ecfb9d", "is_disabled": 0, "is_reserved": 0}, {"rental_uris": {"ios": "https://dc.lft.to/lastmile_qr_scan", "android": "https://dc.lft.to/lastmile_qr_scan"}, "lon": -77.03519866666667, "type": "electric_scooter", "fusion_lat": 0.0, "lat": 38.906655, "name": "468f517884c5eb550bf6f6acba1993a8", "fusion_lon": 0.0, "bike_id": "468f517884c5eb550bf6f6acba1993a8", "is_disabled": 0, "is_reserved": 0}, {"rental_uris": {"ios": "https://dc.lft.to/lastmile_qr_scan", "android": "https://dc.lft.to/lastmile_qr_scan"}, "lon": -76.9949125, "type": "electric_scooter", "fusion_lat": 0.0, "lat": 38.902280166666664, "name": "da5b72220e23d6ebdef6ecdb8adc12e0", "fusion_lon": 0.0, "bike_id": "da5b72220e23d6ebdef6ecdb8adc12e0", "is_disabled": 0, "is_reserved": 0}, {"rental_uris": {"ios": "https://dc.lft.to/lastmile_qr_scan", "android": "https://dc.lft.to/lastmile_qr_scan"}, "lon": -77.0601045, "type": "electric_scooter", "fusion_lat": 0.0, "lat": 38.90517, "name": "caa73e7646732eb339a46513f199f79d", "fusion_lon": 0.0, "bike_id": "caa73e7646732eb339a46513f199f79d", "is_disabled": 0, "is_reserved": 0}, {"rental_uris": {"ios": "https://dc.lft.to/lastmile_qr_scan", "android": "https://dc.lft.to/lastmile_qr_scan"}, "lon": -77.06939766666666, "type": "electric_scooter", "fusion_lat": 0.0, "lat": 38.9051175, "name": "ff13aafd8cb9a4077e71999eea6a0b70", "fusion_lon": 0.0, "bike_id": "ff13aafd8cb9a4077e71999eea6a0b70", "is_disabled": 0, "is_reserved": 0}, {"rental_uris": {"ios": "https://dc.lft.to/lastmile_qr_scan", "android": "https://dc.lft.to/lastmile_qr_scan"}, "lon": -77.04277366666666, "type": "electric_scooter", "fusion_lat": 0.0, "lat": 38.90805433333333, "name": "934b3c4faf18124c61742bb28da19e54", "fusion_lon": 0.0, "bike_id": "934b3c4faf18124c61742bb28da19e54", "is_disabled": 0, "is_reserved": 0}, {"rental_uris": {"ios": "https://dc.lft.to/lastmile_qr_scan", "android": "https://dc.lft.to/lastmile_qr_scan"}, "lon": -77.01636933333333, "type": "electric_scooter", "fusion_lat": 0.0, "lat": 38.929341, "name": "f666275331d5d0e6a0195fa8aa4efc03", "fusion_lon": 0.0, "bike_id": "f666275331d5d0e6a0195fa8aa4efc03", "is_disabled": 0, "is_reserved": 0}, {"rental_uris": {"ios": "https://dc.lft.to/lastmile_qr_scan", "android": "https://dc.lft.to/lastmile_qr_scan"}, "lon": -77.05155966666666, "type": "electric_scooter", "fusion_lat": 0.0, "lat": 38.923811666666666, "name": "5d3ac19b53ccf0070941627e2fd6f5e4", "fusion_lon": 0.0, "bike_id": "5d3ac19b53ccf0070941627e2fd6f5e4", "is_disabled": 0, "is_reserved": 0}, {"rental_uris": {"ios": "https://dc.lft.to/lastmile_qr_scan", "android": "https://dc.lft.to/lastmile_qr_scan"}, "lon": -76.951859, "type": "electric_scooter", "fusion_lat": 0.0, "lat": 38.89135016666667, "name": "39609cae8cdec753dff917841e0540fa", "fusion_lon": 0.0, "bike_id": "39609cae8cdec753dff917841e0540fa", "is_disabled": 0, "is_reserved": 0}, {"rental_uris": {"ios": "https://dc.lft.to/lastmile_qr_scan", "android": "https://dc.lft.to/lastmile_qr_scan"}, "lon": -77.01230816666667, "type": "electric_scooter", "fusion_lat": 0.0, "lat": 38.9154835, "name": "092adf2c5c6ed1d3876d1618453bebcb", "fusion_lon": 0.0, "bike_id": "092adf2c5c6ed1d3876d1618453bebcb", "is_disabled": 0, "is_reserved": 0}, {"rental_uris": {"ios": "https://dc.lft.to/lastmile_qr_scan", "android": "https://dc.lft.to/lastmile_qr_scan"}, "lon": -77.041449, "type": "electric_scooter", "fusion_lat": 0.0, "lat": 38.91702183333334, "name": "f302647bc7a240daf84af3db63a9605e", "fusion_lon": 0.0, "bike_id": "f302647bc7a240daf84af3db63a9605e", "is_disabled": 0, "is_reserved": 0}, {"rental_uris": {"ios": "https://dc.lft.to/lastmile_qr_scan", "android": "https://dc.lft.to/lastmile_qr_scan"}, "lon": -76.99503883333334, "type": "electric_bike", "fusion_lat": 0.0, "lat": 38.99999566666666, "name": "58a500601c4fee78867f3b4c0fda0106", "fusion_lon": 0.0, "bike_id": "58a500601c4fee78867f3b4c0fda0106", "is_disabled": 0, "is_reserved": 0}, {"rental_uris": {"ios": "https://dc.lft.to/lastmile_qr_scan", "android": "https://dc.lft.to/lastmile_qr_scan"}, "lon": -77.05335416666667, "type": "electric_scooter", "fusion_lat": 0.0, "lat": 38.905914333333335, "name": "e1e9deb1dc30cc814b1a321e35a9f5fd", "fusion_lon": 0.0, "bike_id": "e1e9deb1dc30cc814b1a321e35a9f5fd", "is_disabled": 0, "is_reserved": 0}, {"rental_uris": {"ios": "https://dc.lft.to/lastmile_qr_scan", "android": "https://dc.lft.to/lastmile_qr_scan"}, "lon": -77.06371283333333, "type": "electric_scooter", "fusion_lat": 0.0, "lat": 38.9442235, "name": "8184dc1ccddb0cbcc4ea774c4466289f", "fusion_lon": 0.0, "bike_id": "8184dc1ccddb0cbcc4ea774c4466289f", "is_disabled": 0, "is_reserved": 0}, {"rental_uris": {"ios": "https://dc.lft.to/lastmile_qr_scan", "android": "https://dc.lft.to/lastmile_qr_scan"}, "lon": -77.0262035, "type": "electric_scooter", "fusion_lat": 0.0, "lat": 38.93398083333334, "name": "20a71aeb6cb3199d41cd396cff64adca", "fusion_lon": 0.0, "bike_id": "20a71aeb6cb3199d41cd396cff64adca", "is_disabled": 0, "is_reserved": 0}, {"rental_uris": {"ios": "https://dc.lft.to/lastmile_qr_scan", "android": "https://dc.lft.to/lastmile_qr_scan"}, "lon": -77.03171966666666, "type": "electric_scooter", "fusion_lat": 0.0, "lat": 38.912720166666666, "name": "3c414cbddc93cbe63eca00337a826104", "fusion_lon": 0.0, "bike_id": "3c414cbddc93cbe63eca00337a826104", "is_disabled": 0, "is_reserved": 0}, {"rental_uris": {"ios": "https://dc.lft.to/lastmile_qr_scan", "android": "https://dc.lft.to/lastmile_qr_scan"}, "lon": -77.01704916666667, "type": "electric_scooter", "fusion_lat": 0.0, "lat": 38.91382433333333, "name": "aebfc21081ca7750e3bbba198a815d73", "fusion_lon": 0.0, "bike_id": "aebfc21081ca7750e3bbba198a815d73", "is_disabled": 0, "is_reserved": 0}, {"rental_uris": {"ios": "https://dc.lft.to/lastmile_qr_scan", "android": "https://dc.lft.to/lastmile_qr_scan"}, "lon": -77.03183233333333, "type": "electric_scooter", "fusion_lat": 0.0, "lat": 38.9139515, "name": "dc16ecf64c6a621eb71c5a8941f8ff4a", "fusion_lon": 0.0, "bike_id": "dc16ecf64c6a621eb71c5a8941f8ff4a", "is_disabled": 0, "is_reserved": 0}, {"rental_uris": {"ios": "https://dc.lft.to/lastmile_qr_scan", "android": "https://dc.lft.to/lastmile_qr_scan"}, "lon": -77.0385305, "type": "electric_scooter", "fusion_lat": 0.0, "lat": 38.907657, "name": "113d89406ff817252a8f7926cb7c96ed", "fusion_lon": 0.0, "bike_id": "113d89406ff817252a8f7926cb7c96ed", "is_disabled": 0, "is_reserved": 0}, {"rental_uris": {"ios": "https://dc.lft.to/lastmile_qr_scan", "android": "https://dc.lft.to/lastmile_qr_scan"}, "lon": -77.00909766666666, "type": "electric_scooter", "fusion_lat": 0.0, "lat": 38.9104905, "name": "807e23098f3f557429d7de3c408f1a8e", "fusion_lon": 0.0, "bike_id": "807e23098f3f557429d7de3c408f1a8e", "is_disabled": 0, "is_reserved": 0}, {"rental_uris": {"ios": "https://dc.lft.to/lastmile_qr_scan", "android": "https://dc.lft.to/lastmile_qr_scan"}, "lon": -77.035433, "type": "electric_scooter", "fusion_lat": 0.0, "lat": 38.903507166666664, "name": "f0a716804f17e9b772019a4d1b561c3c", "fusion_lon": 0.0, "bike_id": "f0a716804f17e9b772019a4d1b561c3c", "is_disabled": 0, "is_reserved": 0}, {"rental_uris": {"ios": "https://dc.lft.to/lastmile_qr_scan", "android": "https://dc.lft.to/lastmile_qr_scan"}, "lon": -76.99983433333334, "type": "electric_scooter", "fusion_lat": 0.0, "lat": 38.83831166666667, "name": "5b5de9cb7e95e238a5f591e0d7ac5401", "fusion_lon": 0.0, "bike_id": "5b5de9cb7e95e238a5f591e0d7ac5401", "is_disabled": 0, "is_reserved": 0}, {"rental_uris": {"ios": "https://dc.lft.to/lastmile_qr_scan", "android": "https://dc.lft.to/lastmile_qr_scan"}, "lon": -77.005071, "type": "electric_scooter", "fusion_lat": 0.0, "lat": 38.917062, "name": "3630462fc70d0be098eda0140ec2af15", "fusion_lon": 0.0, "bike_id": "3630462fc70d0be098eda0140ec2af15", "is_disabled": 0, "is_reserved": 0}, {"rental_uris": {"ios": "https://dc.lft.to/lastmile_qr_scan", "android": "https://dc.lft.to/lastmile_qr_scan"}, "lon": -76.99946033333333, "type": "electric_scooter", "fusion_lat": 0.0, "lat": 38.842826, "name": "a6debba855179e424ccee0ce565ee7be", "fusion_lon": 0.0, "bike_id": "a6debba855179e424ccee0ce565ee7be", "is_disabled": 0, "is_reserved": 0}, {"rental_uris": {"ios": "https://dc.lft.to/lastmile_qr_scan", "android": "https://dc.lft.to/lastmile_qr_scan"}, "lon": -76.99182333333333, "type": "electric_scooter", "fusion_lat": 0.0, "lat": 38.904522666666665, "name": "8f0d9b7115b9a2fde71f9908ad985bfd", "fusion_lon": 0.0, "bike_id": "8f0d9b7115b9a2fde71f9908ad985bfd", "is_disabled": 0, "is_reserved": 0}, {"rental_uris": {"ios": "https://dc.lft.to/lastmile_qr_scan", "android": "https://dc.lft.to/lastmile_qr_scan"}, "lon": -77.033541, "type": "electric_scooter", "fusion_lat": 0.0, "lat": 38.89232633333334, "name": "798dc504d114f4f6a2dbd91f9d728bbf", "fusion_lon": 0.0, "bike_id": "798dc504d114f4f6a2dbd91f9d728bbf", "is_disabled": 0, "is_reserved": 0}, {"rental_uris": {"ios": "https://dc.lft.to/lastmile_qr_scan", "android": "https://dc.lft.to/lastmile_qr_scan"}, "lon": -76.90816333333333, "type": "electric_bike", "fusion_lat": 0.0, "lat": 39.0025225, "name": "903f0481323c376b7788ab0540c3a1ce", "fusion_lon": 0.0, "bike_id": "903f0481323c376b7788ab0540c3a1ce", "is_disabled": 0, "is_reserved": 0}, {"rental_uris": {"ios": "https://dc.lft.to/lastmile_qr_scan", "android": "https://dc.lft.to/lastmile_qr_scan"}, "lon": -77.11222483333333, "type": "electric_bike", "fusion_lat": 0.0, "lat": 38.8286785, "name": "0987fa16244d8c8db04ea7a6820aff86", "fusion_lon": 0.0, "bike_id": "0987fa16244d8c8db04ea7a6820aff86", "is_disabled": 0, "is_reserved": 0}, {"rental_uris": {"ios": "https://dc.lft.to/lastmile_qr_scan", "android": "https://dc.lft.to/lastmile_qr_scan"}, "lon": -77.02484433333333, "type": "electric_scooter", "fusion_lat": 0.0, "lat": 38.937578, "name": "9b8fb2982457c5778524e1b5bfebc527", "fusion_lon": 0.0, "bike_id": "9b8fb2982457c5778524e1b5bfebc527", "is_disabled": 0, "is_reserved": 0}, {"rental_uris": {"ios": "https://dc.lft.to/lastmile_qr_scan", "android": "https://dc.lft.to/lastmile_qr_scan"}, "lon": -77.023976, "type": "electric_scooter", "fusion_lat": 0.0, "lat": 38.915724833333336, "name": "0107338e091bfb910aabaad6c2a29745", "fusion_lon": 0.0, "bike_id": "0107338e091bfb910aabaad6c2a29745", "is_disabled": 0, "is_reserved": 0}, {"rental_uris": {"ios": "https://dc.lft.to/lastmile_qr_scan", "android": "https://dc.lft.to/lastmile_qr_scan"}, "lon": -77.01749133333334, "type": "electric_scooter", "fusion_lat": 0.0, "lat": 38.87716566666667, "name": "d47aa8f21fd7b94f931b5415f0a42a82", "fusion_lon": 0.0, "bike_id": "d47aa8f21fd7b94f931b5415f0a42a82", "is_disabled": 0, "is_reserved": 0}, {"rental_uris": {"ios": "https://dc.lft.to/lastmile_qr_scan", "android": "https://dc.lft.to/lastmile_qr_scan"}, "lon": -76.98085383333333, "type": "electric_bike", "fusion_lat": 0.0, "lat": 38.902854833333336, "name": "4aed10b5f8596f5173148e00087df06b", "fusion_lon": 0.0, "bike_id": "4aed10b5f8596f5173148e00087df06b", "is_disabled": 0, "is_reserved": 0}, {"rental_uris": {"ios": "https://dc.lft.to/lastmile_qr_scan", "android": "https://dc.lft.to/lastmile_qr_scan"}, "lon": -77.119166, "type": "electric_bike", "fusion_lat": 0.0, "lat": 38.84103616666667, "name": "fdb86b09e40c16cb348230ea590f37f5", "fusion_lon": 0.0, "bike_id": "fdb86b09e40c16cb348230ea590f37f5", "is_disabled": 0, "is_reserved": 0}, {"rental_uris": {"ios": "https://dc.lft.to/lastmile_qr_scan", "android": "https://dc.lft.to/lastmile_qr_scan"}, "lon": -76.93614716666667, "type": "electric_bike", "fusion_lat": 0.0, "lat": 38.97049416666667, "name": "758f191313b7efb495148d2465043fb4", "fusion_lon": 0.0, "bike_id": "758f191313b7efb495148d2465043fb4", "is_disabled": 0, "is_reserved": 0}, {"rental_uris": {"ios": "https://dc.lft.to/lastmile_qr_scan", "android": "https://dc.lft.to/lastmile_qr_scan"}, "lon": -77.0199855, "type": "electric_scooter", "fusion_lat": 0.0, "lat": 38.915628, "name": "971418d9019de7ad63813e68848e9bee", "fusion_lon": 0.0, "bike_id": "971418d9019de7ad63813e68848e9bee", "is_disabled": 0, "is_reserved": 0}, {"rental_uris": {"ios": "https://dc.lft.to/lastmile_qr_scan", "android": "https://dc.lft.to/lastmile_qr_scan"}, "lon": -77.02345816666667, "type": "electric_scooter", "fusion_lat": 0.0, "lat": 38.933770333333335, "name": "a4da257005fe3f4421c49c2b9b924f76", "fusion_lon": 0.0, "bike_id": "a4da257005fe3f4421c49c2b9b924f76", "is_disabled": 0, "is_reserved": 0}, {"rental_uris": {"ios": "https://dc.lft.to/lastmile_qr_scan", "android": "https://dc.lft.to/lastmile_qr_scan"}, "lon": -77.029935, "type": "electric_scooter", "fusion_lat": 0.0, "lat": 38.895525166666665, "name": "7171003ee5833ddb59d9d55363ab7537", "fusion_lon": 0.0, "bike_id": "7171003ee5833ddb59d9d55363ab7537", "is_disabled": 0, "is_reserved": 0}, {"rental_uris": {"ios": "https://dc.lft.to/lastmile_qr_scan", "android": "https://dc.lft.to/lastmile_qr_scan"}, "lon": -77.07903233333333, "type": "electric_bike", "fusion_lat": 0.0, "lat": 38.839343166666666, "name": "cb545d8c8ce57bb2644cdfd05dedd2fa", "fusion_lon": 0.0, "bike_id": "cb545d8c8ce57bb2644cdfd05dedd2fa", "is_disabled": 0, "is_reserved": 0}, {"rental_uris": {"ios": "https://dc.lft.to/lastmile_qr_scan", "android": "https://dc.lft.to/lastmile_qr_scan"}, "lon": -77.02006516666667, "type": "electric_scooter", "fusion_lat": 0.0, "lat": 38.9130855, "name": "4eb9295a2e0e160dafe8c4f6862cb8f0", "fusion_lon": 0.0, "bike_id": "4eb9295a2e0e160dafe8c4f6862cb8f0", "is_disabled": 0, "is_reserved": 0}, {"rental_uris": {"ios": "https://dc.lft.to/lastmile_qr_scan", "android": "https://dc.lft.to/lastmile_qr_scan"}, "lon": -77.00540166666667, "type": "electric_scooter", "fusion_lat": 0.0, "lat": 38.874560833333334, "name": "c52ad1b44e7f5973a90f93edb6e0a3a9", "fusion_lon": 0.0, "bike_id": "c52ad1b44e7f5973a90f93edb6e0a3a9", "is_disabled": 0, "is_reserved": 0}, {"rental_uris": {"ios": "https://dc.lft.to/lastmile_qr_scan", "android": "https://dc.lft.to/lastmile_qr_scan"}, "lon": -76.94996866666666, "type": "electric_scooter", "fusion_lat": 0.0, "lat": 38.89370233333333, "name": "66f5e45e78a94c8361ab49eae86bd882", "fusion_lon": 0.0, "bike_id": "66f5e45e78a94c8361ab49eae86bd882", "is_disabled": 0, "is_reserved": 0}, {"rental_uris": {"ios": "https://dc.lft.to/lastmile_qr_scan", "android": "https://dc.lft.to/lastmile_qr_scan"}, "lon": -77.0322085, "type": "electric_scooter", "fusion_lat": 0.0, "lat": 38.912688, "name": "c0322b6d1fc8a864f6e4003efc29cdbb", "fusion_lon": 0.0, "bike_id": "c0322b6d1fc8a864f6e4003efc29cdbb", "is_disabled": 0, "is_reserved": 0}, {"rental_uris": {"ios": "https://dc.lft.to/lastmile_qr_scan", "android": "https://dc.lft.to/lastmile_qr_scan"}, "lon": -77.02005783333334, "type": "electric_scooter", "fusion_lat": 0.0, "lat": 38.91910033333333, "name": "d387f41119159aef1943c5ce24ca66c5", "fusion_lon": 0.0, "bike_id": "d387f41119159aef1943c5ce24ca66c5", "is_disabled": 0, "is_reserved": 0}, {"rental_uris": {"ios": "https://dc.lft.to/lastmile_qr_scan", "android": "https://dc.lft.to/lastmile_qr_scan"}, "lon": -77.0164295, "type": "electric_scooter", "fusion_lat": 0.0, "lat": 38.92936816666667, "name": "e7b0a28fac389e03f575844f81caa320", "fusion_lon": 0.0, "bike_id": "e7b0a28fac389e03f575844f81caa320", "is_disabled": 0, "is_reserved": 0}, {"rental_uris": {"ios": "https://dc.lft.to/lastmile_qr_scan", "android": "https://dc.lft.to/lastmile_qr_scan"}, "lon": -77.03213533333333, "type": "electric_scooter", "fusion_lat": 0.0, "lat": 38.920136666666664, "name": "4527095df663cbbc3cdc98b4fd078be6", "fusion_lon": 0.0, "bike_id": "4527095df663cbbc3cdc98b4fd078be6", "is_disabled": 0, "is_reserved": 0}, {"rental_uris": {"ios": "https://dc.lft.to/lastmile_qr_scan", "android": "https://dc.lft.to/lastmile_qr_scan"}, "lon": -77.04125433333333, "type": "electric_scooter", "fusion_lat": 0.0, "lat": 38.9188645, "name": "47350c76b7c165d81760b0bc3f369395", "fusion_lon": 0.0, "bike_id": "47350c76b7c165d81760b0bc3f369395", "is_disabled": 0, "is_reserved": 0}, {"rental_uris": {"ios": "https://dc.lft.to/lastmile_qr_scan", "android": "https://dc.lft.to/lastmile_qr_scan"}, "lon": -76.9473845, "type": "electric_scooter", "fusion_lat": 0.0, "lat": 38.896790833333334, "name": "11d48e355749febfcdb4a0c860637c96", "fusion_lon": 0.0, "bike_id": "11d48e355749febfcdb4a0c860637c96", "is_disabled": 0, "is_reserved": 0}, {"rental_uris": {"ios": "https://dc.lft.to/lastmile_qr_scan", "android": "https://dc.lft.to/lastmile_qr_scan"}, "lon": -77.09558683333333, "type": "electric_scooter", "fusion_lat": 0.0, "lat": 38.91647283333333, "name": "ec2f602e0e3c4066aad054306dc35b8b", "fusion_lon": 0.0, "bike_id": "ec2f602e0e3c4066aad054306dc35b8b", "is_disabled": 0, "is_reserved": 0}, {"rental_uris": {"ios": "https://dc.lft.to/lastmile_qr_scan", "android": "https://dc.lft.to/lastmile_qr_scan"}, "lon": -77.0122415, "type": "electric_scooter", "fusion_lat": 0.0, "lat": 38.9097605, "name": "bb6dfcef0666a2c8a5cdbfc8f6fee3d7", "fusion_lon": 0.0, "bike_id": "bb6dfcef0666a2c8a5cdbfc8f6fee3d7", "is_disabled": 0, "is_reserved": 0}, {"rental_uris": {"ios": "https://dc.lft.to/lastmile_qr_scan", "android": "https://dc.lft.to/lastmile_qr_scan"}, "lon": -77.0399615, "type": "electric_scooter", "fusion_lat": 0.0, "lat": 38.907210166666665, "name": "b7a49d44224b8011498417deac2807e2", "fusion_lon": 0.0, "bike_id": "b7a49d44224b8011498417deac2807e2", "is_disabled": 0, "is_reserved": 0}, {"rental_uris": {"ios": "https://dc.lft.to/lastmile_qr_scan", "android": "https://dc.lft.to/lastmile_qr_scan"}, "lon": -77.011814, "type": "electric_scooter", "fusion_lat": 0.0, "lat": 38.9065735, "name": "2cd1067468400b4f053f6889b96c4614", "fusion_lon": 0.0, "bike_id": "2cd1067468400b4f053f6889b96c4614", "is_disabled": 0, "is_reserved": 0}, {"rental_uris": {"ios": "https://dc.lft.to/lastmile_qr_scan", "android": "https://dc.lft.to/lastmile_qr_scan"}, "lon": -77.03339483333333, "type": "electric_scooter", "fusion_lat": 0.0, "lat": 38.901035666666665, "name": "728afbb12b497dbe80e523891cf16f54", "fusion_lon": 0.0, "bike_id": "728afbb12b497dbe80e523891cf16f54", "is_disabled": 0, "is_reserved": 0}, {"rental_uris": {"ios": "https://dc.lft.to/lastmile_qr_scan", "android": "https://dc.lft.to/lastmile_qr_scan"}, "lon": -77.022091, "type": "electric_scooter", "fusion_lat": 0.0, "lat": 38.909708333333334, "name": "245d6837cebf2350bdc228bb0554206e", "fusion_lon": 0.0, "bike_id": "245d6837cebf2350bdc228bb0554206e", "is_disabled": 0, "is_reserved": 0}, {"rental_uris": {"ios": "https://dc.lft.to/lastmile_qr_scan", "android": "https://dc.lft.to/lastmile_qr_scan"}, "lon": -77.0107135, "type": "electric_scooter", "fusion_lat": 0.0, "lat": 38.91909, "name": "a7a1b680c0043ee7f4e749a305e2aabf", "fusion_lon": 0.0, "bike_id": "a7a1b680c0043ee7f4e749a305e2aabf", "is_disabled": 0, "is_reserved": 0}, {"rental_uris": {"ios": "https://dc.lft.to/lastmile_qr_scan", "android": "https://dc.lft.to/lastmile_qr_scan"}, "lon": -77.053239, "type": "electric_scooter", "fusion_lat": 0.0, "lat": 38.9396405, "name": "847ac27a584230a7df14e108c4e24f2c", "fusion_lon": 0.0, "bike_id": "847ac27a584230a7df14e108c4e24f2c", "is_disabled": 0, "is_reserved": 0}, {"rental_uris": {"ios": "https://dc.lft.to/lastmile_qr_scan", "android": "https://dc.lft.to/lastmile_qr_scan"}, "lon": -76.98815516666667, "type": "electric_scooter", "fusion_lat": 0.0, "lat": 38.90329883333333, "name": "bcd949f2cbfe8ccc94c951c9ed2b3cae", "fusion_lon": 0.0, "bike_id": "bcd949f2cbfe8ccc94c951c9ed2b3cae", "is_disabled": 0, "is_reserved": 0}, {"rental_uris": {"ios": "https://dc.lft.to/lastmile_qr_scan", "android": "https://dc.lft.to/lastmile_qr_scan"}, "lon": -77.02476366666667, "type": "electric_scooter", "fusion_lat": 0.0, "lat": 38.89739, "name": "2dd95ca49c18b0f8f73570f8187663d4", "fusion_lon": 0.0, "bike_id": "2dd95ca49c18b0f8f73570f8187663d4", "is_disabled": 0, "is_reserved": 0}, {"rental_uris": {"ios": "https://dc.lft.to/lastmile_qr_scan", "android": "https://dc.lft.to/lastmile_qr_scan"}, "lon": -77.039101, "type": "electric_scooter", "fusion_lat": 0.0, "lat": 38.92310716666667, "name": "3e99272d5a14a28c798ba6a60ab442c6", "fusion_lon": 0.0, "bike_id": "3e99272d5a14a28c798ba6a60ab442c6", "is_disabled": 0, "is_reserved": 0}, {"rental_uris": {"ios": "https://dc.lft.to/lastmile_qr_scan", "android": "https://dc.lft.to/lastmile_qr_scan"}, "lon": -77.070981, "type": "electric_scooter", "fusion_lat": 0.0, "lat": 38.933713166666664, "name": "15009a4269ebe66e4fb41c3cb12b70be", "fusion_lon": 0.0, "bike_id": "15009a4269ebe66e4fb41c3cb12b70be", "is_disabled": 0, "is_reserved": 0}, {"rental_uris": {"ios": "https://dc.lft.to/lastmile_qr_scan", "android": "https://dc.lft.to/lastmile_qr_scan"}, "lon": -77.026662, "type": "electric_scooter", "fusion_lat": 0.0, "lat": 38.91051566666667, "name": "8f6d9c2449e859288618b84a547b68b4", "fusion_lon": 0.0, "bike_id": "8f6d9c2449e859288618b84a547b68b4", "is_disabled": 0, "is_reserved": 0}, {"rental_uris": {"ios": "https://dc.lft.to/lastmile_qr_scan", "android": "https://dc.lft.to/lastmile_qr_scan"}, "lon": -77.0387225, "type": "electric_scooter", "fusion_lat": 0.0, "lat": 38.91268183333333, "name": "180f9d35f8cb1398ce0c654d85210378", "fusion_lon": 0.0, "bike_id": "180f9d35f8cb1398ce0c654d85210378", "is_disabled": 0, "is_reserved": 0}, {"rental_uris": {"ios": "https://dc.lft.to/lastmile_qr_scan", "android": "https://dc.lft.to/lastmile_qr_scan"}, "lon": -76.98207666666667, "type": "electric_scooter", "fusion_lat": 0.0, "lat": 38.890868, "name": "6320178fabf6521ab012084b73e7d369", "fusion_lon": 0.0, "bike_id": "6320178fabf6521ab012084b73e7d369", "is_disabled": 0, "is_reserved": 0}, {"rental_uris": {"ios": "https://dc.lft.to/lastmile_qr_scan", "android": "https://dc.lft.to/lastmile_qr_scan"}, "lon": -77.0469015, "type": "electric_scooter", "fusion_lat": 0.0, "lat": 38.9058425, "name": "d8f2659c3dbaf2b6f93230e3bb52913c", "fusion_lon": 0.0, "bike_id": "d8f2659c3dbaf2b6f93230e3bb52913c", "is_disabled": 0, "is_reserved": 0}, {"rental_uris": {"ios": "https://dc.lft.to/lastmile_qr_scan", "android": "https://dc.lft.to/lastmile_qr_scan"}, "lon": -77.030253, "type": "electric_scooter", "fusion_lat": 0.0, "lat": 38.92251066666667, "name": "0d20fb2e2286e8ec3386674da6650da5", "fusion_lon": 0.0, "bike_id": "0d20fb2e2286e8ec3386674da6650da5", "is_disabled": 0, "is_reserved": 0}, {"rental_uris": {"ios": "https://dc.lft.to/lastmile_qr_scan", "android": "https://dc.lft.to/lastmile_qr_scan"}, "lon": -77.02416783333334, "type": "electric_scooter", "fusion_lat": 0.0, "lat": 38.9177345, "name": "d3f907bd67cabf2ad8d94c4171f6bd8f", "fusion_lon": 0.0, "bike_id": "d3f907bd67cabf2ad8d94c4171f6bd8f", "is_disabled": 0, "is_reserved": 0}, {"rental_uris": {"ios": "https://dc.lft.to/lastmile_qr_scan", "android": "https://dc.lft.to/lastmile_qr_scan"}, "lon": -77.05500933333333, "type": "electric_scooter", "fusion_lat": 0.0, "lat": 38.9296905, "name": "0b254f06ae1fe502e1e7316141b6761b", "fusion_lon": 0.0, "bike_id": "0b254f06ae1fe502e1e7316141b6761b", "is_disabled": 0, "is_reserved": 0}, {"rental_uris": {"ios": "https://dc.lft.to/lastmile_qr_scan", "android": "https://dc.lft.to/lastmile_qr_scan"}, "lon": -77.02978416666667, "type": "electric_scooter", "fusion_lat": 0.0, "lat": 38.958345, "name": "b921fe88f6a06a93b74ac65b21d95232", "fusion_lon": 0.0, "bike_id": "b921fe88f6a06a93b74ac65b21d95232", "is_disabled": 0, "is_reserved": 0}, {"rental_uris": {"ios": "https://dc.lft.to/lastmile_qr_scan", "android": "https://dc.lft.to/lastmile_qr_scan"}, "lon": -77.04181166666666, "type": "electric_scooter", "fusion_lat": 0.0, "lat": 38.9220745, "name": "19e5a955f4b936848b75f385050510a9", "fusion_lon": 0.0, "bike_id": "19e5a955f4b936848b75f385050510a9", "is_disabled": 0, "is_reserved": 0}, {"rental_uris": {"ios": "https://dc.lft.to/lastmile_qr_scan", "android": "https://dc.lft.to/lastmile_qr_scan"}, "lon": -77.02615666666667, "type": "electric_scooter", "fusion_lat": 0.0, "lat": 38.951785666666666, "name": "838e5132eb8a3f7da40b487e26ef7ed2", "fusion_lon": 0.0, "bike_id": "838e5132eb8a3f7da40b487e26ef7ed2", "is_disabled": 0, "is_reserved": 0}, {"rental_uris": {"ios": "https://dc.lft.to/lastmile_qr_scan", "android": "https://dc.lft.to/lastmile_qr_scan"}, "lon": -77.03959566666667, "type": "electric_scooter", "fusion_lat": 0.0, "lat": 38.92615083333333, "name": "4af430d0a13b2b6ffc8d17fe5f471517", "fusion_lon": 0.0, "bike_id": "4af430d0a13b2b6ffc8d17fe5f471517", "is_disabled": 0, "is_reserved": 0}, {"rental_uris": {"ios": "https://dc.lft.to/lastmile_qr_scan", "android": "https://dc.lft.to/lastmile_qr_scan"}, "lon": -77.0396525, "type": "electric_bike", "fusion_lat": 0.0, "lat": 38.805158166666665, "name": "0c89851b42b160be24fe5317e698b307", "fusion_lon": 0.0, "bike_id": "0c89851b42b160be24fe5317e698b307", "is_disabled": 0, "is_reserved": 0}, {"rental_uris": {"ios": "https://dc.lft.to/lastmile_qr_scan", "android": "https://dc.lft.to/lastmile_qr_scan"}, "lon": -77.03631433333334, "type": "electric_scooter", "fusion_lat": 0.0, "lat": 38.903350333333336, "name": "4431f0b3e096b751ec6014f15046c8b1", "fusion_lon": 0.0, "bike_id": "4431f0b3e096b751ec6014f15046c8b1", "is_disabled": 0, "is_reserved": 0}, {"rental_uris": {"ios": "https://dc.lft.to/lastmile_qr_scan", "android": "https://dc.lft.to/lastmile_qr_scan"}, "lon": -77.02987333333333, "type": "electric_scooter", "fusion_lat": 0.0, "lat": 38.956273833333334, "name": "34ac1d7a2166dc23359927b8f1c40e77", "fusion_lon": 0.0, "bike_id": "34ac1d7a2166dc23359927b8f1c40e77", "is_disabled": 0, "is_reserved": 0}, {"rental_uris": {"ios": "https://dc.lft.to/lastmile_qr_scan", "android": "https://dc.lft.to/lastmile_qr_scan"}, "lon": -77.02352816666667, "type": "electric_scooter", "fusion_lat": 0.0, "lat": 38.931906166666664, "name": "b69182eaf02fff2b4582d6033355801b", "fusion_lon": 0.0, "bike_id": "b69182eaf02fff2b4582d6033355801b", "is_disabled": 0, "is_reserved": 0}, {"rental_uris": {"ios": "https://dc.lft.to/lastmile_qr_scan", "android": "https://dc.lft.to/lastmile_qr_scan"}, "lon": -77.02685183333334, "type": "electric_scooter", "fusion_lat": 0.0, "lat": 38.97539883333334, "name": "277743f9eecc9cc440719b5bcaeca59a", "fusion_lon": 0.0, "bike_id": "277743f9eecc9cc440719b5bcaeca59a", "is_disabled": 0, "is_reserved": 0}, {"rental_uris": {"ios": "https://dc.lft.to/lastmile_qr_scan", "android": "https://dc.lft.to/lastmile_qr_scan"}, "lon": -77.03216383333333, "type": "electric_scooter", "fusion_lat": 0.0, "lat": 38.916894, "name": "606bdfd7ef5035ae498c559bac898bf8", "fusion_lon": 0.0, "bike_id": "606bdfd7ef5035ae498c559bac898bf8", "is_disabled": 0, "is_reserved": 0}, {"rental_uris": {"ios": "https://dc.lft.to/lastmile_qr_scan", "android": "https://dc.lft.to/lastmile_qr_scan"}, "lon": -76.98353916666667, "type": "electric_scooter", "fusion_lat": 0.0, "lat": 38.91522966666667, "name": "095d398ddd3928fb1fac4de728ff79e9", "fusion_lon": 0.0, "bike_id": "095d398ddd3928fb1fac4de728ff79e9", "is_disabled": 0, "is_reserved": 0}, {"rental_uris": {"ios": "https://dc.lft.to/lastmile_qr_scan", "android": "https://dc.lft.to/lastmile_qr_scan"}, "lon": -77.03217433333333, "type": "electric_scooter", "fusion_lat": 0.0, "lat": 38.911903, "name": "4cb1b3c341bfb6177894b7a1484c697d", "fusion_lon": 0.0, "bike_id": "4cb1b3c341bfb6177894b7a1484c697d", "is_disabled": 0, "is_reserved": 0}, {"rental_uris": {"ios": "https://dc.lft.to/lastmile_qr_scan", "android": "https://dc.lft.to/lastmile_qr_scan"}, "lon": -77.02190083333333, "type": "electric_scooter", "fusion_lat": 0.0, "lat": 38.884031666666665, "name": "061f821a7b97cec064fe60fb0c79574c", "fusion_lon": 0.0, "bike_id": "061f821a7b97cec064fe60fb0c79574c", "is_disabled": 0, "is_reserved": 0}, {"rental_uris": {"ios": "https://dc.lft.to/lastmile_qr_scan", "android": "https://dc.lft.to/lastmile_qr_scan"}, "lon": -77.0234905, "type": "electric_scooter", "fusion_lat": 0.0, "lat": 38.915498666666664, "name": "096631384cc5dfd6f66330a33f08b25b", "fusion_lon": 0.0, "bike_id": "096631384cc5dfd6f66330a33f08b25b", "is_disabled": 0, "is_reserved": 0}, {"rental_uris": {"ios": "https://dc.lft.to/lastmile_qr_scan", "android": "https://dc.lft.to/lastmile_qr_scan"}, "lon": -77.00244933333333, "type": "electric_scooter", "fusion_lat": 0.0, "lat": 38.919247666666664, "name": "d0f472e31c0181681b8a21ff0097db29", "fusion_lon": 0.0, "bike_id": "d0f472e31c0181681b8a21ff0097db29", "is_disabled": 0, "is_reserved": 0}, {"rental_uris": {"ios": "https://dc.lft.to/lastmile_qr_scan", "android": "https://dc.lft.to/lastmile_qr_scan"}, "lon": -77.00762366666666, "type": "electric_scooter", "fusion_lat": 0.0, "lat": 38.871115333333336, "name": "22ca7ab0ecf6f38092024743882522da", "fusion_lon": 0.0, "bike_id": "22ca7ab0ecf6f38092024743882522da", "is_disabled": 0, "is_reserved": 0}, {"rental_uris": {"ios": "https://dc.lft.to/lastmile_qr_scan", "android": "https://dc.lft.to/lastmile_qr_scan"}, "lon": -76.94630683333334, "type": "electric_scooter", "fusion_lat": 0.0, "lat": 38.89845066666667, "name": "53e07c9af7dbd9b72a1892cd3a06c537", "fusion_lon": 0.0, "bike_id": "53e07c9af7dbd9b72a1892cd3a06c537", "is_disabled": 0, "is_reserved": 0}, {"rental_uris": {"ios": "https://dc.lft.to/lastmile_qr_scan", "android": "https://dc.lft.to/lastmile_qr_scan"}, "lon": -77.032268, "type": "electric_scooter", "fusion_lat": 0.0, "lat": 38.91402766666667, "name": "2e7c451077c3283e5c7ab33f96760ce5", "fusion_lon": 0.0, "bike_id": "2e7c451077c3283e5c7ab33f96760ce5", "is_disabled": 0, "is_reserved": 0}, {"rental_uris": {"ios": "https://dc.lft.to/lastmile_qr_scan", "android": "https://dc.lft.to/lastmile_qr_scan"}, "lon": -77.0234015, "type": "electric_bike", "fusion_lat": 0.0, "lat": 38.94477916666666, "name": "201da8454a9a541327de6b843f663154", "fusion_lon": 0.0, "bike_id": "201da8454a9a541327de6b843f663154", "is_disabled": 0, "is_reserved": 0}, {"rental_uris": {"ios": "https://dc.lft.to/lastmile_qr_scan", "android": "https://dc.lft.to/lastmile_qr_scan"}, "lon": -77.02525266666666, "type": "electric_scooter", "fusion_lat": 0.0, "lat": 38.94300883333333, "name": "3bd8c3680006005778c77a060f2e17b5", "fusion_lon": 0.0, "bike_id": "3bd8c3680006005778c77a060f2e17b5", "is_disabled": 0, "is_reserved": 0}, {"rental_uris": {"ios": "https://dc.lft.to/lastmile_qr_scan", "android": "https://dc.lft.to/lastmile_qr_scan"}, "lon": -77.00325866666667, "type": "electric_scooter", "fusion_lat": 0.0, "lat": 38.907294666666665, "name": "f905c24d006adf4487f93b1ed12db12f", "fusion_lon": 0.0, "bike_id": "f905c24d006adf4487f93b1ed12db12f", "is_disabled": 0, "is_reserved": 0}, {"rental_uris": {"ios": "https://dc.lft.to/lastmile_qr_scan", "android": "https://dc.lft.to/lastmile_qr_scan"}, "lon": -77.02646683333333, "type": "electric_scooter", "fusion_lat": 0.0, "lat": 38.930311833333334, "name": "1b3f4cb0a19639986b38a0db3b1ff48d", "fusion_lon": 0.0, "bike_id": "1b3f4cb0a19639986b38a0db3b1ff48d", "is_disabled": 0, "is_reserved": 0}, {"rental_uris": {"ios": "https://dc.lft.to/lastmile_qr_scan", "android": "https://dc.lft.to/lastmile_qr_scan"}, "lon": -77.04039966666667, "type": "electric_scooter", "fusion_lat": 0.0, "lat": 38.92467633333333, "name": "afa678ad1166828b3fc3bea7bbf7aaa8", "fusion_lon": 0.0, "bike_id": "afa678ad1166828b3fc3bea7bbf7aaa8", "is_disabled": 0, "is_reserved": 0}, {"rental_uris": {"ios": "https://dc.lft.to/lastmile_qr_scan", "android": "https://dc.lft.to/lastmile_qr_scan"}, "lon": -77.07236883333333, "type": "electric_scooter", "fusion_lat": 0.0, "lat": 38.9338015, "name": "9b02b887a4ff420a6962f5b01dd48299", "fusion_lon": 0.0, "bike_id": "9b02b887a4ff420a6962f5b01dd48299", "is_disabled": 0, "is_reserved": 0}, {"rental_uris": {"ios": "https://dc.lft.to/lastmile_qr_scan", "android": "https://dc.lft.to/lastmile_qr_scan"}, "lon": -77.072113, "type": "electric_scooter", "fusion_lat": 0.0, "lat": 38.934686166666665, "name": "9374da3d8498f609ac8b636263c25d48", "fusion_lon": 0.0, "bike_id": "9374da3d8498f609ac8b636263c25d48", "is_disabled": 0, "is_reserved": 0}, {"rental_uris": {"ios": "https://dc.lft.to/lastmile_qr_scan", "android": "https://dc.lft.to/lastmile_qr_scan"}, "lon": -77.02610583333333, "type": "electric_scooter", "fusion_lat": 0.0, "lat": 38.91674033333334, "name": "7d3a3484962145a1adcc03bf50f9a5f1", "fusion_lon": 0.0, "bike_id": "7d3a3484962145a1adcc03bf50f9a5f1", "is_disabled": 0, "is_reserved": 0}, {"rental_uris": {"ios": "https://dc.lft.to/lastmile_qr_scan", "android": "https://dc.lft.to/lastmile_qr_scan"}, "lon": -77.01751, "type": "electric_scooter", "fusion_lat": 0.0, "lat": 38.885973166666666, "name": "973437dbc0b178942de2e1580950c8da", "fusion_lon": 0.0, "bike_id": "973437dbc0b178942de2e1580950c8da", "is_disabled": 0, "is_reserved": 0}, {"rental_uris": {"ios": "https://dc.lft.to/lastmile_qr_scan", "android": "https://dc.lft.to/lastmile_qr_scan"}, "lon": -77.05386483333334, "type": "electric_scooter", "fusion_lat": 0.0, "lat": 38.927952, "name": "d4dcbd9d661f6d7cf3d9c89dfe396069", "fusion_lon": 0.0, "bike_id": "d4dcbd9d661f6d7cf3d9c89dfe396069", "is_disabled": 0, "is_reserved": 0}, {"rental_uris": {"ios": "https://dc.lft.to/lastmile_qr_scan", "android": "https://dc.lft.to/lastmile_qr_scan"}, "lon": -77.05919916666667, "type": "electric_scooter", "fusion_lat": 0.0, "lat": 38.90446983333333, "name": "5487c6a5a6eaf3335548fb4e2c420dbf", "fusion_lon": 0.0, "bike_id": "5487c6a5a6eaf3335548fb4e2c420dbf", "is_disabled": 0, "is_reserved": 0}, {"rental_uris": {"ios": "https://dc.lft.to/lastmile_qr_scan", "android": "https://dc.lft.to/lastmile_qr_scan"}, "lon": -76.992468, "type": "electric_bike", "fusion_lat": 0.0, "lat": 38.92548583333333, "name": "73080cf25bd6ce13a79f456546ba8cfe", "fusion_lon": 0.0, "bike_id": "73080cf25bd6ce13a79f456546ba8cfe", "is_disabled": 0, "is_reserved": 0}, {"rental_uris": {"ios": "https://dc.lft.to/lastmile_qr_scan", "android": "https://dc.lft.to/lastmile_qr_scan"}, "lon": -76.98021116666666, "type": "electric_scooter", "fusion_lat": 0.0, "lat": 38.887635333333336, "name": "8e212cd69c889bbd68bd905dee8d5fcf", "fusion_lon": 0.0, "bike_id": "8e212cd69c889bbd68bd905dee8d5fcf", "is_disabled": 0, "is_reserved": 0}, {"rental_uris": {"ios": "https://dc.lft.to/lastmile_qr_scan", "android": "https://dc.lft.to/lastmile_qr_scan"}, "lon": -77.0273245, "type": "electric_scooter", "fusion_lat": 0.0, "lat": 38.88147516666667, "name": "c6ce0de0b070d4437d87d74dec236cd6", "fusion_lon": 0.0, "bike_id": "c6ce0de0b070d4437d87d74dec236cd6", "is_disabled": 0, "is_reserved": 0}, {"rental_uris": {"ios": "https://dc.lft.to/lastmile_qr_scan", "android": "https://dc.lft.to/lastmile_qr_scan"}, "lon": -77.12900066666667, "type": "electric_bike", "fusion_lat": 0.0, "lat": 38.863747833333335, "name": "90c9997980f8731b83ee9aab69be3bfe", "fusion_lon": 0.0, "bike_id": "90c9997980f8731b83ee9aab69be3bfe", "is_disabled": 0, "is_reserved": 0}, {"rental_uris": {"ios": "https://dc.lft.to/lastmile_qr_scan", "android": "https://dc.lft.to/lastmile_qr_scan"}, "lon": -76.98906866666667, "type": "electric_scooter", "fusion_lat": 0.0, "lat": 38.900147833333335, "name": "d4a5efd5e71e5b4f18f65d09f7a9ecb1", "fusion_lon": 0.0, "bike_id": "d4a5efd5e71e5b4f18f65d09f7a9ecb1", "is_disabled": 0, "is_reserved": 0}, {"rental_uris": {"ios": "https://dc.lft.to/lastmile_qr_scan", "android": "https://dc.lft.to/lastmile_qr_scan"}, "lon": -77.02861666666666, "type": "electric_scooter", "fusion_lat": 0.0, "lat": 38.934600833333334, "name": "5df7e04d79efe6be772d710e7720a4d1", "fusion_lon": 0.0, "bike_id": "5df7e04d79efe6be772d710e7720a4d1", "is_disabled": 0, "is_reserved": 0}, {"rental_uris": {"ios": "https://dc.lft.to/lastmile_qr_scan", "android": "https://dc.lft.to/lastmile_qr_scan"}, "lon": -77.02392783333333, "type": "electric_scooter", "fusion_lat": 0.0, "lat": 38.915882, "name": "6e1d45b33fb045bf8518cd85bf3b3d7d", "fusion_lon": 0.0, "bike_id": "6e1d45b33fb045bf8518cd85bf3b3d7d", "is_disabled": 0, "is_reserved": 0}, {"rental_uris": {"ios": "https://dc.lft.to/lastmile_qr_scan", "android": "https://dc.lft.to/lastmile_qr_scan"}, "lon": -77.03035466666667, "type": "electric_scooter", "fusion_lat": 0.0, "lat": 38.90278466666667, "name": "e1160beea39d01604b5ca89adce77dc9", "fusion_lon": 0.0, "bike_id": "e1160beea39d01604b5ca89adce77dc9", "is_disabled": 0, "is_reserved": 0}, {"rental_uris": {"ios": "https://dc.lft.to/lastmile_qr_scan", "android": "https://dc.lft.to/lastmile_qr_scan"}, "lon": -77.037887, "type": "electric_scooter", "fusion_lat": 0.0, "lat": 38.9055795, "name": "0b1a303625fa24a59e8dffe815cf3032", "fusion_lon": 0.0, "bike_id": "0b1a303625fa24a59e8dffe815cf3032", "is_disabled": 0, "is_reserved": 0}, {"rental_uris": {"ios": "https://dc.lft.to/lastmile_qr_scan", "android": "https://dc.lft.to/lastmile_qr_scan"}, "lon": -77.03198866666666, "type": "electric_scooter", "fusion_lat": 0.0, "lat": 38.9112835, "name": "74ee1a8f7cc3673e96bb02eb70c2aaf5", "fusion_lon": 0.0, "bike_id": "74ee1a8f7cc3673e96bb02eb70c2aaf5", "is_disabled": 0, "is_reserved": 0}, {"rental_uris": {"ios": "https://dc.lft.to/lastmile_qr_scan", "android": "https://dc.lft.to/lastmile_qr_scan"}, "lon": -77.03656366666667, "type": "electric_scooter", "fusion_lat": 0.0, "lat": 38.93579166666667, "name": "41777aa3114e452a954c80401efb911b", "fusion_lon": 0.0, "bike_id": "41777aa3114e452a954c80401efb911b", "is_disabled": 0, "is_reserved": 0}, {"rental_uris": {"ios": "https://dc.lft.to/lastmile_qr_scan", "android": "https://dc.lft.to/lastmile_qr_scan"}, "lon": -77.04657883333333, "type": "electric_scooter", "fusion_lat": 0.0, "lat": 38.893431166666666, "name": "4c3f8d1d3452cdae1ce4186c5121648e", "fusion_lon": 0.0, "bike_id": "4c3f8d1d3452cdae1ce4186c5121648e", "is_disabled": 0, "is_reserved": 0}, {"rental_uris": {"ios": "https://dc.lft.to/lastmile_qr_scan", "android": "https://dc.lft.to/lastmile_qr_scan"}, "lon": -77.065955, "type": "electric_scooter", "fusion_lat": 0.0, "lat": 38.9051945, "name": "cef895943a8e06005019999721686ed2", "fusion_lon": 0.0, "bike_id": "cef895943a8e06005019999721686ed2", "is_disabled": 0, "is_reserved": 0}, {"rental_uris": {"ios": "https://dc.lft.to/lastmile_qr_scan", "android": "https://dc.lft.to/lastmile_qr_scan"}, "lon": -77.04664233333334, "type": "electric_scooter", "fusion_lat": 0.0, "lat": 38.91476133333333, "name": "938444cae2518bdc4921952433f2022f", "fusion_lon": 0.0, "bike_id": "938444cae2518bdc4921952433f2022f", "is_disabled": 0, "is_reserved": 0}, {"rental_uris": {"ios": "https://dc.lft.to/lastmile_qr_scan", "android": "https://dc.lft.to/lastmile_qr_scan"}, "lon": -77.042615, "type": "electric_scooter", "fusion_lat": 0.0, "lat": 38.902746666666665, "name": "0e7e8a866580fa4c8e7afe216a7452ef", "fusion_lon": 0.0, "bike_id": "0e7e8a866580fa4c8e7afe216a7452ef", "is_disabled": 0, "is_reserved": 0}, {"rental_uris": {"ios": "https://dc.lft.to/lastmile_qr_scan", "android": "https://dc.lft.to/lastmile_qr_scan"}, "lon": -77.03944583333333, "type": "electric_scooter", "fusion_lat": 0.0, "lat": 38.899493166666666, "name": "e59536737bb1a0b7729985357b40b028", "fusion_lon": 0.0, "bike_id": "e59536737bb1a0b7729985357b40b028", "is_disabled": 0, "is_reserved": 0}, {"rental_uris": {"ios": "https://dc.lft.to/lastmile_qr_scan", "android": "https://dc.lft.to/lastmile_qr_scan"}, "lon": -76.94879116666667, "type": "electric_scooter", "fusion_lat": 0.0, "lat": 38.894991833333336, "name": "b82ca51b0e4149df8132f219c995bbad", "fusion_lon": 0.0, "bike_id": "b82ca51b0e4149df8132f219c995bbad", "is_disabled": 0, "is_reserved": 0}, {"rental_uris": {"ios": "https://dc.lft.to/lastmile_qr_scan", "android": "https://dc.lft.to/lastmile_qr_scan"}, "lon": -77.03701633333333, "type": "electric_bike", "fusion_lat": 0.0, "lat": 38.93556066666667, "name": "4007e20ab0c313a36de53685b4ee7195", "fusion_lon": 0.0, "bike_id": "4007e20ab0c313a36de53685b4ee7195", "is_disabled": 0, "is_reserved": 0}, {"rental_uris": {"ios": "https://dc.lft.to/lastmile_qr_scan", "android": "https://dc.lft.to/lastmile_qr_scan"}, "lon": -77.007561, "type": "electric_scooter", "fusion_lat": 0.0, "lat": 38.897245166666664, "name": "a60dd72af995b1b86c7163058a394114", "fusion_lon": 0.0, "bike_id": "a60dd72af995b1b86c7163058a394114", "is_disabled": 0, "is_reserved": 0}, {"rental_uris": {"ios": "https://dc.lft.to/lastmile_qr_scan", "android": "https://dc.lft.to/lastmile_qr_scan"}, "lon": -77.03258366666667, "type": "electric_scooter", "fusion_lat": 0.0, "lat": 38.935239333333335, "name": "91b6a17fc361b1afb526cada2f5d17b2", "fusion_lon": 0.0, "bike_id": "91b6a17fc361b1afb526cada2f5d17b2", "is_disabled": 0, "is_reserved": 0}, {"rental_uris": {"ios": "https://dc.lft.to/lastmile_qr_scan", "android": "https://dc.lft.to/lastmile_qr_scan"}, "lon": -77.106844, "type": "electric_bike", "fusion_lat": 0.0, "lat": 38.93580633333333, "name": "da4fc8c9adefff1f5deb99d980214cc8", "fusion_lon": 0.0, "bike_id": "da4fc8c9adefff1f5deb99d980214cc8", "is_disabled": 0, "is_reserved": 0}, {"rental_uris": {"ios": "https://dc.lft.to/lastmile_qr_scan", "android": "https://dc.lft.to/lastmile_qr_scan"}, "lon": -77.066401, "type": "electric_bike", "fusion_lat": 0.0, "lat": 38.8204585, "name": "fb1a03f53a6cfbef9ca3fb966de9c89d", "fusion_lon": 0.0, "bike_id": "fb1a03f53a6cfbef9ca3fb966de9c89d", "is_disabled": 0, "is_reserved": 0}, {"rental_uris": {"ios": "https://dc.lft.to/lastmile_qr_scan", "android": "https://dc.lft.to/lastmile_qr_scan"}, "lon": -77.03227366666667, "type": "electric_scooter", "fusion_lat": 0.0, "lat": 38.918194166666666, "name": "155d6a939685f7d7ecce0eef35a64b5d", "fusion_lon": 0.0, "bike_id": "155d6a939685f7d7ecce0eef35a64b5d", "is_disabled": 0, "is_reserved": 0}, {"rental_uris": {"ios": "https://dc.lft.to/lastmile_qr_scan", "android": "https://dc.lft.to/lastmile_qr_scan"}, "lon": -76.99369916666667, "type": "electric_scooter", "fusion_lat": 0.0, "lat": 38.89745533333333, "name": "386fb6a926cb51da3b879edcc5c9d93a", "fusion_lon": 0.0, "bike_id": "386fb6a926cb51da3b879edcc5c9d93a", "is_disabled": 0, "is_reserved": 0}, {"rental_uris": {"ios": "https://dc.lft.to/lastmile_qr_scan", "android": "https://dc.lft.to/lastmile_qr_scan"}, "lon": -77.05435916666667, "type": "electric_scooter", "fusion_lat": 0.0, "lat": 38.896035, "name": "8dbb5bbd529198017ab01d8bc7245690", "fusion_lon": 0.0, "bike_id": "8dbb5bbd529198017ab01d8bc7245690", "is_disabled": 0, "is_reserved": 0}, {"rental_uris": {"ios": "https://dc.lft.to/lastmile_qr_scan", "android": "https://dc.lft.to/lastmile_qr_scan"}, "lon": -77.04419966666667, "type": "electric_scooter", "fusion_lat": 0.0, "lat": 38.90573533333333, "name": "16cd73c16a244decb239f6896685c93c", "fusion_lon": 0.0, "bike_id": "16cd73c16a244decb239f6896685c93c", "is_disabled": 0, "is_reserved": 0}, {"rental_uris": {"ios": "https://dc.lft.to/lastmile_qr_scan", "android": "https://dc.lft.to/lastmile_qr_scan"}, "lon": -77.03224516666667, "type": "electric_scooter", "fusion_lat": 0.0, "lat": 38.914045333333334, "name": "5afcf2c212884ceb6f89cd96bdd8ed95", "fusion_lon": 0.0, "bike_id": "5afcf2c212884ceb6f89cd96bdd8ed95", "is_disabled": 0, "is_reserved": 0}, {"rental_uris": {"ios": "https://dc.lft.to/lastmile_qr_scan", "android": "https://dc.lft.to/lastmile_qr_scan"}, "lon": -77.01109166666667, "type": "electric_scooter", "fusion_lat": 0.0, "lat": 38.900228166666665, "name": "da635c2802de352b53209a7959bcbadb", "fusion_lon": 0.0, "bike_id": "da635c2802de352b53209a7959bcbadb", "is_disabled": 0, "is_reserved": 0}, {"rental_uris": {"ios": "https://dc.lft.to/lastmile_qr_scan", "android": "https://dc.lft.to/lastmile_qr_scan"}, "lon": -77.01655066666666, "type": "electric_scooter", "fusion_lat": 0.0, "lat": 38.95326816666667, "name": "283bc3587d7ae6b0248b737b24a4d59b", "fusion_lon": 0.0, "bike_id": "283bc3587d7ae6b0248b737b24a4d59b", "is_disabled": 0, "is_reserved": 0}, {"rental_uris": {"ios": "https://dc.lft.to/lastmile_qr_scan", "android": "https://dc.lft.to/lastmile_qr_scan"}, "lon": -77.04795916666667, "type": "electric_scooter", "fusion_lat": 0.0, "lat": 38.893698, "name": "91298fec5ed00220b7a011356d6cedf2", "fusion_lon": 0.0, "bike_id": "91298fec5ed00220b7a011356d6cedf2", "is_disabled": 0, "is_reserved": 0}, {"rental_uris": {"ios": "https://dc.lft.to/lastmile_qr_scan", "android": "https://dc.lft.to/lastmile_qr_scan"}, "lon": -77.02713916666667, "type": "electric_scooter", "fusion_lat": 0.0, "lat": 38.9196465, "name": "e7822c89cb18baad125b3a2b9d247ccf", "fusion_lon": 0.0, "bike_id": "e7822c89cb18baad125b3a2b9d247ccf", "is_disabled": 0, "is_reserved": 0}, {"rental_uris": {"ios": "https://dc.lft.to/lastmile_qr_scan", "android": "https://dc.lft.to/lastmile_qr_scan"}, "lon": -77.01333883333334, "type": "electric_scooter", "fusion_lat": 0.0, "lat": 38.92730733333333, "name": "ac55f0f0c4183aeba7e11e292bdf5b71", "fusion_lon": 0.0, "bike_id": "ac55f0f0c4183aeba7e11e292bdf5b71", "is_disabled": 0, "is_reserved": 0}, {"rental_uris": {"ios": "https://dc.lft.to/lastmile_qr_scan", "android": "https://dc.lft.to/lastmile_qr_scan"}, "lon": -77.03722766666667, "type": "electric_bike", "fusion_lat": 0.0, "lat": 38.9112235, "name": "c922fbc9e901245247d6152f1b386a31", "fusion_lon": 0.0, "bike_id": "c922fbc9e901245247d6152f1b386a31", "is_disabled": 0, "is_reserved": 0}, {"rental_uris": {"ios": "https://dc.lft.to/lastmile_qr_scan", "android": "https://dc.lft.to/lastmile_qr_scan"}, "lon": -77.09550383333334, "type": "electric_bike", "fusion_lat": 0.0, "lat": 38.83730516666667, "name": "b493a3bf4df9d633f083ec5ff0b38d8b", "fusion_lon": 0.0, "bike_id": "b493a3bf4df9d633f083ec5ff0b38d8b", "is_disabled": 0, "is_reserved": 0}, {"rental_uris": {"ios": "https://dc.lft.to/lastmile_qr_scan", "android": "https://dc.lft.to/lastmile_qr_scan"}, "lon": -76.99064083333333, "type": "electric_scooter", "fusion_lat": 0.0, "lat": 38.8635355, "name": "2841ad176835d2d84a5fdafc4d8038a8", "fusion_lon": 0.0, "bike_id": "2841ad176835d2d84a5fdafc4d8038a8", "is_disabled": 0, "is_reserved": 0}, {"rental_uris": {"ios": "https://dc.lft.to/lastmile_qr_scan", "android": "https://dc.lft.to/lastmile_qr_scan"}, "lon": -77.003801, "type": "electric_bike", "fusion_lat": 0.0, "lat": 38.83604716666667, "name": "0be48f4948f03f71685b99df8b2b15c9", "fusion_lon": 0.0, "bike_id": "0be48f4948f03f71685b99df8b2b15c9", "is_disabled": 0, "is_reserved": 0}, {"rental_uris": {"ios": "https://dc.lft.to/lastmile_qr_scan", "android": "https://dc.lft.to/lastmile_qr_scan"}, "lon": -77.01856116666667, "type": "electric_bike", "fusion_lat": 0.0, "lat": 38.903721, "name": "32cc4640bc6461aa1681b25d0b7a8e4f", "fusion_lon": 0.0, "bike_id": "32cc4640bc6461aa1681b25d0b7a8e4f", "is_disabled": 0, "is_reserved": 0}, {"rental_uris": {"ios": "https://dc.lft.to/lastmile_qr_scan", "android": "https://dc.lft.to/lastmile_qr_scan"}, "lon": -77.027558, "type": "electric_scooter", "fusion_lat": 0.0, "lat": 38.95608266666667, "name": "e7a82b050b10d66df88b0c0be720b671", "fusion_lon": 0.0, "bike_id": "e7a82b050b10d66df88b0c0be720b671", "is_disabled": 0, "is_reserved": 0}, {"rental_uris": {"ios": "https://dc.lft.to/lastmile_qr_scan", "android": "https://dc.lft.to/lastmile_qr_scan"}, "lon": -77.04370933333334, "type": "electric_scooter", "fusion_lat": 0.0, "lat": 38.892249166666666, "name": "426dc197217c19f91e82c93a2e508271", "fusion_lon": 0.0, "bike_id": "426dc197217c19f91e82c93a2e508271", "is_disabled": 0, "is_reserved": 0}, {"rental_uris": {"ios": "https://dc.lft.to/lastmile_qr_scan", "android": "https://dc.lft.to/lastmile_qr_scan"}, "lon": -77.00368666666667, "type": "electric_scooter", "fusion_lat": 0.0, "lat": 38.83798066666667, "name": "4cd42490c51dab8d8028f1b1f6bc6c4b", "fusion_lon": 0.0, "bike_id": "4cd42490c51dab8d8028f1b1f6bc6c4b", "is_disabled": 0, "is_reserved": 0}, {"rental_uris": {"ios": "https://dc.lft.to/lastmile_qr_scan", "android": "https://dc.lft.to/lastmile_qr_scan"}, "lon": -77.05195333333333, "type": "electric_scooter", "fusion_lat": 0.0, "lat": 38.92405216666667, "name": "6cf2d3ec1e7f502b8246ae1df78099a2", "fusion_lon": 0.0, "bike_id": "6cf2d3ec1e7f502b8246ae1df78099a2", "is_disabled": 0, "is_reserved": 0}, {"rental_uris": {"ios": "https://dc.lft.to/lastmile_qr_scan", "android": "https://dc.lft.to/lastmile_qr_scan"}, "lon": -77.02207233333333, "type": "electric_scooter", "fusion_lat": 0.0, "lat": 38.90971116666667, "name": "910f9e1c6aab4c4a6f57befad001cd0e", "fusion_lon": 0.0, "bike_id": "910f9e1c6aab4c4a6f57befad001cd0e", "is_disabled": 0, "is_reserved": 0}, {"rental_uris": {"ios": "https://dc.lft.to/lastmile_qr_scan", "android": "https://dc.lft.to/lastmile_qr_scan"}, "lon": -77.04101666666666, "type": "electric_scooter", "fusion_lat": 0.0, "lat": 38.917687, "name": "39b94781fda2b468893ff5a1a5a3e0ff", "fusion_lon": 0.0, "bike_id": "39b94781fda2b468893ff5a1a5a3e0ff", "is_disabled": 0, "is_reserved": 0}, {"rental_uris": {"ios": "https://dc.lft.to/lastmile_qr_scan", "android": "https://dc.lft.to/lastmile_qr_scan"}, "lon": -77.032673, "type": "electric_scooter", "fusion_lat": 0.0, "lat": 38.92999233333333, "name": "113e32bc681ad51f7fd6ff5b9f72d5b8", "fusion_lon": 0.0, "bike_id": "113e32bc681ad51f7fd6ff5b9f72d5b8", "is_disabled": 0, "is_reserved": 0}, {"rental_uris": {"ios": "https://dc.lft.to/lastmile_qr_scan", "android": "https://dc.lft.to/lastmile_qr_scan"}, "lon": -77.03379533333333, "type": "electric_scooter", "fusion_lat": 0.0, "lat": 38.921609833333335, "name": "406977522a130b9dad168515c474e527", "fusion_lon": 0.0, "bike_id": "406977522a130b9dad168515c474e527", "is_disabled": 0, "is_reserved": 0}, {"rental_uris": {"ios": "https://dc.lft.to/lastmile_qr_scan", "android": "https://dc.lft.to/lastmile_qr_scan"}, "lon": -77.04223516666667, "type": "electric_scooter", "fusion_lat": 0.0, "lat": 38.90770783333333, "name": "fc218be1d9116e2f17514d87b565fb21", "fusion_lon": 0.0, "bike_id": "fc218be1d9116e2f17514d87b565fb21", "is_disabled": 0, "is_reserved": 0}, {"rental_uris": {"ios": "https://dc.lft.to/lastmile_qr_scan", "android": "https://dc.lft.to/lastmile_qr_scan"}, "lon": -77.02435283333334, "type": "electric_scooter", "fusion_lat": 0.0, "lat": 38.902188333333335, "name": "f433641d7485481606298fd8fe6beaad", "fusion_lon": 0.0, "bike_id": "f433641d7485481606298fd8fe6beaad", "is_disabled": 0, "is_reserved": 0}, {"rental_uris": {"ios": "https://dc.lft.to/lastmile_qr_scan", "android": "https://dc.lft.to/lastmile_qr_scan"}, "lon": -77.020962, "type": "electric_scooter", "fusion_lat": 0.0, "lat": 38.887397, "name": "6379b24478b0fa91361ff94002bf2f76", "fusion_lon": 0.0, "bike_id": "6379b24478b0fa91361ff94002bf2f76", "is_disabled": 0, "is_reserved": 0}, {"rental_uris": {"ios": "https://dc.lft.to/lastmile_qr_scan", "android": "https://dc.lft.to/lastmile_qr_scan"}, "lon": -76.98842866666666, "type": "electric_scooter", "fusion_lat": 0.0, "lat": 38.894674333333334, "name": "1986ddaf41995ee33f24bb8ca1f68a49", "fusion_lon": 0.0, "bike_id": "1986ddaf41995ee33f24bb8ca1f68a49", "is_disabled": 0, "is_reserved": 0}, {"rental_uris": {"ios": "https://dc.lft.to/lastmile_qr_scan", "android": "https://dc.lft.to/lastmile_qr_scan"}, "lon": -77.02320233333333, "type": "electric_scooter", "fusion_lat": 0.0, "lat": 38.918407, "name": "7945873505bf5221dfe5d5ce0d8b77d4", "fusion_lon": 0.0, "bike_id": "7945873505bf5221dfe5d5ce0d8b77d4", "is_disabled": 0, "is_reserved": 0}, {"rental_uris": {"ios": "https://dc.lft.to/lastmile_qr_scan", "android": "https://dc.lft.to/lastmile_qr_scan"}, "lon": -77.03129066666666, "type": "electric_scooter", "fusion_lat": 0.0, "lat": 38.92367683333333, "name": "b230e1cf7694ae42e83e59eb7bd1f1d8", "fusion_lon": 0.0, "bike_id": "b230e1cf7694ae42e83e59eb7bd1f1d8", "is_disabled": 0, "is_reserved": 0}, {"rental_uris": {"ios": "https://dc.lft.to/lastmile_qr_scan", "android": "https://dc.lft.to/lastmile_qr_scan"}, "lon": -77.01700366666667, "type": "electric_scooter", "fusion_lat": 0.0, "lat": 38.92005016666667, "name": "e919b54ad315ceba353c333481002091", "fusion_lon": 0.0, "bike_id": "e919b54ad315ceba353c333481002091", "is_disabled": 0, "is_reserved": 0}, {"rental_uris": {"ios": "https://dc.lft.to/lastmile_qr_scan", "android": "https://dc.lft.to/lastmile_qr_scan"}, "lon": -77.02649966666667, "type": "electric_scooter", "fusion_lat": 0.0, "lat": 38.938606666666665, "name": "7af37e81616761bddc42575014a5ae63", "fusion_lon": 0.0, "bike_id": "7af37e81616761bddc42575014a5ae63", "is_disabled": 0, "is_reserved": 0}, {"rental_uris": {"ios": "https://dc.lft.to/lastmile_qr_scan", "android": "https://dc.lft.to/lastmile_qr_scan"}, "lon": -77.01301033333333, "type": "electric_scooter", "fusion_lat": 0.0, "lat": 38.90053366666667, "name": "9662b33fef790d59b6dd8b00d1f76848", "fusion_lon": 0.0, "bike_id": "9662b33fef790d59b6dd8b00d1f76848", "is_disabled": 0, "is_reserved": 0}, {"rental_uris": {"ios": "https://dc.lft.to/lastmile_qr_scan", "android": "https://dc.lft.to/lastmile_qr_scan"}, "lon": -77.02491816666667, "type": "electric_scooter", "fusion_lat": 0.0, "lat": 38.918069, "name": "ec5db52125a134708f9c94a10872799a", "fusion_lon": 0.0, "bike_id": "ec5db52125a134708f9c94a10872799a", "is_disabled": 0, "is_reserved": 0}, {"rental_uris": {"ios": "https://dc.lft.to/lastmile_qr_scan", "android": "https://dc.lft.to/lastmile_qr_scan"}, "lon": -76.9868485, "type": "electric_scooter", "fusion_lat": 0.0, "lat": 38.8822, "name": "99d81d9cc4b13b84c9093da43de99dfe", "fusion_lon": 0.0, "bike_id": "99d81d9cc4b13b84c9093da43de99dfe", "is_disabled": 0, "is_reserved": 0}, {"rental_uris": {"ios": "https://dc.lft.to/lastmile_qr_scan", "android": "https://dc.lft.to/lastmile_qr_scan"}, "lon": -77.02179283333334, "type": "electric_scooter", "fusion_lat": 0.0, "lat": 38.897105833333335, "name": "17020e0665ab0b1308fa4e36a839be57", "fusion_lon": 0.0, "bike_id": "17020e0665ab0b1308fa4e36a839be57", "is_disabled": 0, "is_reserved": 0}, {"rental_uris": {"ios": "https://dc.lft.to/lastmile_qr_scan", "android": "https://dc.lft.to/lastmile_qr_scan"}, "lon": -77.02128666666667, "type": "electric_scooter", "fusion_lat": 0.0, "lat": 38.931099833333334, "name": "60b3990b4120116cbe7f8cffc1d2829b", "fusion_lon": 0.0, "bike_id": "60b3990b4120116cbe7f8cffc1d2829b", "is_disabled": 0, "is_reserved": 0}, {"rental_uris": {"ios": "https://dc.lft.to/lastmile_qr_scan", "android": "https://dc.lft.to/lastmile_qr_scan"},