{"data": {"bikes": [{"rental_uris": {"ios": "https://dc.lft.to/lastmile_qr_scan", "android": "https://dc.lft.to/lastmile_qr_scan"}, "lon": -77.00134183333333, "type": "electric_scooter", "fusion_lat": 0.0, "lat": 38.9041275, "name": "37efa40e8aa17f08b3b428bf4bc9de42", "fusion_lon": 0.0, "bike_id": "37efa40e8aa17f08b3b428bf4bc9de42", "is_disabled": 0, "is_reserved": 0}, {"rental_uris": {"ios": "https://dc.lft.to/lastmile_qr_scan", "android": "https://dc.lft.to/lastmile_qr_scan"}, "lon": -76.9520545, "type": "electric_bike", "fusion_lat": 0.0, "lat": 38.936708833333334, "name": "9fe4890c6dbc3cb8c49296dc34aa525c", "fusion_lon": 0.0, "bike_id": "9fe4890c6dbc3cb8c49296dc34aa525c", "is_disabled": 0, "is_reserved": 0}, {"rental_uris": {"ios": "https://dc.lft.to/lastmile_qr_scan", "android": "https://dc.lft.to/lastmile_qr_scan"}, "lon": -77.03217183333334, "type": "electric_scooter", "fusion_lat": 0.0, "lat": 38.91998816666667, "name": "b16c9764843d3e09da44bc12be3262c3", "fusion_lon": 0.0, "bike_id": "b16c9764843d3e09da44bc12be3262c3", "is_disabled": 0, "is_reserved": 0}, {"rental_uris": {"ios": "https://dc.lft.to/lastmile_qr_scan", "android": "https://dc.lft.to/lastmile_qr_scan"}, "lon": -77.0343295, "type": "electric_scooter", "fusion_lat": 0.0, "lat": 38.918461, "name": "cc532ce6cba0bbce770719aecbf87837", "fusion_lon": 0.0, "bike_id": "cc532ce6cba0bbce770719aecbf87837", "is_disabled": 0, "is_reserved": 0}, {"rental_uris": {"ios": "https://dc.lft.to/lastmile_qr_scan", "android": "https://dc.lft.to/lastmile_qr_scan"}, "lon": -76.990644, "type": "electric_scooter", "fusion_lat": 0.0, "lat": 38.90029116666667, "name": "64488bb85632825d5e39aa2a3ec5c79f", "fusion_lon": 0.0, "bike_id": "64488bb85632825d5e39aa2a3ec5c79f", "is_disabled": 0, "is_reserved": 0}, {"rental_uris": {"ios": "https://dc.lft.to/lastmile_qr_scan", "android": "https://dc.lft.to/lastmile_qr_scan"}, "lon": -77.04839133333333, "type": "electric_scooter", "fusion_lat": 0.0, "lat": 38.90442983333333, "name": "b731d046ad645a0925cffefa1725b395", "fusion_lon": 0.0, "bike_id": "b731d046ad645a0925cffefa1725b395", "is_disabled": 0, "is_reserved": 0}, {"rental_uris": {"ios": "https://dc.lft.to/lastmile_qr_scan", "android": "https://dc.lft.to/lastmile_qr_scan"}, "lon": -77.0283985, "type": "electric_scooter", "fusion_lat": 0.0, "lat": 38.89502066666667, "name": "0283dc3bd6b13d8affa8d06bf7d45c9c", "fusion_lon": 0.0, "bike_id": "0283dc3bd6b13d8affa8d06bf7d45c9c", "is_disabled": 0, "is_reserved": 0}, {"rental_uris": {"ios": "https://dc.lft.to/lastmile_qr_scan", "android": "https://dc.lft.to/lastmile_qr_scan"}, "lon": -77.03341033333334, "type": "electric_scooter", "fusion_lat": 0.0, "lat": 38.921681166666666, "name": "1dae88651932ace7637e32941a5ad44b", "fusion_lon": 0.0, "bike_id": "1dae88651932ace7637e32941a5ad44b", "is_disabled": 0, "is_reserved": 0}, {"rental_uris": {"ios": "https://dc.lft.to/lastmile_qr_scan", "android": "https://dc.lft.to/lastmile_qr_scan"}, "lon": -77.02211366666667, "type": "electric_scooter", "fusion_lat": 0.0, "lat": 38.914155666666666, "name": "c3a5b157cb33374a140e6e12c0f87b5d", "fusion_lon": 0.0, "bike_id": "c3a5b157cb33374a140e6e12c0f87b5d", "is_disabled": 0, "is_reserved": 0}, {"rental_uris": {"ios": "https://dc.lft.to/lastmile_qr_scan", "android": "https://dc.lft.to/lastmile_qr_scan"}, "lon": -77.02388833333333, "type": "electric_scooter", "fusion_lat": 0.0, "lat": 38.915985166666665, "name": "6e1fb9ee492bd0b3631ca6dadec9a28d", "fusion_lon": 0.0, "bike_id": "6e1fb9ee492bd0b3631ca6dadec9a28d", "is_disabled": 0, "is_reserved": 0}, {"rental_uris": {"ios": "https://dc.lft.to/lastmile_qr_scan", "android": "https://dc.lft.to/lastmile_qr_scan"}, "lon": -76.99928333333334, "type": "electric_scooter", "fusion_lat": 0.0, "lat": 38.896178666666664, "name": "963328e672db77dad55dc4aee3e000cf", "fusion_lon": 0.0, "bike_id": "963328e672db77dad55dc4aee3e000cf", "is_disabled": 0, "is_reserved": 0}, {"rental_uris": {"ios": "https://dc.lft.to/lastmile_qr_scan", "android": "https://dc.lft.to/lastmile_qr_scan"}, "lon": -77.07157933333333, "type": "electric_scooter", "fusion_lat": 0.0, "lat": 38.907396, "name": "515e64d3ad7281ed3deb5119765dc091", "fusion_lon": 0.0, "bike_id": "515e64d3ad7281ed3deb5119765dc091", "is_disabled": 0, "is_reserved": 0}, {"rental_uris": {"ios": "https://dc.lft.to/lastmile_qr_scan", "android": "https://dc.lft.to/lastmile_qr_scan"}, "lon": -77.01969116666666, "type": "electric_scooter", "fusion_lat": 0.0, "lat": 38.87841916666667, "name": "c4340caf6ff6bcb49441920f23c50795", "fusion_lon": 0.0, "bike_id": "c4340caf6ff6bcb49441920f23c50795", "is_disabled": 0, "is_reserved": 0}, {"rental_uris": {"ios": "https://dc.lft.to/lastmile_qr_scan", "android": "https://dc.lft.to/lastmile_qr_scan"}, "lon": -77.0321445, "type": "electric_scooter", "fusion_lat": 0.0, "lat": 38.92007233333333, "name": "d6ce2760b0ba0f0c8b377a6d212f2464", "fusion_lon": 0.0, "bike_id": "d6ce2760b0ba0f0c8b377a6d212f2464", "is_disabled": 0, "is_reserved": 0}, {"rental_uris": {"ios": "https://dc.lft.to/lastmile_qr_scan", "android": "https://dc.lft.to/lastmile_qr_scan"}, "lon": -77.0282955, "type": "electric_scooter", "fusion_lat": 0.0, "lat": 38.917091666666664, "name": "e444b84543edc8e498a7c29001847e95", "fusion_lon": 0.0, "bike_id": "e444b84543edc8e498a7c29001847e95", "is_disabled": 0, "is_reserved": 0}, {"rental_uris": {"ios": "https://dc.lft.to/lastmile_qr_scan", "android": "https://dc.lft.to/lastmile_qr_scan"}, "lon": -77.03182583333333, "type": "electric_scooter", "fusion_lat": 0.0, "lat": 38.91329983333333, "name": "c6fb6bd7e7cebd1566962e7f073a61a9", "fusion_lon": 0.0, "bike_id": "c6fb6bd7e7cebd1566962e7f073a61a9", "is_disabled": 0, "is_reserved": 0}, {"rental_uris": {"ios": "https://dc.lft.to/lastmile_qr_scan", "android": "https://dc.lft.to/lastmile_qr_scan"}, "lon": -76.98510016666667, "type": "electric_bike", "fusion_lat": 0.0, "lat": 38.880827833333335, "name": "42169ff703d398961dd95187d37ffc09", "fusion_lon": 0.0, "bike_id": "42169ff703d398961dd95187d37ffc09", "is_disabled": 0, "is_reserved": 0}, {"rental_uris": {"ios": "https://dc.lft.to/lastmile_qr_scan", "android": "https://dc.lft.to/lastmile_qr_scan"}, "lon": -76.93183816666667, "type": "electric_scooter", "fusion_lat": 0.0, "lat": 38.898792, "name": "320c54d1944a429de593109e99d130a9", "fusion_lon": 0.0, "bike_id": "320c54d1944a429de593109e99d130a9", "is_disabled": 0, "is_reserved": 0}, {"rental_uris": {"ios": "https://dc.lft.to/lastmile_qr_scan", "android": "https://dc.lft.to/lastmile_qr_scan"}, "lon": -77.03180433333333, "type": "electric_scooter", "fusion_lat": 0.0, "lat": 38.899868166666664, "name": "29de9ddad1f4f21e40dd5e8326c5214a", "fusion_lon": 0.0, "bike_id": "29de9ddad1f4f21e40dd5e8326c5214a", "is_disabled": 0, "is_reserved": 0}, {"rental_uris": {"ios": "https://dc.lft.to/lastmile_qr_scan", "android": "https://dc.lft.to/lastmile_qr_scan"}, "lon": -77.0225405, "type": "electric_scooter", "fusion_lat": 0.0, "lat": 38.92500316666667, "name": "22bb7b2e19bf30387e80a292b1d78256", "fusion_lon": 0.0, "bike_id": "22bb7b2e19bf30387e80a292b1d78256", "is_disabled": 0, "is_reserved": 0}, {"rental_uris": {"ios": "https://dc.lft.to/lastmile_qr_scan", "android": "https://dc.lft.to/lastmile_qr_scan"}, "lon": -77.03652583333333, "type": "electric_scooter", "fusion_lat": 0.0, "lat": 38.95492433333333, "name": "7a5b66c35bf7e29b5004a7b12dde1027", "fusion_lon": 0.0, "bike_id": "7a5b66c35bf7e29b5004a7b12dde1027", "is_disabled": 0, "is_reserved": 0}, {"rental_uris": {"ios": "https://dc.lft.to/lastmile_qr_scan", "android": "https://dc.lft.to/lastmile_qr_scan"}, "lon": -77.02815066666666, "type": "electric_scooter", "fusion_lat": 0.0, "lat": 38.9237615, "name": "162966a69d85293eabff97c2170e5213", "fusion_lon": 0.0, "bike_id": "162966a69d85293eabff97c2170e5213", "is_disabled": 0, "is_reserved": 0}, {"rental_uris": {"ios": "https://dc.lft.to/lastmile_qr_scan", "android": "https://dc.lft.to/lastmile_qr_scan"}, "lon": -77.08937416666667, "type": "electric_bike", "fusion_lat": 0.0, "lat": 38.841024166666664, "name": "eeb04846035e815899980ee9e182306b", "fusion_lon": 0.0, "bike_id": "eeb04846035e815899980ee9e182306b", "is_disabled": 0, "is_reserved": 0}, {"rental_uris": {"ios": "https://dc.lft.to/lastmile_qr_scan", "android": "https://dc.lft.to/lastmile_qr_scan"}, "lon": -77.02719466666667, "type": "electric_scooter", "fusion_lat": 0.0, "lat": 38.918119, "name": "81c4df73fd246ffeaac48e4731c2bf5f", "fusion_lon": 0.0, "bike_id": "81c4df73fd246ffeaac48e4731c2bf5f", "is_disabled": 0, "is_reserved": 0}, {"rental_uris": {"ios": "https://dc.lft.to/lastmile_qr_scan", "android": "https://dc.lft.to/lastmile_qr_scan"}, "lon": -77.000795, "type": "electric_scooter", "fusion_lat": 0.0, "lat": 38.8751225, "name": "f49c931890ecd724124c3328cf188f1f", "fusion_lon": 0.0, "bike_id": "f49c931890ecd724124c3328cf188f1f", "is_disabled": 0, "is_reserved": 0}, {"rental_uris": {"ios": "https://dc.lft.to/lastmile_qr_scan", "android": "https://dc.lft.to/lastmile_qr_scan"}, "lon": -77.01982366666667, "type": "electric_scooter", "fusion_lat": 0.0, "lat": 38.9022995, "name": "78ad87bf311e3fb0dbd1cdad325238b6", "fusion_lon": 0.0, "bike_id": "78ad87bf311e3fb0dbd1cdad325238b6", "is_disabled": 0, "is_reserved": 0}, {"rental_uris": {"ios": "https://dc.lft.to/lastmile_qr_scan", "android": "https://dc.lft.to/lastmile_qr_scan"}, "lon": -77.0329245, "type": "electric_scooter", "fusion_lat": 0.0, "lat": 38.956757333333336, "name": "40e210102a04176c3f6f50776dfd0862", "fusion_lon": 0.0, "bike_id": "40e210102a04176c3f6f50776dfd0862", "is_disabled": 0, "is_reserved": 0}, {"rental_uris": {"ios": "https://dc.lft.to/lastmile_qr_scan", "android": "https://dc.lft.to/lastmile_qr_scan"}, "lon": -77.04070533333334, "type": "electric_bike", "fusion_lat": 0.0, "lat": 38.812398333333334, "name": "afd9075962325dc155b7d7bb1d7f3c02", "fusion_lon": 0.0, "bike_id": "afd9075962325dc155b7d7bb1d7f3c02", "is_disabled": 0, "is_reserved": 0}, {"rental_uris": {"ios": "https://dc.lft.to/lastmile_qr_scan", "android": "https://dc.lft.to/lastmile_qr_scan"}, "lon": -77.0315955, "type": "electric_scooter", "fusion_lat": 0.0, "lat": 38.912046333333336, "name": "ab9595e57f2b4901d790c66447d78bf9", "fusion_lon": 0.0, "bike_id": "ab9595e57f2b4901d790c66447d78bf9", "is_disabled": 0, "is_reserved": 0}, {"rental_uris": {"ios": "https://dc.lft.to/lastmile_qr_scan", "android": "https://dc.lft.to/lastmile_qr_scan"}, "lon": -76.938867, "type": "electric_bike", "fusion_lat": 0.0, "lat": 38.88331266666667, "name": "9792f27a4ae1c988f6d117d44a3b0d80", "fusion_lon": 0.0, "bike_id": "9792f27a4ae1c988f6d117d44a3b0d80", "is_disabled": 0, "is_reserved": 0}, {"rental_uris": {"ios": "https://dc.lft.to/lastmile_qr_scan", "android": "https://dc.lft.to/lastmile_qr_scan"}, "lon": -77.03281983333333, "type": "electric_scooter", "fusion_lat": 0.0, "lat": 38.93692216666667, "name": "f55b053e0c6cbdf633b26ecb7fc22ed6", "fusion_lon": 0.0, "bike_id": "f55b053e0c6cbdf633b26ecb7fc22ed6", "is_disabled": 0, "is_reserved": 0}, {"rental_uris": {"ios": "https://dc.lft.to/lastmile_qr_scan", "android": "https://dc.lft.to/lastmile_qr_scan"}, "lon": -76.9938685, "type": "electric_scooter", "fusion_lat": 0.0, "lat": 38.9006255, "name": "e27e44f712c6782110a438c2b4ed722c", "fusion_lon": 0.0, "bike_id": "e27e44f712c6782110a438c2b4ed722c", "is_disabled": 0, "is_reserved": 0}, {"rental_uris": {"ios": "https://dc.lft.to/lastmile_qr_scan", "android": "https://dc.lft.to/lastmile_qr_scan"}, "lon": -77.028482, "type": "electric_scooter", "fusion_lat": 0.0, "lat": 38.9325325, "name": "4108a02dc91eca2d85510e1ac8e18b4b", "fusion_lon": 0.0, "bike_id": "4108a02dc91eca2d85510e1ac8e18b4b", "is_disabled": 0, "is_reserved": 0}, {"rental_uris": {"ios": "https://dc.lft.to/lastmile_qr_scan", "android": "https://dc.lft.to/lastmile_qr_scan"}, "lon": -77.04092833333333, "type": "electric_scooter", "fusion_lat": 0.0, "lat": 38.911203666666665, "name": "6b8437900e5d90b53f7aacbd6b72492c", "fusion_lon": 0.0, "bike_id": "6b8437900e5d90b53f7aacbd6b72492c", "is_disabled": 0, "is_reserved": 0}, {"rental_uris": {"ios": "https://dc.lft.to/lastmile_qr_scan", "android": "https://dc.lft.to/lastmile_qr_scan"}, "lon": -77.02987616666667, "type": "electric_scooter", "fusion_lat": 0.0, "lat": 38.95633683333333, "name": "9fbbcc49d898239a36e58d16f5b12cca", "fusion_lon": 0.0, "bike_id": "9fbbcc49d898239a36e58d16f5b12cca", "is_disabled": 0, "is_reserved": 0}, {"rental_uris": {"ios": "https://dc.lft.to/lastmile_qr_scan", "android": "https://dc.lft.to/lastmile_qr_scan"}, "lon": -77.0271455, "type": "electric_scooter", "fusion_lat": 0.0, "lat": 38.909549166666665, "name": "ed0051bc35e11b624ee249abb4924d5d", "fusion_lon": 0.0, "bike_id": "ed0051bc35e11b624ee249abb4924d5d", "is_disabled": 0, "is_reserved": 0}, {"rental_uris": {"ios": "https://dc.lft.to/lastmile_qr_scan", "android": "https://dc.lft.to/lastmile_qr_scan"}, "lon": -77.03346216666667, "type": "electric_scooter", "fusion_lat": 0.0, "lat": 38.91101783333333, "name": "e954a0ee15dce9afe10f692572b38fbf", "fusion_lon": 0.0, "bike_id": "e954a0ee15dce9afe10f692572b38fbf", "is_disabled": 0, "is_reserved": 0}, {"rental_uris": {"ios": "https://dc.lft.to/lastmile_qr_scan", "android": "https://dc.lft.to/lastmile_qr_scan"}, "lon": -77.01391233333334, "type": "electric_scooter", "fusion_lat": 0.0, "lat": 38.92856333333334, "name": "fdf4757203f8229d518a09ed92948691", "fusion_lon": 0.0, "bike_id": "fdf4757203f8229d518a09ed92948691", "is_disabled": 0, "is_reserved": 0}, {"rental_uris": {"ios": "https://dc.lft.to/lastmile_qr_scan", "android": "https://dc.lft.to/lastmile_qr_scan"}, "lon": -76.96554166666667, "type": "electric_bike", "fusion_lat": 0.0, "lat": 38.95097, "name": "3bfd4a408bc3e86c0c75b7db190d2b61", "fusion_lon": 0.0, "bike_id": "3bfd4a408bc3e86c0c75b7db190d2b61", "is_disabled": 0, "is_reserved": 0}, {"rental_uris": {"ios": "https://dc.lft.to/lastmile_qr_scan", "android": "https://dc.lft.to/lastmile_qr_scan"}, "lon": -77.002648, "type": "electric_scooter", "fusion_lat": 0.0, "lat": 38.87751516666667, "name": "72f1adc630726df62b5b7c4675553cd9", "fusion_lon": 0.0, "bike_id": "72f1adc630726df62b5b7c4675553cd9", "is_disabled": 0, "is_reserved": 0}, {"rental_uris": {"ios": "https://dc.lft.to/lastmile_qr_scan", "android": "https://dc.lft.to/lastmile_qr_scan"}, "lon": -77.02186983333333, "type": "electric_scooter", "fusion_lat": 0.0, "lat": 38.909786, "name": "33456ae40fecba517779aff42f667420", "fusion_lon": 0.0, "bike_id": "33456ae40fecba517779aff42f667420", "is_disabled": 0, "is_reserved": 0}, {"rental_uris": {"ios": "https://dc.lft.to/lastmile_qr_scan", "android": "https://dc.lft.to/lastmile_qr_scan"}, "lon": -77.0021155, "type": "electric_scooter", "fusion_lat": 0.0, "lat": 38.904761, "name": "89adf3088d3c4b2b2b6cf85d72df6652", "fusion_lon": 0.0, "bike_id": "89adf3088d3c4b2b2b6cf85d72df6652", "is_disabled": 0, "is_reserved": 0}, {"rental_uris": {"ios": "https://dc.lft.to/lastmile_qr_scan", "android": "https://dc.lft.to/lastmile_qr_scan"}, "lon": -77.05001566666667, "type": "electric_scooter", "fusion_lat": 0.0, "lat": 38.892303166666665, "name": "363fe3932f3b7c4960ca428514927281", "fusion_lon": 0.0, "bike_id": "363fe3932f3b7c4960ca428514927281", "is_disabled": 0, "is_reserved": 0}, {"rental_uris": {"ios": "https://dc.lft.to/lastmile_qr_scan", "android": "https://dc.lft.to/lastmile_qr_scan"}, "lon": -77.0011605, "type": "electric_scooter", "fusion_lat": 0.0, "lat": 38.89437, "name": "7a4c9c3b2868a52b7784e2eacdf117c9", "fusion_lon": 0.0, "bike_id": "7a4c9c3b2868a52b7784e2eacdf117c9", "is_disabled": 0, "is_reserved": 0}, {"rental_uris": {"ios": "https://dc.lft.to/lastmile_qr_scan", "android": "https://dc.lft.to/lastmile_qr_scan"}, "lon": -77.03522533333333, "type": "electric_scooter", "fusion_lat": 0.0, "lat": 38.92258133333333, "name": "1ca0dea4911ac3ef7986b1eadc46f4a2", "fusion_lon": 0.0, "bike_id": "1ca0dea4911ac3ef7986b1eadc46f4a2", "is_disabled": 0, "is_reserved": 0}, {"rental_uris": {"ios": "https://dc.lft.to/lastmile_qr_scan", "android": "https://dc.lft.to/lastmile_qr_scan"}, "lon": -77.0325625, "type": "electric_scooter", "fusion_lat": 0.0, "lat": 38.9353295, "name": "354daa3bfcd9721e97f399f92ae1959a", "fusion_lon": 0.0, "bike_id": "354daa3bfcd9721e97f399f92ae1959a", "is_disabled": 0, "is_reserved": 0}, {"rental_uris": {"ios": "https://dc.lft.to/lastmile_qr_scan", "android": "https://dc.lft.to/lastmile_qr_scan"}, "lon": -77.03163016666667, "type": "electric_scooter", "fusion_lat": 0.0, "lat": 38.923612, "name": "93fbc428a282c4aaaade93b2e9c99d4f", "fusion_lon": 0.0, "bike_id": "93fbc428a282c4aaaade93b2e9c99d4f", "is_disabled": 0, "is_reserved": 0}, {"rental_uris": {"ios": "https://dc.lft.to/lastmile_qr_scan", "android": "https://dc.lft.to/lastmile_qr_scan"}, "lon": -77.044232, "type": "electric_scooter", "fusion_lat": 0.0, "lat": 38.92126066666667, "name": "84198669130a0e149ac50551a47700b5", "fusion_lon": 0.0, "bike_id": "84198669130a0e149ac50551a47700b5", "is_disabled": 0, "is_reserved": 0}, {"rental_uris": {"ios": "https://dc.lft.to/lastmile_qr_scan", "android": "https://dc.lft.to/lastmile_qr_scan"}, "lon": -77.0271805, "type": "electric_scooter", "fusion_lat": 0.0, "lat": 38.8922405, "name": "e023079502c933ce8abbcd4ee0d21390", "fusion_lon": 0.0, "bike_id": "e023079502c933ce8abbcd4ee0d21390", "is_disabled": 0, "is_reserved": 0}, {"rental_uris": {"ios": "https://dc.lft.to/lastmile_qr_scan", "android": "https://dc.lft.to/lastmile_qr_scan"}, "lon": -76.938339, "type": "electric_scooter", "fusion_lat": 0.0, "lat": 38.8976845, "name": "6b9c9d43e35f4fda3e9ed791842830b9", "fusion_lon": 0.0, "bike_id": "6b9c9d43e35f4fda3e9ed791842830b9", "is_disabled": 0, "is_reserved": 0}, {"rental_uris": {"ios": "https://dc.lft.to/lastmile_qr_scan", "android": "https://dc.lft.to/lastmile_qr_scan"}, "lon": -77.0729315, "type": "electric_scooter", "fusion_lat": 0.0, "lat": 38.93174116666667, "name": "7d5a2f056825fb0fbc6422ee2cdbdecf", "fusion_lon": 0.0, "bike_id": "7d5a2f056825fb0fbc6422ee2cdbdecf", "is_disabled": 0, "is_reserved": 0}, {"rental_uris": {"ios": "https://dc.lft.to/lastmile_qr_scan", "android": "https://dc.lft.to/lastmile_qr_scan"}, "lon": -77.03849716666667, "type": "electric_scooter", "fusion_lat": 0.0, "lat": 38.93255116666667, "name": "53cacd2758cb9898d007e4b7eeaa94e7", "fusion_lon": 0.0, "bike_id": "53cacd2758cb9898d007e4b7eeaa94e7", "is_disabled": 0, "is_reserved": 0}, {"rental_uris": {"ios": "https://dc.lft.to/lastmile_qr_scan", "android": "https://dc.lft.to/lastmile_qr_scan"}, "lon": -77.10624933333334, "type": "electric_bike", "fusion_lat": 0.0, "lat": 38.873242, "name": "01543d63d258b88071c419609f049627", "fusion_lon": 0.0, "bike_id": "01543d63d258b88071c419609f049627", "is_disabled": 0, "is_reserved": 0}, {"rental_uris": {"ios": "https://dc.lft.to/lastmile_qr_scan", "android": "https://dc.lft.to/lastmile_qr_scan"}, "lon": -77.0374435, "type": "electric_scooter", "fusion_lat": 0.0, "lat": 38.92915766666667, "name": "773fe2e06eab2aad0b6d239ab87f6da3", "fusion_lon": 0.0, "bike_id": "773fe2e06eab2aad0b6d239ab87f6da3", "is_disabled": 0, "is_reserved": 0}, {"rental_uris": {"ios": "https://dc.lft.to/lastmile_qr_scan", "android": "https://dc.lft.to/lastmile_qr_scan"}, "lon": -77.02839783333333, "type": "electric_scooter", "fusion_lat": 0.0, "lat": 38.88771066666666, "name": "91eb89820fdb5ba0925e1a1486ac0f55", "fusion_lon": 0.0, "bike_id": "91eb89820fdb5ba0925e1a1486ac0f55", "is_disabled": 0, "is_reserved": 0}, {"rental_uris": {"ios": "https://dc.lft.to/lastmile_qr_scan", "android": "https://dc.lft.to/lastmile_qr_scan"}, "lon": -77.05755083333334, "type": "electric_scooter", "fusion_lat": 0.0, "lat": 38.934188, "name": "92aee9b6079f31ac02ecb5453114c84d", "fusion_lon": 0.0, "bike_id": "92aee9b6079f31ac02ecb5453114c84d", "is_disabled": 0, "is_reserved": 0}, {"rental_uris": {"ios": "https://dc.lft.to/lastmile_qr_scan", "android": "https://dc.lft.to/lastmile_qr_scan"}, "lon": -77.04155383333334, "type": "electric_scooter", "fusion_lat": 0.0, "lat": 38.9233495, "name": "51771b4b00055821903de1f24995060d", "fusion_lon": 0.0, "bike_id": "51771b4b00055821903de1f24995060d", "is_disabled": 0, "is_reserved": 0}, {"rental_uris": {"ios": "https://dc.lft.to/lastmile_qr_scan", "android": "https://dc.lft.to/lastmile_qr_scan"}, "lon": -77.0341, "type": "electric_scooter", "fusion_lat": 0.0, "lat": 38.919279833333334, "name": "9846f6a4d5fc3babf805b7bd6b76724a", "fusion_lon": 0.0, "bike_id": "9846f6a4d5fc3babf805b7bd6b76724a", "is_disabled": 0, "is_reserved": 0}, {"rental_uris": {"ios": "https://dc.lft.to/lastmile_qr_scan", "android": "https://dc.lft.to/lastmile_qr_scan"}, "lon": -77.04389516666667, "type": "electric_scooter", "fusion_lat": 0.0, "lat": 38.910868666666666, "name": "adb7dd22fe993f62a949df52387a130c", "fusion_lon": 0.0, "bike_id": "adb7dd22fe993f62a949df52387a130c", "is_disabled": 0, "is_reserved": 0}, {"rental_uris": {"ios": "https://dc.lft.to/lastmile_qr_scan", "android": "https://dc.lft.to/lastmile_qr_scan"}, "lon": -76.99921166666667, "type": "electric_scooter", "fusion_lat": 0.0, "lat": 38.90939933333333, "name": "c6bf9cabf15f685edb2ad8853021127e", "fusion_lon": 0.0, "bike_id": "c6bf9cabf15f685edb2ad8853021127e", "is_disabled": 0, "is_reserved": 0}, {"rental_uris": {"ios": "https://dc.lft.to/lastmile_qr_scan", "android": "https://dc.lft.to/lastmile_qr_scan"}, "lon": -77.04107766666667, "type": "electric_scooter", "fusion_lat": 0.0, "lat": 38.915652333333334, "name": "4f89ba27692cdca1fee620cfacfceffb", "fusion_lon": 0.0, "bike_id": "4f89ba27692cdca1fee620cfacfceffb", "is_disabled": 0, "is_reserved": 0}, {"rental_uris": {"ios": "https://dc.lft.to/lastmile_qr_scan", "android": "https://dc.lft.to/lastmile_qr_scan"}, "lon": -77.068376, "type": "electric_scooter", "fusion_lat": 0.0, "lat": 38.9172875, "name": "d37e6dce7fa9a15c0ccd39831ec95332", "fusion_lon": 0.0, "bike_id": "d37e6dce7fa9a15c0ccd39831ec95332", "is_disabled": 0, "is_reserved": 0}, {"rental_uris": {"ios": "https://dc.lft.to/lastmile_qr_scan", "android": "https://dc.lft.to/lastmile_qr_scan"}, "lon": -77.034682, "type": "electric_scooter", "fusion_lat": 0.0, "lat": 38.91812933333333, "name": "a7cf977db99c98549bd648d84cddedbd", "fusion_lon": 0.0, "bike_id": "a7cf977db99c98549bd648d84cddedbd", "is_disabled": 0, "is_reserved": 0}, {"rental_uris": {"ios": "https://dc.lft.to/lastmile_qr_scan", "android": "https://dc.lft.to/lastmile_qr_scan"}, "lon": -77.0408175, "type": "electric_scooter", "fusion_lat": 0.0, "lat": 38.92013683333333, "name": "29ba7fa75ef411278d3366d49031f4ea", "fusion_lon": 0.0, "bike_id": "29ba7fa75ef411278d3366d49031f4ea", "is_disabled": 0, "is_reserved": 0}, {"rental_uris": {"ios": "https://dc.lft.to/lastmile_qr_scan", "android": "https://dc.lft.to/lastmile_qr_scan"}, "lon": -77.01147566666667, "type": "electric_scooter", "fusion_lat": 0.0, "lat": 38.95675216666667, "name": "d73786baa8ffb32761650c19ca2e3cb6", "fusion_lon": 0.0, "bike_id": "d73786baa8ffb32761650c19ca2e3cb6", "is_disabled": 0, "is_reserved": 0}, {"rental_uris": {"ios": "https://dc.lft.to/lastmile_qr_scan", "android": "https://dc.lft.to/lastmile_qr_scan"}, "lon": -77.0438625, "type": "electric_scooter", "fusion_lat": 0.0, "lat": 38.9108785, "name": "dd189e6041682989209b7c90a79c4334", "fusion_lon": 0.0, "bike_id": "dd189e6041682989209b7c90a79c4334", "is_disabled": 0, "is_reserved": 0}, {"rental_uris": {"ios": "https://dc.lft.to/lastmile_qr_scan", "android": "https://dc.lft.to/lastmile_qr_scan"}, "lon": -77.00204183333334, "type": "electric_scooter", "fusion_lat": 0.0, "lat": 38.822507333333334, "name": "0b4ca5ea21319c1d94483fb69d41d780", "fusion_lon": 0.0, "bike_id": "0b4ca5ea21319c1d94483fb69d41d780", "is_disabled": 0, "is_reserved": 0}, {"rental_uris": {"ios": "https://dc.lft.to/lastmile_qr_scan", "android": "https://dc.lft.to/lastmile_qr_scan"}, "lon": -77.0197225, "type": "electric_scooter", "fusion_lat": 0.0, "lat": 38.88377066666666, "name": "55b8d59f52109143ad9acc32651fa279", "fusion_lon": 0.0, "bike_id": "55b8d59f52109143ad9acc32651fa279", "is_disabled": 0, "is_reserved": 0}, {"rental_uris": {"ios": "https://dc.lft.to/lastmile_qr_scan", "android": "https://dc.lft.to/lastmile_qr_scan"}, "lon": -76.98370866666667, "type": "electric_scooter", "fusion_lat": 0.0, "lat": 38.86110466666667, "name": "037cce0160dc0ca7d741fededbc7c81e", "fusion_lon": 0.0, "bike_id": "037cce0160dc0ca7d741fededbc7c81e", "is_disabled": 0, "is_reserved": 0}, {"rental_uris": {"ios": "https://dc.lft.to/lastmile_qr_scan", "android": "https://dc.lft.to/lastmile_qr_scan"}, "lon": -76.973238, "type": "electric_scooter", "fusion_lat": 0.0, "lat": 38.930274, "name": "12e84a696a99c5feee8d62b246008d1a", "fusion_lon": 0.0, "bike_id": "12e84a696a99c5feee8d62b246008d1a", "is_disabled": 0, "is_reserved": 0}, {"rental_uris": {"ios": "https://dc.lft.to/lastmile_qr_scan", "android": "https://dc.lft.to/lastmile_qr_scan"}, "lon": -76.98567333333334, "type": "electric_scooter", "fusion_lat": 0.0, "lat": 38.86147866666667, "name": "79b03db75bc39d6fe735b42ad1bb6b64", "fusion_lon": 0.0, "bike_id": "79b03db75bc39d6fe735b42ad1bb6b64", "is_disabled": 0, "is_reserved": 0}, {"rental_uris": {"ios": "https://dc.lft.to/lastmile_qr_scan", "android": "https://dc.lft.to/lastmile_qr_scan"}, "lon": -77.04019883333333, "type": "electric_bike", "fusion_lat": 0.0, "lat": 38.80429183333333, "name": "355a34673a98b4842fbe56be2e6f0c06", "fusion_lon": 0.0, "bike_id": "355a34673a98b4842fbe56be2e6f0c06", "is_disabled": 0, "is_reserved": 0}, {"rental_uris": {"ios": "https://dc.lft.to/lastmile_qr_scan", "android": "https://dc.lft.to/lastmile_qr_scan"}, "lon": -77.0000395, "type": "electric_scooter", "fusion_lat": 0.0, "lat": 38.900272333333334, "name": "e5df665bb6edaf315be91c906ba46c60", "fusion_lon": 0.0, "bike_id": "e5df665bb6edaf315be91c906ba46c60", "is_disabled": 0, "is_reserved": 0}, {"rental_uris": {"ios": "https://dc.lft.to/lastmile_qr_scan", "android": "https://dc.lft.to/lastmile_qr_scan"}, "lon": -77.0237775, "type": "electric_scooter", "fusion_lat": 0.0, "lat": 38.9020725, "name": "64c7e65ab5d68c880a9b7d1fb3089353", "fusion_lon": 0.0, "bike_id": "64c7e65ab5d68c880a9b7d1fb3089353", "is_disabled": 0, "is_reserved": 0}, {"rental_uris": {"ios": "https://dc.lft.to/lastmile_qr_scan", "android": "https://dc.lft.to/lastmile_qr_scan"}, "lon": -77.036946, "type": "electric_scooter", "fusion_lat": 0.0, "lat": 38.9167835, "name": "c5e3c4ef6a7595bdcbdfcc23a6a722e1", "fusion_lon": 0.0, "bike_id": "c5e3c4ef6a7595bdcbdfcc23a6a722e1", "is_disabled": 0, "is_reserved": 0}, {"rental_uris": {"ios": "https://dc.lft.to/lastmile_qr_scan", "android": "https://dc.lft.to/lastmile_qr_scan"}, "lon": -76.97504416666666, "type": "electric_bike", "fusion_lat": 0.0, "lat": 38.919359666666665, "name": "896d9c9d07a466590a22304ddbe4e819", "fusion_lon": 0.0, "bike_id": "896d9c9d07a466590a22304ddbe4e819", "is_disabled": 0, "is_reserved": 0}, {"rental_uris": {"ios": "https://dc.lft.to/lastmile_qr_scan", "android": "https://dc.lft.to/lastmile_qr_scan"}, "lon": -76.983756, "type": "electric_scooter", "fusion_lat": 0.0, "lat": 38.86029383333333, "name": "84c797021a1191a484f11ab90fb9e8c0", "fusion_lon": 0.0, "bike_id": "84c797021a1191a484f11ab90fb9e8c0", "is_disabled": 0, "is_reserved": 0}, {"rental_uris": {"ios": "https://dc.lft.to/lastmile_qr_scan", "android": "https://dc.lft.to/lastmile_qr_scan"}, "lon": -77.016211, "type": "electric_scooter", "fusion_lat": 0.0, "lat": 38.910202166666664, "name": "34aa7270d4b94b53ea6eb4a6a0c1cdd0", "fusion_lon": 0.0, "bike_id": "34aa7270d4b94b53ea6eb4a6a0c1cdd0", "is_disabled": 0, "is_reserved": 0}, {"rental_uris": {"ios": "https://dc.lft.to/lastmile_qr_scan", "android": "https://dc.lft.to/lastmile_qr_scan"}, "lon": -77.03645716666666, "type": "electric_scooter", "fusion_lat": 0.0, "lat": 38.91871233333333, "name": "e5e2bd4b23430a193d5d76013c69d787", "fusion_lon": 0.0, "bike_id": "e5e2bd4b23430a193d5d76013c69d787", "is_disabled": 0, "is_reserved": 0}, {"rental_uris": {"ios": "https://dc.lft.to/lastmile_qr_scan", "android": "https://dc.lft.to/lastmile_qr_scan"}, "lon": -76.97560916666667, "type": "electric_scooter", "fusion_lat": 0.0, "lat": 38.90443916666667, "name": "8f746bcdffcb24faaf345edf61711661", "fusion_lon": 0.0, "bike_id": "8f746bcdffcb24faaf345edf61711661", "is_disabled": 0, "is_reserved": 0}, {"rental_uris": {"ios": "https://dc.lft.to/lastmile_qr_scan", "android": "https://dc.lft.to/lastmile_qr_scan"}, "lon": -77.04634833333333, "type": "electric_scooter", "fusion_lat": 0.0, "lat": 38.8922525, "name": "b19f498d86c29fdf0af18a3e7e93a168", "fusion_lon": 0.0, "bike_id": "b19f498d86c29fdf0af18a3e7e93a168", "is_disabled": 0, "is_reserved": 0}, {"rental_uris": {"ios": "https://dc.lft.to/lastmile_qr_scan", "android": "https://dc.lft.to/lastmile_qr_scan"}, "lon": -77.0257575, "type": "electric_scooter", "fusion_lat": 0.0, "lat": 38.89746483333333, "name": "a6b8ce0581cd11da66f0258f3077fd01", "fusion_lon": 0.0, "bike_id": "a6b8ce0581cd11da66f0258f3077fd01", "is_disabled": 0, "is_reserved": 0}, {"rental_uris": {"ios": "https://dc.lft.to/lastmile_qr_scan", "android": "https://dc.lft.to/lastmile_qr_scan"}, "lon": -76.996078, "type": "electric_scooter", "fusion_lat": 0.0, "lat": 38.88623883333333, "name": "d1df5babd3e4ff3352b9aef43ee64b3f", "fusion_lon": 0.0, "bike_id": "d1df5babd3e4ff3352b9aef43ee64b3f", "is_disabled": 0, "is_reserved": 0}, {"rental_uris": {"ios": "https://dc.lft.to/lastmile_qr_scan", "android": "https://dc.lft.to/lastmile_qr_scan"}, "lon": -77.02973266666666, "type": "electric_scooter", "fusion_lat": 0.0, "lat": 38.91780466666667, "name": "b15d272ebe688cd1c4e097cd4227b1da", "fusion_lon": 0.0, "bike_id": "b15d272ebe688cd1c4e097cd4227b1da", "is_disabled": 0, "is_reserved": 0}, {"rental_uris": {"ios": "https://dc.lft.to/lastmile_qr_scan", "android": "https://dc.lft.to/lastmile_qr_scan"}, "lon": -77.03277216666666, "type": "electric_scooter", "fusion_lat": 0.0, "lat": 38.934421, "name": "52ad8157c3321ca897a6fae24a054de5", "fusion_lon": 0.0, "bike_id": "52ad8157c3321ca897a6fae24a054de5", "is_disabled": 0, "is_reserved": 0}, {"rental_uris": {"ios": "https://dc.lft.to/lastmile_qr_scan", "android": "https://dc.lft.to/lastmile_qr_scan"}, "lon": -77.07727416666667, "type": "electric_scooter", "fusion_lat": 0.0, "lat": 38.947064833333336, "name": "9c7ff856dfe2748954ca37f07c349259", "fusion_lon": 0.0, "bike_id": "9c7ff856dfe2748954ca37f07c349259", "is_disabled": 0, "is_reserved": 0}, {"rental_uris": {"ios": "https://dc.lft.to/lastmile_qr_scan", "android": "https://dc.lft.to/lastmile_qr_scan"}, "lon": -77.03226566666666, "type": "electric_scooter", "fusion_lat": 0.0, "lat": 38.89216233333333, "name": "d88f724c79d5a2af452893d07c8d0307", "fusion_lon": 0.0, "bike_id": "d88f724c79d5a2af452893d07c8d0307", "is_disabled": 0, "is_reserved": 0}, {"rental_uris": {"ios": "https://dc.lft.to/lastmile_qr_scan", "android": "https://dc.lft.to/lastmile_qr_scan"}, "lon": -77.03364816666667, "type": "electric_scooter", "fusion_lat": 0.0, "lat": 38.932187, "name": "eb3112d16d1567bb96616756eff1d2ca", "fusion_lon": 0.0, "bike_id": "eb3112d16d1567bb96616756eff1d2ca", "is_disabled": 0, "is_reserved": 0}, {"rental_uris": {"ios": "https://dc.lft.to/lastmile_qr_scan", "android": "https://dc.lft.to/lastmile_qr_scan"}, "lon": -77.02392283333333, "type": "electric_scooter", "fusion_lat": 0.0, "lat": 38.907022, "name": "1029d52f389cdafb4628bfd3d327916f", "fusion_lon": 0.0, "bike_id": "1029d52f389cdafb4628bfd3d327916f", "is_disabled": 0, "is_reserved": 0}, {"rental_uris": {"ios": "https://dc.lft.to/lastmile_qr_scan", "android": "https://dc.lft.to/lastmile_qr_scan"}, "lon": -76.97305516666667, "type": "electric_scooter", "fusion_lat": 0.0, "lat": 38.91988216666667, "name": "af02154fe4e1ad38360802aa687addd2", "fusion_lon": 0.0, "bike_id": "af02154fe4e1ad38360802aa687addd2", "is_disabled": 0, "is_reserved": 0}, {"rental_uris": {"ios": "https://dc.lft.to/lastmile_qr_scan", "android": "https://dc.lft.to/lastmile_qr_scan"}, "lon": -77.00600283333333, "type": "electric_scooter", "fusion_lat": 0.0, "lat": 38.884933833333335, "name": "950c90c32c6467510e3f314597b25a3d", "fusion_lon": 0.0, "bike_id": "950c90c32c6467510e3f314597b25a3d", "is_disabled": 0, "is_reserved": 0}, {"rental_uris": {"ios": "https://dc.lft.to/lastmile_qr_scan", "android": "https://dc.lft.to/lastmile_qr_scan"}, "lon": -77.0277895, "type": "electric_scooter", "fusion_lat": 0.0, "lat": 38.95381, "name": "c1647ca32f5eec55c755c1d4088ccf6c", "fusion_lon": 0.0, "bike_id": "c1647ca32f5eec55c755c1d4088ccf6c", "is_disabled": 0, "is_reserved": 0}, {"rental_uris": {"ios": "https://dc.lft.to/lastmile_qr_scan", "android": "https://dc.lft.to/lastmile_qr_scan"}, "lon": -77.02758233333333, "type": "electric_bike", "fusion_lat": 0.0, "lat": 38.90009583333333, "name": "8445337402b512b6c1931dc1759bfacf", "fusion_lon": 0.0, "bike_id": "8445337402b512b6c1931dc1759bfacf", "is_disabled": 0, "is_reserved": 0}, {"rental_uris": {"ios": "https://dc.lft.to/lastmile_qr_scan", "android": "https://dc.lft.to/lastmile_qr_scan"}, "lon": -77.014128, "type": "electric_scooter", "fusion_lat": 0.0, "lat": 38.89095583333334, "name": "085f328be0cd9cc9706fcd0e63a3a5d4", "fusion_lon": 0.0, "bike_id": "085f328be0cd9cc9706fcd0e63a3a5d4", "is_disabled": 0, "is_reserved": 0}, {"rental_uris": {"ios": "https://dc.lft.to/lastmile_qr_scan", "android": "https://dc.lft.to/lastmile_qr_scan"}, "lon": -76.9510865, "type": "electric_scooter", "fusion_lat": 0.0, "lat": 38.88788433333333, "name": "be27daaae0cff3a8a1a7da3c206cf19b", "fusion_lon": 0.0, "bike_id": "be27daaae0cff3a8a1a7da3c206cf19b", "is_disabled": 0, "is_reserved": 0}, {"rental_uris": {"ios": "https://dc.lft.to/lastmile_qr_scan", "android": "https://dc.lft.to/lastmile_qr_scan"}, "lon": -76.9945765, "type": "electric_scooter", "fusion_lat": 0.0, "lat": 38.851628833333336, "name": "c8e466fe36f9b20202aa9d91124c8b53", "fusion_lon": 0.0, "bike_id": "c8e466fe36f9b20202aa9d91124c8b53", "is_disabled": 0, "is_reserved": 0}, {"rental_uris": {"ios": "https://dc.lft.to/lastmile_qr_scan", "android": "https://dc.lft.to/lastmile_qr_scan"}, "lon": -77.03168316666667, "type": "electric_scooter", "fusion_lat": 0.0, "lat": 38.89350783333333, "name": "d4d51099de322c72256c450843310c15", "fusion_lon": 0.0, "bike_id": "d4d51099de322c72256c450843310c15", "is_disabled": 0, "is_reserved": 0}, {"rental_uris": {"ios": "https://dc.lft.to/lastmile_qr_scan", "android": "https://dc.lft.to/lastmile_qr_scan"}, "lon": -77.02286216666667, "type": "electric_scooter", "fusion_lat": 0.0, "lat": 38.91796683333333, "name": "8ae05709150ffed35332614b41cf8835", "fusion_lon": 0.0, "bike_id": "8ae05709150ffed35332614b41cf8835", "is_disabled": 0, "is_reserved": 0}, {"rental_uris": {"ios": "https://dc.lft.to/lastmile_qr_scan", "android": "https://dc.lft.to/lastmile_qr_scan"}, "lon": -77.038653, "type": "electric_scooter", "fusion_lat": 0.0, "lat": 38.9082285, "name": "bb3d99df2d92675ab282122da86a0c1e", "fusion_lon": 0.0, "bike_id": "bb3d99df2d92675ab282122da86a0c1e", "is_disabled": 0, "is_reserved": 0}, {"rental_uris": {"ios": "https://dc.lft.to/lastmile_qr_scan", "android": "https://dc.lft.to/lastmile_qr_scan"}, "lon": -77.00223233333334, "type": "electric_scooter", "fusion_lat": 0.0, "lat": 38.894526666666664, "name": "e0a18d432f56bdd75da7d1e3b942ceca", "fusion_lon": 0.0, "bike_id": "e0a18d432f56bdd75da7d1e3b942ceca", "is_disabled": 0, "is_reserved": 0}, {"rental_uris": {"ios": "https://dc.lft.to/lastmile_qr_scan", "android": "https://dc.lft.to/lastmile_qr_scan"}, "lon": -77.02115783333333, "type": "electric_scooter", "fusion_lat": 0.0, "lat": 38.902349, "name": "0981d641c1efb26537962c089ddbeb2f", "fusion_lon": 0.0, "bike_id": "0981d641c1efb26537962c089ddbeb2f", "is_disabled": 0, "is_reserved": 0}, {"rental_uris": {"ios": "https://dc.lft.to/lastmile_qr_scan", "android": "https://dc.lft.to/lastmile_qr_scan"}, "lon": -77.03324116666667, "type": "electric_scooter", "fusion_lat": 0.0, "lat": 38.90289716666667, "name": "5a8bed5fc3a0e18a5aca3694b01040ad", "fusion_lon": 0.0, "bike_id": "5a8bed5fc3a0e18a5aca3694b01040ad", "is_disabled": 0, "is_reserved": 0}, {"rental_uris": {"ios": "https://dc.lft.to/lastmile_qr_scan", "android": "https://dc.lft.to/lastmile_qr_scan"}, "lon": -77.04285216666666, "type": "electric_scooter", "fusion_lat": 0.0, "lat": 38.907225833333335, "name": "3bebed78be584b787a872fde2a3c7758", "fusion_lon": 0.0, "bike_id": "3bebed78be584b787a872fde2a3c7758", "is_disabled": 0, "is_reserved": 0}, {"rental_uris": {"ios": "https://dc.lft.to/lastmile_qr_scan", "android": "https://dc.lft.to/lastmile_qr_scan"}, "lon": -77.02414816666666, "type": "electric_scooter", "fusion_lat": 0.0, "lat": 38.92084116666667, "name": "0775d0d5ac56ee44e7ccb7bef5cd10ef", "fusion_lon": 0.0, "bike_id": "0775d0d5ac56ee44e7ccb7bef5cd10ef", "is_disabled": 0, "is_reserved": 0}, {"rental_uris": {"ios": "https://dc.lft.to/lastmile_qr_scan", "android": "https://dc.lft.to/lastmile_qr_scan"}, "lon": -76.92877883333334, "type": "electric_scooter", "fusion_lat": 0.0, "lat": 38.88445933333333, "name": "f05bd01aa6ebaa2fa61b81adc988a97b", "fusion_lon": 0.0, "bike_id": "f05bd01aa6ebaa2fa61b81adc988a97b", "is_disabled": 0, "is_reserved": 0}, {"rental_uris": {"ios": "https://dc.lft.to/lastmile_qr_scan", "android": "https://dc.lft.to/lastmile_qr_scan"}, "lon": -77.03256883333333, "type": "electric_scooter", "fusion_lat": 0.0, "lat": 38.9182385, "name": "d7051e464ade3cf6537912910e80ad19", "fusion_lon": 0.0, "bike_id": "d7051e464ade3cf6537912910e80ad19", "is_disabled": 0, "is_reserved": 0}, {"rental_uris": {"ios": "https://dc.lft.to/lastmile_qr_scan", "android": "https://dc.lft.to/lastmile_qr_scan"}, "lon": -77.06119233333334, "type": "electric_scooter", "fusion_lat": 0.0, "lat": 38.904984166666665, "name": "05536ea67fb629940d20c8bba8b09a96", "fusion_lon": 0.0, "bike_id": "05536ea67fb629940d20c8bba8b09a96", "is_disabled": 0, "is_reserved": 0}, {"rental_uris": {"ios": "https://dc.lft.to/lastmile_qr_scan", "android": "https://dc.lft.to/lastmile_qr_scan"}, "lon": -77.08045333333334, "type": "electric_bike", "fusion_lat": 0.0, "lat": 38.848428, "name": "96b60a910ce44726ad72d9955d947f50", "fusion_lon": 0.0, "bike_id": "96b60a910ce44726ad72d9955d947f50", "is_disabled": 0, "is_reserved": 0}, {"rental_uris": {"ios": "https://dc.lft.to/lastmile_qr_scan", "android": "https://dc.lft.to/lastmile_qr_scan"}, "lon": -77.03997416666667, "type": "electric_scooter", "fusion_lat": 0.0, "lat": 38.918116833333336, "name": "6798c921709229e4075be1fd8bfca677", "fusion_lon": 0.0, "bike_id": "6798c921709229e4075be1fd8bfca677", "is_disabled": 0, "is_reserved": 0}, {"rental_uris": {"ios": "https://dc.lft.to/lastmile_qr_scan", "android": "https://dc.lft.to/lastmile_qr_scan"}, "lon": -77.03450383333333, "type": "electric_scooter", "fusion_lat": 0.0, "lat": 38.9082015, "name": "8349bf4aa1bbe2d761d55d01e556b3fb", "fusion_lon": 0.0, "bike_id": "8349bf4aa1bbe2d761d55d01e556b3fb", "is_disabled": 0, "is_reserved": 0}, {"rental_uris": {"ios": "https://dc.lft.to/lastmile_qr_scan", "android": "https://dc.lft.to/lastmile_qr_scan"}, "lon": -77.0415605, "type": "electric_scooter", "fusion_lat": 0.0, "lat": 38.90545816666667, "name": "c43cf5c38c6638a4059ad6c50e8080a4", "fusion_lon": 0.0, "bike_id": "c43cf5c38c6638a4059ad6c50e8080a4", "is_disabled": 0, "is_reserved": 0}, {"rental_uris": {"ios": "https://dc.lft.to/lastmile_qr_scan", "android": "https://dc.lft.to/lastmile_qr_scan"}, "lon": -77.03645383333334, "type": "electric_scooter", "fusion_lat": 0.0, "lat": 38.90281816666667, "name": "db4e53ec79214e75665588638c8f101b", "fusion_lon": 0.0, "bike_id": "db4e53ec79214e75665588638c8f101b", "is_disabled": 0, "is_reserved": 0}, {"rental_uris": {"ios": "https://dc.lft.to/lastmile_qr_scan", "android": "https://dc.lft.to/lastmile_qr_scan"}, "lon": -76.99517216666666, "type": "electric_scooter", "fusion_lat": 0.0, "lat": 38.900217166666664, "name": "59627b932de439468c229ca2f72b73f0", "fusion_lon": 0.0, "bike_id": "59627b932de439468c229ca2f72b73f0", "is_disabled": 0, "is_reserved": 0}, {"rental_uris": {"ios": "https://dc.lft.to/lastmile_qr_scan", "android": "https://dc.lft.to/lastmile_qr_scan"}, "lon": -76.99498733333333, "type": "electric_bike", "fusion_lat": 0.0, "lat": 38.899740666666666, "name": "6bd132b81fae6fd9f526b0ae5ed54b85", "fusion_lon": 0.0, "bike_id": "6bd132b81fae6fd9f526b0ae5ed54b85", "is_disabled": 0, "is_reserved": 0}, {"rental_uris": {"ios": "https://dc.lft.to/lastmile_qr_scan", "android": "https://dc.lft.to/lastmile_qr_scan"}, "lon": -77.00608083333333, "type": "electric_scooter", "fusion_lat": 0.0, "lat": 38.90555916666667, "name": "4ea0052a4d26a5e3ee02cd3ac950b12b", "fusion_lon": 0.0, "bike_id": "4ea0052a4d26a5e3ee02cd3ac950b12b", "is_disabled": 0, "is_reserved": 0}, {"rental_uris": {"ios": "https://dc.lft.to/lastmile_qr_scan", "android": "https://dc.lft.to/lastmile_qr_scan"}, "lon": -76.95680983333334, "type": "electric_bike", "fusion_lat": 0.0, "lat": 38.947342666666664, "name": "f48ee2e65c1f2dc4298dbdb266bf06a6", "fusion_lon": 0.0, "bike_id": "f48ee2e65c1f2dc4298dbdb266bf06a6", "is_disabled": 0, "is_reserved": 0}, {"rental_uris": {"ios": "https://dc.lft.to/lastmile_qr_scan", "android": "https://dc.lft.to/lastmile_qr_scan"}, "lon": -77.011151, "type": "electric_scooter", "fusion_lat": 0.0, "lat": 38.8707855, "name": "9640666a94bc31b00e7f72fbb7d90d02", "fusion_lon": 0.0, "bike_id": "9640666a94bc31b00e7f72fbb7d90d02", "is_disabled": 0, "is_reserved": 0}, {"rental_uris": {"ios": "https://dc.lft.to/lastmile_qr_scan", "android": "https://dc.lft.to/lastmile_qr_scan"}, "lon": -77.03183233333333, "type": "electric_scooter", "fusion_lat": 0.0, "lat": 38.893834, "name": "4556f549bc8b655b9297564711644eb2", "fusion_lon": 0.0, "bike_id": "4556f549bc8b655b9297564711644eb2", "is_disabled": 0, "is_reserved": 0}, {"rental_uris": {"ios": "https://dc.lft.to/lastmile_qr_scan", "android": "https://dc.lft.to/lastmile_qr_scan"}, "lon": -76.94629483333334, "type": "electric_bike", "fusion_lat": 0.0, "lat": 38.94623333333333, "name": "f4f65623c5a09c7fe8524386a7fcf475", "fusion_lon": 0.0, "bike_id": "f4f65623c5a09c7fe8524386a7fcf475", "is_disabled": 0, "is_reserved": 0}, {"rental_uris": {"ios": "https://dc.lft.to/lastmile_qr_scan", "android": "https://dc.lft.to/lastmile_qr_scan"}, "lon": -76.97203583333334, "type": "electric_scooter", "fusion_lat": 0.0, "lat": 38.8549715, "name": "94ab632e915b69567db23b63f8493bb3", "fusion_lon": 0.0, "bike_id": "94ab632e915b69567db23b63f8493bb3", "is_disabled": 0, "is_reserved": 0}, {"rental_uris": {"ios": "https://dc.lft.to/lastmile_qr_scan", "android": "https://dc.lft.to/lastmile_qr_scan"}, "lon": -76.98557983333333, "type": "electric_bike", "fusion_lat": 0.0, "lat": 38.868920333333335, "name": "64d15e088f9b89b2b3808a53e0e0a7dd", "fusion_lon": 0.0, "bike_id": "64d15e088f9b89b2b3808a53e0e0a7dd", "is_disabled": 0, "is_reserved": 0}, {"rental_uris": {"ios": "https://dc.lft.to/lastmile_qr_scan", "android": "https://dc.lft.to/lastmile_qr_scan"}, "lon": -77.018399, "type": "electric_scooter", "fusion_lat": 0.0, "lat": 38.9134645, "name": "184cedf8f639bd6d4b1b76fadf6f893d", "fusion_lon": 0.0, "bike_id": "184cedf8f639bd6d4b1b76fadf6f893d", "is_disabled": 0, "is_reserved": 0}, {"rental_uris": {"ios": "https://dc.lft.to/lastmile_qr_scan", "android": "https://dc.lft.to/lastmile_qr_scan"}, "lon": -77.02690233333334, "type": "electric_scooter", "fusion_lat": 0.0, "lat": 38.90934716666667, "name": "fdc4d2d0267e4f21c4c5dd01dbab90e6", "fusion_lon": 0.0, "bike_id": "fdc4d2d0267e4f21c4c5dd01dbab90e6", "is_disabled": 0, "is_reserved": 0}, {"rental_uris": {"ios": "https://dc.lft.to/lastmile_qr_scan", "android": "https://dc.lft.to/lastmile_qr_scan"}, "lon": -77.02197966666667, "type": "electric_scooter", "fusion_lat": 0.0, "lat": 38.916910666666666, "name": "686b83849d31dd20ed291cede0e7a9c3", "fusion_lon": 0.0, "bike_id": "686b83849d31dd20ed291cede0e7a9c3", "is_disabled": 0, "is_reserved": 0}, {"rental_uris": {"ios": "https://dc.lft.to/lastmile_qr_scan", "android": "https://dc.lft.to/lastmile_qr_scan"}, "lon": -76.991408, "type": "electric_scooter", "fusion_lat": 0.0, "lat": 38.8859255, "name": "ac13e5af3aa5e953f20e8f33965c6acf", "fusion_lon": 0.0, "bike_id": "ac13e5af3aa5e953f20e8f33965c6acf", "is_disabled": 0, "is_reserved": 0}, {"rental_uris": {"ios": "https://dc.lft.to/lastmile_qr_scan", "android": "https://dc.lft.to/lastmile_qr_scan"}, "lon": -77.042282, "type": "electric_scooter", "fusion_lat": 0.0, "lat": 38.9110925, "name": "c5aa08b6288d1986fa322e190172146c", "fusion_lon": 0.0, "bike_id": "c5aa08b6288d1986fa322e190172146c", "is_disabled": 0, "is_reserved": 0}, {"rental_uris": {"ios": "https://dc.lft.to/lastmile_qr_scan", "android": "https://dc.lft.to/lastmile_qr_scan"}, "lon": -77.04639916666666, "type": "electric_scooter", "fusion_lat": 0.0, "lat": 38.89225733333333, "name": "611b13bcbae7321c82eb0fa73a905e6d", "fusion_lon": 0.0, "bike_id": "611b13bcbae7321c82eb0fa73a905e6d", "is_disabled": 0, "is_reserved": 0}, {"rental_uris": {"ios": "https://dc.lft.to/lastmile_qr_scan", "android": "https://dc.lft.to/lastmile_qr_scan"}, "lon": -77.05144383333334, "type": "electric_scooter", "fusion_lat": 0.0, "lat": 38.905954333333334, "name": "59a63c8a10fab6b0fa7ef16cf10cb689", "fusion_lon": 0.0, "bike_id": "59a63c8a10fab6b0fa7ef16cf10cb689", "is_disabled": 0, "is_reserved": 0}, {"rental_uris": {"ios": "https://dc.lft.to/lastmile_qr_scan", "android": "https://dc.lft.to/lastmile_qr_scan"}, "lon": -77.0415545, "type": "electric_scooter", "fusion_lat": 0.0, "lat": 38.91752116666667, "name": "cd8d572a0fe7a9874b3a3e0dfc3a6692", "fusion_lon": 0.0, "bike_id": "cd8d572a0fe7a9874b3a3e0dfc3a6692", "is_disabled": 0, "is_reserved": 0}, {"rental_uris": {"ios": "https://dc.lft.to/lastmile_qr_scan", "android": "https://dc.lft.to/lastmile_qr_scan"}, "lon": -77.024933, "type": "electric_scooter", "fusion_lat": 0.0, "lat": 38.906515, "name": "d258cfd8cdae6febff67786ba563f2e7", "fusion_lon": 0.0, "bike_id": "d258cfd8cdae6febff67786ba563f2e7", "is_disabled": 0, "is_reserved": 0}, {"rental_uris": {"ios": "https://dc.lft.to/lastmile_qr_scan", "android": "https://dc.lft.to/lastmile_qr_scan"}, "lon": -76.99779333333333, "type": "electric_scooter", "fusion_lat": 0.0, "lat": 38.885518833333336, "name": "efcd4fce88f89d6398b9645c00966800", "fusion_lon": 0.0, "bike_id": "efcd4fce88f89d6398b9645c00966800", "is_disabled": 0, "is_reserved": 0}, {"rental_uris": {"ios": "https://dc.lft.to/lastmile_qr_scan", "android": "https://dc.lft.to/lastmile_qr_scan"}, "lon": -76.95516516666666, "type": "electric_scooter", "fusion_lat": 0.0, "lat": 38.890556833333335, "name": "5b1110fcdc2d3c358c0abd49a6ce3c52", "fusion_lon": 0.0, "bike_id": "5b1110fcdc2d3c358c0abd49a6ce3c52", "is_disabled": 0, "is_reserved": 0}, {"rental_uris": {"ios": "https://dc.lft.to/lastmile_qr_scan", "android": "https://dc.lft.to/lastmile_qr_scan"}, "lon": -77.04266316666667, "type": "electric_scooter", "fusion_lat": 0.0, "lat": 38.93413833333334, "name": "7e07ef8205193fe416c96c09c21054a3", "fusion_lon": 0.0, "bike_id": "7e07ef8205193fe416c96c09c21054a3", "is_disabled": 0, "is_reserved": 0}, {"rental_uris": {"ios": "https://dc.lft.to/lastmile_qr_scan", "android": "https://dc.lft.to/lastmile_qr_scan"}, "lon": -77.0328835, "type": "electric_scooter", "fusion_lat": 0.0, "lat": 38.92881216666667, "name": "30d0ffeee520f6d85df6359b9d0bfc16", "fusion_lon": 0.0, "bike_id": "30d0ffeee520f6d85df6359b9d0bfc16", "is_disabled": 0, "is_reserved": 0}, {"rental_uris": {"ios": "https://dc.lft.to/lastmile_qr_scan", "android": "https://dc.lft.to/lastmile_qr_scan"}, "lon": -77.0766225, "type": "electric_scooter", "fusion_lat": 0.0, "lat": 38.90626316666667, "name": "76a548ed8d728fbbd751258138f27a7c", "fusion_lon": 0.0, "bike_id": "76a548ed8d728fbbd751258138f27a7c", "is_disabled": 0, "is_reserved": 0}, {"rental_uris": {"ios": "https://dc.lft.to/lastmile_qr_scan", "android": "https://dc.lft.to/lastmile_qr_scan"}, "lon": -77.02349616666666, "type": "electric_scooter", "fusion_lat": 0.0, "lat": 38.922760833333335, "name": "6abb3e2040e0d6d538eeea115ef3552b", "fusion_lon": 0.0, "bike_id": "6abb3e2040e0d6d538eeea115ef3552b", "is_disabled": 0, "is_reserved": 0}, {"rental_uris": {"ios": "https://dc.lft.to/lastmile_qr_scan", "android": "https://dc.lft.to/lastmile_qr_scan"}, "lon": -77.06780333333333, "type": "electric_scooter", "fusion_lat": 0.0, "lat": 38.95211716666667, "name": "52706eae0f4e867f540d1b6050afca1a", "fusion_lon": 0.0, "bike_id": "52706eae0f4e867f540d1b6050afca1a", "is_disabled": 0, "is_reserved": 0}, {"rental_uris": {"ios": "https://dc.lft.to/lastmile_qr_scan", "android": "https://dc.lft.to/lastmile_qr_scan"}, "lon": -77.03208966666666, "type": "electric_scooter", "fusion_lat": 0.0, "lat": 38.91997833333333, "name": "e3e11605bc546eaf37a27fd45397308f", "fusion_lon": 0.0, "bike_id": "e3e11605bc546eaf37a27fd45397308f", "is_disabled": 0, "is_reserved": 0}, {"rental_uris": {"ios": "https://dc.lft.to/lastmile_qr_scan", "android": "https://dc.lft.to/lastmile_qr_scan"}, "lon": -77.03855483333334, "type": "electric_scooter", "fusion_lat": 0.0, "lat": 38.93204033333333, "name": "c3eeafe3652d6d6dcd120188e12de6ff", "fusion_lon": 0.0, "bike_id": "c3eeafe3652d6d6dcd120188e12de6ff", "is_disabled": 0, "is_reserved": 0}, {"rental_uris": {"ios": "https://dc.lft.to/lastmile_qr_scan", "android": "https://dc.lft.to/lastmile_qr_scan"}, "lon": -77.03232616666666, "type": "electric_scooter", "fusion_lat": 0.0, "lat": 38.92177566666667, "name": "75d40a506d5656a9f908decf1206f458", "fusion_lon": 0.0, "bike_id": "75d40a506d5656a9f908decf1206f458", "is_disabled": 0, "is_reserved": 0}, {"rental_uris": {"ios": "https://dc.lft.to/lastmile_qr_scan", "android": "https://dc.lft.to/lastmile_qr_scan"}, "lon": -77.002117, "type": "electric_scooter", "fusion_lat": 0.0, "lat": 38.902225, "name": "09974371b8a08bd9395accfa64bd6fa1", "fusion_lon": 0.0, "bike_id": "09974371b8a08bd9395accfa64bd6fa1", "is_disabled": 0, "is_reserved": 0}, {"rental_uris": {"ios": "https://dc.lft.to/lastmile_qr_scan", "android": "https://dc.lft.to/lastmile_qr_scan"}, "lon": -77.03248683333334, "type": "electric_scooter", "fusion_lat": 0.0, "lat": 38.935648, "name": "f3c7acc06a6081d6732c597b5e3d0a33", "fusion_lon": 0.0, "bike_id": "f3c7acc06a6081d6732c597b5e3d0a33", "is_disabled": 0, "is_reserved": 0}, {"rental_uris": {"ios": "https://dc.lft.to/lastmile_qr_scan", "android": "https://dc.lft.to/lastmile_qr_scan"}, "lon": -77.00739116666666, "type": "electric_scooter", "fusion_lat": 0.0, "lat": 38.955189, "name": "aba4b655a17cc1a50adf83550724d1ef", "fusion_lon": 0.0, "bike_id": "aba4b655a17cc1a50adf83550724d1ef", "is_disabled": 0, "is_reserved": 0}, {"rental_uris": {"ios": "https://dc.lft.to/lastmile_qr_scan", "android": "https://dc.lft.to/lastmile_qr_scan"}, "lon": -77.02498566666667, "type": "electric_scooter", "fusion_lat": 0.0, "lat": 38.9397105, "name": "dc4917db14726d08b688ca8484cf6603", "fusion_lon": 0.0, "bike_id": "dc4917db14726d08b688ca8484cf6603", "is_disabled": 0, "is_reserved": 0}, {"rental_uris": {"ios": "https://dc.lft.to/lastmile_qr_scan", "android": "https://dc.lft.to/lastmile_qr_scan"}, "lon": -77.02594416666666, "type": "electric_scooter", "fusion_lat": 0.0, "lat": 38.90521616666667, "name": "1ba479eaa1a5422a9b1b310b47b79a74", "fusion_lon": 0.0, "bike_id": "1ba479eaa1a5422a9b1b310b47b79a74", "is_disabled": 0, "is_reserved": 0}, {"rental_uris": {"ios": "https://dc.lft.to/lastmile_qr_scan", "android": "https://dc.lft.to/lastmile_qr_scan"}, "lon": -77.00724466666667, "type": "electric_scooter", "fusion_lat": 0.0, "lat": 38.884926666666665, "name": "252fc74ecc680fe911c130307773aa93", "fusion_lon": 0.0, "bike_id": "252fc74ecc680fe911c130307773aa93", "is_disabled": 0, "is_reserved": 0}, {"rental_uris": {"ios": "https://dc.lft.to/lastmile_qr_scan", "android": "https://dc.lft.to/lastmile_qr_scan"}, "lon": -77.04045633333334, "type": "electric_scooter", "fusion_lat": 0.0, "lat": 38.9297595, "name": "2234f03763a15bdfc52cbbbd0f5e68db", "fusion_lon": 0.0, "bike_id": "2234f03763a15bdfc52cbbbd0f5e68db", "is_disabled": 0, "is_reserved": 0}, {"rental_uris": {"ios": "https://dc.lft.to/lastmile_qr_scan", "android": "https://dc.lft.to/lastmile_qr_scan"}, "lon": -77.0344235, "type": "electric_scooter", "fusion_lat": 0.0, "lat": 38.90345333333333, "name": "6c973e38c011c02f2c14c579a890aa8e", "fusion_lon": 0.0, "bike_id": "6c973e38c011c02f2c14c579a890aa8e", "is_disabled": 0, "is_reserved": 0}, {"rental_uris": {"ios": "https://dc.lft.to/lastmile_qr_scan", "android": "https://dc.lft.to/lastmile_qr_scan"}, "lon": -76.90536233333333, "type": "electric_bike", "fusion_lat": 0.0, "lat": 38.897336333333335, "name": "6969be65eab5f798e07f0c8cb3ca7753", "fusion_lon": 0.0, "bike_id": "6969be65eab5f798e07f0c8cb3ca7753", "is_disabled": 0, "is_reserved": 0}, {"rental_uris": {"ios": "https://dc.lft.to/lastmile_qr_scan", "android": "https://dc.lft.to/lastmile_qr_scan"}, "lon": -77.0239095, "type": "electric_scooter", "fusion_lat": 0.0, "lat": 38.90703366666666, "name": "0b5d87e83c0ad20da96ac087a9efdc27", "fusion_lon": 0.0, "bike_id": "0b5d87e83c0ad20da96ac087a9efdc27", "is_disabled": 0, "is_reserved": 0}, {"rental_uris": {"ios": "https://dc.lft.to/lastmile_qr_scan", "android": "https://dc.lft.to/lastmile_qr_scan"}, "lon": -77.038857, "type": "electric_scooter", "fusion_lat": 0.0, "lat": 38.90261866666667, "name": "29ed1045b8348c065cfd7d8f1e5fc1c7", "fusion_lon": 0.0, "bike_id": "29ed1045b8348c065cfd7d8f1e5fc1c7", "is_disabled": 0, "is_reserved": 0}, {"rental_uris": {"ios": "https://dc.lft.to/lastmile_qr_scan", "android": "https://dc.lft.to/lastmile_qr_scan"}, "lon": -77.00835466666666, "type": "electric_scooter", "fusion_lat": 0.0, "lat": 38.91562666666667, "name": "6986fbb1bf6c3eb60e711240b7753735", "fusion_lon": 0.0, "bike_id": "6986fbb1bf6c3eb60e711240b7753735", "is_disabled": 0, "is_reserved": 0}, {"rental_uris": {"ios": "https://dc.lft.to/lastmile_qr_scan", "android": "https://dc.lft.to/lastmile_qr_scan"}, "lon": -77.03080516666667, "type": "electric_scooter", "fusion_lat": 0.0, "lat": 38.909919333333335, "name": "16ca0d20de1fa62a2fee576973ad283d", "fusion_lon": 0.0, "bike_id": "16ca0d20de1fa62a2fee576973ad283d", "is_disabled": 0, "is_reserved": 0}, {"rental_uris": {"ios": "https://dc.lft.to/lastmile_qr_scan", "android": "https://dc.lft.to/lastmile_qr_scan"}, "lon": -77.04881233333333, "type": "electric_scooter", "fusion_lat": 0.0, "lat": 38.9122465, "name": "008f0347e7e36cfb4f1c4013e52b3799", "fusion_lon": 0.0, "bike_id": "008f0347e7e36cfb4f1c4013e52b3799", "is_disabled": 0, "is_reserved": 0}, {"rental_uris": {"ios": "https://dc.lft.to/lastmile_qr_scan", "android": "https://dc.lft.to/lastmile_qr_scan"}, "lon": -77.01514433333334, "type": "electric_scooter", "fusion_lat": 0.0, "lat": 38.88736633333333, "name": "f358fd998fbd6bcbcaf69f58bafd144f", "fusion_lon": 0.0, "bike_id": "f358fd998fbd6bcbcaf69f58bafd144f", "is_disabled": 0, "is_reserved": 0}, {"rental_uris": {"ios": "https://dc.lft.to/lastmile_qr_scan", "android": "https://dc.lft.to/lastmile_qr_scan"}, "lon": -76.99757383333333, "type": "electric_scooter", "fusion_lat": 0.0, "lat": 38.921819666666664, "name": "f89390c26b2a92a66a92a9d65379984c", "fusion_lon": 0.0, "bike_id": "f89390c26b2a92a66a92a9d65379984c", "is_disabled": 0, "is_reserved": 0}, {"rental_uris": {"ios": "https://dc.lft.to/lastmile_qr_scan", "android": "https://dc.lft.to/lastmile_qr_scan"}, "lon": -77.0377045, "type": "electric_scooter", "fusion_lat": 0.0, "lat": 38.9255825, "name": "712273e4d1f564ef89fa19213c04cf92", "fusion_lon": 0.0, "bike_id": "712273e4d1f564ef89fa19213c04cf92", "is_disabled": 0, "is_reserved": 0}, {"rental_uris": {"ios": "https://dc.lft.to/lastmile_qr_scan", "android": "https://dc.lft.to/lastmile_qr_scan"}, "lon": -77.03171283333333, "type": "electric_scooter", "fusion_lat": 0.0, "lat": 38.8976735, "name": "17f5481b21d7a3448684cf284d0c9e27", "fusion_lon": 0.0, "bike_id": "17f5481b21d7a3448684cf284d0c9e27", "is_disabled": 0, "is_reserved": 0}, {"rental_uris": {"ios": "https://dc.lft.to/lastmile_qr_scan", "android": "https://dc.lft.to/lastmile_qr_scan"}, "lon": -77.019967, "type": "electric_scooter", "fusion_lat": 0.0, "lat": 38.90470783333333, "name": "d2ecafb0eaa9e0cd0727dc45ef9bc0a2", "fusion_lon": 0.0, "bike_id": "d2ecafb0eaa9e0cd0727dc45ef9bc0a2", "is_disabled": 0, "is_reserved": 0}, {"rental_uris": {"ios": "https://dc.lft.to/lastmile_qr_scan", "android": "https://dc.lft.to/lastmile_qr_scan"}, "lon": -77.023334, "type": "electric_scooter", "fusion_lat": 0.0, "lat": 38.929470333333335, "name": "d2908e76871a10f843ab3003a7672cc0", "fusion_lon": 0.0, "bike_id": "d2908e76871a10f843ab3003a7672cc0", "is_disabled": 0, "is_reserved": 0}, {"rental_uris": {"ios": "https://dc.lft.to/lastmile_qr_scan", "android": "https://dc.lft.to/lastmile_qr_scan"}, "lon": -77.026946, "type": "electric_scooter", "fusion_lat": 0.0, "lat": 38.9094995, "name": "10af36c4a019874457066c6f3c4ba9b6", "fusion_lon": 0.0, "bike_id": "10af36c4a019874457066c6f3c4ba9b6", "is_disabled": 0, "is_reserved": 0}, {"rental_uris": {"ios": "https://dc.lft.to/lastmile_qr_scan", "android": "https://dc.lft.to/lastmile_qr_scan"}, "lon": -77.03171916666666, "type": "electric_scooter", "fusion_lat": 0.0, "lat": 38.91576033333333, "name": "b4d92fe14abcd244bcae5e016e8030d2", "fusion_lon": 0.0, "bike_id": "b4d92fe14abcd244bcae5e016e8030d2", "is_disabled": 0, "is_reserved": 0}, {"rental_uris": {"ios": "https://dc.lft.to/lastmile_qr_scan", "android": "https://dc.lft.to/lastmile_qr_scan"}, "lon": -77.02816433333334, "type": "electric_scooter", "fusion_lat": 0.0, "lat": 38.91601933333333, "name": "7e8037503a3ebbd276f16c7245c9508e", "fusion_lon": 0.0, "bike_id": "7e8037503a3ebbd276f16c7245c9508e", "is_disabled": 0, "is_reserved": 0}, {"rental_uris": {"ios": "https://dc.lft.to/lastmile_qr_scan", "android": "https://dc.lft.to/lastmile_qr_scan"}, "lon": -77.0111225, "type": "electric_scooter", "fusion_lat": 0.0, "lat": 38.90357433333333, "name": "da66a4c0676f3bc4b95a02a3c9c76cd1", "fusion_lon": 0.0, "bike_id": "da66a4c0676f3bc4b95a02a3c9c76cd1", "is_disabled": 0, "is_reserved": 0}, {"rental_uris": {"ios": "https://dc.lft.to/lastmile_qr_scan", "android": "https://dc.lft.to/lastmile_qr_scan"}, "lon": -76.96526316666667, "type": "electric_scooter", "fusion_lat": 0.0, "lat": 38.8762845, "name": "f06030c829903a49308ea2601a364583", "fusion_lon": 0.0, "bike_id": "f06030c829903a49308ea2601a364583", "is_disabled": 0, "is_reserved": 0}, {"rental_uris": {"ios": "https://dc.lft.to/lastmile_qr_scan", "android": "https://dc.lft.to/lastmile_qr_scan"}, "lon": -77.0332085, "type": "electric_scooter", "fusion_lat": 0.0, "lat": 38.90538683333333, "name": "375e1363450c3c3959d3534f177f0f6b", "fusion_lon": 0.0, "bike_id": "375e1363450c3c3959d3534f177f0f6b", "is_disabled": 0, "is_reserved": 0}, {"rental_uris": {"ios": "https://dc.lft.to/lastmile_qr_scan", "android": "https://dc.lft.to/lastmile_qr_scan"}, "lon": -77.0401395, "type": "electric_scooter", "fusion_lat": 0.0, "lat": 38.9218425, "name": "c49a9dafde636068a826599e67ee89c7", "fusion_lon": 0.0, "bike_id": "c49a9dafde636068a826599e67ee89c7", "is_disabled": 0, "is_reserved": 0}, {"rental_uris": {"ios": "https://dc.lft.to/lastmile_qr_scan", "android": "https://dc.lft.to/lastmile_qr_scan"}, "lon": -77.022017, "type": "electric_scooter", "fusion_lat": 0.0, "lat": 38.91418183333333, "name": "c4770069ff9979f20e9ae52c5c164e36", "fusion_lon": 0.0, "bike_id": "c4770069ff9979f20e9ae52c5c164e36", "is_disabled": 0, "is_reserved": 0}, {"rental_uris": {"ios": "https://dc.lft.to/lastmile_qr_scan", "android": "https://dc.lft.to/lastmile_qr_scan"}, "lon": -76.9950415, "type": "electric_scooter", "fusion_lat": 0.0, "lat": 38.88097966666667, "name": "362919279d62ffbb5ed00ef5db0f7fd4", "fusion_lon": 0.0, "bike_id": "362919279d62ffbb5ed00ef5db0f7fd4", "is_disabled": 0, "is_reserved": 0}, {"rental_uris": {"ios": "https://dc.lft.to/lastmile_qr_scan", "android": "https://dc.lft.to/lastmile_qr_scan"}, "lon": -77.05325966666666, "type": "electric_scooter", "fusion_lat": 0.0, "lat": 38.9028575, "name": "49e22bba4e006abcb33f62efda159b5f", "fusion_lon": 0.0, "bike_id": "49e22bba4e006abcb33f62efda159b5f", "is_disabled": 0, "is_reserved": 0}, {"rental_uris": {"ios": "https://dc.lft.to/lastmile_qr_scan", "android": "https://dc.lft.to/lastmile_qr_scan"}, "lon": -77.0331565, "type": "electric_scooter", "fusion_lat": 0.0, "lat": 38.89886333333333, "name": "4e7e153572470ce630d94688b6e67936", "fusion_lon": 0.0, "bike_id": "4e7e153572470ce630d94688b6e67936", "is_disabled": 0, "is_reserved": 0}, {"rental_uris": {"ios": "https://dc.lft.to/lastmile_qr_scan", "android": "https://dc.lft.to/lastmile_qr_scan"}, "lon": -77.00211133333333, "type": "electric_scooter", "fusion_lat": 0.0, "lat": 38.90223916666667, "name": "b4442c894b029c8ba25426e1c8d8fbc0", "fusion_lon": 0.0, "bike_id": "b4442c894b029c8ba25426e1c8d8fbc0", "is_disabled": 0, "is_reserved": 0}, {"rental_uris": {"ios": "https://dc.lft.to/lastmile_qr_scan", "android": "https://dc.lft.to/lastmile_qr_scan"}, "lon": -77.0326555, "type": "electric_scooter", "fusion_lat": 0.0, "lat": 38.90405783333333, "name": "97263dfd171f9b6bc4d317fe424d5c77", "fusion_lon": 0.0, "bike_id": "97263dfd171f9b6bc4d317fe424d5c77", "is_disabled": 0, "is_reserved": 0}, {"rental_uris": {"ios": "https://dc.lft.to/lastmile_qr_scan", "android": "https://dc.lft.to/lastmile_qr_scan"}, "lon": -77.04658583333334, "type": "electric_scooter", "fusion_lat": 0.0, "lat": 38.893317, "name": "9974928d7489730cf5924fbb0ada1892", "fusion_lon": 0.0, "bike_id": "9974928d7489730cf5924fbb0ada1892", "is_disabled": 0, "is_reserved": 0}, {"rental_uris": {"ios": "https://dc.lft.to/lastmile_qr_scan", "android": "https://dc.lft.to/lastmile_qr_scan"}, "lon": -76.93177333333334, "type": "electric_scooter", "fusion_lat": 0.0, "lat": 38.89883066666667, "name": "97c23db39b05d7674bd8abb3b0af7665", "fusion_lon": 0.0, "bike_id": "97c23db39b05d7674bd8abb3b0af7665", "is_disabled": 0, "is_reserved": 0}, {"rental_uris": {"ios": "https://dc.lft.to/lastmile_qr_scan", "android": "https://dc.lft.to/lastmile_qr_scan"}, "lon": -77.01911666666666, "type": "electric_scooter", "fusion_lat": 0.0, "lat": 38.90243866666667, "name": "d1051cda015c6c6dc8d67dbc4a0d87eb", "fusion_lon": 0.0, "bike_id": "d1051cda015c6c6dc8d67dbc4a0d87eb", "is_disabled": 0, "is_reserved": 0}, {"rental_uris": {"ios": "https://dc.lft.to/lastmile_qr_scan", "android": "https://dc.lft.to/lastmile_qr_scan"}, "lon": -77.03179633333333, "type": "electric_scooter", "fusion_lat": 0.0, "lat": 38.886296, "name": "a1705ad73d5eaa943e83b2e28b9cb881", "fusion_lon": 0.0, "bike_id": "a1705ad73d5eaa943e83b2e28b9cb881", "is_disabled": 0, "is_reserved": 0}, {"rental_uris": {"ios": "https://dc.lft.to/lastmile_qr_scan", "android": "https://dc.lft.to/lastmile_qr_scan"}, "lon": -77.0239335, "type": "electric_scooter", "fusion_lat": 0.0, "lat": 38.887380666666665, "name": "82be3e8d3b93566e52ce51b057a62840", "fusion_lon": 0.0, "bike_id": "82be3e8d3b93566e52ce51b057a62840", "is_disabled": 0, "is_reserved": 0}, {"rental_uris": {"ios": "https://dc.lft.to/lastmile_qr_scan", "android": "https://dc.lft.to/lastmile_qr_scan"}, "lon": -77.06161366666667, "type": "electric_scooter", "fusion_lat": 0.0, "lat": 38.942231666666665, "name": "6025a2efe5687092db859ea68db8900f", "fusion_lon": 0.0, "bike_id": "6025a2efe5687092db859ea68db8900f", "is_disabled": 0, "is_reserved": 0}, {"rental_uris": {"ios": "https://dc.lft.to/lastmile_qr_scan", "android": "https://dc.lft.to/lastmile_qr_scan"}, "lon": -77.02493833333334, "type": "electric_scooter", "fusion_lat": 0.0, "lat": 38.918068833333336, "name": "46d2c4d7e273b6d0a6180af51988ebe9", "fusion_lon": 0.0, "bike_id": "46d2c4d7e273b6d0a6180af51988ebe9", "is_disabled": 0, "is_reserved": 0}, {"rental_uris": {"ios": "https://dc.lft.to/lastmile_qr_scan", "android": "https://dc.lft.to/lastmile_qr_scan"}, "lon": -77.03169383333334, "type": "electric_scooter", "fusion_lat": 0.0, "lat": 38.89609016666667, "name": "5476a851fea6d48cc2a1c82a531a2fea", "fusion_lon": 0.0, "bike_id": "5476a851fea6d48cc2a1c82a531a2fea", "is_disabled": 0, "is_reserved": 0}, {"rental_uris": {"ios": "https://dc.lft.to/lastmile_qr_scan", "android": "https://dc.lft.to/lastmile_qr_scan"}, "lon": -77.12743, "type": "electric_bike", "fusion_lat": 0.0, "lat": 38.88819933333333, "name": "ba014a6da6b0227628651d5c271699bf", "fusion_lon": 0.0, "bike_id": "ba014a6da6b0227628651d5c271699bf", "is_disabled": 0, "is_reserved": 0}, {"rental_uris": {"ios": "https://dc.lft.to/lastmile_qr_scan", "android": "https://dc.lft.to/lastmile_qr_scan"}, "lon": -77.0295195, "type": "electric_scooter", "fusion_lat": 0.0, "lat": 38.907767666666665, "name": "71996851435af4845bbf01ec3e86a489", "fusion_lon": 0.0, "bike_id": "71996851435af4845bbf01ec3e86a489", "is_disabled": 0, "is_reserved": 0}, {"rental_uris": {"ios": "https://dc.lft.to/lastmile_qr_scan", "android": "https://dc.lft.to/lastmile_qr_scan"}, "lon": -76.987677, "type": "electric_scooter", "fusion_lat": 0.0, "lat": 38.91172516666666, "name": "078bc1857974ca7962cbfee18e3923db", "fusion_lon": 0.0, "bike_id": "078bc1857974ca7962cbfee18e3923db", "is_disabled": 0, "is_reserved": 0}, {"rental_uris": {"ios": "https://dc.lft.to/lastmile_qr_scan", "android": "https://dc.lft.to/lastmile_qr_scan"}, "lon": -76.93158516666666, "type": "electric_scooter", "fusion_lat": 0.0, "lat": 38.89879883333333, "name": "6dfbae0abf731ceaa442796f212442a3", "fusion_lon": 0.0, "bike_id": "6dfbae0abf731ceaa442796f212442a3", "is_disabled": 0, "is_reserved": 0}, {"rental_uris": {"ios": "https://dc.lft.to/lastmile_qr_scan", "android": "https://dc.lft.to/lastmile_qr_scan"}, "lon": -77.033797, "type": "electric_scooter", "fusion_lat": 0.0, "lat": 38.910411833333335, "name": "c7e91bb056c1ebeb821c1fdc2b6cfc35", "fusion_lon": 0.0, "bike_id": "c7e91bb056c1ebeb821c1fdc2b6cfc35", "is_disabled": 0, "is_reserved": 0}, {"rental_uris": {"ios": "https://dc.lft.to/lastmile_qr_scan", "android": "https://dc.lft.to/lastmile_qr_scan"}, "lon": -77.04704433333333, "type": "electric_scooter", "fusion_lat": 0.0, "lat": 38.90233283333333, "name": "f431c496f37a853ace62bf8f5becc889", "fusion_lon": 0.0, "bike_id": "f431c496f37a853ace62bf8f5becc889", "is_disabled": 0, "is_reserved": 0}, {"rental_uris": {"ios": "https://dc.lft.to/lastmile_qr_scan", "android": "https://dc.lft.to/lastmile_qr_scan"}, "lon": -77.03412516666667, "type": "electric_scooter", "fusion_lat": 0.0, "lat": 38.909745, "name": "7cb8ebacd5965f3da211291064648eec", "fusion_lon": 0.0, "bike_id": "7cb8ebacd5965f3da211291064648eec", "is_disabled": 0, "is_reserved": 0}, {"rental_uris": {"ios": "https://dc.lft.to/lastmile_qr_scan", "android": "https://dc.lft.to/lastmile_qr_scan"}, "lon": -76.93523783333333, "type": "electric_scooter", "fusion_lat": 0.0, "lat": 38.908736166666664, "name": "7de1ebac6dc51a087aee3de818f8a149", "fusion_lon": 0.0, "bike_id": "7de1ebac6dc51a087aee3de818f8a149", "is_disabled": 0, "is_reserved": 0}, {"rental_uris": {"ios": "https://dc.lft.to/lastmile_qr_scan", "android": "https://dc.lft.to/lastmile_qr_scan"}, "lon": -76.9915915, "type": "electric_scooter", "fusion_lat": 0.0, "lat": 38.893449333333336, "name": "2b7242632f46cca9fd5086511505cc3b", "fusion_lon": 0.0, "bike_id": "2b7242632f46cca9fd5086511505cc3b", "is_disabled": 0, "is_reserved": 0}, {"rental_uris": {"ios": "https://dc.lft.to/lastmile_qr_scan", "android": "https://dc.lft.to/lastmile_qr_scan"}, "lon": -76.93810966666666, "type": "electric_scooter", "fusion_lat": 0.0, "lat": 38.913065833333334, "name": "68a171b416fa427a431e901928ef50aa", "fusion_lon": 0.0, "bike_id": "68a171b416fa427a431e901928ef50aa", "is_disabled": 0, "is_reserved": 0}, {"rental_uris": {"ios": "https://dc.lft.to/lastmile_qr_scan", "android": "https://dc.lft.to/lastmile_qr_scan"}, "lon": -77.05005266666667, "type": "electric_scooter", "fusion_lat": 0.0, "lat": 38.90184933333333, "name": "175a73a8627c18ec725172997b83eb43", "fusion_lon": 0.0, "bike_id": "175a73a8627c18ec725172997b83eb43", "is_disabled": 0, "is_reserved": 0}, {"rental_uris": {"ios": "https://dc.lft.to/lastmile_qr_scan", "android": "https://dc.lft.to/lastmile_qr_scan"}, "lon": -77.01105283333334, "type": "electric_bike", "fusion_lat": 0.0, "lat": 38.963096, "name": "38d75984637aa3ede4309567bc77ecd4", "fusion_lon": 0.0, "bike_id": "38d75984637aa3ede4309567bc77ecd4", "is_disabled": 0, "is_reserved": 0}, {"rental_uris": {"ios": "https://dc.lft.to/lastmile_qr_scan", "android": "https://dc.lft.to/lastmile_qr_scan"}, "lon": -77.10896966666667, "type": "electric_bike", "fusion_lat": 0.0, "lat": 38.83042366666667, "name": "68689ebc90bb59e28430d87d2dfe0515", "fusion_lon": 0.0, "bike_id": "68689ebc90bb59e28430d87d2dfe0515", "is_disabled": 0, "is_reserved": 0}, {"rental_uris": {"ios": "https://dc.lft.to/lastmile_qr_scan", "android": "https://dc.lft.to/lastmile_qr_scan"}, "lon": -77.01232133333333, "type": "electric_bike", "fusion_lat": 0.0, "lat": 38.928792666666666, "name": "222a00e3a69cb95d1df40bb5ff82cfa7", "fusion_lon": 0.0, "bike_id": "222a00e3a69cb95d1df40bb5ff82cfa7", "is_disabled": 0, "is_reserved": 0}, {"rental_uris": {"ios": "https://dc.lft.to/lastmile_qr_scan", "android": "https://dc.lft.to/lastmile_qr_scan"}, "lon": -77.04337483333333, "type": "electric_scooter", "fusion_lat": 0.0, "lat": 38.9087805, "name": "6c48fb21567289823eb36857a354935d", "fusion_lon": 0.0, "bike_id": "6c48fb21567289823eb36857a354935d", "is_disabled": 0, "is_reserved": 0}, {"rental_uris": {"ios": "https://dc.lft.to/lastmile_qr_scan", "android": "https://dc.lft.to/lastmile_qr_scan"}, "lon": -77.04196466666667, "type": "electric_scooter", "fusion_lat": 0.0, "lat": 38.921195833333336, "name": "d3ede78b6965444e7c11f104d9754213", "fusion_lon": 0.0, "bike_id": "d3ede78b6965444e7c11f104d9754213", "is_disabled": 0, "is_reserved": 0}, {"rental_uris": {"ios": "https://dc.lft.to/lastmile_qr_scan", "android": "https://dc.lft.to/lastmile_qr_scan"}, "lon": -76.97327283333334, "type": "electric_scooter", "fusion_lat": 0.0, "lat": 38.904787666666664, "name": "49b89e86441e7406dd2369e7c45c078e", "fusion_lon": 0.0, "bike_id": "49b89e86441e7406dd2369e7c45c078e", "is_disabled": 0, "is_reserved": 0}, {"rental_uris": {"ios": "https://dc.lft.to/lastmile_qr_scan", "android": "https://dc.lft.to/lastmile_qr_scan"}, "lon": -77.02596566666666, "type": "electric_scooter", "fusion_lat": 0.0, "lat": 38.89829016666667, "name": "955db9285a35be03e8e1e5253670e2e3", "fusion_lon": 0.0, "bike_id": "955db9285a35be03e8e1e5253670e2e3", "is_disabled": 0, "is_reserved": 0}, {"rental_uris": {"ios": "https://dc.lft.to/lastmile_qr_scan", "android": "https://dc.lft.to/lastmile_qr_scan"}, "lon": -76.99153333333334, "type": "electric_scooter", "fusion_lat": 0.0, "lat": 38.882389833333335, "name": "ee295c5e458c4955734ca6267905e61d", "fusion_lon": 0.0, "bike_id": "ee295c5e458c4955734ca6267905e61d", "is_disabled": 0, "is_reserved": 0}, {"rental_uris": {"ios": "https://dc.lft.to/lastmile_qr_scan", "android": "https://dc.lft.to/lastmile_qr_scan"}, "lon": -77.02927066666666, "type": "electric_scooter", "fusion_lat": 0.0, "lat": 38.89839766666667, "name": "4d3457e44e7953c21d6f0398e1a93c69", "fusion_lon": 0.0, "bike_id": "4d3457e44e7953c21d6f0398e1a93c69", "is_disabled": 0, "is_reserved": 0}, {"rental_uris": {"ios": "https://dc.lft.to/lastmile_qr_scan", "android": "https://dc.lft.to/lastmile_qr_scan"}, "lon": -77.00133616666666, "type": "electric_scooter", "fusion_lat": 0.0, "lat": 38.90414666666667, "name": "4de931b23139c12875109ac3b85228b7", "fusion_lon": 0.0, "bike_id": "4de931b23139c12875109ac3b85228b7", "is_disabled": 0, "is_reserved": 0}, {"rental_uris": {"ios": "https://dc.lft.to/lastmile_qr_scan", "android": "https://dc.lft.to/lastmile_qr_scan"}, "lon": -77.0296285, "type": "electric_scooter", "fusion_lat": 0.0, "lat": 38.924087166666666, "name": "c5dff8b5de9aa664619df7ffcb512101", "fusion_lon": 0.0, "bike_id": "c5dff8b5de9aa664619df7ffcb512101", "is_disabled": 0, "is_reserved": 0}, {"rental_uris": {"ios": "https://dc.lft.to/lastmile_qr_scan", "android": "https://dc.lft.to/lastmile_qr_scan"}, "lon": -77.014068, "type": "electric_scooter", "fusion_lat": 0.0, "lat": 38.92831616666667, "name": "41af33a096f984c83d8f81387c15aa3c", "fusion_lon": 0.0, "bike_id": "41af33a096f984c83d8f81387c15aa3c", "is_disabled": 0, "is_reserved": 0}, {"rental_uris": {"ios": "https://dc.lft.to/lastmile_qr_scan", "android": "https://dc.lft.to/lastmile_qr_scan"}, "lon": -76.9832445, "type": "electric_scooter", "fusion_lat": 0.0, "lat": 38.861727, "name": "d0a852aa502d38b7485e3c2c0371e226", "fusion_lon": 0.0, "bike_id": "d0a852aa502d38b7485e3c2c0371e226", "is_disabled": 0, "is_reserved": 0}, {"rental_uris": {"ios": "https://dc.lft.to/lastmile_qr_scan", "android": "https://dc.lft.to/lastmile_qr_scan"}, "lon": -77.02359033333333, "type": "electric_scooter", "fusion_lat": 0.0, "lat": 38.9251755, "name": "daf6c44ab2f51c30d8709de6a350341c", "fusion_lon": 0.0, "bike_id": "daf6c44ab2f51c30d8709de6a350341c", "is_disabled": 0, "is_reserved": 0}, {"rental_uris": {"ios": "https://dc.lft.to/lastmile_qr_scan", "android": "https://dc.lft.to/lastmile_qr_scan"}, "lon": -77.05300516666667, "type": "electric_scooter", "fusion_lat": 0.0, "lat": 38.925584666666666, "name": "1f0de1091717c94397aae48aabc901c0", "fusion_lon": 0.0, "bike_id": "1f0de1091717c94397aae48aabc901c0", "is_disabled": 0, "is_reserved": 0}, {"rental_uris": {"ios": "https://dc.lft.to/lastmile_qr_scan", "android": "https://dc.lft.to/lastmile_qr_scan"}, "lon": -77.152678, "type": "electric_bike", "fusion_lat": 0.0, "lat": 39.105647833333336, "name": "6378c0dadc6614c7489f1e6fd1d5f24e", "fusion_lon": 0.0, "bike_id": "6378c0dadc6614c7489f1e6fd1d5f24e", "is_disabled": 0, "is_reserved": 0}, {"rental_uris": {"ios": "https://dc.lft.to/lastmile_qr_scan", "android": "https://dc.lft.to/lastmile_qr_scan"}, "lon": -77.03460766666667, "type": "electric_scooter", "fusion_lat": 0.0, "lat": 38.918213333333334, "name": "603c0b744dd229abdd3f35b9427d126e", "fusion_lon": 0.0, "bike_id": "603c0b744dd229abdd3f35b9427d126e", "is_disabled": 0, "is_reserved": 0}, {"rental_uris": {"ios": "https://dc.lft.to/lastmile_qr_scan", "android": "https://dc.lft.to/lastmile_qr_scan"}, "lon": -76.95756316666666, "type": "electric_scooter", "fusion_lat": 0.0, "lat": 38.884295, "name": "f9df085c6d05cf7238c23dbe61459c14", "fusion_lon": 0.0, "bike_id": "f9df085c6d05cf7238c23dbe61459c14", "is_disabled": 0, "is_reserved": 0}, {"rental_uris": {"ios": "https://dc.lft.to/lastmile_qr_scan", "android": "https://dc.lft.to/lastmile_qr_scan"}, "lon": -77.029513, "type": "electric_scooter", "fusion_lat": 0.0, "lat": 38.917230333333336, "name": "216114a02b8b41e673e5baf3c4318e84", "fusion_lon": 0.0, "bike_id": "216114a02b8b41e673e5baf3c4318e84", "is_disabled": 0, "is_reserved": 0}, {"rental_uris": {"ios": "https://dc.lft.to/lastmile_qr_scan", "android": "https://dc.lft.to/lastmile_qr_scan"}, "lon": -77.05360366666666, "type": "electric_scooter", "fusion_lat": 0.0, "lat": 38.92794216666667, "name": "e603677131090b382abd025efd1aa8f0", "fusion_lon": 0.0, "bike_id": "e603677131090b382abd025efd1aa8f0", "is_disabled": 0, "is_reserved": 0}, {"rental_uris": {"ios": "https://dc.lft.to/lastmile_qr_scan", "android": "https://dc.lft.to/lastmile_qr_scan"}, "lon": -77.029965, "type": "electric_scooter", "fusion_lat": 0.0, "lat": 38.9102195, "name": "700ff6b5cc6e8d6cf2eb4f9ef46a346f", "fusion_lon": 0.0, "bike_id": "700ff6b5cc6e8d6cf2eb4f9ef46a346f", "is_disabled": 0, "is_reserved": 0}, {"rental_uris": {"ios": "https://dc.lft.to/lastmile_qr_scan", "android": "https://dc.lft.to/lastmile_qr_scan"}, "lon": -77.04037833333334, "type": "electric_bike", "fusion_lat": 0.0, "lat": 38.901738, "name": "144f3ad96859a4042621ac1831b2d2bb", "fusion_lon": 0.0, "bike_id": "144f3ad96859a4042621ac1831b2d2bb", "is_disabled": 0, "is_reserved": 0}, {"rental_uris": {"ios": "https://dc.lft.to/lastmile_qr_scan", "android": "https://dc.lft.to/lastmile_qr_scan"}, "lon": -77.002568, "type": "electric_scooter", "fusion_lat": 0.0, "lat": 38.907258166666665, "name": "4f74a6207f8c0b76ebf451ed8740d5b2", "fusion_lon": 0.0, "bike_id": "4f74a6207f8c0b76ebf451ed8740d5b2", "is_disabled": 0, "is_reserved": 0}, {"rental_uris": {"ios": "https://dc.lft.to/lastmile_qr_scan", "android": "https://dc.lft.to/lastmile_qr_scan"}, "lon": -77.0233865, "type": "electric_scooter", "fusion_lat": 0.0, "lat": 38.929318, "name": "baa018a8b032bed387210ec9e713e46c", "fusion_lon": 0.0, "bike_id": "baa018a8b032bed387210ec9e713e46c", "is_disabled": 0, "is_reserved": 0}, {"rental_uris": {"ios": "https://dc.lft.to/lastmile_qr_scan", "android": "https://dc.lft.to/lastmile_qr_scan"}, "lon": -76.95658483333334, "type": "electric_scooter", "fusion_lat": 0.0, "lat": 38.89614983333333, "name": "4f23108cfe9c636ac2afcde559ce132f", "fusion_lon": 0.0, "bike_id": "4f23108cfe9c636ac2afcde559ce132f", "is_disabled": 0, "is_reserved": 0}, {"rental_uris": {"ios": "https://dc.lft.to/lastmile_qr_scan", "android": "https://dc.lft.to/lastmile_qr_scan"}, "lon": -77.03438266666667, "type": "electric_scooter", "fusion_lat": 0.0, "lat": 38.91793333333333, "name": "d2cbe625d1333fcf786e9f4fb7605798", "fusion_lon": 0.0, "bike_id": "d2cbe625d1333fcf786e9f4fb7605798", "is_disabled": 0, "is_reserved": 0}, {"rental_uris": {"ios": "https://dc.lft.to/lastmile_qr_scan", "android": "https://dc.lft.to/lastmile_qr_scan"}, "lon": -76.9725205, "type": "electric_bike", "fusion_lat": 0.0, "lat": 38.957427, "name": "198941a8594234d2625359186bd4c535", "fusion_lon": 0.0, "bike_id": "198941a8594234d2625359186bd4c535", "is_disabled": 0, "is_reserved": 0}, {"rental_uris": {"ios": "https://dc.lft.to/lastmile_qr_scan", "android": "https://dc.lft.to/lastmile_qr_scan"}, "lon": -77.03314916666666, "type": "electric_scooter", "fusion_lat": 0.0, "lat": 38.9254775, "name": "568048c9e3a1ca6f0c84da00d963f4ab", "fusion_lon": 0.0, "bike_id": "568048c9e3a1ca6f0c84da00d963f4ab", "is_disabled": 0, "is_reserved": 0}, {"rental_uris": {"ios": "https://dc.lft.to/lastmile_qr_scan", "android": "https://dc.lft.to/lastmile_qr_scan"}, "lon": -76.946537, "type": "electric_scooter", "fusion_lat": 0.0, "lat": 38.89828333333333, "name": "a6f23330fd83f8929f1c4d9d8a72b763", "fusion_lon": 0.0, "bike_id": "a6f23330fd83f8929f1c4d9d8a72b763", "is_disabled": 0, "is_reserved": 0}, {"rental_uris": {"ios": "https://dc.lft.to/lastmile_qr_scan", "android": "https://dc.lft.to/lastmile_qr_scan"}, "lon": -77.18740566666666, "type": "electric_bike", "fusion_lat": 0.0, "lat": 38.893526333333334, "name": "a96b29449e14544d1c3eec7821990430", "fusion_lon": 0.0, "bike_id": "a96b29449e14544d1c3eec7821990430", "is_disabled": 0, "is_reserved": 0}, {"rental_uris": {"ios": "https://dc.lft.to/lastmile_qr_scan", "android": "https://dc.lft.to/lastmile_qr_scan"}, "lon": -77.0258415, "type": "electric_scooter", "fusion_lat": 0.0, "lat": 38.90377616666667, "name": "e24575e4de72b78b6a3a2036ceb38f77", "fusion_lon": 0.0, "bike_id": "e24575e4de72b78b6a3a2036ceb38f77", "is_disabled": 0, "is_reserved": 0}, {"rental_uris": {"ios": "https://dc.lft.to/lastmile_qr_scan", "android": "https://dc.lft.to/lastmile_qr_scan"}, "lon": -77.0426975, "type": "electric_scooter", "fusion_lat": 0.0, "lat": 38.92242383333333, "name": "abadf5bdbdfbc4e48c857d99cb7b334b", "fusion_lon": 0.0, "bike_id": "abadf5bdbdfbc4e48c857d99cb7b334b", "is_disabled": 0, "is_reserved": 0}, {"rental_uris": {"ios": "https://dc.lft.to/lastmile_qr_scan", "android": "https://dc.lft.to/lastmile_qr_scan"}, "lon": -77.00038816666667, "type": "electric_scooter", "fusion_lat": 0.0, "lat": 38.91977633333333, "name": "1744efe082ee5a848c7181be21b6947d", "fusion_lon": 0.0, "bike_id": "1744efe082ee5a848c7181be21b6947d", "is_disabled": 0, "is_reserved": 0}, {"rental_uris": {"ios": "https://dc.lft.to/lastmile_qr_scan", "android": "https://dc.lft.to/lastmile_qr_scan"}, "lon": -77.02393083333334, "type": "electric_scooter", "fusion_lat": 0.0, "lat": 38.957386166666666, "name": "927b412beb683ab9c8d4d615f6f6e063", "fusion_lon": 0.0, "bike_id": "927b412beb683ab9c8d4d615f6f6e063", "is_disabled": 0, "is_reserved": 0}, {"rental_uris": {"ios": "https://dc.lft.to/lastmile_qr_scan", "android": "https://dc.lft.to/lastmile_qr_scan"}, "lon": -76.99620816666666, "type": "electric_scooter", "fusion_lat": 0.0, "lat": 38.885537666666664, "name": "6d620e618fb838ea74268b554adc4e0a", "fusion_lon": 0.0, "bike_id": "6d620e618fb838ea74268b554adc4e0a", "is_disabled": 0, "is_reserved": 0}, {"rental_uris": {"ios": "https://dc.lft.to/lastmile_qr_scan", "android": "https://dc.lft.to/lastmile_qr_scan"}, "lon": -76.98730366666666, "type": "electric_scooter", "fusion_lat": 0.0, "lat": 38.867135, "name": "9a3f2fb961d002dbddbf3331ead3b4c9", "fusion_lon": 0.0, "bike_id": "9a3f2fb961d002dbddbf3331ead3b4c9", "is_disabled": 0, "is_reserved": 0}, {"rental_uris": {"ios": "https://dc.lft.to/lastmile_qr_scan", "android": "https://dc.lft.to/lastmile_qr_scan"}, "lon": -77.05514366666667, "type": "electric_scooter", "fusion_lat": 0.0, "lat": 38.93000333333333, "name": "05605797e9bf627cfe00dcde2b339adf", "fusion_lon": 0.0, "bike_id": "05605797e9bf627cfe00dcde2b339adf", "is_disabled": 0, "is_reserved": 0}, {"rental_uris": {"ios": "https://dc.lft.to/lastmile_qr_scan", "android": "https://dc.lft.to/lastmile_qr_scan"}, "lon": -77.01119016666667, "type": "electric_scooter", "fusion_lat": 0.0, "lat": 38.8707315, "name": "06a03066ad554ef1ef8ab30bcd0960e1", "fusion_lon": 0.0, "bike_id": "06a03066ad554ef1ef8ab30bcd0960e1", "is_disabled": 0, "is_reserved": 0}, {"rental_uris": {"ios": "https://dc.lft.to/lastmile_qr_scan", "android": "https://dc.lft.to/lastmile_qr_scan"}, "lon": -77.0538395, "type": "electric_scooter", "fusion_lat": 0.0, "lat": 38.910519, "name": "45f09dacf42ab8fc1ab43ce540f4d110", "fusion_lon": 0.0, "bike_id": "45f09dacf42ab8fc1ab43ce540f4d110", "is_disabled": 0, "is_reserved": 0}, {"rental_uris": {"ios": "https://dc.lft.to/lastmile_qr_scan", "android": "https://dc.lft.to/lastmile_qr_scan"}, "lon": -77.007922, "type": "electric_scooter", "fusion_lat": 0.0, "lat": 38.89720366666667, "name": "bf0b20509546dfdeda135522f40094f2", "fusion_lon": 0.0, "bike_id": "bf0b20509546dfdeda135522f40094f2", "is_disabled": 0, "is_reserved": 0}, {"rental_uris": {"ios": "https://dc.lft.to/lastmile_qr_scan", "android": "https://dc.lft.to/lastmile_qr_scan"}, "lon": -77.04360816666667, "type": "electric_scooter", "fusion_lat": 0.0, "lat": 38.9207265, "name": "80c50ad963fded5c02daf2ead2bbe534", "fusion_lon": 0.0, "bike_id": "80c50ad963fded5c02daf2ead2bbe534", "is_disabled": 0, "is_reserved": 0}, {"rental_uris": {"ios": "https://dc.lft.to/lastmile_qr_scan", "android": "https://dc.lft.to/lastmile_qr_scan"}, "lon": -77.02523933333333, "type": "electric_scooter", "fusion_lat": 0.0, "lat": 38.93297233333333, "name": "98accdcf37f834fc496f609597e150d2", "fusion_lon": 0.0, "bike_id": "98accdcf37f834fc496f609597e150d2", "is_disabled": 0, "is_reserved": 0}, {"rental_uris": {"ios": "https://dc.lft.to/lastmile_qr_scan", "android": "https://dc.lft.to/lastmile_qr_scan"}, "lon": -76.98863866666667, "type": "electric_scooter", "fusion_lat": 0.0, "lat": 38.90032566666667, "name": "e2ba509f66ac432de4a712fcdaa54759", "fusion_lon": 0.0, "bike_id": "e2ba509f66ac432de4a712fcdaa54759", "is_disabled": 0, "is_reserved": 0}, {"rental_uris": {"ios": "https://dc.lft.to/lastmile_qr_scan", "android": "https://dc.lft.to/lastmile_qr_scan"}, "lon": -76.97559683333333, "type": "electric_bike", "fusion_lat": 0.0, "lat": 38.8727265, "name": "b987a1ea94b843563843f3417e6b631a", "fusion_lon": 0.0, "bike_id": "b987a1ea94b843563843f3417e6b631a", "is_disabled": 0, "is_reserved": 0}, {"rental_uris": {"ios": "https://dc.lft.to/lastmile_qr_scan", "android": "https://dc.lft.to/lastmile_qr_scan"}, "lon": -77.00192816666667, "type": "electric_scooter", "fusion_lat": 0.0, "lat": 38.8987835, "name": "c7cf5b04ff1b00c3306ba1c1e1daff9d", "fusion_lon": 0.0, "bike_id": "c7cf5b04ff1b00c3306ba1c1e1daff9d", "is_disabled": 0, "is_reserved": 0}, {"rental_uris": {"ios": "https://dc.lft.to/lastmile_qr_scan", "android": "https://dc.lft.to/lastmile_qr_scan"}, "lon": -77.01186816666667, "type": "electric_scooter", "fusion_lat": 0.0, "lat": 38.90020166666667, "name": "a25f6195b69f2a643e203082e1b813ad", "fusion_lon": 0.0, "bike_id": "a25f6195b69f2a643e203082e1b813ad", "is_disabled": 0, "is_reserved": 0}, {"rental_uris": {"ios": "https://dc.lft.to/lastmile_qr_scan", "android": "https://dc.lft.to/lastmile_qr_scan"}, "lon": -76.99483783333334, "type": "electric_scooter", "fusion_lat": 0.0, "lat": 38.89563583333333, "name": "b37d9398d15539a6ad10d2f4e3cb28de", "fusion_lon": 0.0, "bike_id": "b37d9398d15539a6ad10d2f4e3cb28de", "is_disabled": 0, "is_reserved": 0}, {"rental_uris": {"ios": "https://dc.lft.to/lastmile_qr_scan", "android": "https://dc.lft.to/lastmile_qr_scan"}, "lon": -77.03202233333333, "type": "electric_scooter", "fusion_lat": 0.0, "lat": 38.91303816666667, "name": "c282d80c7a083e09bd67690bbff9ea60", "fusion_lon": 0.0, "bike_id": "c282d80c7a083e09bd67690bbff9ea60", "is_disabled": 0, "is_reserved": 0}, {"rental_uris": {"ios": "https://dc.lft.to/lastmile_qr_scan", "android": "https://dc.lft.to/lastmile_qr_scan"}, "lon": -77.01922566666667, "type": "electric_scooter", "fusion_lat": 0.0, "lat": 38.94640066666667, "name": "b27dd3e1fcf7d84c08502d6078a026dd", "fusion_lon": 0.0, "bike_id": "b27dd3e1fcf7d84c08502d6078a026dd", "is_disabled": 0, "is_reserved": 0}, {"rental_uris": {"ios": "https://dc.lft.to/lastmile_qr_scan", "android": "https://dc.lft.to/lastmile_qr_scan"}, "lon": -77.0381055, "type": "electric_scooter", "fusion_lat": 0.0, "lat": 38.92556916666667, "name": "ee293a6097885f29f592aed0488e1604", "fusion_lon": 0.0, "bike_id": "ee293a6097885f29f592aed0488e1604", "is_disabled": 0, "is_reserved": 0}, {"rental_uris": {"ios": "https://dc.lft.to/lastmile_qr_scan", "android": "https://dc.lft.to/lastmile_qr_scan"}, "lon": -77.02060783333333, "type": "electric_scooter", "fusion_lat": 0.0, "lat": 38.920174333333335, "name": "8a194316a8023a41d014d10702ae866c", "fusion_lon": 0.0, "bike_id": "8a194316a8023a41d014d10702ae866c", "is_disabled": 0, "is_reserved": 0}, {"rental_uris": {"ios": "https://dc.lft.to/lastmile_qr_scan", "android": "https://dc.lft.to/lastmile_qr_scan"}, "lon": -77.0338875, "type": "electric_scooter", "fusion_lat": 0.0, "lat": 38.92155116666667, "name": "a0fa800481e87572de05a534f3213c76", "fusion_lon": 0.0, "bike_id": "a0fa800481e87572de05a534f3213c76", "is_disabled": 0, "is_reserved": 0}, {"rental_uris": {"ios": "https://dc.lft.to/lastmile_qr_scan", "android": "https://dc.lft.to/lastmile_qr_scan"}, "lon": -77.02495366666666, "type": "electric_scooter", "fusion_lat": 0.0, "lat": 38.9429155, "name": "21d528f6d10eaa7f3ac6179954812336", "fusion_lon": 0.0, "bike_id": "21d528f6d10eaa7f3ac6179954812336", "is_disabled": 0, "is_reserved": 0}, {"rental_uris": {"ios": "https://dc.lft.to/lastmile_qr_scan", "android": "https://dc.lft.to/lastmile_qr_scan"}, "lon": -77.0268685, "type": "electric_scooter", "fusion_lat": 0.0, "lat": 38.899981, "name": "c5d9ef23dec7e1d93183e860dc2c79e3", "fusion_lon": 0.0, "bike_id": "c5d9ef23dec7e1d93183e860dc2c79e3", "is_disabled": 0, "is_reserved": 0}, {"rental_uris": {"ios": "https://dc.lft.to/lastmile_qr_scan", "android": "https://dc.lft.to/lastmile_qr_scan"}, "lon": -77.015118, "type": "electric_scooter", "fusion_lat": 0.0, "lat": 38.91344733333333, "name": "52986c9720af1c4ab02319b2a22c34f0", "fusion_lon": 0.0, "bike_id": "52986c9720af1c4ab02319b2a22c34f0", "is_disabled": 0, "is_reserved": 0}, {"rental_uris": {"ios": "https://dc.lft.to/lastmile_qr_scan", "android": "https://dc.lft.to/lastmile_qr_scan"}, "lon": -76.9987925, "type": "electric_scooter", "fusion_lat": 0.0, "lat": 38.90755583333333, "name": "c32d2506f5565b00582505696d834725", "fusion_lon": 0.0, "bike_id": "c32d2506f5565b00582505696d834725", "is_disabled": 0, "is_reserved": 0}, {"rental_uris": {"ios": "https://dc.lft.to/lastmile_qr_scan", "android": "https://dc.lft.to/lastmile_qr_scan"}, "lon": -77.0004195, "type": "electric_scooter", "fusion_lat": 0.0, "lat": 38.90687533333333, "name": "c50c1aaab5bd3f8bf689bf6ef47fd784", "fusion_lon": 0.0, "bike_id": "c50c1aaab5bd3f8bf689bf6ef47fd784", "is_disabled": 0, "is_reserved": 0}, {"rental_uris": {"ios": "https://dc.lft.to/lastmile_qr_scan", "android": "https://dc.lft.to/lastmile_qr_scan"}, "lon": -77.031654, "type": "electric_scooter", "fusion_lat": 0.0, "lat": 38.914163, "name": "678805b01939c81317c1f8c2a2069d11", "fusion_lon": 0.0, "bike_id": "678805b01939c81317c1f8c2a2069d11", "is_disabled": 0, "is_reserved": 0}, {"rental_uris": {"ios": "https://dc.lft.to/lastmile_qr_scan", "android": "https://dc.lft.to/lastmile_qr_scan"}, "lon": -77.02651333333333, "type": "electric_bike", "fusion_lat": 0.0, "lat": 38.938632166666665, "name": "7636a12fd56c2fea8af3484a4a081c75", "fusion_lon": 0.0, "bike_id": "7636a12fd56c2fea8af3484a4a081c75", "is_disabled": 0, "is_reserved": 0}, {"rental_uris": {"ios": "https://dc.lft.to/lastmile_qr_scan", "android": "https://dc.lft.to/lastmile_qr_scan"}, "lon": -77.04178116666667, "type": "electric_scooter", "fusion_lat": 0.0, "lat": 38.915180666666664, "name": "4e34dbebd8c47ea2ef11f51adf0ba470", "fusion_lon": 0.0, "bike_id": "4e34dbebd8c47ea2ef11f51adf0ba470", "is_disabled": 0, "is_reserved": 0}, {"rental_uris": {"ios": "https://dc.lft.to/lastmile_qr_scan", "android": "https://dc.lft.to/lastmile_qr_scan"}, "lon": -77.06474933333334, "type": "electric_bike", "fusion_lat": 0.0, "lat": 38.97382233333333, "name": "844f75198c296c96c136fd05b8527d13", "fusion_lon": 0.0, "bike_id": "844f75198c296c96c136fd05b8527d13", "is_disabled": 0, "is_reserved": 0}, {"rental_uris": {"ios": "https://dc.lft.to/lastmile_qr_scan", "android": "https://dc.lft.to/lastmile_qr_scan"}, "lon": -77.0050725, "type": "electric_scooter", "fusion_lat": 0.0, "lat": 38.87537233333333, "name": "4b21380a09032c0f3f28096f19d428a5", "fusion_lon": 0.0, "bike_id": "4b21380a09032c0f3f28096f19d428a5", "is_disabled": 0, "is_reserved": 0}, {"rental_uris": {"ios": "https://dc.lft.to/lastmile_qr_scan", "android": "https://dc.lft.to/lastmile_qr_scan"}, "lon": -77.002226, "type": "electric_scooter", "fusion_lat": 0.0, "lat": 38.905091166666665, "name": "cc7c1607a16238150762d97ed0830348", "fusion_lon": 0.0, "bike_id": "cc7c1607a16238150762d97ed0830348", "is_disabled": 0, "is_reserved": 0}, {"rental_uris": {"ios": "https://dc.lft.to/lastmile_qr_scan", "android": "https://dc.lft.to/lastmile_qr_scan"}, "lon": -77.02065616666667, "type": "electric_scooter", "fusion_lat": 0.0, "lat": 38.90403166666667, "name": "33b5c318117001343e70d8b47cc557ec", "fusion_lon": 0.0, "bike_id": "33b5c318117001343e70d8b47cc557ec", "is_disabled": 0, "is_reserved": 0}, {"rental_uris": {"ios": "https://dc.lft.to/lastmile_qr_scan", "android": "https://dc.lft.to/lastmile_qr_scan"}, "lon": -76.99172033333333, "type": "electric_scooter", "fusion_lat": 0.0, "lat": 38.879247666666664, "name": "006f72659ae37237b19c378eb87e7d97", "fusion_lon": 0.0, "bike_id": "006f72659ae37237b19c378eb87e7d97", "is_disabled": 0, "is_reserved": 0}, {"rental_uris": {"ios": "https://dc.lft.to/lastmile_qr_scan", "android": "https://dc.lft.to/lastmile_qr_scan"}, "lon": -77.02178933333333, "type": "electric_scooter", "fusion_lat": 0.0, "lat": 38.9140725, "name": "60ac3cd560fa2bdbc51390d877951c2d", "fusion_lon": 0.0, "bike_id": "60ac3cd560fa2bdbc51390d877951c2d", "is_disabled": 0, "is_reserved": 0}, {"rental_uris": {"ios": "https://dc.lft.to/lastmile_qr_scan", "android": "https://dc.lft.to/lastmile_qr_scan"}, "lon": -77.04102883333333, "type": "electric_scooter", "fusion_lat": 0.0, "lat": 38.92367083333333, "name": "df9a8c6f425c6963a7e0ede4e9e5736e", "fusion_lon": 0.0, "bike_id": "df9a8c6f425c6963a7e0ede4e9e5736e", "is_disabled": 0, "is_reserved": 0}, {"rental_uris": {"ios": "https://dc.lft.to/lastmile_qr_scan", "android": "https://dc.lft.to/lastmile_qr_scan"}, "lon": -77.01482683333333, "type": "electric_scooter", "fusion_lat": 0.0, "lat": 38.9187525, "name": "4fbb2622797c882af9b7ab98c22d0c2f", "fusion_lon": 0.0, "bike_id": "4fbb2622797c882af9b7ab98c22d0c2f", "is_disabled": 0, "is_reserved": 0}, {"rental_uris": {"ios": "https://dc.lft.to/lastmile_qr_scan", "android": "https://dc.lft.to/lastmile_qr_scan"}, "lon": -77.0256705, "type": "electric_scooter", "fusion_lat": 0.0, "lat": 38.887487, "name": "df2e636368fc82f8b9709256e1fd50d1", "fusion_lon": 0.0, "bike_id": "df2e636368fc82f8b9709256e1fd50d1", "is_disabled": 0, "is_reserved": 0}, {"rental_uris": {"ios": "https://dc.lft.to/lastmile_qr_scan", "android": "https://dc.lft.to/lastmile_qr_scan"}, "lon": -77.03216416666666, "type": "electric_scooter", "fusion_lat": 0.0, "lat": 38.9162955, "name": "9d043741f002963c22081ca6a6a92a49", "fusion_lon": 0.0, "bike_id": "9d043741f002963c22081ca6a6a92a49", "is_disabled": 0, "is_reserved": 0}, {"rental_uris": {"ios": "https://dc.lft.to/lastmile_qr_scan", "android": "https://dc.lft.to/lastmile_qr_scan"}, "lon": -76.98023733333333, "type": "electric_scooter", "fusion_lat": 0.0, "lat": 38.903686, "name": "7970f56eaf4d9723b493e1bc62a33ea0", "fusion_lon": 0.0, "bike_id": "7970f56eaf4d9723b493e1bc62a33ea0", "is_disabled": 0, "is_reserved": 0}, {"rental_uris": {"ios": "https://dc.lft.to/lastmile_qr_scan", "android": "https://dc.lft.to/lastmile_qr_scan"}, "lon": -77.01203733333334, "type": "electric_bike", "fusion_lat": 0.0, "lat": 38.870876, "name": "6bf6e9f0128e9377bf78a4b0933003d9", "fusion_lon": 0.0, "bike_id": "6bf6e9f0128e9377bf78a4b0933003d9", "is_disabled": 0, "is_reserved": 0}, {"rental_uris": {"ios": "https://dc.lft.to/lastmile_qr_scan", "android": "https://dc.lft.to/lastmile_qr_scan"}, "lon": -76.9983795, "type": "electric_bike", "fusion_lat": 0.0, "lat": 38.839158166666664, "name": "d9a6aa1daeddaac70eaa95dc7080c6b6", "fusion_lon": 0.0, "bike_id": "d9a6aa1daeddaac70eaa95dc7080c6b6", "is_disabled": 0, "is_reserved": 0}, {"rental_uris": {"ios": "https://dc.lft.to/lastmile_qr_scan", "android": "https://dc.lft.to/lastmile_qr_scan"}, "lon": -77.00067716666666, "type": "electric_scooter", "fusion_lat": 0.0, "lat": 38.899981333333336, "name": "ea1c93c2624e8ad60c337bf5fa8155a9", "fusion_lon": 0.0, "bike_id": "ea1c93c2624e8ad60c337bf5fa8155a9", "is_disabled": 0, "is_reserved": 0}, {"rental_uris": {"ios": "https://dc.lft.to/lastmile_qr_scan", "android": "https://dc.lft.to/lastmile_qr_scan"}, "lon": -77.0300345, "type": "electric_scooter", "fusion_lat": 0.0, "lat": 38.934585, "name": "db8129af25f97ff4de2d414628b8f7d4", "fusion_lon": 0.0, "bike_id": "db8129af25f97ff4de2d414628b8f7d4", "is_disabled": 0, "is_reserved": 0}, {"rental_uris": {"ios": "https://dc.lft.to/lastmile_qr_scan", "android": "https://dc.lft.to/lastmile_qr_scan"}, "lon": -77.0133315, "type": "electric_scooter", "fusion_lat": 0.0, "lat": 38.91705866666667, "name": "dda39d45ddf3f29b755597e0e9a9cbd2", "fusion_lon": 0.0, "bike_id": "dda39d45ddf3f29b755597e0e9a9cbd2", "is_disabled": 0, "is_reserved": 0}, {"rental_uris": {"ios": "https://dc.lft.to/lastmile_qr_scan", "android": "https://dc.lft.to/lastmile_qr_scan"}, "lon": -76.93573966666666, "type": "electric_bike", "fusion_lat": 0.0, "lat": 38.88529583333333, "name": "d3949cf11c09e04ea360c0a9dd716525", "fusion_lon": 0.0, "bike_id": "d3949cf11c09e04ea360c0a9dd716525", "is_disabled": 0, "is_reserved": 0}, {"rental_uris": {"ios": "https://dc.lft.to/lastmile_qr_scan", "android": "https://dc.lft.to/lastmile_qr_scan"}, "lon": -77.005085, "type": "electric_scooter", "fusion_lat": 0.0, "lat": 38.8753495, "name": "050825610cf42d50c9c06dc3450ced02", "fusion_lon": 0.0, "bike_id": "050825610cf42d50c9c06dc3450ced02", "is_disabled": 0, "is_reserved": 0}, {"rental_uris": {"ios": "https://dc.lft.to/lastmile_qr_scan", "android": "https://dc.lft.to/lastmile_qr_scan"}, "lon": -77.0628695, "type": "electric_scooter", "fusion_lat": 0.0, "lat": 38.905250333333335, "name": "4043451081b0e1c2f00f5baea08faf42", "fusion_lon": 0.0, "bike_id": "4043451081b0e1c2f00f5baea08faf42", "is_disabled": 0, "is_reserved": 0}, {"rental_uris": {"ios": "https://dc.lft.to/lastmile_qr_scan", "android": "https://dc.lft.to/lastmile_qr_scan"}, "lon": -76.98615733333334, "type": "electric_scooter", "fusion_lat": 0.0, "lat": 38.854606833333335, "name": "8c8b4fe521f6dd8c3c30235691f91ef1", "fusion_lon": 0.0, "bike_id": "8c8b4fe521f6dd8c3c30235691f91ef1", "is_disabled": 0, "is_reserved": 0}, {"rental_uris": {"ios": "https://dc.lft.to/lastmile_qr_scan", "android": "https://dc.lft.to/lastmile_qr_scan"}, "lon": -77.01079016666667, "type": "electric_bike", "fusion_lat": 0.0, "lat": 38.962619, "name": "371d6b127c717ebfccea65ff1b100914", "fusion_lon": 0.0, "bike_id": "371d6b127c717ebfccea65ff1b100914", "is_disabled": 0, "is_reserved": 0}, {"rental_uris": {"ios": "https://dc.lft.to/lastmile_qr_scan", "android": "https://dc.lft.to/lastmile_qr_scan"}, "lon": -77.01208616666666, "type": "electric_scooter", "fusion_lat": 0.0, "lat": 38.89327333333333, "name": "5b41e3e17ba03aa3f9723feb828b8bbd", "fusion_lon": 0.0, "bike_id": "5b41e3e17ba03aa3f9723feb828b8bbd", "is_disabled": 0, "is_reserved": 0}, {"rental_uris": {"ios": "https://dc.lft.to/lastmile_qr_scan", "android": "https://dc.lft.to/lastmile_qr_scan"}, "lon": -77.0265195, "type": "electric_scooter", "fusion_lat": 0.0, "lat": 38.9386585, "name": "7da647966e517a3640bcacf5e4b4f278", "fusion_lon": 0.0, "bike_id": "7da647966e517a3640bcacf5e4b4f278", "is_disabled": 0, "is_reserved": 0}, {"rental_uris": {"ios": "https://dc.lft.to/lastmile_qr_scan", "android": "https://dc.lft.to/lastmile_qr_scan"}, "lon": -76.9983425, "type": "electric_scooter", "fusion_lat": 0.0, "lat": 38.90034166666667, "name": "584b0eed2b9ed767f87a7121c78d3734", "fusion_lon": 0.0, "bike_id": "584b0eed2b9ed767f87a7121c78d3734", "is_disabled": 0, "is_reserved": 0}, {"rental_uris": {"ios": "https://dc.lft.to/lastmile_qr_scan", "android": "https://dc.lft.to/lastmile_qr_scan"}, "lon": -76.988514, "type": "electric_scooter", "fusion_lat": 0.0, "lat": 38.90348066666667, "name": "aa76c8b83fc8afeeb9772f8f55293f20", "fusion_lon": 0.0, "bike_id": "aa76c8b83fc8afeeb9772f8f55293f20", "is_disabled": 0, "is_reserved": 0}, {"rental_uris": {"ios": "https://dc.lft.to/lastmile_qr_scan", "android": "https://dc.lft.to/lastmile_qr_scan"}, "lon": -77.027205, "type": "electric_scooter", "fusion_lat": 0.0, "lat": 38.8999105, "name": "10e865d163a717a42be85782eefae764", "fusion_lon": 0.0, "bike_id": "10e865d163a717a42be85782eefae764", "is_disabled": 0, "is_reserved": 0}, {"rental_uris": {"ios": "https://dc.lft.to/lastmile_qr_scan", "android": "https://dc.lft.to/lastmile_qr_scan"}, "lon": -77.02308066666667, "type": "electric_scooter", "fusion_lat": 0.0, "lat": 38.90932983333333, "name": "f9ff02a67ebbf0d848ab9eeb6d45afec", "fusion_lon": 0.0, "bike_id": "f9ff02a67ebbf0d848ab9eeb6d45afec", "is_disabled": 0, "is_reserved": 0}, {"rental_uris": {"ios": "https://dc.lft.to/lastmile_qr_scan", "android": "https://dc.lft.to/lastmile_qr_scan"}, "lon": -77.04877933333333, "type": "electric_scooter", "fusion_lat": 0.0, "lat": 38.904719, "name": "14f0f130ead243c55d9a0591a8cd4a57", "fusion_lon": 0.0, "bike_id": "14f0f130ead243c55d9a0591a8cd4a57", "is_disabled": 0, "is_reserved": 0}, {"rental_uris": {"ios": "https://dc.lft.to/lastmile_qr_scan", "android": "https://dc.lft.to/lastmile_qr_scan"}, "lon": -77.03304833333333, "type": "electric_scooter", "fusion_lat": 0.0, "lat": 38.9084785, "name": "fcb35c7344fdd4bb2ac1d6340fbc808e", "fusion_lon": 0.0, "bike_id": "fcb35c7344fdd4bb2ac1d6340fbc808e", "is_disabled": 0, "is_reserved": 0}, {"rental_uris": {"ios": "https://dc.lft.to/lastmile_qr_scan", "android": "https://dc.lft.to/lastmile_qr_scan"}, "lon": -77.02152316666667, "type": "electric_scooter", "fusion_lat": 0.0, "lat": 38.928279333333336, "name": "8baeffbecab5a9e9a98fa94ac99c318c", "fusion_lon": 0.0, "bike_id": "8baeffbecab5a9e9a98fa94ac99c318c", "is_disabled": 0, "is_reserved": 0}, {"rental_uris": {"ios": "https://dc.lft.to/lastmile_qr_scan", "android": "https://dc.lft.to/lastmile_qr_scan"},