{"data": {"bikes": [{"lon": -77.03182566666666, "lat": 38.919278166666665, "name": "740b312d298869b55223465b8db00770", "fusion_lat": 0.0, "fusion_lon": 0.0, "rental_uris": {"android": "https://dc.lft.to/lastmile_qr_scan", "ios": "https://dc.lft.to/lastmile_qr_scan"}, "is_reserved": 0, "is_disabled": 0, "type": "electric_scooter", "bike_id": "740b312d298869b55223465b8db00770"}, {"lon": -77.01076, "lat": 38.87115716666667, "name": "33293be36cd5013abedf3447393d54f2", "fusion_lat": 0.0, "fusion_lon": 0.0, "rental_uris": {"android": "https://dc.lft.to/lastmile_qr_scan", "ios": "https://dc.lft.to/lastmile_qr_scan"}, "is_reserved": 0, "is_disabled": 0, "type": "electric_scooter", "bike_id": "33293be36cd5013abedf3447393d54f2"}, {"lon": -77.04000633333334, "lat": 38.91815283333333, "name": "c6e3b2fd2e08b38afa53e459b75c3836", "fusion_lat": 0.0, "fusion_lon": 0.0, "rental_uris": {"android": "https://dc.lft.to/lastmile_qr_scan", "ios": "https://dc.lft.to/lastmile_qr_scan"}, "is_reserved": 0, "is_disabled": 0, "type": "electric_scooter", "bike_id": "c6e3b2fd2e08b38afa53e459b75c3836"}, {"lon": -76.9860415, "lat": 38.860957666666664, "name": "a06e0446b1068ecdbfba568cc8bf4191", "fusion_lat": 0.0, "fusion_lon": 0.0, "rental_uris": {"android": "https://dc.lft.to/lastmile_qr_scan", "ios": "https://dc.lft.to/lastmile_qr_scan"}, "is_reserved": 0, "is_disabled": 0, "type": "electric_scooter", "bike_id": "a06e0446b1068ecdbfba568cc8bf4191"}, {"lon": -76.98779966666666, "lat": 38.900295166666666, "name": "6f12587b949d159e96bad1ed9145bab6", "fusion_lat": 0.0, "fusion_lon": 0.0, "rental_uris": {"android": "https://dc.lft.to/lastmile_qr_scan", "ios": "https://dc.lft.to/lastmile_qr_scan"}, "is_reserved": 0, "is_disabled": 0, "type": "electric_scooter", "bike_id": "6f12587b949d159e96bad1ed9145bab6"}, {"lon": -77.00139683333333, "lat": 38.90011466666667, "name": "b1c2f0515074f3381b24b402085fa40d", "fusion_lat": 0.0, "fusion_lon": 0.0, "rental_uris": {"android": "https://dc.lft.to/lastmile_qr_scan", "ios": "https://dc.lft.to/lastmile_qr_scan"}, "is_reserved": 0, "is_disabled": 0, "type": "electric_scooter", "bike_id": "b1c2f0515074f3381b24b402085fa40d"}, {"lon": -76.97560533333333, "lat": 38.90442816666667, "name": "09011cfee62206d0f6941f2d1cdc8c3b", "fusion_lat": 0.0, "fusion_lon": 0.0, "rental_uris": {"android": "https://dc.lft.to/lastmile_qr_scan", "ios": "https://dc.lft.to/lastmile_qr_scan"}, "is_reserved": 0, "is_disabled": 0, "type": "electric_scooter", "bike_id": "09011cfee62206d0f6941f2d1cdc8c3b"}, {"lon": -77.04590033333334, "lat": 38.91924683333333, "name": "c7ce0f0e62b201e97f54c3d93ffecd76", "fusion_lat": 0.0, "fusion_lon": 0.0, "rental_uris": {"android": "https://dc.lft.to/lastmile_qr_scan", "ios": "https://dc.lft.to/lastmile_qr_scan"}, "is_reserved": 0, "is_disabled": 0, "type": "electric_scooter", "bike_id": "c7ce0f0e62b201e97f54c3d93ffecd76"}, {"lon": -76.9837235, "lat": 38.86028016666667, "name": "6705f0fc919dfc9ae7664166aba98fb5", "fusion_lat": 0.0, "fusion_lon": 0.0, "rental_uris": {"android": "https://dc.lft.to/lastmile_qr_scan", "ios": "https://dc.lft.to/lastmile_qr_scan"}, "is_reserved": 0, "is_disabled": 0, "type": "electric_scooter", "bike_id": "6705f0fc919dfc9ae7664166aba98fb5"}, {"lon": -77.08366183333334, "lat": 38.808485, "name": "7fc420186a4a2020fe9e850b1fdb95c9", "fusion_lat": 0.0, "fusion_lon": 0.0, "rental_uris": {"android": "https://dc.lft.to/lastmile_qr_scan", "ios": "https://dc.lft.to/lastmile_qr_scan"}, "is_reserved": 0, "is_disabled": 0, "type": "electric_bike", "bike_id": "7fc420186a4a2020fe9e850b1fdb95c9"}, {"lon": -76.97506316666667, "lat": 38.91929283333333, "name": "181ff5c398b589b8be809456664c6a71", "fusion_lat": 0.0, "fusion_lon": 0.0, "rental_uris": {"android": "https://dc.lft.to/lastmile_qr_scan", "ios": "https://dc.lft.to/lastmile_qr_scan"}, "is_reserved": 0, "is_disabled": 0, "type": "electric_bike", "bike_id": "181ff5c398b589b8be809456664c6a71"}, {"lon": -77.03837983333334, "lat": 38.91558033333333, "name": "06717cbec72c22afd9b2fa654ffbbfaf", "fusion_lat": 0.0, "fusion_lon": 0.0, "rental_uris": {"android": "https://dc.lft.to/lastmile_qr_scan", "ios": "https://dc.lft.to/lastmile_qr_scan"}, "is_reserved": 0, "is_disabled": 0, "type": "electric_scooter", "bike_id": "06717cbec72c22afd9b2fa654ffbbfaf"}, {"lon": -77.01751616666667, "lat": 38.9025715, "name": "2dc869f8467a88056bdc840d791c086b", "fusion_lat": 0.0, "fusion_lon": 0.0, "rental_uris": {"android": "https://dc.lft.to/lastmile_qr_scan", "ios": "https://dc.lft.to/lastmile_qr_scan"}, "is_reserved": 0, "is_disabled": 0, "type": "electric_scooter", "bike_id": "2dc869f8467a88056bdc840d791c086b"}, {"lon": -76.98229333333333, "lat": 38.9165955, "name": "7e8ae06084451443f0941c0d90db1893", "fusion_lat": 0.0, "fusion_lon": 0.0, "rental_uris": {"android": "https://dc.lft.to/lastmile_qr_scan", "ios": "https://dc.lft.to/lastmile_qr_scan"}, "is_reserved": 0, "is_disabled": 0, "type": "electric_scooter", "bike_id": "7e8ae06084451443f0941c0d90db1893"}, {"lon": -77.034188, "lat": 38.9294685, "name": "f150feb67e0ee9b011e32523e27421b1", "fusion_lat": 0.0, "fusion_lon": 0.0, "rental_uris": {"android": "https://dc.lft.to/lastmile_qr_scan", "ios": "https://dc.lft.to/lastmile_qr_scan"}, "is_reserved": 0, "is_disabled": 0, "type": "electric_scooter", "bike_id": "f150feb67e0ee9b011e32523e27421b1"}, {"lon": -77.04816016666666, "lat": 38.91102633333333, "name": "21420cffd17cd32b56a8a8b09b17a039", "fusion_lat": 0.0, "fusion_lon": 0.0, "rental_uris": {"android": "https://dc.lft.to/lastmile_qr_scan", "ios": "https://dc.lft.to/lastmile_qr_scan"}, "is_reserved": 0, "is_disabled": 0, "type": "electric_scooter", "bike_id": "21420cffd17cd32b56a8a8b09b17a039"}, {"lon": -77.0263785, "lat": 38.915473, "name": "00cd9d4e28fb25ad7ec8a33351249f82", "fusion_lat": 0.0, "fusion_lon": 0.0, "rental_uris": {"android": "https://dc.lft.to/lastmile_qr_scan", "ios": "https://dc.lft.to/lastmile_qr_scan"}, "is_reserved": 0, "is_disabled": 0, "type": "electric_scooter", "bike_id": "00cd9d4e28fb25ad7ec8a33351249f82"}, {"lon": -77.0295305, "lat": 38.92267066666667, "name": "515f1acc48db01ec787641e2f6a38fff", "fusion_lat": 0.0, "fusion_lon": 0.0, "rental_uris": {"android": "https://dc.lft.to/lastmile_qr_scan", "ios": "https://dc.lft.to/lastmile_qr_scan"}, "is_reserved": 0, "is_disabled": 0, "type": "electric_scooter", "bike_id": "515f1acc48db01ec787641e2f6a38fff"}, {"lon": -77.0468605, "lat": 38.915661, "name": "77b04a09cb3b2ed06c6dc37147a7d15a", "fusion_lat": 0.0, "fusion_lon": 0.0, "rental_uris": {"android": "https://dc.lft.to/lastmile_qr_scan", "ios": "https://dc.lft.to/lastmile_qr_scan"}, "is_reserved": 0, "is_disabled": 0, "type": "electric_scooter", "bike_id": "77b04a09cb3b2ed06c6dc37147a7d15a"}, {"lon": -77.02420883333333, "lat": 38.905624833333334, "name": "d3d15c24ac61cdc3171429c98bfa2acc", "fusion_lat": 0.0, "fusion_lon": 0.0, "rental_uris": {"android": "https://dc.lft.to/lastmile_qr_scan", "ios": "https://dc.lft.to/lastmile_qr_scan"}, "is_reserved": 0, "is_disabled": 0, "type": "electric_scooter", "bike_id": "d3d15c24ac61cdc3171429c98bfa2acc"}, {"lon": -77.0306725, "lat": 38.88044266666667, "name": "3d0d18bac743ea442988fd831acf4108", "fusion_lat": 0.0, "fusion_lon": 0.0, "rental_uris": {"android": "https://dc.lft.to/lastmile_qr_scan", "ios": "https://dc.lft.to/lastmile_qr_scan"}, "is_reserved": 0, "is_disabled": 0, "type": "electric_scooter", "bike_id": "3d0d18bac743ea442988fd831acf4108"}, {"lon": -77.02410733333333, "lat": 38.9096365, "name": "c29a5af667ced19101117470b7273b6d", "fusion_lat": 0.0, "fusion_lon": 0.0, "rental_uris": {"android": "https://dc.lft.to/lastmile_qr_scan", "ios": "https://dc.lft.to/lastmile_qr_scan"}, "is_reserved": 0, "is_disabled": 0, "type": "electric_scooter", "bike_id": "c29a5af667ced19101117470b7273b6d"}, {"lon": -76.94779966666667, "lat": 38.894387, "name": "146497c3a47ba2b48693e6d1cec90c0e", "fusion_lat": 0.0, "fusion_lon": 0.0, "rental_uris": {"android": "https://dc.lft.to/lastmile_qr_scan", "ios": "https://dc.lft.to/lastmile_qr_scan"}, "is_reserved": 0, "is_disabled": 0, "type": "electric_scooter", "bike_id": "146497c3a47ba2b48693e6d1cec90c0e"}, {"lon": -77.13183033333334, "lat": 38.8690755, "name": "01db722d4ba2fb0fe39b2c62ad928b72", "fusion_lat": 0.0, "fusion_lon": 0.0, "rental_uris": {"android": "https://dc.lft.to/lastmile_qr_scan", "ios": "https://dc.lft.to/lastmile_qr_scan"}, "is_reserved": 0, "is_disabled": 0, "type": "electric_bike", "bike_id": "01db722d4ba2fb0fe39b2c62ad928b72"}, {"lon": -77.02568533333333, "lat": 38.8836545, "name": "57015c925e9fea02fa4fb6a89ce19701", "fusion_lat": 0.0, "fusion_lon": 0.0, "rental_uris": {"android": "https://dc.lft.to/lastmile_qr_scan", "ios": "https://dc.lft.to/lastmile_qr_scan"}, "is_reserved": 0, "is_disabled": 0, "type": "electric_scooter", "bike_id": "57015c925e9fea02fa4fb6a89ce19701"}, {"lon": -77.03788833333333, "lat": 38.99673683333333, "name": "929a241d2a0fef469b41925353cf4ba2", "fusion_lat": 0.0, "fusion_lon": 0.0, "rental_uris": {"android": "https://dc.lft.to/lastmile_qr_scan", "ios": "https://dc.lft.to/lastmile_qr_scan"}, "is_reserved": 0, "is_disabled": 0, "type": "electric_bike", "bike_id": "929a241d2a0fef469b41925353cf4ba2"}, {"lon": -77.01919116666667, "lat": 38.916611333333336, "name": "a15770af2cde64c3777b9346d255f8b2", "fusion_lat": 0.0, "fusion_lon": 0.0, "rental_uris": {"android": "https://dc.lft.to/lastmile_qr_scan", "ios": "https://dc.lft.to/lastmile_qr_scan"}, "is_reserved": 0, "is_disabled": 0, "type": "electric_scooter", "bike_id": "a15770af2cde64c3777b9346d255f8b2"}, {"lon": -77.0428355, "lat": 38.907266166666666, "name": "5146d6ee3479ac73e991d3755f1c47c9", "fusion_lat": 0.0, "fusion_lon": 0.0, "rental_uris": {"android": "https://dc.lft.to/lastmile_qr_scan", "ios": "https://dc.lft.to/lastmile_qr_scan"}, "is_reserved": 0, "is_disabled": 0, "type": "electric_scooter", "bike_id": "5146d6ee3479ac73e991d3755f1c47c9"}, {"lon": -77.00358283333334, "lat": 38.881859, "name": "5a1b97755b0b2610891d60a187dc6f2c", "fusion_lat": 0.0, "fusion_lon": 0.0, "rental_uris": {"android": "https://dc.lft.to/lastmile_qr_scan", "ios": "https://dc.lft.to/lastmile_qr_scan"}, "is_reserved": 0, "is_disabled": 0, "type": "electric_scooter", "bike_id": "5a1b97755b0b2610891d60a187dc6f2c"}, {"lon": -77.01105816666667, "lat": 38.90346566666667, "name": "87b8f24752b615c5f4c4438be668dcc7", "fusion_lat": 0.0, "fusion_lon": 0.0, "rental_uris": {"android": "https://dc.lft.to/lastmile_qr_scan", "ios": "https://dc.lft.to/lastmile_qr_scan"}, "is_reserved": 0, "is_disabled": 0, "type": "electric_scooter", "bike_id": "87b8f24752b615c5f4c4438be668dcc7"}, {"lon": -77.01288133333334, "lat": 39.00381816666667, "name": "ee4e2eac98198e9cbf93329a7dcea81e", "fusion_lat": 0.0, "fusion_lon": 0.0, "rental_uris": {"android": "https://dc.lft.to/lastmile_qr_scan", "ios": "https://dc.lft.to/lastmile_qr_scan"}, "is_reserved": 0, "is_disabled": 0, "type": "electric_bike", "bike_id": "ee4e2eac98198e9cbf93329a7dcea81e"}, {"lon": -77.025553, "lat": 38.892224166666665, "name": "0ab69b16e6ee68c17c0ca4af1ede90b9", "fusion_lat": 0.0, "fusion_lon": 0.0, "rental_uris": {"android": "https://dc.lft.to/lastmile_qr_scan", "ios": "https://dc.lft.to/lastmile_qr_scan"}, "is_reserved": 0, "is_disabled": 0, "type": "electric_scooter", "bike_id": "0ab69b16e6ee68c17c0ca4af1ede90b9"}, {"lon": -77.097618, "lat": 38.858467166666664, "name": "72475624965cde56b3c013356e18f2b5", "fusion_lat": 0.0, "fusion_lon": 0.0, "rental_uris": {"android": "https://dc.lft.to/lastmile_qr_scan", "ios": "https://dc.lft.to/lastmile_qr_scan"}, "is_reserved": 0, "is_disabled": 0, "type": "electric_bike", "bike_id": "72475624965cde56b3c013356e18f2b5"}, {"lon": -77.048398, "lat": 38.913350333333334, "name": "746e672dcb2b7a0e180a128f7407f65c", "fusion_lat": 0.0, "fusion_lon": 0.0, "rental_uris": {"android": "https://dc.lft.to/lastmile_qr_scan", "ios": "https://dc.lft.to/lastmile_qr_scan"}, "is_reserved": 0, "is_disabled": 0, "type": "electric_scooter", "bike_id": "746e672dcb2b7a0e180a128f7407f65c"}, {"lon": -77.0321515, "lat": 38.915046, "name": "a2d03406718b9cab6223cb8dc0e97bb7", "fusion_lat": 0.0, "fusion_lon": 0.0, "rental_uris": {"android": "https://dc.lft.to/lastmile_qr_scan", "ios": "https://dc.lft.to/lastmile_qr_scan"}, "is_reserved": 0, "is_disabled": 0, "type": "electric_scooter", "bike_id": "a2d03406718b9cab6223cb8dc0e97bb7"}, {"lon": -76.94841016666666, "lat": 38.89484066666667, "name": "7430c5b6de151e4aacb0d6219bea90a4", "fusion_lat": 0.0, "fusion_lon": 0.0, "rental_uris": {"android": "https://dc.lft.to/lastmile_qr_scan", "ios": "https://dc.lft.to/lastmile_qr_scan"}, "is_reserved": 0, "is_disabled": 0, "type": "electric_scooter", "bike_id": "7430c5b6de151e4aacb0d6219bea90a4"}, {"lon": -76.99619966666667, "lat": 38.900291, "name": "6ab665a948caf6a44c3e9cb7bf553d33", "fusion_lat": 0.0, "fusion_lon": 0.0, "rental_uris": {"android": "https://dc.lft.to/lastmile_qr_scan", "ios": "https://dc.lft.to/lastmile_qr_scan"}, "is_reserved": 0, "is_disabled": 0, "type": "electric_scooter", "bike_id": "6ab665a948caf6a44c3e9cb7bf553d33"}, {"lon": -77.027238, "lat": 38.90674583333333, "name": "221dda6217da2653dd0adc722d3acb89", "fusion_lat": 0.0, "fusion_lon": 0.0, "rental_uris": {"android": "https://dc.lft.to/lastmile_qr_scan", "ios": "https://dc.lft.to/lastmile_qr_scan"}, "is_reserved": 0, "is_disabled": 0, "type": "electric_scooter", "bike_id": "221dda6217da2653dd0adc722d3acb89"}, {"lon": -77.023105, "lat": 38.917724166666666, "name": "c4a0a9786d3c5617e0c969dcbd4c6915", "fusion_lat": 0.0, "fusion_lon": 0.0, "rental_uris": {"android": "https://dc.lft.to/lastmile_qr_scan", "ios": "https://dc.lft.to/lastmile_qr_scan"}, "is_reserved": 0, "is_disabled": 0, "type": "electric_scooter", "bike_id": "c4a0a9786d3c5617e0c969dcbd4c6915"}, {"lon": -77.01722866666667, "lat": 38.88593783333334, "name": "73419becf1cf3ac574b9de6d2ff23523", "fusion_lat": 0.0, "fusion_lon": 0.0, "rental_uris": {"android": "https://dc.lft.to/lastmile_qr_scan", "ios": "https://dc.lft.to/lastmile_qr_scan"}, "is_reserved": 0, "is_disabled": 0, "type": "electric_scooter", "bike_id": "73419becf1cf3ac574b9de6d2ff23523"}, {"lon": -77.006048, "lat": 38.8772185, "name": "9bea0b10c5d05765c1b60600201724cc", "fusion_lat": 0.0, "fusion_lon": 0.0, "rental_uris": {"android": "https://dc.lft.to/lastmile_qr_scan", "ios": "https://dc.lft.to/lastmile_qr_scan"}, "is_reserved": 0, "is_disabled": 0, "type": "electric_scooter", "bike_id": "9bea0b10c5d05765c1b60600201724cc"}, {"lon": -77.0334485, "lat": 38.90834816666667, "name": "9ecbc7bd7def6b23dca9a4a83865eae4", "fusion_lat": 0.0, "fusion_lon": 0.0, "rental_uris": {"android": "https://dc.lft.to/lastmile_qr_scan", "ios": "https://dc.lft.to/lastmile_qr_scan"}, "is_reserved": 0, "is_disabled": 0, "type": "electric_scooter", "bike_id": "9ecbc7bd7def6b23dca9a4a83865eae4"}, {"lon": -77.0067395, "lat": 38.874726, "name": "6224c1ade21162066e24ba163c0882d4", "fusion_lat": 0.0, "fusion_lon": 0.0, "rental_uris": {"android": "https://dc.lft.to/lastmile_qr_scan", "ios": "https://dc.lft.to/lastmile_qr_scan"}, "is_reserved": 0, "is_disabled": 0, "type": "electric_scooter", "bike_id": "6224c1ade21162066e24ba163c0882d4"}, {"lon": -76.98970516666667, "lat": 38.902386, "name": "70b3415f1404a2fd82d238f42c010492", "fusion_lat": 0.0, "fusion_lon": 0.0, "rental_uris": {"android": "https://dc.lft.to/lastmile_qr_scan", "ios": "https://dc.lft.to/lastmile_qr_scan"}, "is_reserved": 0, "is_disabled": 0, "type": "electric_scooter", "bike_id": "70b3415f1404a2fd82d238f42c010492"}, {"lon": -77.04805416666666, "lat": 38.9005405, "name": "1cbe9805c26aacd3285d05835403ed40", "fusion_lat": 0.0, "fusion_lon": 0.0, "rental_uris": {"android": "https://dc.lft.to/lastmile_qr_scan", "ios": "https://dc.lft.to/lastmile_qr_scan"}, "is_reserved": 0, "is_disabled": 0, "type": "electric_scooter", "bike_id": "1cbe9805c26aacd3285d05835403ed40"}, {"lon": -77.03836633333333, "lat": 38.9122925, "name": "f139fd591935801dbdc71c1f730d49f5", "fusion_lat": 0.0, "fusion_lon": 0.0, "rental_uris": {"android": "https://dc.lft.to/lastmile_qr_scan", "ios": "https://dc.lft.to/lastmile_qr_scan"}, "is_reserved": 0, "is_disabled": 0, "type": "electric_scooter", "bike_id": "f139fd591935801dbdc71c1f730d49f5"}, {"lon": -77.141196, "lat": 38.816023333333334, "name": "d70806b5a01fbdb2a5762d00262467bc", "fusion_lat": 0.0, "fusion_lon": 0.0, "rental_uris": {"android": "https://dc.lft.to/lastmile_qr_scan", "ios": "https://dc.lft.to/lastmile_qr_scan"}, "is_reserved": 0, "is_disabled": 0, "type": "electric_bike", "bike_id": "d70806b5a01fbdb2a5762d00262467bc"}, {"lon": -77.0522775, "lat": 38.925116333333335, "name": "0051f1c8eadc6f39d4fbf37c88ded779", "fusion_lat": 0.0, "fusion_lon": 0.0, "rental_uris": {"android": "https://dc.lft.to/lastmile_qr_scan", "ios": "https://dc.lft.to/lastmile_qr_scan"}, "is_reserved": 0, "is_disabled": 0, "type": "electric_scooter", "bike_id": "0051f1c8eadc6f39d4fbf37c88ded779"}, {"lon": -76.9354085, "lat": 38.89682533333333, "name": "342a75a57a75243b84451af1f838bb53", "fusion_lat": 0.0, "fusion_lon": 0.0, "rental_uris": {"android": "https://dc.lft.to/lastmile_qr_scan", "ios": "https://dc.lft.to/lastmile_qr_scan"}, "is_reserved": 0, "is_disabled": 0, "type": "electric_scooter", "bike_id": "342a75a57a75243b84451af1f838bb53"}, {"lon": -77.05004916666667, "lat": 38.90115216666667, "name": "721fc67e1689777ea84065218f867959", "fusion_lat": 0.0, "fusion_lon": 0.0, "rental_uris": {"android": "https://dc.lft.to/lastmile_qr_scan", "ios": "https://dc.lft.to/lastmile_qr_scan"}, "is_reserved": 0, "is_disabled": 0, "type": "electric_scooter", "bike_id": "721fc67e1689777ea84065218f867959"}, {"lon": -77.00598433333333, "lat": 38.874567166666665, "name": "0314a06a2ec831ca8d5b513a2f4cbb66", "fusion_lat": 0.0, "fusion_lon": 0.0, "rental_uris": {"android": "https://dc.lft.to/lastmile_qr_scan", "ios": "https://dc.lft.to/lastmile_qr_scan"}, "is_reserved": 0, "is_disabled": 0, "type": "electric_scooter", "bike_id": "0314a06a2ec831ca8d5b513a2f4cbb66"}, {"lon": -77.0179175, "lat": 38.90641566666667, "name": "758a2d44ba45acd272f81055e6b7be63", "fusion_lat": 0.0, "fusion_lon": 0.0, "rental_uris": {"android": "https://dc.lft.to/lastmile_qr_scan", "ios": "https://dc.lft.to/lastmile_qr_scan"}, "is_reserved": 0, "is_disabled": 0, "type": "electric_scooter", "bike_id": "758a2d44ba45acd272f81055e6b7be63"}, {"lon": -77.021857, "lat": 38.91128283333333, "name": "7a4157ab36df873042d0728d177ea8bd", "fusion_lat": 0.0, "fusion_lon": 0.0, "rental_uris": {"android": "https://dc.lft.to/lastmile_qr_scan", "ios": "https://dc.lft.to/lastmile_qr_scan"}, "is_reserved": 0, "is_disabled": 0, "type": "electric_scooter", "bike_id": "7a4157ab36df873042d0728d177ea8bd"}, {"lon": -77.02348166666667, "lat": 38.93326066666667, "name": "a5dcf55fcfd3861c4bc0964b010487f8", "fusion_lat": 0.0, "fusion_lon": 0.0, "rental_uris": {"android": "https://dc.lft.to/lastmile_qr_scan", "ios": "https://dc.lft.to/lastmile_qr_scan"}, "is_reserved": 0, "is_disabled": 0, "type": "electric_scooter", "bike_id": "a5dcf55fcfd3861c4bc0964b010487f8"}, {"lon": -77.00920516666666, "lat": 38.9101795, "name": "a91043b7d148310b60288556ff00b205", "fusion_lat": 0.0, "fusion_lon": 0.0, "rental_uris": {"android": "https://dc.lft.to/lastmile_qr_scan", "ios": "https://dc.lft.to/lastmile_qr_scan"}, "is_reserved": 0, "is_disabled": 0, "type": "electric_scooter", "bike_id": "a91043b7d148310b60288556ff00b205"}, {"lon": -77.021724, "lat": 38.89259533333333, "name": "75d2c5033b26b64fc14c7d050c7176bb", "fusion_lat": 0.0, "fusion_lon": 0.0, "rental_uris": {"android": "https://dc.lft.to/lastmile_qr_scan", "ios": "https://dc.lft.to/lastmile_qr_scan"}, "is_reserved": 0, "is_disabled": 0, "type": "electric_scooter", "bike_id": "75d2c5033b26b64fc14c7d050c7176bb"}, {"lon": -76.99164216666667, "lat": 38.879137666666665, "name": "48ff6bb3fc2072a25c7e17fbc282cfe9", "fusion_lat": 0.0, "fusion_lon": 0.0, "rental_uris": {"android": "https://dc.lft.to/lastmile_qr_scan", "ios": "https://dc.lft.to/lastmile_qr_scan"}, "is_reserved": 0, "is_disabled": 0, "type": "electric_scooter", "bike_id": "48ff6bb3fc2072a25c7e17fbc282cfe9"}, {"lon": -76.97352216666667, "lat": 38.8650955, "name": "f564c82be1b9deee38c6a948f60b436b", "fusion_lat": 0.0, "fusion_lon": 0.0, "rental_uris": {"android": "https://dc.lft.to/lastmile_qr_scan", "ios": "https://dc.lft.to/lastmile_qr_scan"}, "is_reserved": 0, "is_disabled": 0, "type": "electric_scooter", "bike_id": "f564c82be1b9deee38c6a948f60b436b"}, {"lon": -76.92407383333334, "lat": 38.889897166666664, "name": "558ac7e6474b77f7646a145184204cdf", "fusion_lat": 0.0, "fusion_lon": 0.0, "rental_uris": {"android": "https://dc.lft.to/lastmile_qr_scan", "ios": "https://dc.lft.to/lastmile_qr_scan"}, "is_reserved": 0, "is_disabled": 0, "type": "electric_scooter", "bike_id": "558ac7e6474b77f7646a145184204cdf"}, {"lon": -77.04515133333334, "lat": 38.907854666666665, "name": "a952ba4abc33454c93edd72d7bf7f17d", "fusion_lat": 0.0, "fusion_lon": 0.0, "rental_uris": {"android": "https://dc.lft.to/lastmile_qr_scan", "ios": "https://dc.lft.to/lastmile_qr_scan"}, "is_reserved": 0, "is_disabled": 0, "type": "electric_scooter", "bike_id": "a952ba4abc33454c93edd72d7bf7f17d"}, {"lon": -77.06285383333334, "lat": 38.90683116666666, "name": "fd35807bbef596358559791144a10309", "fusion_lat": 0.0, "fusion_lon": 0.0, "rental_uris": {"android": "https://dc.lft.to/lastmile_qr_scan", "ios": "https://dc.lft.to/lastmile_qr_scan"}, "is_reserved": 0, "is_disabled": 0, "type": "electric_scooter", "bike_id": "fd35807bbef596358559791144a10309"}, {"lon": -77.029631, "lat": 38.893210333333336, "name": "a11a6608dcaf358977bf128d758d93f8", "fusion_lat": 0.0, "fusion_lon": 0.0, "rental_uris": {"android": "https://dc.lft.to/lastmile_qr_scan", "ios": "https://dc.lft.to/lastmile_qr_scan"}, "is_reserved": 0, "is_disabled": 0, "type": "electric_scooter", "bike_id": "a11a6608dcaf358977bf128d758d93f8"}, {"lon": -77.0220315, "lat": 38.91007916666667, "name": "622c0c6877395325f08c9a8e9c1196d1", "fusion_lat": 0.0, "fusion_lon": 0.0, "rental_uris": {"android": "https://dc.lft.to/lastmile_qr_scan", "ios": "https://dc.lft.to/lastmile_qr_scan"}, "is_reserved": 0, "is_disabled": 0, "type": "electric_scooter", "bike_id": "622c0c6877395325f08c9a8e9c1196d1"}, {"lon": -77.03966783333334, "lat": 38.902475, "name": "794a4cf879518770638bb11be96f816c", "fusion_lat": 0.0, "fusion_lon": 0.0, "rental_uris": {"android": "https://dc.lft.to/lastmile_qr_scan", "ios": "https://dc.lft.to/lastmile_qr_scan"}, "is_reserved": 0, "is_disabled": 0, "type": "electric_scooter", "bike_id": "794a4cf879518770638bb11be96f816c"}, {"lon": -76.930175, "lat": 38.90084066666667, "name": "ca572e2393c76d9146927b34d2118198", "fusion_lat": 0.0, "fusion_lon": 0.0, "rental_uris": {"android": "https://dc.lft.to/lastmile_qr_scan", "ios": "https://dc.lft.to/lastmile_qr_scan"}, "is_reserved": 0, "is_disabled": 0, "type": "electric_scooter", "bike_id": "ca572e2393c76d9146927b34d2118198"}, {"lon": -76.9575745, "lat": 38.884227833333334, "name": "d19b6da1b601c0c56ad73cea7d2d858b", "fusion_lat": 0.0, "fusion_lon": 0.0, "rental_uris": {"android": "https://dc.lft.to/lastmile_qr_scan", "ios": "https://dc.lft.to/lastmile_qr_scan"}, "is_reserved": 0, "is_disabled": 0, "type": "electric_scooter", "bike_id": "d19b6da1b601c0c56ad73cea7d2d858b"}, {"lon": -77.03306866666667, "lat": 38.90132633333333, "name": "76e45052e028405576886914f234ef22", "fusion_lat": 0.0, "fusion_lon": 0.0, "rental_uris": {"android": "https://dc.lft.to/lastmile_qr_scan", "ios": "https://dc.lft.to/lastmile_qr_scan"}, "is_reserved": 0, "is_disabled": 0, "type": "electric_scooter", "bike_id": "76e45052e028405576886914f234ef22"}, {"lon": -77.04325583333333, "lat": 38.926140833333335, "name": "1c18f16971ac7a2f56b1da5231f14038", "fusion_lat": 0.0, "fusion_lon": 0.0, "rental_uris": {"android": "https://dc.lft.to/lastmile_qr_scan", "ios": "https://dc.lft.to/lastmile_qr_scan"}, "is_reserved": 0, "is_disabled": 0, "type": "electric_scooter", "bike_id": "1c18f16971ac7a2f56b1da5231f14038"}, {"lon": -77.038438, "lat": 38.91820833333333, "name": "0a0477d58d716c10f12c332f6a468ce9", "fusion_lat": 0.0, "fusion_lon": 0.0, "rental_uris": {"android": "https://dc.lft.to/lastmile_qr_scan", "ios": "https://dc.lft.to/lastmile_qr_scan"}, "is_reserved": 0, "is_disabled": 0, "type": "electric_scooter", "bike_id": "0a0477d58d716c10f12c332f6a468ce9"}, {"lon": -76.9551855, "lat": 38.89050816666666, "name": "aaefeb4e4e4f7c600bdf9f7c66d5b0ab", "fusion_lat": 0.0, "fusion_lon": 0.0, "rental_uris": {"android": "https://dc.lft.to/lastmile_qr_scan", "ios": "https://dc.lft.to/lastmile_qr_scan"}, "is_reserved": 0, "is_disabled": 0, "type": "electric_scooter", "bike_id": "aaefeb4e4e4f7c600bdf9f7c66d5b0ab"}, {"lon": -77.03372033333333, "lat": 38.92144166666667, "name": "5b3fb7f17ff7fe6d6111215e27bca656", "fusion_lat": 0.0, "fusion_lon": 0.0, "rental_uris": {"android": "https://dc.lft.to/lastmile_qr_scan", "ios": "https://dc.lft.to/lastmile_qr_scan"}, "is_reserved": 0, "is_disabled": 0, "type": "electric_scooter", "bike_id": "5b3fb7f17ff7fe6d6111215e27bca656"}, {"lon": -77.0328235, "lat": 38.93792416666667, "name": "f32838345f973ddcef89329577dab529", "fusion_lat": 0.0, "fusion_lon": 0.0, "rental_uris": {"android": "https://dc.lft.to/lastmile_qr_scan", "ios": "https://dc.lft.to/lastmile_qr_scan"}, "is_reserved": 0, "is_disabled": 0, "type": "electric_scooter", "bike_id": "f32838345f973ddcef89329577dab529"}, {"lon": -77.018309, "lat": 38.913251333333335, "name": "d619df62339f1142a5532e943c9122b5", "fusion_lat": 0.0, "fusion_lon": 0.0, "rental_uris": {"android": "https://dc.lft.to/lastmile_qr_scan", "ios": "https://dc.lft.to/lastmile_qr_scan"}, "is_reserved": 0, "is_disabled": 0, "type": "electric_scooter", "bike_id": "d619df62339f1142a5532e943c9122b5"}, {"lon": -77.0314585, "lat": 38.90445733333333, "name": "a3ea9eb7956d90a46ec5a78334e6d0cc", "fusion_lat": 0.0, "fusion_lon": 0.0, "rental_uris": {"android": "https://dc.lft.to/lastmile_qr_scan", "ios": "https://dc.lft.to/lastmile_qr_scan"}, "is_reserved": 0, "is_disabled": 0, "type": "electric_scooter", "bike_id": "a3ea9eb7956d90a46ec5a78334e6d0cc"}, {"lon": -76.985615, "lat": 38.86890316666667, "name": "c65e76ca4eacd703bbada18258b0b701", "fusion_lat": 0.0, "fusion_lon": 0.0, "rental_uris": {"android": "https://dc.lft.to/lastmile_qr_scan", "ios": "https://dc.lft.to/lastmile_qr_scan"}, "is_reserved": 0, "is_disabled": 0, "type": "electric_bike", "bike_id": "c65e76ca4eacd703bbada18258b0b701"}, {"lon": -77.07662816666667, "lat": 38.9062225, "name": "c68242ad01c729931dee5acb2af89e74", "fusion_lat": 0.0, "fusion_lon": 0.0, "rental_uris": {"android": "https://dc.lft.to/lastmile_qr_scan", "ios": "https://dc.lft.to/lastmile_qr_scan"}, "is_reserved": 0, "is_disabled": 0, "type": "electric_scooter", "bike_id": "c68242ad01c729931dee5acb2af89e74"}, {"lon": -76.93890883333333, "lat": 38.956263666666665, "name": "b75d012dc2dcda4b74f9daaffb65cc2f", "fusion_lat": 0.0, "fusion_lon": 0.0, "rental_uris": {"android": "https://dc.lft.to/lastmile_qr_scan", "ios": "https://dc.lft.to/lastmile_qr_scan"}, "is_reserved": 0, "is_disabled": 0, "type": "electric_bike", "bike_id": "b75d012dc2dcda4b74f9daaffb65cc2f"}, {"lon": -77.04232916666666, "lat": 38.9110305, "name": "9cbf4b0c37c059efffa6ccd87da66cf3", "fusion_lat": 0.0, "fusion_lon": 0.0, "rental_uris": {"android": "https://dc.lft.to/lastmile_qr_scan", "ios": "https://dc.lft.to/lastmile_qr_scan"}, "is_reserved": 0, "is_disabled": 0, "type": "electric_scooter", "bike_id": "9cbf4b0c37c059efffa6ccd87da66cf3"}, {"lon": -77.02186833333333, "lat": 38.911294833333336, "name": "4588bf4a7402a8df5c700235f7c7c2fa", "fusion_lat": 0.0, "fusion_lon": 0.0, "rental_uris": {"android": "https://dc.lft.to/lastmile_qr_scan", "ios": "https://dc.lft.to/lastmile_qr_scan"}, "is_reserved": 0, "is_disabled": 0, "type": "electric_scooter", "bike_id": "4588bf4a7402a8df5c700235f7c7c2fa"}, {"lon": -77.03172666666667, "lat": 38.89382233333333, "name": "bc1be540ae554760670801bfe0b45faf", "fusion_lat": 0.0, "fusion_lon": 0.0, "rental_uris": {"android": "https://dc.lft.to/lastmile_qr_scan", "ios": "https://dc.lft.to/lastmile_qr_scan"}, "is_reserved": 0, "is_disabled": 0, "type": "electric_scooter", "bike_id": "bc1be540ae554760670801bfe0b45faf"}, {"lon": -76.990658, "lat": 38.904035666666665, "name": "7ebfb95540519e66a6407da1bb03b8ee", "fusion_lat": 0.0, "fusion_lon": 0.0, "rental_uris": {"android": "https://dc.lft.to/lastmile_qr_scan", "ios": "https://dc.lft.to/lastmile_qr_scan"}, "is_reserved": 0, "is_disabled": 0, "type": "electric_scooter", "bike_id": "7ebfb95540519e66a6407da1bb03b8ee"}, {"lon": -77.02198, "lat": 38.91688283333333, "name": "bda2e1753924e2fededf1b16e0fee374", "fusion_lat": 0.0, "fusion_lon": 0.0, "rental_uris": {"android": "https://dc.lft.to/lastmile_qr_scan", "ios": "https://dc.lft.to/lastmile_qr_scan"}, "is_reserved": 0, "is_disabled": 0, "type": "electric_scooter", "bike_id": "bda2e1753924e2fededf1b16e0fee374"}, {"lon": -77.00383566666666, "lat": 38.89474333333333, "name": "c2464464d5afe4317650ed8f03e7b457", "fusion_lat": 0.0, "fusion_lon": 0.0, "rental_uris": {"android": "https://dc.lft.to/lastmile_qr_scan", "ios": "https://dc.lft.to/lastmile_qr_scan"}, "is_reserved": 0, "is_disabled": 0, "type": "electric_bike", "bike_id": "c2464464d5afe4317650ed8f03e7b457"}, {"lon": -77.03270633333334, "lat": 38.93075533333333, "name": "2f1ee277f49042434245431d299aadf6", "fusion_lat": 0.0, "fusion_lon": 0.0, "rental_uris": {"android": "https://dc.lft.to/lastmile_qr_scan", "ios": "https://dc.lft.to/lastmile_qr_scan"}, "is_reserved": 0, "is_disabled": 0, "type": "electric_scooter", "bike_id": "2f1ee277f49042434245431d299aadf6"}, {"lon": -76.9812585, "lat": 38.89193916666667, "name": "351ccbe565d20d03c6335ffc9409a7aa", "fusion_lat": 0.0, "fusion_lon": 0.0, "rental_uris": {"android": "https://dc.lft.to/lastmile_qr_scan", "ios": "https://dc.lft.to/lastmile_qr_scan"}, "is_reserved": 0, "is_disabled": 0, "type": "electric_scooter", "bike_id": "351ccbe565d20d03c6335ffc9409a7aa"}, {"lon": -76.97089783333334, "lat": 38.8787575, "name": "d9c531b7e2d832030d5ec75051e6d9de", "fusion_lat": 0.0, "fusion_lon": 0.0, "rental_uris": {"android": "https://dc.lft.to/lastmile_qr_scan", "ios": "https://dc.lft.to/lastmile_qr_scan"}, "is_reserved": 0, "is_disabled": 0, "type": "electric_scooter", "bike_id": "d9c531b7e2d832030d5ec75051e6d9de"}, {"lon": -76.99729, "lat": 38.90793933333333, "name": "a196dbcac3446fa18bb6dde7a944d058", "fusion_lat": 0.0, "fusion_lon": 0.0, "rental_uris": {"android": "https://dc.lft.to/lastmile_qr_scan", "ios": "https://dc.lft.to/lastmile_qr_scan"}, "is_reserved": 0, "is_disabled": 0, "type": "electric_scooter", "bike_id": "a196dbcac3446fa18bb6dde7a944d058"}, {"lon": -77.02819933333333, "lat": 38.91681833333333, "name": "69b423c1fcf350abb8e2701e220d8134", "fusion_lat": 0.0, "fusion_lon": 0.0, "rental_uris": {"android": "https://dc.lft.to/lastmile_qr_scan", "ios": "https://dc.lft.to/lastmile_qr_scan"}, "is_reserved": 0, "is_disabled": 0, "type": "electric_scooter", "bike_id": "69b423c1fcf350abb8e2701e220d8134"}, {"lon": -77.114273, "lat": 38.85244616666667, "name": "4bb335f2712dff998fbfb25c646f5e01", "fusion_lat": 0.0, "fusion_lon": 0.0, "rental_uris": {"android": "https://dc.lft.to/lastmile_qr_scan", "ios": "https://dc.lft.to/lastmile_qr_scan"}, "is_reserved": 0, "is_disabled": 0, "type": "electric_bike", "bike_id": "4bb335f2712dff998fbfb25c646f5e01"}, {"lon": -77.03144016666667, "lat": 38.91264283333334, "name": "30d79cbc46285265496342d9b87fd5ec", "fusion_lat": 0.0, "fusion_lon": 0.0, "rental_uris": {"android": "https://dc.lft.to/lastmile_qr_scan", "ios": "https://dc.lft.to/lastmile_qr_scan"}, "is_reserved": 0, "is_disabled": 0, "type": "electric_scooter", "bike_id": "30d79cbc46285265496342d9b87fd5ec"}, {"lon": -76.997791, "lat": 38.922964666666665, "name": "14050c47eb5c0a441a6fbcb113516d80", "fusion_lat": 0.0, "fusion_lon": 0.0, "rental_uris": {"android": "https://dc.lft.to/lastmile_qr_scan", "ios": "https://dc.lft.to/lastmile_qr_scan"}, "is_reserved": 0, "is_disabled": 0, "type": "electric_scooter", "bike_id": "14050c47eb5c0a441a6fbcb113516d80"}, {"lon": -76.98374, "lat": 38.86482733333333, "name": "c957cbae38ab9f58b80c815a65e61451", "fusion_lat": 0.0, "fusion_lon": 0.0, "rental_uris": {"android": "https://dc.lft.to/lastmile_qr_scan", "ios": "https://dc.lft.to/lastmile_qr_scan"}, "is_reserved": 0, "is_disabled": 0, "type": "electric_scooter", "bike_id": "c957cbae38ab9f58b80c815a65e61451"}, {"lon": -77.04031166666667, "lat": 38.923755666666665, "name": "91499a1f1bfbf11c855991e6197ee43a", "fusion_lat": 0.0, "fusion_lon": 0.0, "rental_uris": {"android": "https://dc.lft.to/lastmile_qr_scan", "ios": "https://dc.lft.to/lastmile_qr_scan"}, "is_reserved": 0, "is_disabled": 0, "type": "electric_scooter", "bike_id": "91499a1f1bfbf11c855991e6197ee43a"}, {"lon": -77.0270385, "lat": 38.91816583333333, "name": "060538ebb3634c4af70058be2fdc7c11", "fusion_lat": 0.0, "fusion_lon": 0.0, "rental_uris": {"android": "https://dc.lft.to/lastmile_qr_scan", "ios": "https://dc.lft.to/lastmile_qr_scan"}, "is_reserved": 0, "is_disabled": 0, "type": "electric_scooter", "bike_id": "060538ebb3634c4af70058be2fdc7c11"}, {"lon": -77.0175905, "lat": 38.87709183333333, "name": "17e11f00bee25234186430ddb01569ff", "fusion_lat": 0.0, "fusion_lon": 0.0, "rental_uris": {"android": "https://dc.lft.to/lastmile_qr_scan", "ios": "https://dc.lft.to/lastmile_qr_scan"}, "is_reserved": 0, "is_disabled": 0, "type": "electric_bike", "bike_id": "17e11f00bee25234186430ddb01569ff"}, {"lon": -77.03645133333333, "lat": 38.916247166666665, "name": "130d93f02168724db26f7f47eacc97e5", "fusion_lat": 0.0, "fusion_lon": 0.0, "rental_uris": {"android": "https://dc.lft.to/lastmile_qr_scan", "ios": "https://dc.lft.to/lastmile_qr_scan"}, "is_reserved": 0, "is_disabled": 0, "type": "electric_scooter", "bike_id": "130d93f02168724db26f7f47eacc97e5"}, {"lon": -77.01841866666666, "lat": 38.946259, "name": "82dea8bfb232c703d959f0f0ee1dbacc", "fusion_lat": 0.0, "fusion_lon": 0.0, "rental_uris": {"android": "https://dc.lft.to/lastmile_qr_scan", "ios": "https://dc.lft.to/lastmile_qr_scan"}, "is_reserved": 0, "is_disabled": 0, "type": "electric_scooter", "bike_id": "82dea8bfb232c703d959f0f0ee1dbacc"}, {"lon": -77.02907883333333, "lat": 38.958419166666665, "name": "a67f5a2762d2a76f0b7571e973bcb443", "fusion_lat": 0.0, "fusion_lon": 0.0, "rental_uris": {"android": "https://dc.lft.to/lastmile_qr_scan", "ios": "https://dc.lft.to/lastmile_qr_scan"}, "is_reserved": 0, "is_disabled": 0, "type": "electric_scooter", "bike_id": "a67f5a2762d2a76f0b7571e973bcb443"}, {"lon": -76.99935316666667, "lat": 38.896183, "name": "8f3e3784a0a737c9ba0a214e14525fac", "fusion_lat": 0.0, "fusion_lon": 0.0, "rental_uris": {"android": "https://dc.lft.to/lastmile_qr_scan", "ios": "https://dc.lft.to/lastmile_qr_scan"}, "is_reserved": 0, "is_disabled": 0, "type": "electric_scooter", "bike_id": "8f3e3784a0a737c9ba0a214e14525fac"}, {"lon": -77.08823, "lat": 38.90973483333333, "name": "6dd43960f2fb47d6cdaf1a9452c58350", "fusion_lat": 0.0, "fusion_lon": 0.0, "rental_uris": {"android": "https://dc.lft.to/lastmile_qr_scan", "ios": "https://dc.lft.to/lastmile_qr_scan"}, "is_reserved": 0, "is_disabled": 0, "type": "electric_bike", "bike_id": "6dd43960f2fb47d6cdaf1a9452c58350"}, {"lon": -77.0120555, "lat": 38.91490816666666, "name": "62235bea0a66ac8e041f36dd54df61cf", "fusion_lat": 0.0, "fusion_lon": 0.0, "rental_uris": {"android": "https://dc.lft.to/lastmile_qr_scan", "ios": "https://dc.lft.to/lastmile_qr_scan"}, "is_reserved": 0, "is_disabled": 0, "type": "electric_scooter", "bike_id": "62235bea0a66ac8e041f36dd54df61cf"}, {"lon": -76.98732216666667, "lat": 38.86711966666667, "name": "7f12204f9ffdb47c9a6ba2ff266f38da", "fusion_lat": 0.0, "fusion_lon": 0.0, "rental_uris": {"android": "https://dc.lft.to/lastmile_qr_scan", "ios": "https://dc.lft.to/lastmile_qr_scan"}, "is_reserved": 0, "is_disabled": 0, "type": "electric_scooter", "bike_id": "7f12204f9ffdb47c9a6ba2ff266f38da"}, {"lon": -77.02336183333334, "lat": 38.88479733333333, "name": "1261ca836f4a774f2125e946b12bbc42", "fusion_lat": 0.0, "fusion_lon": 0.0, "rental_uris": {"android": "https://dc.lft.to/lastmile_qr_scan", "ios": "https://dc.lft.to/lastmile_qr_scan"}, "is_reserved": 0, "is_disabled": 0, "type": "electric_scooter", "bike_id": "1261ca836f4a774f2125e946b12bbc42"}, {"lon": -77.03264833333333, "lat": 38.908628666666665, "name": "d0d0696e542daf21311d59d90f3c2399", "fusion_lat": 0.0, "fusion_lon": 0.0, "rental_uris": {"android": "https://dc.lft.to/lastmile_qr_scan", "ios": "https://dc.lft.to/lastmile_qr_scan"}, "is_reserved": 0, "is_disabled": 0, "type": "electric_scooter", "bike_id": "d0d0696e542daf21311d59d90f3c2399"}, {"lon": -77.03250616666666, "lat": 38.90240683333333, "name": "b905ce7c05ffc2f7717cf6140076ebfb", "fusion_lat": 0.0, "fusion_lon": 0.0, "rental_uris": {"android": "https://dc.lft.to/lastmile_qr_scan", "ios": "https://dc.lft.to/lastmile_qr_scan"}, "is_reserved": 0, "is_disabled": 0, "type": "electric_scooter", "bike_id": "b905ce7c05ffc2f7717cf6140076ebfb"}, {"lon": -77.04091633333333, "lat": 38.9238405, "name": "d08b011e6371f7df66c9d9a8d209ad55", "fusion_lat": 0.0, "fusion_lon": 0.0, "rental_uris": {"android": "https://dc.lft.to/lastmile_qr_scan", "ios": "https://dc.lft.to/lastmile_qr_scan"}, "is_reserved": 0, "is_disabled": 0, "type": "electric_scooter", "bike_id": "d08b011e6371f7df66c9d9a8d209ad55"}, {"lon": -77.02703166666667, "lat": 38.9500175, "name": "9317f8376f53f14b80bb1f37419654b9", "fusion_lat": 0.0, "fusion_lon": 0.0, "rental_uris": {"android": "https://dc.lft.to/lastmile_qr_scan", "ios": "https://dc.lft.to/lastmile_qr_scan"}, "is_reserved": 0, "is_disabled": 0, "type": "electric_scooter", "bike_id": "9317f8376f53f14b80bb1f37419654b9"}, {"lon": -77.0820725, "lat": 38.93551316666667, "name": "53293262d713b08459b5f76fbaf98afe", "fusion_lat": 0.0, "fusion_lon": 0.0, "rental_uris": {"android": "https://dc.lft.to/lastmile_qr_scan", "ios": "https://dc.lft.to/lastmile_qr_scan"}, "is_reserved": 0, "is_disabled": 0, "type": "electric_scooter", "bike_id": "53293262d713b08459b5f76fbaf98afe"}, {"lon": -77.00349516666667, "lat": 38.894609333333335, "name": "455e882e819ab63e34af4457af4d09d2", "fusion_lat": 0.0, "fusion_lon": 0.0, "rental_uris": {"android": "https://dc.lft.to/lastmile_qr_scan", "ios": "https://dc.lft.to/lastmile_qr_scan"}, "is_reserved": 0, "is_disabled": 0, "type": "electric_scooter", "bike_id": "455e882e819ab63e34af4457af4d09d2"}, {"lon": -77.04304283333333, "lat": 39.054449166666664, "name": "aaba5f7e5507d0ee82cffa29eb940394", "fusion_lat": 0.0, "fusion_lon": 0.0, "rental_uris": {"android": "https://dc.lft.to/lastmile_qr_scan", "ios": "https://dc.lft.to/lastmile_qr_scan"}, "is_reserved": 0, "is_disabled": 0, "type": "electric_bike", "bike_id": "aaba5f7e5507d0ee82cffa29eb940394"}, {"lon": -77.17845066666666, "lat": 39.08858133333333, "name": "7f02ef8c6e6d14045bee1d0563bdf2c4", "fusion_lat": 0.0, "fusion_lon": 0.0, "rental_uris": {"android": "https://dc.lft.to/lastmile_qr_scan", "ios": "https://dc.lft.to/lastmile_qr_scan"}, "is_reserved": 0, "is_disabled": 0, "type": "electric_bike", "bike_id": "7f02ef8c6e6d14045bee1d0563bdf2c4"}, {"lon": -77.042071, "lat": 38.914122166666665, "name": "6e8f491932c7e61bd9272ad14e179351", "fusion_lat": 0.0, "fusion_lon": 0.0, "rental_uris": {"android": "https://dc.lft.to/lastmile_qr_scan", "ios": "https://dc.lft.to/lastmile_qr_scan"}, "is_reserved": 0, "is_disabled": 0, "type": "electric_scooter", "bike_id": "6e8f491932c7e61bd9272ad14e179351"}, {"lon": -77.040634, "lat": 38.917634, "name": "ed538850102104b901c876e87b9a98ee", "fusion_lat": 0.0, "fusion_lon": 0.0, "rental_uris": {"android": "https://dc.lft.to/lastmile_qr_scan", "ios": "https://dc.lft.to/lastmile_qr_scan"}, "is_reserved": 0, "is_disabled": 0, "type": "electric_scooter", "bike_id": "ed538850102104b901c876e87b9a98ee"}, {"lon": -77.01406133333333, "lat": 38.92850833333333, "name": "ced6a8392f4014929a3c34aea59da860", "fusion_lat": 0.0, "fusion_lon": 0.0, "rental_uris": {"android": "https://dc.lft.to/lastmile_qr_scan", "ios": "https://dc.lft.to/lastmile_qr_scan"}, "is_reserved": 0, "is_disabled": 0, "type": "electric_scooter", "bike_id": "ced6a8392f4014929a3c34aea59da860"}, {"lon": -77.050011, "lat": 38.904088333333334, "name": "d95cfbd9868f827f1dbbe726c8bcc6da", "fusion_lat": 0.0, "fusion_lon": 0.0, "rental_uris": {"android": "https://dc.lft.to/lastmile_qr_scan", "ios": "https://dc.lft.to/lastmile_qr_scan"}, "is_reserved": 0, "is_disabled": 0, "type": "electric_scooter", "bike_id": "d95cfbd9868f827f1dbbe726c8bcc6da"}, {"lon": -77.02200266666667, "lat": 38.9054865, "name": "4f920f77e41a4c8d20d0c717d13a22d6", "fusion_lat": 0.0, "fusion_lon": 0.0, "rental_uris": {"android": "https://dc.lft.to/lastmile_qr_scan", "ios": "https://dc.lft.to/lastmile_qr_scan"}, "is_reserved": 0, "is_disabled": 0, "type": "electric_scooter", "bike_id": "4f920f77e41a4c8d20d0c717d13a22d6"}, {"lon": -77.046178, "lat": 38.9222885, "name": "96ff5d1ff25dfefa0749d5149cc544d6", "fusion_lat": 0.0, "fusion_lon": 0.0, "rental_uris": {"android": "https://dc.lft.to/lastmile_qr_scan", "ios": "https://dc.lft.to/lastmile_qr_scan"}, "is_reserved": 0, "is_disabled": 0, "type": "electric_scooter", "bike_id": "96ff5d1ff25dfefa0749d5149cc544d6"}, {"lon": -76.99161933333333, "lat": 38.895431333333335, "name": "789bf25a9ac687761260f53c22ec18ce", "fusion_lat": 0.0, "fusion_lon": 0.0, "rental_uris": {"android": "https://dc.lft.to/lastmile_qr_scan", "ios": "https://dc.lft.to/lastmile_qr_scan"}, "is_reserved": 0, "is_disabled": 0, "type": "electric_scooter", "bike_id": "789bf25a9ac687761260f53c22ec18ce"}, {"lon": -77.02026633333334, "lat": 38.924292, "name": "d184d87d22d400ec39ff3f08d5abf36f", "fusion_lat": 0.0, "fusion_lon": 0.0, "rental_uris": {"android": "https://dc.lft.to/lastmile_qr_scan", "ios": "https://dc.lft.to/lastmile_qr_scan"}, "is_reserved": 0, "is_disabled": 0, "type": "electric_scooter", "bike_id": "d184d87d22d400ec39ff3f08d5abf36f"}, {"lon": -77.03410966666667, "lat": 38.922706166666664, "name": "ea88ff78c893e0e05578680b920f74f0", "fusion_lat": 0.0, "fusion_lon": 0.0, "rental_uris": {"android": "https://dc.lft.to/lastmile_qr_scan", "ios": "https://dc.lft.to/lastmile_qr_scan"}, "is_reserved": 0, "is_disabled": 0, "type": "electric_scooter", "bike_id": "ea88ff78c893e0e05578680b920f74f0"}, {"lon": -77.04169716666667, "lat": 38.91613433333333, "name": "2fe5a32fe5fc07e5a7954d811ce35d97", "fusion_lat": 0.0, "fusion_lon": 0.0, "rental_uris": {"android": "https://dc.lft.to/lastmile_qr_scan", "ios": "https://dc.lft.to/lastmile_qr_scan"}, "is_reserved": 0, "is_disabled": 0, "type": "electric_scooter", "bike_id": "2fe5a32fe5fc07e5a7954d811ce35d97"}, {"lon": -76.99029166666666, "lat": 38.86404533333334, "name": "283f4e47e590b3be3cd35905f61e1af5", "fusion_lat": 0.0, "fusion_lon": 0.0, "rental_uris": {"android": "https://dc.lft.to/lastmile_qr_scan", "ios": "https://dc.lft.to/lastmile_qr_scan"}, "is_reserved": 0, "is_disabled": 0, "type": "electric_scooter", "bike_id": "283f4e47e590b3be3cd35905f61e1af5"}, {"lon": -77.0676335, "lat": 38.9036935, "name": "713e5c20584375add1ed69dd27217c5c", "fusion_lat": 0.0, "fusion_lon": 0.0, "rental_uris": {"android": "https://dc.lft.to/lastmile_qr_scan", "ios": "https://dc.lft.to/lastmile_qr_scan"}, "is_reserved": 0, "is_disabled": 0, "type": "electric_scooter", "bike_id": "713e5c20584375add1ed69dd27217c5c"}, {"lon": -77.05850666666667, "lat": 38.934243333333335, "name": "fe307fb4beddb608d9045012e8a0a2ef", "fusion_lat": 0.0, "fusion_lon": 0.0, "rental_uris": {"android": "https://dc.lft.to/lastmile_qr_scan", "ios": "https://dc.lft.to/lastmile_qr_scan"}, "is_reserved": 0, "is_disabled": 0, "type": "electric_scooter", "bike_id": "fe307fb4beddb608d9045012e8a0a2ef"}, {"lon": -77.0304915, "lat": 38.88400983333333, "name": "a1165d2eafce2772495debf95236f34d", "fusion_lat": 0.0, "fusion_lon": 0.0, "rental_uris": {"android": "https://dc.lft.to/lastmile_qr_scan", "ios": "https://dc.lft.to/lastmile_qr_scan"}, "is_reserved": 0, "is_disabled": 0, "type": "electric_scooter", "bike_id": "a1165d2eafce2772495debf95236f34d"}, {"lon": -76.94964733333333, "lat": 38.893706, "name": "792e2f7963ad1757f62342035c06269c", "fusion_lat": 0.0, "fusion_lon": 0.0, "rental_uris": {"android": "https://dc.lft.to/lastmile_qr_scan", "ios": "https://dc.lft.to/lastmile_qr_scan"}, "is_reserved": 0, "is_disabled": 0, "type": "electric_scooter", "bike_id": "792e2f7963ad1757f62342035c06269c"}, {"lon": -77.02836766666667, "lat": 38.89226466666667, "name": "b3ce53c215a78c5a62e3268c76159bd7", "fusion_lat": 0.0, "fusion_lon": 0.0, "rental_uris": {"android": "https://dc.lft.to/lastmile_qr_scan", "ios": "https://dc.lft.to/lastmile_qr_scan"}, "is_reserved": 0, "is_disabled": 0, "type": "electric_scooter", "bike_id": "b3ce53c215a78c5a62e3268c76159bd7"}, {"lon": -77.02207783333333, "lat": 38.91551883333333, "name": "b373d34ee408eaa738d53efb118ce118", "fusion_lat": 0.0, "fusion_lon": 0.0, "rental_uris": {"android": "https://dc.lft.to/lastmile_qr_scan", "ios": "https://dc.lft.to/lastmile_qr_scan"}, "is_reserved": 0, "is_disabled": 0, "type": "electric_scooter", "bike_id": "b373d34ee408eaa738d53efb118ce118"}, {"lon": -77.02433866666667, "lat": 38.920440166666666, "name": "a788bb20dd338fd351aacd1f24182709", "fusion_lat": 0.0, "fusion_lon": 0.0, "rental_uris": {"android": "https://dc.lft.to/lastmile_qr_scan", "ios": "https://dc.lft.to/lastmile_qr_scan"}, "is_reserved": 0, "is_disabled": 0, "type": "electric_scooter", "bike_id": "a788bb20dd338fd351aacd1f24182709"}, {"lon": -77.06034966666667, "lat": 38.93930533333333, "name": "58e0b4075c483e8c5c6f40e8a7998a35", "fusion_lat": 0.0, "fusion_lon": 0.0, "rental_uris": {"android": "https://dc.lft.to/lastmile_qr_scan", "ios": "https://dc.lft.to/lastmile_qr_scan"}, "is_reserved": 0, "is_disabled": 0, "type": "electric_scooter", "bike_id": "58e0b4075c483e8c5c6f40e8a7998a35"}, {"lon": -76.93346733333334, "lat": 38.89907383333333, "name": "7d70ac50c0ae7648be5011707b433938", "fusion_lat": 0.0, "fusion_lon": 0.0, "rental_uris": {"android": "https://dc.lft.to/lastmile_qr_scan", "ios": "https://dc.lft.to/lastmile_qr_scan"}, "is_reserved": 0, "is_disabled": 0, "type": "electric_scooter", "bike_id": "7d70ac50c0ae7648be5011707b433938"}, {"lon": -77.07345766666667, "lat": 38.911012166666666, "name": "e8c43ef73e36efab1e917198926171e8", "fusion_lat": 0.0, "fusion_lon": 0.0, "rental_uris": {"android": "https://dc.lft.to/lastmile_qr_scan", "ios": "https://dc.lft.to/lastmile_qr_scan"}, "is_reserved": 0, "is_disabled": 0, "type": "electric_scooter", "bike_id": "e8c43ef73e36efab1e917198926171e8"}, {"lon": -77.00732316666667, "lat": 38.904822333333335, "name": "656b24b2c5881495f2ac6da4320688d7", "fusion_lat": 0.0, "fusion_lon": 0.0, "rental_uris": {"android": "https://dc.lft.to/lastmile_qr_scan", "ios": "https://dc.lft.to/lastmile_qr_scan"}, "is_reserved": 0, "is_disabled": 0, "type": "electric_scooter", "bike_id": "656b24b2c5881495f2ac6da4320688d7"}, {"lon": -77.05150066666667, "lat": 38.904506166666664, "name": "d42a7734e5eccb27c36cd112111e80c4", "fusion_lat": 0.0, "fusion_lon": 0.0, "rental_uris": {"android": "https://dc.lft.to/lastmile_qr_scan", "ios": "https://dc.lft.to/lastmile_qr_scan"}, "is_reserved": 0, "is_disabled": 0, "type": "electric_scooter", "bike_id": "d42a7734e5eccb27c36cd112111e80c4"}, {"lon": -77.03174316666667, "lat": 38.91924916666667, "name": "4d10954908c8565fdc5e6b3c2f460f17", "fusion_lat": 0.0, "fusion_lon": 0.0, "rental_uris": {"android": "https://dc.lft.to/lastmile_qr_scan", "ios": "https://dc.lft.to/lastmile_qr_scan"}, "is_reserved": 0, "is_disabled": 0, "type": "electric_scooter", "bike_id": "4d10954908c8565fdc5e6b3c2f460f17"}, {"lon": -76.98543833333333, "lat": 38.8799325, "name": "a0b16e46efff58792dd7b6d6b28a9153", "fusion_lat": 0.0, "fusion_lon": 0.0, "rental_uris": {"android": "https://dc.lft.to/lastmile_qr_scan", "ios": "https://dc.lft.to/lastmile_qr_scan"}, "is_reserved": 0, "is_disabled": 0, "type": "electric_scooter", "bike_id": "a0b16e46efff58792dd7b6d6b28a9153"}, {"lon": -77.10506666666667, "lat": 38.92851733333333, "name": "66abc0a1e53dd491fc3586c6f789ea19", "fusion_lat": 0.0, "fusion_lon": 0.0, "rental_uris": {"android": "https://dc.lft.to/lastmile_qr_scan", "ios": "https://dc.lft.to/lastmile_qr_scan"}, "is_reserved": 0, "is_disabled": 0, "type": "electric_bike", "bike_id": "66abc0a1e53dd491fc3586c6f789ea19"}, {"lon": -77.02759233333333, "lat": 38.94286983333333, "name": "482586c6f2b51bf1838c6754487b5f9b", "fusion_lat": 0.0, "fusion_lon": 0.0, "rental_uris": {"android": "https://dc.lft.to/lastmile_qr_scan", "ios": "https://dc.lft.to/lastmile_qr_scan"}, "is_reserved": 0, "is_disabled": 0, "type": "electric_scooter", "bike_id": "482586c6f2b51bf1838c6754487b5f9b"}, {"lon": -77.045118, "lat": 38.9077465, "name": "1b2c7fb23e8670c58d980826a4852b3c", "fusion_lat": 0.0, "fusion_lon": 0.0, "rental_uris": {"android": "https://dc.lft.to/lastmile_qr_scan", "ios": "https://dc.lft.to/lastmile_qr_scan"}, "is_reserved": 0, "is_disabled": 0, "type": "electric_scooter", "bike_id": "1b2c7fb23e8670c58d980826a4852b3c"}, {"lon": -77.04248333333334, "lat": 38.9177175, "name": "e6ba3c4f6d21218b9bf96953c9a60014", "fusion_lat": 0.0, "fusion_lon": 0.0, "rental_uris": {"android": "https://dc.lft.to/lastmile_qr_scan", "ios": "https://dc.lft.to/lastmile_qr_scan"}, "is_reserved": 0, "is_disabled": 0, "type": "electric_scooter", "bike_id": "e6ba3c4f6d21218b9bf96953c9a60014"}, {"lon": -76.98415233333333, "lat": 38.859650333333335, "name": "c1578e86802c8f9be7ef6ff8c037edda", "fusion_lat": 0.0, "fusion_lon": 0.0, "rental_uris": {"android": "https://dc.lft.to/lastmile_qr_scan", "ios": "https://dc.lft.to/lastmile_qr_scan"}, "is_reserved": 0, "is_disabled": 0, "type": "electric_scooter", "bike_id": "c1578e86802c8f9be7ef6ff8c037edda"}, {"lon": -77.08934083333334, "lat": 38.840969333333334, "name": "253419bb8350148f09b483520ec23682", "fusion_lat": 0.0, "fusion_lon": 0.0, "rental_uris": {"android": "https://dc.lft.to/lastmile_qr_scan", "ios": "https://dc.lft.to/lastmile_qr_scan"}, "is_reserved": 0, "is_disabled": 0, "type": "electric_bike", "bike_id": "253419bb8350148f09b483520ec23682"}, {"lon": -77.03105916666667, "lat": 38.9001485, "name": "ee63a3c85d6ed0f4d6662f6bca5182c2", "fusion_lat": 0.0, "fusion_lon": 0.0, "rental_uris": {"android": "https://dc.lft.to/lastmile_qr_scan", "ios": "https://dc.lft.to/lastmile_qr_scan"}, "is_reserved": 0, "is_disabled": 0, "type": "electric_scooter", "bike_id": "ee63a3c85d6ed0f4d6662f6bca5182c2"}, {"lon": -77.05519483333333, "lat": 38.899415166666664, "name": "06b931cd204ca0bfc79c1d8a5d28f9fb", "fusion_lat": 0.0, "fusion_lon": 0.0, "rental_uris": {"android": "https://dc.lft.to/lastmile_qr_scan", "ios": "https://dc.lft.to/lastmile_qr_scan"}, "is_reserved": 0, "is_disabled": 0, "type": "electric_scooter", "bike_id": "06b931cd204ca0bfc79c1d8a5d28f9fb"}, {"lon": -77.021618, "lat": 38.92822016666667, "name": "41c4f3876e0955d023b93f77880cd727", "fusion_lat": 0.0, "fusion_lon": 0.0, "rental_uris": {"android": "https://dc.lft.to/lastmile_qr_scan", "ios": "https://dc.lft.to/lastmile_qr_scan"}, "is_reserved": 0, "is_disabled": 0, "type": "electric_scooter", "bike_id": "41c4f3876e0955d023b93f77880cd727"}, {"lon": -77.00223633333333, "lat": 38.91169883333333, "name": "17cb7d7218fc50dc3d68e44d05687961", "fusion_lat": 0.0, "fusion_lon": 0.0, "rental_uris": {"android": "https://dc.lft.to/lastmile_qr_scan", "ios": "https://dc.lft.to/lastmile_qr_scan"}, "is_reserved": 0, "is_disabled": 0, "type": "electric_bike", "bike_id": "17cb7d7218fc50dc3d68e44d05687961"}, {"lon": -76.996008, "lat": 38.88866316666667, "name": "c239f65ebe4e8a91c1bcb086cb3d7d71", "fusion_lat": 0.0, "fusion_lon": 0.0, "rental_uris": {"android": "https://dc.lft.to/lastmile_qr_scan", "ios": "https://dc.lft.to/lastmile_qr_scan"}, "is_reserved": 0, "is_disabled": 0, "type": "electric_scooter", "bike_id": "c239f65ebe4e8a91c1bcb086cb3d7d71"}, {"lon": -77.08054283333334, "lat": 38.8484295, "name": "7c645e61ee64b40c475555fc832ed66f", "fusion_lat": 0.0, "fusion_lon": 0.0, "rental_uris": {"android": "https://dc.lft.to/lastmile_qr_scan", "ios": "https://dc.lft.to/lastmile_qr_scan"}, "is_reserved": 0, "is_disabled": 0, "type": "electric_bike", "bike_id": "7c645e61ee64b40c475555fc832ed66f"}, {"lon": -76.95676950000001, "lat": 38.94728633333333, "name": "b1fc39da799d6cd8aa7657293be8ed7e", "fusion_lat": 0.0, "fusion_lon": 0.0, "rental_uris": {"android": "https://dc.lft.to/lastmile_qr_scan", "ios": "https://dc.lft.to/lastmile_qr_scan"}, "is_reserved": 0, "is_disabled": 0, "type": "electric_bike", "bike_id": "b1fc39da799d6cd8aa7657293be8ed7e"}, {"lon": -76.99463266666666, "lat": 38.85159783333334, "name": "82f04564bd136a5e61b1de98ab1520d3", "fusion_lat": 0.0, "fusion_lon": 0.0, "rental_uris": {"android": "https://dc.lft.to/lastmile_qr_scan", "ios": "https://dc.lft.to/lastmile_qr_scan"}, "is_reserved": 0, "is_disabled": 0, "type": "electric_scooter", "bike_id": "82f04564bd136a5e61b1de98ab1520d3"}, {"lon": -77.02208916666666, "lat": 38.91427683333333, "name": "130f730e9db2d3dde42c702b0b401a6a", "fusion_lat": 0.0, "fusion_lon": 0.0, "rental_uris": {"android": "https://dc.lft.to/lastmile_qr_scan", "ios": "https://dc.lft.to/lastmile_qr_scan"}, "is_reserved": 0, "is_disabled": 0, "type": "electric_scooter", "bike_id": "130f730e9db2d3dde42c702b0b401a6a"}, {"lon": -77.01886683333333, "lat": 38.90345266666667, "name": "c1eb1b88a5a9eb69edccf85d6f21ca0d", "fusion_lat": 0.0, "fusion_lon": 0.0, "rental_uris": {"android": "https://dc.lft.to/lastmile_qr_scan", "ios": "https://dc.lft.to/lastmile_qr_scan"}, "is_reserved": 0, "is_disabled": 0, "type": "electric_scooter", "bike_id": "c1eb1b88a5a9eb69edccf85d6f21ca0d"}, {"lon": -77.01113566666666, "lat": 38.870802166666664, "name": "1507dfe50e4ed6e283bda9ec92810e9a", "fusion_lat": 0.0, "fusion_lon": 0.0, "rental_uris": {"android": "https://dc.lft.to/lastmile_qr_scan", "ios": "https://dc.lft.to/lastmile_qr_scan"}, "is_reserved": 0, "is_disabled": 0, "type": "electric_scooter", "bike_id": "1507dfe50e4ed6e283bda9ec92810e9a"}, {"lon": -76.98155016666666, "lat": 38.95960183333333, "name": "b28685f284b8c5540af0d5aac18f648e", "fusion_lat": 0.0, "fusion_lon": 0.0, "rental_uris": {"android": "https://dc.lft.to/lastmile_qr_scan", "ios": "https://dc.lft.to/lastmile_qr_scan"}, "is_reserved": 0, "is_disabled": 0, "type": "electric_bike", "bike_id": "b28685f284b8c5540af0d5aac18f648e"}, {"lon": -76.95114266666667, "lat": 38.88791483333333, "name": "80439f1f07ced86ef4266d9f94379214", "fusion_lat": 0.0, "fusion_lon": 0.0, "rental_uris": {"android": "https://dc.lft.to/lastmile_qr_scan", "ios": "https://dc.lft.to/lastmile_qr_scan"}, "is_reserved": 0, "is_disabled": 0, "type": "electric_scooter", "bike_id": "80439f1f07ced86ef4266d9f94379214"}, {"lon": -76.985447, "lat": 38.9095265, "name": "e2b91ef96cd4ee6bf435479988bf62a1", "fusion_lat": 0.0, "fusion_lon": 0.0, "rental_uris": {"android": "https://dc.lft.to/lastmile_qr_scan", "ios": "https://dc.lft.to/lastmile_qr_scan"}, "is_reserved": 0, "is_disabled": 0, "type": "electric_scooter", "bike_id": "e2b91ef96cd4ee6bf435479988bf62a1"}, {"lon": -77.01241083333333, "lat": 38.90039316666667, "name": "f81c29318c9115a7ee46797ee95a6f5a", "fusion_lat": 0.0, "fusion_lon": 0.0, "rental_uris": {"android": "https://dc.lft.to/lastmile_qr_scan", "ios": "https://dc.lft.to/lastmile_qr_scan"}, "is_reserved": 0, "is_disabled": 0, "type": "electric_scooter", "bike_id": "f81c29318c9115a7ee46797ee95a6f5a"}, {"lon": -77.01652083333333, "lat": 38.915881, "name": "54c621f1ad489c66d95d276f6f0f63ad", "fusion_lat": 0.0, "fusion_lon": 0.0, "rental_uris": {"android": "https://dc.lft.to/lastmile_qr_scan", "ios": "https://dc.lft.to/lastmile_qr_scan"}, "is_reserved": 0, "is_disabled": 0, "type": "electric_scooter", "bike_id": "54c621f1ad489c66d95d276f6f0f63ad"}, {"lon": -77.04282016666667, "lat": 38.907269666666664, "name": "097834fa98172f338f667cd0633cf3b7", "fusion_lat": 0.0, "fusion_lon": 0.0, "rental_uris": {"android": "https://dc.lft.to/lastmile_qr_scan", "ios": "https://dc.lft.to/lastmile_qr_scan"}, "is_reserved": 0, "is_disabled": 0, "type": "electric_scooter", "bike_id": "097834fa98172f338f667cd0633cf3b7"}, {"lon": -77.021603, "lat": 38.90363683333333, "name": "c6030227c5fc19b41ca06653d41b96e5", "fusion_lat": 0.0, "fusion_lon": 0.0, "rental_uris": {"android": "https://dc.lft.to/lastmile_qr_scan", "ios": "https://dc.lft.to/lastmile_qr_scan"}, "is_reserved": 0, "is_disabled": 0, "type": "electric_scooter", "bike_id": "c6030227c5fc19b41ca06653d41b96e5"}, {"lon": -77.02974266666666, "lat": 38.9051005, "name": "57bc26d9bb5fb9dfcb4c07fab3541eb0", "fusion_lat": 0.0, "fusion_lon": 0.0, "rental_uris": {"android": "https://dc.lft.to/lastmile_qr_scan", "ios": "https://dc.lft.to/lastmile_qr_scan"}, "is_reserved": 0, "is_disabled": 0, "type": "electric_scooter", "bike_id": "57bc26d9bb5fb9dfcb4c07fab3541eb0"}, {"lon": -76.931738, "lat": 38.898816833333335, "name": "4209921b8f1c53eb98d299d50b24ad05", "fusion_lat": 0.0, "fusion_lon": 0.0, "rental_uris": {"android": "https://dc.lft.to/lastmile_qr_scan", "ios": "https://dc.lft.to/lastmile_qr_scan"}, "is_reserved": 0, "is_disabled": 0, "type": "electric_scooter", "bike_id": "4209921b8f1c53eb98d299d50b24ad05"}, {"lon": -77.04832166666667, "lat": 38.918441, "name": "99f758c636e5fdaa389c570cbe36b99b", "fusion_lat": 0.0, "fusion_lon": 0.0, "rental_uris": {"android": "https://dc.lft.to/lastmile_qr_scan", "ios": "https://dc.lft.to/lastmile_qr_scan"}, "is_reserved": 0, "is_disabled": 0, "type": "electric_scooter", "bike_id": "99f758c636e5fdaa389c570cbe36b99b"}, {"lon": -77.03251566666667, "lat": 38.918161, "name": "8c10e78853071be347c6c1fef2d80076", "fusion_lat": 0.0, "fusion_lon": 0.0, "rental_uris": {"android": "https://dc.lft.to/lastmile_qr_scan", "ios": "https://dc.lft.to/lastmile_qr_scan"}, "is_reserved": 0, "is_disabled": 0, "type": "electric_scooter", "bike_id": "8c10e78853071be347c6c1fef2d80076"}, {"lon": -76.9996425, "lat": 38.9086565, "name": "4e90183e9044ed0ae58faeef3173c137", "fusion_lat": 0.0, "fusion_lon": 0.0, "rental_uris": {"android": "https://dc.lft.to/lastmile_qr_scan", "ios": "https://dc.lft.to/lastmile_qr_scan"}, "is_reserved": 0, "is_disabled": 0, "type": "electric_scooter", "bike_id": "4e90183e9044ed0ae58faeef3173c137"}, {"lon": -77.07152533333333, "lat": 38.95843, "name": "0d10312e3d690c7e61df6816f7cbd29c", "fusion_lat": 0.0, "fusion_lon": 0.0, "rental_uris": {"android": "https://dc.lft.to/lastmile_qr_scan", "ios": "https://dc.lft.to/lastmile_qr_scan"}, "is_reserved": 0, "is_disabled": 0, "type": "electric_scooter", "bike_id": "0d10312e3d690c7e61df6816f7cbd29c"}, {"lon": -76.98713416666666, "lat": 38.86694883333333, "name": "891a33c23b85711bba2cd78f41598eb3", "fusion_lat": 0.0, "fusion_lon": 0.0, "rental_uris": {"android": "https://dc.lft.to/lastmile_qr_scan", "ios": "https://dc.lft.to/lastmile_qr_scan"}, "is_reserved": 0, "is_disabled": 0, "type": "electric_scooter", "bike_id": "891a33c23b85711bba2cd78f41598eb3"}, {"lon": -77.0217545, "lat": 38.880299, "name": "fc7539d513457be816916932189d1cd0", "fusion_lat": 0.0, "fusion_lon": 0.0, "rental_uris": {"android": "https://dc.lft.to/lastmile_qr_scan", "ios": "https://dc.lft.to/lastmile_qr_scan"}, "is_reserved": 0, "is_disabled": 0, "type": "electric_scooter", "bike_id": "fc7539d513457be816916932189d1cd0"}, {"lon": -76.96556516666666, "lat": 38.91852, "name": "997bd803a8e6a3d37dfd24e1dabd2a30", "fusion_lat": 0.0, "fusion_lon": 0.0, "rental_uris": {"android": "https://dc.lft.to/lastmile_qr_scan", "ios": "https://dc.lft.to/lastmile_qr_scan"}, "is_reserved": 0, "is_disabled": 0, "type": "electric_scooter", "bike_id": "997bd803a8e6a3d37dfd24e1dabd2a30"}, {"lon": -77.00171916666666, "lat": 38.9051275, "name": "225b7401342acc8538dc36416ed35090", "fusion_lat": 0.0, "fusion_lon": 0.0, "rental_uris": {"android": "https://dc.lft.to/lastmile_qr_scan", "ios": "https://dc.lft.to/lastmile_qr_scan"}, "is_reserved": 0, "is_disabled": 0, "type": "electric_scooter", "bike_id": "225b7401342acc8538dc36416ed35090"}, {"lon": -77.125077, "lat": 39.024210833333335, "name": "2f2da86cfc38594c858c25df624d9548", "fusion_lat": 0.0, "fusion_lon": 0.0, "rental_uris": {"android": "https://dc.lft.to/lastmile_qr_scan", "ios": "https://dc.lft.to/lastmile_qr_scan"}, "is_reserved": 0, "is_disabled": 0, "type": "electric_bike", "bike_id": "2f2da86cfc38594c858c25df624d9548"}, {"lon": -77.02161766666667, "lat": 38.9261235, "name": "08248dc241b23c366bb942309266699b", "fusion_lat": 0.0, "fusion_lon": 0.0, "rental_uris": {"android": "https://dc.lft.to/lastmile_qr_scan", "ios": "https://dc.lft.to/lastmile_qr_scan"}, "is_reserved": 0, "is_disabled": 0, "type": "electric_scooter", "bike_id": "08248dc241b23c366bb942309266699b"}, {"lon": -77.013145, "lat": 38.89739016666667, "name": "e8d06fe17d13342810bc5a971bb4af49", "fusion_lat": 0.0, "fusion_lon": 0.0, "rental_uris": {"android": "https://dc.lft.to/lastmile_qr_scan", "ios": "https://dc.lft.to/lastmile_qr_scan"}, "is_reserved": 0, "is_disabled": 0, "type": "electric_scooter", "bike_id": "e8d06fe17d13342810bc5a971bb4af49"}, {"lon": -77.04693916666666, "lat": 38.92103633333333, "name": "b3cb9c1a7ddb51e10a8059ed903dbed7", "fusion_lat": 0.0, "fusion_lon": 0.0, "rental_uris": {"android": "https://dc.lft.to/lastmile_qr_scan", "ios": "https://dc.lft.to/lastmile_qr_scan"}, "is_reserved": 0, "is_disabled": 0, "type": "electric_scooter", "bike_id": "b3cb9c1a7ddb51e10a8059ed903dbed7"}, {"lon": -77.03086816666666, "lat": 38.909817, "name": "c64b7b5e3aab6acebb656313afec5627", "fusion_lat": 0.0, "fusion_lon": 0.0, "rental_uris": {"android": "https://dc.lft.to/lastmile_qr_scan", "ios": "https://dc.lft.to/lastmile_qr_scan"}, "is_reserved": 0, "is_disabled": 0, "type": "electric_scooter", "bike_id": "c64b7b5e3aab6acebb656313afec5627"}, {"lon": -77.01999233333333, "lat": 38.90463733333333, "name": "bddee6b12dd346858171183b468b43a6", "fusion_lat": 0.0, "fusion_lon": 0.0, "rental_uris": {"android": "https://dc.lft.to/lastmile_qr_scan", "ios": "https://dc.lft.to/lastmile_qr_scan"}, "is_reserved": 0, "is_disabled": 0, "type": "electric_scooter", "bike_id": "bddee6b12dd346858171183b468b43a6"}, {"lon": -77.03525083333334, "lat": 38.927271, "name": "453d644f90ac2c42bf3c9513b2415c6b", "fusion_lat": 0.0, "fusion_lon": 0.0, "rental_uris": {"android": "https://dc.lft.to/lastmile_qr_scan", "ios": "https://dc.lft.to/lastmile_qr_scan"}, "is_reserved": 0, "is_disabled": 0, "type": "electric_scooter", "bike_id": "453d644f90ac2c42bf3c9513b2415c6b"}, {"lon": -77.021255, "lat": 38.93699433333333, "name": "2fefde7a237ed61893bcc285e425e117", "fusion_lat": 0.0, "fusion_lon": 0.0, "rental_uris": {"android": "https://dc.lft.to/lastmile_qr_scan", "ios": "https://dc.lft.to/lastmile_qr_scan"}, "is_reserved": 0, "is_disabled": 0, "type": "electric_scooter", "bike_id": "2fefde7a237ed61893bcc285e425e117"}, {"lon": -77.0261295, "lat": 38.892864333333335, "name": "cfbe3c6cf796a1dc22d2ccd3e323c769", "fusion_lat": 0.0, "fusion_lon": 0.0, "rental_uris": {"android": "https://dc.lft.to/lastmile_qr_scan", "ios": "https://dc.lft.to/lastmile_qr_scan"}, "is_reserved": 0, "is_disabled": 0, "type": "electric_scooter", "bike_id": "cfbe3c6cf796a1dc22d2ccd3e323c769"}, {"lon": -77.02297233333333, "lat": 38.916276833333335, "name": "de9b04ea5781e1aacd55fc914ad89f6e", "fusion_lat": 0.0, "fusion_lon": 0.0, "rental_uris": {"android": "https://dc.lft.to/lastmile_qr_scan", "ios": "https://dc.lft.to/lastmile_qr_scan"}, "is_reserved": 0, "is_disabled": 0, "type": "electric_scooter", "bike_id": "de9b04ea5781e1aacd55fc914ad89f6e"}, {"lon": -76.905359, "lat": 38.89733916666667, "name": "cbcdd14bfa7e53a742cf69e1ce8aadf9", "fusion_lat": 0.0, "fusion_lon": 0.0, "rental_uris": {"android": "https://dc.lft.to/lastmile_qr_scan", "ios": "https://dc.lft.to/lastmile_qr_scan"}, "is_reserved": 0, "is_disabled": 0, "type": "electric_bike", "bike_id": "cbcdd14bfa7e53a742cf69e1ce8aadf9"}, {"lon": -77.040404, "lat": 38.92307533333334, "name": "845ee4340fa518771695ccc37b6a4a0a", "fusion_lat": 0.0, "fusion_lon": 0.0, "rental_uris": {"android": "https://dc.lft.to/lastmile_qr_scan", "ios": "https://dc.lft.to/lastmile_qr_scan"}, "is_reserved": 0, "is_disabled": 0, "type": "electric_scooter", "bike_id": "845ee4340fa518771695ccc37b6a4a0a"}, {"lon": -77.03697016666666, "lat": 38.926451, "name": "e3c12d11aec125dbdd15c449b228a461", "fusion_lat": 0.0, "fusion_lon": 0.0, "rental_uris": {"android": "https://dc.lft.to/lastmile_qr_scan", "ios": "https://dc.lft.to/lastmile_qr_scan"}, "is_reserved": 0, "is_disabled": 0, "type": "electric_scooter", "bike_id": "e3c12d11aec125dbdd15c449b228a461"}, {"lon": -77.0083445, "lat": 38.915483333333334, "name": "5450dd9b3886c002745d0df41a94cd44", "fusion_lat": 0.0, "fusion_lon": 0.0, "rental_uris": {"android": "https://dc.lft.to/lastmile_qr_scan", "ios": "https://dc.lft.to/lastmile_qr_scan"}, "is_reserved": 0, "is_disabled": 0, "type": "electric_scooter", "bike_id": "5450dd9b3886c002745d0df41a94cd44"}, {"lon": -76.96105716666666, "lat": 38.949632666666666, "name": "27a799f015108681ad9a985c411af62b", "fusion_lat": 0.0, "fusion_lon": 0.0, "rental_uris": {"android": "https://dc.lft.to/lastmile_qr_scan", "ios": "https://dc.lft.to/lastmile_qr_scan"}, "is_reserved": 0, "is_disabled": 0, "type": "electric_bike", "bike_id": "27a799f015108681ad9a985c411af62b"}, {"lon": -76.95268483333334, "lat": 38.88595683333333, "name": "d511d068a11203f2d6a1ed26e95bf24f", "fusion_lat": 0.0, "fusion_lon": 0.0, "rental_uris": {"android": "https://dc.lft.to/lastmile_qr_scan", "ios": "https://dc.lft.to/lastmile_qr_scan"}, "is_reserved": 0, "is_disabled": 0, "type": "electric_scooter", "bike_id": "d511d068a11203f2d6a1ed26e95bf24f"}, {"lon": -77.064577, "lat": 38.910431833333334, "name": "ff462d1f312670117bbab68e34c1107d", "fusion_lat": 0.0, "fusion_lon": 0.0, "rental_uris": {"android": "https://dc.lft.to/lastmile_qr_scan", "ios": "https://dc.lft.to/lastmile_qr_scan"}, "is_reserved": 0, "is_disabled": 0, "type": "electric_scooter", "bike_id": "ff462d1f312670117bbab68e34c1107d"}, {"lon": -76.97906583333334, "lat": 38.90386083333333, "name": "cd60637e67f5901c4090ddb881500865", "fusion_lat": 0.0, "fusion_lon": 0.0, "rental_uris": {"android": "https://dc.lft.to/lastmile_qr_scan", "ios": "https://dc.lft.to/lastmile_qr_scan"}, "is_reserved": 0, "is_disabled": 0, "type": "electric_scooter", "bike_id": "cd60637e67f5901c4090ddb881500865"}, {"lon": -77.03474866666667, "lat": 38.9068155, "name": "4c12a1d49ce17e75f8492a44db1d1433", "fusion_lat": 0.0, "fusion_lon": 0.0, "rental_uris": {"android": "https://dc.lft.to/lastmile_qr_scan", "ios": "https://dc.lft.to/lastmile_qr_scan"}, "is_reserved": 0, "is_disabled": 0, "type": "electric_scooter", "bike_id": "4c12a1d49ce17e75f8492a44db1d1433"}, {"lon": -77.0270625, "lat": 38.928737166666664, "name": "6887cec2f912dc4db30b93788caee75c", "fusion_lat": 0.0, "fusion_lon": 0.0, "rental_uris": {"android": "https://dc.lft.to/lastmile_qr_scan", "ios": "https://dc.lft.to/lastmile_qr_scan"}, "is_reserved": 0, "is_disabled": 0, "type": "electric_scooter", "bike_id": "6887cec2f912dc4db30b93788caee75c"}, {"lon": -77.02389816666667, "lat": 38.93265, "name": "338e4d1fdacfa91b6daf1ee8a8eaa4e0", "fusion_lat": 0.0, "fusion_lon": 0.0, "rental_uris": {"android": "https://dc.lft.to/lastmile_qr_scan", "ios": "https://dc.lft.to/lastmile_qr_scan"}, "is_reserved": 0, "is_disabled": 0, "type": "electric_scooter", "bike_id": "338e4d1fdacfa91b6daf1ee8a8eaa4e0"}, {"lon": -77.0172095, "lat": 38.8793675, "name": "b8e25c74d92ecba3663265df891cffc4", "fusion_lat": 0.0, "fusion_lon": 0.0, "rental_uris": {"android": "https://dc.lft.to/lastmile_qr_scan", "ios": "https://dc.lft.to/lastmile_qr_scan"}, "is_reserved": 0, "is_disabled": 0, "type": "electric_scooter", "bike_id": "b8e25c74d92ecba3663265df891cffc4"}, {"lon": -77.04344116666667, "lat": 38.89666533333333, "name": "d8a9ae850c1a1318de82eef18b6d9695", "fusion_lat": 0.0, "fusion_lon": 0.0, "rental_uris": {"android": "https://dc.lft.to/lastmile_qr_scan", "ios": "https://dc.lft.to/lastmile_qr_scan"}, "is_reserved": 0, "is_disabled": 0, "type": "electric_scooter", "bike_id": "d8a9ae850c1a1318de82eef18b6d9695"}, {"lon": -77.04314116666667, "lat": 38.934163166666664, "name": "2b760c6528bbf8d0eeced40979697069", "fusion_lat": 0.0, "fusion_lon": 0.0, "rental_uris": {"android": "https://dc.lft.to/lastmile_qr_scan", "ios": "https://dc.lft.to/lastmile_qr_scan"}, "is_reserved": 0, "is_disabled": 0, "type": "electric_scooter", "bike_id": "2b760c6528bbf8d0eeced40979697069"}, {"lon": -77.03237066666667, "lat": 38.925702, "name": "4f6a729fed4f172aac2eccccbb2f22bf", "fusion_lat": 0.0, "fusion_lon": 0.0, "rental_uris": {"android": "https://dc.lft.to/lastmile_qr_scan", "ios": "https://dc.lft.to/lastmile_qr_scan"}, "is_reserved": 0, "is_disabled": 0, "type": "electric_scooter", "bike_id": "4f6a729fed4f172aac2eccccbb2f22bf"}, {"lon": -77.01040566666667, "lat": 38.884459666666665, "name": "3a761e8a8ecea74af3a65c8538a6ff3e", "fusion_lat": 0.0, "fusion_lon": 0.0, "rental_uris": {"android": "https://dc.lft.to/lastmile_qr_scan", "ios": "https://dc.lft.to/lastmile_qr_scan"}, "is_reserved": 0, "is_disabled": 0, "type": "electric_scooter", "bike_id": "3a761e8a8ecea74af3a65c8538a6ff3e"}, {"lon": -76.990127, "lat": 38.91137616666666, "name": "7fdde733b524245eb505a710e37c2e12", "fusion_lat": 0.0, "fusion_lon": 0.0, "rental_uris": {"android": "https://dc.lft.to/lastmile_qr_scan", "ios": "https://dc.lft.to/lastmile_qr_scan"}, "is_reserved": 0, "is_disabled": 0, "type": "electric_scooter", "bike_id": "7fdde733b524245eb505a710e37c2e12"}, {"lon": -76.998751, "lat": 38.90752, "name": "1a78d2de6ebea5fea0e7d72a03a52e97", "fusion_lat": 0.0, "fusion_lon": 0.0, "rental_uris": {"android": "https://dc.lft.to/lastmile_qr_scan", "ios": "https://dc.lft.to/lastmile_qr_scan"}, "is_reserved": 0, "is_disabled": 0, "type": "electric_scooter", "bike_id": "1a78d2de6ebea5fea0e7d72a03a52e97"}, {"lon": -77.0292615, "lat": 38.910281166666664, "name": "f1c2b30a4598e7f5de9add4ba29528c5", "fusion_lat": 0.0, "fusion_lon": 0.0, "rental_uris": {"android": "https://dc.lft.to/lastmile_qr_scan", "ios": "https://dc.lft.to/lastmile_qr_scan"}, "is_reserved": 0, "is_disabled": 0, "type": "electric_scooter", "bike_id": "f1c2b30a4598e7f5de9add4ba29528c5"}, {"lon": -76.99874466666667, "lat": 38.90028083333333, "name": "8b131c0662650577a701d3c5cf1a612e", "fusion_lat": 0.0, "fusion_lon": 0.0, "rental_uris": {"android": "https://dc.lft.to/lastmile_qr_scan", "ios": "https://dc.lft.to/lastmile_qr_scan"}, "is_reserved": 0, "is_disabled": 0, "type": "electric_scooter", "bike_id": "8b131c0662650577a701d3c5cf1a612e"}, {"lon": -77.035054, "lat": 38.90447616666667, "name": "5bbac9ab3196be8061bc1055ea5b661d", "fusion_lat": 0.0, "fusion_lon": 0.0, "rental_uris": {"android": "https://dc.lft.to/lastmile_qr_scan", "ios": "https://dc.lft.to/lastmile_qr_scan"}, "is_reserved": 0, "is_disabled": 0, "type": "electric_scooter", "bike_id": "5bbac9ab3196be8061bc1055ea5b661d"}, {"lon": -76.9656285, "lat": 38.91838, "name": "4a0a18416a9054e95444465054b45a8e", "fusion_lat": 0.0, "fusion_lon": 0.0, "rental_uris": {"android": "https://dc.lft.to/lastmile_qr_scan", "ios": "https://dc.lft.to/lastmile_qr_scan"}, "is_reserved": 0, "is_disabled": 0, "type": "electric_scooter", "bike_id": "4a0a18416a9054e95444465054b45a8e"}, {"lon": -77.0338955, "lat": 38.921413333333334, "name": "58e0049fff03fc39afe602ed9c652278", "fusion_lat": 0.0, "fusion_lon": 0.0, "rental_uris": {"android": "https://dc.lft.to/lastmile_qr_scan", "ios": "https://dc.lft.to/lastmile_qr_scan"}, "is_reserved": 0, "is_disabled": 0, "type": "electric_scooter", "bike_id": "58e0049fff03fc39afe602ed9c652278"}, {"lon": -77.03164316666667, "lat": 38.91414733333333, "name": "815a4c00e312bf3f25448d2961dfb8ab", "fusion_lat": 0.0, "fusion_lon": 0.0, "rental_uris": {"android": "https://dc.lft.to/lastmile_qr_scan", "ios": "https://dc.lft.to/lastmile_qr_scan"}, "is_reserved": 0, "is_disabled": 0, "type": "electric_scooter", "bike_id": "815a4c00e312bf3f25448d2961dfb8ab"}, {"lon": -77.04271833333334, "lat": 38.908479166666666, "name": "666b7742b1715f6dd2f9ea7dae31589c", "fusion_lat": 0.0, "fusion_lon": 0.0, "rental_uris": {"android": "https://dc.lft.to/lastmile_qr_scan", "ios": "https://dc.lft.to/lastmile_qr_scan"}, "is_reserved": 0, "is_disabled": 0, "type": "electric_scooter", "bike_id": "666b7742b1715f6dd2f9ea7dae31589c"}, {"lon": -77.015119, "lat": 38.913441166666665, "name": "6c61d7bbf7b3e1ae6562e9110ff321a3", "fusion_lat": 0.0, "fusion_lon": 0.0, "rental_uris": {"android": "https://dc.lft.to/lastmile_qr_scan", "ios": "https://dc.lft.to/lastmile_qr_scan"}, "is_reserved": 0, "is_disabled": 0, "type": "electric_scooter", "bike_id": "6c61d7bbf7b3e1ae6562e9110ff321a3"}, {"lon": -77.02646316666667, "lat": 38.902619, "name": "5c06e1431c9721241a9fbc12ebc4b2df", "fusion_lat": 0.0, "fusion_lon": 0.0, "rental_uris": {"android": "https://dc.lft.to/lastmile_qr_scan", "ios": "https://dc.lft.to/lastmile_qr_scan"}, "is_reserved": 0, "is_disabled": 0, "type": "electric_scooter", "bike_id": "5c06e1431c9721241a9fbc12ebc4b2df"}, {"lon": -77.02815633333333, "lat": 38.89239933333333, "name": "f1484b56389716e36f08f6b77b52fc75", "fusion_lat": 0.0, "fusion_lon": 0.0, "rental_uris": {"android": "https://dc.lft.to/lastmile_qr_scan", "ios": "https://dc.lft.to/lastmile_qr_scan"}, "is_reserved": 0, "is_disabled": 0, "type": "electric_scooter", "bike_id": "f1484b56389716e36f08f6b77b52fc75"}, {"lon": -77.06468683333334, "lat": 38.9737615, "name": "b8cfa6614e3b2e0ecd879b5d07c41be1", "fusion_lat": 0.0, "fusion_lon": 0.0, "rental_uris": {"android": "https://dc.lft.to/lastmile_qr_scan", "ios": "https://dc.lft.to/lastmile_qr_scan"}, "is_reserved": 0, "is_disabled": 0, "type": "electric_bike", "bike_id": "b8cfa6614e3b2e0ecd879b5d07c41be1"}, {"lon": -76.99172816666666, "lat": 38.87921266666667, "name": "969a9514b61794acb9eb3bc8e70d4877", "fusion_lat": 0.0, "fusion_lon": 0.0, "rental_uris": {"android": "https://dc.lft.to/lastmile_qr_scan", "ios": "https://dc.lft.to/lastmile_qr_scan"}, "is_reserved": 0, "is_disabled": 0, "type": "electric_scooter", "bike_id": "969a9514b61794acb9eb3bc8e70d4877"}, {"lon": -76.9806575, "lat": 38.880209666666666, "name": "06fa73d1128076a7905fb5f89bb891e6", "fusion_lat": 0.0, "fusion_lon": 0.0, "rental_uris": {"android": "https://dc.lft.to/lastmile_qr_scan", "ios": "https://dc.lft.to/lastmile_qr_scan"}, "is_reserved": 0, "is_disabled": 0, "type": "electric_scooter", "bike_id": "06fa73d1128076a7905fb5f89bb891e6"}, {"lon": -77.0368545, "lat": 38.922573, "name": "afa0a01c4414172409599ec6f7b9c22d", "fusion_lat": 0.0, "fusion_lon": 0.0, "rental_uris": {"android": "https://dc.lft.to/lastmile_qr_scan", "ios": "https://dc.lft.to/lastmile_qr_scan"}, "is_reserved": 0, "is_disabled": 0, "type": "electric_scooter", "bike_id": "afa0a01c4414172409599ec6f7b9c22d"}, {"lon": -77.02802366666667, "lat": 38.93058283333333, "name": "d5384f7230c85e2e466205e04ec761d8", "fusion_lat": 0.0, "fusion_lon": 0.0, "rental_uris": {"android": "https://dc.lft.to/lastmile_qr_scan", "ios": "https://dc.lft.to/lastmile_qr_scan"}, "is_reserved": 0, "is_disabled": 0, "type": "electric_scooter", "bike_id": "d5384f7230c85e2e466205e04ec761d8"}, {"lon": -76.99633583333333, "lat": 38.8461725, "name": "c8e6b4c7b866f530304ef8ab48529d60", "fusion_lat": 0.0, "fusion_lon": 0.0, "rental_uris": {"android": "https://dc.lft.to/lastmile_qr_scan", "ios": "https://dc.lft.to/lastmile_qr_scan"}, "is_reserved": 0, "is_disabled": 0, "type": "electric_scooter", "bike_id": "c8e6b4c7b866f530304ef8ab48529d60"}, {"lon": -77.01760083333333, "lat": 38.87514733333333, "name": "1f1dcd281ada3cadbdeaa964aa5fa41c", "fusion_lat": 0.0, "fusion_lon": 0.0, "rental_uris": {"android": "https://dc.lft.to/lastmile_qr_scan", "ios": "https://dc.lft.to/lastmile_qr_scan"}, "is_reserved": 0, "is_disabled": 0, "type": "electric_scooter", "bike_id": "1f1dcd281ada3cadbdeaa964aa5fa41c"}, {"lon": -76.9271665, "lat": 38.88766966666667, "name": "2de12f0be933a5cb5e27404787490036", "fusion_lat": 0.0, "fusion_lon": 0.0, "rental_uris": {"android": "https://dc.lft.to/lastmile_qr_scan", "ios": "https://dc.lft.to/lastmile_qr_scan"}, "is_reserved": 0, "is_disabled": 0, "type": "electric_scooter", "bike_id": "2de12f0be933a5cb5e27404787490036"}, {"lon": -77.05602166666667, "lat": 38.936973333333334, "name": "4c5bcc4d6cad5815ffcbdc2fa21dd5b7", "fusion_lat": 0.0, "fusion_lon": 0.0, "rental_uris": {"android": "https://dc.lft.to/lastmile_qr_scan", "ios": "https://dc.lft.to/lastmile_qr_scan"}, "is_reserved": 0, "is_disabled": 0, "type": "electric_scooter", "bike_id": "4c5bcc4d6cad5815ffcbdc2fa21dd5b7"}, {"lon": -77.05004216666667, "lat": 38.892271666666666, "name": "2d39dc9f01462f7d496abc26add1d83a", "fusion_lat": 0.0, "fusion_lon": 0.0, "rental_uris": {"android": "https://dc.lft.to/lastmile_qr_scan", "ios": "https://dc.lft.to/lastmile_qr_scan"}, "is_reserved": 0, "is_disabled": 0, "type": "electric_scooter", "bike_id": "2d39dc9f01462f7d496abc26add1d83a"}, {"lon": -77.00117116666667, "lat": 38.917039, "name": "f2a73098ac9af917a87087d8a4c73ed4", "fusion_lat": 0.0, "fusion_lon": 0.0, "rental_uris": {"android": "https://dc.lft.to/lastmile_qr_scan", "ios": "https://dc.lft.to/lastmile_qr_scan"}, "is_reserved": 0, "is_disabled": 0, "type": "electric_scooter", "bike_id": "f2a73098ac9af917a87087d8a4c73ed4"}, {"lon": -77.026919, "lat": 38.909438333333334, "name": "44380b79a0157cc1cf6750d0b90385bf", "fusion_lat": 0.0, "fusion_lon": 0.0, "rental_uris": {"android": "https://dc.lft.to/lastmile_qr_scan", "ios": "https://dc.lft.to/lastmile_qr_scan"}, "is_reserved": 0, "is_disabled": 0, "type": "electric_scooter", "bike_id": "44380b79a0157cc1cf6750d0b90385bf"}, {"lon": -77.12738333333333, "lat": 38.895659, "name": "e999b19b4a4497842537e5eb9e7aa8c9", "fusion_lat": 0.0, "fusion_lon": 0.0, "rental_uris": {"android": "https://dc.lft.to/lastmile_qr_scan", "ios": "https://dc.lft.to/lastmile_qr_scan"}, "is_reserved": 0, "is_disabled": 0, "type": "electric_bike", "bike_id": "e999b19b4a4497842537e5eb9e7aa8c9"}, {"lon": -77.02258566666667, "lat": 38.928227666666665, "name": "7a5c0ffeca9e40ff6820ddad37488a07", "fusion_lat": 0.0, "fusion_lon": 0.0, "rental_uris": {"android": "https://dc.lft.to/lastmile_qr_scan", "ios": "https://dc.lft.to/lastmile_qr_scan"}, "is_reserved": 0, "is_disabled": 0, "type": "electric_scooter", "bike_id": "7a5c0ffeca9e40ff6820ddad37488a07"}, {"lon": -77.0463435, "lat": 38.919159, "name": "abd78ebb73111e85cfe903d0c7df8bac", "fusion_lat": 0.0, "fusion_lon": 0.0, "rental_uris": {"android": "https://dc.lft.to/lastmile_qr_scan", "ios": "https://dc.lft.to/lastmile_qr_scan"}, "is_reserved": 0, "is_disabled": 0, "type": "electric_scooter", "bike_id": "abd78ebb73111e85cfe903d0c7df8bac"}, {"lon": -77.052704, "lat": 38.92548216666667, "name": "73d41525ffc7ba312b2d1e8cefaaf2a7", "fusion_lat": 0.0, "fusion_lon": 0.0, "rental_uris": {"android": "https://dc.lft.to/lastmile_qr_scan", "ios": "https://dc.lft.to/lastmile_qr_scan"}, "is_reserved": 0, "is_disabled": 0, "type": "electric_scooter", "bike_id": "73d41525ffc7ba312b2d1e8cefaaf2a7"}, {"lon": -77.00977066666667, "lat": 38.95349866666667, "name": "2c90478af09f597ffaae34774a66286f", "fusion_lat": 0.0, "fusion_lon": 0.0, "rental_uris": {"android": "https://dc.lft.to/lastmile_qr_scan", "ios": "https://dc.lft.to/lastmile_qr_scan"}, "is_reserved": 0, "is_disabled": 0, "type": "electric_bike", "bike_id": "2c90478af09f597ffaae34774a66286f"}, {"lon": -77.01775766666667, "lat": 38.90054033333333, "name": "d73867943fee176be3680712b49fb2cb", "fusion_lat": 0.0, "fusion_lon": 0.0, "rental_uris": {"android": "https://dc.lft.to/lastmile_qr_scan", "ios": "https://dc.lft.to/lastmile_qr_scan"}, "is_reserved": 0, "is_disabled": 0, "type": "electric_scooter", "bike_id": "d73867943fee176be3680712b49fb2cb"}, {"lon": -76.980735, "lat": 38.9016645, "name": "f7c6062a7136c521294a3d65c311bd26", "fusion_lat": 0.0, "fusion_lon": 0.0, "rental_uris": {"android": "https://dc.lft.to/lastmile_qr_scan", "ios": "https://dc.lft.to/lastmile_qr_scan"}, "is_reserved": 0, "is_disabled": 0, "type": "electric_scooter", "bike_id": "f7c6062a7136c521294a3d65c311bd26"}, {"lon": -77.06394816666666, "lat": 38.929043, "name": "05360a5e6ca87b5bf8c8a9e98a42e679", "fusion_lat": 0.0, "fusion_lon": 0.0, "rental_uris": {"android": "https://dc.lft.to/lastmile_qr_scan", "ios": "https://dc.lft.to/lastmile_qr_scan"}, "is_reserved": 0, "is_disabled": 0, "type": "electric_scooter", "bike_id": "05360a5e6ca87b5bf8c8a9e98a42e679"}, {"lon": -76.98603166666666, "lat": 38.899171, "name": "d0d25ab0efef97f07fab6c96e3aba6b0", "fusion_lat": 0.0, "fusion_lon": 0.0, "rental_uris": {"android": "https://dc.lft.to/lastmile_qr_scan", "ios": "https://dc.lft.to/lastmile_qr_scan"}, "is_reserved": 0, "is_disabled": 0, "type": "electric_scooter", "bike_id": "d0d25ab0efef97f07fab6c96e3aba6b0"}, {"lon": -76.9941305, "lat": 38.87780516666667, "name": "633ccb08c6b39a55223405edff0446b5", "fusion_lat": 0.0, "fusion_lon": 0.0, "rental_uris": {"android": "https://dc.lft.to/lastmile_qr_scan", "ios": "https://dc.lft.to/lastmile_qr_scan"}, "is_reserved": 0, "is_disabled": 0, "type": "electric_scooter", "bike_id": "633ccb08c6b39a55223405edff0446b5"}, {"lon": -77.052966, "lat": 38.89878183333333, "name": "4ee0e38e2583e8528cf0beb4d5765455", "fusion_lat": 0.0, "fusion_lon": 0.0, "rental_uris": {"android": "https://dc.lft.to/lastmile_qr_scan", "ios": "https://dc.lft.to/lastmile_qr_scan"}, "is_reserved": 0, "is_disabled": 0, "type": "electric_scooter", "bike_id": "4ee0e38e2583e8528cf0beb4d5765455"}, {"lon": -77.04150116666666, "lat": 38.9197215, "name": "639d1cb8db523af88945deb51a9376ee", "fusion_lat": 0.0, "fusion_lon": 0.0, "rental_uris": {"android": "https://dc.lft.to/lastmile_qr_scan", "ios": "https://dc.lft.to/lastmile_qr_scan"}, "is_reserved": 0, "is_disabled": 0, "type": "electric_scooter", "bike_id": "639d1cb8db523af88945deb51a9376ee"}, {"lon": -77.03742016666666, "lat": 38.933633, "name": "83198c303fa238f87fcec397555b3a00", "fusion_lat": 0.0, "fusion_lon": 0.0, "rental_uris": {"android": "https://dc.lft.to/lastmile_qr_scan", "ios": "https://dc.lft.to/lastmile_qr_scan"}, "is_reserved": 0, "is_disabled": 0, "type": "electric_scooter", "bike_id": "83198c303fa238f87fcec397555b3a00"}, {"lon": -76.97629816666667, "lat": 38.892797, "name": "f104015bae1b6f1e0d7c0ede51ab72ca", "fusion_lat": 0.0, "fusion_lon": 0.0, "rental_uris": {"android": "https://dc.lft.to/lastmile_qr_scan", "ios": "https://dc.lft.to/lastmile_qr_scan"}, "is_reserved": 0, "is_disabled": 0, "type": "electric_bike", "bike_id": "f104015bae1b6f1e0d7c0ede51ab72ca"}, {"lon": -77.02695183333333, "lat": 38.91822066666667, "name": "e974bdf8c6d073c8fc30b293d9bef48a", "fusion_lat": 0.0, "fusion_lon": 0.0, "rental_uris": {"android": "https://dc.lft.to/lastmile_qr_scan", "ios": "https://dc.lft.to/lastmile_qr_scan"}, "is_reserved": 0, "is_disabled": 0, "type": "electric_scooter", "bike_id": "e974bdf8c6d073c8fc30b293d9bef48a"}, {"lon": -77.03212466666666, "lat": 38.90761966666667, "name": "404a711035e7569bc1214f9178dff663", "fusion_lat": 0.0, "fusion_lon": 0.0, "rental_uris": {"android": "https://dc.lft.to/lastmile_qr_scan", "ios": "https://dc.lft.to/lastmile_qr_scan"}, "is_reserved": 0, "is_disabled": 0, "type": "electric_scooter", "bike_id": "404a711035e7569bc1214f9178dff663"}, {"lon": -76.9762085, "lat": 38.895754833333335, "name": "3c13cceb6926408540f9e3913864146a", "fusion_lat": 0.0, "fusion_lon": 0.0, "rental_uris": {"android": "https://dc.lft.to/lastmile_qr_scan", "ios": "https://dc.lft.to/lastmile_qr_scan"}, "is_reserved": 0, "is_disabled": 0, "type": "electric_bike", "bike_id": "3c13cceb6926408540f9e3913864146a"}, {"lon": -77.078928, "lat": 38.919236833333336, "name": "f6df13e0e38f2fa4ee44809e6ba96faf", "fusion_lat": 0.0, "fusion_lon": 0.0, "rental_uris": {"android": "https://dc.lft.to/lastmile_qr_scan", "ios": "https://dc.lft.to/lastmile_qr_scan"}, "is_reserved": 0, "is_disabled": 0, "type": "electric_scooter", "bike_id": "f6df13e0e38f2fa4ee44809e6ba96faf"}, {"lon": -77.03698583333333, "lat": 38.92643316666667, "name": "329adf9d0a3c01b3ce2c51f3f1c050a0", "fusion_lat": 0.0, "fusion_lon": 0.0, "rental_uris": {"android": "https://dc.lft.to/lastmile_qr_scan", "ios": "https://dc.lft.to/lastmile_qr_scan"}, "is_reserved": 0, "is_disabled": 0, "type": "electric_scooter", "bike_id": "329adf9d0a3c01b3ce2c51f3f1c050a0"}, {"lon": -77.00796766666667, "lat": 38.916998666666665, "name": "f907ab6c99a2665da7ef7540d32e9d34", "fusion_lat": 0.0, "fusion_lon": 0.0, "rental_uris": {"android": "https://dc.lft.to/lastmile_qr_scan", "ios": "https://dc.lft.to/lastmile_qr_scan"}, "is_reserved": 0, "is_disabled": 0, "type": "electric_scooter", "bike_id": "f907ab6c99a2665da7ef7540d32e9d34"}, {"lon": -77.01059383333333, "lat": 38.872425666666665, "name": "1c78911b4bf7f185c0a85e1c2c6cd701", "fusion_lat": 0.0, "fusion_lon": 0.0, "rental_uris": {"android": "https://dc.lft.to/lastmile_qr_scan", "ios": "https://dc.lft.to/lastmile_qr_scan"}, "is_reserved": 0, "is_disabled": 0, "type": "electric_scooter", "bike_id": "1c78911b4bf7f185c0a85e1c2c6cd701"}, {"lon": -77.01583433333333, "lat": 38.92848733333334, "name": "569cecac79e47bc39bea8fc2c076bfcd", "fusion_lat": 0.0, "fusion_lon": 0.0, "rental_uris": {"android": "https://dc.lft.to/lastmile_qr_scan", "ios": "https://dc.lft.to/lastmile_qr_scan"}, "is_reserved": 0, "is_disabled": 0, "type": "electric_scooter", "bike_id": "569cecac79e47bc39bea8fc2c076bfcd"}, {"lon": -77.029811, "lat": 38.9167875, "name": "2aed0943732badff5d668cb63be711cb", "fusion_lat": 0.0, "fusion_lon": 0.0, "rental_uris": {"android": "https://dc.lft.to/lastmile_qr_scan", "ios": "https://dc.lft.to/lastmile_qr_scan"}, "is_reserved": 0, "is_disabled": 0, "type": "electric_scooter", "bike_id": "2aed0943732badff5d668cb63be711cb"}, {"lon": -77.00525233333333, "lat": 38.916911666666664, "name": "d572651c824233dbf6badcc5a8728456", "fusion_lat": 0.0, "fusion_lon": 0.0, "rental_uris": {"android": "https://dc.lft.to/lastmile_qr_scan", "ios": "https://dc.lft.to/lastmile_qr_scan"}, "is_reserved": 0, "is_disabled": 0, "type": "electric_scooter", "bike_id": "d572651c824233dbf6badcc5a8728456"}, {"lon": -77.02484383333334, "lat": 38.93880083333333, "name": "c76287240cc350a00cc1553d537e2b5e", "fusion_lat": 0.0, "fusion_lon": 0.0, "rental_uris": {"android": "https://dc.lft.to/lastmile_qr_scan", "ios": "https://dc.lft.to/lastmile_qr_scan"}, "is_reserved": 0, "is_disabled": 0, "type": "electric_scooter", "bike_id": "c76287240cc350a00cc1553d537e2b5e"}, {"lon": -77.0343725, "lat": 38.91798433333334, "name": "05129b80392f7bc22fa13abef2485a12", "fusion_lat": 0.0, "fusion_lon": 0.0, "rental_uris": {"android": "https://dc.lft.to/lastmile_qr_scan", "ios": "https://dc.lft.to/lastmile_qr_scan"}, "is_reserved": 0, "is_disabled": 0, "type": "electric_scooter", "bike_id": "05129b80392f7bc22fa13abef2485a12"}, {"lon": -77.03859333333334, "lat": 38.91714, "name": "ec6d3b2312787c38f063fce18068a038", "fusion_lat": 0.0, "fusion_lon": 0.0, "rental_uris": {"android": "https://dc.lft.to/lastmile_qr_scan", "ios": "https://dc.lft.to/lastmile_qr_scan"}, "is_reserved": 0, "is_disabled": 0, "type": "electric_scooter", "bike_id": "ec6d3b2312787c38f063fce18068a038"}, {"lon": -77.021669, "lat": 38.886336, "name": "1a4eb60dbeaf46385e328be360cdc369", "fusion_lat": 0.0, "fusion_lon": 0.0, "rental_uris": {"android": "https://dc.lft.to/lastmile_qr_scan", "ios": "https://dc.lft.to/lastmile_qr_scan"}, "is_reserved": 0, "is_disabled": 0, "type": "electric_scooter", "bike_id": "1a4eb60dbeaf46385e328be360cdc369"}, {"lon": -77.071724, "lat": 38.9144675, "name": "fa4d75f0344be8dca9d65c30baa5a2e1", "fusion_lat": 0.0, "fusion_lon": 0.0, "rental_uris": {"android": "https://dc.lft.to/lastmile_qr_scan", "ios": "https://dc.lft.to/lastmile_qr_scan"}, "is_reserved": 0, "is_disabled": 0, "type": "electric_scooter", "bike_id": "fa4d75f0344be8dca9d65c30baa5a2e1"}, {"lon": -76.99632816666667, "lat": 38.846192, "name": "449b6b17efd62ab230b10c263df2dc90", "fusion_lat": 0.0, "fusion_lon": 0.0, "rental_uris": {"android": "https://dc.lft.to/lastmile_qr_scan", "ios": "https://dc.lft.to/lastmile_qr_scan"}, "is_reserved": 0, "is_disabled": 0, "type": "electric_scooter", "bike_id": "449b6b17efd62ab230b10c263df2dc90"}, {"lon": -76.942826, "lat": 38.95406883333333, "name": "46b6bceeac507b24f408e651897ee737", "fusion_lat": 0.0, "fusion_lon": 0.0, "rental_uris": {"android": "https://dc.lft.to/lastmile_qr_scan", "ios": "https://dc.lft.to/lastmile_qr_scan"}, "is_reserved": 0, "is_disabled": 0, "type": "electric_bike", "bike_id": "46b6bceeac507b24f408e651897ee737"}, {"lon": -77.0289695, "lat": 38.897546, "name": "ff56bdefdddec7e7d93f876f3cbc4f9f", "fusion_lat": 0.0, "fusion_lon": 0.0, "rental_uris": {"android": "https://dc.lft.to/lastmile_qr_scan", "ios": "https://dc.lft.to/lastmile_qr_scan"}, "is_reserved": 0, "is_disabled": 0, "type": "electric_scooter", "bike_id": "ff56bdefdddec7e7d93f876f3cbc4f9f"}, {"lon": -77.04250633333334, "lat": 38.92238666666667, "name": "12e6bc47fa7da355aa74fbfb8f0ee647", "fusion_lat": 0.0, "fusion_lon": 0.0, "rental_uris": {"android": "https://dc.lft.to/lastmile_qr_scan", "ios": "https://dc.lft.to/lastmile_qr_scan"}, "is_reserved": 0, "is_disabled": 0, "type": "electric_scooter", "bike_id": "12e6bc47fa7da355aa74fbfb8f0ee647"}, {"lon": -77.04158866666667, "lat": 38.91456066666667, "name": "54fb09fdc4ff0a021edb1c47afeaeb9f", "fusion_lat": 0.0, "fusion_lon": 0.0, "rental_uris": {"android": "https://dc.lft.to/lastmile_qr_scan", "ios": "https://dc.lft.to/lastmile_qr_scan"}, "is_reserved": 0, "is_disabled": 0, "type": "electric_scooter", "bike_id": "54fb09fdc4ff0a021edb1c47afeaeb9f"}, {"lon": -77.02827216666667, "lat": 38.964996, "name": "933cd2e335691e0b18382fbab37bb783", "fusion_lat": 0.0, "fusion_lon": 0.0, "rental_uris": {"android": "https://dc.lft.to/lastmile_qr_scan", "ios": "https://dc.lft.to/lastmile_qr_scan"}, "is_reserved": 0, "is_disabled": 0, "type": "electric_bike", "bike_id": "933cd2e335691e0b18382fbab37bb783"}, {"lon": -77.04062083333334, "lat": 38.91767083333333, "name": "c8b3df011cdb2a963025f256f05521e1", "fusion_lat": 0.0, "fusion_lon": 0.0, "rental_uris": {"android": "https://dc.lft.to/lastmile_qr_scan", "ios": "https://dc.lft.to/lastmile_qr_scan"}, "is_reserved": 0, "is_disabled": 0, "type": "electric_scooter", "bike_id": "c8b3df011cdb2a963025f256f05521e1"}, {"lon": -76.99781366666667, "lat": 38.84419716666667, "name": "80b1a6c373411c9407722db0febf8998", "fusion_lat": 0.0, "fusion_lon": 0.0, "rental_uris": {"android": "https://dc.lft.to/lastmile_qr_scan", "ios": "https://dc.lft.to/lastmile_qr_scan"}, "is_reserved": 0, "is_disabled": 0, "type": "electric_scooter", "bike_id": "80b1a6c373411c9407722db0febf8998"}, {"lon": -77.0075795, "lat": 38.871187166666665, "name": "1b192bed8ad010992789e5bc492955b0", "fusion_lat": 0.0, "fusion_lon": 0.0, "rental_uris": {"android": "https://dc.lft.to/lastmile_qr_scan", "ios": "https://dc.lft.to/lastmile_qr_scan"}, "is_reserved": 0, "is_disabled": 0, "type": "electric_scooter", "bike_id": "1b192bed8ad010992789e5bc492955b0"}, {"lon": -77.35313966666666, "lat": 38.94999283333333, "name": "86cd4c2ef70e4dd3a805a721a3480675", "fusion_lat": 0.0, "fusion_lon": 0.0, "rental_uris": {"android": "https://dc.lft.to/lastmile_qr_scan", "ios": "https://dc.lft.to/lastmile_qr_scan"}, "is_reserved": 0, "is_disabled": 0, "type": "electric_bike", "bike_id": "86cd4c2ef70e4dd3a805a721a3480675"}, {"lon": -77.027195, "lat": 38.951341, "name": "d97f8b74e05ee52496a856bb04c1d248", "fusion_lat": 0.0, "fusion_lon": 0.0, "rental_uris": {"android": "https://dc.lft.to/lastmile_qr_scan", "ios": "https://dc.lft.to/lastmile_qr_scan"}, "is_reserved": 0, "is_disabled": 0, "type": "electric_scooter", "bike_id": "d97f8b74e05ee52496a856bb04c1d248"}, {"lon": -77.00930783333334, "lat": 38.896065166666666, "name": "e82f6be01506bc1d1fb2cf2d37ec8e0f", "fusion_lat": 0.0, "fusion_lon": 0.0, "rental_uris": {"android": "https://dc.lft.to/lastmile_qr_scan", "ios": "https://dc.lft.to/lastmile_qr_scan"}, "is_reserved": 0, "is_disabled": 0, "type": "electric_scooter", "bike_id": "e82f6be01506bc1d1fb2cf2d37ec8e0f"}, {"lon": -77.0197375, "lat": 38.915244333333334, "name": "fdc08905f666df2a89eec85df1182d4c", "fusion_lat": 0.0, "fusion_lon": 0.0, "rental_uris": {"android": "https://dc.lft.to/lastmile_qr_scan", "ios": "https://dc.lft.to/lastmile_qr_scan"}, "is_reserved": 0, "is_disabled": 0, "type": "electric_scooter", "bike_id": "fdc08905f666df2a89eec85df1182d4c"}, {"lon": -77.034455, "lat": 38.90267883333333, "name": "47d8f01078d7904e2ea8b77e5c47f24e", "fusion_lat": 0.0, "fusion_lon": 0.0, "rental_uris": {"android": "https://dc.lft.to/lastmile_qr_scan", "ios": "https://dc.lft.to/lastmile_qr_scan"}, "is_reserved": 0, "is_disabled": 0, "type": "electric_scooter", "bike_id": "47d8f01078d7904e2ea8b77e5c47f24e"}, {"lon": -77.02004766666667, "lat": 38.9601685, "name": "04de303d34d62f00510626767ef99278", "fusion_lat": 0.0, "fusion_lon": 0.0, "rental_uris": {"android": "https://dc.lft.to/lastmile_qr_scan", "ios": "https://dc.lft.to/lastmile_qr_scan"}, "is_reserved": 0, "is_disabled": 0, "type": "electric_bike", "bike_id": "04de303d34d62f00510626767ef99278"}, {"lon": -77.05429983333333, "lat": 38.923126833333335, "name": "f6ab4a6ca806813579148570e15ebae1", "fusion_lat": 0.0, "fusion_lon": 0.0, "rental_uris": {"android": "https://dc.lft.to/lastmile_qr_scan", "ios": "https://dc.lft.to/lastmile_qr_scan"}, "is_reserved": 0, "is_disabled": 0, "type": "electric_scooter", "bike_id": "f6ab4a6ca806813579148570e15ebae1"}, {"lon": -77.02103183333334, "lat": 38.93007583333333, "name": "25046874f2bcf9f5eae8cc04e2491a3c", "fusion_lat": 0.0, "fusion_lon": 0.0, "rental_uris": {"android": "https://dc.lft.to/lastmile_qr_scan", "ios": "https://dc.lft.to/lastmile_qr_scan"}, "is_reserved": 0, "is_disabled": 0, "type": "electric_scooter", "bike_id": "25046874f2bcf9f5eae8cc04e2491a3c"}, {"lon": -77.03371133333333, "lat": 38.935875, "name": "f2817ebc59123c80ebd1a7ba5ee877b3", "fusion_lat": 0.0, "fusion_lon": 0.0, "rental_uris": {"android": "https://dc.lft.to/lastmile_qr_scan", "ios": "https://dc.lft.to/lastmile_qr_scan"}, "is_reserved": 0, "is_disabled": 0, "type": "electric_scooter", "bike_id": "f2817ebc59123c80ebd1a7ba5ee877b3"}, {"lon": -76.99781833333333, "lat": 38.890904, "name": "e6da7fb66cbe133ebcb5cbd9c2027a5a", "fusion_lat": 0.0, "fusion_lon": 0.0, "rental_uris": {"android": "https://dc.lft.to/lastmile_qr_scan", "ios": "https://dc.lft.to/lastmile_qr_scan"}, "is_reserved": 0, "is_disabled": 0, "type": "electric_scooter", "bike_id": "e6da7fb66cbe133ebcb5cbd9c2027a5a"}, {"lon": -76.98561266666667, "lat": 38.89403033333333, "name": "ba192a96e97ab91dbf706855f0a8ef8c", "fusion_lat": 0.0, "fusion_lon": 0.0, "rental_uris": {"android": "https://dc.lft.to/lastmile_qr_scan", "ios": "https://dc.lft.to/lastmile_qr_scan"}, "is_reserved": 0, "is_disabled": 0, "type": "electric_scooter", "bike_id": "ba192a96e97ab91dbf706855f0a8ef8c"}, {"lon": -77.02583583333333, "lat": 38.925071333333335, "name": "17fa54f4753fe2e03cebc89ad23dc90b", "fusion_lat": 0.0, "fusion_lon": 0.0, "rental_uris": {"android": "https://dc.lft.to/lastmile_qr_scan", "ios": "https://dc.lft.to/lastmile_qr_scan"}, "is_reserved": 0, "is_disabled": 0, "type": "electric_scooter", "bike_id": "17fa54f4753fe2e03cebc89ad23dc90b"}, {"lon": -77.05932083333333, "lat": 38.936639, "name": "62f0c895e329e553a63225db81a57ce8", "fusion_lat": 0.0, "fusion_lon": 0.0, "rental_uris": {"android": "https://dc.lft.to/lastmile_qr_scan", "ios": "https://dc.lft.to/lastmile_qr_scan"}, "is_reserved": 0, "is_disabled": 0, "type": "electric_scooter", "bike_id": "62f0c895e329e553a63225db81a57ce8"}, {"lon": -77.0278485, "lat": 38.92772816666667, "name": "793ff939bbe53d4b60f3ef1ebe1457ad", "fusion_lat": 0.0, "fusion_lon": 0.0, "rental_uris": {"android": "https://dc.lft.to/lastmile_qr_scan", "ios": "https://dc.lft.to/lastmile_qr_scan"}, "is_reserved": 0, "is_disabled": 0, "type": "electric_scooter", "bike_id": "793ff939bbe53d4b60f3ef1ebe1457ad"}, {"lon": -77.02875866666666, "lat": 38.90425366666667, "name": "39617a73b07e1692609a01b6166cf7b1", "fusion_lat": 0.0, "fusion_lon": 0.0, "rental_uris": {"android": "https://dc.lft.to/lastmile_qr_scan", "ios": "https://dc.lft.to/lastmile_qr_scan"}, "is_reserved": 0, "is_disabled": 0, "type": "electric_scooter", "bike_id": "39617a73b07e1692609a01b6166cf7b1"}, {"lon": -77.01371766666666, "lat": 38.892261, "name": "9db3eb3382b087d52801295bdde7a075", "fusion_lat": 0.0, "fusion_lon": 0.0, "rental_uris": {"android": "https://dc.lft.to/lastmile_qr_scan", "ios": "https://dc.lft.to/lastmile_qr_scan"}, "is_reserved": 0, "is_disabled": 0, "type": "electric_scooter", "bike_id": "9db3eb3382b087d52801295bdde7a075"}, {"lon": -77.007927, "lat": 38.94915266666667, "name": "3218ad03989553bb27bfeb9a42c55249", "fusion_lat": 0.0, "fusion_lon": 0.0, "rental_uris": {"android": "https://dc.lft.to/lastmile_qr_scan", "ios": "https://dc.lft.to/lastmile_qr_scan"}, "is_reserved": 0, "is_disabled": 0, "type": "electric_bike", "bike_id": "3218ad03989553bb27bfeb9a42c55249"}, {"lon": -77.02723183333333, "lat": 38.9513025, "name": "43cd06962145e44b188fe359385e5c83", "fusion_lat": 0.0, "fusion_lon": 0.0, "rental_uris": {"android": "https://dc.lft.to/lastmile_qr_scan", "ios": "https://dc.lft.to/lastmile_qr_scan"}, "is_reserved": 0, "is_disabled": 0, "type": "electric_scooter", "bike_id": "43cd06962145e44b188fe359385e5c83"}, {"lon": -77.04728416666667, "lat": 38.91116266666667, "name": "d4698d3f3286a4dbede25707f34339c3", "fusion_lat": 0.0, "fusion_lon": 0.0, "rental_uris": {"android": "https://dc.lft.to/lastmile_qr_scan", "ios": "https://dc.lft.to/lastmile_qr_scan"}, "is_reserved": 0, "is_disabled": 0, "type": "electric_scooter", "bike_id": "d4698d3f3286a4dbede25707f34339c3"}, {"lon": -77.03034066666666, "lat": 38.907835166666665, "name": "9654c3872af38da4fb878b36d86e7291", "fusion_lat": 0.0, "fusion_lon": 0.0, "rental_uris": {"android": "https://dc.lft.to/lastmile_qr_scan", "ios": "https://dc.lft.to/lastmile_qr_scan"}, "is_reserved": 0, "is_disabled": 0, "type": "electric_scooter", "bike_id": "9654c3872af38da4fb878b36d86e7291"}, {"lon": -77.0297055, "lat": 38.9049, "name": "4724554a88a31e8ed42a3f9ed7213796", "fusion_lat": 0.0, "fusion_lon": 0.0, "rental_uris": {"android": "https://dc.lft.to/lastmile_qr_scan", "ios": "https://dc.lft.to/lastmile_qr_scan"}, "is_reserved": 0, "is_disabled": 0, "type": "electric_scooter", "bike_id": "4724554a88a31e8ed42a3f9ed7213796"}, {"lon": -77.06953066666667, "lat": 38.9904245, "name": "3d6bd63177df66ba9aa5d45d2192db0b", "fusion_lat": 0.0, "fusion_lon": 0.0, "rental_uris": {"android": "https://dc.lft.to/lastmile_qr_scan", "ios": "https://dc.lft.to/lastmile_qr_scan"}, "is_reserved": 0, "is_disabled": 0, "type": "electric_bike", "bike_id": "3d6bd63177df66ba9aa5d45d2192db0b"}, {"lon": -77.0382685, "lat": 38.912668833333335, "name": "ba3121e70ae68b7fa0d37eb7be108cbf", "fusion_lat": 0.0, "fusion_lon": 0.0, "rental_uris": {"android": "https://dc.lft.to/lastmile_qr_scan", "ios": "https://dc.lft.to/lastmile_qr_scan"}, "is_reserved": 0, "is_disabled": 0, "type": "electric_scooter", "bike_id": "ba3121e70ae68b7fa0d37eb7be108cbf"}, {"lon": -76.98609866666666, "lat": 38.90621016666667, "name": "5ab6956278ba4244db428d135bee6d44", "fusion_lat": 0.0, "fusion_lon": 0.0, "rental_uris": {"android": "https://dc.lft.to/lastmile_qr_scan", "ios": "https://dc.lft.to/lastmile_qr_scan"}, "is_reserved": 0, "is_disabled": 0, "type": "electric_bike", "bike_id": "5ab6956278ba4244db428d135bee6d44"},