{"data": {"bikes": [{"type": "electric_scooter", "fusion_lon": 0.0, "bike_id": "d1f7be2093b8563b5b73ececbc3f6c92", "is_disabled": 0, "lat": 38.89228283333333, "rental_uris": {"ios": "https://dc.lft.to/lastmile_qr_scan", "android": "https://dc.lft.to/lastmile_qr_scan"}, "is_reserved": 0, "lon": -77.02418916666667, "fusion_lat": 0.0, "name": "d1f7be2093b8563b5b73ececbc3f6c92"}, {"type": "electric_scooter", "fusion_lon": 0.0, "bike_id": "2217b94898ebf4729dfec19eeb05c837", "is_disabled": 0, "lat": 38.89202016666667, "rental_uris": {"ios": "https://dc.lft.to/lastmile_qr_scan", "android": "https://dc.lft.to/lastmile_qr_scan"}, "is_reserved": 0, "lon": -76.95699166666667, "fusion_lat": 0.0, "name": "2217b94898ebf4729dfec19eeb05c837"}, {"type": "electric_scooter", "fusion_lon": 0.0, "bike_id": "21e0be5fcdada75e5730442e9aa0633e", "is_disabled": 0, "lat": 38.919919, "rental_uris": {"ios": "https://dc.lft.to/lastmile_qr_scan", "android": "https://dc.lft.to/lastmile_qr_scan"}, "is_reserved": 0, "lon": -77.02362533333333, "fusion_lat": 0.0, "name": "21e0be5fcdada75e5730442e9aa0633e"}, {"type": "electric_scooter", "fusion_lon": 0.0, "bike_id": "adae382c22f364d8367083c8f43a5d6e", "is_disabled": 0, "lat": 38.902396, "rental_uris": {"ios": "https://dc.lft.to/lastmile_qr_scan", "android": "https://dc.lft.to/lastmile_qr_scan"}, "is_reserved": 0, "lon": -77.04354016666667, "fusion_lat": 0.0, "name": "adae382c22f364d8367083c8f43a5d6e"}, {"type": "electric_scooter", "fusion_lon": 0.0, "bike_id": "fb9dfe1102cfcfdf366a8f2906539fc5", "is_disabled": 0, "lat": 38.931762166666665, "rental_uris": {"ios": "https://dc.lft.to/lastmile_qr_scan", "android": "https://dc.lft.to/lastmile_qr_scan"}, "is_reserved": 0, "lon": -77.03662966666667, "fusion_lat": 0.0, "name": "fb9dfe1102cfcfdf366a8f2906539fc5"}, {"type": "electric_scooter", "fusion_lon": 0.0, "bike_id": "3bd3fe0b1af8527927e46195d235769c", "is_disabled": 0, "lat": 38.87475583333333, "rental_uris": {"ios": "https://dc.lft.to/lastmile_qr_scan", "android": "https://dc.lft.to/lastmile_qr_scan"}, "is_reserved": 0, "lon": -77.00413016666667, "fusion_lat": 0.0, "name": "3bd3fe0b1af8527927e46195d235769c"}, {"type": "electric_scooter", "fusion_lon": 0.0, "bike_id": "7abd53303a5484fe5f173960dcefff24", "is_disabled": 0, "lat": 38.91362683333333, "rental_uris": {"ios": "https://dc.lft.to/lastmile_qr_scan", "android": "https://dc.lft.to/lastmile_qr_scan"}, "is_reserved": 0, "lon": -77.0206085, "fusion_lat": 0.0, "name": "7abd53303a5484fe5f173960dcefff24"}, {"type": "electric_scooter", "fusion_lon": 0.0, "bike_id": "4e52275c167909f1da4a35103d4bd073", "is_disabled": 0, "lat": 38.897270666666664, "rental_uris": {"ios": "https://dc.lft.to/lastmile_qr_scan", "android": "https://dc.lft.to/lastmile_qr_scan"}, "is_reserved": 0, "lon": -77.01910483333333, "fusion_lat": 0.0, "name": "4e52275c167909f1da4a35103d4bd073"}, {"type": "electric_scooter", "fusion_lon": 0.0, "bike_id": "8d3d0bb6964a13b050d925231535c2f6", "is_disabled": 0, "lat": 38.9231245, "rental_uris": {"ios": "https://dc.lft.to/lastmile_qr_scan", "android": "https://dc.lft.to/lastmile_qr_scan"}, "is_reserved": 0, "lon": -77.03047883333333, "fusion_lat": 0.0, "name": "8d3d0bb6964a13b050d925231535c2f6"}, {"type": "electric_scooter", "fusion_lon": 0.0, "bike_id": "18ac222d109218342d45cb335fe1f093", "is_disabled": 0, "lat": 38.926268666666665, "rental_uris": {"ios": "https://dc.lft.to/lastmile_qr_scan", "android": "https://dc.lft.to/lastmile_qr_scan"}, "is_reserved": 0, "lon": -77.02268166666667, "fusion_lat": 0.0, "name": "18ac222d109218342d45cb335fe1f093"}, {"type": "electric_scooter", "fusion_lon": 0.0, "bike_id": "dae4ec559dddcd0260a7e834f05f867a", "is_disabled": 0, "lat": 38.90778566666667, "rental_uris": {"ios": "https://dc.lft.to/lastmile_qr_scan", "android": "https://dc.lft.to/lastmile_qr_scan"}, "is_reserved": 0, "lon": -77.07164516666667, "fusion_lat": 0.0, "name": "dae4ec559dddcd0260a7e834f05f867a"}, {"type": "electric_scooter", "fusion_lon": 0.0, "bike_id": "a731a85f171247983920f846b727316a", "is_disabled": 0, "lat": 38.9004655, "rental_uris": {"ios": "https://dc.lft.to/lastmile_qr_scan", "android": "https://dc.lft.to/lastmile_qr_scan"}, "is_reserved": 0, "lon": -76.99749666666666, "fusion_lat": 0.0, "name": "a731a85f171247983920f846b727316a"}, {"type": "electric_scooter", "fusion_lon": 0.0, "bike_id": "ae28185b2dba55e4b9fe30d683e47bda", "is_disabled": 0, "lat": 38.924612333333336, "rental_uris": {"ios": "https://dc.lft.to/lastmile_qr_scan", "android": "https://dc.lft.to/lastmile_qr_scan"}, "is_reserved": 0, "lon": -77.04029833333334, "fusion_lat": 0.0, "name": "ae28185b2dba55e4b9fe30d683e47bda"}, {"type": "electric_scooter", "fusion_lon": 0.0, "bike_id": "109910a717bc92081332fa41aa2acff5", "is_disabled": 0, "lat": 38.89534733333333, "rental_uris": {"ios": "https://dc.lft.to/lastmile_qr_scan", "android": "https://dc.lft.to/lastmile_qr_scan"}, "is_reserved": 0, "lon": -77.0161175, "fusion_lat": 0.0, "name": "109910a717bc92081332fa41aa2acff5"}, {"type": "electric_scooter", "fusion_lon": 0.0, "bike_id": "fe56573d2c5544f4acd58bb6987bedc5", "is_disabled": 0, "lat": 38.94452116666667, "rental_uris": {"ios": "https://dc.lft.to/lastmile_qr_scan", "android": "https://dc.lft.to/lastmile_qr_scan"}, "is_reserved": 0, "lon": -77.028018, "fusion_lat": 0.0, "name": "fe56573d2c5544f4acd58bb6987bedc5"}, {"type": "electric_scooter", "fusion_lon": 0.0, "bike_id": "d30833baa85ba48c2b66f1463750d866", "is_disabled": 0, "lat": 38.9035505, "rental_uris": {"ios": "https://dc.lft.to/lastmile_qr_scan", "android": "https://dc.lft.to/lastmile_qr_scan"}, "is_reserved": 0, "lon": -77.0345565, "fusion_lat": 0.0, "name": "d30833baa85ba48c2b66f1463750d866"}, {"type": "electric_scooter", "fusion_lon": 0.0, "bike_id": "b28d0ed06a86efcc580929eec303e6f1", "is_disabled": 0, "lat": 38.877280166666665, "rental_uris": {"ios": "https://dc.lft.to/lastmile_qr_scan", "android": "https://dc.lft.to/lastmile_qr_scan"}, "is_reserved": 0, "lon": -77.0175825, "fusion_lat": 0.0, "name": "b28d0ed06a86efcc580929eec303e6f1"}, {"type": "electric_scooter", "fusion_lon": 0.0, "bike_id": "f6b3e3eb165cb8fcdf20a5367fcc3d3d", "is_disabled": 0, "lat": 38.8919665, "rental_uris": {"ios": "https://dc.lft.to/lastmile_qr_scan", "android": "https://dc.lft.to/lastmile_qr_scan"}, "is_reserved": 0, "lon": -77.02379066666667, "fusion_lat": 0.0, "name": "f6b3e3eb165cb8fcdf20a5367fcc3d3d"}, {"type": "electric_scooter", "fusion_lon": 0.0, "bike_id": "abb8796a6d094d00a921411fe91d82e5", "is_disabled": 0, "lat": 38.90356033333333, "rental_uris": {"ios": "https://dc.lft.to/lastmile_qr_scan", "android": "https://dc.lft.to/lastmile_qr_scan"}, "is_reserved": 0, "lon": -77.04328616666666, "fusion_lat": 0.0, "name": "abb8796a6d094d00a921411fe91d82e5"}, {"type": "electric_scooter", "fusion_lon": 0.0, "bike_id": "f3e5ab6572528472f435054096c6bb60", "is_disabled": 0, "lat": 38.908428, "rental_uris": {"ios": "https://dc.lft.to/lastmile_qr_scan", "android": "https://dc.lft.to/lastmile_qr_scan"}, "is_reserved": 0, "lon": -77.04258733333333, "fusion_lat": 0.0, "name": "f3e5ab6572528472f435054096c6bb60"}, {"type": "electric_scooter", "fusion_lon": 0.0, "bike_id": "25d1b1a4dcb5ab4c4845202febd0078d", "is_disabled": 0, "lat": 38.92417483333333, "rental_uris": {"ios": "https://dc.lft.to/lastmile_qr_scan", "android": "https://dc.lft.to/lastmile_qr_scan"}, "is_reserved": 0, "lon": -77.0198215, "fusion_lat": 0.0, "name": "25d1b1a4dcb5ab4c4845202febd0078d"}, {"type": "electric_scooter", "fusion_lon": 0.0, "bike_id": "735740d489828130218474cbaac39653", "is_disabled": 0, "lat": 38.89885533333333, "rental_uris": {"ios": "https://dc.lft.to/lastmile_qr_scan", "android": "https://dc.lft.to/lastmile_qr_scan"}, "is_reserved": 0, "lon": -76.93176116666666, "fusion_lat": 0.0, "name": "735740d489828130218474cbaac39653"}, {"type": "electric_scooter", "fusion_lon": 0.0, "bike_id": "662b62d65b7b196cfa941cd483b670c5", "is_disabled": 0, "lat": 38.9195235, "rental_uris": {"ios": "https://dc.lft.to/lastmile_qr_scan", "android": "https://dc.lft.to/lastmile_qr_scan"}, "is_reserved": 0, "lon": -77.01772516666666, "fusion_lat": 0.0, "name": "662b62d65b7b196cfa941cd483b670c5"}, {"type": "electric_scooter", "fusion_lon": 0.0, "bike_id": "823a21a0ac5223614edcbc0704ce6e86", "is_disabled": 0, "lat": 38.92481633333333, "rental_uris": {"ios": "https://dc.lft.to/lastmile_qr_scan", "android": "https://dc.lft.to/lastmile_qr_scan"}, "is_reserved": 0, "lon": -77.02550933333333, "fusion_lat": 0.0, "name": "823a21a0ac5223614edcbc0704ce6e86"}, {"type": "electric_scooter", "fusion_lon": 0.0, "bike_id": "e8f369aeb5434995ca6b67c82ad9cc55", "is_disabled": 0, "lat": 38.927885333333336, "rental_uris": {"ios": "https://dc.lft.to/lastmile_qr_scan", "android": "https://dc.lft.to/lastmile_qr_scan"}, "is_reserved": 0, "lon": -77.05410483333333, "fusion_lat": 0.0, "name": "e8f369aeb5434995ca6b67c82ad9cc55"}, {"type": "electric_scooter", "fusion_lon": 0.0, "bike_id": "fd7a99671941210397a5e580256ae8b6", "is_disabled": 0, "lat": 38.86379016666667, "rental_uris": {"ios": "https://dc.lft.to/lastmile_qr_scan", "android": "https://dc.lft.to/lastmile_qr_scan"}, "is_reserved": 0, "lon": -76.990473, "fusion_lat": 0.0, "name": "fd7a99671941210397a5e580256ae8b6"}, {"type": "electric_scooter", "fusion_lon": 0.0, "bike_id": "6b21c9dd64f0fe24eb54fba99e2f3d9e", "is_disabled": 0, "lat": 38.921807, "rental_uris": {"ios": "https://dc.lft.to/lastmile_qr_scan", "android": "https://dc.lft.to/lastmile_qr_scan"}, "is_reserved": 0, "lon": -76.998506, "fusion_lat": 0.0, "name": "6b21c9dd64f0fe24eb54fba99e2f3d9e"}, {"type": "electric_scooter", "fusion_lon": 0.0, "bike_id": "af5f92513c540ab654e9d3a4265d6a2a", "is_disabled": 0, "lat": 38.92614433333333, "rental_uris": {"ios": "https://dc.lft.to/lastmile_qr_scan", "android": "https://dc.lft.to/lastmile_qr_scan"}, "is_reserved": 0, "lon": -77.0215815, "fusion_lat": 0.0, "name": "af5f92513c540ab654e9d3a4265d6a2a"}, {"type": "electric_scooter", "fusion_lon": 0.0, "bike_id": "4e06d5d20b85a0adc880de07cf5d8bbb", "is_disabled": 0, "lat": 38.904637, "rental_uris": {"ios": "https://dc.lft.to/lastmile_qr_scan", "android": "https://dc.lft.to/lastmile_qr_scan"}, "is_reserved": 0, "lon": -77.035489, "fusion_lat": 0.0, "name": "4e06d5d20b85a0adc880de07cf5d8bbb"}, {"type": "electric_scooter", "fusion_lon": 0.0, "bike_id": "4b11aeb977edf599da76ba620bcfc61a", "is_disabled": 0, "lat": 38.933984, "rental_uris": {"ios": "https://dc.lft.to/lastmile_qr_scan", "android": "https://dc.lft.to/lastmile_qr_scan"}, "is_reserved": 0, "lon": -77.045448, "fusion_lat": 0.0, "name": "4b11aeb977edf599da76ba620bcfc61a"}, {"type": "electric_scooter", "fusion_lon": 0.0, "bike_id": "75b8b8ed33740a36df893c12e3b90b28", "is_disabled": 0, "lat": 38.886920333333336, "rental_uris": {"ios": "https://dc.lft.to/lastmile_qr_scan", "android": "https://dc.lft.to/lastmile_qr_scan"}, "is_reserved": 0, "lon": -76.97634733333334, "fusion_lat": 0.0, "name": "75b8b8ed33740a36df893c12e3b90b28"}, {"type": "electric_scooter", "fusion_lon": 0.0, "bike_id": "4e1b42269ab6651297461daf2343d8cc", "is_disabled": 0, "lat": 38.905529, "rental_uris": {"ios": "https://dc.lft.to/lastmile_qr_scan", "android": "https://dc.lft.to/lastmile_qr_scan"}, "is_reserved": 0, "lon": -76.994567, "fusion_lat": 0.0, "name": "4e1b42269ab6651297461daf2343d8cc"}, {"type": "electric_scooter", "fusion_lon": 0.0, "bike_id": "b8b24b6fe822db413e8f260b7c6aac44", "is_disabled": 0, "lat": 38.905226, "rental_uris": {"ios": "https://dc.lft.to/lastmile_qr_scan", "android": "https://dc.lft.to/lastmile_qr_scan"}, "is_reserved": 0, "lon": -77.0343915, "fusion_lat": 0.0, "name": "b8b24b6fe822db413e8f260b7c6aac44"}, {"type": "electric_scooter", "fusion_lon": 0.0, "bike_id": "b50b05aea6e1126d7e488c054b38825b", "is_disabled": 0, "lat": 38.91443866666667, "rental_uris": {"ios": "https://dc.lft.to/lastmile_qr_scan", "android": "https://dc.lft.to/lastmile_qr_scan"}, "is_reserved": 0, "lon": -77.04173616666667, "fusion_lat": 0.0, "name": "b50b05aea6e1126d7e488c054b38825b"}, {"type": "electric_scooter", "fusion_lon": 0.0, "bike_id": "326db660eadca817d98b1c75d9e61b46", "is_disabled": 0, "lat": 38.901323, "rental_uris": {"ios": "https://dc.lft.to/lastmile_qr_scan", "android": "https://dc.lft.to/lastmile_qr_scan"}, "is_reserved": 0, "lon": -77.041791, "fusion_lat": 0.0, "name": "326db660eadca817d98b1c75d9e61b46"}, {"type": "electric_scooter", "fusion_lon": 0.0, "bike_id": "df9422f0c1957833fa2465b8d694bc44", "is_disabled": 0, "lat": 38.9208785, "rental_uris": {"ios": "https://dc.lft.to/lastmile_qr_scan", "android": "https://dc.lft.to/lastmile_qr_scan"}, "is_reserved": 0, "lon": -77.07551183333334, "fusion_lat": 0.0, "name": "df9422f0c1957833fa2465b8d694bc44"}, {"type": "electric_scooter", "fusion_lon": 0.0, "bike_id": "473431cf6a55d80d5022222233154d46", "is_disabled": 0, "lat": 38.90246483333333, "rental_uris": {"ios": "https://dc.lft.to/lastmile_qr_scan", "android": "https://dc.lft.to/lastmile_qr_scan"}, "is_reserved": 0, "lon": -77.0387945, "fusion_lat": 0.0, "name": "473431cf6a55d80d5022222233154d46"}, {"type": "electric_scooter", "fusion_lon": 0.0, "bike_id": "8d467635db16d257874a0a477734e38f", "is_disabled": 0, "lat": 38.90226066666666, "rental_uris": {"ios": "https://dc.lft.to/lastmile_qr_scan", "android": "https://dc.lft.to/lastmile_qr_scan"}, "is_reserved": 0, "lon": -76.94196183333334, "fusion_lat": 0.0, "name": "8d467635db16d257874a0a477734e38f"}, {"type": "electric_scooter", "fusion_lon": 0.0, "bike_id": "be8a7387693cd6065025f6864c499412", "is_disabled": 0, "lat": 38.9019015, "rental_uris": {"ios": "https://dc.lft.to/lastmile_qr_scan", "android": "https://dc.lft.to/lastmile_qr_scan"}, "is_reserved": 0, "lon": -77.02495883333333, "fusion_lat": 0.0, "name": "be8a7387693cd6065025f6864c499412"}, {"type": "electric_scooter", "fusion_lon": 0.0, "bike_id": "fd19320e08aa81396754ea8c851644e6", "is_disabled": 0, "lat": 38.9274605, "rental_uris": {"ios": "https://dc.lft.to/lastmile_qr_scan", "android": "https://dc.lft.to/lastmile_qr_scan"}, "is_reserved": 0, "lon": -77.02531316666666, "fusion_lat": 0.0, "name": "fd19320e08aa81396754ea8c851644e6"}, {"type": "electric_scooter", "fusion_lon": 0.0, "bike_id": "bcb9a68ba90795ac4342bd4f243d2c78", "is_disabled": 0, "lat": 38.919874666666665, "rental_uris": {"ios": "https://dc.lft.to/lastmile_qr_scan", "android": "https://dc.lft.to/lastmile_qr_scan"}, "is_reserved": 0, "lon": -77.0295585, "fusion_lat": 0.0, "name": "bcb9a68ba90795ac4342bd4f243d2c78"}, {"type": "electric_scooter", "fusion_lon": 0.0, "bike_id": "1c0ccd52ebf8d58423ec2baf4afb300e", "is_disabled": 0, "lat": 38.934603333333335, "rental_uris": {"ios": "https://dc.lft.to/lastmile_qr_scan", "android": "https://dc.lft.to/lastmile_qr_scan"}, "is_reserved": 0, "lon": -77.03242266666666, "fusion_lat": 0.0, "name": "1c0ccd52ebf8d58423ec2baf4afb300e"}, {"type": "electric_scooter", "fusion_lon": 0.0, "bike_id": "40a55bf54ea2b324d083f976a23a5a14", "is_disabled": 0, "lat": 38.908296166666666, "rental_uris": {"ios": "https://dc.lft.to/lastmile_qr_scan", "android": "https://dc.lft.to/lastmile_qr_scan"}, "is_reserved": 0, "lon": -77.03909833333333, "fusion_lat": 0.0, "name": "40a55bf54ea2b324d083f976a23a5a14"}, {"type": "electric_scooter", "fusion_lon": 0.0, "bike_id": "fd6b15e4b58e0e54d8c2e60bb73f6959", "is_disabled": 0, "lat": 38.88705516666667, "rental_uris": {"ios": "https://dc.lft.to/lastmile_qr_scan", "android": "https://dc.lft.to/lastmile_qr_scan"}, "is_reserved": 0, "lon": -77.02826116666667, "fusion_lat": 0.0, "name": "fd6b15e4b58e0e54d8c2e60bb73f6959"}, {"type": "electric_scooter", "fusion_lon": 0.0, "bike_id": "68cea93585d65ffb1931e421d2b33ec0", "is_disabled": 0, "lat": 38.91448033333333, "rental_uris": {"ios": "https://dc.lft.to/lastmile_qr_scan", "android": "https://dc.lft.to/lastmile_qr_scan"}, "is_reserved": 0, "lon": -77.0415445, "fusion_lat": 0.0, "name": "68cea93585d65ffb1931e421d2b33ec0"}, {"type": "electric_scooter", "fusion_lon": 0.0, "bike_id": "7ad7bc071b1785cf30cdd35e36278ce9", "is_disabled": 0, "lat": 38.93431283333334, "rental_uris": {"ios": "https://dc.lft.to/lastmile_qr_scan", "android": "https://dc.lft.to/lastmile_qr_scan"}, "is_reserved": 0, "lon": -77.04427633333333, "fusion_lat": 0.0, "name": "7ad7bc071b1785cf30cdd35e36278ce9"}, {"type": "electric_scooter", "fusion_lon": 0.0, "bike_id": "8cbe8d656d25057d50a5ea181b985d0c", "is_disabled": 0, "lat": 38.921662166666664, "rental_uris": {"ios": "https://dc.lft.to/lastmile_qr_scan", "android": "https://dc.lft.to/lastmile_qr_scan"}, "is_reserved": 0, "lon": -77.02198516666667, "fusion_lat": 0.0, "name": "8cbe8d656d25057d50a5ea181b985d0c"}, {"type": "electric_scooter", "fusion_lon": 0.0, "bike_id": "5c16a7699f03fbdda7f1a5466130a42a", "is_disabled": 0, "lat": 38.9191415, "rental_uris": {"ios": "https://dc.lft.to/lastmile_qr_scan", "android": "https://dc.lft.to/lastmile_qr_scan"}, "is_reserved": 0, "lon": -77.0213925, "fusion_lat": 0.0, "name": "5c16a7699f03fbdda7f1a5466130a42a"}, {"type": "electric_bike", "fusion_lon": 0.0, "bike_id": "cca389fe5098c5d5af81586688836c8a", "is_disabled": 0, "lat": 38.857832, "rental_uris": {"ios": "https://dc.lft.to/lastmile_qr_scan", "android": "https://dc.lft.to/lastmile_qr_scan"}, "is_reserved": 0, "lon": -76.9732315, "fusion_lat": 0.0, "name": "cca389fe5098c5d5af81586688836c8a"}, {"type": "electric_scooter", "fusion_lon": 0.0, "bike_id": "3e7ecb5d6039ab24cd1cb812ed14fc1f", "is_disabled": 0, "lat": 38.928994, "rental_uris": {"ios": "https://dc.lft.to/lastmile_qr_scan", "android": "https://dc.lft.to/lastmile_qr_scan"}, "is_reserved": 0, "lon": -77.0580445, "fusion_lat": 0.0, "name": "3e7ecb5d6039ab24cd1cb812ed14fc1f"}, {"type": "electric_scooter", "fusion_lon": 0.0, "bike_id": "f5bdd81b574e455308e2d98309929803", "is_disabled": 0, "lat": 38.917769, "rental_uris": {"ios": "https://dc.lft.to/lastmile_qr_scan", "android": "https://dc.lft.to/lastmile_qr_scan"}, "is_reserved": 0, "lon": -77.0229325, "fusion_lat": 0.0, "name": "f5bdd81b574e455308e2d98309929803"}, {"type": "electric_bike", "fusion_lon": 0.0, "bike_id": "6ce2883d227f7c934fe4759e68b66e28", "is_disabled": 0, "lat": 38.90007816666667, "rental_uris": {"ios": "https://dc.lft.to/lastmile_qr_scan", "android": "https://dc.lft.to/lastmile_qr_scan"}, "is_reserved": 0, "lon": -77.00545566666666, "fusion_lat": 0.0, "name": "6ce2883d227f7c934fe4759e68b66e28"}, {"type": "electric_scooter", "fusion_lon": 0.0, "bike_id": "f449b7c4d3cc9ed4c7669138e3911d40", "is_disabled": 0, "lat": 38.924584, "rental_uris": {"ios": "https://dc.lft.to/lastmile_qr_scan", "android": "https://dc.lft.to/lastmile_qr_scan"}, "is_reserved": 0, "lon": -77.03282333333334, "fusion_lat": 0.0, "name": "f449b7c4d3cc9ed4c7669138e3911d40"}, {"type": "electric_scooter", "fusion_lon": 0.0, "bike_id": "45543b9271ed984ab20afdcab9cb86a3", "is_disabled": 0, "lat": 38.9035265, "rental_uris": {"ios": "https://dc.lft.to/lastmile_qr_scan", "android": "https://dc.lft.to/lastmile_qr_scan"}, "is_reserved": 0, "lon": -77.039909, "fusion_lat": 0.0, "name": "45543b9271ed984ab20afdcab9cb86a3"}, {"type": "electric_scooter", "fusion_lon": 0.0, "bike_id": "9097df52c89c8785a9273fa47e4c4100", "is_disabled": 0, "lat": 38.89257383333333, "rental_uris": {"ios": "https://dc.lft.to/lastmile_qr_scan", "android": "https://dc.lft.to/lastmile_qr_scan"}, "is_reserved": 0, "lon": -77.02202516666667, "fusion_lat": 0.0, "name": "9097df52c89c8785a9273fa47e4c4100"}, {"type": "electric_scooter", "fusion_lon": 0.0, "bike_id": "d93de79bbb57eb505992920366bd776d", "is_disabled": 0, "lat": 38.89981866666667, "rental_uris": {"ios": "https://dc.lft.to/lastmile_qr_scan", "android": "https://dc.lft.to/lastmile_qr_scan"}, "is_reserved": 0, "lon": -77.04503533333333, "fusion_lat": 0.0, "name": "d93de79bbb57eb505992920366bd776d"}, {"type": "electric_scooter", "fusion_lon": 0.0, "bike_id": "65875479e819d9876c4f62e93b839b8f", "is_disabled": 0, "lat": 38.908696666666664, "rental_uris": {"ios": "https://dc.lft.to/lastmile_qr_scan", "android": "https://dc.lft.to/lastmile_qr_scan"}, "is_reserved": 0, "lon": -77.034876, "fusion_lat": 0.0, "name": "65875479e819d9876c4f62e93b839b8f"}, {"type": "electric_scooter", "fusion_lon": 0.0, "bike_id": "2c8b2bca598f49ff4c8a03f27b3869e3", "is_disabled": 0, "lat": 38.902798, "rental_uris": {"ios": "https://dc.lft.to/lastmile_qr_scan", "android": "https://dc.lft.to/lastmile_qr_scan"}, "is_reserved": 0, "lon": -77.03859366666667, "fusion_lat": 0.0, "name": "2c8b2bca598f49ff4c8a03f27b3869e3"}, {"type": "electric_scooter", "fusion_lon": 0.0, "bike_id": "16634c73b5791831b23fb5f2294e2b57", "is_disabled": 0, "lat": 38.913385, "rental_uris": {"ios": "https://dc.lft.to/lastmile_qr_scan", "android": "https://dc.lft.to/lastmile_qr_scan"}, "is_reserved": 0, "lon": -77.06314583333334, "fusion_lat": 0.0, "name": "16634c73b5791831b23fb5f2294e2b57"}, {"type": "electric_bike", "fusion_lon": 0.0, "bike_id": "c124f28ad2c7fd09a5fad0ef1c7a21c1", "is_disabled": 0, "lat": 38.831042333333336, "rental_uris": {"ios": "https://dc.lft.to/lastmile_qr_scan", "android": "https://dc.lft.to/lastmile_qr_scan"}, "is_reserved": 0, "lon": -77.11279983333333, "fusion_lat": 0.0, "name": "c124f28ad2c7fd09a5fad0ef1c7a21c1"}, {"type": "electric_scooter", "fusion_lon": 0.0, "bike_id": "2347f0e7ddbea156d9636ecd802131d9", "is_disabled": 0, "lat": 38.913482, "rental_uris": {"ios": "https://dc.lft.to/lastmile_qr_scan", "android": "https://dc.lft.to/lastmile_qr_scan"}, "is_reserved": 0, "lon": -77.029481, "fusion_lat": 0.0, "name": "2347f0e7ddbea156d9636ecd802131d9"}, {"type": "electric_scooter", "fusion_lon": 0.0, "bike_id": "bc2a737b79e9ec715db7b9021ace12ae", "is_disabled": 0, "lat": 38.894421333333334, "rental_uris": {"ios": "https://dc.lft.to/lastmile_qr_scan", "android": "https://dc.lft.to/lastmile_qr_scan"}, "is_reserved": 0, "lon": -76.9808235, "fusion_lat": 0.0, "name": "bc2a737b79e9ec715db7b9021ace12ae"}, {"type": "electric_scooter", "fusion_lon": 0.0, "bike_id": "787e11da7c42479e11e5a10242291a9e", "is_disabled": 0, "lat": 38.91798266666667, "rental_uris": {"ios": "https://dc.lft.to/lastmile_qr_scan", "android": "https://dc.lft.to/lastmile_qr_scan"}, "is_reserved": 0, "lon": -77.02713033333333, "fusion_lat": 0.0, "name": "787e11da7c42479e11e5a10242291a9e"}, {"type": "electric_scooter", "fusion_lon": 0.0, "bike_id": "e9ff47d37bc961b8643a5606b01548a2", "is_disabled": 0, "lat": 38.92884683333333, "rental_uris": {"ios": "https://dc.lft.to/lastmile_qr_scan", "android": "https://dc.lft.to/lastmile_qr_scan"}, "is_reserved": 0, "lon": -77.02661816666667, "fusion_lat": 0.0, "name": "e9ff47d37bc961b8643a5606b01548a2"}, {"type": "electric_scooter", "fusion_lon": 0.0, "bike_id": "ce6d88ff5db3edc3bc52c2214fd8e6a8", "is_disabled": 0, "lat": 38.902393833333335, "rental_uris": {"ios": "https://dc.lft.to/lastmile_qr_scan", "android": "https://dc.lft.to/lastmile_qr_scan"}, "is_reserved": 0, "lon": -77.05978383333333, "fusion_lat": 0.0, "name": "ce6d88ff5db3edc3bc52c2214fd8e6a8"}, {"type": "electric_scooter", "fusion_lon": 0.0, "bike_id": "42f481bbcde3b7829f0f95c9c6f314a7", "is_disabled": 0, "lat": 38.905652, "rental_uris": {"ios": "https://dc.lft.to/lastmile_qr_scan", "android": "https://dc.lft.to/lastmile_qr_scan"}, "is_reserved": 0, "lon": -77.0176035, "fusion_lat": 0.0, "name": "42f481bbcde3b7829f0f95c9c6f314a7"}, {"type": "electric_scooter", "fusion_lon": 0.0, "bike_id": "923143a47d00390a522dc662701774dd", "is_disabled": 0, "lat": 38.9483215, "rental_uris": {"ios": "https://dc.lft.to/lastmile_qr_scan", "android": "https://dc.lft.to/lastmile_qr_scan"}, "is_reserved": 0, "lon": -77.02558733333333, "fusion_lat": 0.0, "name": "923143a47d00390a522dc662701774dd"}, {"type": "electric_scooter", "fusion_lon": 0.0, "bike_id": "d8cfe01c12fcdd39f1f7bcf294fdcf33", "is_disabled": 0, "lat": 38.90364366666667, "rental_uris": {"ios": "https://dc.lft.to/lastmile_qr_scan", "android": "https://dc.lft.to/lastmile_qr_scan"}, "is_reserved": 0, "lon": -77.03744816666666, "fusion_lat": 0.0, "name": "d8cfe01c12fcdd39f1f7bcf294fdcf33"}, {"type": "electric_scooter", "fusion_lon": 0.0, "bike_id": "927107f932937b5755058fe34cb88243", "is_disabled": 0, "lat": 38.89635366666667, "rental_uris": {"ios": "https://dc.lft.to/lastmile_qr_scan", "android": "https://dc.lft.to/lastmile_qr_scan"}, "is_reserved": 0, "lon": -77.032046, "fusion_lat": 0.0, "name": "927107f932937b5755058fe34cb88243"}, {"type": "electric_scooter", "fusion_lon": 0.0, "bike_id": "0861159aa6cd251e465d1c376455f2f4", "is_disabled": 0, "lat": 38.8922325, "rental_uris": {"ios": "https://dc.lft.to/lastmile_qr_scan", "android": "https://dc.lft.to/lastmile_qr_scan"}, "is_reserved": 0, "lon": -77.02627383333333, "fusion_lat": 0.0, "name": "0861159aa6cd251e465d1c376455f2f4"}, {"type": "electric_scooter", "fusion_lon": 0.0, "bike_id": "55db6e4716fbe5b97181957ab91f154d", "is_disabled": 0, "lat": 38.91469766666667, "rental_uris": {"ios": "https://dc.lft.to/lastmile_qr_scan", "android": "https://dc.lft.to/lastmile_qr_scan"}, "is_reserved": 0, "lon": -77.03644833333334, "fusion_lat": 0.0, "name": "55db6e4716fbe5b97181957ab91f154d"}, {"type": "electric_scooter", "fusion_lon": 0.0, "bike_id": "4ab2eb415707487210f42ec90a14ac6f", "is_disabled": 0, "lat": 38.9084485, "rental_uris": {"ios": "https://dc.lft.to/lastmile_qr_scan", "android": "https://dc.lft.to/lastmile_qr_scan"}, "is_reserved": 0, "lon": -77.026913, "fusion_lat": 0.0, "name": "4ab2eb415707487210f42ec90a14ac6f"}, {"type": "electric_scooter", "fusion_lon": 0.0, "bike_id": "73528db3d7350359e2e99e1e255007ad", "is_disabled": 0, "lat": 38.907234333333335, "rental_uris": {"ios": "https://dc.lft.to/lastmile_qr_scan", "android": "https://dc.lft.to/lastmile_qr_scan"}, "is_reserved": 0, "lon": -77.04374866666667, "fusion_lat": 0.0, "name": "73528db3d7350359e2e99e1e255007ad"}, {"type": "electric_scooter", "fusion_lon": 0.0, "bike_id": "a58c5e7f4e90465be00e4aa093ad3a04", "is_disabled": 0, "lat": 38.8666285, "rental_uris": {"ios": "https://dc.lft.to/lastmile_qr_scan", "android": "https://dc.lft.to/lastmile_qr_scan"}, "is_reserved": 0, "lon": -76.9888435, "fusion_lat": 0.0, "name": "a58c5e7f4e90465be00e4aa093ad3a04"}, {"type": "electric_scooter", "fusion_lon": 0.0, "bike_id": "3bbfac102ff64d29365ede094bdb78ed", "is_disabled": 0, "lat": 38.90335666666667, "rental_uris": {"ios": "https://dc.lft.to/lastmile_qr_scan", "android": "https://dc.lft.to/lastmile_qr_scan"}, "is_reserved": 0, "lon": -76.929473, "fusion_lat": 0.0, "name": "3bbfac102ff64d29365ede094bdb78ed"}, {"type": "electric_scooter", "fusion_lon": 0.0, "bike_id": "c3480ed75c23c005a1e695797a277121", "is_disabled": 0, "lat": 38.8983375, "rental_uris": {"ios": "https://dc.lft.to/lastmile_qr_scan", "android": "https://dc.lft.to/lastmile_qr_scan"}, "is_reserved": 0, "lon": -76.94633466666667, "fusion_lat": 0.0, "name": "c3480ed75c23c005a1e695797a277121"}, {"type": "electric_scooter", "fusion_lon": 0.0, "bike_id": "c8057c9df939be866349acd2f0733d87", "is_disabled": 0, "lat": 38.931204, "rental_uris": {"ios": "https://dc.lft.to/lastmile_qr_scan", "android": "https://dc.lft.to/lastmile_qr_scan"}, "is_reserved": 0, "lon": -77.0561685, "fusion_lat": 0.0, "name": "c8057c9df939be866349acd2f0733d87"}, {"type": "electric_scooter", "fusion_lon": 0.0, "bike_id": "38ed7940c3be19ae968884dc0fd77b6a", "is_disabled": 0, "lat": 38.92157266666667, "rental_uris": {"ios": "https://dc.lft.to/lastmile_qr_scan", "android": "https://dc.lft.to/lastmile_qr_scan"}, "is_reserved": 0, "lon": -77.03292616666667, "fusion_lat": 0.0, "name": "38ed7940c3be19ae968884dc0fd77b6a"}, {"type": "electric_scooter", "fusion_lon": 0.0, "bike_id": "03f9a3f2acebd10140a033d9f027a24e", "is_disabled": 0, "lat": 38.910262, "rental_uris": {"ios": "https://dc.lft.to/lastmile_qr_scan", "android": "https://dc.lft.to/lastmile_qr_scan"}, "is_reserved": 0, "lon": -77.03216366666666, "fusion_lat": 0.0, "name": "03f9a3f2acebd10140a033d9f027a24e"}, {"type": "electric_scooter", "fusion_lon": 0.0, "bike_id": "0c05c4cbc2f4b475a899506be887d55b", "is_disabled": 0, "lat": 38.92442366666667, "rental_uris": {"ios": "https://dc.lft.to/lastmile_qr_scan", "android": "https://dc.lft.to/lastmile_qr_scan"}, "is_reserved": 0, "lon": -77.02032566666666, "fusion_lat": 0.0, "name": "0c05c4cbc2f4b475a899506be887d55b"}, {"type": "electric_scooter", "fusion_lon": 0.0, "bike_id": "a2fdf489f50a649c51f333c270eb03d8", "is_disabled": 0, "lat": 38.923308166666665, "rental_uris": {"ios": "https://dc.lft.to/lastmile_qr_scan", "android": "https://dc.lft.to/lastmile_qr_scan"}, "is_reserved": 0, "lon": -77.01958866666666, "fusion_lat": 0.0, "name": "a2fdf489f50a649c51f333c270eb03d8"}, {"type": "electric_scooter", "fusion_lon": 0.0, "bike_id": "7886e81e0a742adc4b7bc6cf1b21a449", "is_disabled": 0, "lat": 38.912721833333336, "rental_uris": {"ios": "https://dc.lft.to/lastmile_qr_scan", "android": "https://dc.lft.to/lastmile_qr_scan"}, "is_reserved": 0, "lon": -77.04154966666667, "fusion_lat": 0.0, "name": "7886e81e0a742adc4b7bc6cf1b21a449"}, {"type": "electric_scooter", "fusion_lon": 0.0, "bike_id": "1bc371fbc9fdf82c4cf4b1e625e87d2f", "is_disabled": 0, "lat": 38.889720833333335, "rental_uris": {"ios": "https://dc.lft.to/lastmile_qr_scan", "android": "https://dc.lft.to/lastmile_qr_scan"}, "is_reserved": 0, "lon": -76.98334083333333, "fusion_lat": 0.0, "name": "1bc371fbc9fdf82c4cf4b1e625e87d2f"}, {"type": "electric_scooter", "fusion_lon": 0.0, "bike_id": "8a52f5f5f82603610e98e7ce1734249b", "is_disabled": 0, "lat": 38.9058585, "rental_uris": {"ios": "https://dc.lft.to/lastmile_qr_scan", "android": "https://dc.lft.to/lastmile_qr_scan"}, "is_reserved": 0, "lon": -77.0461375, "fusion_lat": 0.0, "name": "8a52f5f5f82603610e98e7ce1734249b"}, {"type": "electric_scooter", "fusion_lon": 0.0, "bike_id": "95a1bb610024a669ede9446af9d1532a", "is_disabled": 0, "lat": 38.901543833333335, "rental_uris": {"ios": "https://dc.lft.to/lastmile_qr_scan", "android": "https://dc.lft.to/lastmile_qr_scan"}, "is_reserved": 0, "lon": -77.03977416666666, "fusion_lat": 0.0, "name": "95a1bb610024a669ede9446af9d1532a"}, {"type": "electric_scooter", "fusion_lon": 0.0, "bike_id": "8258cb16f561c938d31607c16a04279d", "is_disabled": 0, "lat": 38.89612133333333, "rental_uris": {"ios": "https://dc.lft.to/lastmile_qr_scan", "android": "https://dc.lft.to/lastmile_qr_scan"}, "is_reserved": 0, "lon": -77.01950966666666, "fusion_lat": 0.0, "name": "8258cb16f561c938d31607c16a04279d"}, {"type": "electric_scooter", "fusion_lon": 0.0, "bike_id": "7634f3594687344e365fde0d85d6ac5f", "is_disabled": 0, "lat": 38.892403333333334, "rental_uris": {"ios": "https://dc.lft.to/lastmile_qr_scan", "android": "https://dc.lft.to/lastmile_qr_scan"}, "is_reserved": 0, "lon": -77.03209483333333, "fusion_lat": 0.0, "name": "7634f3594687344e365fde0d85d6ac5f"}, {"type": "electric_scooter", "fusion_lon": 0.0, "bike_id": "a7371738bf324f1dffb053bbfa64d016", "is_disabled": 0, "lat": 38.93473766666666, "rental_uris": {"ios": "https://dc.lft.to/lastmile_qr_scan", "android": "https://dc.lft.to/lastmile_qr_scan"}, "is_reserved": 0, "lon": -77.07278616666666, "fusion_lat": 0.0, "name": "a7371738bf324f1dffb053bbfa64d016"}, {"type": "electric_scooter", "fusion_lon": 0.0, "bike_id": "4af72a609ed9e44a1227cf051202722b", "is_disabled": 0, "lat": 38.92822916666667, "rental_uris": {"ios": "https://dc.lft.to/lastmile_qr_scan", "android": "https://dc.lft.to/lastmile_qr_scan"}, "is_reserved": 0, "lon": -77.022557, "fusion_lat": 0.0, "name": "4af72a609ed9e44a1227cf051202722b"}, {"type": "electric_scooter", "fusion_lon": 0.0, "bike_id": "383693104c34d6f4f28d1732d6ed4f0c", "is_disabled": 0, "lat": 38.919526166666664, "rental_uris": {"ios": "https://dc.lft.to/lastmile_qr_scan", "android": "https://dc.lft.to/lastmile_qr_scan"}, "is_reserved": 0, "lon": -77.02485433333334, "fusion_lat": 0.0, "name": "383693104c34d6f4f28d1732d6ed4f0c"}, {"type": "electric_scooter", "fusion_lon": 0.0, "bike_id": "d1daccf1cd963d746062b0ddd5583d6e", "is_disabled": 0, "lat": 38.91687183333333, "rental_uris": {"ios": "https://dc.lft.to/lastmile_qr_scan", "android": "https://dc.lft.to/lastmile_qr_scan"}, "is_reserved": 0, "lon": -77.03861683333334, "fusion_lat": 0.0, "name": "d1daccf1cd963d746062b0ddd5583d6e"}, {"type": "electric_scooter", "fusion_lon": 0.0, "bike_id": "b2332656655f6ef5b0f389bee2acaaa0", "is_disabled": 0, "lat": 38.88496216666667, "rental_uris": {"ios": "https://dc.lft.to/lastmile_qr_scan", "android": "https://dc.lft.to/lastmile_qr_scan"}, "is_reserved": 0, "lon": -77.02077266666667, "fusion_lat": 0.0, "name": "b2332656655f6ef5b0f389bee2acaaa0"}, {"type": "electric_scooter", "fusion_lon": 0.0, "bike_id": "6f7ba2829e383673d66e45a72297fd17", "is_disabled": 0, "lat": 38.922662833333334, "rental_uris": {"ios": "https://dc.lft.to/lastmile_qr_scan", "android": "https://dc.lft.to/lastmile_qr_scan"}, "is_reserved": 0, "lon": -77.01912883333334, "fusion_lat": 0.0, "name": "6f7ba2829e383673d66e45a72297fd17"}, {"type": "electric_scooter", "fusion_lon": 0.0, "bike_id": "90e98651add3efa3a8cc46050f5a16d0", "is_disabled": 0, "lat": 38.917246666666664, "rental_uris": {"ios": "https://dc.lft.to/lastmile_qr_scan", "android": "https://dc.lft.to/lastmile_qr_scan"}, "is_reserved": 0, "lon": -77.04599883333333, "fusion_lat": 0.0, "name": "90e98651add3efa3a8cc46050f5a16d0"}, {"type": "electric_scooter", "fusion_lon": 0.0, "bike_id": "bb0334c80e830cb324f7d6109ca0e7c7", "is_disabled": 0, "lat": 38.892233833333336, "rental_uris": {"ios": "https://dc.lft.to/lastmile_qr_scan", "android": "https://dc.lft.to/lastmile_qr_scan"}, "is_reserved": 0, "lon": -77.04859883333333, "fusion_lat": 0.0, "name": "bb0334c80e830cb324f7d6109ca0e7c7"}, {"type": "electric_scooter", "fusion_lon": 0.0, "bike_id": "b83f7b68d81a525f702190e586c363db", "is_disabled": 0, "lat": 38.936774166666666, "rental_uris": {"ios": "https://dc.lft.to/lastmile_qr_scan", "android": "https://dc.lft.to/lastmile_qr_scan"}, "is_reserved": 0, "lon": -77.03633833333333, "fusion_lat": 0.0, "name": "b83f7b68d81a525f702190e586c363db"}, {"type": "electric_scooter", "fusion_lon": 0.0, "bike_id": "0ca8416e6bd529b21a2eeed64979f0cf", "is_disabled": 0, "lat": 38.920558166666666, "rental_uris": {"ios": "https://dc.lft.to/lastmile_qr_scan", "android": "https://dc.lft.to/lastmile_qr_scan"}, "is_reserved": 0, "lon": -77.04182733333333, "fusion_lat": 0.0, "name": "0ca8416e6bd529b21a2eeed64979f0cf"}, {"type": "electric_scooter", "fusion_lon": 0.0, "bike_id": "a11650c1f507bbe2b8605eac4e30a7fc", "is_disabled": 0, "lat": 38.920256333333334, "rental_uris": {"ios": "https://dc.lft.to/lastmile_qr_scan", "android": "https://dc.lft.to/lastmile_qr_scan"}, "is_reserved": 0, "lon": -77.03130183333333, "fusion_lat": 0.0, "name": "a11650c1f507bbe2b8605eac4e30a7fc"}, {"type": "electric_scooter", "fusion_lon": 0.0, "bike_id": "358653f6191b81db62a9a3379a21204a", "is_disabled": 0, "lat": 38.909363, "rental_uris": {"ios": "https://dc.lft.to/lastmile_qr_scan", "android": "https://dc.lft.to/lastmile_qr_scan"}, "is_reserved": 0, "lon": -77.03847983333333, "fusion_lat": 0.0, "name": "358653f6191b81db62a9a3379a21204a"}, {"type": "electric_scooter", "fusion_lon": 0.0, "bike_id": "d111ec2ca536046e9dbc42ec3a4eb486", "is_disabled": 0, "lat": 38.8929125, "rental_uris": {"ios": "https://dc.lft.to/lastmile_qr_scan", "android": "https://dc.lft.to/lastmile_qr_scan"}, "is_reserved": 0, "lon": -76.95111916666667, "fusion_lat": 0.0, "name": "d111ec2ca536046e9dbc42ec3a4eb486"}, {"type": "electric_scooter", "fusion_lon": 0.0, "bike_id": "9557c0bd7dd3863e88d30d8f40e0468e", "is_disabled": 0, "lat": 38.9245685, "rental_uris": {"ios": "https://dc.lft.to/lastmile_qr_scan", "android": "https://dc.lft.to/lastmile_qr_scan"}, "is_reserved": 0, "lon": -77.03287816666666, "fusion_lat": 0.0, "name": "9557c0bd7dd3863e88d30d8f40e0468e"}, {"type": "electric_scooter", "fusion_lon": 0.0, "bike_id": "721ce2eaec4d67d61d76466aa06a1fe4", "is_disabled": 0, "lat": 38.90833966666667, "rental_uris": {"ios": "https://dc.lft.to/lastmile_qr_scan", "android": "https://dc.lft.to/lastmile_qr_scan"}, "is_reserved": 0, "lon": -77.03645233333333, "fusion_lat": 0.0, "name": "721ce2eaec4d67d61d76466aa06a1fe4"}, {"type": "electric_scooter", "fusion_lon": 0.0, "bike_id": "2fa0e7a704a1d05c156872eb0d3aff7a", "is_disabled": 0, "lat": 38.90589, "rental_uris": {"ios": "https://dc.lft.to/lastmile_qr_scan", "android": "https://dc.lft.to/lastmile_qr_scan"}, "is_reserved": 0, "lon": -77.06515766666666, "fusion_lat": 0.0, "name": "2fa0e7a704a1d05c156872eb0d3aff7a"}, {"type": "electric_scooter", "fusion_lon": 0.0, "bike_id": "a06d6e5e195b681afd9aded095f0f66a", "is_disabled": 0, "lat": 38.8766445, "rental_uris": {"ios": "https://dc.lft.to/lastmile_qr_scan", "android": "https://dc.lft.to/lastmile_qr_scan"}, "is_reserved": 0, "lon": -77.00940083333333, "fusion_lat": 0.0, "name": "a06d6e5e195b681afd9aded095f0f66a"}, {"type": "electric_scooter", "fusion_lon": 0.0, "bike_id": "7db5180d9accd46e06e21f5af488a810", "is_disabled": 0, "lat": 38.90887333333333, "rental_uris": {"ios": "https://dc.lft.to/lastmile_qr_scan", "android": "https://dc.lft.to/lastmile_qr_scan"}, "is_reserved": 0, "lon": -77.043062, "fusion_lat": 0.0, "name": "7db5180d9accd46e06e21f5af488a810"}, {"type": "electric_scooter", "fusion_lon": 0.0, "bike_id": "11eda06b8e7319f37809e1af8a4e6218", "is_disabled": 0, "lat": 38.892463166666666, "rental_uris": {"ios": "https://dc.lft.to/lastmile_qr_scan", "android": "https://dc.lft.to/lastmile_qr_scan"}, "is_reserved": 0, "lon": -77.03342633333334, "fusion_lat": 0.0, "name": "11eda06b8e7319f37809e1af8a4e6218"}, {"type": "electric_scooter", "fusion_lon": 0.0, "bike_id": "c05f1704720e71137f307a1b92814cb1", "is_disabled": 0, "lat": 38.89223483333333, "rental_uris": {"ios": "https://dc.lft.to/lastmile_qr_scan", "android": "https://dc.lft.to/lastmile_qr_scan"}, "is_reserved": 0, "lon": -77.02623466666667, "fusion_lat": 0.0, "name": "c05f1704720e71137f307a1b92814cb1"}, {"type": "electric_scooter", "fusion_lon": 0.0, "bike_id": "d10013fb8745f00b71e0931178750700", "is_disabled": 0, "lat": 38.9339945, "rental_uris": {"ios": "https://dc.lft.to/lastmile_qr_scan", "android": "https://dc.lft.to/lastmile_qr_scan"}, "is_reserved": 0, "lon": -77.05741583333334, "fusion_lat": 0.0, "name": "d10013fb8745f00b71e0931178750700"}, {"type": "electric_scooter", "fusion_lon": 0.0, "bike_id": "c3949fcd7bbff4c3c774307660d2e52b", "is_disabled": 0, "lat": 38.89981316666667, "rental_uris": {"ios": "https://dc.lft.to/lastmile_qr_scan", "android": "https://dc.lft.to/lastmile_qr_scan"}, "is_reserved": 0, "lon": -77.02112016666666, "fusion_lat": 0.0, "name": "c3949fcd7bbff4c3c774307660d2e52b"}, {"type": "electric_scooter", "fusion_lon": 0.0, "bike_id": "04004b2af9b7b033b6737a4a44b3fcfd", "is_disabled": 0, "lat": 38.91780766666667, "rental_uris": {"ios": "https://dc.lft.to/lastmile_qr_scan", "android": "https://dc.lft.to/lastmile_qr_scan"}, "is_reserved": 0, "lon": -77.0440635, "fusion_lat": 0.0, "name": "04004b2af9b7b033b6737a4a44b3fcfd"}, {"type": "electric_scooter", "fusion_lon": 0.0, "bike_id": "4cc456d480ccbb8682d4183793ed5d5f", "is_disabled": 0, "lat": 38.88372066666667, "rental_uris": {"ios": "https://dc.lft.to/lastmile_qr_scan", "android": "https://dc.lft.to/lastmile_qr_scan"}, "is_reserved": 0, "lon": -76.9570985, "fusion_lat": 0.0, "name": "4cc456d480ccbb8682d4183793ed5d5f"}, {"type": "electric_scooter", "fusion_lon": 0.0, "bike_id": "0ab6b177bdbfdeffa4ceeb6d499ba9b4", "is_disabled": 0, "lat": 38.90963983333333, "rental_uris": {"ios": "https://dc.lft.to/lastmile_qr_scan", "android": "https://dc.lft.to/lastmile_qr_scan"}, "is_reserved": 0, "lon": -77.00744966666667, "fusion_lat": 0.0, "name": "0ab6b177bdbfdeffa4ceeb6d499ba9b4"}, {"type": "electric_scooter", "fusion_lon": 0.0, "bike_id": "50a65f4a0af064fd08281017a4e3aff7", "is_disabled": 0, "lat": 38.910045333333336, "rental_uris": {"ios": "https://dc.lft.to/lastmile_qr_scan", "android": "https://dc.lft.to/lastmile_qr_scan"}, "is_reserved": 0, "lon": -77.0401105, "fusion_lat": 0.0, "name": "50a65f4a0af064fd08281017a4e3aff7"}, {"type": "electric_scooter", "fusion_lon": 0.0, "bike_id": "44b75fc522429f9dca60c9318cf4c0ad", "is_disabled": 0, "lat": 38.90415333333333, "rental_uris": {"ios": "https://dc.lft.to/lastmile_qr_scan", "android": "https://dc.lft.to/lastmile_qr_scan"}, "is_reserved": 0, "lon": -77.02987616666667, "fusion_lat": 0.0, "name": "44b75fc522429f9dca60c9318cf4c0ad"}, {"type": "electric_scooter", "fusion_lon": 0.0, "bike_id": "dfbb8387b37fb4d529bc031ddce975cc", "is_disabled": 0, "lat": 38.87388116666666, "rental_uris": {"ios": "https://dc.lft.to/lastmile_qr_scan", "android": "https://dc.lft.to/lastmile_qr_scan"}, "is_reserved": 0, "lon": -77.00138333333334, "fusion_lat": 0.0, "name": "dfbb8387b37fb4d529bc031ddce975cc"}, {"type": "electric_scooter", "fusion_lon": 0.0, "bike_id": "907707aca68d8ad8e50e8a7f5cbf6549", "is_disabled": 0, "lat": 38.89804683333333, "rental_uris": {"ios": "https://dc.lft.to/lastmile_qr_scan", "android": "https://dc.lft.to/lastmile_qr_scan"}, "is_reserved": 0, "lon": -76.97950333333333, "fusion_lat": 0.0, "name": "907707aca68d8ad8e50e8a7f5cbf6549"}, {"type": "electric_scooter", "fusion_lon": 0.0, "bike_id": "e4cbdb054a28f98e208d2bfcfaefff84", "is_disabled": 0, "lat": 38.904829, "rental_uris": {"ios": "https://dc.lft.to/lastmile_qr_scan", "android": "https://dc.lft.to/lastmile_qr_scan"}, "is_reserved": 0, "lon": -77.04867583333333, "fusion_lat": 0.0, "name": "e4cbdb054a28f98e208d2bfcfaefff84"}, {"type": "electric_scooter", "fusion_lon": 0.0, "bike_id": "f93c0e51b5ac61125c4f65b64098e42f", "is_disabled": 0, "lat": 38.87385533333333, "rental_uris": {"ios": "https://dc.lft.to/lastmile_qr_scan", "android": "https://dc.lft.to/lastmile_qr_scan"}, "is_reserved": 0, "lon": -77.00136083333334, "fusion_lat": 0.0, "name": "f93c0e51b5ac61125c4f65b64098e42f"}, {"type": "electric_scooter", "fusion_lon": 0.0, "bike_id": "15fa51a7326793ed0f3f73b99b5b21c7", "is_disabled": 0, "lat": 38.944577, "rental_uris": {"ios": "https://dc.lft.to/lastmile_qr_scan", "android": "https://dc.lft.to/lastmile_qr_scan"}, "is_reserved": 0, "lon": -77.02798683333333, "fusion_lat": 0.0, "name": "15fa51a7326793ed0f3f73b99b5b21c7"}, {"type": "electric_scooter", "fusion_lon": 0.0, "bike_id": "78307d91858c33506da4b7e6945a823a", "is_disabled": 0, "lat": 38.88740116666666, "rental_uris": {"ios": "https://dc.lft.to/lastmile_qr_scan", "android": "https://dc.lft.to/lastmile_qr_scan"}, "is_reserved": 0, "lon": -77.015272, "fusion_lat": 0.0, "name": "78307d91858c33506da4b7e6945a823a"}, {"type": "electric_scooter", "fusion_lon": 0.0, "bike_id": "0a330959f58f055fd79d8b9b9d390912", "is_disabled": 0, "lat": 38.91711016666667, "rental_uris": {"ios": "https://dc.lft.to/lastmile_qr_scan", "android": "https://dc.lft.to/lastmile_qr_scan"}, "is_reserved": 0, "lon": -77.03854033333333, "fusion_lat": 0.0, "name": "0a330959f58f055fd79d8b9b9d390912"}, {"type": "electric_scooter", "fusion_lon": 0.0, "bike_id": "3ff90d0d91295aaaf593d417b09ba99b", "is_disabled": 0, "lat": 38.877298, "rental_uris": {"ios": "https://dc.lft.to/lastmile_qr_scan", "android": "https://dc.lft.to/lastmile_qr_scan"}, "is_reserved": 0, "lon": -77.0175745, "fusion_lat": 0.0, "name": "3ff90d0d91295aaaf593d417b09ba99b"}, {"type": "electric_scooter", "fusion_lon": 0.0, "bike_id": "faef9d9680eb05295a22f7e9130982ea", "is_disabled": 0, "lat": 38.9038155, "rental_uris": {"ios": "https://dc.lft.to/lastmile_qr_scan", "android": "https://dc.lft.to/lastmile_qr_scan"}, "is_reserved": 0, "lon": -77.06678366666667, "fusion_lat": 0.0, "name": "faef9d9680eb05295a22f7e9130982ea"}, {"type": "electric_scooter", "fusion_lon": 0.0, "bike_id": "cc67b567267283306cb2176a8e85b9be", "is_disabled": 0, "lat": 38.9210745, "rental_uris": {"ios": "https://dc.lft.to/lastmile_qr_scan", "android": "https://dc.lft.to/lastmile_qr_scan"}, "is_reserved": 0, "lon": -77.017536, "fusion_lat": 0.0, "name": "cc67b567267283306cb2176a8e85b9be"}, {"type": "electric_scooter", "fusion_lon": 0.0, "bike_id": "6360622ffaddf1100873746a9c9aec84", "is_disabled": 0, "lat": 38.919830833333336, "rental_uris": {"ios": "https://dc.lft.to/lastmile_qr_scan", "android": "https://dc.lft.to/lastmile_qr_scan"}, "is_reserved": 0, "lon": -77.02177816666666, "fusion_lat": 0.0, "name": "6360622ffaddf1100873746a9c9aec84"}, {"type": "electric_scooter", "fusion_lon": 0.0, "bike_id": "7daa8deb52013759ce4c550ba5e32fbe", "is_disabled": 0, "lat": 38.927117333333335, "rental_uris": {"ios": "https://dc.lft.to/lastmile_qr_scan", "android": "https://dc.lft.to/lastmile_qr_scan"}, "is_reserved": 0, "lon": -77.0208495, "fusion_lat": 0.0, "name": "7daa8deb52013759ce4c550ba5e32fbe"}, {"type": "electric_scooter", "fusion_lon": 0.0, "bike_id": "63d91203fa86b50a3b442480c01d5491", "is_disabled": 0, "lat": 38.910549833333334, "rental_uris": {"ios": "https://dc.lft.to/lastmile_qr_scan", "android": "https://dc.lft.to/lastmile_qr_scan"}, "is_reserved": 0, "lon": -77.04344516666667, "fusion_lat": 0.0, "name": "63d91203fa86b50a3b442480c01d5491"}, {"type": "electric_scooter", "fusion_lon": 0.0, "bike_id": "d38d962722164cbaf2f9184c4c889585", "is_disabled": 0, "lat": 38.92471233333333, "rental_uris": {"ios": "https://dc.lft.to/lastmile_qr_scan", "android": "https://dc.lft.to/lastmile_qr_scan"}, "is_reserved": 0, "lon": -77.03062283333334, "fusion_lat": 0.0, "name": "d38d962722164cbaf2f9184c4c889585"}, {"type": "electric_scooter", "fusion_lon": 0.0, "bike_id": "0188db4b0da900c7c3451ae921475946", "is_disabled": 0, "lat": 38.895009333333334, "rental_uris": {"ios": "https://dc.lft.to/lastmile_qr_scan", "android": "https://dc.lft.to/lastmile_qr_scan"}, "is_reserved": 0, "lon": -77.02828766666667, "fusion_lat": 0.0, "name": "0188db4b0da900c7c3451ae921475946"}, {"type": "electric_scooter", "fusion_lon": 0.0, "bike_id": "26b472b8f92a6c78406db6b84341d60f", "is_disabled": 0, "lat": 38.90012, "rental_uris": {"ios": "https://dc.lft.to/lastmile_qr_scan", "android": "https://dc.lft.to/lastmile_qr_scan"}, "is_reserved": 0, "lon": -76.98896483333333, "fusion_lat": 0.0, "name": "26b472b8f92a6c78406db6b84341d60f"}, {"type": "electric_scooter", "fusion_lon": 0.0, "bike_id": "96283f5d52d3b5a67d4427c254bee8a3", "is_disabled": 0, "lat": 38.862693666666665, "rental_uris": {"ios": "https://dc.lft.to/lastmile_qr_scan", "android": "https://dc.lft.to/lastmile_qr_scan"}, "is_reserved": 0, "lon": -76.99568216666667, "fusion_lat": 0.0, "name": "96283f5d52d3b5a67d4427c254bee8a3"}, {"type": "electric_scooter", "fusion_lon": 0.0, "bike_id": "b044fc70c2189c35864615d65b6a1264", "is_disabled": 0, "lat": 38.86502016666667, "rental_uris": {"ios": "https://dc.lft.to/lastmile_qr_scan", "android": "https://dc.lft.to/lastmile_qr_scan"}, "is_reserved": 0, "lon": -76.98981966666666, "fusion_lat": 0.0, "name": "b044fc70c2189c35864615d65b6a1264"}, {"type": "electric_scooter", "fusion_lon": 0.0, "bike_id": "4c744836fb4f767408562e365d74f584", "is_disabled": 0, "lat": 38.8767165, "rental_uris": {"ios": "https://dc.lft.to/lastmile_qr_scan", "android": "https://dc.lft.to/lastmile_qr_scan"}, "is_reserved": 0, "lon": -77.0028235, "fusion_lat": 0.0, "name": "4c744836fb4f767408562e365d74f584"}, {"type": "electric_scooter", "fusion_lon": 0.0, "bike_id": "31c9d7d71d3db7a7fb603349d5de865b", "is_disabled": 0, "lat": 38.90323516666667, "rental_uris": {"ios": "https://dc.lft.to/lastmile_qr_scan", "android": "https://dc.lft.to/lastmile_qr_scan"}, "is_reserved": 0, "lon": -77.05171483333334, "fusion_lat": 0.0, "name": "31c9d7d71d3db7a7fb603349d5de865b"}, {"type": "electric_bike", "fusion_lon": 0.0, "bike_id": "6a72e6dc9568c681d84cb39311fa39f4", "is_disabled": 0, "lat": 38.895664, "rental_uris": {"ios": "https://dc.lft.to/lastmile_qr_scan", "android": "https://dc.lft.to/lastmile_qr_scan"}, "is_reserved": 0, "lon": -77.12734783333333, "fusion_lat": 0.0, "name": "6a72e6dc9568c681d84cb39311fa39f4"}, {"type": "electric_scooter", "fusion_lon": 0.0, "bike_id": "43206ca78813b53835bcc2f1fa8b64e6", "is_disabled": 0, "lat": 38.9141985, "rental_uris": {"ios": "https://dc.lft.to/lastmile_qr_scan", "android": "https://dc.lft.to/lastmile_qr_scan"}, "is_reserved": 0, "lon": -77.04152133333334, "fusion_lat": 0.0, "name": "43206ca78813b53835bcc2f1fa8b64e6"}, {"type": "electric_scooter", "fusion_lon": 0.0, "bike_id": "180de9e68920ff9fbd2af1a81e1f1eb8", "is_disabled": 0, "lat": 38.89913333333333, "rental_uris": {"ios": "https://dc.lft.to/lastmile_qr_scan", "android": "https://dc.lft.to/lastmile_qr_scan"}, "is_reserved": 0, "lon": -76.9338325, "fusion_lat": 0.0, "name": "180de9e68920ff9fbd2af1a81e1f1eb8"}, {"type": "electric_scooter", "fusion_lon": 0.0, "bike_id": "948676ccbda4630f8a068fbb1e673ac3", "is_disabled": 0, "lat": 38.89727633333333, "rental_uris": {"ios": "https://dc.lft.to/lastmile_qr_scan", "android": "https://dc.lft.to/lastmile_qr_scan"}, "is_reserved": 0, "lon": -77.02705766666666, "fusion_lat": 0.0, "name": "948676ccbda4630f8a068fbb1e673ac3"}, {"type": "electric_scooter", "fusion_lon": 0.0, "bike_id": "27ec11406d5428b1c6546250c4d60a2e", "is_disabled": 0, "lat": 38.9319755, "rental_uris": {"ios": "https://dc.lft.to/lastmile_qr_scan", "android": "https://dc.lft.to/lastmile_qr_scan"}, "is_reserved": 0, "lon": -77.07271416666667, "fusion_lat": 0.0, "name": "27ec11406d5428b1c6546250c4d60a2e"}, {"type": "electric_scooter", "fusion_lon": 0.0, "bike_id": "7c514c6eeb6705a3b700f0ff15de6116", "is_disabled": 0, "lat": 38.90054333333333, "rental_uris": {"ios": "https://dc.lft.to/lastmile_qr_scan", "android": "https://dc.lft.to/lastmile_qr_scan"}, "is_reserved": 0, "lon": -77.0418625, "fusion_lat": 0.0, "name": "7c514c6eeb6705a3b700f0ff15de6116"}, {"type": "electric_scooter", "fusion_lon": 0.0, "bike_id": "b426c0b0d28be73df1d7370fc35f9486", "is_disabled": 0, "lat": 38.912558, "rental_uris": {"ios": "https://dc.lft.to/lastmile_qr_scan", "android": "https://dc.lft.to/lastmile_qr_scan"}, "is_reserved": 0, "lon": -77.0387295, "fusion_lat": 0.0, "name": "b426c0b0d28be73df1d7370fc35f9486"}, {"type": "electric_scooter", "fusion_lon": 0.0, "bike_id": "b909add79415b9fc2ff05d18f7c376f6", "is_disabled": 0, "lat": 38.9074585, "rental_uris": {"ios": "https://dc.lft.to/lastmile_qr_scan", "android": "https://dc.lft.to/lastmile_qr_scan"}, "is_reserved": 0, "lon": -77.00337166666667, "fusion_lat": 0.0, "name": "b909add79415b9fc2ff05d18f7c376f6"}, {"type": "electric_scooter", "fusion_lon": 0.0, "bike_id": "8482d8e6efc12a0e1522d8331d270f83", "is_disabled": 0, "lat": 38.914841833333334, "rental_uris": {"ios": "https://dc.lft.to/lastmile_qr_scan", "android": "https://dc.lft.to/lastmile_qr_scan"}, "is_reserved": 0, "lon": -77.02197466666667, "fusion_lat": 0.0, "name": "8482d8e6efc12a0e1522d8331d270f83"}, {"type": "electric_scooter", "fusion_lon": 0.0, "bike_id": "58c1c1e22b8ae1600a9f353452528c94", "is_disabled": 0, "lat": 38.91814183333334, "rental_uris": {"ios": "https://dc.lft.to/lastmile_qr_scan", "android": "https://dc.lft.to/lastmile_qr_scan"}, "is_reserved": 0, "lon": -77.02707816666667, "fusion_lat": 0.0, "name": "58c1c1e22b8ae1600a9f353452528c94"}, {"type": "electric_scooter", "fusion_lon": 0.0, "bike_id": "348d56fdd00d3858aebf245966c117dc", "is_disabled": 0, "lat": 38.918116833333336, "rental_uris": {"ios": "https://dc.lft.to/lastmile_qr_scan", "android": "https://dc.lft.to/lastmile_qr_scan"}, "is_reserved": 0, "lon": -77.03925883333334, "fusion_lat": 0.0, "name": "348d56fdd00d3858aebf245966c117dc"}, {"type": "electric_bike", "fusion_lon": 0.0, "bike_id": "fcd1c21ecb5531b673a756c541cbeb09", "is_disabled": 0, "lat": 38.85724966666667, "rental_uris": {"ios": "https://dc.lft.to/lastmile_qr_scan", "android": "https://dc.lft.to/lastmile_qr_scan"}, "is_reserved": 0, "lon": -76.97770816666667, "fusion_lat": 0.0, "name": "fcd1c21ecb5531b673a756c541cbeb09"}, {"type": "electric_scooter", "fusion_lon": 0.0, "bike_id": "0e274b7ad7b30cbd7dff4f968ecfc5e2", "is_disabled": 0, "lat": 38.9119205, "rental_uris": {"ios": "https://dc.lft.to/lastmile_qr_scan", "android": "https://dc.lft.to/lastmile_qr_scan"}, "is_reserved": 0, "lon": -77.0421805, "fusion_lat": 0.0, "name": "0e274b7ad7b30cbd7dff4f968ecfc5e2"}, {"type": "electric_scooter", "fusion_lon": 0.0, "bike_id": "6d53558606acf44ec0fe95cb80392fda", "is_disabled": 0, "lat": 38.88677933333334, "rental_uris": {"ios": "https://dc.lft.to/lastmile_qr_scan", "android": "https://dc.lft.to/lastmile_qr_scan"}, "is_reserved": 0, "lon": -77.01380266666666, "fusion_lat": 0.0, "name": "6d53558606acf44ec0fe95cb80392fda"}, {"type": "electric_scooter", "fusion_lon": 0.0, "bike_id": "6ca7f85f5b91797beacb89fc053b837f", "is_disabled": 0, "lat": 38.884378, "rental_uris": {"ios": "https://dc.lft.to/lastmile_qr_scan", "android": "https://dc.lft.to/lastmile_qr_scan"}, "is_reserved": 0, "lon": -77.01537883333333, "fusion_lat": 0.0, "name": "6ca7f85f5b91797beacb89fc053b837f"}, {"type": "electric_scooter", "fusion_lon": 0.0, "bike_id": "46910ea6d937e4c27ac9e1f29da327f3", "is_disabled": 0, "lat": 38.89223416666667, "rental_uris": {"ios": "https://dc.lft.to/lastmile_qr_scan", "android": "https://dc.lft.to/lastmile_qr_scan"}, "is_reserved": 0, "lon": -77.0433355, "fusion_lat": 0.0, "name": "46910ea6d937e4c27ac9e1f29da327f3"}, {"type": "electric_scooter", "fusion_lon": 0.0, "bike_id": "3e83452e975fa4984442cc25731a79e0", "is_disabled": 0, "lat": 38.91130616666667, "rental_uris": {"ios": "https://dc.lft.to/lastmile_qr_scan", "android": "https://dc.lft.to/lastmile_qr_scan"}, "is_reserved": 0, "lon": -77.02199233333333, "fusion_lat": 0.0, "name": "3e83452e975fa4984442cc25731a79e0"}, {"type": "electric_bike", "fusion_lon": 0.0, "bike_id": "6f66e36ff3f9410b3da787c6dc3c4dca", "is_disabled": 0, "lat": 38.8827035, "rental_uris": {"ios": "https://dc.lft.to/lastmile_qr_scan", "android": "https://dc.lft.to/lastmile_qr_scan"}, "is_reserved": 0, "lon": -77.22826583333334, "fusion_lat": 0.0, "name": "6f66e36ff3f9410b3da787c6dc3c4dca"}, {"type": "electric_scooter", "fusion_lon": 0.0, "bike_id": "10ca7477586402e7e401eece7e493622", "is_disabled": 0, "lat": 38.91749383333333, "rental_uris": {"ios": "https://dc.lft.to/lastmile_qr_scan", "android": "https://dc.lft.to/lastmile_qr_scan"}, "is_reserved": 0, "lon": -77.03654733333333, "fusion_lat": 0.0, "name": "10ca7477586402e7e401eece7e493622"}, {"type": "electric_scooter", "fusion_lon": 0.0, "bike_id": "8129ee6c8d3f6ebeb20717316be2573e", "is_disabled": 0, "lat": 38.894735, "rental_uris": {"ios": "https://dc.lft.to/lastmile_qr_scan", "android": "https://dc.lft.to/lastmile_qr_scan"}, "is_reserved": 0, "lon": -76.94959633333333, "fusion_lat": 0.0, "name": "8129ee6c8d3f6ebeb20717316be2573e"}, {"type": "electric_scooter", "fusion_lon": 0.0, "bike_id": "13a4ffea2f828f485fffb3029684d31b", "is_disabled": 0, "lat": 38.920747666666664, "rental_uris": {"ios": "https://dc.lft.to/lastmile_qr_scan", "android": "https://dc.lft.to/lastmile_qr_scan"}, "is_reserved": 0, "lon": -77.0250005, "fusion_lat": 0.0, "name": "13a4ffea2f828f485fffb3029684d31b"}, {"type": "electric_scooter", "fusion_lon": 0.0, "bike_id": "37e5da5631b0822201d53a64400b012b", "is_disabled": 0, "lat": 38.9046855, "rental_uris": {"ios": "https://dc.lft.to/lastmile_qr_scan", "android": "https://dc.lft.to/lastmile_qr_scan"}, "is_reserved": 0, "lon": -77.035494, "fusion_lat": 0.0, "name": "37e5da5631b0822201d53a64400b012b"}, {"type": "electric_scooter", "fusion_lon": 0.0, "bike_id": "5c0a9e6756ffaf9768395fdb28808677", "is_disabled": 0, "lat": 38.893002, "rental_uris": {"ios": "https://dc.lft.to/lastmile_qr_scan", "android": "https://dc.lft.to/lastmile_qr_scan"}, "is_reserved": 0, "lon": -77.02111233333333, "fusion_lat": 0.0, "name": "5c0a9e6756ffaf9768395fdb28808677"}, {"type": "electric_bike", "fusion_lon": 0.0, "bike_id": "f0ed01865bd012e8b460bad6ddf8720a", "is_disabled": 0, "lat": 39.08440016666667, "rental_uris": {"ios": "https://dc.lft.to/lastmile_qr_scan", "android": "https://dc.lft.to/lastmile_qr_scan"}, "is_reserved": 0, "lon": -76.9516165, "fusion_lat": 0.0, "name": "f0ed01865bd012e8b460bad6ddf8720a"}, {"type": "electric_scooter", "fusion_lon": 0.0, "bike_id": "0a1d8a1140d499aca6193b1e9948a80e", "is_disabled": 0, "lat": 38.9235625, "rental_uris": {"ios": "https://dc.lft.to/lastmile_qr_scan", "android": "https://dc.lft.to/lastmile_qr_scan"}, "is_reserved": 0, "lon": -77.03231083333333, "fusion_lat": 0.0, "name": "0a1d8a1140d499aca6193b1e9948a80e"}, {"type": "electric_scooter", "fusion_lon": 0.0, "bike_id": "503779b988efd7aec7761eefdc27e3dc", "is_disabled": 0, "lat": 38.9243955, "rental_uris": {"ios": "https://dc.lft.to/lastmile_qr_scan", "android": "https://dc.lft.to/lastmile_qr_scan"}, "is_reserved": 0, "lon": -77.0333055, "fusion_lat": 0.0, "name": "503779b988efd7aec7761eefdc27e3dc"}, {"type": "electric_scooter", "fusion_lon": 0.0, "bike_id": "82243036a470b6dccd45f8f0ae744d4c", "is_disabled": 0, "lat": 38.8665995, "rental_uris": {"ios": "https://dc.lft.to/lastmile_qr_scan", "android": "https://dc.lft.to/lastmile_qr_scan"}, "is_reserved": 0, "lon": -76.98885166666666, "fusion_lat": 0.0, "name": "82243036a470b6dccd45f8f0ae744d4c"}, {"type": "electric_scooter", "fusion_lon": 0.0, "bike_id": "16e557484d31fac3b99a921a0b8ec17a", "is_disabled": 0, "lat": 38.88391883333333, "rental_uris": {"ios": "https://dc.lft.to/lastmile_qr_scan", "android": "https://dc.lft.to/lastmile_qr_scan"}, "is_reserved": 0, "lon": -76.93039833333333, "fusion_lat": 0.0, "name": "16e557484d31fac3b99a921a0b8ec17a"}, {"type": "electric_scooter", "fusion_lon": 0.0, "bike_id": "192b33bae676301dfadb22a8665d9e47", "is_disabled": 0, "lat": 38.956303166666665, "rental_uris": {"ios": "https://dc.lft.to/lastmile_qr_scan", "android": "https://dc.lft.to/lastmile_qr_scan"}, "is_reserved": 0, "lon": -77.022176, "fusion_lat": 0.0, "name": "192b33bae676301dfadb22a8665d9e47"}, {"type": "electric_scooter", "fusion_lon": 0.0, "bike_id": "1308eaac67469fcce4473fdf44cdb53f", "is_disabled": 0, "lat": 38.905788333333334, "rental_uris": {"ios": "https://dc.lft.to/lastmile_qr_scan", "android": "https://dc.lft.to/lastmile_qr_scan"}, "is_reserved": 0, "lon": -77.04691816666667, "fusion_lat": 0.0, "name": "1308eaac67469fcce4473fdf44cdb53f"}, {"type": "electric_scooter", "fusion_lon": 0.0, "bike_id": "1a4defb68a6862cdbe280af375c2b1f4", "is_disabled": 0, "lat": 38.89997283333334, "rental_uris": {"ios": "https://dc.lft.to/lastmile_qr_scan", "android": "https://dc.lft.to/lastmile_qr_scan"}, "is_reserved": 0, "lon": -76.99499883333333, "fusion_lat": 0.0, "name": "1a4defb68a6862cdbe280af375c2b1f4"}, {"type": "electric_scooter", "fusion_lon": 0.0, "bike_id": "0c9c7aca21599fd42a36fda864a387e1", "is_disabled": 0, "lat": 38.90996066666666, "rental_uris": {"ios": "https://dc.lft.to/lastmile_qr_scan", "android": "https://dc.lft.to/lastmile_qr_scan"}, "is_reserved": 0, "lon": -76.994552, "fusion_lat": 0.0, "name": "0c9c7aca21599fd42a36fda864a387e1"}, {"type": "electric_scooter", "fusion_lon": 0.0, "bike_id": "b34c4a928360541d41dc24f3830020ef", "is_disabled": 0, "lat": 38.880715, "rental_uris": {"ios": "https://dc.lft.to/lastmile_qr_scan", "android": "https://dc.lft.to/lastmile_qr_scan"}, "is_reserved": 0, "lon": -76.99029566666667, "fusion_lat": 0.0, "name": "b34c4a928360541d41dc24f3830020ef"}, {"type": "electric_scooter", "fusion_lon": 0.0, "bike_id": "1bf3cc7660710c4dc696f3635937b81c", "is_disabled": 0, "lat": 38.9420085, "rental_uris": {"ios": "https://dc.lft.to/lastmile_qr_scan", "android": "https://dc.lft.to/lastmile_qr_scan"}, "is_reserved": 0, "lon": -77.02439533333333, "fusion_lat": 0.0, "name": "1bf3cc7660710c4dc696f3635937b81c"}, {"type": "electric_scooter", "fusion_lon": 0.0, "bike_id": "eb11b89bf0ba8befabff77960101eac1", "is_disabled": 0, "lat": 38.91891566666666, "rental_uris": {"ios": "https://dc.lft.to/lastmile_qr_scan", "android": "https://dc.lft.to/lastmile_qr_scan"}, "is_reserved": 0, "lon": -77.02466266666667, "fusion_lat": 0.0, "name": "eb11b89bf0ba8befabff77960101eac1"}, {"type": "electric_scooter", "fusion_lon": 0.0, "bike_id": "534604ec8fad0f740fcdbe7c0219d7ae", "is_disabled": 0, "lat": 38.91046883333333, "rental_uris": {"ios": "https://dc.lft.to/lastmile_qr_scan", "android": "https://dc.lft.to/lastmile_qr_scan"}, "is_reserved": 0, "lon": -77.019927, "fusion_lat": 0.0, "name": "534604ec8fad0f740fcdbe7c0219d7ae"}, {"type": "electric_scooter", "fusion_lon": 0.0, "bike_id": "6b6c8ca46463fa2638acfaaa4087cd87", "is_disabled": 0, "lat": 38.901525166666666, "rental_uris": {"ios": "https://dc.lft.to/lastmile_qr_scan", "android": "https://dc.lft.to/lastmile_qr_scan"}, "is_reserved": 0, "lon": -77.0402185, "fusion_lat": 0.0, "name": "6b6c8ca46463fa2638acfaaa4087cd87"}, {"type": "electric_scooter", "fusion_lon": 0.0, "bike_id": "5d19914c5faf608b13450b3d9d8fa183", "is_disabled": 0, "lat": 38.907673833333334, "rental_uris": {"ios": "https://dc.lft.to/lastmile_qr_scan", "android": "https://dc.lft.to/lastmile_qr_scan"}, "is_reserved": 0, "lon": -77.0229975, "fusion_lat": 0.0, "name": "5d19914c5faf608b13450b3d9d8fa183"}, {"type": "electric_scooter", "fusion_lon": 0.0, "bike_id": "b293ff2c2141aa0f175438511db18e31", "is_disabled": 0, "lat": 38.91195966666667, "rental_uris": {"ios": "https://dc.lft.to/lastmile_qr_scan", "android": "https://dc.lft.to/lastmile_qr_scan"}, "is_reserved": 0, "lon": -77.01076833333333, "fusion_lat": 0.0, "name": "b293ff2c2141aa0f175438511db18e31"}, {"type": "electric_scooter", "fusion_lon": 0.0, "bike_id": "76eb5f976e4f6e9ff00ba129ab9220b1", "is_disabled": 0, "lat": 38.91770616666667, "rental_uris": {"ios": "https://dc.lft.to/lastmile_qr_scan", "android": "https://dc.lft.to/lastmile_qr_scan"}, "is_reserved": 0, "lon": -77.02334533333334, "fusion_lat": 0.0, "name": "76eb5f976e4f6e9ff00ba129ab9220b1"}, {"type": "electric_scooter", "fusion_lon": 0.0, "bike_id": "24a5492aea18a01a2a732804e6aa7550", "is_disabled": 0, "lat": 38.9110745, "rental_uris": {"ios": "https://dc.lft.to/lastmile_qr_scan", "android": "https://dc.lft.to/lastmile_qr_scan"}, "is_reserved": 0, "lon": -77.04472833333334, "fusion_lat": 0.0, "name": "24a5492aea18a01a2a732804e6aa7550"}, {"type": "electric_scooter", "fusion_lon": 0.0, "bike_id": "74fd20daadeb955c08f6d2028146ea51", "is_disabled": 0, "lat": 38.876744333333335, "rental_uris": {"ios": "https://dc.lft.to/lastmile_qr_scan", "android": "https://dc.lft.to/lastmile_qr_scan"}, "is_reserved": 0, "lon": -77.00934383333333, "fusion_lat": 0.0, "name": "74fd20daadeb955c08f6d2028146ea51"}, {"type": "electric_scooter", "fusion_lon": 0.0, "bike_id": "9dd7002ee6fefc7bab8cfea8c8124f69", "is_disabled": 0, "lat": 38.902756333333336, "rental_uris": {"ios": "https://dc.lft.to/lastmile_qr_scan", "android": "https://dc.lft.to/lastmile_qr_scan"}, "is_reserved": 0, "lon": -77.04588, "fusion_lat": 0.0, "name": "9dd7002ee6fefc7bab8cfea8c8124f69"}, {"type": "electric_scooter", "fusion_lon": 0.0, "bike_id": "c08ba869515259aa63243c2ed4a4b628", "is_disabled": 0, "lat": 38.91718, "rental_uris": {"ios": "https://dc.lft.to/lastmile_qr_scan", "android": "https://dc.lft.to/lastmile_qr_scan"}, "is_reserved": 0, "lon": -77.02404116666666, "fusion_lat": 0.0, "name": "c08ba869515259aa63243c2ed4a4b628"}, {"type": "electric_bike", "fusion_lon": 0.0, "bike_id": "a8ddd8037baaca6525a5c1514442f0b7", "is_disabled": 0, "lat": 38.91043533333333, "rental_uris": {"ios": "https://dc.lft.to/lastmile_qr_scan", "android": "https://dc.lft.to/lastmile_qr_scan"}, "is_reserved": 0, "lon": -77.07551983333333, "fusion_lat": 0.0, "name": "a8ddd8037baaca6525a5c1514442f0b7"}, {"type": "electric_bike", "fusion_lon": 0.0, "bike_id": "4a649f093ab729d20ea59139080335f2", "is_disabled": 0, "lat": 38.862323833333335, "rental_uris": {"ios": "https://dc.lft.to/lastmile_qr_scan", "android": "https://dc.lft.to/lastmile_qr_scan"}, "is_reserved": 0, "lon": -76.99584266666666, "fusion_lat": 0.0, "name": "4a649f093ab729d20ea59139080335f2"}, {"type": "electric_scooter", "fusion_lon": 0.0, "bike_id": "c409d7d33cb9d46f687c2af02da93b4d", "is_disabled": 0, "lat": 38.90045116666667, "rental_uris": {"ios": "https://dc.lft.to/lastmile_qr_scan", "android": "https://dc.lft.to/lastmile_qr_scan"}, "is_reserved": 0, "lon": -77.0242075, "fusion_lat": 0.0, "name": "c409d7d33cb9d46f687c2af02da93b4d"}, {"type": "electric_scooter", "fusion_lon": 0.0, "bike_id": "f31c413672163b74a9ec705d785ff1cb", "is_disabled": 0, "lat": 38.9085265, "rental_uris": {"ios": "https://dc.lft.to/lastmile_qr_scan", "android": "https://dc.lft.to/lastmile_qr_scan"}, "is_reserved": 0, "lon": -76.99689683333334, "fusion_lat": 0.0, "name": "f31c413672163b74a9ec705d785ff1cb"}, {"type": "electric_scooter", "fusion_lon": 0.0, "bike_id": "286949600b3b9c4126046424b26c1147", "is_disabled": 0, "lat": 38.9057715, "rental_uris": {"ios": "https://dc.lft.to/lastmile_qr_scan", "android": "https://dc.lft.to/lastmile_qr_scan"}, "is_reserved": 0, "lon": -77.04607566666667, "fusion_lat": 0.0, "name": "286949600b3b9c4126046424b26c1147"}, {"type": "electric_scooter", "fusion_lon": 0.0, "bike_id": "9ebed8c414c46f7a6d5b443b68b28d65", "is_disabled": 0, "lat": 38.877853, "rental_uris": {"ios": "https://dc.lft.to/lastmile_qr_scan", "android": "https://dc.lft.to/lastmile_qr_scan"}, "is_reserved": 0, "lon": -76.99415633333334, "fusion_lat": 0.0, "name": "9ebed8c414c46f7a6d5b443b68b28d65"}, {"type": "electric_scooter", "fusion_lon": 0.0, "bike_id": "6f4d8d894a99abf3a64ac6eae3b65aed", "is_disabled": 0, "lat": 38.883474666666665, "rental_uris": {"ios": "https://dc.lft.to/lastmile_qr_scan", "android": "https://dc.lft.to/lastmile_qr_scan"}, "is_reserved": 0, "lon": -76.99507916666667, "fusion_lat": 0.0, "name": "6f4d8d894a99abf3a64ac6eae3b65aed"}, {"type": "electric_bike", "fusion_lon": 0.0, "bike_id": "6b6c581600d975510413a4e53a33f544", "is_disabled": 0, "lat": 38.9221315, "rental_uris": {"ios": "https://dc.lft.to/lastmile_qr_scan", "android": "https://dc.lft.to/lastmile_qr_scan"}, "is_reserved": 0, "lon": -77.08184816666666, "fusion_lat": 0.0, "name": "6b6c581600d975510413a4e53a33f544"}, {"type": "electric_scooter", "fusion_lon": 0.0, "bike_id": "78ee9cab87f4682e6fab7aeb13d0d71c", "is_disabled": 0, "lat": 38.8955725, "rental_uris": {"ios": "https://dc.lft.to/lastmile_qr_scan", "android": "https://dc.lft.to/lastmile_qr_scan"}, "is_reserved": 0, "lon": -77.04675283333333, "fusion_lat": 0.0, "name": "78ee9cab87f4682e6fab7aeb13d0d71c"}, {"type": "electric_scooter", "fusion_lon": 0.0, "bike_id": "1521b1e53ffcf676a9352d9fcd12c42e", "is_disabled": 0, "lat": 38.908497, "rental_uris": {"ios": "https://dc.lft.to/lastmile_qr_scan", "android": "https://dc.lft.to/lastmile_qr_scan"}, "is_reserved": 0, "lon": -77.034571, "fusion_lat": 0.0, "name": "1521b1e53ffcf676a9352d9fcd12c42e"}, {"type": "electric_scooter", "fusion_lon": 0.0, "bike_id": "547bf4191ea06819e70ef216d06c09be", "is_disabled": 0, "lat": 38.924627666666666, "rental_uris": {"ios": "https://dc.lft.to/lastmile_qr_scan", "android": "https://dc.lft.to/lastmile_qr_scan"}, "is_reserved": 0, "lon": -77.03638383333333, "fusion_lat": 0.0, "name": "547bf4191ea06819e70ef216d06c09be"}, {"type": "electric_scooter", "fusion_lon": 0.0, "bike_id": "3d9de0bba95ff6ad37a40e59936d4a6a", "is_disabled": 0, "lat": 38.90798816666667, "rental_uris": {"ios": "https://dc.lft.to/lastmile_qr_scan", "android": "https://dc.lft.to/lastmile_qr_scan"}, "is_reserved": 0, "lon": -77.038166, "fusion_lat": 0.0, "name": "3d9de0bba95ff6ad37a40e59936d4a6a"}, {"type": "electric_scooter", "fusion_lon": 0.0, "bike_id": "a381f74db38d35b38911c5b92a785de2", "is_disabled": 0, "lat": 38.88494333333333, "rental_uris": {"ios": "https://dc.lft.to/lastmile_qr_scan", "android": "https://dc.lft.to/lastmile_qr_scan"}, "is_reserved": 0, "lon": -77.00725016666667, "fusion_lat": 0.0, "name": "a381f74db38d35b38911c5b92a785de2"}, {"type": "electric_bike", "fusion_lon": 0.0, "bike_id": "bd2fd50999fd568e13a0be3358ae32b7", "is_disabled": 0, "lat": 38.85620083333333, "rental_uris": {"ios": "https://dc.lft.to/lastmile_qr_scan", "android": "https://dc.lft.to/lastmile_qr_scan"}, "is_reserved": 0, "lon": -76.9615095, "fusion_lat": 0.0, "name": "bd2fd50999fd568e13a0be3358ae32b7"}, {"type": "electric_scooter", "fusion_lon": 0.0, "bike_id": "72379189487485ee5338de94e7ac5b3d", "is_disabled": 0, "lat": 38.917516166666665, "rental_uris": {"ios": "https://dc.lft.to/lastmile_qr_scan", "android": "https://dc.lft.to/lastmile_qr_scan"}, "is_reserved": 0, "lon": -77.03658033333333, "fusion_lat": 0.0, "name": "72379189487485ee5338de94e7ac5b3d"}, {"type": "electric_scooter", "fusion_lon": 0.0, "bike_id": "4d8dc15c482d9c54b235d4b3ed2e58b0", "is_disabled": 0, "lat": 38.915680333333334, "rental_uris": {"ios": "https://dc.lft.to/lastmile_qr_scan", "android": "https://dc.lft.to/lastmile_qr_scan"}, "is_reserved": 0, "lon": -77.04172916666667, "fusion_lat": 0.0, "name": "4d8dc15c482d9c54b235d4b3ed2e58b0"}, {"type": "electric_scooter", "fusion_lon": 0.0, "bike_id": "6b5bc0cde5498f36d4a5bb7d4f21c7c5", "is_disabled": 0, "lat": 38.9002045, "rental_uris": {"ios": "https://dc.lft.to/lastmile_qr_scan", "android": "https://dc.lft.to/lastmile_qr_scan"}, "is_reserved": 0, "lon": -77.039848, "fusion_lat": 0.0, "name": "6b5bc0cde5498f36d4a5bb7d4f21c7c5"}, {"type": "electric_scooter", "fusion_lon": 0.0, "bike_id": "608fa91498e586d04d98d749234a4c23", "is_disabled": 0, "lat": 38.8621665, "rental_uris": {"ios": "https://dc.lft.to/lastmile_qr_scan", "android": "https://dc.lft.to/lastmile_qr_scan"}, "is_reserved": 0, "lon": -76.99475533333333, "fusion_lat": 0.0, "name": "608fa91498e586d04d98d749234a4c23"}, {"type": "electric_scooter", "fusion_lon": 0.0, "bike_id": "89c91780ed58cca65f10fe24b7043afa", "is_disabled": 0, "lat": 38.941809666666664, "rental_uris": {"ios": "https://dc.lft.to/lastmile_qr_scan", "android": "https://dc.lft.to/lastmile_qr_scan"}, "is_reserved": 0, "lon": -76.9943465, "fusion_lat": 0.0, "name": "89c91780ed58cca65f10fe24b7043afa"}, {"type": "electric_scooter", "fusion_lon": 0.0, "bike_id": "e4ed576e3539d02b630c6b91f52e00fa", "is_disabled": 0, "lat": 38.924916833333334, "rental_uris": {"ios": "https://dc.lft.to/lastmile_qr_scan", "android": "https://dc.lft.to/lastmile_qr_scan"}, "is_reserved": 0, "lon": -77.03176933333333, "fusion_lat": 0.0, "name": "e4ed576e3539d02b630c6b91f52e00fa"}, {"type": "electric_scooter", "fusion_lon": 0.0, "bike_id": "e24a57f091b1703b5c0e300aae1e7285", "is_disabled": 0, "lat": 38.89502533333334, "rental_uris": {"ios": "https://dc.lft.to/lastmile_qr_scan", "android": "https://dc.lft.to/lastmile_qr_scan"}, "is_reserved": 0, "lon": -77.02319266666667, "fusion_lat": 0.0, "name": "e24a57f091b1703b5c0e300aae1e7285"}, {"type": "electric_scooter", "fusion_lon": 0.0, "bike_id": "567cb3ef3cc5f8a56833329caf90e137", "is_disabled": 0, "lat": 38.89222433333333, "rental_uris": {"ios": "https://dc.lft.to/lastmile_qr_scan", "android": "https://dc.lft.to/lastmile_qr_scan"}, "is_reserved": 0, "lon": -77.04334583333333, "fusion_lat": 0.0, "name": "567cb3ef3cc5f8a56833329caf90e137"}, {"type": "electric_scooter", "fusion_lon": 0.0, "bike_id": "5ea0b7170368298817c380bc49d8facf", "is_disabled": 0, "lat": 38.92352, "rental_uris": {"ios": "https://dc.lft.to/lastmile_qr_scan", "android": "https://dc.lft.to/lastmile_qr_scan"}, "is_reserved": 0, "lon": -77.03640283333333, "fusion_lat": 0.0, "name": "5ea0b7170368298817c380bc49d8facf"}, {"type": "electric_scooter", "fusion_lon": 0.0, "bike_id": "4111905d655b75429a25d7eb0de080d9", "is_disabled": 0, "lat": 38.8870495, "rental_uris": {"ios": "https://dc.lft.to/lastmile_qr_scan", "android": "https://dc.lft.to/lastmile_qr_scan"}, "is_reserved": 0, "lon": -77.02820716666666, "fusion_lat": 0.0, "name": "4111905d655b75429a25d7eb0de080d9"}, {"type": "electric_scooter", "fusion_lon": 0.0, "bike_id": "5a6f5fa0d96a30c4653e9f3756e1424d", "is_disabled": 0, "lat": 38.89915516666667, "rental_uris": {"ios": "https://dc.lft.to/lastmile_qr_scan", "android": "https://dc.lft.to/lastmile_qr_scan"}, "is_reserved": 0, "lon": -77.03306066666667, "fusion_lat": 0.0, "name": "5a6f5fa0d96a30c4653e9f3756e1424d"}, {"type": "electric_scooter", "fusion_lon": 0.0, "bike_id": "4a6b4111b958c15923b6d5142742abf2", "is_disabled": 0, "lat": 38.92160716666667, "rental_uris": {"ios": "https://dc.lft.to/lastmile_qr_scan", "android": "https://dc.lft.to/lastmile_qr_scan"}, "is_reserved": 0, "lon": -77.03374483333333, "fusion_lat": 0.0, "name": "4a6b4111b958c15923b6d5142742abf2"}, {"type": "electric_scooter", "fusion_lon": 0.0, "bike_id": "c005679b067c0c2246152d66539b4cdd", "is_disabled": 0, "lat": 38.960854166666664, "rental_uris": {"ios": "https://dc.lft.to/lastmile_qr_scan", "android": "https://dc.lft.to/lastmile_qr_scan"}, "is_reserved": 0, "lon": -77.02882716666667, "fusion_lat": 0.0, "name": "c005679b067c0c2246152d66539b4cdd"}, {"type": "electric_scooter", "fusion_lon": 0.0, "bike_id": "6b631b76f3d94a348780fd1f40ecf316", "is_disabled": 0, "lat": 38.9156415, "rental_uris": {"ios": "https://dc.lft.to/lastmile_qr_scan", "android": "https://dc.lft.to/lastmile_qr_scan"}, "is_reserved": 0, "lon": -77.02001966666667, "fusion_lat": 0.0, "name": "6b631b76f3d94a348780fd1f40ecf316"}, {"type": "electric_scooter", "fusion_lon": 0.0, "bike_id": "dfe316abadc3d2dfe5e111e468da483c", "is_disabled": 0, "lat": 38.91389516666667, "rental_uris": {"ios": "https://dc.lft.to/lastmile_qr_scan", "android": "https://dc.lft.to/lastmile_qr_scan"}, "is_reserved": 0, "lon": -77.029519, "fusion_lat": 0.0, "name": "dfe316abadc3d2dfe5e111e468da483c"}, {"type": "electric_scooter", "fusion_lon": 0.0, "bike_id": "cc4f12d6ba62d479e068d4e871ed45bc", "is_disabled": 0, "lat": 38.908418, "rental_uris": {"ios": "https://dc.lft.to/lastmile_qr_scan", "android": "https://dc.lft.to/lastmile_qr_scan"}, "is_reserved": 0, "lon": -77.0434305, "fusion_lat": 0.0, "name": "cc4f12d6ba62d479e068d4e871ed45bc"}, {"type": "electric_bike", "fusion_lon": 0.0, "bike_id": "077b17b6e0df1c7cb2605895cc3306fe", "is_disabled": 0, "lat": 38.89621316666667, "rental_uris": {"ios": "https://dc.lft.to/lastmile_qr_scan", "android": "https://dc.lft.to/lastmile_qr_scan"}, "is_reserved": 0, "lon": -76.90738566666667, "fusion_lat": 0.0, "name": "077b17b6e0df1c7cb2605895cc3306fe"}, {"type": "electric_scooter", "fusion_lon": 0.0, "bike_id": "6063f72f66b82699fa7cc5fd30d37f1d", "is_disabled": 0, "lat": 38.92065066666667, "rental_uris": {"ios": "https://dc.lft.to/lastmile_qr_scan", "android": "https://dc.lft.to/lastmile_qr_scan"}, "is_reserved": 0, "lon": -77.032418, "fusion_lat": 0.0, "name": "6063f72f66b82699fa7cc5fd30d37f1d"}, {"type": "electric_scooter", "fusion_lon": 0.0, "bike_id": "b6697f018b57e5ce51cd9c412d642e0a", "is_disabled": 0, "lat": 38.934303166666666, "rental_uris": {"ios": "https://dc.lft.to/lastmile_qr_scan", "android": "https://dc.lft.to/lastmile_qr_scan"}, "is_reserved": 0, "lon": -77.04002133333333, "fusion_lat": 0.0, "name": "b6697f018b57e5ce51cd9c412d642e0a"}, {"type": "electric_scooter", "fusion_lon": 0.0, "bike_id": "d0c4d0b5ab76e2e74f81325adb5946c1", "is_disabled": 0, "lat": 38.92971, "rental_uris": {"ios": "https://dc.lft.to/lastmile_qr_scan", "android": "https://dc.lft.to/lastmile_qr_scan"}, "is_reserved": 0, "lon": -77.0294555, "fusion_lat": 0.0, "name": "d0c4d0b5ab76e2e74f81325adb5946c1"}, {"type": "electric_scooter", "fusion_lon": 0.0, "bike_id": "a782c0b718da609d8cb44f3963f3ab66", "is_disabled": 0, "lat": 38.86662183333333, "rental_uris": {"ios": "https://dc.lft.to/lastmile_qr_scan", "android": "https://dc.lft.to/lastmile_qr_scan"}, "is_reserved": 0, "lon": -76.988837, "fusion_lat": 0.0, "name": "a782c0b718da609d8cb44f3963f3ab66"}, {"type": "electric_bike", "fusion_lon": 0.0, "bike_id": "a216e248b600b776cbe57d1684089853", "is_disabled": 0, "lat": 39.0029, "rental_uris": {"ios": "https://dc.lft.to/lastmile_qr_scan", "android": "https://dc.lft.to/lastmile_qr_scan"}, "is_reserved": 0, "lon": -76.90297433333333, "fusion_lat": 0.0, "name": "a216e248b600b776cbe57d1684089853"}, {"type": "electric_scooter", "fusion_lon": 0.0, "bike_id": "ac01ea123c0fe6013e77e836582aa2af", "is_disabled": 0, "lat": 38.917509833333334, "rental_uris": {"ios": "https://dc.lft.to/lastmile_qr_scan", "android": "https://dc.lft.to/lastmile_qr_scan"}, "is_reserved": 0, "lon": -77.03659866666666, "fusion_lat": 0.0, "name": "ac01ea123c0fe6013e77e836582aa2af"}, {"type": "electric_scooter", "fusion_lon": 0.0, "bike_id": "91df1aa3f342647d05a7f7be1ac19704", "is_disabled": 0, "lat": 38.93830333333333, "rental_uris": {"ios": "https://dc.lft.to/lastmile_qr_scan", "android": "https://dc.lft.to/lastmile_qr_scan"}, "is_reserved": 0, "lon": -77.0617215, "fusion_lat": 0.0, "name": "91df1aa3f342647d05a7f7be1ac19704"}, {"type": "electric_scooter", "fusion_lon": 0.0, "bike_id": "828709eb82b382d85f9b83b89269550e", "is_disabled": 0, "lat": 38.89909216666667, "rental_uris": {"ios": "https://dc.lft.to/lastmile_qr_scan", "android": "https://dc.lft.to/lastmile_qr_scan"}, "is_reserved": 0, "lon": -76.933826, "fusion_lat": 0.0, "name": "828709eb82b382d85f9b83b89269550e"}, {"type": "electric_bike", "fusion_lon": 0.0, "bike_id": "54e0a19f61aebeb76698b0e81079f7a5", "is_disabled": 0, "lat": 38.94413183333333, "rental_uris": {"ios": "https://dc.lft.to/lastmile_qr_scan", "android": "https://dc.lft.to/lastmile_qr_scan"}, "is_reserved": 0, "lon": -77.05519016666666, "fusion_lat": 0.0, "name": "54e0a19f61aebeb76698b0e81079f7a5"}, {"type": "electric_scooter", "fusion_lon": 0.0, "bike_id": "91173b8dd9f78a9ed1e608db22aa6585", "is_disabled": 0, "lat": 38.894239166666665, "rental_uris": {"ios": "https://dc.lft.to/lastmile_qr_scan", "android": "https://dc.lft.to/lastmile_qr_scan"}, "is_reserved": 0, "lon": -76.99955116666666, "fusion_lat": 0.0, "name": "91173b8dd9f78a9ed1e608db22aa6585"}, {"type": "electric_scooter", "fusion_lon": 0.0, "bike_id": "6f385b4a1990c4f2737e5f9b8ad96be9", "is_disabled": 0, "lat": 38.886041166666665, "rental_uris": {"ios": "https://dc.lft.to/lastmile_qr_scan", "android": "https://dc.lft.to/lastmile_qr_scan"}, "is_reserved": 0, "lon": -77.017951, "fusion_lat": 0.0, "name": "6f385b4a1990c4f2737e5f9b8ad96be9"}, {"type": "electric_scooter", "fusion_lon": 0.0, "bike_id": "226c0af494f02a3b7a1e23c244507d0b", "is_disabled": 0, "lat": 38.945128, "rental_uris": {"ios": "https://dc.lft.to/lastmile_qr_scan", "android": "https://dc.lft.to/lastmile_qr_scan"}, "is_reserved": 0, "lon": -77.0335855, "fusion_lat": 0.0, "name": "226c0af494f02a3b7a1e23c244507d0b"}, {"type": "electric_scooter", "fusion_lon": 0.0, "bike_id": "76891a7182af34fb6db733f9dcc01f6a", "is_disabled": 0, "lat": 38.90273833333333, "rental_uris": {"ios": "https://dc.lft.to/lastmile_qr_scan", "android": "https://dc.lft.to/lastmile_qr_scan"}, "is_reserved": 0, "lon": -77.046169, "fusion_lat": 0.0, "name": "76891a7182af34fb6db733f9dcc01f6a"}, {"type": "electric_scooter", "fusion_lon": 0.0, "bike_id": "f1b5bd224b9eeaf8adca2580d41bb7e7", "is_disabled": 0, "lat": 38.89734333333333, "rental_uris": {"ios": "https://dc.lft.to/lastmile_qr_scan", "android": "https://dc.lft.to/lastmile_qr_scan"}, "is_reserved": 0, "lon": -77.030058, "fusion_lat": 0.0, "name": "f1b5bd224b9eeaf8adca2580d41bb7e7"}, {"type": "electric_scooter", "fusion_lon": 0.0, "bike_id": "ef21b0c68159bea7d360ac4273e73122", "is_disabled": 0, "lat": 38.91835616666667, "rental_uris": {"ios": "https://dc.lft.to/lastmile_qr_scan", "android": "https://dc.lft.to/lastmile_qr_scan"}, "is_reserved": 0, "lon": -77.02300666666666, "fusion_lat": 0.0, "name": "ef21b0c68159bea7d360ac4273e73122"}, {"type": "electric_scooter", "fusion_lon": 0.0, "bike_id": "5508d7ae4314599fae0483d4aa84cb21", "is_disabled": 0, "lat": 38.917302666666664, "rental_uris": {"ios": "https://dc.lft.to/lastmile_qr_scan", "android": "https://dc.lft.to/lastmile_qr_scan"}, "is_reserved": 0, "lon": -77.04088983333334, "fusion_lat": 0.0, "name": "5508d7ae4314599fae0483d4aa84cb21"}, {"type": "electric_scooter", "fusion_lon": 0.0, "bike_id": "d3bbca315cb5ef2c403d0a3a1251911f", "is_disabled": 0, "lat": 38.90576333333333, "rental_uris": {"ios": "https://dc.lft.to/lastmile_qr_scan", "android": "https://dc.lft.to/lastmile_qr_scan"}, "is_reserved": 0, "lon": -77.00789016666667, "fusion_lat": 0.0, "name": "d3bbca315cb5ef2c403d0a3a1251911f"}, {"type": "electric_scooter", "fusion_lon": 0.0, "bike_id": "c834dac222045d46221109a8ae36ef93", "is_disabled": 0, "lat": 38.900141166666664, "rental_uris": {"ios": "https://dc.lft.to/lastmile_qr_scan", "android": "https://dc.lft.to/lastmile_qr_scan"}, "is_reserved": 0, "lon": -76.98895116666667, "fusion_lat": 0.0, "name": "c834dac222045d46221109a8ae36ef93"}, {"type": "electric_bike", "fusion_lon": 0.0, "bike_id": "ffc759b6d20238de44da9050784cd278", "is_disabled": 0, "lat": 38.897817333333336, "rental_uris": {"ios": "https://dc.lft.to/lastmile_qr_scan", "android": "https://dc.lft.to/lastmile_qr_scan"}, "is_reserved": 0, "lon": -77.013581, "fusion_lat": 0.0, "name": "ffc759b6d20238de44da9050784cd278"}, {"type": "electric_scooter", "fusion_lon": 0.0, "bike_id": "d464e13c0343a32618d475888fc4a4d5", "is_disabled": 0, "lat": 38.90364566666667, "rental_uris": {"ios": "https://dc.lft.to/lastmile_qr_scan", "android": "https://dc.lft.to/lastmile_qr_scan"}, "is_reserved": 0, "lon": -77.03458716666667, "fusion_lat": 0.0, "name": "d464e13c0343a32618d475888fc4a4d5"}, {"type": "electric_scooter", "fusion_lon": 0.0, "bike_id": "c6eabfd318fe18c35181f71d07c7349f", "is_disabled": 0, "lat": 38.9315855, "rental_uris": {"ios": "https://dc.lft.to/lastmile_qr_scan", "android": "https://dc.lft.to/lastmile_qr_scan"}, "is_reserved": 0, "lon": -77.0288045, "fusion_lat": 0.0, "name": "c6eabfd318fe18c35181f71d07c7349f"}, {"type": "electric_scooter", "fusion_lon": 0.0, "bike_id": "b9aad5f532ff1243c6050e39d23c2f5f", "is_disabled": 0, "lat": 38.89505783333333, "rental_uris": {"ios": "https://dc.lft.to/lastmile_qr_scan", "android": "https://dc.lft.to/lastmile_qr_scan"}, "is_reserved": 0, "lon": -76.93476616666666, "fusion_lat": 0.0, "name": "b9aad5f532ff1243c6050e39d23c2f5f"}, {"type": "electric_scooter", "fusion_lon": 0.0, "bike_id": "185bc9e46ca150b373cd98e46dd589e2", "is_disabled": 0, "lat": 38.916139666666666, "rental_uris": {"ios": "https://dc.lft.to/lastmile_qr_scan", "android": "https://dc.lft.to/lastmile_qr_scan"}, "is_reserved": 0, "lon": -77.0487605, "fusion_lat": 0.0, "name": "185bc9e46ca150b373cd98e46dd589e2"}, {"type": "electric_scooter", "fusion_lon": 0.0, "bike_id": "ea837435937ed06f9c4557fe9a8ec6b5", "is_disabled": 0, "lat": 38.8818465, "rental_uris": {"ios": "https://dc.lft.to/lastmile_qr_scan", "android": "https://dc.lft.to/lastmile_qr_scan"}, "is_reserved": 0, "lon": -77.02203966666667, "fusion_lat": 0.0, "name": "ea837435937ed06f9c4557fe9a8ec6b5"}, {"type": "electric_scooter", "fusion_lon": 0.0, "bike_id": "93b3728de753122ad170dcf07c74eccd", "is_disabled": 0, "lat": 38.933077833333336, "rental_uris": {"ios": "https://dc.lft.to/lastmile_qr_scan", "android": "https://dc.lft.to/lastmile_qr_scan"}, "is_reserved": 0, "lon": -77.03264716666666, "fusion_lat": 0.0, "name": "93b3728de753122ad170dcf07c74eccd"}, {"type": "electric_bike", "fusion_lon": 0.0, "bike_id": "b6bf175663d461860c5c2e430a8fbac9", "is_disabled": 0, "lat": 38.807387, "rental_uris": {"ios": "https://dc.lft.to/lastmile_qr_scan", "android": "https://dc.lft.to/lastmile_qr_scan"}, "is_reserved": 0, "lon": -77.0972465, "fusion_lat": 0.0, "name": "b6bf175663d461860c5c2e430a8fbac9"}, {"type": "electric_bike", "fusion_lon": 0.0, "bike_id": "bca92dc2c9dd1ba2021fccd9bbeae31d", "is_disabled": 0, "lat": 38.862629, "rental_uris": {"ios": "https://dc.lft.to/lastmile_qr_scan", "android": "https://dc.lft.to/lastmile_qr_scan"}, "is_reserved": 0, "lon": -76.98349333333333, "fusion_lat": 0.0, "name": "bca92dc2c9dd1ba2021fccd9bbeae31d"}, {"type": "electric_scooter", "fusion_lon": 0.0, "bike_id": "2db8b684ef20bd60e2fe7d0c52ccaeca", "is_disabled": 0, "lat": 38.9207305, "rental_uris": {"ios": "https://dc.lft.to/lastmile_qr_scan", "android": "https://dc.lft.to/lastmile_qr_scan"}, "is_reserved": 0, "lon": -76.9974, "fusion_lat": 0.0, "name": "2db8b684ef20bd60e2fe7d0c52ccaeca"}, {"type": "electric_scooter", "fusion_lon": 0.0, "bike_id": "61b54892a35490992b9e0d6d5ceae99b", "is_disabled": 0, "lat": 38.9286225, "rental_uris": {"ios": "https://dc.lft.to/lastmile_qr_scan", "android": "https://dc.lft.to/lastmile_qr_scan"}, "is_reserved": 0, "lon": -77.03098616666666, "fusion_lat": 0.0, "name": "61b54892a35490992b9e0d6d5ceae99b"}, {"type": "electric_scooter", "fusion_lon": 0.0, "bike_id": "667429684d315941796f24c2344027e2", "is_disabled": 0, "lat": 38.917212, "rental_uris": {"ios": "https://dc.lft.to/lastmile_qr_scan", "android": "https://dc.lft.to/lastmile_qr_scan"}, "is_reserved": 0, "lon": -77.04172666666666, "fusion_lat": 0.0, "name": "667429684d315941796f24c2344027e2"}, {"type": "electric_scooter", "fusion_lon": 0.0, "bike_id": "e61633cd95c49dc34f20604ec4de486b", "is_disabled": 0, "lat": 38.920677833333336, "rental_uris": {"ios": "https://dc.lft.to/lastmile_qr_scan", "android": "https://dc.lft.to/lastmile_qr_scan"}, "is_reserved": 0, "lon": -77.02496616666667, "fusion_lat": 0.0, "name": "e61633cd95c49dc34f20604ec4de486b"}, {"type": "electric_scooter", "fusion_lon": 0.0, "bike_id": "6b8d286ce8d9d2a9c1a57cc6fe6a118d", "is_disabled": 0, "lat": 38.9024415, "rental_uris": {"ios": "https://dc.lft.to/lastmile_qr_scan", "android": "https://dc.lft.to/lastmile_qr_scan"}, "is_reserved": 0, "lon": -77.04578716666667, "fusion_lat": 0.0, "name": "6b8d286ce8d9d2a9c1a57cc6fe6a118d"}, {"type": "electric_bike", "fusion_lon": 0.0, "bike_id": "3b88dde3c7a7d21314f598c9a3b27ca2", "is_disabled": 0, "lat": 38.863295666666666, "rental_uris": {"ios": "https://dc.lft.to/lastmile_qr_scan", "android": "https://dc.lft.to/lastmile_qr_scan"}, "is_reserved": 0, "lon": -76.98718966666667, "fusion_lat": 0.0, "name": "3b88dde3c7a7d21314f598c9a3b27ca2"}, {"type": "electric_scooter", "fusion_lon": 0.0, "bike_id": "615bb77298ac9eb63e61c0b4cd211349", "is_disabled": 0, "lat": 38.93854416666667, "rental_uris": {"ios": "https://dc.lft.to/lastmile_qr_scan", "android": "https://dc.lft.to/lastmile_qr_scan"}, "is_reserved": 0, "lon": -77.03388616666666, "fusion_lat": 0.0, "name": "615bb77298ac9eb63e61c0b4cd211349"}, {"type": "electric_scooter", "fusion_lon": 0.0, "bike_id": "67cd6e51559df9e6598cfb96d2e536b6", "is_disabled": 0, "lat": 38.90298933333333, "rental_uris": {"ios": "https://dc.lft.to/lastmile_qr_scan", "android": "https://dc.lft.to/lastmile_qr_scan"}, "is_reserved": 0, "lon": -77.02437166666667, "fusion_lat": 0.0, "name": "67cd6e51559df9e6598cfb96d2e536b6"}, {"type": "electric_scooter", "fusion_lon": 0.0, "bike_id": "996570f683983f7c82b4d994debe41ef", "is_disabled": 0, "lat": 38.9156675, "rental_uris": {"ios": "https://dc.lft.to/lastmile_qr_scan", "android": "https://dc.lft.to/lastmile_qr_scan"}, "is_reserved": 0, "lon": -77.04170316666666, "fusion_lat": 0.0, "name": "996570f683983f7c82b4d994debe41ef"}, {"type": "electric_scooter", "fusion_lon": 0.0, "bike_id": "759e2dc8d11ae538bed88211f940df16", "is_disabled": 0, "lat": 38.927968, "rental_uris": {"ios": "https://dc.lft.to/lastmile_qr_scan", "android": "https://dc.lft.to/lastmile_qr_scan"}, "is_reserved": 0, "lon": -77.02389533333333, "fusion_lat": 0.0, "name": "759e2dc8d11ae538bed88211f940df16"}, {"type": "electric_scooter", "fusion_lon": 0.0, "bike_id": "87d23b473c43f19e737324b2f20d7150", "is_disabled": 0, "lat": 38.90766416666666, "rental_uris": {"ios": "https://dc.lft.to/lastmile_qr_scan", "android": "https://dc.lft.to/lastmile_qr_scan"}, "is_reserved": 0, "lon": -77.00917433333333, "fusion_lat": 0.0, "name": "87d23b473c43f19e737324b2f20d7150"}, {"type": "electric_scooter", "fusion_lon": 0.0, "bike_id": "906d3123a0bfe477a48e2535056bf2a2", "is_disabled": 0, "lat": 38.89236266666666, "rental_uris": {"ios": "https://dc.lft.to/lastmile_qr_scan", "android": "https://dc.lft.to/lastmile_qr_scan"}, "is_reserved": 0, "lon": -77.04673183333334, "fusion_lat": 0.0, "name": "906d3123a0bfe477a48e2535056bf2a2"}, {"type": "electric_scooter", "fusion_lon": 0.0, "bike_id": "9b00c9b3d3b38cdc4e154eaf1e4e1405", "is_disabled": 0, "lat": 38.904359, "rental_uris": {"ios": "https://dc.lft.to/lastmile_qr_scan", "android": "https://dc.lft.to/lastmile_qr_scan"}, "is_reserved": 0, "lon": -77.02586183333334, "fusion_lat": 0.0, "name": "9b00c9b3d3b38cdc4e154eaf1e4e1405"}, {"type": "electric_scooter", "fusion_lon": 0.0, "bike_id": "5cb2ce1c7ea482f8b27f216588c49236", "is_disabled": 0, "lat": 38.88518, "rental_uris": {"ios": "https://dc.lft.to/lastmile_qr_scan", "android": "https://dc.lft.to/lastmile_qr_scan"}, "is_reserved": 0, "lon": -77.02823183333334, "fusion_lat": 0.0, "name": "5cb2ce1c7ea482f8b27f216588c49236"}, {"type": "electric_bike", "fusion_lon": 0.0, "bike_id": "5f95dc916a790406f67c831a37d974e7", "is_disabled": 0, "lat": 38.84684466666667, "rental_uris": {"ios": "https://dc.lft.to/lastmile_qr_scan", "android": "https://dc.lft.to/lastmile_qr_scan"}, "is_reserved": 0, "lon": -76.982794, "fusion_lat": 0.0, "name": "5f95dc916a790406f67c831a37d974e7"}, {"type": "electric_scooter", "fusion_lon": 0.0, "bike_id": "a2569928de77c849c86c87a6a0996727", "is_disabled": 0, "lat": 38.8934735, "rental_uris": {"ios": "https://dc.lft.to/lastmile_qr_scan", "android": "https://dc.lft.to/lastmile_qr_scan"}, "is_reserved": 0, "lon": -76.9522975, "fusion_lat": 0.0, "name": "a2569928de77c849c86c87a6a0996727"}, {"type": "electric_scooter", "fusion_lon": 0.0, "bike_id": "b602c53cd1f114ec3a83b9ec44d0793e", "is_disabled": 0, "lat": 38.8973485, "rental_uris": {"ios": "https://dc.lft.to/lastmile_qr_scan", "android": "https://dc.lft.to/lastmile_qr_scan"}, "is_reserved": 0, "lon": -77.0190755, "fusion_lat": 0.0, "name": "b602c53cd1f114ec3a83b9ec44d0793e"}, {"type": "electric_bike", "fusion_lon": 0.0, "bike_id": "d9597d1ba3d74d4e56f84a41fe18bc37", "is_disabled": 0, "lat": 38.9357185, "rental_uris": {"ios": "https://dc.lft.to/lastmile_qr_scan", "android": "https://dc.lft.to/lastmile_qr_scan"}, "is_reserved": 0, "lon": -77.10610383333334, "fusion_lat": 0.0, "name": "d9597d1ba3d74d4e56f84a41fe18bc37"}, {"type": "electric_scooter", "fusion_lon": 0.0, "bike_id": "eca3e77625fee477f77340eba9c8d103", "is_disabled": 0, "lat": 38.904502666666666, "rental_uris": {"ios": "https://dc.lft.to/lastmile_qr_scan", "android": "https://dc.lft.to/lastmile_qr_scan"}, "is_reserved": 0, "lon": -77.05801033333333, "fusion_lat": 0.0, "name": "eca3e77625fee477f77340eba9c8d103"}, {"type": "electric_scooter", "fusion_lon": 0.0, "bike_id": "bc824736558a1080ebdaa420271918f5", "is_disabled": 0, "lat": 38.912674, "rental_uris": {"ios": "https://dc.lft.to/lastmile_qr_scan", "android": "https://dc.lft.to/lastmile_qr_scan"}, "is_reserved": 0, "lon": -77.04160016666667, "fusion_lat": 0.0, "name": "bc824736558a1080ebdaa420271918f5"}, {"type": "electric_scooter", "fusion_lon": 0.0, "bike_id": "58b694dcd8d90ee02b752348d71e6edf", "is_disabled": 0, "lat": 38.972141666666666, "rental_uris": {"ios": "https://dc.lft.to/lastmile_qr_scan", "android": "https://dc.lft.to/lastmile_qr_scan"}, "is_reserved": 0, "lon": -77.03338166666667, "fusion_lat": 0.0, "name": "58b694dcd8d90ee02b752348d71e6edf"}, {"type": "electric_scooter", "fusion_lon": 0.0, "bike_id": "1e67bc1e996322d2183f2a6dbf6650a6", "is_disabled": 0, "lat": 38.908136999999996, "rental_uris": {"ios": "https://dc.lft.to/lastmile_qr_scan", "android": "https://dc.lft.to/lastmile_qr_scan"}, "is_reserved": 0, "lon": -77.03350333333333, "fusion_lat": 0.0, "name": "1e67bc1e996322d2183f2a6dbf6650a6"}, {"type": "electric_scooter", "fusion_lon": 0.0, "bike_id": "9648f38403899b470dd8d452b942d2d8", "is_disabled": 0, "lat": 38.91824233333333, "rental_uris": {"ios": "https://dc.lft.to/lastmile_qr_scan", "android": "https://dc.lft.to/lastmile_qr_scan"}, "is_reserved": 0, "lon": -77.03262033333333, "fusion_lat": 0.0, "name": "9648f38403899b470dd8d452b942d2d8"}, {"type": "electric_scooter", "fusion_lon": 0.0, "bike_id": "936718a5c71399247b1fd4e6f761955a", "is_disabled": 0, "lat": 38.876638, "rental_uris": {"ios": "https://dc.lft.to/lastmile_qr_scan", "android": "https://dc.lft.to/lastmile_qr_scan"}, "is_reserved": 0, "lon": -76.99620833333333, "fusion_lat": 0.0, "name": "936718a5c71399247b1fd4e6f761955a"}, {"type": "electric_scooter", "fusion_lon": 0.0, "bike_id": "5c575141d5fdf09016a3bc60c7802f7d", "is_disabled": 0, "lat": 38.919537, "rental_uris": {"ios": "https://dc.lft.to/lastmile_qr_scan", "android": "https://dc.lft.to/lastmile_qr_scan"}, "is_reserved": 0, "lon": -77.01773716666666, "fusion_lat": 0.0, "name": "5c575141d5fdf09016a3bc60c7802f7d"}, {"type": "electric_bike", "fusion_lon": 0.0, "bike_id": "a8b9091ce926f800a6dc7767bcd14d0b", "is_disabled": 0, "lat": 38.88491616666667, "rental_uris": {"ios": "https://dc.lft.to/lastmile_qr_scan", "android": "https://dc.lft.to/lastmile_qr_scan"}, "is_reserved": 0, "lon": -76.9575875, "fusion_lat": 0.0, "name": "a8b9091ce926f800a6dc7767bcd14d0b"}, {"type": "electric_scooter", "fusion_lon": 0.0, "bike_id": "1c2e22b311adb81058d253fd56dfba32", "is_disabled": 0, "lat": 38.90140516666666, "rental_uris": {"ios": "https://dc.lft.to/lastmile_qr_scan", "android": "https://dc.lft.to/lastmile_qr_scan"}, "is_reserved": 0, "lon": -77.04430283333333, "fusion_lat": 0.0, "name": "1c2e22b311adb81058d253fd56dfba32"}, {"type": "electric_bike", "fusion_lon": 0.0, "bike_id": "ef067afd9a6e4df71b03b128140ca9a4", "is_disabled": 0, "lat": 39.01079416666666, "rental_uris": {"ios": "https://dc.lft.to/lastmile_qr_scan", "android": "https://dc.lft.to/lastmile_qr_scan"}, "is_reserved": 0, "lon": -76.91062433333333, "fusion_lat": 0.0, "name": "ef067afd9a6e4df71b03b128140ca9a4"}, {"type": "electric_scooter", "fusion_lon": 0.0, "bike_id": "823ff45e9faa9ad84bd1f71ab67888a5", "is_disabled": 0, "lat": 38.94233916666666, "rental_uris": {"ios": "https://dc.lft.to/lastmile_qr_scan", "android": "https://dc.lft.to/lastmile_qr_scan"}, "is_reserved": 0, "lon": -77.03867716666667, "fusion_lat": 0.0, "name": "823ff45e9faa9ad84bd1f71ab67888a5"}, {"type": "electric_bike", "fusion_lon": 0.0, "bike_id": "1c37d6dd4f0770ac6699244558c92f40", "is_disabled": 0, "lat": 38.92402716666667, "rental_uris": {"ios": "https://dc.lft.to/lastmile_qr_scan", "android": "https://dc.lft.to/lastmile_qr_scan"}, "is_reserved": 0, "lon": -77.02468383333333, "fusion_lat": 0.0, "name": "1c37d6dd4f0770ac6699244558c92f40"}, {"type": "electric_scooter", "fusion_lon": 0.0, "bike_id": "78ee967be8374a6404eedfc878b71bde", "is_disabled": 0, "lat": 38.92168083333333, "rental_uris": {"ios": "https://dc.lft.to/lastmile_qr_scan", "android": "https://dc.lft.to/lastmile_qr_scan"}, "is_reserved": 0, "lon": -77.04690766666667, "fusion_lat": 0.0, "name": "78ee967be8374a6404eedfc878b71bde"}, {"type": "electric_scooter", "fusion_lon": 0.0, "bike_id": "3babdbcecb48165220ecb182146c3654", "is_disabled": 0, "lat": 38.9239715, "rental_uris": {"ios": "https://dc.lft.to/lastmile_qr_scan", "android": "https://dc.lft.to/lastmile_qr_scan"}, "is_reserved": 0, "lon": -77.03399516666667, "fusion_lat": 0.0, "name": "3babdbcecb48165220ecb182146c3654"}, {"type": "electric_scooter", "fusion_lon": 0.0, "bike_id": "a0e1395ad6a091e797a27f8487c44fa1", "is_disabled": 0, "lat": 38.913507833333334, "rental_uris": {"ios": "https://dc.lft.to/lastmile_qr_scan", "android": "https://dc.lft.to/lastmile_qr_scan"}, "is_reserved": 0, "lon": -77.03206583333333, "fusion_lat": 0.0, "name": "a0e1395ad6a091e797a27f8487c44fa1"}, {"type": "electric_scooter", "fusion_lon": 0.0, "bike_id": "e577a9fda8cfe024d2bac8254ac3a151", "is_disabled": 0, "lat": 38.907424166666665, "rental_uris": {"ios": "https://dc.lft.to/lastmile_qr_scan", "android": "https://dc.lft.to/lastmile_qr_scan"}, "is_reserved": 0, "lon": -77.04334783333333, "fusion_lat": 0.0, "name": "e577a9fda8cfe024d2bac8254ac3a151"}, {"type": "electric_scooter", "fusion_lon": 0.0, "bike_id": "5d5122f27927f26fe61ca03ec79739be", "is_disabled": 0, "lat": 38.88715116666667, "rental_uris": {"ios": "https://dc.lft.to/lastmile_qr_scan", "android": "https://dc.lft.to/lastmile_qr_scan"}, "is_reserved": 0, "lon": -77.0220305, "fusion_lat": 0.0, "name": "5d5122f27927f26fe61ca03ec79739be"}, {"type": "electric_scooter", "fusion_lon": 0.0, "bike_id": "e8e81f5fb4492963ca25f25f33f7d2ee", "is_disabled": 0, "lat": 38.90273966666667, "rental_uris": {"ios": "https://dc.lft.to/lastmile_qr_scan", "android": "https://dc.lft.to/lastmile_qr_scan"}, "is_reserved": 0, "lon": -77.04535616666666, "fusion_lat": 0.0, "name": "e8e81f5fb4492963ca25f25f33f7d2ee"}, {"type": "electric_scooter", "fusion_lon": 0.0, "bike_id": "32cf527c806c201d9c2b70c1d3c7cda9", "is_disabled": 0, "lat": 38.900253166666666, "rental_uris": {"ios": "https://dc.lft.to/lastmile_qr_scan", "android": "https://dc.lft.to/lastmile_qr_scan"}, "is_reserved": 0, "lon": -76.99856333333334, "fusion_lat": 0.0, "name": "32cf527c806c201d9c2b70c1d3c7cda9"}, {"type": "electric_scooter", "fusion_lon": 0.0, "bike_id": "7d12dee269de1dad125fc36e010a16be", "is_disabled": 0, "lat": 38.89808716666667, "rental_uris": {"ios": "https://dc.lft.to/lastmile_qr_scan", "android": "https://dc.lft.to/lastmile_qr_scan"}, "is_reserved": 0, "lon": -77.04176216666667, "fusion_lat": 0.0, "name": "7d12dee269de1dad125fc36e010a16be"}, {"type": "electric_scooter", "fusion_lon": 0.0, "bike_id": "a8589ee0102f1efbc960b529bfd81d61", "is_disabled": 0, "lat": 38.925799166666664, "rental_uris": {"ios": "https://dc.lft.to/lastmile_qr_scan", "android": "https://dc.lft.to/lastmile_qr_scan"}, "is_reserved": 0, "lon": -77.03279216666667, "fusion_lat": 0.0, "name": "a8589ee0102f1efbc960b529bfd81d61"}, {"type": "electric_scooter", "fusion_lon": 0.0, "bike_id": "c57d9c5ef3826508ff1bf22bd45e99e1", "is_disabled": 0, "lat": 38.93308583333334, "rental_uris": {"ios": "https://dc.lft.to/lastmile_qr_scan", "android": "https://dc.lft.to/lastmile_qr_scan"}, "is_reserved": 0, "lon": -77.032685, "fusion_lat": 0.0, "name": "c57d9c5ef3826508ff1bf22bd45e99e1"}, {"type": "electric_scooter", "fusion_lon": 0.0, "bike_id": "872577e324d250a0d08214327f373d1d", "is_disabled": 0, "lat": 38.905175, "rental_uris": {"ios": "https://dc.lft.to/lastmile_qr_scan", "android": "https://dc.lft.to/lastmile_qr_scan"}, "is_reserved": 0, "lon": -77.04908166666667, "fusion_lat": 0.0, "name": "872577e324d250a0d08214327f373d1d"}, {"type": "electric_scooter", "fusion_lon": 0.0, "bike_id": "184dc6bda95db3bbe080535b0a8d4ced", "is_disabled": 0, "lat": 38.910560833333335, "rental_uris": {"ios": "https://dc.lft.to/lastmile_qr_scan", "android": "https://dc.lft.to/lastmile_qr_scan"}, "is_reserved": 0, "lon": -77.05019216666666, "fusion_lat": 0.0, "name": "184dc6bda95db3bbe080535b0a8d4ced"}, {"type": "electric_scooter", "fusion_lon": 0.0, "bike_id": "57544c0604a4ad72e1cc1e2ee765c10d", "is_disabled": 0, "lat": 38.91040516666666, "rental_uris": {"ios": "https://dc.lft.to/lastmile_qr_scan", "android": "https://dc.lft.to/lastmile_qr_scan"}, "is_reserved": 0, "lon": -76.98568916666666, "fusion_lat": 0.0, "name": "57544c0604a4ad72e1cc1e2ee765c10d"}, {"type": "electric_scooter", "fusion_lon": 0.0, "bike_id": "5e2abeeac34f8b095a50b39c618ee43a", "is_disabled": 0, "lat": 38.926139166666665, "rental_uris": {"ios": "https://dc.lft.to/lastmile_qr_scan", "android": "https://dc.lft.to/lastmile_qr_scan"}, "is_reserved": 0, "lon": -77.0215705, "fusion_lat": 0.0, "name": "5e2abeeac34f8b095a50b39c618ee43a"}, {"type": "electric_scooter", "fusion_lon": 0.0, "bike_id": "c2b354d4114310b70031e4d3717fbe9d", "is_disabled": 0, "lat": 38.93788383333333, "rental_uris": {"ios": "https://dc.lft.to/lastmile_qr_scan", "android": "https://dc.lft.to/lastmile_qr_scan"}, "is_reserved": 0, "lon": -77.02321683333334, "fusion_lat": 0.0, "name": "c2b354d4114310b70031e4d3717fbe9d"}, {"type": "electric_scooter", "fusion_lon": 0.0, "bike_id": "add95ba3ecaa9e439bab2775926ad5c8", "is_disabled": 0, "lat": 38.892346, "rental_uris": {"ios": "https://dc.lft.to/lastmile_qr_scan", "android": "https://dc.lft.to/lastmile_qr_scan"}, "is_reserved": 0, "lon": -77.04675266666666, "fusion_lat": 0.0, "name": "add95ba3ecaa9e439bab2775926ad5c8"},