{"data": {"bikes": [{"lat": 38.92153116666667, "is_disabled": 0, "type": "electric_scooter", "lon": -77.03866816666667, "bike_id": "51e7ab5a8714b4ca4d1aeec746858255", "fusion_lat": 0.0, "name": "51e7ab5a8714b4ca4d1aeec746858255", "is_reserved": 0, "rental_uris": {"android": "https://dc.lft.to/lastmile_qr_scan", "ios": "https://dc.lft.to/lastmile_qr_scan"}, "fusion_lon": 0.0}, {"lat": 38.927790333333334, "is_disabled": 0, "type": "electric_scooter", "lon": -77.052605, "bike_id": "474961513c484fb2cb0855aac0131b45", "fusion_lat": 0.0, "name": "474961513c484fb2cb0855aac0131b45", "is_reserved": 0, "rental_uris": {"android": "https://dc.lft.to/lastmile_qr_scan", "ios": "https://dc.lft.to/lastmile_qr_scan"}, "fusion_lon": 0.0}, {"lat": 38.89607516666667, "is_disabled": 0, "type": "electric_scooter", "lon": -77.009259, "bike_id": "7fe0de2e196a0a8bef72dd2561da9fcb", "fusion_lat": 0.0, "name": "7fe0de2e196a0a8bef72dd2561da9fcb", "is_reserved": 0, "rental_uris": {"android": "https://dc.lft.to/lastmile_qr_scan", "ios": "https://dc.lft.to/lastmile_qr_scan"}, "fusion_lon": 0.0}, {"lat": 38.937046333333335, "is_disabled": 0, "type": "electric_scooter", "lon": -77.06102983333334, "bike_id": "f5acde9fe82711453db9a86e81648212", "fusion_lat": 0.0, "name": "f5acde9fe82711453db9a86e81648212", "is_reserved": 0, "rental_uris": {"android": "https://dc.lft.to/lastmile_qr_scan", "ios": "https://dc.lft.to/lastmile_qr_scan"}, "fusion_lon": 0.0}, {"lat": 38.898550666666665, "is_disabled": 0, "type": "electric_bike", "lon": -76.93190183333333, "bike_id": "da608e30de55e41cafacbc1189f77ea7", "fusion_lat": 0.0, "name": "da608e30de55e41cafacbc1189f77ea7", "is_reserved": 0, "rental_uris": {"android": "https://dc.lft.to/lastmile_qr_scan", "ios": "https://dc.lft.to/lastmile_qr_scan"}, "fusion_lon": 0.0}, {"lat": 38.915201833333334, "is_disabled": 0, "type": "electric_scooter", "lon": -77.03841266666667, "bike_id": "4b2e5b337f330da59adf890be5877c99", "fusion_lat": 0.0, "name": "4b2e5b337f330da59adf890be5877c99", "is_reserved": 0, "rental_uris": {"android": "https://dc.lft.to/lastmile_qr_scan", "ios": "https://dc.lft.to/lastmile_qr_scan"}, "fusion_lon": 0.0}, {"lat": 38.9338255, "is_disabled": 0, "type": "electric_scooter", "lon": -76.99512666666666, "bike_id": "1594faaaf89f90978956ffc42eab92f3", "fusion_lat": 0.0, "name": "1594faaaf89f90978956ffc42eab92f3", "is_reserved": 0, "rental_uris": {"android": "https://dc.lft.to/lastmile_qr_scan", "ios": "https://dc.lft.to/lastmile_qr_scan"}, "fusion_lon": 0.0}, {"lat": 38.935697166666664, "is_disabled": 0, "type": "electric_scooter", "lon": -77.03266316666667, "bike_id": "93ad00e706568447c23c103ec5403930", "fusion_lat": 0.0, "name": "93ad00e706568447c23c103ec5403930", "is_reserved": 0, "rental_uris": {"android": "https://dc.lft.to/lastmile_qr_scan", "ios": "https://dc.lft.to/lastmile_qr_scan"}, "fusion_lon": 0.0}, {"lat": 38.91050666666667, "is_disabled": 0, "type": "electric_scooter", "lon": -77.04356366666667, "bike_id": "a97f52995363c9ad2a239881dc236a18", "fusion_lat": 0.0, "name": "a97f52995363c9ad2a239881dc236a18", "is_reserved": 0, "rental_uris": {"android": "https://dc.lft.to/lastmile_qr_scan", "ios": "https://dc.lft.to/lastmile_qr_scan"}, "fusion_lon": 0.0}, {"lat": 38.90560283333333, "is_disabled": 0, "type": "electric_scooter", "lon": -77.03617916666667, "bike_id": "3041a85304eb75a1f5508f148769ac9a", "fusion_lat": 0.0, "name": "3041a85304eb75a1f5508f148769ac9a", "is_reserved": 0, "rental_uris": {"android": "https://dc.lft.to/lastmile_qr_scan", "ios": "https://dc.lft.to/lastmile_qr_scan"}, "fusion_lon": 0.0}, {"lat": 38.92811283333333, "is_disabled": 0, "type": "electric_scooter", "lon": -77.0262135, "bike_id": "ff2143d390c0401c17b667f857e92596", "fusion_lat": 0.0, "name": "ff2143d390c0401c17b667f857e92596", "is_reserved": 0, "rental_uris": {"android": "https://dc.lft.to/lastmile_qr_scan", "ios": "https://dc.lft.to/lastmile_qr_scan"}, "fusion_lon": 0.0}, {"lat": 38.911105666666664, "is_disabled": 0, "type": "electric_scooter", "lon": -77.03710416666667, "bike_id": "f0759d81de5aaa565e21784e1203e6b3", "fusion_lat": 0.0, "name": "f0759d81de5aaa565e21784e1203e6b3", "is_reserved": 0, "rental_uris": {"android": "https://dc.lft.to/lastmile_qr_scan", "ios": "https://dc.lft.to/lastmile_qr_scan"}, "fusion_lon": 0.0}, {"lat": 38.915284, "is_disabled": 0, "type": "electric_scooter", "lon": -77.03202633333333, "bike_id": "3f70f889ac20da049837cdcfd012d887", "fusion_lat": 0.0, "name": "3f70f889ac20da049837cdcfd012d887", "is_reserved": 0, "rental_uris": {"android": "https://dc.lft.to/lastmile_qr_scan", "ios": "https://dc.lft.to/lastmile_qr_scan"}, "fusion_lon": 0.0}, {"lat": 38.8971425, "is_disabled": 0, "type": "electric_scooter", "lon": -77.00841766666667, "bike_id": "86bfc757c1c6db68d8251a8517166c85", "fusion_lat": 0.0, "name": "86bfc757c1c6db68d8251a8517166c85", "is_reserved": 0, "rental_uris": {"android": "https://dc.lft.to/lastmile_qr_scan", "ios": "https://dc.lft.to/lastmile_qr_scan"}, "fusion_lon": 0.0}, {"lat": 38.93134533333333, "is_disabled": 0, "type": "electric_scooter", "lon": -77.03257183333334, "bike_id": "c3dd2efc5e43eccc9b96d48058a3b81c", "fusion_lat": 0.0, "name": "c3dd2efc5e43eccc9b96d48058a3b81c", "is_reserved": 0, "rental_uris": {"android": "https://dc.lft.to/lastmile_qr_scan", "ios": "https://dc.lft.to/lastmile_qr_scan"}, "fusion_lon": 0.0}, {"lat": 38.922032333333334, "is_disabled": 0, "type": "electric_scooter", "lon": -76.95660916666667, "bike_id": "e6ab94e6cfaac7698a0481d61ccdcef4", "fusion_lat": 0.0, "name": "e6ab94e6cfaac7698a0481d61ccdcef4", "is_reserved": 0, "rental_uris": {"android": "https://dc.lft.to/lastmile_qr_scan", "ios": "https://dc.lft.to/lastmile_qr_scan"}, "fusion_lon": 0.0}, {"lat": 38.9032665, "is_disabled": 0, "type": "electric_scooter", "lon": -77.02893183333333, "bike_id": "ad9df3f27eeda2d397960de670c8c3d9", "fusion_lat": 0.0, "name": "ad9df3f27eeda2d397960de670c8c3d9", "is_reserved": 0, "rental_uris": {"android": "https://dc.lft.to/lastmile_qr_scan", "ios": "https://dc.lft.to/lastmile_qr_scan"}, "fusion_lon": 0.0}, {"lat": 38.902254166666665, "is_disabled": 0, "type": "electric_scooter", "lon": -77.04333616666666, "bike_id": "ad602b20c62e0822594fd8f77bffd4b7", "fusion_lat": 0.0, "name": "ad602b20c62e0822594fd8f77bffd4b7", "is_reserved": 0, "rental_uris": {"android": "https://dc.lft.to/lastmile_qr_scan", "ios": "https://dc.lft.to/lastmile_qr_scan"}, "fusion_lon": 0.0}, {"lat": 38.899681, "is_disabled": 0, "type": "electric_scooter", "lon": -77.02296783333334, "bike_id": "cc419533bb12915b6c188ff2bfbfc34b", "fusion_lat": 0.0, "name": "cc419533bb12915b6c188ff2bfbfc34b", "is_reserved": 0, "rental_uris": {"android": "https://dc.lft.to/lastmile_qr_scan", "ios": "https://dc.lft.to/lastmile_qr_scan"}, "fusion_lon": 0.0}, {"lat": 38.87218683333333, "is_disabled": 0, "type": "electric_bike", "lon": -77.01522383333334, "bike_id": "516cf61459504643770c5ae02fc892e1", "fusion_lat": 0.0, "name": "516cf61459504643770c5ae02fc892e1", "is_reserved": 0, "rental_uris": {"android": "https://dc.lft.to/lastmile_qr_scan", "ios": "https://dc.lft.to/lastmile_qr_scan"}, "fusion_lon": 0.0}, {"lat": 38.9285405, "is_disabled": 0, "type": "electric_bike", "lon": -77.2221185, "bike_id": "2b44fc83653f025382dc04ced565bd73", "fusion_lat": 0.0, "name": "2b44fc83653f025382dc04ced565bd73", "is_reserved": 0, "rental_uris": {"android": "https://dc.lft.to/lastmile_qr_scan", "ios": "https://dc.lft.to/lastmile_qr_scan"}, "fusion_lon": 0.0}, {"lat": 38.9225735, "is_disabled": 0, "type": "electric_scooter", "lon": -77.0429695, "bike_id": "fb9117b755754304c8862bd61fa426bf", "fusion_lat": 0.0, "name": "fb9117b755754304c8862bd61fa426bf", "is_reserved": 0, "rental_uris": {"android": "https://dc.lft.to/lastmile_qr_scan", "ios": "https://dc.lft.to/lastmile_qr_scan"}, "fusion_lon": 0.0}, {"lat": 38.965605333333336, "is_disabled": 0, "type": "electric_bike", "lon": -77.02039516666666, "bike_id": "174bee21f32d2062119c9cc01c29a48e", "fusion_lat": 0.0, "name": "174bee21f32d2062119c9cc01c29a48e", "is_reserved": 0, "rental_uris": {"android": "https://dc.lft.to/lastmile_qr_scan", "ios": "https://dc.lft.to/lastmile_qr_scan"}, "fusion_lon": 0.0}, {"lat": 39.0885725, "is_disabled": 0, "type": "electric_bike", "lon": -77.178399, "bike_id": "5dad90f9b488a3722cf719e5487c224f", "fusion_lat": 0.0, "name": "5dad90f9b488a3722cf719e5487c224f", "is_reserved": 0, "rental_uris": {"android": "https://dc.lft.to/lastmile_qr_scan", "ios": "https://dc.lft.to/lastmile_qr_scan"}, "fusion_lon": 0.0}, {"lat": 38.91774316666667, "is_disabled": 0, "type": "electric_scooter", "lon": -77.0288795, "bike_id": "2b492c0f2acd7f381e4fc2ff9590ea67", "fusion_lat": 0.0, "name": "2b492c0f2acd7f381e4fc2ff9590ea67", "is_reserved": 0, "rental_uris": {"android": "https://dc.lft.to/lastmile_qr_scan", "ios": "https://dc.lft.to/lastmile_qr_scan"}, "fusion_lon": 0.0}, {"lat": 38.90175583333333, "is_disabled": 0, "type": "electric_scooter", "lon": -77.04973316666667, "bike_id": "23ff0d346bb2d42cd4d2dde384267c8b", "fusion_lat": 0.0, "name": "23ff0d346bb2d42cd4d2dde384267c8b", "is_reserved": 0, "rental_uris": {"android": "https://dc.lft.to/lastmile_qr_scan", "ios": "https://dc.lft.to/lastmile_qr_scan"}, "fusion_lon": 0.0}, {"lat": 38.90330083333333, "is_disabled": 0, "type": "electric_scooter", "lon": -77.03782266666667, "bike_id": "d8df8dc9c63653ac7150cf9928839acb", "fusion_lat": 0.0, "name": "d8df8dc9c63653ac7150cf9928839acb", "is_reserved": 0, "rental_uris": {"android": "https://dc.lft.to/lastmile_qr_scan", "ios": "https://dc.lft.to/lastmile_qr_scan"}, "fusion_lon": 0.0}, {"lat": 38.972334333333336, "is_disabled": 0, "type": "electric_bike", "lon": -76.99338083333333, "bike_id": "22da7d8af429f06fe3dce032437836ae", "fusion_lat": 0.0, "name": "22da7d8af429f06fe3dce032437836ae", "is_reserved": 0, "rental_uris": {"android": "https://dc.lft.to/lastmile_qr_scan", "ios": "https://dc.lft.to/lastmile_qr_scan"}, "fusion_lon": 0.0}, {"lat": 38.94894033333333, "is_disabled": 0, "type": "electric_scooter", "lon": -77.03048416666667, "bike_id": "8178f1dca3e9b65603f0ed1860f55c61", "fusion_lat": 0.0, "name": "8178f1dca3e9b65603f0ed1860f55c61", "is_reserved": 0, "rental_uris": {"android": "https://dc.lft.to/lastmile_qr_scan", "ios": "https://dc.lft.to/lastmile_qr_scan"}, "fusion_lon": 0.0}, {"lat": 38.933188333333334, "is_disabled": 0, "type": "electric_scooter", "lon": -77.0452905, "bike_id": "e0adbc403effc74e3bc400f140b05939", "fusion_lat": 0.0, "name": "e0adbc403effc74e3bc400f140b05939", "is_reserved": 0, "rental_uris": {"android": "https://dc.lft.to/lastmile_qr_scan", "ios": "https://dc.lft.to/lastmile_qr_scan"}, "fusion_lon": 0.0}, {"lat": 38.922386, "is_disabled": 0, "type": "electric_scooter", "lon": -77.0456275, "bike_id": "3cff4d3e0832eba2f28b0d764d302775", "fusion_lat": 0.0, "name": "3cff4d3e0832eba2f28b0d764d302775", "is_reserved": 0, "rental_uris": {"android": "https://dc.lft.to/lastmile_qr_scan", "ios": "https://dc.lft.to/lastmile_qr_scan"}, "fusion_lon": 0.0}, {"lat": 38.8922455, "is_disabled": 0, "type": "electric_scooter", "lon": -77.0209895, "bike_id": "7b263c97b5e7e9919651c12056f00844", "fusion_lat": 0.0, "name": "7b263c97b5e7e9919651c12056f00844", "is_reserved": 0, "rental_uris": {"android": "https://dc.lft.to/lastmile_qr_scan", "ios": "https://dc.lft.to/lastmile_qr_scan"}, "fusion_lon": 0.0}, {"lat": 38.900447666666665, "is_disabled": 0, "type": "electric_scooter", "lon": -77.0332945, "bike_id": "3a5629b1e9c7b067b9764a79ad34a8ef", "fusion_lat": 0.0, "name": "3a5629b1e9c7b067b9764a79ad34a8ef", "is_reserved": 0, "rental_uris": {"android": "https://dc.lft.to/lastmile_qr_scan", "ios": "https://dc.lft.to/lastmile_qr_scan"}, "fusion_lon": 0.0}, {"lat": 38.88972233333333, "is_disabled": 0, "type": "electric_scooter", "lon": -76.93740316666667, "bike_id": "c796b9012326fd846a0f7217fe7a45a7", "fusion_lat": 0.0, "name": "c796b9012326fd846a0f7217fe7a45a7", "is_reserved": 0, "rental_uris": {"android": "https://dc.lft.to/lastmile_qr_scan", "ios": "https://dc.lft.to/lastmile_qr_scan"}, "fusion_lon": 0.0}, {"lat": 38.8997455, "is_disabled": 0, "type": "electric_scooter", "lon": -77.01901983333333, "bike_id": "e24a3c621bc03d1a784c347e0da99314", "fusion_lat": 0.0, "name": "e24a3c621bc03d1a784c347e0da99314", "is_reserved": 0, "rental_uris": {"android": "https://dc.lft.to/lastmile_qr_scan", "ios": "https://dc.lft.to/lastmile_qr_scan"}, "fusion_lon": 0.0}, {"lat": 38.91705233333333, "is_disabled": 0, "type": "electric_scooter", "lon": -77.0322065, "bike_id": "8aefa1f0038a6038b9c95b1b2aabeda0", "fusion_lat": 0.0, "name": "8aefa1f0038a6038b9c95b1b2aabeda0", "is_reserved": 0, "rental_uris": {"android": "https://dc.lft.to/lastmile_qr_scan", "ios": "https://dc.lft.to/lastmile_qr_scan"}, "fusion_lon": 0.0}, {"lat": 38.92762666666667, "is_disabled": 0, "type": "electric_bike", "lon": -77.068838, "bike_id": "cd58b1f2b2533a266c4d76f1893d5402", "fusion_lat": 0.0, "name": "cd58b1f2b2533a266c4d76f1893d5402", "is_reserved": 0, "rental_uris": {"android": "https://dc.lft.to/lastmile_qr_scan", "ios": "https://dc.lft.to/lastmile_qr_scan"}, "fusion_lon": 0.0}, {"lat": 38.945137333333335, "is_disabled": 0, "type": "electric_scooter", "lon": -77.021733, "bike_id": "4bf815cd0ae36465e2a6d33169df08a2", "fusion_lat": 0.0, "name": "4bf815cd0ae36465e2a6d33169df08a2", "is_reserved": 0, "rental_uris": {"android": "https://dc.lft.to/lastmile_qr_scan", "ios": "https://dc.lft.to/lastmile_qr_scan"}, "fusion_lon": 0.0}, {"lat": 38.892259333333335, "is_disabled": 0, "type": "electric_scooter", "lon": -76.93298483333334, "bike_id": "52a78c1d56683073b9857dc66e95e01e", "fusion_lat": 0.0, "name": "52a78c1d56683073b9857dc66e95e01e", "is_reserved": 0, "rental_uris": {"android": "https://dc.lft.to/lastmile_qr_scan", "ios": "https://dc.lft.to/lastmile_qr_scan"}, "fusion_lon": 0.0}, {"lat": 38.90405466666667, "is_disabled": 0, "type": "electric_scooter", "lon": -77.02508683333333, "bike_id": "e26d54b15be6bb1228b2293d700181eb", "fusion_lat": 0.0, "name": "e26d54b15be6bb1228b2293d700181eb", "is_reserved": 0, "rental_uris": {"android": "https://dc.lft.to/lastmile_qr_scan", "ios": "https://dc.lft.to/lastmile_qr_scan"}, "fusion_lon": 0.0}, {"lat": 38.932275833333335, "is_disabled": 0, "type": "electric_scooter", "lon": -77.02731033333333, "bike_id": "43c0f6e6edbba51b85b284764ecc3831", "fusion_lat": 0.0, "name": "43c0f6e6edbba51b85b284764ecc3831", "is_reserved": 0, "rental_uris": {"android": "https://dc.lft.to/lastmile_qr_scan", "ios": "https://dc.lft.to/lastmile_qr_scan"}, "fusion_lon": 0.0}, {"lat": 38.896367166666664, "is_disabled": 0, "type": "electric_scooter", "lon": -77.04497166666667, "bike_id": "1d9b6c4d5c31f4a3e969ec70d4768ca3", "fusion_lat": 0.0, "name": "1d9b6c4d5c31f4a3e969ec70d4768ca3", "is_reserved": 0, "rental_uris": {"android": "https://dc.lft.to/lastmile_qr_scan", "ios": "https://dc.lft.to/lastmile_qr_scan"}, "fusion_lon": 0.0}, {"lat": 38.92869916666667, "is_disabled": 0, "type": "electric_scooter", "lon": -77.03409683333334, "bike_id": "d7da225b87b95afa5bbdaf9395581936", "fusion_lat": 0.0, "name": "d7da225b87b95afa5bbdaf9395581936", "is_reserved": 0, "rental_uris": {"android": "https://dc.lft.to/lastmile_qr_scan", "ios": "https://dc.lft.to/lastmile_qr_scan"}, "fusion_lon": 0.0}, {"lat": 38.9086395, "is_disabled": 0, "type": "electric_scooter", "lon": -77.0293685, "bike_id": "2c27055139ce6c09ac62df9a725944d4", "fusion_lat": 0.0, "name": "2c27055139ce6c09ac62df9a725944d4", "is_reserved": 0, "rental_uris": {"android": "https://dc.lft.to/lastmile_qr_scan", "ios": "https://dc.lft.to/lastmile_qr_scan"}, "fusion_lon": 0.0}, {"lat": 38.86507433333333, "is_disabled": 0, "type": "electric_scooter", "lon": -76.99004483333333, "bike_id": "59ba21d9e9e3a98ec1a810127992d695", "fusion_lat": 0.0, "name": "59ba21d9e9e3a98ec1a810127992d695", "is_reserved": 0, "rental_uris": {"android": "https://dc.lft.to/lastmile_qr_scan", "ios": "https://dc.lft.to/lastmile_qr_scan"}, "fusion_lon": 0.0}, {"lat": 38.914209, "is_disabled": 0, "type": "electric_scooter", "lon": -77.03200566666666, "bike_id": "0d3b3e987756c4144c383104d2500486", "fusion_lat": 0.0, "name": "0d3b3e987756c4144c383104d2500486", "is_reserved": 0, "rental_uris": {"android": "https://dc.lft.to/lastmile_qr_scan", "ios": "https://dc.lft.to/lastmile_qr_scan"}, "fusion_lon": 0.0}, {"lat": 38.900941, "is_disabled": 0, "type": "electric_scooter", "lon": -77.05604716666667, "bike_id": "f706867496baa5b64dc812bc341d6c83", "fusion_lat": 0.0, "name": "f706867496baa5b64dc812bc341d6c83", "is_reserved": 0, "rental_uris": {"android": "https://dc.lft.to/lastmile_qr_scan", "ios": "https://dc.lft.to/lastmile_qr_scan"}, "fusion_lon": 0.0}, {"lat": 38.87066933333333, "is_disabled": 0, "type": "electric_scooter", "lon": -77.0083895, "bike_id": "d0099c013cc3c34407dbb200bde71239", "fusion_lat": 0.0, "name": "d0099c013cc3c34407dbb200bde71239", "is_reserved": 0, "rental_uris": {"android": "https://dc.lft.to/lastmile_qr_scan", "ios": "https://dc.lft.to/lastmile_qr_scan"}, "fusion_lon": 0.0}, {"lat": 38.920493, "is_disabled": 0, "type": "electric_bike", "lon": -77.03477766666667, "bike_id": "9a6df942d7f003c65cfe81347a63e30e", "fusion_lat": 0.0, "name": "9a6df942d7f003c65cfe81347a63e30e", "is_reserved": 0, "rental_uris": {"android": "https://dc.lft.to/lastmile_qr_scan", "ios": "https://dc.lft.to/lastmile_qr_scan"}, "fusion_lon": 0.0}, {"lat": 38.93441583333333, "is_disabled": 0, "type": "electric_scooter", "lon": -77.034615, "bike_id": "f60a9aea80ecb7deb5d03129ec62af63", "fusion_lat": 0.0, "name": "f60a9aea80ecb7deb5d03129ec62af63", "is_reserved": 0, "rental_uris": {"android": "https://dc.lft.to/lastmile_qr_scan", "ios": "https://dc.lft.to/lastmile_qr_scan"}, "fusion_lon": 0.0}, {"lat": 38.8668205, "is_disabled": 0, "type": "electric_scooter", "lon": -76.98543416666666, "bike_id": "5b93c7bbb23064f466744ebf290162b1", "fusion_lat": 0.0, "name": "5b93c7bbb23064f466744ebf290162b1", "is_reserved": 0, "rental_uris": {"android": "https://dc.lft.to/lastmile_qr_scan", "ios": "https://dc.lft.to/lastmile_qr_scan"}, "fusion_lon": 0.0}, {"lat": 38.86210483333333, "is_disabled": 0, "type": "electric_bike", "lon": -76.99776883333334, "bike_id": "117678a98d55a330f0499ce932a4f1e4", "fusion_lat": 0.0, "name": "117678a98d55a330f0499ce932a4f1e4", "is_reserved": 0, "rental_uris": {"android": "https://dc.lft.to/lastmile_qr_scan", "ios": "https://dc.lft.to/lastmile_qr_scan"}, "fusion_lon": 0.0}, {"lat": 38.917677833333336, "is_disabled": 0, "type": "electric_scooter", "lon": -77.02309016666666, "bike_id": "32c1e3f6f7188a076704f788a34ccb35", "fusion_lat": 0.0, "name": "32c1e3f6f7188a076704f788a34ccb35", "is_reserved": 0, "rental_uris": {"android": "https://dc.lft.to/lastmile_qr_scan", "ios": "https://dc.lft.to/lastmile_qr_scan"}, "fusion_lon": 0.0}, {"lat": 38.896794, "is_disabled": 0, "type": "electric_scooter", "lon": -76.935341, "bike_id": "1e873600a80c003f696e8809bdb5f595", "fusion_lat": 0.0, "name": "1e873600a80c003f696e8809bdb5f595", "is_reserved": 0, "rental_uris": {"android": "https://dc.lft.to/lastmile_qr_scan", "ios": "https://dc.lft.to/lastmile_qr_scan"}, "fusion_lon": 0.0}, {"lat": 38.87223816666667, "is_disabled": 0, "type": "electric_bike", "lon": -77.01165816666666, "bike_id": "71e50154703832288962e3f50ca37c0c", "fusion_lat": 0.0, "name": "71e50154703832288962e3f50ca37c0c", "is_reserved": 0, "rental_uris": {"android": "https://dc.lft.to/lastmile_qr_scan", "ios": "https://dc.lft.to/lastmile_qr_scan"}, "fusion_lon": 0.0}, {"lat": 38.91488916666667, "is_disabled": 0, "type": "electric_scooter", "lon": -77.03263333333334, "bike_id": "f68a898021b39c5c45f13dbd63c146f9", "fusion_lat": 0.0, "name": "f68a898021b39c5c45f13dbd63c146f9", "is_reserved": 0, "rental_uris": {"android": "https://dc.lft.to/lastmile_qr_scan", "ios": "https://dc.lft.to/lastmile_qr_scan"}, "fusion_lon": 0.0}, {"lat": 38.900717, "is_disabled": 0, "type": "electric_scooter", "lon": -77.00209083333333, "bike_id": "63e2dd9b38bdb1a4b3c9e70a2ca8af21", "fusion_lat": 0.0, "name": "63e2dd9b38bdb1a4b3c9e70a2ca8af21", "is_reserved": 0, "rental_uris": {"android": "https://dc.lft.to/lastmile_qr_scan", "ios": "https://dc.lft.to/lastmile_qr_scan"}, "fusion_lon": 0.0}, {"lat": 38.8922495, "is_disabled": 0, "type": "electric_scooter", "lon": -77.04875866666667, "bike_id": "7e97eba52f36e7de14e1a626fcd3dee5", "fusion_lat": 0.0, "name": "7e97eba52f36e7de14e1a626fcd3dee5", "is_reserved": 0, "rental_uris": {"android": "https://dc.lft.to/lastmile_qr_scan", "ios": "https://dc.lft.to/lastmile_qr_scan"}, "fusion_lon": 0.0}, {"lat": 38.961494333333334, "is_disabled": 0, "type": "electric_scooter", "lon": -77.02787883333333, "bike_id": "cfaac8a394267bb831082c7c0ddb6047", "fusion_lat": 0.0, "name": "cfaac8a394267bb831082c7c0ddb6047", "is_reserved": 0, "rental_uris": {"android": "https://dc.lft.to/lastmile_qr_scan", "ios": "https://dc.lft.to/lastmile_qr_scan"}, "fusion_lon": 0.0}, {"lat": 38.920626666666664, "is_disabled": 0, "type": "electric_scooter", "lon": -77.04334183333333, "bike_id": "46b4f3f7de0d428ea770a66fc4b568b7", "fusion_lat": 0.0, "name": "46b4f3f7de0d428ea770a66fc4b568b7", "is_reserved": 0, "rental_uris": {"android": "https://dc.lft.to/lastmile_qr_scan", "ios": "https://dc.lft.to/lastmile_qr_scan"}, "fusion_lon": 0.0}, {"lat": 38.91321083333333, "is_disabled": 0, "type": "electric_scooter", "lon": -77.0326775, "bike_id": "347e09d664a6c8e0fd2b2e7e20b5b78b", "fusion_lat": 0.0, "name": "347e09d664a6c8e0fd2b2e7e20b5b78b", "is_reserved": 0, "rental_uris": {"android": "https://dc.lft.to/lastmile_qr_scan", "ios": "https://dc.lft.to/lastmile_qr_scan"}, "fusion_lon": 0.0}, {"lat": 38.908821, "is_disabled": 0, "type": "electric_scooter", "lon": -77.04408066666667, "bike_id": "1391eaee3a0ea23c719747c48607f397", "fusion_lat": 0.0, "name": "1391eaee3a0ea23c719747c48607f397", "is_reserved": 0, "rental_uris": {"android": "https://dc.lft.to/lastmile_qr_scan", "ios": "https://dc.lft.to/lastmile_qr_scan"}, "fusion_lon": 0.0}, {"lat": 38.8923095, "is_disabled": 0, "type": "electric_scooter", "lon": -77.05005616666666, "bike_id": "8af69a115c620fb8abd1d799ff018762", "fusion_lat": 0.0, "name": "8af69a115c620fb8abd1d799ff018762", "is_reserved": 0, "rental_uris": {"android": "https://dc.lft.to/lastmile_qr_scan", "ios": "https://dc.lft.to/lastmile_qr_scan"}, "fusion_lon": 0.0}, {"lat": 38.9192435, "is_disabled": 0, "type": "electric_scooter", "lon": -77.048178, "bike_id": "e9fc5a29e4f4ba2de4ad9e152bc54c7f", "fusion_lat": 0.0, "name": "e9fc5a29e4f4ba2de4ad9e152bc54c7f", "is_reserved": 0, "rental_uris": {"android": "https://dc.lft.to/lastmile_qr_scan", "ios": "https://dc.lft.to/lastmile_qr_scan"}, "fusion_lon": 0.0}, {"lat": 38.91782833333333, "is_disabled": 0, "type": "electric_scooter", "lon": -77.042993, "bike_id": "945dc2773f2324e90012b4faf23617c3", "fusion_lat": 0.0, "name": "945dc2773f2324e90012b4faf23617c3", "is_reserved": 0, "rental_uris": {"android": "https://dc.lft.to/lastmile_qr_scan", "ios": "https://dc.lft.to/lastmile_qr_scan"}, "fusion_lon": 0.0}, {"lat": 38.898952, "is_disabled": 0, "type": "electric_scooter", "lon": -77.03212166666667, "bike_id": "844066058f977ab1261a0fbeb016a87f", "fusion_lat": 0.0, "name": "844066058f977ab1261a0fbeb016a87f", "is_reserved": 0, "rental_uris": {"android": "https://dc.lft.to/lastmile_qr_scan", "ios": "https://dc.lft.to/lastmile_qr_scan"}, "fusion_lon": 0.0}, {"lat": 38.866202, "is_disabled": 0, "type": "electric_bike", "lon": -76.9457045, "bike_id": "3db50b4b94995a9f79fdd1be889ce2ef", "fusion_lat": 0.0, "name": "3db50b4b94995a9f79fdd1be889ce2ef", "is_reserved": 0, "rental_uris": {"android": "https://dc.lft.to/lastmile_qr_scan", "ios": "https://dc.lft.to/lastmile_qr_scan"}, "fusion_lon": 0.0}, {"lat": 38.916984166666666, "is_disabled": 0, "type": "electric_scooter", "lon": -77.033332, "bike_id": "9d57bb6735c993905cd67ac99a776afc", "fusion_lat": 0.0, "name": "9d57bb6735c993905cd67ac99a776afc", "is_reserved": 0, "rental_uris": {"android": "https://dc.lft.to/lastmile_qr_scan", "ios": "https://dc.lft.to/lastmile_qr_scan"}, "fusion_lon": 0.0}, {"lat": 38.959565, "is_disabled": 0, "type": "electric_bike", "lon": -77.10089783333333, "bike_id": "5899019a638a4f398bf5c5f2678ba2a9", "fusion_lat": 0.0, "name": "5899019a638a4f398bf5c5f2678ba2a9", "is_reserved": 0, "rental_uris": {"android": "https://dc.lft.to/lastmile_qr_scan", "ios": "https://dc.lft.to/lastmile_qr_scan"}, "fusion_lon": 0.0}, {"lat": 38.91119966666667, "is_disabled": 0, "type": "electric_scooter", "lon": -77.04219, "bike_id": "d331c49ca7c1dcf92de344a492ab2195", "fusion_lat": 0.0, "name": "d331c49ca7c1dcf92de344a492ab2195", "is_reserved": 0, "rental_uris": {"android": "https://dc.lft.to/lastmile_qr_scan", "ios": "https://dc.lft.to/lastmile_qr_scan"}, "fusion_lon": 0.0}, {"lat": 38.9224585, "is_disabled": 0, "type": "electric_scooter", "lon": -77.03087616666667, "bike_id": "42b360e12cf6d28ed9eb97999bfff0af", "fusion_lat": 0.0, "name": "42b360e12cf6d28ed9eb97999bfff0af", "is_reserved": 0, "rental_uris": {"android": "https://dc.lft.to/lastmile_qr_scan", "ios": "https://dc.lft.to/lastmile_qr_scan"}, "fusion_lon": 0.0}, {"lat": 38.9417125, "is_disabled": 0, "type": "electric_scooter", "lon": -77.03286266666667, "bike_id": "3af4c8f8284381b806fc1b8dacc11fa4", "fusion_lat": 0.0, "name": "3af4c8f8284381b806fc1b8dacc11fa4", "is_reserved": 0, "rental_uris": {"android": "https://dc.lft.to/lastmile_qr_scan", "ios": "https://dc.lft.to/lastmile_qr_scan"}, "fusion_lon": 0.0}, {"lat": 38.91951016666667, "is_disabled": 0, "type": "electric_scooter", "lon": -77.04887366666667, "bike_id": "d6f79ad20224e3ed228c0c5bca9bdc06", "fusion_lat": 0.0, "name": "d6f79ad20224e3ed228c0c5bca9bdc06", "is_reserved": 0, "rental_uris": {"android": "https://dc.lft.to/lastmile_qr_scan", "ios": "https://dc.lft.to/lastmile_qr_scan"}, "fusion_lon": 0.0}, {"lat": 38.873402666666664, "is_disabled": 0, "type": "electric_scooter", "lon": -76.99162716666666, "bike_id": "88cf21e1cf423727c9f88b36410ca188", "fusion_lat": 0.0, "name": "88cf21e1cf423727c9f88b36410ca188", "is_reserved": 0, "rental_uris": {"android": "https://dc.lft.to/lastmile_qr_scan", "ios": "https://dc.lft.to/lastmile_qr_scan"}, "fusion_lon": 0.0}, {"lat": 38.90125866666666, "is_disabled": 0, "type": "electric_scooter", "lon": -77.03311633333334, "bike_id": "d5a78097d21fa983c0cc43879367ffb1", "fusion_lat": 0.0, "name": "d5a78097d21fa983c0cc43879367ffb1", "is_reserved": 0, "rental_uris": {"android": "https://dc.lft.to/lastmile_qr_scan", "ios": "https://dc.lft.to/lastmile_qr_scan"}, "fusion_lon": 0.0}, {"lat": 38.90232783333333, "is_disabled": 0, "type": "electric_scooter", "lon": -77.02597683333333, "bike_id": "dbb6fcc6f7d8926d85c83c5420596e9c", "fusion_lat": 0.0, "name": "dbb6fcc6f7d8926d85c83c5420596e9c", "is_reserved": 0, "rental_uris": {"android": "https://dc.lft.to/lastmile_qr_scan", "ios": "https://dc.lft.to/lastmile_qr_scan"}, "fusion_lon": 0.0}, {"lat": 38.900722, "is_disabled": 0, "type": "electric_scooter", "lon": -77.04406933333334, "bike_id": "4e7d6e42a6424789fb8eb5813ea742a9", "fusion_lat": 0.0, "name": "4e7d6e42a6424789fb8eb5813ea742a9", "is_reserved": 0, "rental_uris": {"android": "https://dc.lft.to/lastmile_qr_scan", "ios": "https://dc.lft.to/lastmile_qr_scan"}, "fusion_lon": 0.0}, {"lat": 38.876280333333334, "is_disabled": 0, "type": "electric_scooter", "lon": -76.96523616666667, "bike_id": "ebe8cdd2de6233e2937d719eb0549530", "fusion_lat": 0.0, "name": "ebe8cdd2de6233e2937d719eb0549530", "is_reserved": 0, "rental_uris": {"android": "https://dc.lft.to/lastmile_qr_scan", "ios": "https://dc.lft.to/lastmile_qr_scan"}, "fusion_lon": 0.0}, {"lat": 38.90736366666667, "is_disabled": 0, "type": "electric_scooter", "lon": -77.04787583333334, "bike_id": "50c197e7fa9ca00b851094b453fac1ba", "fusion_lat": 0.0, "name": "50c197e7fa9ca00b851094b453fac1ba", "is_reserved": 0, "rental_uris": {"android": "https://dc.lft.to/lastmile_qr_scan", "ios": "https://dc.lft.to/lastmile_qr_scan"}, "fusion_lon": 0.0}, {"lat": 38.867138833333335, "is_disabled": 0, "type": "electric_scooter", "lon": -76.9872485, "bike_id": "1f122fe053aa0e1fee03b2845d6a14c2", "fusion_lat": 0.0, "name": "1f122fe053aa0e1fee03b2845d6a14c2", "is_reserved": 0, "rental_uris": {"android": "https://dc.lft.to/lastmile_qr_scan", "ios": "https://dc.lft.to/lastmile_qr_scan"}, "fusion_lon": 0.0}, {"lat": 38.908639666666666, "is_disabled": 0, "type": "electric_bike", "lon": -76.9401095, "bike_id": "beb4584f41b90a20b54cf6871041d034", "fusion_lat": 0.0, "name": "beb4584f41b90a20b54cf6871041d034", "is_reserved": 0, "rental_uris": {"android": "https://dc.lft.to/lastmile_qr_scan", "ios": "https://dc.lft.to/lastmile_qr_scan"}, "fusion_lon": 0.0}, {"lat": 38.92125683333333, "is_disabled": 0, "type": "electric_scooter", "lon": -77.045644, "bike_id": "5aaf7de1f8e5a2574cf127d1acc4cc77", "fusion_lat": 0.0, "name": "5aaf7de1f8e5a2574cf127d1acc4cc77", "is_reserved": 0, "rental_uris": {"android": "https://dc.lft.to/lastmile_qr_scan", "ios": "https://dc.lft.to/lastmile_qr_scan"}, "fusion_lon": 0.0}, {"lat": 38.845074, "is_disabled": 0, "type": "electric_bike", "lon": -76.99350666666666, "bike_id": "4db6d0f40b797db0a1e32c44205b8d19", "fusion_lat": 0.0, "name": "4db6d0f40b797db0a1e32c44205b8d19", "is_reserved": 0, "rental_uris": {"android": "https://dc.lft.to/lastmile_qr_scan", "ios": "https://dc.lft.to/lastmile_qr_scan"}, "fusion_lon": 0.0}, {"lat": 38.89655366666667, "is_disabled": 0, "type": "electric_scooter", "lon": -77.0052135, "bike_id": "188910ae7cc7d7ca4e174088e2a72f1d", "fusion_lat": 0.0, "name": "188910ae7cc7d7ca4e174088e2a72f1d", "is_reserved": 0, "rental_uris": {"android": "https://dc.lft.to/lastmile_qr_scan", "ios": "https://dc.lft.to/lastmile_qr_scan"}, "fusion_lon": 0.0}, {"lat": 38.903504833333336, "is_disabled": 0, "type": "electric_scooter", "lon": -77.05214366666667, "bike_id": "53b5dd42b1ce5da5adb66563d9a93d6e", "fusion_lat": 0.0, "name": "53b5dd42b1ce5da5adb66563d9a93d6e", "is_reserved": 0, "rental_uris": {"android": "https://dc.lft.to/lastmile_qr_scan", "ios": "https://dc.lft.to/lastmile_qr_scan"}, "fusion_lon": 0.0}, {"lat": 38.94115433333333, "is_disabled": 0, "type": "electric_scooter", "lon": -77.07725066666667, "bike_id": "99dd049046fdd9acf963dc2c63f88c12", "fusion_lat": 0.0, "name": "99dd049046fdd9acf963dc2c63f88c12", "is_reserved": 0, "rental_uris": {"android": "https://dc.lft.to/lastmile_qr_scan", "ios": "https://dc.lft.to/lastmile_qr_scan"}, "fusion_lon": 0.0}, {"lat": 38.918727, "is_disabled": 0, "type": "electric_scooter", "lon": -77.03493783333333, "bike_id": "b41b0f6bd36dd012a8f60963023ff0f1", "fusion_lat": 0.0, "name": "b41b0f6bd36dd012a8f60963023ff0f1", "is_reserved": 0, "rental_uris": {"android": "https://dc.lft.to/lastmile_qr_scan", "ios": "https://dc.lft.to/lastmile_qr_scan"}, "fusion_lon": 0.0}, {"lat": 38.90586833333333, "is_disabled": 0, "type": "electric_scooter", "lon": -76.98619083333334, "bike_id": "207395078062965314cd6a776c4cd97e", "fusion_lat": 0.0, "name": "207395078062965314cd6a776c4cd97e", "is_reserved": 0, "rental_uris": {"android": "https://dc.lft.to/lastmile_qr_scan", "ios": "https://dc.lft.to/lastmile_qr_scan"}, "fusion_lon": 0.0}, {"lat": 38.939167833333336, "is_disabled": 0, "type": "electric_scooter", "lon": -77.066752, "bike_id": "a3da44b781291af699da227dc7619bc9", "fusion_lat": 0.0, "name": "a3da44b781291af699da227dc7619bc9", "is_reserved": 0, "rental_uris": {"android": "https://dc.lft.to/lastmile_qr_scan", "ios": "https://dc.lft.to/lastmile_qr_scan"}, "fusion_lon": 0.0}, {"lat": 38.928828333333335, "is_disabled": 0, "type": "electric_scooter", "lon": -77.05752216666667, "bike_id": "6df34693d38f0a6214c29b2ebd4b8391", "fusion_lat": 0.0, "name": "6df34693d38f0a6214c29b2ebd4b8391", "is_reserved": 0, "rental_uris": {"android": "https://dc.lft.to/lastmile_qr_scan", "ios": "https://dc.lft.to/lastmile_qr_scan"}, "fusion_lon": 0.0}, {"lat": 38.9236245, "is_disabled": 0, "type": "electric_scooter", "lon": -77.0415405, "bike_id": "01c29d14f506226b12ba6d822c0b407b", "fusion_lat": 0.0, "name": "01c29d14f506226b12ba6d822c0b407b", "is_reserved": 0, "rental_uris": {"android": "https://dc.lft.to/lastmile_qr_scan", "ios": "https://dc.lft.to/lastmile_qr_scan"}, "fusion_lon": 0.0}, {"lat": 38.957360666666666, "is_disabled": 0, "type": "electric_scooter", "lon": -77.024007, "bike_id": "69a4b83f2348d8e983aef4bdf957eb26", "fusion_lat": 0.0, "name": "69a4b83f2348d8e983aef4bdf957eb26", "is_reserved": 0, "rental_uris": {"android": "https://dc.lft.to/lastmile_qr_scan", "ios": "https://dc.lft.to/lastmile_qr_scan"}, "fusion_lon": 0.0}, {"lat": 38.946326166666665, "is_disabled": 0, "type": "electric_scooter", "lon": -77.02520283333334, "bike_id": "45b78b2b0f78b1859bc9c0f986c90e52", "fusion_lat": 0.0, "name": "45b78b2b0f78b1859bc9c0f986c90e52", "is_reserved": 0, "rental_uris": {"android": "https://dc.lft.to/lastmile_qr_scan", "ios": "https://dc.lft.to/lastmile_qr_scan"}, "fusion_lon": 0.0}, {"lat": 38.922974333333336, "is_disabled": 0, "type": "electric_scooter", "lon": -77.04266466666667, "bike_id": "8e0acef13a1abef56a974bbea971b2b1", "fusion_lat": 0.0, "name": "8e0acef13a1abef56a974bbea971b2b1", "is_reserved": 0, "rental_uris": {"android": "https://dc.lft.to/lastmile_qr_scan", "ios": "https://dc.lft.to/lastmile_qr_scan"}, "fusion_lon": 0.0}, {"lat": 38.9274145, "is_disabled": 0, "type": "electric_scooter", "lon": -77.0241165, "bike_id": "04fad1ebe190a363100fc817ff5e06f1", "fusion_lat": 0.0, "name": "04fad1ebe190a363100fc817ff5e06f1", "is_reserved": 0, "rental_uris": {"android": "https://dc.lft.to/lastmile_qr_scan", "ios": "https://dc.lft.to/lastmile_qr_scan"}, "fusion_lon": 0.0}, {"lat": 38.89758366666667, "is_disabled": 0, "type": "electric_scooter", "lon": -77.04661216666666, "bike_id": "f44c34495baf706fb592ec2bd3c89169", "fusion_lat": 0.0, "name": "f44c34495baf706fb592ec2bd3c89169", "is_reserved": 0, "rental_uris": {"android": "https://dc.lft.to/lastmile_qr_scan", "ios": "https://dc.lft.to/lastmile_qr_scan"}, "fusion_lon": 0.0}, {"lat": 38.90144816666667, "is_disabled": 0, "type": "electric_scooter", "lon": -77.000682, "bike_id": "28c46ad1efcc924882f9caa6916336f6", "fusion_lat": 0.0, "name": "28c46ad1efcc924882f9caa6916336f6", "is_reserved": 0, "rental_uris": {"android": "https://dc.lft.to/lastmile_qr_scan", "ios": "https://dc.lft.to/lastmile_qr_scan"}, "fusion_lon": 0.0}, {"lat": 38.93356966666666, "is_disabled": 0, "type": "electric_bike", "lon": -77.099597, "bike_id": "2de105ec0cdad8405e0b3b8826b1393d", "fusion_lat": 0.0, "name": "2de105ec0cdad8405e0b3b8826b1393d", "is_reserved": 0, "rental_uris": {"android": "https://dc.lft.to/lastmile_qr_scan", "ios": "https://dc.lft.to/lastmile_qr_scan"}, "fusion_lon": 0.0}, {"lat": 38.9287335, "is_disabled": 0, "type": "electric_scooter", "lon": -77.01386416666666, "bike_id": "b6f798dbb1981089f94393f8bf86692c", "fusion_lat": 0.0, "name": "b6f798dbb1981089f94393f8bf86692c", "is_reserved": 0, "rental_uris": {"android": "https://dc.lft.to/lastmile_qr_scan", "ios": "https://dc.lft.to/lastmile_qr_scan"}, "fusion_lon": 0.0}, {"lat": 38.90073116666667, "is_disabled": 0, "type": "electric_scooter", "lon": -77.00208483333333, "bike_id": "a31774cdf59852885fa3920c70e5c020", "fusion_lat": 0.0, "name": "a31774cdf59852885fa3920c70e5c020", "is_reserved": 0, "rental_uris": {"android": "https://dc.lft.to/lastmile_qr_scan", "ios": "https://dc.lft.to/lastmile_qr_scan"}, "fusion_lon": 0.0}, {"lat": 38.903348333333334, "is_disabled": 0, "type": "electric_scooter", "lon": -77.04479533333334, "bike_id": "33f577b79b1210d3cdb8e92be487b2b9", "fusion_lat": 0.0, "name": "33f577b79b1210d3cdb8e92be487b2b9", "is_reserved": 0, "rental_uris": {"android": "https://dc.lft.to/lastmile_qr_scan", "ios": "https://dc.lft.to/lastmile_qr_scan"}, "fusion_lon": 0.0}, {"lat": 38.95821766666667, "is_disabled": 0, "type": "electric_bike", "lon": -76.94089866666667, "bike_id": "9cc5572e5f0d0bfb1edf59e1862e62dc", "fusion_lat": 0.0, "name": "9cc5572e5f0d0bfb1edf59e1862e62dc", "is_reserved": 0, "rental_uris": {"android": "https://dc.lft.to/lastmile_qr_scan", "ios": "https://dc.lft.to/lastmile_qr_scan"}, "fusion_lon": 0.0}, {"lat": 38.910411333333336, "is_disabled": 0, "type": "electric_scooter", "lon": -77.0151005, "bike_id": "c27384961e0c8a407399eeeaee316372", "fusion_lat": 0.0, "name": "c27384961e0c8a407399eeeaee316372", "is_reserved": 0, "rental_uris": {"android": "https://dc.lft.to/lastmile_qr_scan", "ios": "https://dc.lft.to/lastmile_qr_scan"}, "fusion_lon": 0.0}, {"lat": 38.90266166666667, "is_disabled": 0, "type": "electric_scooter", "lon": -77.03965733333334, "bike_id": "b7702861324f04427eefe5ed770931c5", "fusion_lat": 0.0, "name": "b7702861324f04427eefe5ed770931c5", "is_reserved": 0, "rental_uris": {"android": "https://dc.lft.to/lastmile_qr_scan", "ios": "https://dc.lft.to/lastmile_qr_scan"}, "fusion_lon": 0.0}, {"lat": 38.918738166666664, "is_disabled": 0, "type": "electric_scooter", "lon": -77.01206316666666, "bike_id": "3fab34345f3020a7bcb21bf5b141e03b", "fusion_lat": 0.0, "name": "3fab34345f3020a7bcb21bf5b141e03b", "is_reserved": 0, "rental_uris": {"android": "https://dc.lft.to/lastmile_qr_scan", "ios": "https://dc.lft.to/lastmile_qr_scan"}, "fusion_lon": 0.0}, {"lat": 38.9262005, "is_disabled": 0, "type": "electric_scooter", "lon": -77.04188716666667, "bike_id": "bb741cfe5b598eb7e3c377f0a5d0d8a6", "fusion_lat": 0.0, "name": "bb741cfe5b598eb7e3c377f0a5d0d8a6", "is_reserved": 0, "rental_uris": {"android": "https://dc.lft.to/lastmile_qr_scan", "ios": "https://dc.lft.to/lastmile_qr_scan"}, "fusion_lon": 0.0}, {"lat": 38.906934, "is_disabled": 0, "type": "electric_scooter", "lon": -77.0294975, "bike_id": "33210deb75bfc191f2d9c5fe911b063f", "fusion_lat": 0.0, "name": "33210deb75bfc191f2d9c5fe911b063f", "is_reserved": 0, "rental_uris": {"android": "https://dc.lft.to/lastmile_qr_scan", "ios": "https://dc.lft.to/lastmile_qr_scan"}, "fusion_lon": 0.0}, {"lat": 38.8965, "is_disabled": 0, "type": "electric_scooter", "lon": -77.024094, "bike_id": "b8f95b39fb8486f0e85abdf7421f1728", "fusion_lat": 0.0, "name": "b8f95b39fb8486f0e85abdf7421f1728", "is_reserved": 0, "rental_uris": {"android": "https://dc.lft.to/lastmile_qr_scan", "ios": "https://dc.lft.to/lastmile_qr_scan"}, "fusion_lon": 0.0}, {"lat": 38.9073725, "is_disabled": 0, "type": "electric_scooter", "lon": -77.00930066666666, "bike_id": "8b522e3045a7c589bf43cf5389d4d468", "fusion_lat": 0.0, "name": "8b522e3045a7c589bf43cf5389d4d468", "is_reserved": 0, "rental_uris": {"android": "https://dc.lft.to/lastmile_qr_scan", "ios": "https://dc.lft.to/lastmile_qr_scan"}, "fusion_lon": 0.0}, {"lat": 38.90839066666667, "is_disabled": 0, "type": "electric_scooter", "lon": -77.03461766666666, "bike_id": "f0fc576cf8b08b04c65f44b97e15c4a8", "fusion_lat": 0.0, "name": "f0fc576cf8b08b04c65f44b97e15c4a8", "is_reserved": 0, "rental_uris": {"android": "https://dc.lft.to/lastmile_qr_scan", "ios": "https://dc.lft.to/lastmile_qr_scan"}, "fusion_lon": 0.0}, {"lat": 38.90170533333333, "is_disabled": 0, "type": "electric_scooter", "lon": -77.02498083333333, "bike_id": "313c9a6f7f4bb3f87f807f2b5b2c64fc", "fusion_lat": 0.0, "name": "313c9a6f7f4bb3f87f807f2b5b2c64fc", "is_reserved": 0, "rental_uris": {"android": "https://dc.lft.to/lastmile_qr_scan", "ios": "https://dc.lft.to/lastmile_qr_scan"}, "fusion_lon": 0.0}, {"lat": 38.894975333333335, "is_disabled": 0, "type": "electric_scooter", "lon": -77.0021365, "bike_id": "fbe4b3647ce8f0fc71e169949270fd97", "fusion_lat": 0.0, "name": "fbe4b3647ce8f0fc71e169949270fd97", "is_reserved": 0, "rental_uris": {"android": "https://dc.lft.to/lastmile_qr_scan", "ios": "https://dc.lft.to/lastmile_qr_scan"}, "fusion_lon": 0.0}, {"lat": 38.92030583333333, "is_disabled": 0, "type": "electric_scooter", "lon": -77.01327133333334, "bike_id": "73885904e8fa9f9ed2121d5a941ba06c", "fusion_lat": 0.0, "name": "73885904e8fa9f9ed2121d5a941ba06c", "is_reserved": 0, "rental_uris": {"android": "https://dc.lft.to/lastmile_qr_scan", "ios": "https://dc.lft.to/lastmile_qr_scan"}, "fusion_lon": 0.0}, {"lat": 38.91822166666667, "is_disabled": 0, "type": "electric_scooter", "lon": -77.01214516666667, "bike_id": "8e28197e0fcda479198ec5d882f1a67d", "fusion_lat": 0.0, "name": "8e28197e0fcda479198ec5d882f1a67d", "is_reserved": 0, "rental_uris": {"android": "https://dc.lft.to/lastmile_qr_scan", "ios": "https://dc.lft.to/lastmile_qr_scan"}, "fusion_lon": 0.0}, {"lat": 38.884466833333335, "is_disabled": 0, "type": "electric_scooter", "lon": -77.017561, "bike_id": "5d0d3b84b9c2e83b2ad23270b27e9719", "fusion_lat": 0.0, "name": "5d0d3b84b9c2e83b2ad23270b27e9719", "is_reserved": 0, "rental_uris": {"android": "https://dc.lft.to/lastmile_qr_scan", "ios": "https://dc.lft.to/lastmile_qr_scan"}, "fusion_lon": 0.0}, {"lat": 38.87063716666667, "is_disabled": 0, "type": "electric_scooter", "lon": -77.00839566666667, "bike_id": "3f77ff3dfa49f26b2e4524025c361a2d", "fusion_lat": 0.0, "name": "3f77ff3dfa49f26b2e4524025c361a2d", "is_reserved": 0, "rental_uris": {"android": "https://dc.lft.to/lastmile_qr_scan", "ios": "https://dc.lft.to/lastmile_qr_scan"}, "fusion_lon": 0.0}, {"lat": 38.9207315, "is_disabled": 0, "type": "electric_scooter", "lon": -77.02455066666667, "bike_id": "d64190f313136d0d1786ac53e8ea2393", "fusion_lat": 0.0, "name": "d64190f313136d0d1786ac53e8ea2393", "is_reserved": 0, "rental_uris": {"android": "https://dc.lft.to/lastmile_qr_scan", "ios": "https://dc.lft.to/lastmile_qr_scan"}, "fusion_lon": 0.0}, {"lat": 38.902634166666665, "is_disabled": 0, "type": "electric_scooter", "lon": -77.0034305, "bike_id": "353eca7ee97cb4a12e3e7d2002cd4678", "fusion_lat": 0.0, "name": "353eca7ee97cb4a12e3e7d2002cd4678", "is_reserved": 0, "rental_uris": {"android": "https://dc.lft.to/lastmile_qr_scan", "ios": "https://dc.lft.to/lastmile_qr_scan"}, "fusion_lon": 0.0}, {"lat": 38.90000166666667, "is_disabled": 0, "type": "electric_scooter", "lon": -77.02154816666666, "bike_id": "e6e9058ec960363fc45af23202bd2e18", "fusion_lat": 0.0, "name": "e6e9058ec960363fc45af23202bd2e18", "is_reserved": 0, "rental_uris": {"android": "https://dc.lft.to/lastmile_qr_scan", "ios": "https://dc.lft.to/lastmile_qr_scan"}, "fusion_lon": 0.0}, {"lat": 38.895009, "is_disabled": 0, "type": "electric_scooter", "lon": -77.00321816666667, "bike_id": "1067bd1cc841bdfc6040337849cea0f1", "fusion_lat": 0.0, "name": "1067bd1cc841bdfc6040337849cea0f1", "is_reserved": 0, "rental_uris": {"android": "https://dc.lft.to/lastmile_qr_scan", "ios": "https://dc.lft.to/lastmile_qr_scan"}, "fusion_lon": 0.0}, {"lat": 38.92033883333333, "is_disabled": 0, "type": "electric_scooter", "lon": -77.04187733333333, "bike_id": "34eea280b26182cb9a3b6d68f99229ac", "fusion_lat": 0.0, "name": "34eea280b26182cb9a3b6d68f99229ac", "is_reserved": 0, "rental_uris": {"android": "https://dc.lft.to/lastmile_qr_scan", "ios": "https://dc.lft.to/lastmile_qr_scan"}, "fusion_lon": 0.0}, {"lat": 38.87906816666667, "is_disabled": 0, "type": "electric_scooter", "lon": -77.00906383333333, "bike_id": "096d11cb67cd97d82339ddcc9eb878f0", "fusion_lat": 0.0, "name": "096d11cb67cd97d82339ddcc9eb878f0", "is_reserved": 0, "rental_uris": {"android": "https://dc.lft.to/lastmile_qr_scan", "ios": "https://dc.lft.to/lastmile_qr_scan"}, "fusion_lon": 0.0}, {"lat": 38.89554733333333, "is_disabled": 0, "type": "electric_scooter", "lon": -77.00370066666666, "bike_id": "f5a1a6964d47ad5b553bd2f70306fdb8", "fusion_lat": 0.0, "name": "f5a1a6964d47ad5b553bd2f70306fdb8", "is_reserved": 0, "rental_uris": {"android": "https://dc.lft.to/lastmile_qr_scan", "ios": "https://dc.lft.to/lastmile_qr_scan"}, "fusion_lon": 0.0}, {"lat": 38.87738, "is_disabled": 0, "type": "electric_scooter", "lon": -77.00311166666667, "bike_id": "fe627b7af486676227bf270578c30c66", "fusion_lat": 0.0, "name": "fe627b7af486676227bf270578c30c66", "is_reserved": 0, "rental_uris": {"android": "https://dc.lft.to/lastmile_qr_scan", "ios": "https://dc.lft.to/lastmile_qr_scan"}, "fusion_lon": 0.0}, {"lat": 38.89608166666667, "is_disabled": 0, "type": "electric_scooter", "lon": -76.95663733333333, "bike_id": "dd4758087f232bea421143b69d36096b", "fusion_lat": 0.0, "name": "dd4758087f232bea421143b69d36096b", "is_reserved": 0, "rental_uris": {"android": "https://dc.lft.to/lastmile_qr_scan", "ios": "https://dc.lft.to/lastmile_qr_scan"}, "fusion_lon": 0.0}, {"lat": 38.96202983333333, "is_disabled": 0, "type": "electric_bike", "lon": -77.035114, "bike_id": "e07e0b280720db9f4e78da46d399da7a", "fusion_lat": 0.0, "name": "e07e0b280720db9f4e78da46d399da7a", "is_reserved": 0, "rental_uris": {"android": "https://dc.lft.to/lastmile_qr_scan", "ios": "https://dc.lft.to/lastmile_qr_scan"}, "fusion_lon": 0.0}, {"lat": 38.853208333333335, "is_disabled": 0, "type": "electric_scooter", "lon": -76.980232, "bike_id": "f954eafb823212c42eb783c1dd2d9dab", "fusion_lat": 0.0, "name": "f954eafb823212c42eb783c1dd2d9dab", "is_reserved": 0, "rental_uris": {"android": "https://dc.lft.to/lastmile_qr_scan", "ios": "https://dc.lft.to/lastmile_qr_scan"}, "fusion_lon": 0.0}, {"lat": 38.938668, "is_disabled": 0, "type": "electric_scooter", "lon": -77.03201616666666, "bike_id": "60edafa496c4c4a17f4cff0719345542", "fusion_lat": 0.0, "name": "60edafa496c4c4a17f4cff0719345542", "is_reserved": 0, "rental_uris": {"android": "https://dc.lft.to/lastmile_qr_scan", "ios": "https://dc.lft.to/lastmile_qr_scan"}, "fusion_lon": 0.0}, {"lat": 38.9104855, "is_disabled": 0, "type": "electric_scooter", "lon": -77.01520683333334, "bike_id": "7bc94fc126bf92de5a3cd948a0233f17", "fusion_lat": 0.0, "name": "7bc94fc126bf92de5a3cd948a0233f17", "is_reserved": 0, "rental_uris": {"android": "https://dc.lft.to/lastmile_qr_scan", "ios": "https://dc.lft.to/lastmile_qr_scan"}, "fusion_lon": 0.0}, {"lat": 38.813494666666664, "is_disabled": 0, "type": "electric_bike", "lon": -77.049197, "bike_id": "fcd228f365fe736f0b3dea95021d40a0", "fusion_lat": 0.0, "name": "fcd228f365fe736f0b3dea95021d40a0", "is_reserved": 0, "rental_uris": {"android": "https://dc.lft.to/lastmile_qr_scan", "ios": "https://dc.lft.to/lastmile_qr_scan"}, "fusion_lon": 0.0}, {"lat": 38.8922345, "is_disabled": 0, "type": "electric_scooter", "lon": -77.04870116666666, "bike_id": "4160a4f2c6fed3ff78fce3005c8f6b77", "fusion_lat": 0.0, "name": "4160a4f2c6fed3ff78fce3005c8f6b77", "is_reserved": 0, "rental_uris": {"android": "https://dc.lft.to/lastmile_qr_scan", "ios": "https://dc.lft.to/lastmile_qr_scan"}, "fusion_lon": 0.0}, {"lat": 38.87162983333333, "is_disabled": 0, "type": "electric_scooter", "lon": -77.01364583333333, "bike_id": "8ad2aa4103213ac2e741512882089310", "fusion_lat": 0.0, "name": "8ad2aa4103213ac2e741512882089310", "is_reserved": 0, "rental_uris": {"android": "https://dc.lft.to/lastmile_qr_scan", "ios": "https://dc.lft.to/lastmile_qr_scan"}, "fusion_lon": 0.0}, {"lat": 38.892308, "is_disabled": 0, "type": "electric_scooter", "lon": -77.0499785, "bike_id": "e5106304653913a085efc7380af6a101", "fusion_lat": 0.0, "name": "e5106304653913a085efc7380af6a101", "is_reserved": 0, "rental_uris": {"android": "https://dc.lft.to/lastmile_qr_scan", "ios": "https://dc.lft.to/lastmile_qr_scan"}, "fusion_lon": 0.0}, {"lat": 38.9257855, "is_disabled": 0, "type": "electric_scooter", "lon": -77.0401445, "bike_id": "cf23b723aeccb1b1b62ab0e543a63f92", "fusion_lat": 0.0, "name": "cf23b723aeccb1b1b62ab0e543a63f92", "is_reserved": 0, "rental_uris": {"android": "https://dc.lft.to/lastmile_qr_scan", "ios": "https://dc.lft.to/lastmile_qr_scan"}, "fusion_lon": 0.0}, {"lat": 38.93383166666667, "is_disabled": 0, "type": "electric_scooter", "lon": -76.99511, "bike_id": "9626313a0ebd2b98ccc343d6463a8494", "fusion_lat": 0.0, "name": "9626313a0ebd2b98ccc343d6463a8494", "is_reserved": 0, "rental_uris": {"android": "https://dc.lft.to/lastmile_qr_scan", "ios": "https://dc.lft.to/lastmile_qr_scan"}, "fusion_lon": 0.0}, {"lat": 38.900004333333335, "is_disabled": 0, "type": "electric_scooter", "lon": -77.03322433333334, "bike_id": "c09088874d4250b4ed067bd434b02b82", "fusion_lat": 0.0, "name": "c09088874d4250b4ed067bd434b02b82", "is_reserved": 0, "rental_uris": {"android": "https://dc.lft.to/lastmile_qr_scan", "ios": "https://dc.lft.to/lastmile_qr_scan"}, "fusion_lon": 0.0}, {"lat": 38.949105333333335, "is_disabled": 0, "type": "electric_scooter", "lon": -77.0662735, "bike_id": "976c9ebf38f45a844e937ab1ca14dbcb", "fusion_lat": 0.0, "name": "976c9ebf38f45a844e937ab1ca14dbcb", "is_reserved": 0, "rental_uris": {"android": "https://dc.lft.to/lastmile_qr_scan", "ios": "https://dc.lft.to/lastmile_qr_scan"}, "fusion_lon": 0.0}, {"lat": 38.91630716666667, "is_disabled": 0, "type": "electric_scooter", "lon": -77.02392833333333, "bike_id": "8d608e6cdc16ed4b0c7a8f87347aef8a", "fusion_lat": 0.0, "name": "8d608e6cdc16ed4b0c7a8f87347aef8a", "is_reserved": 0, "rental_uris": {"android": "https://dc.lft.to/lastmile_qr_scan", "ios": "https://dc.lft.to/lastmile_qr_scan"}, "fusion_lon": 0.0}, {"lat": 38.907522666666665, "is_disabled": 0, "type": "electric_scooter", "lon": -76.998723, "bike_id": "afb39d1e62333b2ec0c95caa6fd0d45d", "fusion_lat": 0.0, "name": "afb39d1e62333b2ec0c95caa6fd0d45d", "is_reserved": 0, "rental_uris": {"android": "https://dc.lft.to/lastmile_qr_scan", "ios": "https://dc.lft.to/lastmile_qr_scan"}, "fusion_lon": 0.0}, {"lat": 38.91415333333333, "is_disabled": 0, "type": "electric_scooter", "lon": -77.020221, "bike_id": "1627ecd3ca678d0e33b361b1f00ea108", "fusion_lat": 0.0, "name": "1627ecd3ca678d0e33b361b1f00ea108", "is_reserved": 0, "rental_uris": {"android": "https://dc.lft.to/lastmile_qr_scan", "ios": "https://dc.lft.to/lastmile_qr_scan"}, "fusion_lon": 0.0}, {"lat": 38.949027666666666, "is_disabled": 0, "type": "electric_bike", "lon": -76.9723705, "bike_id": "a043ae6a9edf24794b4d8e80a7323374", "fusion_lat": 0.0, "name": "a043ae6a9edf24794b4d8e80a7323374", "is_reserved": 0, "rental_uris": {"android": "https://dc.lft.to/lastmile_qr_scan", "ios": "https://dc.lft.to/lastmile_qr_scan"}, "fusion_lon": 0.0}, {"lat": 38.90722983333333, "is_disabled": 0, "type": "electric_scooter", "lon": -77.00115733333334, "bike_id": "984329c8899f46eecc210ee85da69cb8", "fusion_lat": 0.0, "name": "984329c8899f46eecc210ee85da69cb8", "is_reserved": 0, "rental_uris": {"android": "https://dc.lft.to/lastmile_qr_scan", "ios": "https://dc.lft.to/lastmile_qr_scan"}, "fusion_lon": 0.0}, {"lat": 38.883357, "is_disabled": 0, "type": "electric_scooter", "lon": -77.009302, "bike_id": "34d8ebfcb7473388f9d70eddbab4f5f5", "fusion_lat": 0.0, "name": "34d8ebfcb7473388f9d70eddbab4f5f5", "is_reserved": 0, "rental_uris": {"android": "https://dc.lft.to/lastmile_qr_scan", "ios": "https://dc.lft.to/lastmile_qr_scan"}, "fusion_lon": 0.0}, {"lat": 38.9268605, "is_disabled": 0, "type": "electric_scooter", "lon": -77.01571633333333, "bike_id": "1481afe9559e5e8ef7e86f81fd4d12b1", "fusion_lat": 0.0, "name": "1481afe9559e5e8ef7e86f81fd4d12b1", "is_reserved": 0, "rental_uris": {"android": "https://dc.lft.to/lastmile_qr_scan", "ios": "https://dc.lft.to/lastmile_qr_scan"}, "fusion_lon": 0.0}, {"lat": 38.921860833333334, "is_disabled": 0, "type": "electric_scooter", "lon": -77.04348416666667, "bike_id": "aa26c231690ea9fd5d4f776b09c0315a", "fusion_lat": 0.0, "name": "aa26c231690ea9fd5d4f776b09c0315a", "is_reserved": 0, "rental_uris": {"android": "https://dc.lft.to/lastmile_qr_scan", "ios": "https://dc.lft.to/lastmile_qr_scan"}, "fusion_lon": 0.0}, {"lat": 38.94088983333333, "is_disabled": 0, "type": "electric_scooter", "lon": -77.06130933333333, "bike_id": "d8a0db9a4af5ba171fc727db09632a8f", "fusion_lat": 0.0, "name": "d8a0db9a4af5ba171fc727db09632a8f", "is_reserved": 0, "rental_uris": {"android": "https://dc.lft.to/lastmile_qr_scan", "ios": "https://dc.lft.to/lastmile_qr_scan"}, "fusion_lon": 0.0}, {"lat": 38.898016, "is_disabled": 0, "type": "electric_scooter", "lon": -77.05009633333333, "bike_id": "73928354786cc5b1604c77d48ae986d1", "fusion_lat": 0.0, "name": "73928354786cc5b1604c77d48ae986d1", "is_reserved": 0, "rental_uris": {"android": "https://dc.lft.to/lastmile_qr_scan", "ios": "https://dc.lft.to/lastmile_qr_scan"}, "fusion_lon": 0.0}, {"lat": 38.9398615, "is_disabled": 0, "type": "electric_scooter", "lon": -77.028877, "bike_id": "3ad9d1f7e5c9fbed2f6892093b0f74e0", "fusion_lat": 0.0, "name": "3ad9d1f7e5c9fbed2f6892093b0f74e0", "is_reserved": 0, "rental_uris": {"android": "https://dc.lft.to/lastmile_qr_scan", "ios": "https://dc.lft.to/lastmile_qr_scan"}, "fusion_lon": 0.0}, {"lat": 38.908654166666665, "is_disabled": 0, "type": "electric_scooter", "lon": -77.00376733333333, "bike_id": "ed8d096673813ce29ee04c8c51afc3d4", "fusion_lat": 0.0, "name": "ed8d096673813ce29ee04c8c51afc3d4", "is_reserved": 0, "rental_uris": {"android": "https://dc.lft.to/lastmile_qr_scan", "ios": "https://dc.lft.to/lastmile_qr_scan"}, "fusion_lon": 0.0}, {"lat": 38.906151666666666, "is_disabled": 0, "type": "electric_scooter", "lon": -77.0340245, "bike_id": "45ff8a4524ddc0bc1760e1dfe111596c", "fusion_lat": 0.0, "name": "45ff8a4524ddc0bc1760e1dfe111596c", "is_reserved": 0, "rental_uris": {"android": "https://dc.lft.to/lastmile_qr_scan", "ios": "https://dc.lft.to/lastmile_qr_scan"}, "fusion_lon": 0.0}, {"lat": 38.85574483333333, "is_disabled": 0, "type": "electric_bike", "lon": -77.11142266666667, "bike_id": "8914b07ec72ce98e0c96b2397bc35c81", "fusion_lat": 0.0, "name": "8914b07ec72ce98e0c96b2397bc35c81", "is_reserved": 0, "rental_uris": {"android": "https://dc.lft.to/lastmile_qr_scan", "ios": "https://dc.lft.to/lastmile_qr_scan"}, "fusion_lon": 0.0}, {"lat": 38.91951383333333, "is_disabled": 0, "type": "electric_scooter", "lon": -76.9807775, "bike_id": "683ab8e895cf0d461ea5e2aba4babb07", "fusion_lat": 0.0, "name": "683ab8e895cf0d461ea5e2aba4babb07", "is_reserved": 0, "rental_uris": {"android": "https://dc.lft.to/lastmile_qr_scan", "ios": "https://dc.lft.to/lastmile_qr_scan"}, "fusion_lon": 0.0}, {"lat": 38.902642666666665, "is_disabled": 0, "type": "electric_scooter", "lon": -77.02825216666666, "bike_id": "d260e4d3dc4af611fdf9bf4f6ca77a3e", "fusion_lat": 0.0, "name": "d260e4d3dc4af611fdf9bf4f6ca77a3e", "is_reserved": 0, "rental_uris": {"android": "https://dc.lft.to/lastmile_qr_scan", "ios": "https://dc.lft.to/lastmile_qr_scan"}, "fusion_lon": 0.0}, {"lat": 38.933212166666664, "is_disabled": 0, "type": "electric_scooter", "lon": -77.04372533333333, "bike_id": "ccb0914cf108afd22679506e7dfb3766", "fusion_lat": 0.0, "name": "ccb0914cf108afd22679506e7dfb3766", "is_reserved": 0, "rental_uris": {"android": "https://dc.lft.to/lastmile_qr_scan", "ios": "https://dc.lft.to/lastmile_qr_scan"}, "fusion_lon": 0.0}, {"lat": 38.89799, "is_disabled": 0, "type": "electric_scooter", "lon": -77.03017483333333, "bike_id": "df43b3797af616d167a19b22c94eeb37", "fusion_lat": 0.0, "name": "df43b3797af616d167a19b22c94eeb37", "is_reserved": 0, "rental_uris": {"android": "https://dc.lft.to/lastmile_qr_scan", "ios": "https://dc.lft.to/lastmile_qr_scan"}, "fusion_lon": 0.0}, {"lat": 38.91723133333333, "is_disabled": 0, "type": "electric_scooter", "lon": -77.04587466666666, "bike_id": "028c41df45d8e1c4bd3ae1a4f5f95ebe", "fusion_lat": 0.0, "name": "028c41df45d8e1c4bd3ae1a4f5f95ebe", "is_reserved": 0, "rental_uris": {"android": "https://dc.lft.to/lastmile_qr_scan", "ios": "https://dc.lft.to/lastmile_qr_scan"}, "fusion_lon": 0.0}, {"lat": 38.886924666666665, "is_disabled": 0, "type": "electric_scooter", "lon": -77.01297083333333, "bike_id": "044434405cf006d1ec1cd0c0327b65b9", "fusion_lat": 0.0, "name": "044434405cf006d1ec1cd0c0327b65b9", "is_reserved": 0, "rental_uris": {"android": "https://dc.lft.to/lastmile_qr_scan", "ios": "https://dc.lft.to/lastmile_qr_scan"}, "fusion_lon": 0.0}, {"lat": 38.800599, "is_disabled": 0, "type": "electric_bike", "lon": -77.071147, "bike_id": "b26153f24ed4170eaba5e2f24a091d46", "fusion_lat": 0.0, "name": "b26153f24ed4170eaba5e2f24a091d46", "is_reserved": 0, "rental_uris": {"android": "https://dc.lft.to/lastmile_qr_scan", "ios": "https://dc.lft.to/lastmile_qr_scan"}, "fusion_lon": 0.0}, {"lat": 38.88494566666667, "is_disabled": 0, "type": "electric_scooter", "lon": -77.00703916666667, "bike_id": "749fe2f0a7e48602c9253452fadf7881", "fusion_lat": 0.0, "name": "749fe2f0a7e48602c9253452fadf7881", "is_reserved": 0, "rental_uris": {"android": "https://dc.lft.to/lastmile_qr_scan", "ios": "https://dc.lft.to/lastmile_qr_scan"}, "fusion_lon": 0.0}, {"lat": 38.86655183333333, "is_disabled": 0, "type": "electric_scooter", "lon": -76.988796, "bike_id": "9ed31e8e182e60277454ace08a84ebc4", "fusion_lat": 0.0, "name": "9ed31e8e182e60277454ace08a84ebc4", "is_reserved": 0, "rental_uris": {"android": "https://dc.lft.to/lastmile_qr_scan", "ios": "https://dc.lft.to/lastmile_qr_scan"}, "fusion_lon": 0.0}, {"lat": 38.9349345, "is_disabled": 0, "type": "electric_bike", "lon": -76.9865425, "bike_id": "15e23af40b8d3f4185b48a9993add383", "fusion_lat": 0.0, "name": "15e23af40b8d3f4185b48a9993add383", "is_reserved": 0, "rental_uris": {"android": "https://dc.lft.to/lastmile_qr_scan", "ios": "https://dc.lft.to/lastmile_qr_scan"}, "fusion_lon": 0.0}, {"lat": 38.9142185, "is_disabled": 0, "type": "electric_scooter", "lon": -77.022028, "bike_id": "e0cd7562fe94e9f7945fbd7fc72c865b", "fusion_lat": 0.0, "name": "e0cd7562fe94e9f7945fbd7fc72c865b", "is_reserved": 0, "rental_uris": {"android": "https://dc.lft.to/lastmile_qr_scan", "ios": "https://dc.lft.to/lastmile_qr_scan"}, "fusion_lon": 0.0}, {"lat": 38.91911966666667, "is_disabled": 0, "type": "electric_scooter", "lon": -77.0416215, "bike_id": "aec0a5834fddef122dbf0c525f7b75c9", "fusion_lat": 0.0, "name": "aec0a5834fddef122dbf0c525f7b75c9", "is_reserved": 0, "rental_uris": {"android": "https://dc.lft.to/lastmile_qr_scan", "ios": "https://dc.lft.to/lastmile_qr_scan"}, "fusion_lon": 0.0}, {"lat": 38.92679033333334, "is_disabled": 0, "type": "electric_scooter", "lon": -77.02866966666667, "bike_id": "435aa75e9589bab60851c6f4774a7621", "fusion_lat": 0.0, "name": "435aa75e9589bab60851c6f4774a7621", "is_reserved": 0, "rental_uris": {"android": "https://dc.lft.to/lastmile_qr_scan", "ios": "https://dc.lft.to/lastmile_qr_scan"}, "fusion_lon": 0.0}, {"lat": 38.97085333333333, "is_disabled": 0, "type": "electric_bike", "lon": -77.06969016666666, "bike_id": "498a52737a71ed09847241ddc6e10ab0", "fusion_lat": 0.0, "name": "498a52737a71ed09847241ddc6e10ab0", "is_reserved": 0, "rental_uris": {"android": "https://dc.lft.to/lastmile_qr_scan", "ios": "https://dc.lft.to/lastmile_qr_scan"}, "fusion_lon": 0.0}, {"lat": 38.92001583333333, "is_disabled": 0, "type": "electric_scooter", "lon": -77.02379116666667, "bike_id": "d490fee7b4270c8dcd24cb530fade10f", "fusion_lat": 0.0, "name": "d490fee7b4270c8dcd24cb530fade10f", "is_reserved": 0, "rental_uris": {"android": "https://dc.lft.to/lastmile_qr_scan", "ios": "https://dc.lft.to/lastmile_qr_scan"}, "fusion_lon": 0.0}, {"lat": 38.8520815, "is_disabled": 0, "type": "electric_bike", "lon": -77.10127283333334, "bike_id": "bdff83429c88cf80ae5db2b9df80ef87", "fusion_lat": 0.0, "name": "bdff83429c88cf80ae5db2b9df80ef87", "is_reserved": 0, "rental_uris": {"android": "https://dc.lft.to/lastmile_qr_scan", "ios": "https://dc.lft.to/lastmile_qr_scan"}, "fusion_lon": 0.0}, {"lat": 38.923320833333335, "is_disabled": 0, "type": "electric_scooter", "lon": -77.03581166666666, "bike_id": "4257ef85ee83cf1ab3b8445a3ccb1018", "fusion_lat": 0.0, "name": "4257ef85ee83cf1ab3b8445a3ccb1018", "is_reserved": 0, "rental_uris": {"android": "https://dc.lft.to/lastmile_qr_scan", "ios": "https://dc.lft.to/lastmile_qr_scan"}, "fusion_lon": 0.0}, {"lat": 38.910070833333336, "is_disabled": 0, "type": "electric_scooter", "lon": -77.0269455, "bike_id": "fa6be94afbd9fa9f385277fccd66e475", "fusion_lat": 0.0, "name": "fa6be94afbd9fa9f385277fccd66e475", "is_reserved": 0, "rental_uris": {"android": "https://dc.lft.to/lastmile_qr_scan", "ios": "https://dc.lft.to/lastmile_qr_scan"}, "fusion_lon": 0.0}, {"lat": 38.912957166666665, "is_disabled": 0, "type": "electric_scooter", "lon": -77.04016166666666, "bike_id": "871ce9a0494850ce731913c47f010c33", "fusion_lat": 0.0, "name": "871ce9a0494850ce731913c47f010c33", "is_reserved": 0, "rental_uris": {"android": "https://dc.lft.to/lastmile_qr_scan", "ios": "https://dc.lft.to/lastmile_qr_scan"}, "fusion_lon": 0.0}, {"lat": 38.917075833333335, "is_disabled": 0, "type": "electric_scooter", "lon": -77.034729, "bike_id": "5abd937d41b4db9cfd72b08e379d0463", "fusion_lat": 0.0, "name": "5abd937d41b4db9cfd72b08e379d0463", "is_reserved": 0, "rental_uris": {"android": "https://dc.lft.to/lastmile_qr_scan", "ios": "https://dc.lft.to/lastmile_qr_scan"}, "fusion_lon": 0.0}, {"lat": 38.884093, "is_disabled": 0, "type": "electric_bike", "lon": -76.96056633333333, "bike_id": "a4ff8e4aa59ebdb39179211e28b5bf92", "fusion_lat": 0.0, "name": "a4ff8e4aa59ebdb39179211e28b5bf92", "is_reserved": 0, "rental_uris": {"android": "https://dc.lft.to/lastmile_qr_scan", "ios": "https://dc.lft.to/lastmile_qr_scan"}, "fusion_lon": 0.0}, {"lat": 38.912576333333334, "is_disabled": 0, "type": "electric_scooter", "lon": -77.03861416666666, "bike_id": "de7a1281d7b606776658208e285069f7", "fusion_lat": 0.0, "name": "de7a1281d7b606776658208e285069f7", "is_reserved": 0, "rental_uris": {"android": "https://dc.lft.to/lastmile_qr_scan", "ios": "https://dc.lft.to/lastmile_qr_scan"}, "fusion_lon": 0.0}, {"lat": 38.904055666666665, "is_disabled": 0, "type": "electric_scooter", "lon": -77.0250365, "bike_id": "815bd6448a5fdd929ac8921ecd4ce649", "fusion_lat": 0.0, "name": "815bd6448a5fdd929ac8921ecd4ce649", "is_reserved": 0, "rental_uris": {"android": "https://dc.lft.to/lastmile_qr_scan", "ios": "https://dc.lft.to/lastmile_qr_scan"}, "fusion_lon": 0.0}, {"lat": 38.900438666666666, "is_disabled": 0, "type": "electric_scooter", "lon": -76.9950535, "bike_id": "137ed2c7c908a2abbd1a72a8fa5d39cf", "fusion_lat": 0.0, "name": "137ed2c7c908a2abbd1a72a8fa5d39cf", "is_reserved": 0, "rental_uris": {"android": "https://dc.lft.to/lastmile_qr_scan", "ios": "https://dc.lft.to/lastmile_qr_scan"}, "fusion_lon": 0.0}, {"lat": 38.929177333333335, "is_disabled": 0, "type": "electric_scooter", "lon": -77.03630183333334, "bike_id": "aa5445388fd1893985ac4235841ead74", "fusion_lat": 0.0, "name": "aa5445388fd1893985ac4235841ead74", "is_reserved": 0, "rental_uris": {"android": "https://dc.lft.to/lastmile_qr_scan", "ios": "https://dc.lft.to/lastmile_qr_scan"}, "fusion_lon": 0.0}, {"lat": 38.909832333333334, "is_disabled": 0, "type": "electric_scooter", "lon": -76.98472066666666, "bike_id": "f5a223e5dd4241859e0daf2fa92c0c14", "fusion_lat": 0.0, "name": "f5a223e5dd4241859e0daf2fa92c0c14", "is_reserved": 0, "rental_uris": {"android": "https://dc.lft.to/lastmile_qr_scan", "ios": "https://dc.lft.to/lastmile_qr_scan"}, "fusion_lon": 0.0}, {"lat": 38.92402533333333, "is_disabled": 0, "type": "electric_scooter", "lon": -77.0254775, "bike_id": "ce05b69d480efebc67eb900445bcd3b5", "fusion_lat": 0.0, "name": "ce05b69d480efebc67eb900445bcd3b5", "is_reserved": 0, "rental_uris": {"android": "https://dc.lft.to/lastmile_qr_scan", "ios": "https://dc.lft.to/lastmile_qr_scan"}, "fusion_lon": 0.0}, {"lat": 38.90829266666667, "is_disabled": 0, "type": "electric_scooter", "lon": -76.9414655, "bike_id": "f9907bc535b231ca03200583ec7b4686", "fusion_lat": 0.0, "name": "f9907bc535b231ca03200583ec7b4686", "is_reserved": 0, "rental_uris": {"android": "https://dc.lft.to/lastmile_qr_scan", "ios": "https://dc.lft.to/lastmile_qr_scan"}, "fusion_lon": 0.0}, {"lat": 38.839813666666664, "is_disabled": 0, "type": "electric_bike", "lon": -77.0057495, "bike_id": "13e8096df6eef49e6d8b85ef384eb0c7", "fusion_lat": 0.0, "name": "13e8096df6eef49e6d8b85ef384eb0c7", "is_reserved": 0, "rental_uris": {"android": "https://dc.lft.to/lastmile_qr_scan", "ios": "https://dc.lft.to/lastmile_qr_scan"}, "fusion_lon": 0.0}, {"lat": 38.936354333333334, "is_disabled": 0, "type": "electric_scooter", "lon": -77.0365995, "bike_id": "f09e3f86cfcb4b3a309feb191f65e6d5", "fusion_lat": 0.0, "name": "f09e3f86cfcb4b3a309feb191f65e6d5", "is_reserved": 0, "rental_uris": {"android": "https://dc.lft.to/lastmile_qr_scan", "ios": "https://dc.lft.to/lastmile_qr_scan"}, "fusion_lon": 0.0}, {"lat": 38.880126, "is_disabled": 0, "type": "electric_scooter", "lon": -77.02472833333333, "bike_id": "beaf070b29acdde479cc826a28c843ee", "fusion_lat": 0.0, "name": "beaf070b29acdde479cc826a28c843ee", "is_reserved": 0, "rental_uris": {"android": "https://dc.lft.to/lastmile_qr_scan", "ios": "https://dc.lft.to/lastmile_qr_scan"}, "fusion_lon": 0.0}, {"lat": 38.929593833333335, "is_disabled": 0, "type": "electric_scooter", "lon": -77.03160733333333, "bike_id": "5a95d34c0a99762517c540f969d0f264", "fusion_lat": 0.0, "name": "5a95d34c0a99762517c540f969d0f264", "is_reserved": 0, "rental_uris": {"android": "https://dc.lft.to/lastmile_qr_scan", "ios": "https://dc.lft.to/lastmile_qr_scan"}, "fusion_lon": 0.0}, {"lat": 38.92402383333334, "is_disabled": 0, "type": "electric_scooter", "lon": -77.05257783333333, "bike_id": "9b55d737a65b77f11ea49da9d5401853", "fusion_lat": 0.0, "name": "9b55d737a65b77f11ea49da9d5401853", "is_reserved": 0, "rental_uris": {"android": "https://dc.lft.to/lastmile_qr_scan", "ios": "https://dc.lft.to/lastmile_qr_scan"}, "fusion_lon": 0.0}, {"lat": 38.89880516666667, "is_disabled": 0, "type": "electric_scooter", "lon": -77.05339316666667, "bike_id": "c69d70b1258f17dbafb1d0bc3945ee39", "fusion_lat": 0.0, "name": "c69d70b1258f17dbafb1d0bc3945ee39", "is_reserved": 0, "rental_uris": {"android": "https://dc.lft.to/lastmile_qr_scan", "ios": "https://dc.lft.to/lastmile_qr_scan"}, "fusion_lon": 0.0}, {"lat": 38.88276183333333, "is_disabled": 0, "type": "electric_bike", "lon": -76.98777483333333, "bike_id": "4fb237338ad753cfe4fddc29112ffdbd", "fusion_lat": 0.0, "name": "4fb237338ad753cfe4fddc29112ffdbd", "is_reserved": 0, "rental_uris": {"android": "https://dc.lft.to/lastmile_qr_scan", "ios": "https://dc.lft.to/lastmile_qr_scan"}, "fusion_lon": 0.0}, {"lat": 38.899158666666665, "is_disabled": 0, "type": "electric_scooter", "lon": -76.93385333333333, "bike_id": "1d1743c022b2c7d83b27c1777df80c96", "fusion_lat": 0.0, "name": "1d1743c022b2c7d83b27c1777df80c96", "is_reserved": 0, "rental_uris": {"android": "https://dc.lft.to/lastmile_qr_scan", "ios": "https://dc.lft.to/lastmile_qr_scan"}, "fusion_lon": 0.0}, {"lat": 38.863448166666664, "is_disabled": 0, "type": "electric_scooter", "lon": -76.99005033333333, "bike_id": "9f1e446433c6c6ca8262921644774204", "fusion_lat": 0.0, "name": "9f1e446433c6c6ca8262921644774204", "is_reserved": 0, "rental_uris": {"android": "https://dc.lft.to/lastmile_qr_scan", "ios": "https://dc.lft.to/lastmile_qr_scan"}, "fusion_lon": 0.0}, {"lat": 38.955555833333335, "is_disabled": 0, "type": "electric_bike", "lon": -76.9354455, "bike_id": "e008cfc48b25310978e9e8aed0c865e7", "fusion_lat": 0.0, "name": "e008cfc48b25310978e9e8aed0c865e7", "is_reserved": 0, "rental_uris": {"android": "https://dc.lft.to/lastmile_qr_scan", "ios": "https://dc.lft.to/lastmile_qr_scan"}, "fusion_lon": 0.0}, {"lat": 38.84864616666667, "is_disabled": 0, "type": "electric_scooter", "lon": -76.97696933333333, "bike_id": "93c7f5bb3e639ffcf3553a65c1ed7633", "fusion_lat": 0.0, "name": "93c7f5bb3e639ffcf3553a65c1ed7633", "is_reserved": 0, "rental_uris": {"android": "https://dc.lft.to/lastmile_qr_scan", "ios": "https://dc.lft.to/lastmile_qr_scan"}, "fusion_lon": 0.0}, {"lat": 38.91255133333333, "is_disabled": 0, "type": "electric_scooter", "lon": -77.04773866666666, "bike_id": "03da29212660b423e496a3df8ef186c4", "fusion_lat": 0.0, "name": "03da29212660b423e496a3df8ef186c4", "is_reserved": 0, "rental_uris": {"android": "https://dc.lft.to/lastmile_qr_scan", "ios": "https://dc.lft.to/lastmile_qr_scan"}, "fusion_lon": 0.0}, {"lat": 38.915505833333334, "is_disabled": 0, "type": "electric_scooter", "lon": -77.024286, "bike_id": "4515da45b121d97eef8155c3bf45e3c7", "fusion_lat": 0.0, "name": "4515da45b121d97eef8155c3bf45e3c7", "is_reserved": 0, "rental_uris": {"android": "https://dc.lft.to/lastmile_qr_scan", "ios": "https://dc.lft.to/lastmile_qr_scan"}, "fusion_lon": 0.0}, {"lat": 38.87980616666667, "is_disabled": 0, "type": "electric_bike", "lon": -76.91598933333333, "bike_id": "94ac8151857e38476fa9e6c0d4caa6a1", "fusion_lat": 0.0, "name": "94ac8151857e38476fa9e6c0d4caa6a1", "is_reserved": 0, "rental_uris": {"android": "https://dc.lft.to/lastmile_qr_scan", "ios": "https://dc.lft.to/lastmile_qr_scan"}, "fusion_lon": 0.0}, {"lat": 38.909347333333336, "is_disabled": 0, "type": "electric_scooter", "lon": -77.03862466666666, "bike_id": "b779118f616962d5c1c3cb02a7b00454", "fusion_lat": 0.0, "name": "b779118f616962d5c1c3cb02a7b00454", "is_reserved": 0, "rental_uris": {"android": "https://dc.lft.to/lastmile_qr_scan", "ios": "https://dc.lft.to/lastmile_qr_scan"}, "fusion_lon": 0.0}, {"lat": 38.908548833333334, "is_disabled": 0, "type": "electric_scooter", "lon": -77.047761, "bike_id": "ef50eb68cc4fe92e4d058a8696b3d548", "fusion_lat": 0.0, "name": "ef50eb68cc4fe92e4d058a8696b3d548", "is_reserved": 0, "rental_uris": {"android": "https://dc.lft.to/lastmile_qr_scan", "ios": "https://dc.lft.to/lastmile_qr_scan"}, "fusion_lon": 0.0}, {"lat": 38.862554333333335, "is_disabled": 0, "type": "electric_scooter", "lon": -76.99510916666667, "bike_id": "731d683dbf366c6cbfc4728d04ffc250", "fusion_lat": 0.0, "name": "731d683dbf366c6cbfc4728d04ffc250", "is_reserved": 0, "rental_uris": {"android": "https://dc.lft.to/lastmile_qr_scan", "ios": "https://dc.lft.to/lastmile_qr_scan"}, "fusion_lon": 0.0}, {"lat": 38.94085116666667, "is_disabled": 0, "type": "electric_scooter", "lon": -77.022997, "bike_id": "4065a9e4c49a31ead63af42570024930", "fusion_lat": 0.0, "name": "4065a9e4c49a31ead63af42570024930", "is_reserved": 0, "rental_uris": {"android": "https://dc.lft.to/lastmile_qr_scan", "ios": "https://dc.lft.to/lastmile_qr_scan"}, "fusion_lon": 0.0}, {"lat": 38.90072416666667, "is_disabled": 0, "type": "electric_scooter", "lon": -77.02711033333334, "bike_id": "f2b49f3205057faf09cacaa0cc301392", "fusion_lat": 0.0, "name": "f2b49f3205057faf09cacaa0cc301392", "is_reserved": 0, "rental_uris": {"android": "https://dc.lft.to/lastmile_qr_scan", "ios": "https://dc.lft.to/lastmile_qr_scan"}, "fusion_lon": 0.0}, {"lat": 38.8616295, "is_disabled": 0, "type": "electric_bike", "lon": -77.130942, "bike_id": "b140c6331be6ab3de41802e82b85b1d9", "fusion_lat": 0.0, "name": "b140c6331be6ab3de41802e82b85b1d9", "is_reserved": 0, "rental_uris": {"android": "https://dc.lft.to/lastmile_qr_scan", "ios": "https://dc.lft.to/lastmile_qr_scan"}, "fusion_lon": 0.0}, {"lat": 38.902243166666665, "is_disabled": 0, "type": "electric_scooter", "lon": -77.04586933333333, "bike_id": "69c47eda8772808f88ced09f13bec9a1", "fusion_lat": 0.0, "name": "69c47eda8772808f88ced09f13bec9a1", "is_reserved": 0, "rental_uris": {"android": "https://dc.lft.to/lastmile_qr_scan", "ios": "https://dc.lft.to/lastmile_qr_scan"}, "fusion_lon": 0.0}, {"lat": 38.924952833333336, "is_disabled": 0, "type": "electric_scooter", "lon": -77.0215055, "bike_id": "4ef5290588ed6a4a54a1dd45b57a0867", "fusion_lat": 0.0, "name": "4ef5290588ed6a4a54a1dd45b57a0867", "is_reserved": 0, "rental_uris": {"android": "https://dc.lft.to/lastmile_qr_scan", "ios": "https://dc.lft.to/lastmile_qr_scan"}, "fusion_lon": 0.0}, {"lat": 38.88926933333333, "is_disabled": 0, "type": "electric_scooter", "lon": -76.973748, "bike_id": "174ad4e843979e8c66cbf2147f91e922", "fusion_lat": 0.0, "name": "174ad4e843979e8c66cbf2147f91e922", "is_reserved": 0, "rental_uris": {"android": "https://dc.lft.to/lastmile_qr_scan", "ios": "https://dc.lft.to/lastmile_qr_scan"}, "fusion_lon": 0.0}, {"lat": 38.87628983333333, "is_disabled": 0, "type": "electric_scooter", "lon": -76.96525733333333, "bike_id": "70c4147a62b87c8ec2ab3250d9cb1ff3", "fusion_lat": 0.0, "name": "70c4147a62b87c8ec2ab3250d9cb1ff3", "is_reserved": 0, "rental_uris": {"android": "https://dc.lft.to/lastmile_qr_scan", "ios": "https://dc.lft.to/lastmile_qr_scan"}, "fusion_lon": 0.0}, {"lat": 38.90608133333333, "is_disabled": 0, "type": "electric_scooter", "lon": -76.9898115, "bike_id": "0640a16ef7337c01589dd0b575a6b34b", "fusion_lat": 0.0, "name": "0640a16ef7337c01589dd0b575a6b34b", "is_reserved": 0, "rental_uris": {"android": "https://dc.lft.to/lastmile_qr_scan", "ios": "https://dc.lft.to/lastmile_qr_scan"}, "fusion_lon": 0.0}, {"lat": 38.869973, "is_disabled": 0, "type": "electric_bike", "lon": -77.065698, "bike_id": "37d54f657ed847a476535e9ae421958e", "fusion_lat": 0.0, "name": "37d54f657ed847a476535e9ae421958e", "is_reserved": 0, "rental_uris": {"android": "https://dc.lft.to/lastmile_qr_scan", "ios": "https://dc.lft.to/lastmile_qr_scan"}, "fusion_lon": 0.0}, {"lat": 38.93447583333333, "is_disabled": 0, "type": "electric_scooter", "lon": -77.03081316666666, "bike_id": "8a743ba5ac69ee8c244e25fdd66105c8", "fusion_lat": 0.0, "name": "8a743ba5ac69ee8c244e25fdd66105c8", "is_reserved": 0, "rental_uris": {"android": "https://dc.lft.to/lastmile_qr_scan", "ios": "https://dc.lft.to/lastmile_qr_scan"}, "fusion_lon": 0.0}, {"lat": 38.9036005, "is_disabled": 0, "type": "electric_scooter", "lon": -77.04232733333333, "bike_id": "44ee12a3ae48a287ababe0cffbf1bb44", "fusion_lat": 0.0, "name": "44ee12a3ae48a287ababe0cffbf1bb44", "is_reserved": 0, "rental_uris": {"android": "https://dc.lft.to/lastmile_qr_scan", "ios": "https://dc.lft.to/lastmile_qr_scan"}, "fusion_lon": 0.0}, {"lat": 38.900349, "is_disabled": 0, "type": "electric_scooter", "lon": -76.9837715, "bike_id": "3167b3f049047ae81ffac59156454c3b", "fusion_lat": 0.0, "name": "3167b3f049047ae81ffac59156454c3b", "is_reserved": 0, "rental_uris": {"android": "https://dc.lft.to/lastmile_qr_scan", "ios": "https://dc.lft.to/lastmile_qr_scan"}, "fusion_lon": 0.0}, {"lat": 38.865248333333334, "is_disabled": 0, "type": "electric_scooter", "lon": -76.99029533333334, "bike_id": "fce8791160e4e3b4431c67674b0b7bca", "fusion_lat": 0.0, "name": "fce8791160e4e3b4431c67674b0b7bca", "is_reserved": 0, "rental_uris": {"android": "https://dc.lft.to/lastmile_qr_scan", "ios": "https://dc.lft.to/lastmile_qr_scan"}, "fusion_lon": 0.0}, {"lat": 38.8593555, "is_disabled": 0, "type": "electric_scooter", "lon": -76.997145, "bike_id": "b6b72a0780127f34cf4a820c3d00cbb2", "fusion_lat": 0.0, "name": "b6b72a0780127f34cf4a820c3d00cbb2", "is_reserved": 0, "rental_uris": {"android": "https://dc.lft.to/lastmile_qr_scan", "ios": "https://dc.lft.to/lastmile_qr_scan"}, "fusion_lon": 0.0}, {"lat": 38.8341155, "is_disabled": 0, "type": "electric_bike", "lon": -77.10388566666667, "bike_id": "ceb84a6d8ec81e251135ca6c23bf84da", "fusion_lat": 0.0, "name": "ceb84a6d8ec81e251135ca6c23bf84da", "is_reserved": 0, "rental_uris": {"android": "https://dc.lft.to/lastmile_qr_scan", "ios": "https://dc.lft.to/lastmile_qr_scan"}, "fusion_lon": 0.0}, {"lat": 38.844704, "is_disabled": 0, "type": "electric_bike", "lon": -76.98748316666666, "bike_id": "ec98f33ecd587e244f63fec423345c79", "fusion_lat": 0.0, "name": "ec98f33ecd587e244f63fec423345c79", "is_reserved": 0, "rental_uris": {"android": "https://dc.lft.to/lastmile_qr_scan", "ios": "https://dc.lft.to/lastmile_qr_scan"}, "fusion_lon": 0.0}, {"lat": 38.904955666666666, "is_disabled": 0, "type": "electric_scooter", "lon": -77.02964816666666, "bike_id": "6fa4de50f712b7380953f96df4cea70b", "fusion_lat": 0.0, "name": "6fa4de50f712b7380953f96df4cea70b", "is_reserved": 0, "rental_uris": {"android": "https://dc.lft.to/lastmile_qr_scan", "ios": "https://dc.lft.to/lastmile_qr_scan"}, "fusion_lon": 0.0}, {"lat": 38.92407083333333, "is_disabled": 0, "type": "electric_scooter", "lon": -77.0274015, "bike_id": "c9169fda892e2ca2c251d0f9561ab400", "fusion_lat": 0.0, "name": "c9169fda892e2ca2c251d0f9561ab400", "is_reserved": 0, "rental_uris": {"android": "https://dc.lft.to/lastmile_qr_scan", "ios": "https://dc.lft.to/lastmile_qr_scan"}, "fusion_lon": 0.0}, {"lat": 38.879883666666665, "is_disabled": 0, "type": "electric_scooter", "lon": -76.98679633333333, "bike_id": "66cc6a3ae15af2c3a622e7e51b5c5183", "fusion_lat": 0.0, "name": "66cc6a3ae15af2c3a622e7e51b5c5183", "is_reserved": 0, "rental_uris": {"android": "https://dc.lft.to/lastmile_qr_scan", "ios": "https://dc.lft.to/lastmile_qr_scan"}, "fusion_lon": 0.0}, {"lat": 38.93613633333333, "is_disabled": 0, "type": "electric_scooter", "lon": -77.05752216666667, "bike_id": "e7a7440558002562606c7a914e1225f7", "fusion_lat": 0.0, "name": "e7a7440558002562606c7a914e1225f7", "is_reserved": 0, "rental_uris": {"android": "https://dc.lft.to/lastmile_qr_scan", "ios": "https://dc.lft.to/lastmile_qr_scan"}, "fusion_lon": 0.0}, {"lat": 38.92507966666667, "is_disabled": 0, "type": "electric_scooter", "lon": -77.076432, "bike_id": "a7d07ed1b3a049d614c5345d7884bfea", "fusion_lat": 0.0, "name": "a7d07ed1b3a049d614c5345d7884bfea", "is_reserved": 0, "rental_uris": {"android": "https://dc.lft.to/lastmile_qr_scan", "ios": "https://dc.lft.to/lastmile_qr_scan"}, "fusion_lon": 0.0}, {"lat": 38.867025166666664, "is_disabled": 0, "type": "electric_scooter", "lon": -76.98712383333333, "bike_id": "01efb4fb0507dd743e0fef8e3f7b4108", "fusion_lat": 0.0, "name": "01efb4fb0507dd743e0fef8e3f7b4108", "is_reserved": 0, "rental_uris": {"android": "https://dc.lft.to/lastmile_qr_scan", "ios": "https://dc.lft.to/lastmile_qr_scan"}, "fusion_lon": 0.0}, {"lat": 38.90241666666667, "is_disabled": 0, "type": "electric_scooter", "lon": -77.01761, "bike_id": "15dc4a048c4e1b00780e8bb281ed488b", "fusion_lat": 0.0, "name": "15dc4a048c4e1b00780e8bb281ed488b", "is_reserved": 0, "rental_uris": {"android": "https://dc.lft.to/lastmile_qr_scan", "ios": "https://dc.lft.to/lastmile_qr_scan"}, "fusion_lon": 0.0}, {"lat": 38.93251983333333, "is_disabled": 0, "type": "electric_scooter", "lon": -77.06658966666667, "bike_id": "e6c86f053b1c2f98cff22fe75af5b3d8", "fusion_lat": 0.0, "name": "e6c86f053b1c2f98cff22fe75af5b3d8", "is_reserved": 0, "rental_uris": {"android": "https://dc.lft.to/lastmile_qr_scan", "ios": "https://dc.lft.to/lastmile_qr_scan"}, "fusion_lon": 0.0}, {"lat": 38.9026495, "is_disabled": 0, "type": "electric_scooter", "lon": -77.02008566666666, "bike_id": "c96974f1d0823974efb125ed39ec2b8a", "fusion_lat": 0.0, "name": "c96974f1d0823974efb125ed39ec2b8a", "is_reserved": 0, "rental_uris": {"android": "https://dc.lft.to/lastmile_qr_scan", "ios": "https://dc.lft.to/lastmile_qr_scan"}, "fusion_lon": 0.0}, {"lat": 38.89770866666667, "is_disabled": 0, "type": "electric_scooter", "lon": -77.05011766666667, "bike_id": "73f409ec8087b969e89a264db76a3dc0", "fusion_lat": 0.0, "name": "73f409ec8087b969e89a264db76a3dc0", "is_reserved": 0, "rental_uris": {"android": "https://dc.lft.to/lastmile_qr_scan", "ios": "https://dc.lft.to/lastmile_qr_scan"}, "fusion_lon": 0.0}, {"lat": 38.8848165, "is_disabled": 0, "type": "electric_scooter", "lon": -76.94522916666666, "bike_id": "f44cc89daa52c70c905c3c75cb06aa9a", "fusion_lat": 0.0, "name": "f44cc89daa52c70c905c3c75cb06aa9a", "is_reserved": 0, "rental_uris": {"android": "https://dc.lft.to/lastmile_qr_scan", "ios": "https://dc.lft.to/lastmile_qr_scan"}, "fusion_lon": 0.0}, {"lat": 38.93080283333333, "is_disabled": 0, "type": "electric_scooter", "lon": -77.07762383333333, "bike_id": "30f54c61d153f44aea5481099c646c73", "fusion_lat": 0.0, "name": "30f54c61d153f44aea5481099c646c73", "is_reserved": 0, "rental_uris": {"android": "https://dc.lft.to/lastmile_qr_scan", "ios": "https://dc.lft.to/lastmile_qr_scan"}, "fusion_lon": 0.0}, {"lat": 38.91781433333333, "is_disabled": 0, "type": "electric_scooter", "lon": -77.02234233333333, "bike_id": "04b83c73e572f7478140c79c0b5b4df7", "fusion_lat": 0.0, "name": "04b83c73e572f7478140c79c0b5b4df7", "is_reserved": 0, "rental_uris": {"android": "https://dc.lft.to/lastmile_qr_scan", "ios": "https://dc.lft.to/lastmile_qr_scan"}, "fusion_lon": 0.0}, {"lat": 38.9002545, "is_disabled": 0, "type": "electric_scooter", "lon": -76.983727, "bike_id": "ec6c330c41f65fde60ef24eb0b49fa91", "fusion_lat": 0.0, "name": "ec6c330c41f65fde60ef24eb0b49fa91", "is_reserved": 0, "rental_uris": {"android": "https://dc.lft.to/lastmile_qr_scan", "ios": "https://dc.lft.to/lastmile_qr_scan"}, "fusion_lon": 0.0}, {"lat": 38.9019515, "is_disabled": 0, "type": "electric_scooter", "lon": -77.02423366666666, "bike_id": "ec64c85e3696a437e9ec31d9ac79197b", "fusion_lat": 0.0, "name": "ec64c85e3696a437e9ec31d9ac79197b", "is_reserved": 0, "rental_uris": {"android": "https://dc.lft.to/lastmile_qr_scan", "ios": "https://dc.lft.to/lastmile_qr_scan"}, "fusion_lon": 0.0}, {"lat": 38.94070283333333, "is_disabled": 0, "type": "electric_scooter", "lon": -76.994628, "bike_id": "1ff644a75e995cb292a65c76ac772dca", "fusion_lat": 0.0, "name": "1ff644a75e995cb292a65c76ac772dca", "is_reserved": 0, "rental_uris": {"android": "https://dc.lft.to/lastmile_qr_scan", "ios": "https://dc.lft.to/lastmile_qr_scan"}, "fusion_lon": 0.0}, {"lat": 38.9313725, "is_disabled": 0, "type": "electric_scooter", "lon": -77.02144616666666, "bike_id": "ea01e23503d9c69267a2a034bb0f8f4c", "fusion_lat": 0.0, "name": "ea01e23503d9c69267a2a034bb0f8f4c", "is_reserved": 0, "rental_uris": {"android": "https://dc.lft.to/lastmile_qr_scan", "ios": "https://dc.lft.to/lastmile_qr_scan"}, "fusion_lon": 0.0}, {"lat": 38.85024633333333, "is_disabled": 0, "type": "electric_bike", "lon": -77.0980405, "bike_id": "176fd283dfc83f549bce5279fd8f331d", "fusion_lat": 0.0, "name": "176fd283dfc83f549bce5279fd8f331d", "is_reserved": 0, "rental_uris": {"android": "https://dc.lft.to/lastmile_qr_scan", "ios": "https://dc.lft.to/lastmile_qr_scan"}, "fusion_lon": 0.0}, {"lat": 38.9077745, "is_disabled": 0, "type": "electric_scooter", "lon": -77.03861683333334, "bike_id": "a5b1c1f8146f212e86e5a92f2d86f54b", "fusion_lat": 0.0, "name": "a5b1c1f8146f212e86e5a92f2d86f54b", "is_reserved": 0, "rental_uris": {"android": "https://dc.lft.to/lastmile_qr_scan", "ios": "https://dc.lft.to/lastmile_qr_scan"}, "fusion_lon": 0.0}, {"lat": 38.8688845, "is_disabled": 0, "type": "electric_scooter", "lon": -76.983147, "bike_id": "e20d06d607dcae557fd3c28522503d96", "fusion_lat": 0.0, "name": "e20d06d607dcae557fd3c28522503d96", "is_reserved": 0, "rental_uris": {"android": "https://dc.lft.to/lastmile_qr_scan", "ios": "https://dc.lft.to/lastmile_qr_scan"}, "fusion_lon": 0.0}, {"lat": 38.8825895, "is_disabled": 0, "type": "electric_scooter", "lon": -77.0043765, "bike_id": "a058703a3a5c485b10b9f068c4551d9d", "fusion_lat": 0.0, "name": "a058703a3a5c485b10b9f068c4551d9d", "is_reserved": 0, "rental_uris": {"android": "https://dc.lft.to/lastmile_qr_scan", "ios": "https://dc.lft.to/lastmile_qr_scan"}, "fusion_lon": 0.0}, {"lat": 38.900001333333336, "is_disabled": 0, "type": "electric_scooter", "lon": -77.04041933333333, "bike_id": "1463ec4b3a4de939ab39f87bbbd229c2", "fusion_lat": 0.0, "name": "1463ec4b3a4de939ab39f87bbbd229c2", "is_reserved": 0, "rental_uris": {"android": "https://dc.lft.to/lastmile_qr_scan", "ios": "https://dc.lft.to/lastmile_qr_scan"}, "fusion_lon": 0.0}, {"lat": 38.90559283333333, "is_disabled": 0, "type": "electric_scooter", "lon": -77.00857416666666, "bike_id": "996e92b4e5655b35506e6da10a2e3ea5", "fusion_lat": 0.0, "name": "996e92b4e5655b35506e6da10a2e3ea5", "is_reserved": 0, "rental_uris": {"android": "https://dc.lft.to/lastmile_qr_scan", "ios": "https://dc.lft.to/lastmile_qr_scan"}, "fusion_lon": 0.0}, {"lat": 38.89897783333333, "is_disabled": 0, "type": "electric_scooter", "lon": -76.997324, "bike_id": "9d017a20984128d77e11c13a0ada897d", "fusion_lat": 0.0, "name": "9d017a20984128d77e11c13a0ada897d", "is_reserved": 0, "rental_uris": {"android": "https://dc.lft.to/lastmile_qr_scan", "ios": "https://dc.lft.to/lastmile_qr_scan"}, "fusion_lon": 0.0}, {"lat": 38.9037355, "is_disabled": 0, "type": "electric_scooter", "lon": -77.01625366666667, "bike_id": "5eb8397c2beb894f1757ebcacb00db60", "fusion_lat": 0.0, "name": "5eb8397c2beb894f1757ebcacb00db60", "is_reserved": 0, "rental_uris": {"android": "https://dc.lft.to/lastmile_qr_scan", "ios": "https://dc.lft.to/lastmile_qr_scan"}, "fusion_lon": 0.0}, {"lat": 38.900400166666664, "is_disabled": 0, "type": "electric_scooter", "lon": -77.01295016666667, "bike_id": "309f96aa0accec220d19470ead7a0ec8", "fusion_lat": 0.0, "name": "309f96aa0accec220d19470ead7a0ec8", "is_reserved": 0, "rental_uris": {"android": "https://dc.lft.to/lastmile_qr_scan", "ios": "https://dc.lft.to/lastmile_qr_scan"}, "fusion_lon": 0.0}, {"lat": 38.911862, "is_disabled": 0, "type": "electric_scooter", "lon": -77.00253683333334, "bike_id": "03bef699f446bda30a61543794071056", "fusion_lat": 0.0, "name": "03bef699f446bda30a61543794071056", "is_reserved": 0, "rental_uris": {"android": "https://dc.lft.to/lastmile_qr_scan", "ios": "https://dc.lft.to/lastmile_qr_scan"}, "fusion_lon": 0.0}, {"lat": 38.90968983333333, "is_disabled": 0, "type": "electric_scooter", "lon": -77.03181033333334, "bike_id": "d1f37069280b77aaca7060d0ee101b9b", "fusion_lat": 0.0, "name": "d1f37069280b77aaca7060d0ee101b9b", "is_reserved": 0, "rental_uris": {"android": "https://dc.lft.to/lastmile_qr_scan", "ios": "https://dc.lft.to/lastmile_qr_scan"}, "fusion_lon": 0.0}, {"lat": 38.9029635, "is_disabled": 0, "type": "electric_scooter", "lon": -77.00204316666667, "bike_id": "ea3a3d2a39f438d7789dede62a46c525", "fusion_lat": 0.0, "name": "ea3a3d2a39f438d7789dede62a46c525", "is_reserved": 0, "rental_uris": {"android": "https://dc.lft.to/lastmile_qr_scan", "ios": "https://dc.lft.to/lastmile_qr_scan"}, "fusion_lon": 0.0}, {"lat": 38.918161, "is_disabled": 0, "type": "electric_scooter", "lon": -77.01390466666666, "bike_id": "6f9db905c95374020bef7bc0b9f350ef", "fusion_lat": 0.0, "name": "6f9db905c95374020bef7bc0b9f350ef", "is_reserved": 0, "rental_uris": {"android": "https://dc.lft.to/lastmile_qr_scan", "ios": "https://dc.lft.to/lastmile_qr_scan"}, "fusion_lon": 0.0}, {"lat": 38.906374166666666, "is_disabled": 0, "type": "electric_scooter", "lon": -77.03393966666667, "bike_id": "d53a0acffb890504c97e2225de23bf14", "fusion_lat": 0.0, "name": "d53a0acffb890504c97e2225de23bf14", "is_reserved": 0, "rental_uris": {"android": "https://dc.lft.to/lastmile_qr_scan", "ios": "https://dc.lft.to/lastmile_qr_scan"}, "fusion_lon": 0.0}, {"lat": 38.911249166666664, "is_disabled": 0, "type": "electric_scooter", "lon": -77.03828433333334, "bike_id": "65d55c9caa2ddc1a322d879a4aa56efe", "fusion_lat": 0.0, "name": "65d55c9caa2ddc1a322d879a4aa56efe", "is_reserved": 0, "rental_uris": {"android": "https://dc.lft.to/lastmile_qr_scan", "ios": "https://dc.lft.to/lastmile_qr_scan"}, "fusion_lon": 0.0}, {"lat": 38.91467033333333, "is_disabled": 0, "type": "electric_scooter", "lon": -77.02805816666667, "bike_id": "9ee3dd9e9a3b0225099bc643986b4e5f", "fusion_lat": 0.0, "name": "9ee3dd9e9a3b0225099bc643986b4e5f", "is_reserved": 0, "rental_uris": {"android": "https://dc.lft.to/lastmile_qr_scan", "ios": "https://dc.lft.to/lastmile_qr_scan"}, "fusion_lon": 0.0}, {"lat": 38.949136833333334, "is_disabled": 0, "type": "electric_scooter", "lon": -77.0086605, "bike_id": "c7d0f393e0f309c1d220bc4390946d7d", "fusion_lat": 0.0, "name": "c7d0f393e0f309c1d220bc4390946d7d", "is_reserved": 0, "rental_uris": {"android": "https://dc.lft.to/lastmile_qr_scan", "ios": "https://dc.lft.to/lastmile_qr_scan"}, "fusion_lon": 0.0}, {"lat": 38.8597625, "is_disabled": 0, "type": "electric_bike", "lon": -77.056748, "bike_id": "d721bc89dc6bc89fc44d960b1e7d2f98", "fusion_lat": 0.0, "name": "d721bc89dc6bc89fc44d960b1e7d2f98", "is_reserved": 0, "rental_uris": {"android": "https://dc.lft.to/lastmile_qr_scan", "ios": "https://dc.lft.to/lastmile_qr_scan"}, "fusion_lon": 0.0}, {"lat": 38.858095666666664, "is_disabled": 0, "type": "electric_scooter", "lon": -76.98655633333334, "bike_id": "b0600fe02320c6ecade12216f186d38c", "fusion_lat": 0.0, "name": "b0600fe02320c6ecade12216f186d38c", "is_reserved": 0, "rental_uris": {"android": "https://dc.lft.to/lastmile_qr_scan", "ios": "https://dc.lft.to/lastmile_qr_scan"}, "fusion_lon": 0.0}, {"lat": 38.9103725, "is_disabled": 0, "type": "electric_scooter", "lon": -77.0487595, "bike_id": "66882a892d86435e843b93c08e536a7e", "fusion_lat": 0.0, "name": "66882a892d86435e843b93c08e536a7e", "is_reserved": 0, "rental_uris": {"android": "https://dc.lft.to/lastmile_qr_scan", "ios": "https://dc.lft.to/lastmile_qr_scan"}, "fusion_lon": 0.0}, {"lat": 38.96612316666667, "is_disabled": 0, "type": "electric_scooter", "lon": -77.02053933333333, "bike_id": "cb1135bb66ce304d6095761797d39d2c", "fusion_lat": 0.0, "name": "cb1135bb66ce304d6095761797d39d2c", "is_reserved": 0, "rental_uris": {"android": "https://dc.lft.to/lastmile_qr_scan", "ios": "https://dc.lft.to/lastmile_qr_scan"}, "fusion_lon": 0.0}, {"lat": 38.915624333333334, "is_disabled": 0, "type": "electric_scooter", "lon": -77.038501, "bike_id": "a334df3d613c2b1ad25aed03f12757d7", "fusion_lat": 0.0, "name": "a334df3d613c2b1ad25aed03f12757d7", "is_reserved": 0, "rental_uris": {"android": "https://dc.lft.to/lastmile_qr_scan", "ios": "https://dc.lft.to/lastmile_qr_scan"}, "fusion_lon": 0.0}, {"lat": 38.89233616666667, "is_disabled": 0, "type": "electric_scooter", "lon": -77.05003716666667, "bike_id": "46a18b161af73fd682818f8d6bc1fd92", "fusion_lat": 0.0, "name": "46a18b161af73fd682818f8d6bc1fd92", "is_reserved": 0, "rental_uris": {"android": "https://dc.lft.to/lastmile_qr_scan", "ios": "https://dc.lft.to/lastmile_qr_scan"}, "fusion_lon": 0.0}, {"lat": 38.9170775, "is_disabled": 0, "type": "electric_scooter", "lon": -77.03862183333334, "bike_id": "8e810dc8fe87f271dbc9a353efe2591d", "fusion_lat": 0.0, "name": "8e810dc8fe87f271dbc9a353efe2591d", "is_reserved": 0, "rental_uris": {"android": "https://dc.lft.to/lastmile_qr_scan", "ios": "https://dc.lft.to/lastmile_qr_scan"}, "fusion_lon": 0.0}, {"lat": 38.923263, "is_disabled": 0, "type": "electric_scooter", "lon": -77.02714383333333, "bike_id": "13676601f2320e916a158f80882d30dd", "fusion_lat": 0.0, "name": "13676601f2320e916a158f80882d30dd", "is_reserved": 0, "rental_uris": {"android": "https://dc.lft.to/lastmile_qr_scan", "ios": "https://dc.lft.to/lastmile_qr_scan"}, "fusion_lon": 0.0}, {"lat": 38.90197466666667, "is_disabled": 0, "type": "electric_scooter", "lon": -77.02371216666667, "bike_id": "78232916334433d9d489da9cb041c17d", "fusion_lat": 0.0, "name": "78232916334433d9d489da9cb041c17d", "is_reserved": 0, "rental_uris": {"android": "https://dc.lft.to/lastmile_qr_scan", "ios": "https://dc.lft.to/lastmile_qr_scan"}, "fusion_lon": 0.0}, {"lat": 38.9232055, "is_disabled": 0, "type": "electric_scooter", "lon": -77.038598, "bike_id": "6564f35b21d8eeb3504753881a7b964d", "fusion_lat": 0.0, "name": "6564f35b21d8eeb3504753881a7b964d", "is_reserved": 0, "rental_uris": {"android": "https://dc.lft.to/lastmile_qr_scan", "ios": "https://dc.lft.to/lastmile_qr_scan"}, "fusion_lon": 0.0}, {"lat": 38.899681666666666, "is_disabled": 0, "type": "electric_scooter", "lon": -76.92661016666666, "bike_id": "afc7d795801792e58c1d0342891df176", "fusion_lat": 0.0, "name": "afc7d795801792e58c1d0342891df176", "is_reserved": 0, "rental_uris": {"android": "https://dc.lft.to/lastmile_qr_scan", "ios": "https://dc.lft.to/lastmile_qr_scan"}, "fusion_lon": 0.0}, {"lat": 38.90504383333333, "is_disabled": 0, "type": "electric_scooter", "lon": -77.02952616666667, "bike_id": "611bfd823f5d392162a9f9d7ba821497", "fusion_lat": 0.0, "name": "611bfd823f5d392162a9f9d7ba821497", "is_reserved": 0, "rental_uris": {"android": "https://dc.lft.to/lastmile_qr_scan", "ios": "https://dc.lft.to/lastmile_qr_scan"}, "fusion_lon": 0.0}, {"lat": 38.907188833333336, "is_disabled": 0, "type": "electric_scooter", "lon": -77.04824166666667, "bike_id": "95d39e50f9884b8df52df6b66b9a9043", "fusion_lat": 0.0, "name": "95d39e50f9884b8df52df6b66b9a9043", "is_reserved": 0, "rental_uris": {"android": "https://dc.lft.to/lastmile_qr_scan", "ios": "https://dc.lft.to/lastmile_qr_scan"}, "fusion_lon": 0.0}, {"lat": 38.90065383333334, "is_disabled": 0, "type": "electric_scooter", "lon": -77.0020905, "bike_id": "9a362a8b533710c34ddcc50082188e01", "fusion_lat": 0.0, "name": "9a362a8b533710c34ddcc50082188e01", "is_reserved": 0, "rental_uris": {"android": "https://dc.lft.to/lastmile_qr_scan", "ios": "https://dc.lft.to/lastmile_qr_scan"}, "fusion_lon": 0.0}, {"lat": 39.0520205, "is_disabled": 0, "type": "electric_bike", "lon": -77.1091515, "bike_id": "eb7a43858a0fc67a9375b0a2433853ca", "fusion_lat": 0.0, "name": "eb7a43858a0fc67a9375b0a2433853ca", "is_reserved": 0, "rental_uris": {"android": "https://dc.lft.to/lastmile_qr_scan", "ios": "https://dc.lft.to/lastmile_qr_scan"}, "fusion_lon": 0.0}, {"lat": 38.924100333333335, "is_disabled": 0, "type": "electric_scooter", "lon": -77.03421116666667, "bike_id": "02087d01137a4ee879b1a2e5e96627a2", "fusion_lat": 0.0, "name": "02087d01137a4ee879b1a2e5e96627a2", "is_reserved": 0, "rental_uris": {"android": "https://dc.lft.to/lastmile_qr_scan", "ios": "https://dc.lft.to/lastmile_qr_scan"}, "fusion_lon": 0.0}, {"lat": 38.93030566666667, "is_disabled": 0, "type": "electric_scooter", "lon": -77.02043916666666, "bike_id": "f4956b3ace4ec66580564a666c6a688c", "fusion_lat": 0.0, "name": "f4956b3ace4ec66580564a666c6a688c", "is_reserved": 0, "rental_uris": {"android": "https://dc.lft.to/lastmile_qr_scan", "ios": "https://dc.lft.to/lastmile_qr_scan"}, "fusion_lon": 0.0}, {"lat": 38.9297515, "is_disabled": 0, "type": "electric_scooter", "lon": -77.03208733333334, "bike_id": "a0d3180ce7543998910284072f4dea1e", "fusion_lat": 0.0, "name": "a0d3180ce7543998910284072f4dea1e", "is_reserved": 0, "rental_uris": {"android": "https://dc.lft.to/lastmile_qr_scan", "ios": "https://dc.lft.to/lastmile_qr_scan"}, "fusion_lon": 0.0}, {"lat": 38.86663566666667, "is_disabled": 0, "type": "electric_scooter", "lon": -76.989075, "bike_id": "ab43fb0909a03b22a72882b6499fbea0", "fusion_lat": 0.0, "name": "ab43fb0909a03b22a72882b6499fbea0", "is_reserved": 0, "rental_uris": {"android": "https://dc.lft.to/lastmile_qr_scan", "ios": "https://dc.lft.to/lastmile_qr_scan"}, "fusion_lon": 0.0}, {"lat": 38.92450933333333, "is_disabled": 0, "type": "electric_scooter", "lon": -77.033551, "bike_id": "9485e6ea0b3b1af15f5c230e81f20c11", "fusion_lat": 0.0, "name": "9485e6ea0b3b1af15f5c230e81f20c11", "is_reserved": 0, "rental_uris": {"android": "https://dc.lft.to/lastmile_qr_scan", "ios": "https://dc.lft.to/lastmile_qr_scan"}, "fusion_lon": 0.0}, {"lat": 38.924305333333336, "is_disabled": 0, "type": "electric_scooter", "lon": -77.03420266666667, "bike_id": "f0e2f68652bee313812d632d41614b48", "fusion_lat": 0.0, "name": "f0e2f68652bee313812d632d41614b48", "is_reserved": 0, "rental_uris": {"android": "https://dc.lft.to/lastmile_qr_scan", "ios": "https://dc.lft.to/lastmile_qr_scan"}, "fusion_lon": 0.0}, {"lat": 38.9146335, "is_disabled": 0, "type": "electric_scooter", "lon": -77.06687233333334, "bike_id": "2064ecae7dec95629721f10e9d9d3cda", "fusion_lat": 0.0, "name": "2064ecae7dec95629721f10e9d9d3cda", "is_reserved": 0, "rental_uris": {"android": "https://dc.lft.to/lastmile_qr_scan", "ios": "https://dc.lft.to/lastmile_qr_scan"}, "fusion_lon": 0.0}, {"lat": 38.90990766666667, "is_disabled": 0, "type": "electric_scooter", "lon": -76.997396, "bike_id": "891ffc71dc4013ea04061ac11ea74a27", "fusion_lat": 0.0, "name": "891ffc71dc4013ea04061ac11ea74a27", "is_reserved": 0, "rental_uris": {"android": "https://dc.lft.to/lastmile_qr_scan", "ios": "https://dc.lft.to/lastmile_qr_scan"}, "fusion_lon": 0.0}, {"lat": 38.908377, "is_disabled": 0, "type": "electric_scooter", "lon": -77.03558683333333, "bike_id": "db55c582b414666b144b6d0d1bdbc421", "fusion_lat": 0.0, "name": "db55c582b414666b144b6d0d1bdbc421", "is_reserved": 0, "rental_uris": {"android": "https://dc.lft.to/lastmile_qr_scan", "ios": "https://dc.lft.to/lastmile_qr_scan"}, "fusion_lon": 0.0}, {"lat": 38.886004, "is_disabled": 0, "type": "electric_scooter", "lon": -77.02203133333333, "bike_id": "de1e2aaad908c874bcad8a19061fab13", "fusion_lat": 0.0, "name": "de1e2aaad908c874bcad8a19061fab13", "is_reserved": 0, "rental_uris": {"android": "https://dc.lft.to/lastmile_qr_scan", "ios": "https://dc.lft.to/lastmile_qr_scan"}, "fusion_lon": 0.0}, {"lat": 38.91056066666667, "is_disabled": 0, "type": "electric_scooter", "lon": -77.05250116666667, "bike_id": "e19b86626eb4a05a510c8f35576e4295", "fusion_lat": 0.0, "name": "e19b86626eb4a05a510c8f35576e4295", "is_reserved": 0, "rental_uris": {"android": "https://dc.lft.to/lastmile_qr_scan", "ios": "https://dc.lft.to/lastmile_qr_scan"}, "fusion_lon": 0.0}, {"lat": 38.91118183333333, "is_disabled": 0, "type": "electric_scooter", "lon": -77.03019083333334, "bike_id": "c61f641b5edea871da597a855232c205", "fusion_lat": 0.0, "name": "c61f641b5edea871da597a855232c205", "is_reserved": 0, "rental_uris": {"android": "https://dc.lft.to/lastmile_qr_scan", "ios": "https://dc.lft.to/lastmile_qr_scan"}, "fusion_lon": 0.0}, {"lat": 38.9215135, "is_disabled": 0, "type": "electric_scooter", "lon": -77.03370266666667, "bike_id": "eafe23343f2ac79892c8eb7b0a9affb6", "fusion_lat": 0.0, "name": "eafe23343f2ac79892c8eb7b0a9affb6", "is_reserved": 0, "rental_uris": {"android": "https://dc.lft.to/lastmile_qr_scan", "ios": "https://dc.lft.to/lastmile_qr_scan"}, "fusion_lon": 0.0}, {"lat": 38.930690166666665, "is_disabled": 0, "type": "electric_scooter", "lon": -77.0282185, "bike_id": "a8b3c255e8b53ee8d47013aba98f2a16", "fusion_lat": 0.0, "name": "a8b3c255e8b53ee8d47013aba98f2a16", "is_reserved": 0, "rental_uris": {"android": "https://dc.lft.to/lastmile_qr_scan", "ios": "https://dc.lft.to/lastmile_qr_scan"}, "fusion_lon": 0.0}, {"lat": 38.92761083333333, "is_disabled": 0, "type": "electric_scooter", "lon": -77.02781033333333, "bike_id": "f095d6cd0cc8d972e591fbd00e58f3ef", "fusion_lat": 0.0, "name": "f095d6cd0cc8d972e591fbd00e58f3ef", "is_reserved": 0, "rental_uris": {"android": "https://dc.lft.to/lastmile_qr_scan", "ios": "https://dc.lft.to/lastmile_qr_scan"}, "fusion_lon": 0.0}, {"lat": 38.920502, "is_disabled": 0, "type": "electric_scooter", "lon": -77.02877483333333, "bike_id": "5ff0eebafc787f01f01c4ec9bb10491c", "fusion_lat": 0.0, "name": "5ff0eebafc787f01f01c4ec9bb10491c", "is_reserved": 0, "rental_uris": {"android": "https://dc.lft.to/lastmile_qr_scan", "ios": "https://dc.lft.to/lastmile_qr_scan"}, "fusion_lon": 0.0}, {"lat": 38.9322455, "is_disabled": 0, "type": "electric_scooter", "lon": -76.9959875, "bike_id": "7af40afa5af1f78997c2dacaf749cbe7", "fusion_lat": 0.0, "name": "7af40afa5af1f78997c2dacaf749cbe7", "is_reserved": 0, "rental_uris": {"android": "https://dc.lft.to/lastmile_qr_scan", "ios": "https://dc.lft.to/lastmile_qr_scan"}, "fusion_lon": 0.0}, {"lat": 38.91826966666667, "is_disabled": 0, "type": "electric_scooter", "lon": -77.03940416666667, "bike_id": "27b963646afdd9dffecb7bf54bf6a3f5", "fusion_lat": 0.0, "name": "27b963646afdd9dffecb7bf54bf6a3f5", "is_reserved": 0, "rental_uris": {"android": "https://dc.lft.to/lastmile_qr_scan", "ios": "https://dc.lft.to/lastmile_qr_scan"}, "fusion_lon": 0.0}, {"lat": 38.92733666666667, "is_disabled": 0, "type": "electric_scooter", "lon": -77.02247366666667, "bike_id": "c70ef01af48b54a14723ad7d93478d0c", "fusion_lat": 0.0, "name": "c70ef01af48b54a14723ad7d93478d0c", "is_reserved": 0, "rental_uris": {"android": "https://dc.lft.to/lastmile_qr_scan", "ios": "https://dc.lft.to/lastmile_qr_scan"}, "fusion_lon": 0.0}, {"lat": 38.9162815, "is_disabled": 0, "type": "electric_scooter", "lon": -76.97956366666666, "bike_id": "e23ed6be6c6affd2d647f5e917163b41", "fusion_lat": 0.0, "name": "e23ed6be6c6affd2d647f5e917163b41", "is_reserved": 0, "rental_uris": {"android": "https://dc.lft.to/lastmile_qr_scan", "ios": "https://dc.lft.to/lastmile_qr_scan"}, "fusion_lon": 0.0}, {"lat": 38.90551033333333, "is_disabled": 0, "type": "electric_scooter", "lon": -77.04339366666666, "bike_id": "9d1bc812bb4f309bf66015e1fa20ed1d", "fusion_lat": 0.0, "name": "9d1bc812bb4f309bf66015e1fa20ed1d", "is_reserved": 0, "rental_uris": {"android": "https://dc.lft.to/lastmile_qr_scan", "ios": "https://dc.lft.to/lastmile_qr_scan"}, "fusion_lon": 0.0},