{"data": {"bikes": [{"lon": -77.02800733333333, "rental_uris": {"android": "https://dc.lft.to/lastmile_qr_scan", "ios": "https://dc.lft.to/lastmile_qr_scan"}, "fusion_lon": 0.0, "is_reserved": 0, "is_disabled": 0, "fusion_lat": 0.0, "type": "electric_scooter", "name": "95b3ff10287fd3926d189edef3c6ec5e", "lat": 38.89800733333333, "bike_id": "95b3ff10287fd3926d189edef3c6ec5e"}, {"lon": -77.02598633333334, "rental_uris": {"android": "https://dc.lft.to/lastmile_qr_scan", "ios": "https://dc.lft.to/lastmile_qr_scan"}, "fusion_lon": 0.0, "is_reserved": 0, "is_disabled": 0, "fusion_lat": 0.0, "type": "electric_scooter", "name": "59fef1f593411a23a2b988c4821e120a", "lat": 38.916685333333334, "bike_id": "59fef1f593411a23a2b988c4821e120a"}, {"lon": -77.03307716666667, "rental_uris": {"android": "https://dc.lft.to/lastmile_qr_scan", "ios": "https://dc.lft.to/lastmile_qr_scan"}, "fusion_lon": 0.0, "is_reserved": 0, "is_disabled": 0, "fusion_lat": 0.0, "type": "electric_scooter", "name": "065841ad9346c8be9f25b883229c6240", "lat": 38.9097205, "bike_id": "065841ad9346c8be9f25b883229c6240"}, {"lon": -77.03030483333333, "rental_uris": {"android": "https://dc.lft.to/lastmile_qr_scan", "ios": "https://dc.lft.to/lastmile_qr_scan"}, "fusion_lon": 0.0, "is_reserved": 0, "is_disabled": 0, "fusion_lat": 0.0, "type": "electric_scooter", "name": "7a2e39668a025132fdda4a8a95e0182e", "lat": 38.923031333333334, "bike_id": "7a2e39668a025132fdda4a8a95e0182e"}, {"lon": -76.97716766666667, "rental_uris": {"android": "https://dc.lft.to/lastmile_qr_scan", "ios": "https://dc.lft.to/lastmile_qr_scan"}, "fusion_lon": 0.0, "is_reserved": 0, "is_disabled": 0, "fusion_lat": 0.0, "type": "electric_scooter", "name": "64dd1d4a898671a0403a46208aee9dd9", "lat": 38.888175333333336, "bike_id": "64dd1d4a898671a0403a46208aee9dd9"}, {"lon": -77.01770583333334, "rental_uris": {"android": "https://dc.lft.to/lastmile_qr_scan", "ios": "https://dc.lft.to/lastmile_qr_scan"}, "fusion_lon": 0.0, "is_reserved": 0, "is_disabled": 0, "fusion_lat": 0.0, "type": "electric_scooter", "name": "4aa1a45293b88588b407410dbf3012c9", "lat": 38.91265333333333, "bike_id": "4aa1a45293b88588b407410dbf3012c9"}, {"lon": -77.009154, "rental_uris": {"android": "https://dc.lft.to/lastmile_qr_scan", "ios": "https://dc.lft.to/lastmile_qr_scan"}, "fusion_lon": 0.0, "is_reserved": 0, "is_disabled": 0, "fusion_lat": 0.0, "type": "electric_scooter", "name": "cda8fda64472a244f8692ea2ae50cc34", "lat": 38.89647083333333, "bike_id": "cda8fda64472a244f8692ea2ae50cc34"}, {"lon": -77.02204716666667, "rental_uris": {"android": "https://dc.lft.to/lastmile_qr_scan", "ios": "https://dc.lft.to/lastmile_qr_scan"}, "fusion_lon": 0.0, "is_reserved": 0, "is_disabled": 0, "fusion_lat": 0.0, "type": "electric_scooter", "name": "eeead5ecd323ce4caf5ccdbf9b2905ed", "lat": 38.91536633333333, "bike_id": "eeead5ecd323ce4caf5ccdbf9b2905ed"}, {"lon": -77.02093666666667, "rental_uris": {"android": "https://dc.lft.to/lastmile_qr_scan", "ios": "https://dc.lft.to/lastmile_qr_scan"}, "fusion_lon": 0.0, "is_reserved": 0, "is_disabled": 0, "fusion_lat": 0.0, "type": "electric_scooter", "name": "67d67723c03b180358995957adf82e5f", "lat": 38.93256616666667, "bike_id": "67d67723c03b180358995957adf82e5f"}, {"lon": -77.04861983333333, "rental_uris": {"android": "https://dc.lft.to/lastmile_qr_scan", "ios": "https://dc.lft.to/lastmile_qr_scan"}, "fusion_lon": 0.0, "is_reserved": 0, "is_disabled": 0, "fusion_lat": 0.0, "type": "electric_scooter", "name": "6a6a56384fbfcb845b0427c16bf972ad", "lat": 38.90471866666667, "bike_id": "6a6a56384fbfcb845b0427c16bf972ad"}, {"lon": -77.0241465, "rental_uris": {"android": "https://dc.lft.to/lastmile_qr_scan", "ios": "https://dc.lft.to/lastmile_qr_scan"}, "fusion_lon": 0.0, "is_reserved": 0, "is_disabled": 0, "fusion_lat": 0.0, "type": "electric_scooter", "name": "ba8d601fd626123a88e9e71166be6175", "lat": 38.89218283333334, "bike_id": "ba8d601fd626123a88e9e71166be6175"}, {"lon": -77.00372033333333, "rental_uris": {"android": "https://dc.lft.to/lastmile_qr_scan", "ios": "https://dc.lft.to/lastmile_qr_scan"}, "fusion_lon": 0.0, "is_reserved": 0, "is_disabled": 0, "fusion_lat": 0.0, "type": "electric_scooter", "name": "b26aeb3c952268c4c52b76cf74d3be1c", "lat": 38.897261666666665, "bike_id": "b26aeb3c952268c4c52b76cf74d3be1c"}, {"lon": -77.01016183333333, "rental_uris": {"android": "https://dc.lft.to/lastmile_qr_scan", "ios": "https://dc.lft.to/lastmile_qr_scan"}, "fusion_lon": 0.0, "is_reserved": 0, "is_disabled": 0, "fusion_lat": 0.0, "type": "electric_bike", "name": "b7113b5969b4e298ba04ad3879162f3e", "lat": 38.9559335, "bike_id": "b7113b5969b4e298ba04ad3879162f3e"}, {"lon": -77.04407883333333, "rental_uris": {"android": "https://dc.lft.to/lastmile_qr_scan", "ios": "https://dc.lft.to/lastmile_qr_scan"}, "fusion_lon": 0.0, "is_reserved": 0, "is_disabled": 0, "fusion_lat": 0.0, "type": "electric_scooter", "name": "27ea1c9ee12979a71d138f75b24fc6da", "lat": 38.908968333333334, "bike_id": "27ea1c9ee12979a71d138f75b24fc6da"}, {"lon": -77.039425, "rental_uris": {"android": "https://dc.lft.to/lastmile_qr_scan", "ios": "https://dc.lft.to/lastmile_qr_scan"}, "fusion_lon": 0.0, "is_reserved": 0, "is_disabled": 0, "fusion_lat": 0.0, "type": "electric_scooter", "name": "caefb7d564794743d2df55879687f310", "lat": 38.90831566666667, "bike_id": "caefb7d564794743d2df55879687f310"}, {"lon": -77.04027733333334, "rental_uris": {"android": "https://dc.lft.to/lastmile_qr_scan", "ios": "https://dc.lft.to/lastmile_qr_scan"}, "fusion_lon": 0.0, "is_reserved": 0, "is_disabled": 0, "fusion_lat": 0.0, "type": "electric_scooter", "name": "6bc3d8d629fd81b9a910236ff1798800", "lat": 38.92457866666667, "bike_id": "6bc3d8d629fd81b9a910236ff1798800"}, {"lon": -77.02277183333334, "rental_uris": {"android": "https://dc.lft.to/lastmile_qr_scan", "ios": "https://dc.lft.to/lastmile_qr_scan"}, "fusion_lon": 0.0, "is_reserved": 0, "is_disabled": 0, "fusion_lat": 0.0, "type": "electric_scooter", "name": "bf62d4c9d2e3d76cc91a9986ef7575f7", "lat": 38.8998955, "bike_id": "bf62d4c9d2e3d76cc91a9986ef7575f7"}, {"lon": -76.9792, "rental_uris": {"android": "https://dc.lft.to/lastmile_qr_scan", "ios": "https://dc.lft.to/lastmile_qr_scan"}, "fusion_lon": 0.0, "is_reserved": 0, "is_disabled": 0, "fusion_lat": 0.0, "type": "electric_scooter", "name": "ef878d5575f81055b816d45fa0b5532b", "lat": 38.90239533333333, "bike_id": "ef878d5575f81055b816d45fa0b5532b"}, {"lon": -77.003855, "rental_uris": {"android": "https://dc.lft.to/lastmile_qr_scan", "ios": "https://dc.lft.to/lastmile_qr_scan"}, "fusion_lon": 0.0, "is_reserved": 0, "is_disabled": 0, "fusion_lat": 0.0, "type": "electric_scooter", "name": "6aad1012f9274077858948112c0fbaf5", "lat": 38.876333, "bike_id": "6aad1012f9274077858948112c0fbaf5"}, {"lon": -77.05132033333334, "rental_uris": {"android": "https://dc.lft.to/lastmile_qr_scan", "ios": "https://dc.lft.to/lastmile_qr_scan"}, "fusion_lon": 0.0, "is_reserved": 0, "is_disabled": 0, "fusion_lat": 0.0, "type": "electric_scooter", "name": "bf7d02f85c69c8ae96b7e3f4b85a36e9", "lat": 38.923670666666666, "bike_id": "bf7d02f85c69c8ae96b7e3f4b85a36e9"}, {"lon": -77.0237845, "rental_uris": {"android": "https://dc.lft.to/lastmile_qr_scan", "ios": "https://dc.lft.to/lastmile_qr_scan"}, "fusion_lon": 0.0, "is_reserved": 0, "is_disabled": 0, "fusion_lat": 0.0, "type": "electric_scooter", "name": "023a89cf420f1e7ccfaa87e26ea6698d", "lat": 38.909704, "bike_id": "023a89cf420f1e7ccfaa87e26ea6698d"}, {"lon": -77.04015916666667, "rental_uris": {"android": "https://dc.lft.to/lastmile_qr_scan", "ios": "https://dc.lft.to/lastmile_qr_scan"}, "fusion_lon": 0.0, "is_reserved": 0, "is_disabled": 0, "fusion_lat": 0.0, "type": "electric_scooter", "name": "c9798c6f17ee669cea8f168208f83f03", "lat": 38.9037045, "bike_id": "c9798c6f17ee669cea8f168208f83f03"}, {"lon": -76.9650355, "rental_uris": {"android": "https://dc.lft.to/lastmile_qr_scan", "ios": "https://dc.lft.to/lastmile_qr_scan"}, "fusion_lon": 0.0, "is_reserved": 0, "is_disabled": 0, "fusion_lat": 0.0, "type": "electric_scooter", "name": "8001a6672cf859492a47282627162e97", "lat": 38.87642966666667, "bike_id": "8001a6672cf859492a47282627162e97"}, {"lon": -76.9752605, "rental_uris": {"android": "https://dc.lft.to/lastmile_qr_scan", "ios": "https://dc.lft.to/lastmile_qr_scan"}, "fusion_lon": 0.0, "is_reserved": 0, "is_disabled": 0, "fusion_lat": 0.0, "type": "electric_bike", "name": "c2cb2d41261634f95731c01a4c1e1b9b", "lat": 38.84002316666667, "bike_id": "c2cb2d41261634f95731c01a4c1e1b9b"}, {"lon": -77.02935366666667, "rental_uris": {"android": "https://dc.lft.to/lastmile_qr_scan", "ios": "https://dc.lft.to/lastmile_qr_scan"}, "fusion_lon": 0.0, "is_reserved": 0, "is_disabled": 0, "fusion_lat": 0.0, "type": "electric_scooter", "name": "c20b00c71fa3623ad6991ea4caadb8e8", "lat": 38.910242333333336, "bike_id": "c20b00c71fa3623ad6991ea4caadb8e8"}, {"lon": -76.9999025, "rental_uris": {"android": "https://dc.lft.to/lastmile_qr_scan", "ios": "https://dc.lft.to/lastmile_qr_scan"}, "fusion_lon": 0.0, "is_reserved": 0, "is_disabled": 0, "fusion_lat": 0.0, "type": "electric_scooter", "name": "88adf6c65ee9e7bdf6213410cbf96e52", "lat": 38.90688133333333, "bike_id": "88adf6c65ee9e7bdf6213410cbf96e52"}, {"lon": -77.04641133333334, "rental_uris": {"android": "https://dc.lft.to/lastmile_qr_scan", "ios": "https://dc.lft.to/lastmile_qr_scan"}, "fusion_lon": 0.0, "is_reserved": 0, "is_disabled": 0, "fusion_lat": 0.0, "type": "electric_scooter", "name": "41cdcdb189ebc7ba226328e6de150c08", "lat": 38.9018315, "bike_id": "41cdcdb189ebc7ba226328e6de150c08"}, {"lon": -77.03808466666666, "rental_uris": {"android": "https://dc.lft.to/lastmile_qr_scan", "ios": "https://dc.lft.to/lastmile_qr_scan"}, "fusion_lon": 0.0, "is_reserved": 0, "is_disabled": 0, "fusion_lat": 0.0, "type": "electric_scooter", "name": "e59a4733c027d43b5945c6c1873d03f9", "lat": 38.90671916666667, "bike_id": "e59a4733c027d43b5945c6c1873d03f9"}, {"lon": -77.03232266666667, "rental_uris": {"android": "https://dc.lft.to/lastmile_qr_scan", "ios": "https://dc.lft.to/lastmile_qr_scan"}, "fusion_lon": 0.0, "is_reserved": 0, "is_disabled": 0, "fusion_lat": 0.0, "type": "electric_scooter", "name": "2328f66e856919d0bed2eed5fd275ddf", "lat": 38.921406, "bike_id": "2328f66e856919d0bed2eed5fd275ddf"}, {"lon": -77.03647116666667, "rental_uris": {"android": "https://dc.lft.to/lastmile_qr_scan", "ios": "https://dc.lft.to/lastmile_qr_scan"}, "fusion_lon": 0.0, "is_reserved": 0, "is_disabled": 0, "fusion_lat": 0.0, "type": "electric_scooter", "name": "027fa033a75d2a1f4b555b0208cf8499", "lat": 38.912877, "bike_id": "027fa033a75d2a1f4b555b0208cf8499"}, {"lon": -77.02186533333334, "rental_uris": {"android": "https://dc.lft.to/lastmile_qr_scan", "ios": "https://dc.lft.to/lastmile_qr_scan"}, "fusion_lon": 0.0, "is_reserved": 0, "is_disabled": 0, "fusion_lat": 0.0, "type": "electric_bike", "name": "6fbfd882016bf16bdf1796a1faabbee8", "lat": 39.004773666666665, "bike_id": "6fbfd882016bf16bdf1796a1faabbee8"}, {"lon": -77.03161383333334, "rental_uris": {"android": "https://dc.lft.to/lastmile_qr_scan", "ios": "https://dc.lft.to/lastmile_qr_scan"}, "fusion_lon": 0.0, "is_reserved": 0, "is_disabled": 0, "fusion_lat": 0.0, "type": "electric_scooter", "name": "01db43db418f5b45dae972a3fca3c4ca", "lat": 38.892186833333334, "bike_id": "01db43db418f5b45dae972a3fca3c4ca"}, {"lon": -77.04673416666667, "rental_uris": {"android": "https://dc.lft.to/lastmile_qr_scan", "ios": "https://dc.lft.to/lastmile_qr_scan"}, "fusion_lon": 0.0, "is_reserved": 0, "is_disabled": 0, "fusion_lat": 0.0, "type": "electric_scooter", "name": "397bea4148c8cbf15bbe1597c5923f26", "lat": 38.894991166666664, "bike_id": "397bea4148c8cbf15bbe1597c5923f26"}, {"lon": -77.04016966666667, "rental_uris": {"android": "https://dc.lft.to/lastmile_qr_scan", "ios": "https://dc.lft.to/lastmile_qr_scan"}, "fusion_lon": 0.0, "is_reserved": 0, "is_disabled": 0, "fusion_lat": 0.0, "type": "electric_scooter", "name": "718cffc8458c3bef5abc3df28bb0b4bd", "lat": 38.9014195, "bike_id": "718cffc8458c3bef5abc3df28bb0b4bd"}, {"lon": -77.045397, "rental_uris": {"android": "https://dc.lft.to/lastmile_qr_scan", "ios": "https://dc.lft.to/lastmile_qr_scan"}, "fusion_lon": 0.0, "is_reserved": 0, "is_disabled": 0, "fusion_lat": 0.0, "type": "electric_scooter", "name": "ee5226039a3dfafeb827903c68042ca9", "lat": 38.911037, "bike_id": "ee5226039a3dfafeb827903c68042ca9"}, {"lon": -77.033879, "rental_uris": {"android": "https://dc.lft.to/lastmile_qr_scan", "ios": "https://dc.lft.to/lastmile_qr_scan"}, "fusion_lon": 0.0, "is_reserved": 0, "is_disabled": 0, "fusion_lat": 0.0, "type": "electric_scooter", "name": "9b8b369000e3cbe9d05bbba974e31f5e", "lat": 38.938425, "bike_id": "9b8b369000e3cbe9d05bbba974e31f5e"}, {"lon": -76.99946933333334, "rental_uris": {"android": "https://dc.lft.to/lastmile_qr_scan", "ios": "https://dc.lft.to/lastmile_qr_scan"}, "fusion_lon": 0.0, "is_reserved": 0, "is_disabled": 0, "fusion_lat": 0.0, "type": "electric_scooter", "name": "83e2b59dd84b4b7e66af33f58a0ce3ef", "lat": 38.90423933333334, "bike_id": "83e2b59dd84b4b7e66af33f58a0ce3ef"}, {"lon": -77.02212783333333, "rental_uris": {"android": "https://dc.lft.to/lastmile_qr_scan", "ios": "https://dc.lft.to/lastmile_qr_scan"}, "fusion_lon": 0.0, "is_reserved": 0, "is_disabled": 0, "fusion_lat": 0.0, "type": "electric_scooter", "name": "09d3cd31f49391f857c215c92112ce27", "lat": 38.90534133333333, "bike_id": "09d3cd31f49391f857c215c92112ce27"}, {"lon": -77.026525, "rental_uris": {"android": "https://dc.lft.to/lastmile_qr_scan", "ios": "https://dc.lft.to/lastmile_qr_scan"}, "fusion_lon": 0.0, "is_reserved": 0, "is_disabled": 0, "fusion_lat": 0.0, "type": "electric_scooter", "name": "eadcaf15face44afb2e7d6a88fc9198d", "lat": 38.892243666666666, "bike_id": "eadcaf15face44afb2e7d6a88fc9198d"}, {"lon": -77.0230035, "rental_uris": {"android": "https://dc.lft.to/lastmile_qr_scan", "ios": "https://dc.lft.to/lastmile_qr_scan"}, "fusion_lon": 0.0, "is_reserved": 0, "is_disabled": 0, "fusion_lat": 0.0, "type": "electric_scooter", "name": "3717025e23d4c7c9bb81a4891fd41134", "lat": 38.920742, "bike_id": "3717025e23d4c7c9bb81a4891fd41134"}, {"lon": -77.02090666666666, "rental_uris": {"android": "https://dc.lft.to/lastmile_qr_scan", "ios": "https://dc.lft.to/lastmile_qr_scan"}, "fusion_lon": 0.0, "is_reserved": 0, "is_disabled": 0, "fusion_lat": 0.0, "type": "electric_scooter", "name": "b327cd308d1231a15a2044c10ec0a251", "lat": 38.93430016666667, "bike_id": "b327cd308d1231a15a2044c10ec0a251"}, {"lon": -77.20996533333333, "rental_uris": {"android": "https://dc.lft.to/lastmile_qr_scan", "ios": "https://dc.lft.to/lastmile_qr_scan"}, "fusion_lon": 0.0, "is_reserved": 0, "is_disabled": 0, "fusion_lat": 0.0, "type": "electric_bike", "name": "f3b366e758b3bf4ef98005dc716cb3fd", "lat": 38.92580433333333, "bike_id": "f3b366e758b3bf4ef98005dc716cb3fd"}, {"lon": -77.015717, "rental_uris": {"android": "https://dc.lft.to/lastmile_qr_scan", "ios": "https://dc.lft.to/lastmile_qr_scan"}, "fusion_lon": 0.0, "is_reserved": 0, "is_disabled": 0, "fusion_lat": 0.0, "type": "electric_scooter", "name": "331cc36890370f65087bbf89619d95ca", "lat": 38.91502283333333, "bike_id": "331cc36890370f65087bbf89619d95ca"}, {"lon": -77.02033983333334, "rental_uris": {"android": "https://dc.lft.to/lastmile_qr_scan", "ios": "https://dc.lft.to/lastmile_qr_scan"}, "fusion_lon": 0.0, "is_reserved": 0, "is_disabled": 0, "fusion_lat": 0.0, "type": "electric_scooter", "name": "7948ad873a5e6c9fd7baa7aeecf2eecc", "lat": 38.92429416666667, "bike_id": "7948ad873a5e6c9fd7baa7aeecf2eecc"}, {"lon": -77.0435655, "rental_uris": {"android": "https://dc.lft.to/lastmile_qr_scan", "ios": "https://dc.lft.to/lastmile_qr_scan"}, "fusion_lon": 0.0, "is_reserved": 0, "is_disabled": 0, "fusion_lat": 0.0, "type": "electric_scooter", "name": "ab0475278d19e826192ccb5ff46ae68a", "lat": 38.903969000000004, "bike_id": "ab0475278d19e826192ccb5ff46ae68a"}, {"lon": -77.06371983333334, "rental_uris": {"android": "https://dc.lft.to/lastmile_qr_scan", "ios": "https://dc.lft.to/lastmile_qr_scan"}, "fusion_lon": 0.0, "is_reserved": 0, "is_disabled": 0, "fusion_lat": 0.0, "type": "electric_scooter", "name": "69ce31e819c5f3750d92c76c292f8ab4", "lat": 38.906065, "bike_id": "69ce31e819c5f3750d92c76c292f8ab4"}, {"lon": -77.01347966666667, "rental_uris": {"android": "https://dc.lft.to/lastmile_qr_scan", "ios": "https://dc.lft.to/lastmile_qr_scan"}, "fusion_lon": 0.0, "is_reserved": 0, "is_disabled": 0, "fusion_lat": 0.0, "type": "electric_scooter", "name": "4b614e5a13108712312298ba9d8c931f", "lat": 38.87160733333333, "bike_id": "4b614e5a13108712312298ba9d8c931f"}, {"lon": -77.02197983333333, "rental_uris": {"android": "https://dc.lft.to/lastmile_qr_scan", "ios": "https://dc.lft.to/lastmile_qr_scan"}, "fusion_lon": 0.0, "is_reserved": 0, "is_disabled": 0, "fusion_lat": 0.0, "type": "electric_scooter", "name": "8343dbf35790d2cbeacf384dc1f7d7c1", "lat": 38.91540766666667, "bike_id": "8343dbf35790d2cbeacf384dc1f7d7c1"}, {"lon": -77.02167433333334, "rental_uris": {"android": "https://dc.lft.to/lastmile_qr_scan", "ios": "https://dc.lft.to/lastmile_qr_scan"}, "fusion_lon": 0.0, "is_reserved": 0, "is_disabled": 0, "fusion_lat": 0.0, "type": "electric_scooter", "name": "5b559654cd41fa0ce04556a281fafbc8", "lat": 38.9428595, "bike_id": "5b559654cd41fa0ce04556a281fafbc8"}, {"lon": -76.98361016666667, "rental_uris": {"android": "https://dc.lft.to/lastmile_qr_scan", "ios": "https://dc.lft.to/lastmile_qr_scan"}, "fusion_lon": 0.0, "is_reserved": 0, "is_disabled": 0, "fusion_lat": 0.0, "type": "electric_scooter", "name": "2cb185028e0e2f590bbc7d68c7b3332b", "lat": 38.887261, "bike_id": "2cb185028e0e2f590bbc7d68c7b3332b"}, {"lon": -77.02048216666667, "rental_uris": {"android": "https://dc.lft.to/lastmile_qr_scan", "ios": "https://dc.lft.to/lastmile_qr_scan"}, "fusion_lon": 0.0, "is_reserved": 0, "is_disabled": 0, "fusion_lat": 0.0, "type": "electric_scooter", "name": "ee4267a282b6ceae6ea4351526c2d82b", "lat": 38.91903333333333, "bike_id": "ee4267a282b6ceae6ea4351526c2d82b"}, {"lon": -77.0102295, "rental_uris": {"android": "https://dc.lft.to/lastmile_qr_scan", "ios": "https://dc.lft.to/lastmile_qr_scan"}, "fusion_lon": 0.0, "is_reserved": 0, "is_disabled": 0, "fusion_lat": 0.0, "type": "electric_scooter", "name": "1a6f71814cc7d5a61929b4ed64077d73", "lat": 38.898095166666664, "bike_id": "1a6f71814cc7d5a61929b4ed64077d73"}, {"lon": -76.9576045, "rental_uris": {"android": "https://dc.lft.to/lastmile_qr_scan", "ios": "https://dc.lft.to/lastmile_qr_scan"}, "fusion_lon": 0.0, "is_reserved": 0, "is_disabled": 0, "fusion_lat": 0.0, "type": "electric_scooter", "name": "105f8eb8cbed6b7d24eeab6177578839", "lat": 38.88424233333333, "bike_id": "105f8eb8cbed6b7d24eeab6177578839"}, {"lon": -77.0238165, "rental_uris": {"android": "https://dc.lft.to/lastmile_qr_scan", "ios": "https://dc.lft.to/lastmile_qr_scan"}, "fusion_lon": 0.0, "is_reserved": 0, "is_disabled": 0, "fusion_lat": 0.0, "type": "electric_scooter", "name": "0b227c06eed324dd85b83546babfd60d", "lat": 38.8873745, "bike_id": "0b227c06eed324dd85b83546babfd60d"}, {"lon": -77.012602, "rental_uris": {"android": "https://dc.lft.to/lastmile_qr_scan", "ios": "https://dc.lft.to/lastmile_qr_scan"}, "fusion_lon": 0.0, "is_reserved": 0, "is_disabled": 0, "fusion_lat": 0.0, "type": "electric_scooter", "name": "c5dbf7e3d950c4dd86cd4064680cc912", "lat": 38.90833666666666, "bike_id": "c5dbf7e3d950c4dd86cd4064680cc912"}, {"lon": -77.03847233333333, "rental_uris": {"android": "https://dc.lft.to/lastmile_qr_scan", "ios": "https://dc.lft.to/lastmile_qr_scan"}, "fusion_lon": 0.0, "is_reserved": 0, "is_disabled": 0, "fusion_lat": 0.0, "type": "electric_scooter", "name": "e6ce5e124a7b7d710bba4891fa496b52", "lat": 38.94187816666667, "bike_id": "e6ce5e124a7b7d710bba4891fa496b52"}, {"lon": -76.99884, "rental_uris": {"android": "https://dc.lft.to/lastmile_qr_scan", "ios": "https://dc.lft.to/lastmile_qr_scan"}, "fusion_lon": 0.0, "is_reserved": 0, "is_disabled": 0, "fusion_lat": 0.0, "type": "electric_scooter", "name": "66e5e988a84a3c31996dfc424ebc2e84", "lat": 38.89594616666667, "bike_id": "66e5e988a84a3c31996dfc424ebc2e84"}, {"lon": -77.00333316666666, "rental_uris": {"android": "https://dc.lft.to/lastmile_qr_scan", "ios": "https://dc.lft.to/lastmile_qr_scan"}, "fusion_lon": 0.0, "is_reserved": 0, "is_disabled": 0, "fusion_lat": 0.0, "type": "electric_scooter", "name": "b9c38a907967f86076e0f36b7e902ee0", "lat": 38.89359233333333, "bike_id": "b9c38a907967f86076e0f36b7e902ee0"}, {"lon": -77.02396233333333, "rental_uris": {"android": "https://dc.lft.to/lastmile_qr_scan", "ios": "https://dc.lft.to/lastmile_qr_scan"}, "fusion_lon": 0.0, "is_reserved": 0, "is_disabled": 0, "fusion_lat": 0.0, "type": "electric_scooter", "name": "e707afb249123fd8590eaee2e4e00333", "lat": 38.8997905, "bike_id": "e707afb249123fd8590eaee2e4e00333"}, {"lon": -77.046672, "rental_uris": {"android": "https://dc.lft.to/lastmile_qr_scan", "ios": "https://dc.lft.to/lastmile_qr_scan"}, "fusion_lon": 0.0, "is_reserved": 0, "is_disabled": 0, "fusion_lat": 0.0, "type": "electric_scooter", "name": "b86f949f0054082f0caf6d9ba9b5c8bb", "lat": 38.8925035, "bike_id": "b86f949f0054082f0caf6d9ba9b5c8bb"}, {"lon": -76.98714183333334, "rental_uris": {"android": "https://dc.lft.to/lastmile_qr_scan", "ios": "https://dc.lft.to/lastmile_qr_scan"}, "fusion_lon": 0.0, "is_reserved": 0, "is_disabled": 0, "fusion_lat": 0.0, "type": "electric_scooter", "name": "1766c6c89537defef50c9a2b43aeb66a", "lat": 38.86540216666667, "bike_id": "1766c6c89537defef50c9a2b43aeb66a"}, {"lon": -77.02599666666667, "rental_uris": {"android": "https://dc.lft.to/lastmile_qr_scan", "ios": "https://dc.lft.to/lastmile_qr_scan"}, "fusion_lon": 0.0, "is_reserved": 0, "is_disabled": 0, "fusion_lat": 0.0, "type": "electric_scooter", "name": "78945c9be55f506ebeaf82ea3a831b2d", "lat": 38.91685366666667, "bike_id": "78945c9be55f506ebeaf82ea3a831b2d"}, {"lon": -76.99533983333333, "rental_uris": {"android": "https://dc.lft.to/lastmile_qr_scan", "ios": "https://dc.lft.to/lastmile_qr_scan"}, "fusion_lon": 0.0, "is_reserved": 0, "is_disabled": 0, "fusion_lat": 0.0, "type": "electric_scooter", "name": "3d25b3987a5abd2ddff5a0b40787bae7", "lat": 38.86268783333333, "bike_id": "3d25b3987a5abd2ddff5a0b40787bae7"}, {"lon": -77.00275366666666, "rental_uris": {"android": "https://dc.lft.to/lastmile_qr_scan", "ios": "https://dc.lft.to/lastmile_qr_scan"}, "fusion_lon": 0.0, "is_reserved": 0, "is_disabled": 0, "fusion_lat": 0.0, "type": "electric_scooter", "name": "4aeca68951915e53e6c1e12e229f3821", "lat": 38.908753833333336, "bike_id": "4aeca68951915e53e6c1e12e229f3821"}, {"lon": -77.04064583333333, "rental_uris": {"android": "https://dc.lft.to/lastmile_qr_scan", "ios": "https://dc.lft.to/lastmile_qr_scan"}, "fusion_lon": 0.0, "is_reserved": 0, "is_disabled": 0, "fusion_lat": 0.0, "type": "electric_scooter", "name": "50f503b31c4414887e76d5ed17f34013", "lat": 38.91710716666667, "bike_id": "50f503b31c4414887e76d5ed17f34013"}, {"lon": -77.03232633333333, "rental_uris": {"android": "https://dc.lft.to/lastmile_qr_scan", "ios": "https://dc.lft.to/lastmile_qr_scan"}, "fusion_lon": 0.0, "is_reserved": 0, "is_disabled": 0, "fusion_lat": 0.0, "type": "electric_scooter", "name": "9ebe530f508a728312a116c9ba09d278", "lat": 38.90855616666666, "bike_id": "9ebe530f508a728312a116c9ba09d278"}, {"lon": -77.03161583333333, "rental_uris": {"android": "https://dc.lft.to/lastmile_qr_scan", "ios": "https://dc.lft.to/lastmile_qr_scan"}, "fusion_lon": 0.0, "is_reserved": 0, "is_disabled": 0, "fusion_lat": 0.0, "type": "electric_scooter", "name": "af8f33fdc51d4ad9c990596641864b5e", "lat": 38.91784583333333, "bike_id": "af8f33fdc51d4ad9c990596641864b5e"}, {"lon": -77.04489933333333, "rental_uris": {"android": "https://dc.lft.to/lastmile_qr_scan", "ios": "https://dc.lft.to/lastmile_qr_scan"}, "fusion_lon": 0.0, "is_reserved": 0, "is_disabled": 0, "fusion_lat": 0.0, "type": "electric_scooter", "name": "8b69eb77d9ec9e29939483c317862026", "lat": 38.892325166666666, "bike_id": "8b69eb77d9ec9e29939483c317862026"}, {"lon": -77.02746516666667, "rental_uris": {"android": "https://dc.lft.to/lastmile_qr_scan", "ios": "https://dc.lft.to/lastmile_qr_scan"}, "fusion_lon": 0.0, "is_reserved": 0, "is_disabled": 0, "fusion_lat": 0.0, "type": "electric_scooter", "name": "63f7a180a3b0bfc8de0ae6383fe6885a", "lat": 38.96606333333333, "bike_id": "63f7a180a3b0bfc8de0ae6383fe6885a"}, {"lon": -77.02239816666666, "rental_uris": {"android": "https://dc.lft.to/lastmile_qr_scan", "ios": "https://dc.lft.to/lastmile_qr_scan"}, "fusion_lon": 0.0, "is_reserved": 0, "is_disabled": 0, "fusion_lat": 0.0, "type": "electric_scooter", "name": "98b1c4003e80dc2b7959fdb9c21f2e2b", "lat": 38.9136105, "bike_id": "98b1c4003e80dc2b7959fdb9c21f2e2b"}, {"lon": -77.0574105, "rental_uris": {"android": "https://dc.lft.to/lastmile_qr_scan", "ios": "https://dc.lft.to/lastmile_qr_scan"}, "fusion_lon": 0.0, "is_reserved": 0, "is_disabled": 0, "fusion_lat": 0.0, "type": "electric_scooter", "name": "7e8805d9dba93d1551820784149be9b6", "lat": 38.9339, "bike_id": "7e8805d9dba93d1551820784149be9b6"}, {"lon": -77.02807166666666, "rental_uris": {"android": "https://dc.lft.to/lastmile_qr_scan", "ios": "https://dc.lft.to/lastmile_qr_scan"}, "fusion_lon": 0.0, "is_reserved": 0, "is_disabled": 0, "fusion_lat": 0.0, "type": "electric_scooter", "name": "cda168d9fcc4b58b417623a8beb57872", "lat": 38.916581666666666, "bike_id": "cda168d9fcc4b58b417623a8beb57872"}, {"lon": -77.05740116666666, "rental_uris": {"android": "https://dc.lft.to/lastmile_qr_scan", "ios": "https://dc.lft.to/lastmile_qr_scan"}, "fusion_lon": 0.0, "is_reserved": 0, "is_disabled": 0, "fusion_lat": 0.0, "type": "electric_scooter", "name": "8c9f771cdba54d93d734ab85504cec16", "lat": 38.93392766666667, "bike_id": "8c9f771cdba54d93d734ab85504cec16"}, {"lon": -77.03937766666667, "rental_uris": {"android": "https://dc.lft.to/lastmile_qr_scan", "ios": "https://dc.lft.to/lastmile_qr_scan"}, "fusion_lon": 0.0, "is_reserved": 0, "is_disabled": 0, "fusion_lat": 0.0, "type": "electric_scooter", "name": "100f5f89fd6feb16a26af8dd429ad59c", "lat": 38.9141385, "bike_id": "100f5f89fd6feb16a26af8dd429ad59c"}, {"lon": -77.01685733333333, "rental_uris": {"android": "https://dc.lft.to/lastmile_qr_scan", "ios": "https://dc.lft.to/lastmile_qr_scan"}, "fusion_lon": 0.0, "is_reserved": 0, "is_disabled": 0, "fusion_lat": 0.0, "type": "electric_scooter", "name": "cb9e1203d548cbe6194b0fa20578ee21", "lat": 38.9204235, "bike_id": "cb9e1203d548cbe6194b0fa20578ee21"}, {"lon": -77.02282916666667, "rental_uris": {"android": "https://dc.lft.to/lastmile_qr_scan", "ios": "https://dc.lft.to/lastmile_qr_scan"}, "fusion_lon": 0.0, "is_reserved": 0, "is_disabled": 0, "fusion_lat": 0.0, "type": "electric_scooter", "name": "b61ac2bc9052d20509db2c68fc551ef2", "lat": 38.92654516666666, "bike_id": "b61ac2bc9052d20509db2c68fc551ef2"}, {"lon": -77.00836533333333, "rental_uris": {"android": "https://dc.lft.to/lastmile_qr_scan", "ios": "https://dc.lft.to/lastmile_qr_scan"}, "fusion_lon": 0.0, "is_reserved": 0, "is_disabled": 0, "fusion_lat": 0.0, "type": "electric_scooter", "name": "128a317342fed578eda59661a7e464d5", "lat": 38.897095666666665, "bike_id": "128a317342fed578eda59661a7e464d5"}, {"lon": -77.0467545, "rental_uris": {"android": "https://dc.lft.to/lastmile_qr_scan", "ios": "https://dc.lft.to/lastmile_qr_scan"}, "fusion_lon": 0.0, "is_reserved": 0, "is_disabled": 0, "fusion_lat": 0.0, "type": "electric_scooter", "name": "faa6fdf10d902c3eb0498d2320576f43", "lat": 38.8926495, "bike_id": "faa6fdf10d902c3eb0498d2320576f43"}, {"lon": -77.0185945, "rental_uris": {"android": "https://dc.lft.to/lastmile_qr_scan", "ios": "https://dc.lft.to/lastmile_qr_scan"}, "fusion_lon": 0.0, "is_reserved": 0, "is_disabled": 0, "fusion_lat": 0.0, "type": "electric_scooter", "name": "3ff8f5b50f21a9fca33fe1d3f28e521c", "lat": 38.914905, "bike_id": "3ff8f5b50f21a9fca33fe1d3f28e521c"}, {"lon": -77.02091383333334, "rental_uris": {"android": "https://dc.lft.to/lastmile_qr_scan", "ios": "https://dc.lft.to/lastmile_qr_scan"}, "fusion_lon": 0.0, "is_reserved": 0, "is_disabled": 0, "fusion_lat": 0.0, "type": "electric_scooter", "name": "dc77d33179f88476175def85a3eeac23", "lat": 38.92153166666667, "bike_id": "dc77d33179f88476175def85a3eeac23"}, {"lon": -77.01431783333334, "rental_uris": {"android": "https://dc.lft.to/lastmile_qr_scan", "ios": "https://dc.lft.to/lastmile_qr_scan"}, "fusion_lon": 0.0, "is_reserved": 0, "is_disabled": 0, "fusion_lat": 0.0, "type": "electric_scooter", "name": "ba27f763970c32854650c4ffa5b97c12", "lat": 38.8988585, "bike_id": "ba27f763970c32854650c4ffa5b97c12"}, {"lon": -77.037704, "rental_uris": {"android": "https://dc.lft.to/lastmile_qr_scan", "ios": "https://dc.lft.to/lastmile_qr_scan"}, "fusion_lon": 0.0, "is_reserved": 0, "is_disabled": 0, "fusion_lat": 0.0, "type": "electric_scooter", "name": "cd09ad0154ad030a79a28f75fae486b1", "lat": 38.906780166666664, "bike_id": "cd09ad0154ad030a79a28f75fae486b1"}, {"lon": -77.044941, "rental_uris": {"android": "https://dc.lft.to/lastmile_qr_scan", "ios": "https://dc.lft.to/lastmile_qr_scan"}, "fusion_lon": 0.0, "is_reserved": 0, "is_disabled": 0, "fusion_lat": 0.0, "type": "electric_scooter", "name": "3794bd595186f9fe122927284ac85e46", "lat": 38.892318333333336, "bike_id": "3794bd595186f9fe122927284ac85e46"}, {"lon": -76.99499683333333, "rental_uris": {"android": "https://dc.lft.to/lastmile_qr_scan", "ios": "https://dc.lft.to/lastmile_qr_scan"}, "fusion_lon": 0.0, "is_reserved": 0, "is_disabled": 0, "fusion_lat": 0.0, "type": "electric_scooter", "name": "c40d94dafcdf077ea1d26b14d8df8fee", "lat": 38.909771166666665, "bike_id": "c40d94dafcdf077ea1d26b14d8df8fee"}, {"lon": -77.0317705, "rental_uris": {"android": "https://dc.lft.to/lastmile_qr_scan", "ios": "https://dc.lft.to/lastmile_qr_scan"}, "fusion_lon": 0.0, "is_reserved": 0, "is_disabled": 0, "fusion_lat": 0.0, "type": "electric_scooter", "name": "b1c041941e40a3a3931bfa5d2d5445ba", "lat": 38.89981, "bike_id": "b1c041941e40a3a3931bfa5d2d5445ba"}, {"lon": -77.0269695, "rental_uris": {"android": "https://dc.lft.to/lastmile_qr_scan", "ios": "https://dc.lft.to/lastmile_qr_scan"}, "fusion_lon": 0.0, "is_reserved": 0, "is_disabled": 0, "fusion_lat": 0.0, "type": "electric_scooter", "name": "0376b5ba9c811e4ad4250867ba22e24f", "lat": 38.9179525, "bike_id": "0376b5ba9c811e4ad4250867ba22e24f"}, {"lon": -76.97614433333334, "rental_uris": {"android": "https://dc.lft.to/lastmile_qr_scan", "ios": "https://dc.lft.to/lastmile_qr_scan"}, "fusion_lon": 0.0, "is_reserved": 0, "is_disabled": 0, "fusion_lat": 0.0, "type": "electric_scooter", "name": "ba75f056329dccbf3a84a7924ed1d9a7", "lat": 38.9037995, "bike_id": "ba75f056329dccbf3a84a7924ed1d9a7"}, {"lon": -76.969789, "rental_uris": {"android": "https://dc.lft.to/lastmile_qr_scan", "ios": "https://dc.lft.to/lastmile_qr_scan"}, "fusion_lon": 0.0, "is_reserved": 0, "is_disabled": 0, "fusion_lat": 0.0, "type": "electric_scooter", "name": "8849dde05b04163cea1af6cae7c8d8d2", "lat": 38.873842, "bike_id": "8849dde05b04163cea1af6cae7c8d8d2"}, {"lon": -77.0211265, "rental_uris": {"android": "https://dc.lft.to/lastmile_qr_scan", "ios": "https://dc.lft.to/lastmile_qr_scan"}, "fusion_lon": 0.0, "is_reserved": 0, "is_disabled": 0, "fusion_lat": 0.0, "type": "electric_scooter", "name": "ea36610cb9bbf7b76a2e2d2753b32f91", "lat": 38.927002333333334, "bike_id": "ea36610cb9bbf7b76a2e2d2753b32f91"}, {"lon": -77.07307516666667, "rental_uris": {"android": "https://dc.lft.to/lastmile_qr_scan", "ios": "https://dc.lft.to/lastmile_qr_scan"}, "fusion_lon": 0.0, "is_reserved": 0, "is_disabled": 0, "fusion_lat": 0.0, "type": "electric_scooter", "name": "7e8b1c1e75916016eab1879295337dae", "lat": 38.929082, "bike_id": "7e8b1c1e75916016eab1879295337dae"}, {"lon": -77.050017, "rental_uris": {"android": "https://dc.lft.to/lastmile_qr_scan", "ios": "https://dc.lft.to/lastmile_qr_scan"}, "fusion_lon": 0.0, "is_reserved": 0, "is_disabled": 0, "fusion_lat": 0.0, "type": "electric_scooter", "name": "7c29ce97a2ce5f56ff256e8ddc9cfac0", "lat": 38.90544216666667, "bike_id": "7c29ce97a2ce5f56ff256e8ddc9cfac0"}, {"lon": -77.02416533333333, "rental_uris": {"android": "https://dc.lft.to/lastmile_qr_scan", "ios": "https://dc.lft.to/lastmile_qr_scan"}, "fusion_lon": 0.0, "is_reserved": 0, "is_disabled": 0, "fusion_lat": 0.0, "type": "electric_scooter", "name": "c8526927a026bb1e58c7f16e4c539258", "lat": 38.957294166666664, "bike_id": "c8526927a026bb1e58c7f16e4c539258"}, {"lon": -77.00571416666666, "rental_uris": {"android": "https://dc.lft.to/lastmile_qr_scan", "ios": "https://dc.lft.to/lastmile_qr_scan"}, "fusion_lon": 0.0, "is_reserved": 0, "is_disabled": 0, "fusion_lat": 0.0, "type": "electric_scooter", "name": "15e506fc737fa3a50aff501fc079bfb5", "lat": 38.92925733333333, "bike_id": "15e506fc737fa3a50aff501fc079bfb5"}, {"lon": -77.03940216666666, "rental_uris": {"android": "https://dc.lft.to/lastmile_qr_scan", "ios": "https://dc.lft.to/lastmile_qr_scan"}, "fusion_lon": 0.0, "is_reserved": 0, "is_disabled": 0, "fusion_lat": 0.0, "type": "electric_scooter", "name": "94609ae65a32d24b68df0a0308c8797b", "lat": 38.90166116666666, "bike_id": "94609ae65a32d24b68df0a0308c8797b"}, {"lon": -77.044434, "rental_uris": {"android": "https://dc.lft.to/lastmile_qr_scan", "ios": "https://dc.lft.to/lastmile_qr_scan"}, "fusion_lon": 0.0, "is_reserved": 0, "is_disabled": 0, "fusion_lat": 0.0, "type": "electric_scooter", "name": "1f7ab951cfb955c8151da4e2511d58ed", "lat": 38.909457, "bike_id": "1f7ab951cfb955c8151da4e2511d58ed"}, {"lon": -77.04279266666667, "rental_uris": {"android": "https://dc.lft.to/lastmile_qr_scan", "ios": "https://dc.lft.to/lastmile_qr_scan"}, "fusion_lon": 0.0, "is_reserved": 0, "is_disabled": 0, "fusion_lat": 0.0, "type": "electric_scooter", "name": "c78a323843b80a916c7d8316cf8fc43b", "lat": 38.934247166666665, "bike_id": "c78a323843b80a916c7d8316cf8fc43b"}, {"lon": -77.03527233333334, "rental_uris": {"android": "https://dc.lft.to/lastmile_qr_scan", "ios": "https://dc.lft.to/lastmile_qr_scan"}, "fusion_lon": 0.0, "is_reserved": 0, "is_disabled": 0, "fusion_lat": 0.0, "type": "electric_scooter", "name": "8f64b247d952c3b69cc1ca554ba60cc3", "lat": 38.93712266666667, "bike_id": "8f64b247d952c3b69cc1ca554ba60cc3"}, {"lon": -76.99509883333333, "rental_uris": {"android": "https://dc.lft.to/lastmile_qr_scan", "ios": "https://dc.lft.to/lastmile_qr_scan"}, "fusion_lon": 0.0, "is_reserved": 0, "is_disabled": 0, "fusion_lat": 0.0, "type": "electric_scooter", "name": "5dd1155bc3d3f5e595aa5085f5d0c5b6", "lat": 38.89163, "bike_id": "5dd1155bc3d3f5e595aa5085f5d0c5b6"}, {"lon": -77.03280683333334, "rental_uris": {"android": "https://dc.lft.to/lastmile_qr_scan", "ios": "https://dc.lft.to/lastmile_qr_scan"}, "fusion_lon": 0.0, "is_reserved": 0, "is_disabled": 0, "fusion_lat": 0.0, "type": "electric_scooter", "name": "f8bc31c8b6f0229392c3920080430d08", "lat": 38.93785866666666, "bike_id": "f8bc31c8b6f0229392c3920080430d08"}, {"lon": -77.0138325, "rental_uris": {"android": "https://dc.lft.to/lastmile_qr_scan", "ios": "https://dc.lft.to/lastmile_qr_scan"}, "fusion_lon": 0.0, "is_reserved": 0, "is_disabled": 0, "fusion_lat": 0.0, "type": "electric_scooter", "name": "408df6aec43311ccbe499f2939384bfd", "lat": 38.928811333333336, "bike_id": "408df6aec43311ccbe499f2939384bfd"}, {"lon": -77.0457095, "rental_uris": {"android": "https://dc.lft.to/lastmile_qr_scan", "ios": "https://dc.lft.to/lastmile_qr_scan"}, "fusion_lon": 0.0, "is_reserved": 0, "is_disabled": 0, "fusion_lat": 0.0, "type": "electric_scooter", "name": "67982c6522c56df5a75f43461e24c7cd", "lat": 38.902130166666666, "bike_id": "67982c6522c56df5a75f43461e24c7cd"}, {"lon": -77.03514316666667, "rental_uris": {"android": "https://dc.lft.to/lastmile_qr_scan", "ios": "https://dc.lft.to/lastmile_qr_scan"}, "fusion_lon": 0.0, "is_reserved": 0, "is_disabled": 0, "fusion_lat": 0.0, "type": "electric_scooter", "name": "828754ad6648b0d42bfc3f583f18d448", "lat": 38.918631, "bike_id": "828754ad6648b0d42bfc3f583f18d448"}, {"lon": -76.979806, "rental_uris": {"android": "https://dc.lft.to/lastmile_qr_scan", "ios": "https://dc.lft.to/lastmile_qr_scan"}, "fusion_lon": 0.0, "is_reserved": 0, "is_disabled": 0, "fusion_lat": 0.0, "type": "electric_scooter", "name": "c1edce503ffc15b555618ee0cc2087db", "lat": 38.907257, "bike_id": "c1edce503ffc15b555618ee0cc2087db"}, {"lon": -77.03532733333333, "rental_uris": {"android": "https://dc.lft.to/lastmile_qr_scan", "ios": "https://dc.lft.to/lastmile_qr_scan"}, "fusion_lon": 0.0, "is_reserved": 0, "is_disabled": 0, "fusion_lat": 0.0, "type": "electric_scooter", "name": "218bb92f50afc7d96e69ffc60ba22d73", "lat": 38.918267666666665, "bike_id": "218bb92f50afc7d96e69ffc60ba22d73"}, {"lon": -77.03085383333334, "rental_uris": {"android": "https://dc.lft.to/lastmile_qr_scan", "ios": "https://dc.lft.to/lastmile_qr_scan"}, "fusion_lon": 0.0, "is_reserved": 0, "is_disabled": 0, "fusion_lat": 0.0, "type": "electric_scooter", "name": "8cbb65c9de23054cbf202b6d9d4e0a32", "lat": 38.91055383333333, "bike_id": "8cbb65c9de23054cbf202b6d9d4e0a32"}, {"lon": -76.9931075, "rental_uris": {"android": "https://dc.lft.to/lastmile_qr_scan", "ios": "https://dc.lft.to/lastmile_qr_scan"}, "fusion_lon": 0.0, "is_reserved": 0, "is_disabled": 0, "fusion_lat": 0.0, "type": "electric_bike", "name": "5b2c8a341e1d11d2f58e2325ef5d4766", "lat": 38.94626916666667, "bike_id": "5b2c8a341e1d11d2f58e2325ef5d4766"}, {"lon": -77.03216116666667, "rental_uris": {"android": "https://dc.lft.to/lastmile_qr_scan", "ios": "https://dc.lft.to/lastmile_qr_scan"}, "fusion_lon": 0.0, "is_reserved": 0, "is_disabled": 0, "fusion_lat": 0.0, "type": "electric_scooter", "name": "f738470511a6a93e4cadce362f7e4689", "lat": 38.89217883333333, "bike_id": "f738470511a6a93e4cadce362f7e4689"}, {"lon": -77.03144566666667, "rental_uris": {"android": "https://dc.lft.to/lastmile_qr_scan", "ios": "https://dc.lft.to/lastmile_qr_scan"}, "fusion_lon": 0.0, "is_reserved": 0, "is_disabled": 0, "fusion_lat": 0.0, "type": "electric_scooter", "name": "49cc86b6a56e13d176de3c34df38e3ee", "lat": 38.89920216666667, "bike_id": "49cc86b6a56e13d176de3c34df38e3ee"}, {"lon": -77.02300916666667, "rental_uris": {"android": "https://dc.lft.to/lastmile_qr_scan", "ios": "https://dc.lft.to/lastmile_qr_scan"}, "fusion_lon": 0.0, "is_reserved": 0, "is_disabled": 0, "fusion_lat": 0.0, "type": "electric_scooter", "name": "dc2555a381aca75fdb5b8b24428a914f", "lat": 38.920741, "bike_id": "dc2555a381aca75fdb5b8b24428a914f"}, {"lon": -76.95819083333333, "rental_uris": {"android": "https://dc.lft.to/lastmile_qr_scan", "ios": "https://dc.lft.to/lastmile_qr_scan"}, "fusion_lon": 0.0, "is_reserved": 0, "is_disabled": 0, "fusion_lat": 0.0, "type": "electric_bike", "name": "3c47a5deebfc6b20eeda804cca62799a", "lat": 38.9200175, "bike_id": "3c47a5deebfc6b20eeda804cca62799a"}, {"lon": -77.024556, "rental_uris": {"android": "https://dc.lft.to/lastmile_qr_scan", "ios": "https://dc.lft.to/lastmile_qr_scan"}, "fusion_lon": 0.0, "is_reserved": 0, "is_disabled": 0, "fusion_lat": 0.0, "type": "electric_bike", "name": "4f293d14ad261ab1255f6a679ebe488a", "lat": 38.89841166666667, "bike_id": "4f293d14ad261ab1255f6a679ebe488a"}, {"lon": -77.038627, "rental_uris": {"android": "https://dc.lft.to/lastmile_qr_scan", "ios": "https://dc.lft.to/lastmile_qr_scan"}, "fusion_lon": 0.0, "is_reserved": 0, "is_disabled": 0, "fusion_lat": 0.0, "type": "electric_scooter", "name": "fef8877c5f6c5e9d7fb0335a482fd1f8", "lat": 38.903440333333336, "bike_id": "fef8877c5f6c5e9d7fb0335a482fd1f8"}, {"lon": -77.02165416666666, "rental_uris": {"android": "https://dc.lft.to/lastmile_qr_scan", "ios": "https://dc.lft.to/lastmile_qr_scan"}, "fusion_lon": 0.0, "is_reserved": 0, "is_disabled": 0, "fusion_lat": 0.0, "type": "electric_scooter", "name": "73719b401feacaf3fac807afd1610e7d", "lat": 38.91965616666667, "bike_id": "73719b401feacaf3fac807afd1610e7d"}, {"lon": -77.0608535, "rental_uris": {"android": "https://dc.lft.to/lastmile_qr_scan", "ios": "https://dc.lft.to/lastmile_qr_scan"}, "fusion_lon": 0.0, "is_reserved": 0, "is_disabled": 0, "fusion_lat": 0.0, "type": "electric_scooter", "name": "ae3077da880bc1763a04028213e9c48b", "lat": 38.902282166666666, "bike_id": "ae3077da880bc1763a04028213e9c48b"}, {"lon": -77.00201133333333, "rental_uris": {"android": "https://dc.lft.to/lastmile_qr_scan", "ios": "https://dc.lft.to/lastmile_qr_scan"}, "fusion_lon": 0.0, "is_reserved": 0, "is_disabled": 0, "fusion_lat": 0.0, "type": "electric_scooter", "name": "66b4c475514c3708f76d98b4351c98d7", "lat": 38.900294, "bike_id": "66b4c475514c3708f76d98b4351c98d7"}, {"lon": -77.019734, "rental_uris": {"android": "https://dc.lft.to/lastmile_qr_scan", "ios": "https://dc.lft.to/lastmile_qr_scan"}, "fusion_lon": 0.0, "is_reserved": 0, "is_disabled": 0, "fusion_lat": 0.0, "type": "electric_scooter", "name": "7cb57426efb0370100802632ce5e2ed4", "lat": 38.90848016666666, "bike_id": "7cb57426efb0370100802632ce5e2ed4"}, {"lon": -77.00308933333334, "rental_uris": {"android": "https://dc.lft.to/lastmile_qr_scan", "ios": "https://dc.lft.to/lastmile_qr_scan"}, "fusion_lon": 0.0, "is_reserved": 0, "is_disabled": 0, "fusion_lat": 0.0, "type": "electric_scooter", "name": "1cc39445462ab33fb2f2168368c442b1", "lat": 38.87670683333333, "bike_id": "1cc39445462ab33fb2f2168368c442b1"}, {"lon": -76.99776466666667, "rental_uris": {"android": "https://dc.lft.to/lastmile_qr_scan", "ios": "https://dc.lft.to/lastmile_qr_scan"}, "fusion_lon": 0.0, "is_reserved": 0, "is_disabled": 0, "fusion_lat": 0.0, "type": "electric_scooter", "name": "c695afc45ed11a7fe25d06b6769d61cd", "lat": 38.84422966666666, "bike_id": "c695afc45ed11a7fe25d06b6769d61cd"}, {"lon": -77.0347745, "rental_uris": {"android": "https://dc.lft.to/lastmile_qr_scan", "ios": "https://dc.lft.to/lastmile_qr_scan"}, "fusion_lon": 0.0, "is_reserved": 0, "is_disabled": 0, "fusion_lat": 0.0, "type": "electric_scooter", "name": "be78628a6294deb6b00c1ef036cee5d9", "lat": 38.88491233333333, "bike_id": "be78628a6294deb6b00c1ef036cee5d9"}, {"lon": -77.0070565, "rental_uris": {"android": "https://dc.lft.to/lastmile_qr_scan", "ios": "https://dc.lft.to/lastmile_qr_scan"}, "fusion_lon": 0.0, "is_reserved": 0, "is_disabled": 0, "fusion_lat": 0.0, "type": "electric_scooter", "name": "934820ddf42ffdae6a23bf48c81ec907", "lat": 38.88486916666667, "bike_id": "934820ddf42ffdae6a23bf48c81ec907"}, {"lon": -77.03101866666667, "rental_uris": {"android": "https://dc.lft.to/lastmile_qr_scan", "ios": "https://dc.lft.to/lastmile_qr_scan"}, "fusion_lon": 0.0, "is_reserved": 0, "is_disabled": 0, "fusion_lat": 0.0, "type": "electric_scooter", "name": "625efef721edd8fdbbcd471ff0a0bdfc", "lat": 38.923835833333335, "bike_id": "625efef721edd8fdbbcd471ff0a0bdfc"}, {"lon": -76.99972333333334, "rental_uris": {"android": "https://dc.lft.to/lastmile_qr_scan", "ios": "https://dc.lft.to/lastmile_qr_scan"}, "fusion_lon": 0.0, "is_reserved": 0, "is_disabled": 0, "fusion_lat": 0.0, "type": "electric_scooter", "name": "91694bb1716589c8423c673679fbd60c", "lat": 38.9093245, "bike_id": "91694bb1716589c8423c673679fbd60c"}, {"lon": -76.961556, "rental_uris": {"android": "https://dc.lft.to/lastmile_qr_scan", "ios": "https://dc.lft.to/lastmile_qr_scan"}, "fusion_lon": 0.0, "is_reserved": 0, "is_disabled": 0, "fusion_lat": 0.0, "type": "electric_bike", "name": "67c761885ed18574e06fffa59bbfec05", "lat": 38.856147, "bike_id": "67c761885ed18574e06fffa59bbfec05"}, {"lon": -77.03183083333333, "rental_uris": {"android": "https://dc.lft.to/lastmile_qr_scan", "ios": "https://dc.lft.to/lastmile_qr_scan"}, "fusion_lon": 0.0, "is_reserved": 0, "is_disabled": 0, "fusion_lat": 0.0, "type": "electric_scooter", "name": "98fbcc3e2e80bdf9e1d5d5a8851322ef", "lat": 38.9360845, "bike_id": "98fbcc3e2e80bdf9e1d5d5a8851322ef"}, {"lon": -77.0506565, "rental_uris": {"android": "https://dc.lft.to/lastmile_qr_scan", "ios": "https://dc.lft.to/lastmile_qr_scan"}, "fusion_lon": 0.0, "is_reserved": 0, "is_disabled": 0, "fusion_lat": 0.0, "type": "electric_scooter", "name": "c105ed095a3f404af3bbeafcf5b8906c", "lat": 38.89965083333333, "bike_id": "c105ed095a3f404af3bbeafcf5b8906c"}, {"lon": -77.01194816666667, "rental_uris": {"android": "https://dc.lft.to/lastmile_qr_scan", "ios": "https://dc.lft.to/lastmile_qr_scan"}, "fusion_lon": 0.0, "is_reserved": 0, "is_disabled": 0, "fusion_lat": 0.0, "type": "electric_scooter", "name": "490958b07402f2a8d867947f726624fb", "lat": 38.89797683333333, "bike_id": "490958b07402f2a8d867947f726624fb"}, {"lon": -77.02958733333334, "rental_uris": {"android": "https://dc.lft.to/lastmile_qr_scan", "ios": "https://dc.lft.to/lastmile_qr_scan"}, "fusion_lon": 0.0, "is_reserved": 0, "is_disabled": 0, "fusion_lat": 0.0, "type": "electric_scooter", "name": "10295ff47e25c5a5141c5626048305fd", "lat": 38.91683733333333, "bike_id": "10295ff47e25c5a5141c5626048305fd"}, {"lon": -77.048657, "rental_uris": {"android": "https://dc.lft.to/lastmile_qr_scan", "ios": "https://dc.lft.to/lastmile_qr_scan"}, "fusion_lon": 0.0, "is_reserved": 0, "is_disabled": 0, "fusion_lat": 0.0, "type": "electric_scooter", "name": "821fce9e2c1aa2fc031b5b703c839afb", "lat": 38.89217766666667, "bike_id": "821fce9e2c1aa2fc031b5b703c839afb"}, {"lon": -76.9940985, "rental_uris": {"android": "https://dc.lft.to/lastmile_qr_scan", "ios": "https://dc.lft.to/lastmile_qr_scan"}, "fusion_lon": 0.0, "is_reserved": 0, "is_disabled": 0, "fusion_lat": 0.0, "type": "electric_scooter", "name": "ed63643e7a0d5cd38aa98dc0df2561d6", "lat": 38.8778455, "bike_id": "ed63643e7a0d5cd38aa98dc0df2561d6"}, {"lon": -77.048703, "rental_uris": {"android": "https://dc.lft.to/lastmile_qr_scan", "ios": "https://dc.lft.to/lastmile_qr_scan"}, "fusion_lon": 0.0, "is_reserved": 0, "is_disabled": 0, "fusion_lat": 0.0, "type": "electric_scooter", "name": "96c2fbcebe7826df306502f3e2781c0c", "lat": 38.892228, "bike_id": "96c2fbcebe7826df306502f3e2781c0c"}, {"lon": -77.050049, "rental_uris": {"android": "https://dc.lft.to/lastmile_qr_scan", "ios": "https://dc.lft.to/lastmile_qr_scan"}, "fusion_lon": 0.0, "is_reserved": 0, "is_disabled": 0, "fusion_lat": 0.0, "type": "electric_scooter", "name": "7d55ad8ca27543c0faaae612ccbdfcdc", "lat": 38.8922015, "bike_id": "7d55ad8ca27543c0faaae612ccbdfcdc"}, {"lon": -77.03434183333333, "rental_uris": {"android": "https://dc.lft.to/lastmile_qr_scan", "ios": "https://dc.lft.to/lastmile_qr_scan"}, "fusion_lon": 0.0, "is_reserved": 0, "is_disabled": 0, "fusion_lat": 0.0, "type": "electric_bike", "name": "c9db14edeef3f2edb496eeb8b292404c", "lat": 38.96619416666667, "bike_id": "c9db14edeef3f2edb496eeb8b292404c"}, {"lon": -77.04082333333334, "rental_uris": {"android": "https://dc.lft.to/lastmile_qr_scan", "ios": "https://dc.lft.to/lastmile_qr_scan"}, "fusion_lon": 0.0, "is_reserved": 0, "is_disabled": 0, "fusion_lat": 0.0, "type": "electric_scooter", "name": "20f707b8d9964ac45a799c4220312263", "lat": 38.89832616666666, "bike_id": "20f707b8d9964ac45a799c4220312263"}, {"lon": -77.0306465, "rental_uris": {"android": "https://dc.lft.to/lastmile_qr_scan", "ios": "https://dc.lft.to/lastmile_qr_scan"}, "fusion_lon": 0.0, "is_reserved": 0, "is_disabled": 0, "fusion_lat": 0.0, "type": "electric_scooter", "name": "176348c99b0296c794ed262e2795573d", "lat": 38.92254116666667, "bike_id": "176348c99b0296c794ed262e2795573d"}, {"lon": -76.96911583333333, "rental_uris": {"android": "https://dc.lft.to/lastmile_qr_scan", "ios": "https://dc.lft.to/lastmile_qr_scan"}, "fusion_lon": 0.0, "is_reserved": 0, "is_disabled": 0, "fusion_lat": 0.0, "type": "electric_bike", "name": "8a55b30f78ccdb2f114f4b0a88219c07", "lat": 38.84609066666667, "bike_id": "8a55b30f78ccdb2f114f4b0a88219c07"}, {"lon": -77.02102833333333, "rental_uris": {"android": "https://dc.lft.to/lastmile_qr_scan", "ios": "https://dc.lft.to/lastmile_qr_scan"}, "fusion_lon": 0.0, "is_reserved": 0, "is_disabled": 0, "fusion_lat": 0.0, "type": "electric_scooter", "name": "1fc0a122aaf6e2591ba96acb4e02d933", "lat": 38.89422716666667, "bike_id": "1fc0a122aaf6e2591ba96acb4e02d933"}, {"lon": -77.0432885, "rental_uris": {"android": "https://dc.lft.to/lastmile_qr_scan", "ios": "https://dc.lft.to/lastmile_qr_scan"}, "fusion_lon": 0.0, "is_reserved": 0, "is_disabled": 0, "fusion_lat": 0.0, "type": "electric_scooter", "name": "58819210d53980474f7f1bc4d06fc52b", "lat": 38.89223416666667, "bike_id": "58819210d53980474f7f1bc4d06fc52b"}, {"lon": -77.03326483333333, "rental_uris": {"android": "https://dc.lft.to/lastmile_qr_scan", "ios": "https://dc.lft.to/lastmile_qr_scan"}, "fusion_lon": 0.0, "is_reserved": 0, "is_disabled": 0, "fusion_lat": 0.0, "type": "electric_scooter", "name": "828b872bbccbe6222093b364d4b795a8", "lat": 38.90267933333333, "bike_id": "828b872bbccbe6222093b364d4b795a8"}, {"lon": -76.98599, "rental_uris": {"android": "https://dc.lft.to/lastmile_qr_scan", "ios": "https://dc.lft.to/lastmile_qr_scan"}, "fusion_lon": 0.0, "is_reserved": 0, "is_disabled": 0, "fusion_lat": 0.0, "type": "electric_scooter", "name": "9bd79d54cf31cb709ade4ebbd0fe27f3", "lat": 38.89472116666666, "bike_id": "9bd79d54cf31cb709ade4ebbd0fe27f3"}, {"lon": -77.0366015, "rental_uris": {"android": "https://dc.lft.to/lastmile_qr_scan", "ios": "https://dc.lft.to/lastmile_qr_scan"}, "fusion_lon": 0.0, "is_reserved": 0, "is_disabled": 0, "fusion_lat": 0.0, "type": "electric_scooter", "name": "8367f7b6e2a9f3cb8a605b0b40520065", "lat": 38.9211465, "bike_id": "8367f7b6e2a9f3cb8a605b0b40520065"}, {"lon": -77.00573566666667, "rental_uris": {"android": "https://dc.lft.to/lastmile_qr_scan", "ios": "https://dc.lft.to/lastmile_qr_scan"}, "fusion_lon": 0.0, "is_reserved": 0, "is_disabled": 0, "fusion_lat": 0.0, "type": "electric_scooter", "name": "8a104ebcec42c27d75b62ecdb01f636d", "lat": 38.8723245, "bike_id": "8a104ebcec42c27d75b62ecdb01f636d"}, {"lon": -77.04506266666667, "rental_uris": {"android": "https://dc.lft.to/lastmile_qr_scan", "ios": "https://dc.lft.to/lastmile_qr_scan"}, "fusion_lon": 0.0, "is_reserved": 0, "is_disabled": 0, "fusion_lat": 0.0, "type": "electric_scooter", "name": "4b54900eb3413bfdc3ea1a3359a9a93f", "lat": 38.905877333333336, "bike_id": "4b54900eb3413bfdc3ea1a3359a9a93f"}, {"lon": -77.01852083333333, "rental_uris": {"android": "https://dc.lft.to/lastmile_qr_scan", "ios": "https://dc.lft.to/lastmile_qr_scan"}, "fusion_lon": 0.0, "is_reserved": 0, "is_disabled": 0, "fusion_lat": 0.0, "type": "electric_scooter", "name": "2a699ad7e5dcd37f801d6e8780ff71d7", "lat": 38.95425383333333, "bike_id": "2a699ad7e5dcd37f801d6e8780ff71d7"}, {"lon": -77.02546333333333, "rental_uris": {"android": "https://dc.lft.to/lastmile_qr_scan", "ios": "https://dc.lft.to/lastmile_qr_scan"}, "fusion_lon": 0.0, "is_reserved": 0, "is_disabled": 0, "fusion_lat": 0.0, "type": "electric_scooter", "name": "1277e826604589314643254d6be01354", "lat": 38.930915, "bike_id": "1277e826604589314643254d6be01354"}, {"lon": -77.07789766666667, "rental_uris": {"android": "https://dc.lft.to/lastmile_qr_scan", "ios": "https://dc.lft.to/lastmile_qr_scan"}, "fusion_lon": 0.0, "is_reserved": 0, "is_disabled": 0, "fusion_lat": 0.0, "type": "electric_bike", "name": "492e58640208c3e2207c9fd2b4c70dc4", "lat": 38.99492516666667, "bike_id": "492e58640208c3e2207c9fd2b4c70dc4"}, {"lon": -77.04349616666667, "rental_uris": {"android": "https://dc.lft.to/lastmile_qr_scan", "ios": "https://dc.lft.to/lastmile_qr_scan"}, "fusion_lon": 0.0, "is_reserved": 0, "is_disabled": 0, "fusion_lat": 0.0, "type": "electric_scooter", "name": "f3ca7d5e880c9c06ef4c04eb6c4867c5", "lat": 38.92145033333333, "bike_id": "f3ca7d5e880c9c06ef4c04eb6c4867c5"}, {"lon": -77.038632, "rental_uris": {"android": "https://dc.lft.to/lastmile_qr_scan", "ios": "https://dc.lft.to/lastmile_qr_scan"}, "fusion_lon": 0.0, "is_reserved": 0, "is_disabled": 0, "fusion_lat": 0.0, "type": "electric_scooter", "name": "296933a139b3c1fe36852e44d48154ec", "lat": 38.9027055, "bike_id": "296933a139b3c1fe36852e44d48154ec"}, {"lon": -77.04251533333333, "rental_uris": {"android": "https://dc.lft.to/lastmile_qr_scan", "ios": "https://dc.lft.to/lastmile_qr_scan"}, "fusion_lon": 0.0, "is_reserved": 0, "is_disabled": 0, "fusion_lat": 0.0, "type": "electric_scooter", "name": "d7abe8ce227f844c5a2c593d34b00252", "lat": 38.92366033333333, "bike_id": "d7abe8ce227f844c5a2c593d34b00252"}, {"lon": -77.02644, "rental_uris": {"android": "https://dc.lft.to/lastmile_qr_scan", "ios": "https://dc.lft.to/lastmile_qr_scan"}, "fusion_lon": 0.0, "is_reserved": 0, "is_disabled": 0, "fusion_lat": 0.0, "type": "electric_scooter", "name": "2b505a64fa0875c9b71b76d93dcaa978", "lat": 38.941021666666664, "bike_id": "2b505a64fa0875c9b71b76d93dcaa978"}, {"lon": -76.92887733333333, "rental_uris": {"android": "https://dc.lft.to/lastmile_qr_scan", "ios": "https://dc.lft.to/lastmile_qr_scan"}, "fusion_lon": 0.0, "is_reserved": 0, "is_disabled": 0, "fusion_lat": 0.0, "type": "electric_bike", "name": "7d194ae181318bcd152b69e137945ac8", "lat": 38.978309, "bike_id": "7d194ae181318bcd152b69e137945ac8"}, {"lon": -76.95240616666666, "rental_uris": {"android": "https://dc.lft.to/lastmile_qr_scan", "ios": "https://dc.lft.to/lastmile_qr_scan"}, "fusion_lon": 0.0, "is_reserved": 0, "is_disabled": 0, "fusion_lat": 0.0, "type": "electric_bike", "name": "1c119e2c08ca15f542aed1d4a67dc10f", "lat": 38.8845465, "bike_id": "1c119e2c08ca15f542aed1d4a67dc10f"}, {"lon": -77.03943083333333, "rental_uris": {"android": "https://dc.lft.to/lastmile_qr_scan", "ios": "https://dc.lft.to/lastmile_qr_scan"}, "fusion_lon": 0.0, "is_reserved": 0, "is_disabled": 0, "fusion_lat": 0.0, "type": "electric_scooter", "name": "538c1dfb6cf25e1bb1ff6d5790bdf262", "lat": 38.908348333333336, "bike_id": "538c1dfb6cf25e1bb1ff6d5790bdf262"}, {"lon": -77.1272835, "rental_uris": {"android": "https://dc.lft.to/lastmile_qr_scan", "ios": "https://dc.lft.to/lastmile_qr_scan"}, "fusion_lon": 0.0, "is_reserved": 0, "is_disabled": 0, "fusion_lat": 0.0, "type": "electric_bike", "name": "18f145a302bced7c07e61daf50b789d1", "lat": 38.895626666666665, "bike_id": "18f145a302bced7c07e61daf50b789d1"}, {"lon": -77.04475416666666, "rental_uris": {"android": "https://dc.lft.to/lastmile_qr_scan", "ios": "https://dc.lft.to/lastmile_qr_scan"}, "fusion_lon": 0.0, "is_reserved": 0, "is_disabled": 0, "fusion_lat": 0.0, "type": "electric_scooter", "name": "7a44f60a0fa041299fcde28c6e2ed98a", "lat": 38.90564766666667, "bike_id": "7a44f60a0fa041299fcde28c6e2ed98a"}, {"lon": -77.02946416666667, "rental_uris": {"android": "https://dc.lft.to/lastmile_qr_scan", "ios": "https://dc.lft.to/lastmile_qr_scan"}, "fusion_lon": 0.0, "is_reserved": 0, "is_disabled": 0, "fusion_lat": 0.0, "type": "electric_scooter", "name": "c4c86f63c12f3f47f047ce61a1e472da", "lat": 38.9189565, "bike_id": "c4c86f63c12f3f47f047ce61a1e472da"}, {"lon": -77.00799866666667, "rental_uris": {"android": "https://dc.lft.to/lastmile_qr_scan", "ios": "https://dc.lft.to/lastmile_qr_scan"}, "fusion_lon": 0.0, "is_reserved": 0, "is_disabled": 0, "fusion_lat": 0.0, "type": "electric_bike", "name": "9939ed616f467f49f6a6e90c1797b1be", "lat": 38.949146166666665, "bike_id": "9939ed616f467f49f6a6e90c1797b1be"}, {"lon": -77.02203666666666, "rental_uris": {"android": "https://dc.lft.to/lastmile_qr_scan", "ios": "https://dc.lft.to/lastmile_qr_scan"}, "fusion_lon": 0.0, "is_reserved": 0, "is_disabled": 0, "fusion_lat": 0.0, "type": "electric_scooter", "name": "2322a1c3189965842d498d5593cde6ce", "lat": 38.8871515, "bike_id": "2322a1c3189965842d498d5593cde6ce"}, {"lon": -76.93391716666666, "rental_uris": {"android": "https://dc.lft.to/lastmile_qr_scan", "ios": "https://dc.lft.to/lastmile_qr_scan"}, "fusion_lon": 0.0, "is_reserved": 0, "is_disabled": 0, "fusion_lat": 0.0, "type": "electric_scooter", "name": "4eb97c2bdf4d373d7c376e3f8e0e6c60", "lat": 38.90288833333334, "bike_id": "4eb97c2bdf4d373d7c376e3f8e0e6c60"}, {"lon": -77.01508783333334, "rental_uris": {"android": "https://dc.lft.to/lastmile_qr_scan", "ios": "https://dc.lft.to/lastmile_qr_scan"}, "fusion_lon": 0.0, "is_reserved": 0, "is_disabled": 0, "fusion_lat": 0.0, "type": "electric_scooter", "name": "7db46351eecf4b383ab5467b18bf5b50", "lat": 38.926732333333334, "bike_id": "7db46351eecf4b383ab5467b18bf5b50"}, {"lon": -77.03588933333333, "rental_uris": {"android": "https://dc.lft.to/lastmile_qr_scan", "ios": "https://dc.lft.to/lastmile_qr_scan"}, "fusion_lon": 0.0, "is_reserved": 0, "is_disabled": 0, "fusion_lat": 0.0, "type": "electric_bike", "name": "a5ad7a4810b2fbd45f36d356d0eaf8ef", "lat": 38.99222416666667, "bike_id": "a5ad7a4810b2fbd45f36d356d0eaf8ef"}, {"lon": -77.01684983333334, "rental_uris": {"android": "https://dc.lft.to/lastmile_qr_scan", "ios": "https://dc.lft.to/lastmile_qr_scan"}, "fusion_lon": 0.0, "is_reserved": 0, "is_disabled": 0, "fusion_lat": 0.0, "type": "electric_scooter", "name": "111a1b68be2b00b8b982455de47fc8ab", "lat": 38.920411666666666, "bike_id": "111a1b68be2b00b8b982455de47fc8ab"}, {"lon": -77.0435605, "rental_uris": {"android": "https://dc.lft.to/lastmile_qr_scan", "ios": "https://dc.lft.to/lastmile_qr_scan"}, "fusion_lon": 0.0, "is_reserved": 0, "is_disabled": 0, "fusion_lat": 0.0, "type": "electric_scooter", "name": "a5df9d9cee7d4532b2e0c85d4be11ae8", "lat": 38.897378833333335, "bike_id": "a5df9d9cee7d4532b2e0c85d4be11ae8"}, {"lon": -77.12653, "rental_uris": {"android": "https://dc.lft.to/lastmile_qr_scan", "ios": "https://dc.lft.to/lastmile_qr_scan"}, "fusion_lon": 0.0, "is_reserved": 0, "is_disabled": 0, "fusion_lat": 0.0, "type": "electric_bike", "name": "6da19ce6716d68beb1288bb17aec7951", "lat": 38.81907316666667, "bike_id": "6da19ce6716d68beb1288bb17aec7951"}, {"lon": -77.02695583333333, "rental_uris": {"android": "https://dc.lft.to/lastmile_qr_scan", "ios": "https://dc.lft.to/lastmile_qr_scan"}, "fusion_lon": 0.0, "is_reserved": 0, "is_disabled": 0, "fusion_lat": 0.0, "type": "electric_scooter", "name": "c7a21933e769223f9a9a1b9783a1a977", "lat": 38.8963005, "bike_id": "c7a21933e769223f9a9a1b9783a1a977"}, {"lon": -77.04997483333334, "rental_uris": {"android": "https://dc.lft.to/lastmile_qr_scan", "ios": "https://dc.lft.to/lastmile_qr_scan"}, "fusion_lon": 0.0, "is_reserved": 0, "is_disabled": 0, "fusion_lat": 0.0, "type": "electric_scooter", "name": "b91a9bf77796ef41177dd8e805239d81", "lat": 38.90113266666667, "bike_id": "b91a9bf77796ef41177dd8e805239d81"}, {"lon": -76.99990733333334, "rental_uris": {"android": "https://dc.lft.to/lastmile_qr_scan", "ios": "https://dc.lft.to/lastmile_qr_scan"}, "fusion_lon": 0.0, "is_reserved": 0, "is_disabled": 0, "fusion_lat": 0.0, "type": "electric_scooter", "name": "cc77023fb7d069ee5aa8dd1549face23", "lat": 38.908676166666666, "bike_id": "cc77023fb7d069ee5aa8dd1549face23"}, {"lon": -77.0534175, "rental_uris": {"android": "https://dc.lft.to/lastmile_qr_scan", "ios": "https://dc.lft.to/lastmile_qr_scan"}, "fusion_lon": 0.0, "is_reserved": 0, "is_disabled": 0, "fusion_lat": 0.0, "type": "electric_scooter", "name": "7705426e44886c9c64920a536ff9c160", "lat": 38.927135666666665, "bike_id": "7705426e44886c9c64920a536ff9c160"}, {"lon": -77.07309983333333, "rental_uris": {"android": "https://dc.lft.to/lastmile_qr_scan", "ios": "https://dc.lft.to/lastmile_qr_scan"}, "fusion_lon": 0.0, "is_reserved": 0, "is_disabled": 0, "fusion_lat": 0.0, "type": "electric_scooter", "name": "6462ddfc4fd5d4769212276ac7b65ee7", "lat": 38.936103833333334, "bike_id": "6462ddfc4fd5d4769212276ac7b65ee7"}, {"lon": -76.93728366666667, "rental_uris": {"android": "https://dc.lft.to/lastmile_qr_scan", "ios": "https://dc.lft.to/lastmile_qr_scan"}, "fusion_lon": 0.0, "is_reserved": 0, "is_disabled": 0, "fusion_lat": 0.0, "type": "electric_scooter", "name": "7e77111faa1e22ced3cf0023cc3e806f", "lat": 38.89031466666667, "bike_id": "7e77111faa1e22ced3cf0023cc3e806f"}, {"lon": -77.03799166666667, "rental_uris": {"android": "https://dc.lft.to/lastmile_qr_scan", "ios": "https://dc.lft.to/lastmile_qr_scan"}, "fusion_lon": 0.0, "is_reserved": 0, "is_disabled": 0, "fusion_lat": 0.0, "type": "electric_bike", "name": "d418e44dbd1ebe094a0a6e628135e71b", "lat": 38.9965935, "bike_id": "d418e44dbd1ebe094a0a6e628135e71b"}, {"lon": -77.0237945, "rental_uris": {"android": "https://dc.lft.to/lastmile_qr_scan", "ios": "https://dc.lft.to/lastmile_qr_scan"}, "fusion_lon": 0.0, "is_reserved": 0, "is_disabled": 0, "fusion_lat": 0.0, "type": "electric_scooter", "name": "c0ceaeb124bdc2bf992431bf111eb11d", "lat": 38.89194333333333, "bike_id": "c0ceaeb124bdc2bf992431bf111eb11d"}, {"lon": -77.04158283333334, "rental_uris": {"android": "https://dc.lft.to/lastmile_qr_scan", "ios": "https://dc.lft.to/lastmile_qr_scan"}, "fusion_lon": 0.0, "is_reserved": 0, "is_disabled": 0, "fusion_lat": 0.0, "type": "electric_scooter", "name": "62f7fdc7ca2b0b5b6e85ce3fcce6614e", "lat": 38.89225283333333, "bike_id": "62f7fdc7ca2b0b5b6e85ce3fcce6614e"}, {"lon": -77.0433275, "rental_uris": {"android": "https://dc.lft.to/lastmile_qr_scan", "ios": "https://dc.lft.to/lastmile_qr_scan"}, "fusion_lon": 0.0, "is_reserved": 0, "is_disabled": 0, "fusion_lat": 0.0, "type": "electric_scooter", "name": "e1f11f7bec98ee97c2221424d020bfc3", "lat": 38.92214966666667, "bike_id": "e1f11f7bec98ee97c2221424d020bfc3"}, {"lon": -77.04364283333334, "rental_uris": {"android": "https://dc.lft.to/lastmile_qr_scan", "ios": "https://dc.lft.to/lastmile_qr_scan"}, "fusion_lon": 0.0, "is_reserved": 0, "is_disabled": 0, "fusion_lat": 0.0, "type": "electric_scooter", "name": "7dc50f8290dcefada097fc2bb1f8c04c", "lat": 38.904168166666665, "bike_id": "7dc50f8290dcefada097fc2bb1f8c04c"}, {"lon": -77.0135505, "rental_uris": {"android": "https://dc.lft.to/lastmile_qr_scan", "ios": "https://dc.lft.to/lastmile_qr_scan"}, "fusion_lon": 0.0, "is_reserved": 0, "is_disabled": 0, "fusion_lat": 0.0, "type": "electric_scooter", "name": "6b3f0e685349044106125c9df22ad862", "lat": 38.92885016666666, "bike_id": "6b3f0e685349044106125c9df22ad862"}, {"lon": -76.931874, "rental_uris": {"android": "https://dc.lft.to/lastmile_qr_scan", "ios": "https://dc.lft.to/lastmile_qr_scan"}, "fusion_lon": 0.0, "is_reserved": 0, "is_disabled": 0, "fusion_lat": 0.0, "type": "electric_scooter", "name": "16785ec582537c7dfe928af169dfc3d4", "lat": 38.89876183333333, "bike_id": "16785ec582537c7dfe928af169dfc3d4"}, {"lon": -76.97328383333334, "rental_uris": {"android": "https://dc.lft.to/lastmile_qr_scan", "ios": "https://dc.lft.to/lastmile_qr_scan"}, "fusion_lon": 0.0, "is_reserved": 0, "is_disabled": 0, "fusion_lat": 0.0, "type": "electric_scooter", "name": "d3c50a7123b21ea3d44ea2bf6f16d1ec", "lat": 38.904791833333334, "bike_id": "d3c50a7123b21ea3d44ea2bf6f16d1ec"}, {"lon": -77.0467695, "rental_uris": {"android": "https://dc.lft.to/lastmile_qr_scan", "ios": "https://dc.lft.to/lastmile_qr_scan"}, "fusion_lon": 0.0, "is_reserved": 0, "is_disabled": 0, "fusion_lat": 0.0, "type": "electric_scooter", "name": "3b2b04d738aa4a1ec6f35a86ba9cf32d", "lat": 38.8926855, "bike_id": "3b2b04d738aa4a1ec6f35a86ba9cf32d"}, {"lon": -77.02467883333334, "rental_uris": {"android": "https://dc.lft.to/lastmile_qr_scan", "ios": "https://dc.lft.to/lastmile_qr_scan"}, "fusion_lon": 0.0, "is_reserved": 0, "is_disabled": 0, "fusion_lat": 0.0, "type": "electric_scooter", "name": "0cefffba09eac85013eed539f758ed1e", "lat": 38.906436166666666, "bike_id": "0cefffba09eac85013eed539f758ed1e"}, {"lon": -76.9543235, "rental_uris": {"android": "https://dc.lft.to/lastmile_qr_scan", "ios": "https://dc.lft.to/lastmile_qr_scan"}, "fusion_lon": 0.0, "is_reserved": 0, "is_disabled": 0, "fusion_lat": 0.0, "type": "electric_scooter", "name": "e471f24114af16d78622ced982a6a7b9", "lat": 38.890020666666665, "bike_id": "e471f24114af16d78622ced982a6a7b9"}, {"lon": -76.9935875, "rental_uris": {"android": "https://dc.lft.to/lastmile_qr_scan", "ios": "https://dc.lft.to/lastmile_qr_scan"}, "fusion_lon": 0.0, "is_reserved": 0, "is_disabled": 0, "fusion_lat": 0.0, "type": "electric_scooter", "name": "881f054412972dfd69c27df556522400", "lat": 38.877835833333336, "bike_id": "881f054412972dfd69c27df556522400"}, {"lon": -77.00580066666667, "rental_uris": {"android": "https://dc.lft.to/lastmile_qr_scan", "ios": "https://dc.lft.to/lastmile_qr_scan"}, "fusion_lon": 0.0, "is_reserved": 0, "is_disabled": 0, "fusion_lat": 0.0, "type": "electric_scooter", "name": "78809c6cfe05e1a73a067ab60f22face", "lat": 38.90640766666667, "bike_id": "78809c6cfe05e1a73a067ab60f22face"}, {"lon": -77.032827, "rental_uris": {"android": "https://dc.lft.to/lastmile_qr_scan", "ios": "https://dc.lft.to/lastmile_qr_scan"}, "fusion_lon": 0.0, "is_reserved": 0, "is_disabled": 0, "fusion_lat": 0.0, "type": "electric_scooter", "name": "4dece00170b6f75530d53153c70a159b", "lat": 38.89878683333333, "bike_id": "4dece00170b6f75530d53153c70a159b"}, {"lon": -77.03460933333334, "rental_uris": {"android": "https://dc.lft.to/lastmile_qr_scan", "ios": "https://dc.lft.to/lastmile_qr_scan"}, "fusion_lon": 0.0, "is_reserved": 0, "is_disabled": 0, "fusion_lat": 0.0, "type": "electric_scooter", "name": "4e24d54eaf2c0e36e37f07093ea9bc26", "lat": 38.908692333333335, "bike_id": "4e24d54eaf2c0e36e37f07093ea9bc26"}, {"lon": -77.0135455, "rental_uris": {"android": "https://dc.lft.to/lastmile_qr_scan", "ios": "https://dc.lft.to/lastmile_qr_scan"}, "fusion_lon": 0.0, "is_reserved": 0, "is_disabled": 0, "fusion_lat": 0.0, "type": "electric_scooter", "name": "762e65026aae1685b30278bbb3daa9d6", "lat": 38.94209, "bike_id": "762e65026aae1685b30278bbb3daa9d6"}, {"lon": -77.02824816666667, "rental_uris": {"android": "https://dc.lft.to/lastmile_qr_scan", "ios": "https://dc.lft.to/lastmile_qr_scan"}, "fusion_lon": 0.0, "is_reserved": 0, "is_disabled": 0, "fusion_lat": 0.0, "type": "electric_scooter", "name": "f8dde89def9a9f91562bce6b9e2b0b14", "lat": 38.897843, "bike_id": "f8dde89def9a9f91562bce6b9e2b0b14"}, {"lon": -76.9867275, "rental_uris": {"android": "https://dc.lft.to/lastmile_qr_scan", "ios": "https://dc.lft.to/lastmile_qr_scan"}, "fusion_lon": 0.0, "is_reserved": 0, "is_disabled": 0, "fusion_lat": 0.0, "type": "electric_bike", "name": "89c2ee76f2aafa981e75f6b94722970f", "lat": 38.835141666666665, "bike_id": "89c2ee76f2aafa981e75f6b94722970f"}, {"lon": -77.03297766666667, "rental_uris": {"android": "https://dc.lft.to/lastmile_qr_scan", "ios": "https://dc.lft.to/lastmile_qr_scan"}, "fusion_lon": 0.0, "is_reserved": 0, "is_disabled": 0, "fusion_lat": 0.0, "type": "electric_scooter", "name": "d6d44b79ef5eabec2f1462b972e23047", "lat": 38.92749216666667, "bike_id": "d6d44b79ef5eabec2f1462b972e23047"}, {"lon": -77.03015866666667, "rental_uris": {"android": "https://dc.lft.to/lastmile_qr_scan", "ios": "https://dc.lft.to/lastmile_qr_scan"}, "fusion_lon": 0.0, "is_reserved": 0, "is_disabled": 0, "fusion_lat": 0.0, "type": "electric_bike", "name": "0d912b8bd44bd582d1d2dbd06de2deb9", "lat": 38.89562083333333, "bike_id": "0d912b8bd44bd582d1d2dbd06de2deb9"}, {"lon": -77.04164316666666, "rental_uris": {"android": "https://dc.lft.to/lastmile_qr_scan", "ios": "https://dc.lft.to/lastmile_qr_scan"}, "fusion_lon": 0.0, "is_reserved": 0, "is_disabled": 0, "fusion_lat": 0.0, "type": "electric_scooter", "name": "3df33cff53d270f6711660a2bf94529f", "lat": 38.905145, "bike_id": "3df33cff53d270f6711660a2bf94529f"}, {"lon": -77.03998166666666, "rental_uris": {"android": "https://dc.lft.to/lastmile_qr_scan", "ios": "https://dc.lft.to/lastmile_qr_scan"}, "fusion_lon": 0.0, "is_reserved": 0, "is_disabled": 0, "fusion_lat": 0.0, "type": "electric_scooter", "name": "8ac3de7427c95fe6c12712fe1403d9d2", "lat": 38.93418333333334, "bike_id": "8ac3de7427c95fe6c12712fe1403d9d2"}, {"lon": -77.03192316666667, "rental_uris": {"android": "https://dc.lft.to/lastmile_qr_scan", "ios": "https://dc.lft.to/lastmile_qr_scan"}, "fusion_lon": 0.0, "is_reserved": 0, "is_disabled": 0, "fusion_lat": 0.0, "type": "electric_scooter", "name": "2acbd593c28e178b929123326d58e733", "lat": 38.903434833333336, "bike_id": "2acbd593c28e178b929123326d58e733"}, {"lon": -76.96555116666667, "rental_uris": {"android": "https://dc.lft.to/lastmile_qr_scan", "ios": "https://dc.lft.to/lastmile_qr_scan"}, "fusion_lon": 0.0, "is_reserved": 0, "is_disabled": 0, "fusion_lat": 0.0, "type": "electric_scooter", "name": "0e8e0cac6607850531eb85adb4e9dea5", "lat": 38.91853783333333, "bike_id": "0e8e0cac6607850531eb85adb4e9dea5"}, {"lon": -77.0469035, "rental_uris": {"android": "https://dc.lft.to/lastmile_qr_scan", "ios": "https://dc.lft.to/lastmile_qr_scan"}, "fusion_lon": 0.0, "is_reserved": 0, "is_disabled": 0, "fusion_lat": 0.0, "type": "electric_scooter", "name": "6c919001c4d37a44e46f0a6b8e4a856b", "lat": 38.90023383333333, "bike_id": "6c919001c4d37a44e46f0a6b8e4a856b"}, {"lon": -77.04689216666667, "rental_uris": {"android": "https://dc.lft.to/lastmile_qr_scan", "ios": "https://dc.lft.to/lastmile_qr_scan"}, "fusion_lon": 0.0, "is_reserved": 0, "is_disabled": 0, "fusion_lat": 0.0, "type": "electric_scooter", "name": "881f60940d06fe1115b5bc3a76944727", "lat": 38.9211775, "bike_id": "881f60940d06fe1115b5bc3a76944727"}, {"lon": -76.9964425, "rental_uris": {"android": "https://dc.lft.to/lastmile_qr_scan", "ios": "https://dc.lft.to/lastmile_qr_scan"}, "fusion_lon": 0.0, "is_reserved": 0, "is_disabled": 0, "fusion_lat": 0.0, "type": "electric_bike", "name": "bfa9b6c7aee47c1cbf4f25cd3f9b3053", "lat": 38.98823216666667, "bike_id": "bfa9b6c7aee47c1cbf4f25cd3f9b3053"}, {"lon": -77.03131216666667, "rental_uris": {"android": "https://dc.lft.to/lastmile_qr_scan", "ios": "https://dc.lft.to/lastmile_qr_scan"}, "fusion_lon": 0.0, "is_reserved": 0, "is_disabled": 0, "fusion_lat": 0.0, "type": "electric_scooter", "name": "19d1ce664ab04a0aa287973f9e1eb6b1", "lat": 38.910479333333335, "bike_id": "19d1ce664ab04a0aa287973f9e1eb6b1"}, {"lon": -77.021146, "rental_uris": {"android": "https://dc.lft.to/lastmile_qr_scan", "ios": "https://dc.lft.to/lastmile_qr_scan"}, "fusion_lon": 0.0, "is_reserved": 0, "is_disabled": 0, "fusion_lat": 0.0, "type": "electric_scooter", "name": "a1189c86d4e8cd279c027130f092c554", "lat": 38.92431833333333, "bike_id": "a1189c86d4e8cd279c027130f092c554"}, {"lon": -77.05354483333333, "rental_uris": {"android": "https://dc.lft.to/lastmile_qr_scan", "ios": "https://dc.lft.to/lastmile_qr_scan"}, "fusion_lon": 0.0, "is_reserved": 0, "is_disabled": 0, "fusion_lat": 0.0, "type": "electric_scooter", "name": "11272c580aab5ec24c6b017e7cfcfcd2", "lat": 38.927919833333334, "bike_id": "11272c580aab5ec24c6b017e7cfcfcd2"}, {"lon": -77.032836, "rental_uris": {"android": "https://dc.lft.to/lastmile_qr_scan", "ios": "https://dc.lft.to/lastmile_qr_scan"}, "fusion_lon": 0.0, "is_reserved": 0, "is_disabled": 0, "fusion_lat": 0.0, "type": "electric_scooter", "name": "33f9834adf3848ce703d2cfb2f157ce6", "lat": 38.89917366666667, "bike_id": "33f9834adf3848ce703d2cfb2f157ce6"}, {"lon": -77.0179385, "rental_uris": {"android": "https://dc.lft.to/lastmile_qr_scan", "ios": "https://dc.lft.to/lastmile_qr_scan"}, "fusion_lon": 0.0, "is_reserved": 0, "is_disabled": 0, "fusion_lat": 0.0, "type": "electric_scooter", "name": "1fcaa571b45039141a4f4d77a2fb8a09", "lat": 38.91400816666667, "bike_id": "1fcaa571b45039141a4f4d77a2fb8a09"}, {"lon": -77.028047, "rental_uris": {"android": "https://dc.lft.to/lastmile_qr_scan", "ios": "https://dc.lft.to/lastmile_qr_scan"}, "fusion_lon": 0.0, "is_reserved": 0, "is_disabled": 0, "fusion_lat": 0.0, "type": "electric_scooter", "name": "d37a12442335e9bacd79266d136abb6a", "lat": 38.89729833333333, "bike_id": "d37a12442335e9bacd79266d136abb6a"}, {"lon": -77.05469583333333, "rental_uris": {"android": "https://dc.lft.to/lastmile_qr_scan", "ios": "https://dc.lft.to/lastmile_qr_scan"}, "fusion_lon": 0.0, "is_reserved": 0, "is_disabled": 0, "fusion_lat": 0.0, "type": "electric_scooter", "name": "6bbb34d71105849b5a2049fed5b54d89", "lat": 38.9232825, "bike_id": "6bbb34d71105849b5a2049fed5b54d89"}, {"lon": -77.0335495, "rental_uris": {"android": "https://dc.lft.to/lastmile_qr_scan", "ios": "https://dc.lft.to/lastmile_qr_scan"}, "fusion_lon": 0.0, "is_reserved": 0, "is_disabled": 0, "fusion_lat": 0.0, "type": "electric_bike", "name": "c434f6a8149f3000a77e328f18f2d321", "lat": 38.97230966666667, "bike_id": "c434f6a8149f3000a77e328f18f2d321"}, {"lon": -76.96782633333333, "rental_uris": {"android": "https://dc.lft.to/lastmile_qr_scan", "ios": "https://dc.lft.to/lastmile_qr_scan"}, "fusion_lon": 0.0, "is_reserved": 0, "is_disabled": 0, "fusion_lat": 0.0, "type": "electric_scooter", "name": "5b7719bca8746392da0adbb81f9d84e6", "lat": 38.8732645, "bike_id": "5b7719bca8746392da0adbb81f9d84e6"}, {"lon": -77.0446895, "rental_uris": {"android": "https://dc.lft.to/lastmile_qr_scan", "ios": "https://dc.lft.to/lastmile_qr_scan"}, "fusion_lon": 0.0, "is_reserved": 0, "is_disabled": 0, "fusion_lat": 0.0, "type": "electric_scooter", "name": "8e1fc8c4948da32bbc193118f03584b3", "lat": 38.89220616666667, "bike_id": "8e1fc8c4948da32bbc193118f03584b3"}, {"lon": -76.98845133333333, "rental_uris": {"android": "https://dc.lft.to/lastmile_qr_scan", "ios": "https://dc.lft.to/lastmile_qr_scan"}, "fusion_lon": 0.0, "is_reserved": 0, "is_disabled": 0, "fusion_lat": 0.0, "type": "electric_bike", "name": "94120099c24730568237823c4758f8e3", "lat": 38.8426895, "bike_id": "94120099c24730568237823c4758f8e3"}, {"lon": -77.06940133333333, "rental_uris": {"android": "https://dc.lft.to/lastmile_qr_scan", "ios": "https://dc.lft.to/lastmile_qr_scan"}, "fusion_lon": 0.0, "is_reserved": 0, "is_disabled": 0, "fusion_lat": 0.0, "type": "electric_scooter", "name": "015018ddf5d2e1b14284d3e2963f56fd", "lat": 38.9174415, "bike_id": "015018ddf5d2e1b14284d3e2963f56fd"}, {"lon": -77.0385645, "rental_uris": {"android": "https://dc.lft.to/lastmile_qr_scan", "ios": "https://dc.lft.to/lastmile_qr_scan"}, "fusion_lon": 0.0, "is_reserved": 0, "is_disabled": 0, "fusion_lat": 0.0, "type": "electric_scooter", "name": "4bd84096493ca9be85cb4c1dbec1e34b", "lat": 38.90652516666667, "bike_id": "4bd84096493ca9be85cb4c1dbec1e34b"}, {"lon": -76.978448, "rental_uris": {"android": "https://dc.lft.to/lastmile_qr_scan", "ios": "https://dc.lft.to/lastmile_qr_scan"}, "fusion_lon": 0.0, "is_reserved": 0, "is_disabled": 0, "fusion_lat": 0.0, "type": "electric_scooter", "name": "e975d65de3e9c47d01574dc4d835751f", "lat": 38.8696815, "bike_id": "e975d65de3e9c47d01574dc4d835751f"}, {"lon": -77.04152966666666, "rental_uris": {"android": "https://dc.lft.to/lastmile_qr_scan", "ios": "https://dc.lft.to/lastmile_qr_scan"}, "fusion_lon": 0.0, "is_reserved": 0, "is_disabled": 0, "fusion_lat": 0.0, "type": "electric_scooter", "name": "9ff642ff40e467995def839cf989ac2b", "lat": 38.90368083333333, "bike_id": "9ff642ff40e467995def839cf989ac2b"}, {"lon": -77.04996516666667, "rental_uris": {"android": "https://dc.lft.to/lastmile_qr_scan", "ios": "https://dc.lft.to/lastmile_qr_scan"}, "fusion_lon": 0.0, "is_reserved": 0, "is_disabled": 0, "fusion_lat": 0.0, "type": "electric_scooter", "name": "0def30ca4aa9a73e6a095567bef7dadb", "lat": 38.898709, "bike_id": "0def30ca4aa9a73e6a095567bef7dadb"}, {"lon": -77.043394, "rental_uris": {"android": "https://dc.lft.to/lastmile_qr_scan", "ios": "https://dc.lft.to/lastmile_qr_scan"}, "fusion_lon": 0.0, "is_reserved": 0, "is_disabled": 0, "fusion_lat": 0.0, "type": "electric_scooter", "name": "d873f43347114b315ed436e459a7100c", "lat": 38.900468000000004, "bike_id": "d873f43347114b315ed436e459a7100c"}, {"lon": -77.03212433333333, "rental_uris": {"android": "https://dc.lft.to/lastmile_qr_scan", "ios": "https://dc.lft.to/lastmile_qr_scan"}, "fusion_lon": 0.0, "is_reserved": 0, "is_disabled": 0, "fusion_lat": 0.0, "type": "electric_scooter", "name": "002a49fc57caa065b56dca631a17eda9", "lat": 38.892181, "bike_id": "002a49fc57caa065b56dca631a17eda9"}, {"lon": -77.0135825, "rental_uris": {"android": "https://dc.lft.to/lastmile_qr_scan", "ios": "https://dc.lft.to/lastmile_qr_scan"}, "fusion_lon": 0.0, "is_reserved": 0, "is_disabled": 0, "fusion_lat": 0.0, "type": "electric_scooter", "name": "5d0260519d7e955ddbfb92450b7064cb", "lat": 38.87265333333333, "bike_id": "5d0260519d7e955ddbfb92450b7064cb"}, {"lon": -77.0511865, "rental_uris": {"android": "https://dc.lft.to/lastmile_qr_scan", "ios": "https://dc.lft.to/lastmile_qr_scan"}, "fusion_lon": 0.0, "is_reserved": 0, "is_disabled": 0, "fusion_lat": 0.0, "type": "electric_scooter", "name": "ef6cf102dc56baf3b4049c44169d997d", "lat": 38.906284166666666, "bike_id": "ef6cf102dc56baf3b4049c44169d997d"}, {"lon": -77.02593383333334, "rental_uris": {"android": "https://dc.lft.to/lastmile_qr_scan", "ios": "https://dc.lft.to/lastmile_qr_scan"}, "fusion_lon": 0.0, "is_reserved": 0, "is_disabled": 0, "fusion_lat": 0.0, "type": "electric_scooter", "name": "bb7578902f95bd21bcf0da4b7f7f6a72", "lat": 38.89367283333333, "bike_id": "bb7578902f95bd21bcf0da4b7f7f6a72"}, {"lon": -77.01938833333334, "rental_uris": {"android": "https://dc.lft.to/lastmile_qr_scan", "ios": "https://dc.lft.to/lastmile_qr_scan"}, "fusion_lon": 0.0, "is_reserved": 0, "is_disabled": 0, "fusion_lat": 0.0, "type": "electric_scooter", "name": "dd870e69f043f6b7b79936fd96d66d48", "lat": 38.922502, "bike_id": "dd870e69f043f6b7b79936fd96d66d48"}, {"lon": -77.0385735, "rental_uris": {"android": "https://dc.lft.to/lastmile_qr_scan", "ios": "https://dc.lft.to/lastmile_qr_scan"}, "fusion_lon": 0.0, "is_reserved": 0, "is_disabled": 0, "fusion_lat": 0.0, "type": "electric_scooter", "name": "7d11298716450496aa6c2aef137d6d5f", "lat": 38.919647, "bike_id": "7d11298716450496aa6c2aef137d6d5f"}, {"lon": -77.022191, "rental_uris": {"android": "https://dc.lft.to/lastmile_qr_scan", "ios": "https://dc.lft.to/lastmile_qr_scan"}, "fusion_lon": 0.0, "is_reserved": 0, "is_disabled": 0, "fusion_lat": 0.0, "type": "electric_scooter", "name": "20e76d4c5b1c7cc8e16aae902205fd0c", "lat": 38.89216183333333, "bike_id": "20e76d4c5b1c7cc8e16aae902205fd0c"}, {"lon": -77.032105, "rental_uris": {"android": "https://dc.lft.to/lastmile_qr_scan", "ios": "https://dc.lft.to/lastmile_qr_scan"}, "fusion_lon": 0.0, "is_reserved": 0, "is_disabled": 0, "fusion_lat": 0.0, "type": "electric_scooter", "name": "efc9d4552067a331af4b76489a7aa580", "lat": 38.90888183333333, "bike_id": "efc9d4552067a331af4b76489a7aa580"}, {"lon": -77.00763333333333, "rental_uris": {"android": "https://dc.lft.to/lastmile_qr_scan", "ios": "https://dc.lft.to/lastmile_qr_scan"}, "fusion_lon": 0.0, "is_reserved": 0, "is_disabled": 0, "fusion_lat": 0.0, "type": "electric_scooter", "name": "968bdd6102d8e1032213673a7a908c9a", "lat": 38.871133666666665, "bike_id": "968bdd6102d8e1032213673a7a908c9a"}, {"lon": -77.03256516666667, "rental_uris": {"android": "https://dc.lft.to/lastmile_qr_scan", "ios": "https://dc.lft.to/lastmile_qr_scan"}, "fusion_lon": 0.0, "is_reserved": 0, "is_disabled": 0, "fusion_lat": 0.0, "type": "electric_scooter", "name": "fda81565d3dddb6ebcf149261c47bc93", "lat": 38.935191833333334, "bike_id": "fda81565d3dddb6ebcf149261c47bc93"}, {"lon": -77.02979866666666, "rental_uris": {"android": "https://dc.lft.to/lastmile_qr_scan", "ios": "https://dc.lft.to/lastmile_qr_scan"}, "fusion_lon": 0.0, "is_reserved": 0, "is_disabled": 0, "fusion_lat": 0.0, "type": "electric_scooter", "name": "063eca55b4b07a90f24fbf6353f1124d", "lat": 38.93182266666667, "bike_id": "063eca55b4b07a90f24fbf6353f1124d"}, {"lon": -77.02125833333334, "rental_uris": {"android": "https://dc.lft.to/lastmile_qr_scan", "ios": "https://dc.lft.to/lastmile_qr_scan"}, "fusion_lon": 0.0, "is_reserved": 0, "is_disabled": 0, "fusion_lat": 0.0, "type": "electric_scooter", "name": "cd3cc0ef1c42f01fd58eb6664495fa5a", "lat": 38.9190485, "bike_id": "cd3cc0ef1c42f01fd58eb6664495fa5a"}, {"lon": -77.03921166666667, "rental_uris": {"android": "https://dc.lft.to/lastmile_qr_scan", "ios": "https://dc.lft.to/lastmile_qr_scan"}, "fusion_lon": 0.0, "is_reserved": 0, "is_disabled": 0, "fusion_lat": 0.0, "type": "electric_scooter", "name": "b1bdc7bda436a33f7ede8d7956ce5614", "lat": 38.9081335, "bike_id": "b1bdc7bda436a33f7ede8d7956ce5614"}, {"lon": -77.00255016666667, "rental_uris": {"android": "https://dc.lft.to/lastmile_qr_scan", "ios": "https://dc.lft.to/lastmile_qr_scan"}, "fusion_lon": 0.0, "is_reserved": 0, "is_disabled": 0, "fusion_lat": 0.0, "type": "electric_scooter", "name": "f58fbbffdd072828577783e18a4e0c73", "lat": 38.95231016666666, "bike_id": "f58fbbffdd072828577783e18a4e0c73"}, {"lon": -77.03833116666667, "rental_uris": {"android": "https://dc.lft.to/lastmile_qr_scan", "ios": "https://dc.lft.to/lastmile_qr_scan"}, "fusion_lon": 0.0, "is_reserved": 0, "is_disabled": 0, "fusion_lat": 0.0, "type": "electric_scooter", "name": "93d094a5f757766db81610175581adf3", "lat": 38.911055166666664, "bike_id": "93d094a5f757766db81610175581adf3"}, {"lon": -77.031494, "rental_uris": {"android": "https://dc.lft.to/lastmile_qr_scan", "ios": "https://dc.lft.to/lastmile_qr_scan"}, "fusion_lon": 0.0, "is_reserved": 0, "is_disabled": 0, "fusion_lat": 0.0, "type": "electric_scooter", "name": "c8c071bad1144bfa7fa3cf8c844efdde", "lat": 38.915659, "bike_id": "c8c071bad1144bfa7fa3cf8c844efdde"}, {"lon": -77.01613533333334, "rental_uris": {"android": "https://dc.lft.to/lastmile_qr_scan", "ios": "https://dc.lft.to/lastmile_qr_scan"}, "fusion_lon": 0.0, "is_reserved": 0, "is_disabled": 0, "fusion_lat": 0.0, "type": "electric_scooter", "name": "a36c706819c5065bba0b0bb247f4c0cc", "lat": 38.94734833333333, "bike_id": "a36c706819c5065bba0b0bb247f4c0cc"}, {"lon": -76.995722, "rental_uris": {"android": "https://dc.lft.to/lastmile_qr_scan", "ios": "https://dc.lft.to/lastmile_qr_scan"}, "fusion_lon": 0.0, "is_reserved": 0, "is_disabled": 0, "fusion_lat": 0.0, "type": "electric_scooter", "name": "2cd4a50599fbe7e47bcdad67c1682af6", "lat": 38.86271, "bike_id": "2cd4a50599fbe7e47bcdad67c1682af6"}, {"lon": -77.03990766666666, "rental_uris": {"android": "https://dc.lft.to/lastmile_qr_scan", "ios": "https://dc.lft.to/lastmile_qr_scan"}, "fusion_lon": 0.0, "is_reserved": 0, "is_disabled": 0, "fusion_lat": 0.0, "type": "electric_scooter", "name": "753856a513ad666c99d4228557f570cb", "lat": 38.9095575, "bike_id": "753856a513ad666c99d4228557f570cb"}, {"lon": -76.93384566666667, "rental_uris": {"android": "https://dc.lft.to/lastmile_qr_scan", "ios": "https://dc.lft.to/lastmile_qr_scan"}, "fusion_lon": 0.0, "is_reserved": 0, "is_disabled": 0, "fusion_lat": 0.0, "type": "electric_scooter", "name": "cbd75b624dfefb9a8322edbedb6b3366", "lat": 38.89911083333333, "bike_id": "cbd75b624dfefb9a8322edbedb6b3366"}, {"lon": -77.02516933333334, "rental_uris": {"android": "https://dc.lft.to/lastmile_qr_scan", "ios": "https://dc.lft.to/lastmile_qr_scan"}, "fusion_lon": 0.0, "is_reserved": 0, "is_disabled": 0, "fusion_lat": 0.0, "type": "electric_scooter", "name": "26b9897a3e24fa5a9e27b38d3c7514fd", "lat": 38.90731066666667, "bike_id": "26b9897a3e24fa5a9e27b38d3c7514fd"}, {"lon": -77.02977233333333, "rental_uris": {"android": "https://dc.lft.to/lastmile_qr_scan", "ios": "https://dc.lft.to/lastmile_qr_scan"}, "fusion_lon": 0.0, "is_reserved": 0, "is_disabled": 0, "fusion_lat": 0.0, "type": "electric_scooter", "name": "be2512f3d8d57ea69efbf03e10ed08bf", "lat": 38.8974615, "bike_id": "be2512f3d8d57ea69efbf03e10ed08bf"}, {"lon": -77.048008, "rental_uris": {"android": "https://dc.lft.to/lastmile_qr_scan", "ios": "https://dc.lft.to/lastmile_qr_scan"}, "fusion_lon": 0.0, "is_reserved": 0, "is_disabled": 0, "fusion_lat": 0.0, "type": "electric_scooter", "name": "4df7c3f6f0af971180d3b8c772c29069", "lat": 38.91624383333333, "bike_id": "4df7c3f6f0af971180d3b8c772c29069"}, {"lon": -77.02698933333333, "rental_uris": {"android": "https://dc.lft.to/lastmile_qr_scan", "ios": "https://dc.lft.to/lastmile_qr_scan"}, "fusion_lon": 0.0, "is_reserved": 0, "is_disabled": 0, "fusion_lat": 0.0, "type": "electric_scooter", "name": "aa9b0dd9b5ae8666a918ec473997d3f2", "lat": 38.90068183333333, "bike_id": "aa9b0dd9b5ae8666a918ec473997d3f2"}, {"lon": -77.02822, "rental_uris": {"android": "https://dc.lft.to/lastmile_qr_scan", "ios": "https://dc.lft.to/lastmile_qr_scan"}, "fusion_lon": 0.0, "is_reserved": 0, "is_disabled": 0, "fusion_lat": 0.0, "type": "electric_scooter", "name": "e0255531a9c7c30230012d8cfbedb395", "lat": 38.895033833333336, "bike_id": "e0255531a9c7c30230012d8cfbedb395"}, {"lon": -76.92661066666666, "rental_uris": {"android": "https://dc.lft.to/lastmile_qr_scan", "ios": "https://dc.lft.to/lastmile_qr_scan"}, "fusion_lon": 0.0, "is_reserved": 0, "is_disabled": 0, "fusion_lat": 0.0, "type": "electric_scooter", "name": "da81d99b17e46b0501ffa498ad607a9e", "lat": 38.89171066666667, "bike_id": "da81d99b17e46b0501ffa498ad607a9e"}, {"lon": -77.04145416666667, "rental_uris": {"android": "https://dc.lft.to/lastmile_qr_scan", "ios": "https://dc.lft.to/lastmile_qr_scan"}, "fusion_lon": 0.0, "is_reserved": 0, "is_disabled": 0, "fusion_lat": 0.0, "type": "electric_scooter", "name": "6e50c655645f649687c4d5ad59a36976", "lat": 38.9001435, "bike_id": "6e50c655645f649687c4d5ad59a36976"}, {"lon": -76.99815716666667, "rental_uris": {"android": "https://dc.lft.to/lastmile_qr_scan", "ios": "https://dc.lft.to/lastmile_qr_scan"}, "fusion_lon": 0.0, "is_reserved": 0, "is_disabled": 0, "fusion_lat": 0.0, "type": "electric_bike", "name": "7ccf625161c18b0835e0d5d43547803e", "lat": 38.81984283333333, "bike_id": "7ccf625161c18b0835e0d5d43547803e"}, {"lon": -77.05026983333333, "rental_uris": {"android": "https://dc.lft.to/lastmile_qr_scan", "ios": "https://dc.lft.to/lastmile_qr_scan"}, "fusion_lon": 0.0, "is_reserved": 0, "is_disabled": 0, "fusion_lat": 0.0, "type": "electric_scooter", "name": "cee3d825034cc3a8efb3a5fd8a6e2a3f", "lat": 38.903704166666664, "bike_id": "cee3d825034cc3a8efb3a5fd8a6e2a3f"}, {"lon": -77.0503065, "rental_uris": {"android": "https://dc.lft.to/lastmile_qr_scan", "ios": "https://dc.lft.to/lastmile_qr_scan"}, "fusion_lon": 0.0, "is_reserved": 0, "is_disabled": 0, "fusion_lat": 0.0, "type": "electric_scooter", "name": "91edae39529759576f69c4c64ba6c7b0", "lat": 38.92520783333333, "bike_id": "91edae39529759576f69c4c64ba6c7b0"}, {"lon": -77.03188366666667, "rental_uris": {"android": "https://dc.lft.to/lastmile_qr_scan", "ios": "https://dc.lft.to/lastmile_qr_scan"}, "fusion_lon": 0.0, "is_reserved": 0, "is_disabled": 0, "fusion_lat": 0.0, "type": "electric_scooter", "name": "9a656db6387775abecd0d011ab79a8de", "lat": 38.900195, "bike_id": "9a656db6387775abecd0d011ab79a8de"}, {"lon": -76.9898335, "rental_uris": {"android": "https://dc.lft.to/lastmile_qr_scan", "ios": "https://dc.lft.to/lastmile_qr_scan"}, "fusion_lon": 0.0, "is_reserved": 0, "is_disabled": 0, "fusion_lat": 0.0, "type": "electric_scooter", "name": "1d209798b97c8a3b7f5b99a563319875", "lat": 38.92443983333333, "bike_id": "1d209798b97c8a3b7f5b99a563319875"}, {"lon": -77.05250933333333, "rental_uris": {"android": "https://dc.lft.to/lastmile_qr_scan", "ios": "https://dc.lft.to/lastmile_qr_scan"}, "fusion_lon": 0.0, "is_reserved": 0, "is_disabled": 0, "fusion_lat": 0.0, "type": "electric_scooter", "name": "31e6e5994d25d621d90803cbedf4bc95", "lat": 38.9275835, "bike_id": "31e6e5994d25d621d90803cbedf4bc95"}, {"lon": -77.02984066666667, "rental_uris": {"android": "https://dc.lft.to/lastmile_qr_scan", "ios": "https://dc.lft.to/lastmile_qr_scan"}, "fusion_lon": 0.0, "is_reserved": 0, "is_disabled": 0, "fusion_lat": 0.0, "type": "electric_scooter", "name": "08ec493c7e8652febb1716bd3f18d6ba", "lat": 38.92251816666667, "bike_id": "08ec493c7e8652febb1716bd3f18d6ba"}, {"lon": -76.98770583333334, "rental_uris": {"android": "https://dc.lft.to/lastmile_qr_scan", "ios": "https://dc.lft.to/lastmile_qr_scan"}, "fusion_lon": 0.0, "is_reserved": 0, "is_disabled": 0, "fusion_lat": 0.0, "type": "electric_scooter", "name": "cbf19b8e314353b70db2a8dbfa84795d", "lat": 38.91198416666667, "bike_id": "cbf19b8e314353b70db2a8dbfa84795d"}, {"lon": -76.99506833333334, "rental_uris": {"android": "https://dc.lft.to/lastmile_qr_scan", "ios": "https://dc.lft.to/lastmile_qr_scan"}, "fusion_lon": 0.0, "is_reserved": 0, "is_disabled": 0, "fusion_lat": 0.0, "type": "electric_scooter", "name": "daa1a763a1dd4805ba531ee7626c617c", "lat": 38.90464933333333, "bike_id": "daa1a763a1dd4805ba531ee7626c617c"}, {"lon": -77.000137, "rental_uris": {"android": "https://dc.lft.to/lastmile_qr_scan", "ios": "https://dc.lft.to/lastmile_qr_scan"}, "fusion_lon": 0.0, "is_reserved": 0, "is_disabled": 0, "fusion_lat": 0.0, "type": "electric_scooter", "name": "76313b45d504d7338b98c0b4b0873a72", "lat": 38.8749305, "bike_id": "76313b45d504d7338b98c0b4b0873a72"}, {"lon": -77.03435116666667, "rental_uris": {"android": "https://dc.lft.to/lastmile_qr_scan", "ios": "https://dc.lft.to/lastmile_qr_scan"}, "fusion_lon": 0.0, "is_reserved": 0, "is_disabled": 0, "fusion_lat": 0.0, "type": "electric_scooter", "name": "8f048813ddb97fdd3063d97c805f564c", "lat": 38.9094825, "bike_id": "8f048813ddb97fdd3063d97c805f564c"}, {"lon": -77.0194935, "rental_uris": {"android": "https://dc.lft.to/lastmile_qr_scan", "ios": "https://dc.lft.to/lastmile_qr_scan"}, "fusion_lon": 0.0, "is_reserved": 0, "is_disabled": 0, "fusion_lat": 0.0, "type": "electric_scooter", "name": "1b2aa1ecec3a6e2e602d6350646dcbe0", "lat": 38.92415866666666, "bike_id": "1b2aa1ecec3a6e2e602d6350646dcbe0"}, {"lon": -77.01231566666667, "rental_uris": {"android": "https://dc.lft.to/lastmile_qr_scan", "ios": "https://dc.lft.to/lastmile_qr_scan"}, "fusion_lon": 0.0, "is_reserved": 0, "is_disabled": 0, "fusion_lat": 0.0, "type": "electric_scooter", "name": "90b1c61802936edcd280aa25c1b1b002", "lat": 38.89811866666667, "bike_id": "90b1c61802936edcd280aa25c1b1b002"}, {"lon": -77.03449983333333, "rental_uris": {"android": "https://dc.lft.to/lastmile_qr_scan", "ios": "https://dc.lft.to/lastmile_qr_scan"}, "fusion_lon": 0.0, "is_reserved": 0, "is_disabled": 0, "fusion_lat": 0.0, "type": "electric_scooter", "name": "bf21f1292c4c993928f0b8fada52348f", "lat": 38.90280216666667, "bike_id": "bf21f1292c4c993928f0b8fada52348f"}, {"lon": -77.01680766666666, "rental_uris": {"android": "https://dc.lft.to/lastmile_qr_scan", "ios": "https://dc.lft.to/lastmile_qr_scan"}, "fusion_lon": 0.0, "is_reserved": 0, "is_disabled": 0, "fusion_lat": 0.0, "type": "electric_scooter", "name": "7ccfeccca6e30843067abf6283ae2dc8", "lat": 38.9126495, "bike_id": "7ccfeccca6e30843067abf6283ae2dc8"}, {"lon": -77.04324566666666, "rental_uris": {"android": "https://dc.lft.to/lastmile_qr_scan", "ios": "https://dc.lft.to/lastmile_qr_scan"}, "fusion_lon": 0.0, "is_reserved": 0, "is_disabled": 0, "fusion_lat": 0.0, "type": "electric_scooter", "name": "83e94b48400c9a12d1c95017003e5b98", "lat": 38.8922245, "bike_id": "83e94b48400c9a12d1c95017003e5b98"}, {"lon": -77.0397735, "rental_uris": {"android": "https://dc.lft.to/lastmile_qr_scan", "ios": "https://dc.lft.to/lastmile_qr_scan"}, "fusion_lon": 0.0, "is_reserved": 0, "is_disabled": 0, "fusion_lat": 0.0, "type": "electric_scooter", "name": "7f2881b63d753a54a48acd8bf9044006", "lat": 38.9036775, "bike_id": "7f2881b63d753a54a48acd8bf9044006"}, {"lon": -77.046746, "rental_uris": {"android": "https://dc.lft.to/lastmile_qr_scan", "ios": "https://dc.lft.to/lastmile_qr_scan"}, "fusion_lon": 0.0, "is_reserved": 0, "is_disabled": 0, "fusion_lat": 0.0, "type": "electric_scooter", "name": "e5e29ca50f111b96a805b67bc99a4d8d", "lat": 38.892492, "bike_id": "e5e29ca50f111b96a805b67bc99a4d8d"}, {"lon": -77.0502685, "rental_uris": {"android": "https://dc.lft.to/lastmile_qr_scan", "ios": "https://dc.lft.to/lastmile_qr_scan"}, "fusion_lon": 0.0, "is_reserved": 0, "is_disabled": 0, "fusion_lat": 0.0, "type": "electric_scooter", "name": "d36db5033fe91c45ad9205ff4eca96cf", "lat": 38.89824183333333, "bike_id": "d36db5033fe91c45ad9205ff4eca96cf"}, {"lon": -77.0384285, "rental_uris": {"android": "https://dc.lft.to/lastmile_qr_scan", "ios": "https://dc.lft.to/lastmile_qr_scan"}, "fusion_lon": 0.0, "is_reserved": 0, "is_disabled": 0, "fusion_lat": 0.0, "type": "electric_scooter", "name": "119fc61d72f6ca397833565e7f968c78", "lat": 38.902755666666664, "bike_id": "119fc61d72f6ca397833565e7f968c78"}, {"lon": -77.01850333333333, "rental_uris": {"android": "https://dc.lft.to/lastmile_qr_scan", "ios": "https://dc.lft.to/lastmile_qr_scan"}, "fusion_lon": 0.0, "is_reserved": 0, "is_disabled": 0, "fusion_lat": 0.0, "type": "electric_scooter", "name": "14e4ccfbca510dc2d6d24370833b8b5b", "lat": 38.94884733333333, "bike_id": "14e4ccfbca510dc2d6d24370833b8b5b"}, {"lon": -77.079072, "rental_uris": {"android": "https://dc.lft.to/lastmile_qr_scan", "ios": "https://dc.lft.to/lastmile_qr_scan"}, "fusion_lon": 0.0, "is_reserved": 0, "is_disabled": 0, "fusion_lat": 0.0, "type": "electric_bike", "name": "7504a05b9b8e8b503a1a1335bc4e6787", "lat": 38.848221, "bike_id": "7504a05b9b8e8b503a1a1335bc4e6787"}, {"lon": -77.02126366666667, "rental_uris": {"android": "https://dc.lft.to/lastmile_qr_scan", "ios": "https://dc.lft.to/lastmile_qr_scan"}, "fusion_lon": 0.0, "is_reserved": 0, "is_disabled": 0, "fusion_lat": 0.0, "type": "electric_scooter", "name": "1f1f47d4118f7d46ad6d19a889269040", "lat": 38.924328333333335, "bike_id": "1f1f47d4118f7d46ad6d19a889269040"}, {"lon": -76.992203, "rental_uris": {"android": "https://dc.lft.to/lastmile_qr_scan", "ios": "https://dc.lft.to/lastmile_qr_scan"}, "fusion_lon": 0.0, "is_reserved": 0, "is_disabled": 0, "fusion_lat": 0.0, "type": "electric_scooter", "name": "621d4b7ae82d845a6bdeeb15baabeb16", "lat": 38.862927, "bike_id": "621d4b7ae82d845a6bdeeb15baabeb16"}, {"lon": -77.07275483333333, "rental_uris": {"android": "https://dc.lft.to/lastmile_qr_scan", "ios": "https://dc.lft.to/lastmile_qr_scan"}, "fusion_lon": 0.0, "is_reserved": 0, "is_disabled": 0, "fusion_lat": 0.0, "type": "electric_scooter", "name": "f1fedb2995ec2891da4b8f48ce0c7acf", "lat": 38.90907333333333, "bike_id": "f1fedb2995ec2891da4b8f48ce0c7acf"}, {"lon": -76.99611, "rental_uris": {"android": "https://dc.lft.to/lastmile_qr_scan", "ios": "https://dc.lft.to/lastmile_qr_scan"}, "fusion_lon": 0.0, "is_reserved": 0, "is_disabled": 0, "fusion_lat": 0.0, "type": "electric_scooter", "name": "5f60b26c3337bc2a7e276c417a5b01e3", "lat": 38.88258783333333, "bike_id": "5f60b26c3337bc2a7e276c417a5b01e3"}, {"lon": -77.04521716666666, "rental_uris": {"android": "https://dc.lft.to/lastmile_qr_scan", "ios": "https://dc.lft.to/lastmile_qr_scan"}, "fusion_lon": 0.0, "is_reserved": 0, "is_disabled": 0, "fusion_lat": 0.0, "type": "electric_scooter", "name": "4cfd114692167649ea182f03a0462d45", "lat": 38.90140533333334, "bike_id": "4cfd114692167649ea182f03a0462d45"}, {"lon": -77.03184483333334, "rental_uris": {"android": "https://dc.lft.to/lastmile_qr_scan", "ios": "https://dc.lft.to/lastmile_qr_scan"}, "fusion_lon": 0.0, "is_reserved": 0, "is_disabled": 0, "fusion_lat": 0.0, "type": "electric_scooter", "name": "f4ba21da1177916124a8e7660f621fec", "lat": 38.89185916666667, "bike_id": "f4ba21da1177916124a8e7660f621fec"}, {"lon": -76.98440783333334, "rental_uris": {"android": "https://dc.lft.to/lastmile_qr_scan", "ios": "https://dc.lft.to/lastmile_qr_scan"}, "fusion_lon": 0.0, "is_reserved": 0, "is_disabled": 0, "fusion_lat": 0.0, "type": "electric_scooter", "name": "24ab6daeac69fcee65be28b195cf8bea", "lat": 38.9143195, "bike_id": "24ab6daeac69fcee65be28b195cf8bea"}, {"lon": -77.01163466666667, "rental_uris": {"android": "https://dc.lft.to/lastmile_qr_scan", "ios": "https://dc.lft.to/lastmile_qr_scan"}, "fusion_lon": 0.0, "is_reserved": 0, "is_disabled": 0, "fusion_lat": 0.0, "type": "electric_scooter", "name": "4edc39358cbe82c345924b1c7b0eaec1", "lat": 38.916934166666664, "bike_id": "4edc39358cbe82c345924b1c7b0eaec1"}, {"lon": -77.0407665, "rental_uris": {"android": "https://dc.lft.to/lastmile_qr_scan", "ios": "https://dc.lft.to/lastmile_qr_scan"}, "fusion_lon": 0.0, "is_reserved": 0, "is_disabled": 0, "fusion_lat": 0.0, "type": "electric_scooter", "name": "16eac3d2f46b20fd9a99f90663db19a8", "lat": 38.932737, "bike_id": "16eac3d2f46b20fd9a99f90663db19a8"}, {"lon": -77.03571416666666, "rental_uris": {"android": "https://dc.lft.to/lastmile_qr_scan", "ios": "https://dc.lft.to/lastmile_qr_scan"}, "fusion_lon": 0.0, "is_reserved": 0, "is_disabled": 0, "fusion_lat": 0.0, "type": "electric_scooter", "name": "4f11723a529c30a7d9d65f1bd2cb43a7", "lat": 38.926830333333335, "bike_id": "4f11723a529c30a7d9d65f1bd2cb43a7"}, {"lon": -77.02978516666667, "rental_uris": {"android": "https://dc.lft.to/lastmile_qr_scan", "ios": "https://dc.lft.to/lastmile_qr_scan"}, "fusion_lon": 0.0, "is_reserved": 0, "is_disabled": 0, "fusion_lat": 0.0, "type": "electric_scooter", "name": "25b720af1e32135c483eba6eb2e0a165", "lat": 38.94970166666667, "bike_id": "25b720af1e32135c483eba6eb2e0a165"}, {"lon": -77.029511, "rental_uris": {"android": "https://dc.lft.to/lastmile_qr_scan", "ios": "https://dc.lft.to/lastmile_qr_scan"}, "fusion_lon": 0.0, "is_reserved": 0, "is_disabled": 0, "fusion_lat": 0.0, "type": "electric_scooter", "name": "af0344b1f973f5c726d951876bdeb38d", "lat": 38.94287766666667, "bike_id": "af0344b1f973f5c726d951876bdeb38d"}, {"lon": -77.02307033333334, "rental_uris": {"android": "https://dc.lft.to/lastmile_qr_scan", "ios": "https://dc.lft.to/lastmile_qr_scan"}, "fusion_lon": 0.0, "is_reserved": 0, "is_disabled": 0, "fusion_lat": 0.0, "type": "electric_scooter", "name": "a17b135e764340a0c2d2869838988ec1", "lat": 38.917815166666664, "bike_id": "a17b135e764340a0c2d2869838988ec1"}, {"lon": -77.03178466666667, "rental_uris": {"android": "https://dc.lft.to/lastmile_qr_scan", "ios": "https://dc.lft.to/lastmile_qr_scan"}, "fusion_lon": 0.0, "is_reserved": 0, "is_disabled": 0, "fusion_lat": 0.0, "type": "electric_scooter", "name": "626411f742dacd11abc5913bf98ef59a", "lat": 38.88733233333333, "bike_id": "626411f742dacd11abc5913bf98ef59a"}, {"lon": -77.04711, "rental_uris": {"android": "https://dc.lft.to/lastmile_qr_scan", "ios": "https://dc.lft.to/lastmile_qr_scan"}, "fusion_lon": 0.0, "is_reserved": 0, "is_disabled": 0, "fusion_lat": 0.0, "type": "electric_bike", "name": "0b9f5b7baf1551abf20fba3a5d6dad23", "lat": 38.99774583333333, "bike_id": "0b9f5b7baf1551abf20fba3a5d6dad23"}, {"lon": -77.04167116666666, "rental_uris": {"android": "https://dc.lft.to/lastmile_qr_scan", "ios": "https://dc.lft.to/lastmile_qr_scan"}, "fusion_lon": 0.0, "is_reserved": 0, "is_disabled": 0, "fusion_lat": 0.0, "type": "electric_scooter", "name": "b95f24d63e1fa61e6639c65ae06e211b", "lat": 38.90509083333333, "bike_id": "b95f24d63e1fa61e6639c65ae06e211b"}, {"lon": -77.01823416666667, "rental_uris": {"android": "https://dc.lft.to/lastmile_qr_scan", "ios": "https://dc.lft.to/lastmile_qr_scan"}, "fusion_lon": 0.0, "is_reserved": 0, "is_disabled": 0, "fusion_lat": 0.0, "type": "electric_scooter", "name": "36098ead52f538a834c1faae5d176ab3", "lat": 38.92254416666667, "bike_id": "36098ead52f538a834c1faae5d176ab3"}, {"lon": -77.02183883333333, "rental_uris": {"android": "https://dc.lft.to/lastmile_qr_scan", "ios": "https://dc.lft.to/lastmile_qr_scan"}, "fusion_lon": 0.0, "is_reserved": 0, "is_disabled": 0, "fusion_lat": 0.0, "type": "electric_scooter", "name": "1bd6ad088afb0d6193f8df5c92908efe", "lat": 38.910573666666664, "bike_id": "1bd6ad088afb0d6193f8df5c92908efe"}, {"lon": -77.03446183333334, "rental_uris": {"android": "https://dc.lft.to/lastmile_qr_scan", "ios": "https://dc.lft.to/lastmile_qr_scan"}, "fusion_lon": 0.0, "is_reserved": 0, "is_disabled": 0, "fusion_lat": 0.0, "type": "electric_scooter", "name": "4e7ce775aef1ca0eb175bad24aed6e1a", "lat": 38.9048855, "bike_id": "4e7ce775aef1ca0eb175bad24aed6e1a"}, {"lon": -77.04652683333333, "rental_uris": {"android": "https://dc.lft.to/lastmile_qr_scan", "ios": "https://dc.lft.to/lastmile_qr_scan"}, "fusion_lon": 0.0, "is_reserved": 0, "is_disabled": 0, "fusion_lat": 0.0, "type": "electric_scooter", "name": "1c6445390706aa80a4994c6c7355430a", "lat": 38.910252, "bike_id": "1c6445390706aa80a4994c6c7355430a"}, {"lon": -77.00285566666666, "rental_uris": {"android": "https://dc.lft.to/lastmile_qr_scan", "ios": "https://dc.lft.to/lastmile_qr_scan"},