{"data": {"bikes": [{"name": "29c80e32e8f9503880ab0f7a815ba091", "type": "electric_scooter", "lat": 38.87634533333333, "is_reserved": 0, "lon": -77.00915833333333, "fusion_lon": 0.0, "is_disabled": 0, "fusion_lat": 0.0, "bike_id": "29c80e32e8f9503880ab0f7a815ba091", "rental_uris": {"ios": "https://dc.lft.to/lastmile_qr_scan", "android": "https://dc.lft.to/lastmile_qr_scan"}}, {"name": "260db01e69e3a9d4eeaecb9abacd31fb", "type": "electric_scooter", "lat": 38.936002333333334, "is_reserved": 0, "lon": -77.05862583333334, "fusion_lon": 0.0, "is_disabled": 0, "fusion_lat": 0.0, "bike_id": "260db01e69e3a9d4eeaecb9abacd31fb", "rental_uris": {"ios": "https://dc.lft.to/lastmile_qr_scan", "android": "https://dc.lft.to/lastmile_qr_scan"}}, {"name": "532703d22805abbff5007a65bf4c330f", "type": "electric_scooter", "lat": 38.9076885, "is_reserved": 0, "lon": -77.0435005, "fusion_lon": 0.0, "is_disabled": 0, "fusion_lat": 0.0, "bike_id": "532703d22805abbff5007a65bf4c330f", "rental_uris": {"ios": "https://dc.lft.to/lastmile_qr_scan", "android": "https://dc.lft.to/lastmile_qr_scan"}}, {"name": "ba970adb5306fb27ca131752bbf45c5e", "type": "electric_scooter", "lat": 38.8841105, "is_reserved": 0, "lon": -77.0151935, "fusion_lon": 0.0, "is_disabled": 0, "fusion_lat": 0.0, "bike_id": "ba970adb5306fb27ca131752bbf45c5e", "rental_uris": {"ios": "https://dc.lft.to/lastmile_qr_scan", "android": "https://dc.lft.to/lastmile_qr_scan"}}, {"name": "7306d3498ca1464158dc91978a29a8cb", "type": "electric_scooter", "lat": 38.8923075, "is_reserved": 0, "lon": -77.022082, "fusion_lon": 0.0, "is_disabled": 0, "fusion_lat": 0.0, "bike_id": "7306d3498ca1464158dc91978a29a8cb", "rental_uris": {"ios": "https://dc.lft.to/lastmile_qr_scan", "android": "https://dc.lft.to/lastmile_qr_scan"}}, {"name": "48c4c8a41174cc48c368630bc28a2bfc", "type": "electric_bike", "lat": 38.990908833333336, "is_reserved": 0, "lon": -76.87496216666666, "fusion_lon": 0.0, "is_disabled": 0, "fusion_lat": 0.0, "bike_id": "48c4c8a41174cc48c368630bc28a2bfc", "rental_uris": {"ios": "https://dc.lft.to/lastmile_qr_scan", "android": "https://dc.lft.to/lastmile_qr_scan"}}, {"name": "0a26316877d1014910e9c94804faf577", "type": "electric_bike", "lat": 38.82877116666667, "is_reserved": 0, "lon": -77.112184, "fusion_lon": 0.0, "is_disabled": 0, "fusion_lat": 0.0, "bike_id": "0a26316877d1014910e9c94804faf577", "rental_uris": {"ios": "https://dc.lft.to/lastmile_qr_scan", "android": "https://dc.lft.to/lastmile_qr_scan"}}, {"name": "7a36dec954afc454185089438590197c", "type": "electric_scooter", "lat": 38.901395666666666, "is_reserved": 0, "lon": -77.04384616666667, "fusion_lon": 0.0, "is_disabled": 0, "fusion_lat": 0.0, "bike_id": "7a36dec954afc454185089438590197c", "rental_uris": {"ios": "https://dc.lft.to/lastmile_qr_scan", "android": "https://dc.lft.to/lastmile_qr_scan"}}, {"name": "7667ae8dbb09e57cc472c426bb983474", "type": "electric_scooter", "lat": 38.900316833333335, "is_reserved": 0, "lon": -77.0398115, "fusion_lon": 0.0, "is_disabled": 0, "fusion_lat": 0.0, "bike_id": "7667ae8dbb09e57cc472c426bb983474", "rental_uris": {"ios": "https://dc.lft.to/lastmile_qr_scan", "android": "https://dc.lft.to/lastmile_qr_scan"}}, {"name": "19f91be8fe70674456e53cd30e9b242c", "type": "electric_scooter", "lat": 38.90536433333333, "is_reserved": 0, "lon": -77.05919933333334, "fusion_lon": 0.0, "is_disabled": 0, "fusion_lat": 0.0, "bike_id": "19f91be8fe70674456e53cd30e9b242c", "rental_uris": {"ios": "https://dc.lft.to/lastmile_qr_scan", "android": "https://dc.lft.to/lastmile_qr_scan"}}, {"name": "07cbca9e7302c672bdcdca5dd10f5ac9", "type": "electric_scooter", "lat": 38.90831083333333, "is_reserved": 0, "lon": -76.99700766666666, "fusion_lon": 0.0, "is_disabled": 0, "fusion_lat": 0.0, "bike_id": "07cbca9e7302c672bdcdca5dd10f5ac9", "rental_uris": {"ios": "https://dc.lft.to/lastmile_qr_scan", "android": "https://dc.lft.to/lastmile_qr_scan"}}, {"name": "a8957027738fce06e95ce20c83ea4ef5", "type": "electric_bike", "lat": 38.95560283333333, "is_reserved": 0, "lon": -76.9354805, "fusion_lon": 0.0, "is_disabled": 0, "fusion_lat": 0.0, "bike_id": "a8957027738fce06e95ce20c83ea4ef5", "rental_uris": {"ios": "https://dc.lft.to/lastmile_qr_scan", "android": "https://dc.lft.to/lastmile_qr_scan"}}, {"name": "708be67caed6d94d01434932cc82050c", "type": "electric_scooter", "lat": 38.880377333333335, "is_reserved": 0, "lon": -76.927215, "fusion_lon": 0.0, "is_disabled": 0, "fusion_lat": 0.0, "bike_id": "708be67caed6d94d01434932cc82050c", "rental_uris": {"ios": "https://dc.lft.to/lastmile_qr_scan", "android": "https://dc.lft.to/lastmile_qr_scan"}}, {"name": "6863384e32cf55d9549a3938f125548a", "type": "electric_scooter", "lat": 38.89735566666667, "is_reserved": 0, "lon": -77.05519133333334, "fusion_lon": 0.0, "is_disabled": 0, "fusion_lat": 0.0, "bike_id": "6863384e32cf55d9549a3938f125548a", "rental_uris": {"ios": "https://dc.lft.to/lastmile_qr_scan", "android": "https://dc.lft.to/lastmile_qr_scan"}}, {"name": "810d71d9665b42c441097ccd91306ddb", "type": "electric_scooter", "lat": 38.9243955, "is_reserved": 0, "lon": -77.034078, "fusion_lon": 0.0, "is_disabled": 0, "fusion_lat": 0.0, "bike_id": "810d71d9665b42c441097ccd91306ddb", "rental_uris": {"ios": "https://dc.lft.to/lastmile_qr_scan", "android": "https://dc.lft.to/lastmile_qr_scan"}}, {"name": "0b23e01c2239a533dc6b06471959d2dd", "type": "electric_scooter", "lat": 38.94272483333334, "is_reserved": 0, "lon": -77.02504383333333, "fusion_lon": 0.0, "is_disabled": 0, "fusion_lat": 0.0, "bike_id": "0b23e01c2239a533dc6b06471959d2dd", "rental_uris": {"ios": "https://dc.lft.to/lastmile_qr_scan", "android": "https://dc.lft.to/lastmile_qr_scan"}}, {"name": "1d2d59e80411dcf5c34e55faffe6d208", "type": "electric_scooter", "lat": 38.90664816666666, "is_reserved": 0, "lon": -76.97807266666666, "fusion_lon": 0.0, "is_disabled": 0, "fusion_lat": 0.0, "bike_id": "1d2d59e80411dcf5c34e55faffe6d208", "rental_uris": {"ios": "https://dc.lft.to/lastmile_qr_scan", "android": "https://dc.lft.to/lastmile_qr_scan"}}, {"name": "169a44a5753d1d8bf9c59e6eff709d3e", "type": "electric_bike", "lat": 38.9247475, "is_reserved": 0, "lon": -77.20850816666666, "fusion_lon": 0.0, "is_disabled": 0, "fusion_lat": 0.0, "bike_id": "169a44a5753d1d8bf9c59e6eff709d3e", "rental_uris": {"ios": "https://dc.lft.to/lastmile_qr_scan", "android": "https://dc.lft.to/lastmile_qr_scan"}}, {"name": "352029aaee148d210167fc0c1cfd6abd", "type": "electric_scooter", "lat": 38.90354416666667, "is_reserved": 0, "lon": -77.007351, "fusion_lon": 0.0, "is_disabled": 0, "fusion_lat": 0.0, "bike_id": "352029aaee148d210167fc0c1cfd6abd", "rental_uris": {"ios": "https://dc.lft.to/lastmile_qr_scan", "android": "https://dc.lft.to/lastmile_qr_scan"}}, {"name": "cd879a75400673b14687e86e85cd6901", "type": "electric_scooter", "lat": 38.911131, "is_reserved": 0, "lon": -77.04932233333334, "fusion_lon": 0.0, "is_disabled": 0, "fusion_lat": 0.0, "bike_id": "cd879a75400673b14687e86e85cd6901", "rental_uris": {"ios": "https://dc.lft.to/lastmile_qr_scan", "android": "https://dc.lft.to/lastmile_qr_scan"}}, {"name": "309601d93ef325b03bfbbeebd49b7f1c", "type": "electric_scooter", "lat": 38.90016766666667, "is_reserved": 0, "lon": -77.04028083333333, "fusion_lon": 0.0, "is_disabled": 0, "fusion_lat": 0.0, "bike_id": "309601d93ef325b03bfbbeebd49b7f1c", "rental_uris": {"ios": "https://dc.lft.to/lastmile_qr_scan", "android": "https://dc.lft.to/lastmile_qr_scan"}}, {"name": "6904f10746321c2847fb036720514324", "type": "electric_bike", "lat": 38.89187666666667, "is_reserved": 0, "lon": -77.122644, "fusion_lon": 0.0, "is_disabled": 0, "fusion_lat": 0.0, "bike_id": "6904f10746321c2847fb036720514324", "rental_uris": {"ios": "https://dc.lft.to/lastmile_qr_scan", "android": "https://dc.lft.to/lastmile_qr_scan"}}, {"name": "4cc85fcdc34fc230fc8ad99ff92a394b", "type": "electric_scooter", "lat": 38.91030283333333, "is_reserved": 0, "lon": -77.030845, "fusion_lon": 0.0, "is_disabled": 0, "fusion_lat": 0.0, "bike_id": "4cc85fcdc34fc230fc8ad99ff92a394b", "rental_uris": {"ios": "https://dc.lft.to/lastmile_qr_scan", "android": "https://dc.lft.to/lastmile_qr_scan"}}, {"name": "2626db1f5450ec991e5c6489caef7808", "type": "electric_scooter", "lat": 38.934234833333335, "is_reserved": 0, "lon": -77.0340315, "fusion_lon": 0.0, "is_disabled": 0, "fusion_lat": 0.0, "bike_id": "2626db1f5450ec991e5c6489caef7808", "rental_uris": {"ios": "https://dc.lft.to/lastmile_qr_scan", "android": "https://dc.lft.to/lastmile_qr_scan"}}, {"name": "d2357e8ef70c3b212a0e6082aa090ac6", "type": "electric_scooter", "lat": 38.9110455, "is_reserved": 0, "lon": -77.046694, "fusion_lon": 0.0, "is_disabled": 0, "fusion_lat": 0.0, "bike_id": "d2357e8ef70c3b212a0e6082aa090ac6", "rental_uris": {"ios": "https://dc.lft.to/lastmile_qr_scan", "android": "https://dc.lft.to/lastmile_qr_scan"}}, {"name": "0acd2ae6279764844e06166b616cb59a", "type": "electric_scooter", "lat": 38.92149166666667, "is_reserved": 0, "lon": -77.03531233333334, "fusion_lon": 0.0, "is_disabled": 0, "fusion_lat": 0.0, "bike_id": "0acd2ae6279764844e06166b616cb59a", "rental_uris": {"ios": "https://dc.lft.to/lastmile_qr_scan", "android": "https://dc.lft.to/lastmile_qr_scan"}}, {"name": "8791cfa4ff3f07bfaafce770d0e6a81d", "type": "electric_scooter", "lat": 38.89507733333333, "is_reserved": 0, "lon": -77.00337466666667, "fusion_lon": 0.0, "is_disabled": 0, "fusion_lat": 0.0, "bike_id": "8791cfa4ff3f07bfaafce770d0e6a81d", "rental_uris": {"ios": "https://dc.lft.to/lastmile_qr_scan", "android": "https://dc.lft.to/lastmile_qr_scan"}}, {"name": "7bf9b3875e35e94d08aae354b09902dc", "type": "electric_scooter", "lat": 38.909579, "is_reserved": 0, "lon": -77.04860733333334, "fusion_lon": 0.0, "is_disabled": 0, "fusion_lat": 0.0, "bike_id": "7bf9b3875e35e94d08aae354b09902dc", "rental_uris": {"ios": "https://dc.lft.to/lastmile_qr_scan", "android": "https://dc.lft.to/lastmile_qr_scan"}}, {"name": "d84e1926329708b4bf004fd141ee6241", "type": "electric_bike", "lat": 38.95958133333333, "is_reserved": 0, "lon": -77.10092566666667, "fusion_lon": 0.0, "is_disabled": 0, "fusion_lat": 0.0, "bike_id": "d84e1926329708b4bf004fd141ee6241", "rental_uris": {"ios": "https://dc.lft.to/lastmile_qr_scan", "android": "https://dc.lft.to/lastmile_qr_scan"}}, {"name": "f638c0b2e6adc670d73ae228f5ec1bca", "type": "electric_scooter", "lat": 38.895514666666664, "is_reserved": 0, "lon": -77.00919066666667, "fusion_lon": 0.0, "is_disabled": 0, "fusion_lat": 0.0, "bike_id": "f638c0b2e6adc670d73ae228f5ec1bca", "rental_uris": {"ios": "https://dc.lft.to/lastmile_qr_scan", "android": "https://dc.lft.to/lastmile_qr_scan"}}, {"name": "37752442c33d5c8f88e7328fe3c82247", "type": "electric_scooter", "lat": 38.924451, "is_reserved": 0, "lon": -77.04029533333333, "fusion_lon": 0.0, "is_disabled": 0, "fusion_lat": 0.0, "bike_id": "37752442c33d5c8f88e7328fe3c82247", "rental_uris": {"ios": "https://dc.lft.to/lastmile_qr_scan", "android": "https://dc.lft.to/lastmile_qr_scan"}}, {"name": "2fc520dcd3d133e2d8500c882281ff40", "type": "electric_scooter", "lat": 38.88493833333333, "is_reserved": 0, "lon": -77.0072645, "fusion_lon": 0.0, "is_disabled": 0, "fusion_lat": 0.0, "bike_id": "2fc520dcd3d133e2d8500c882281ff40", "rental_uris": {"ios": "https://dc.lft.to/lastmile_qr_scan", "android": "https://dc.lft.to/lastmile_qr_scan"}}, {"name": "bccce381985cf96224c23034d6a4dbc6", "type": "electric_scooter", "lat": 38.90413916666667, "is_reserved": 0, "lon": -77.04369533333333, "fusion_lon": 0.0, "is_disabled": 0, "fusion_lat": 0.0, "bike_id": "bccce381985cf96224c23034d6a4dbc6", "rental_uris": {"ios": "https://dc.lft.to/lastmile_qr_scan", "android": "https://dc.lft.to/lastmile_qr_scan"}}, {"name": "e7e21a82c71e22227066f94a5cd8f7e0", "type": "electric_bike", "lat": 38.935858333333336, "is_reserved": 0, "lon": -77.05842166666666, "fusion_lon": 0.0, "is_disabled": 0, "fusion_lat": 0.0, "bike_id": "e7e21a82c71e22227066f94a5cd8f7e0", "rental_uris": {"ios": "https://dc.lft.to/lastmile_qr_scan", "android": "https://dc.lft.to/lastmile_qr_scan"}}, {"name": "083e4f9544fcdd535a27a95ed708eb83", "type": "electric_scooter", "lat": 38.93204633333333, "is_reserved": 0, "lon": -77.02730283333334, "fusion_lon": 0.0, "is_disabled": 0, "fusion_lat": 0.0, "bike_id": "083e4f9544fcdd535a27a95ed708eb83", "rental_uris": {"ios": "https://dc.lft.to/lastmile_qr_scan", "android": "https://dc.lft.to/lastmile_qr_scan"}}, {"name": "eebc145358da243485e63b0100f609dd", "type": "electric_scooter", "lat": 38.911954, "is_reserved": 0, "lon": -77.06093916666667, "fusion_lon": 0.0, "is_disabled": 0, "fusion_lat": 0.0, "bike_id": "eebc145358da243485e63b0100f609dd", "rental_uris": {"ios": "https://dc.lft.to/lastmile_qr_scan", "android": "https://dc.lft.to/lastmile_qr_scan"}}, {"name": "f52e82abf022f7a9ff2988677beaf149", "type": "electric_scooter", "lat": 38.902695666666666, "is_reserved": 0, "lon": -77.059437, "fusion_lon": 0.0, "is_disabled": 0, "fusion_lat": 0.0, "bike_id": "f52e82abf022f7a9ff2988677beaf149", "rental_uris": {"ios": "https://dc.lft.to/lastmile_qr_scan", "android": "https://dc.lft.to/lastmile_qr_scan"}}, {"name": "7f874bbacecb910bb7458b8cedd3a113", "type": "electric_scooter", "lat": 38.91199116666667, "is_reserved": 0, "lon": -77.07312416666667, "fusion_lon": 0.0, "is_disabled": 0, "fusion_lat": 0.0, "bike_id": "7f874bbacecb910bb7458b8cedd3a113", "rental_uris": {"ios": "https://dc.lft.to/lastmile_qr_scan", "android": "https://dc.lft.to/lastmile_qr_scan"}}, {"name": "988352d1bd75bcd8378105d5736f8542", "type": "electric_scooter", "lat": 38.9065455, "is_reserved": 0, "lon": -77.00905933333334, "fusion_lon": 0.0, "is_disabled": 0, "fusion_lat": 0.0, "bike_id": "988352d1bd75bcd8378105d5736f8542", "rental_uris": {"ios": "https://dc.lft.to/lastmile_qr_scan", "android": "https://dc.lft.to/lastmile_qr_scan"}}, {"name": "d75bc638a793d5b4b729074aa9011a2e", "type": "electric_scooter", "lat": 38.897400833333336, "is_reserved": 0, "lon": -77.027238, "fusion_lon": 0.0, "is_disabled": 0, "fusion_lat": 0.0, "bike_id": "d75bc638a793d5b4b729074aa9011a2e", "rental_uris": {"ios": "https://dc.lft.to/lastmile_qr_scan", "android": "https://dc.lft.to/lastmile_qr_scan"}}, {"name": "c564e02380d6631da6c78f6f6a2a4182", "type": "electric_scooter", "lat": 38.90267866666667, "is_reserved": 0, "lon": -77.02984133333334, "fusion_lon": 0.0, "is_disabled": 0, "fusion_lat": 0.0, "bike_id": "c564e02380d6631da6c78f6f6a2a4182", "rental_uris": {"ios": "https://dc.lft.to/lastmile_qr_scan", "android": "https://dc.lft.to/lastmile_qr_scan"}}, {"name": "be0eceee0cb4b38745242824352ede08", "type": "electric_scooter", "lat": 38.92986233333333, "is_reserved": 0, "lon": -77.02482116666667, "fusion_lon": 0.0, "is_disabled": 0, "fusion_lat": 0.0, "bike_id": "be0eceee0cb4b38745242824352ede08", "rental_uris": {"ios": "https://dc.lft.to/lastmile_qr_scan", "android": "https://dc.lft.to/lastmile_qr_scan"}}, {"name": "a9fd364383cbd3abca9650319b9f6554", "type": "electric_scooter", "lat": 38.9276565, "is_reserved": 0, "lon": -77.07306166666666, "fusion_lon": 0.0, "is_disabled": 0, "fusion_lat": 0.0, "bike_id": "a9fd364383cbd3abca9650319b9f6554", "rental_uris": {"ios": "https://dc.lft.to/lastmile_qr_scan", "android": "https://dc.lft.to/lastmile_qr_scan"}}, {"name": "b4b8c1f21954123cab074b2e1fe48d4a", "type": "electric_scooter", "lat": 38.895257, "is_reserved": 0, "lon": -77.00340966666667, "fusion_lon": 0.0, "is_disabled": 0, "fusion_lat": 0.0, "bike_id": "b4b8c1f21954123cab074b2e1fe48d4a", "rental_uris": {"ios": "https://dc.lft.to/lastmile_qr_scan", "android": "https://dc.lft.to/lastmile_qr_scan"}}, {"name": "d87fb2dbd17e0b49f016ea208721f612", "type": "electric_scooter", "lat": 38.89622133333334, "is_reserved": 0, "lon": -77.044517, "fusion_lon": 0.0, "is_disabled": 0, "fusion_lat": 0.0, "bike_id": "d87fb2dbd17e0b49f016ea208721f612", "rental_uris": {"ios": "https://dc.lft.to/lastmile_qr_scan", "android": "https://dc.lft.to/lastmile_qr_scan"}}, {"name": "c94c4a7d76a26737a6f061ce28faae61", "type": "electric_bike", "lat": 38.84557483333333, "is_reserved": 0, "lon": -77.06695533333334, "fusion_lon": 0.0, "is_disabled": 0, "fusion_lat": 0.0, "bike_id": "c94c4a7d76a26737a6f061ce28faae61", "rental_uris": {"ios": "https://dc.lft.to/lastmile_qr_scan", "android": "https://dc.lft.to/lastmile_qr_scan"}}, {"name": "4d357cee38538130bf2b07a611872952", "type": "electric_scooter", "lat": 38.9288325, "is_reserved": 0, "lon": -77.01381716666667, "fusion_lon": 0.0, "is_disabled": 0, "fusion_lat": 0.0, "bike_id": "4d357cee38538130bf2b07a611872952", "rental_uris": {"ios": "https://dc.lft.to/lastmile_qr_scan", "android": "https://dc.lft.to/lastmile_qr_scan"}}, {"name": "5136dec7ac41b4a69cd9f701e4285f6e", "type": "electric_scooter", "lat": 38.892361, "is_reserved": 0, "lon": -77.01534, "fusion_lon": 0.0, "is_disabled": 0, "fusion_lat": 0.0, "bike_id": "5136dec7ac41b4a69cd9f701e4285f6e", "rental_uris": {"ios": "https://dc.lft.to/lastmile_qr_scan", "android": "https://dc.lft.to/lastmile_qr_scan"}}, {"name": "3f8e6950a4efd686ac6fcceff18180e1", "type": "electric_scooter", "lat": 38.865248333333334, "is_reserved": 0, "lon": -76.9902565, "fusion_lon": 0.0, "is_disabled": 0, "fusion_lat": 0.0, "bike_id": "3f8e6950a4efd686ac6fcceff18180e1", "rental_uris": {"ios": "https://dc.lft.to/lastmile_qr_scan", "android": "https://dc.lft.to/lastmile_qr_scan"}}, {"name": "5ec07968c255d7fef0455e18da34e0dd", "type": "electric_bike", "lat": 38.8382905, "is_reserved": 0, "lon": -76.99684733333333, "fusion_lon": 0.0, "is_disabled": 0, "fusion_lat": 0.0, "bike_id": "5ec07968c255d7fef0455e18da34e0dd", "rental_uris": {"ios": "https://dc.lft.to/lastmile_qr_scan", "android": "https://dc.lft.to/lastmile_qr_scan"}}, {"name": "d4f40b0082372c5fdb842d2a4c4fa076", "type": "electric_scooter", "lat": 38.9328985, "is_reserved": 0, "lon": -77.0398195, "fusion_lon": 0.0, "is_disabled": 0, "fusion_lat": 0.0, "bike_id": "d4f40b0082372c5fdb842d2a4c4fa076", "rental_uris": {"ios": "https://dc.lft.to/lastmile_qr_scan", "android": "https://dc.lft.to/lastmile_qr_scan"}}, {"name": "2de181aa8248149376beb7f080d5e200", "type": "electric_scooter", "lat": 38.88682716666667, "is_reserved": 0, "lon": -76.9575455, "fusion_lon": 0.0, "is_disabled": 0, "fusion_lat": 0.0, "bike_id": "2de181aa8248149376beb7f080d5e200", "rental_uris": {"ios": "https://dc.lft.to/lastmile_qr_scan", "android": "https://dc.lft.to/lastmile_qr_scan"}}, {"name": "e6b44a9b54a7fb49db736a7758272c3f", "type": "electric_scooter", "lat": 38.894585666666664, "is_reserved": 0, "lon": -77.01920466666667, "fusion_lon": 0.0, "is_disabled": 0, "fusion_lat": 0.0, "bike_id": "e6b44a9b54a7fb49db736a7758272c3f", "rental_uris": {"ios": "https://dc.lft.to/lastmile_qr_scan", "android": "https://dc.lft.to/lastmile_qr_scan"}}, {"name": "c9cca769980f964e4897c6b6f8930110", "type": "electric_scooter", "lat": 38.8763025, "is_reserved": 0, "lon": -76.96528066666667, "fusion_lon": 0.0, "is_disabled": 0, "fusion_lat": 0.0, "bike_id": "c9cca769980f964e4897c6b6f8930110", "rental_uris": {"ios": "https://dc.lft.to/lastmile_qr_scan", "android": "https://dc.lft.to/lastmile_qr_scan"}}, {"name": "c3f104439d5e58f237dddcf408ccfbc5", "type": "electric_scooter", "lat": 38.89737483333333, "is_reserved": 0, "lon": -76.93842916666667, "fusion_lon": 0.0, "is_disabled": 0, "fusion_lat": 0.0, "bike_id": "c3f104439d5e58f237dddcf408ccfbc5", "rental_uris": {"ios": "https://dc.lft.to/lastmile_qr_scan", "android": "https://dc.lft.to/lastmile_qr_scan"}}, {"name": "5071c1f2d4c540c22ddada1fd1de2179", "type": "electric_scooter", "lat": 38.903189833333336, "is_reserved": 0, "lon": -77.03462183333333, "fusion_lon": 0.0, "is_disabled": 0, "fusion_lat": 0.0, "bike_id": "5071c1f2d4c540c22ddada1fd1de2179", "rental_uris": {"ios": "https://dc.lft.to/lastmile_qr_scan", "android": "https://dc.lft.to/lastmile_qr_scan"}}, {"name": "55aa71c093814a715d383b5b3ed6db91", "type": "electric_scooter", "lat": 38.878916333333336, "is_reserved": 0, "lon": -76.99158483333333, "fusion_lon": 0.0, "is_disabled": 0, "fusion_lat": 0.0, "bike_id": "55aa71c093814a715d383b5b3ed6db91", "rental_uris": {"ios": "https://dc.lft.to/lastmile_qr_scan", "android": "https://dc.lft.to/lastmile_qr_scan"}}, {"name": "69adb0d65d772317505847f16dd97917", "type": "electric_scooter", "lat": 38.931206833333334, "is_reserved": 0, "lon": -77.038273, "fusion_lon": 0.0, "is_disabled": 0, "fusion_lat": 0.0, "bike_id": "69adb0d65d772317505847f16dd97917", "rental_uris": {"ios": "https://dc.lft.to/lastmile_qr_scan", "android": "https://dc.lft.to/lastmile_qr_scan"}}, {"name": "4a953a232ec6bc951ad0e218677e708e", "type": "electric_scooter", "lat": 38.903293, "is_reserved": 0, "lon": -76.989698, "fusion_lon": 0.0, "is_disabled": 0, "fusion_lat": 0.0, "bike_id": "4a953a232ec6bc951ad0e218677e708e", "rental_uris": {"ios": "https://dc.lft.to/lastmile_qr_scan", "android": "https://dc.lft.to/lastmile_qr_scan"}}, {"name": "de31e290c07f67be74c4abc481a2f26d", "type": "electric_scooter", "lat": 38.882193666666666, "is_reserved": 0, "lon": -76.94179366666667, "fusion_lon": 0.0, "is_disabled": 0, "fusion_lat": 0.0, "bike_id": "de31e290c07f67be74c4abc481a2f26d", "rental_uris": {"ios": "https://dc.lft.to/lastmile_qr_scan", "android": "https://dc.lft.to/lastmile_qr_scan"}}, {"name": "0b34586129eb0f2ea6f063534acaeeff", "type": "electric_scooter", "lat": 38.88605883333334, "is_reserved": 0, "lon": -76.99509733333333, "fusion_lon": 0.0, "is_disabled": 0, "fusion_lat": 0.0, "bike_id": "0b34586129eb0f2ea6f063534acaeeff", "rental_uris": {"ios": "https://dc.lft.to/lastmile_qr_scan", "android": "https://dc.lft.to/lastmile_qr_scan"}}, {"name": "3228da99daf2a192cd476c77d5bfe8d9", "type": "electric_scooter", "lat": 38.919627166666665, "is_reserved": 0, "lon": -77.03194533333334, "fusion_lon": 0.0, "is_disabled": 0, "fusion_lat": 0.0, "bike_id": "3228da99daf2a192cd476c77d5bfe8d9", "rental_uris": {"ios": "https://dc.lft.to/lastmile_qr_scan", "android": "https://dc.lft.to/lastmile_qr_scan"}}, {"name": "2bd30a0af75866c47e023843bfeabfd0", "type": "electric_scooter", "lat": 38.89832666666667, "is_reserved": 0, "lon": -77.03290633333333, "fusion_lon": 0.0, "is_disabled": 0, "fusion_lat": 0.0, "bike_id": "2bd30a0af75866c47e023843bfeabfd0", "rental_uris": {"ios": "https://dc.lft.to/lastmile_qr_scan", "android": "https://dc.lft.to/lastmile_qr_scan"}}, {"name": "3fb1232d5c8a43bb1c7bd4d916696154", "type": "electric_scooter", "lat": 38.90703583333333, "is_reserved": 0, "lon": -77.01014066666667, "fusion_lon": 0.0, "is_disabled": 0, "fusion_lat": 0.0, "bike_id": "3fb1232d5c8a43bb1c7bd4d916696154", "rental_uris": {"ios": "https://dc.lft.to/lastmile_qr_scan", "android": "https://dc.lft.to/lastmile_qr_scan"}}, {"name": "2ef0e8c807bfa5dbd0860df541b3a0b7", "type": "electric_scooter", "lat": 38.89476466666667, "is_reserved": 0, "lon": -77.021441, "fusion_lon": 0.0, "is_disabled": 0, "fusion_lat": 0.0, "bike_id": "2ef0e8c807bfa5dbd0860df541b3a0b7", "rental_uris": {"ios": "https://dc.lft.to/lastmile_qr_scan", "android": "https://dc.lft.to/lastmile_qr_scan"}}, {"name": "e2518402539bb7687bb198731102a2d2", "type": "electric_bike", "lat": 38.958128333333335, "is_reserved": 0, "lon": -77.01377183333334, "fusion_lon": 0.0, "is_disabled": 0, "fusion_lat": 0.0, "bike_id": "e2518402539bb7687bb198731102a2d2", "rental_uris": {"ios": "https://dc.lft.to/lastmile_qr_scan", "android": "https://dc.lft.to/lastmile_qr_scan"}}, {"name": "fbc04d69d561ec92b0a3ab0dc49eba74", "type": "electric_scooter", "lat": 38.9101075, "is_reserved": 0, "lon": -77.0187775, "fusion_lon": 0.0, "is_disabled": 0, "fusion_lat": 0.0, "bike_id": "fbc04d69d561ec92b0a3ab0dc49eba74", "rental_uris": {"ios": "https://dc.lft.to/lastmile_qr_scan", "android": "https://dc.lft.to/lastmile_qr_scan"}}, {"name": "6b735b7543021b961316a81980a86f99", "type": "electric_bike", "lat": 38.8871515, "is_reserved": 0, "lon": -77.13309883333334, "fusion_lon": 0.0, "is_disabled": 0, "fusion_lat": 0.0, "bike_id": "6b735b7543021b961316a81980a86f99", "rental_uris": {"ios": "https://dc.lft.to/lastmile_qr_scan", "android": "https://dc.lft.to/lastmile_qr_scan"}}, {"name": "1393db4304f005978f6163aa82a158b0", "type": "electric_scooter", "lat": 38.9017455, "is_reserved": 0, "lon": -77.000029, "fusion_lon": 0.0, "is_disabled": 0, "fusion_lat": 0.0, "bike_id": "1393db4304f005978f6163aa82a158b0", "rental_uris": {"ios": "https://dc.lft.to/lastmile_qr_scan", "android": "https://dc.lft.to/lastmile_qr_scan"}}, {"name": "2b7486cb05fb643a1e2f84bb2629e934", "type": "electric_scooter", "lat": 38.86357733333333, "is_reserved": 0, "lon": -76.99071183333334, "fusion_lon": 0.0, "is_disabled": 0, "fusion_lat": 0.0, "bike_id": "2b7486cb05fb643a1e2f84bb2629e934", "rental_uris": {"ios": "https://dc.lft.to/lastmile_qr_scan", "android": "https://dc.lft.to/lastmile_qr_scan"}}, {"name": "4e69f57f6bfdf079050dd9e7181e2e23", "type": "electric_scooter", "lat": 38.9044945, "is_reserved": 0, "lon": -77.05920916666666, "fusion_lon": 0.0, "is_disabled": 0, "fusion_lat": 0.0, "bike_id": "4e69f57f6bfdf079050dd9e7181e2e23", "rental_uris": {"ios": "https://dc.lft.to/lastmile_qr_scan", "android": "https://dc.lft.to/lastmile_qr_scan"}}, {"name": "0545bfd140ec1dba70c897d589b2370d", "type": "electric_scooter", "lat": 38.90366566666667, "is_reserved": 0, "lon": -77.04456633333334, "fusion_lon": 0.0, "is_disabled": 0, "fusion_lat": 0.0, "bike_id": "0545bfd140ec1dba70c897d589b2370d", "rental_uris": {"ios": "https://dc.lft.to/lastmile_qr_scan", "android": "https://dc.lft.to/lastmile_qr_scan"}}, {"name": "ce0aa1b320c89ed36dcd04e2706e352e", "type": "electric_scooter", "lat": 38.905153, "is_reserved": 0, "lon": -77.065898, "fusion_lon": 0.0, "is_disabled": 0, "fusion_lat": 0.0, "bike_id": "ce0aa1b320c89ed36dcd04e2706e352e", "rental_uris": {"ios": "https://dc.lft.to/lastmile_qr_scan", "android": "https://dc.lft.to/lastmile_qr_scan"}}, {"name": "e8301dbb67103a6ee793d7b91ccffd41", "type": "electric_bike", "lat": 39.03048833333333, "is_reserved": 0, "lon": -77.0947955, "fusion_lon": 0.0, "is_disabled": 0, "fusion_lat": 0.0, "bike_id": "e8301dbb67103a6ee793d7b91ccffd41", "rental_uris": {"ios": "https://dc.lft.to/lastmile_qr_scan", "android": "https://dc.lft.to/lastmile_qr_scan"}}, {"name": "f2e9274b0132c4ca594f4973a080b47f", "type": "electric_scooter", "lat": 38.90209866666667, "is_reserved": 0, "lon": -77.05031966666667, "fusion_lon": 0.0, "is_disabled": 0, "fusion_lat": 0.0, "bike_id": "f2e9274b0132c4ca594f4973a080b47f", "rental_uris": {"ios": "https://dc.lft.to/lastmile_qr_scan", "android": "https://dc.lft.to/lastmile_qr_scan"}}, {"name": "370aaead00c2bc5f349c210cc30bceb7", "type": "electric_bike", "lat": 38.970608, "is_reserved": 0, "lon": -76.93605633333334, "fusion_lon": 0.0, "is_disabled": 0, "fusion_lat": 0.0, "bike_id": "370aaead00c2bc5f349c210cc30bceb7", "rental_uris": {"ios": "https://dc.lft.to/lastmile_qr_scan", "android": "https://dc.lft.to/lastmile_qr_scan"}}, {"name": "40b4106342d02e669ff9583af0b2c767", "type": "electric_scooter", "lat": 38.93113433333333, "is_reserved": 0, "lon": -77.03839283333333, "fusion_lon": 0.0, "is_disabled": 0, "fusion_lat": 0.0, "bike_id": "40b4106342d02e669ff9583af0b2c767", "rental_uris": {"ios": "https://dc.lft.to/lastmile_qr_scan", "android": "https://dc.lft.to/lastmile_qr_scan"}}, {"name": "03583b6e0e2bb617cdae253b5682222d", "type": "electric_bike", "lat": 38.913612, "is_reserved": 0, "lon": -77.02873933333333, "fusion_lon": 0.0, "is_disabled": 0, "fusion_lat": 0.0, "bike_id": "03583b6e0e2bb617cdae253b5682222d", "rental_uris": {"ios": "https://dc.lft.to/lastmile_qr_scan", "android": "https://dc.lft.to/lastmile_qr_scan"}}, {"name": "b9369b76c3de764014fdcc41cc57e345", "type": "electric_scooter", "lat": 38.921078666666666, "is_reserved": 0, "lon": -77.04217166666666, "fusion_lon": 0.0, "is_disabled": 0, "fusion_lat": 0.0, "bike_id": "b9369b76c3de764014fdcc41cc57e345", "rental_uris": {"ios": "https://dc.lft.to/lastmile_qr_scan", "android": "https://dc.lft.to/lastmile_qr_scan"}}, {"name": "e0754228ba94a30325c717e145f4d05e", "type": "electric_bike", "lat": 38.90495116666666, "is_reserved": 0, "lon": -77.02779033333333, "fusion_lon": 0.0, "is_disabled": 0, "fusion_lat": 0.0, "bike_id": "e0754228ba94a30325c717e145f4d05e", "rental_uris": {"ios": "https://dc.lft.to/lastmile_qr_scan", "android": "https://dc.lft.to/lastmile_qr_scan"}}, {"name": "7bdaf2c1b91c86307163bb3d1fae8367", "type": "electric_scooter", "lat": 38.893575166666665, "is_reserved": 0, "lon": -77.00337533333334, "fusion_lon": 0.0, "is_disabled": 0, "fusion_lat": 0.0, "bike_id": "7bdaf2c1b91c86307163bb3d1fae8367", "rental_uris": {"ios": "https://dc.lft.to/lastmile_qr_scan", "android": "https://dc.lft.to/lastmile_qr_scan"}}, {"name": "4ed13b03239784e54110751522ae0c50", "type": "electric_scooter", "lat": 38.9046335, "is_reserved": 0, "lon": -77.060122, "fusion_lon": 0.0, "is_disabled": 0, "fusion_lat": 0.0, "bike_id": "4ed13b03239784e54110751522ae0c50", "rental_uris": {"ios": "https://dc.lft.to/lastmile_qr_scan", "android": "https://dc.lft.to/lastmile_qr_scan"}}, {"name": "3c0f237203ec480290c54f295d6b35ea", "type": "electric_scooter", "lat": 38.90065516666667, "is_reserved": 0, "lon": -77.0259535, "fusion_lon": 0.0, "is_disabled": 0, "fusion_lat": 0.0, "bike_id": "3c0f237203ec480290c54f295d6b35ea", "rental_uris": {"ios": "https://dc.lft.to/lastmile_qr_scan", "android": "https://dc.lft.to/lastmile_qr_scan"}}, {"name": "9b3246ec9dcacb430ad52609127109d3", "type": "electric_scooter", "lat": 38.84293066666667, "is_reserved": 0, "lon": -76.999493, "fusion_lon": 0.0, "is_disabled": 0, "fusion_lat": 0.0, "bike_id": "9b3246ec9dcacb430ad52609127109d3", "rental_uris": {"ios": "https://dc.lft.to/lastmile_qr_scan", "android": "https://dc.lft.to/lastmile_qr_scan"}}, {"name": "e69bcb64652ce445fe0f5cb306c6b4bf", "type": "electric_scooter", "lat": 38.9074255, "is_reserved": 0, "lon": -77.04674366666667, "fusion_lon": 0.0, "is_disabled": 0, "fusion_lat": 0.0, "bike_id": "e69bcb64652ce445fe0f5cb306c6b4bf", "rental_uris": {"ios": "https://dc.lft.to/lastmile_qr_scan", "android": "https://dc.lft.to/lastmile_qr_scan"}}, {"name": "0ea55132935f2b7a9a58c77f7d6a44b4", "type": "electric_bike", "lat": 38.968895, "is_reserved": 0, "lon": -76.956792, "fusion_lon": 0.0, "is_disabled": 0, "fusion_lat": 0.0, "bike_id": "0ea55132935f2b7a9a58c77f7d6a44b4", "rental_uris": {"ios": "https://dc.lft.to/lastmile_qr_scan", "android": "https://dc.lft.to/lastmile_qr_scan"}}, {"name": "9a1529f35460d5d7849e8e446427b115", "type": "electric_scooter", "lat": 38.90387416666667, "is_reserved": 0, "lon": -77.04151, "fusion_lon": 0.0, "is_disabled": 0, "fusion_lat": 0.0, "bike_id": "9a1529f35460d5d7849e8e446427b115", "rental_uris": {"ios": "https://dc.lft.to/lastmile_qr_scan", "android": "https://dc.lft.to/lastmile_qr_scan"}}, {"name": "767dd66d13e40880eb080394423bd992", "type": "electric_scooter", "lat": 38.9025775, "is_reserved": 0, "lon": -77.061164, "fusion_lon": 0.0, "is_disabled": 0, "fusion_lat": 0.0, "bike_id": "767dd66d13e40880eb080394423bd992", "rental_uris": {"ios": "https://dc.lft.to/lastmile_qr_scan", "android": "https://dc.lft.to/lastmile_qr_scan"}}, {"name": "f1937e0024bac5aa065a069fefdfe5f7", "type": "electric_bike", "lat": 38.922139333333334, "is_reserved": 0, "lon": -76.98832716666666, "fusion_lon": 0.0, "is_disabled": 0, "fusion_lat": 0.0, "bike_id": "f1937e0024bac5aa065a069fefdfe5f7", "rental_uris": {"ios": "https://dc.lft.to/lastmile_qr_scan", "android": "https://dc.lft.to/lastmile_qr_scan"}}, {"name": "b31f1b8d285e3d999fedad1e39d17390", "type": "electric_scooter", "lat": 38.90113933333333, "is_reserved": 0, "lon": -77.0119035, "fusion_lon": 0.0, "is_disabled": 0, "fusion_lat": 0.0, "bike_id": "b31f1b8d285e3d999fedad1e39d17390", "rental_uris": {"ios": "https://dc.lft.to/lastmile_qr_scan", "android": "https://dc.lft.to/lastmile_qr_scan"}}, {"name": "3e40f9dfa0ddd210d64bcc03d43593b7", "type": "electric_scooter", "lat": 38.90359633333333, "is_reserved": 0, "lon": -77.031564, "fusion_lon": 0.0, "is_disabled": 0, "fusion_lat": 0.0, "bike_id": "3e40f9dfa0ddd210d64bcc03d43593b7", "rental_uris": {"ios": "https://dc.lft.to/lastmile_qr_scan", "android": "https://dc.lft.to/lastmile_qr_scan"}}, {"name": "564dc5203d29b3a4c4e116d001d753fe", "type": "electric_scooter", "lat": 38.89052566666667, "is_reserved": 0, "lon": -76.93748066666667, "fusion_lon": 0.0, "is_disabled": 0, "fusion_lat": 0.0, "bike_id": "564dc5203d29b3a4c4e116d001d753fe", "rental_uris": {"ios": "https://dc.lft.to/lastmile_qr_scan", "android": "https://dc.lft.to/lastmile_qr_scan"}}, {"name": "b4783cad167156bc7958267bc9cbab9b", "type": "electric_scooter", "lat": 38.91311116666667, "is_reserved": 0, "lon": -77.036402, "fusion_lon": 0.0, "is_disabled": 0, "fusion_lat": 0.0, "bike_id": "b4783cad167156bc7958267bc9cbab9b", "rental_uris": {"ios": "https://dc.lft.to/lastmile_qr_scan", "android": "https://dc.lft.to/lastmile_qr_scan"}}, {"name": "709afbfc23bbff7b4cef0545a65d180f", "type": "electric_scooter", "lat": 38.91433333333333, "is_reserved": 0, "lon": -77.003434, "fusion_lon": 0.0, "is_disabled": 0, "fusion_lat": 0.0, "bike_id": "709afbfc23bbff7b4cef0545a65d180f", "rental_uris": {"ios": "https://dc.lft.to/lastmile_qr_scan", "android": "https://dc.lft.to/lastmile_qr_scan"}}, {"name": "91eb1b13c3771137166752f3ccbf1de7", "type": "electric_scooter", "lat": 38.92885583333333, "is_reserved": 0, "lon": -77.05448916666667, "fusion_lon": 0.0, "is_disabled": 0, "fusion_lat": 0.0, "bike_id": "91eb1b13c3771137166752f3ccbf1de7", "rental_uris": {"ios": "https://dc.lft.to/lastmile_qr_scan", "android": "https://dc.lft.to/lastmile_qr_scan"}}, {"name": "fca13a40c7aa1e4dea29795c4b0406cb", "type": "electric_scooter", "lat": 38.908457, "is_reserved": 0, "lon": -77.08530066666667, "fusion_lon": 0.0, "is_disabled": 0, "fusion_lat": 0.0, "bike_id": "fca13a40c7aa1e4dea29795c4b0406cb", "rental_uris": {"ios": "https://dc.lft.to/lastmile_qr_scan", "android": "https://dc.lft.to/lastmile_qr_scan"}}, {"name": "ad5f41c394d29c856a4d512645cbe0bf", "type": "electric_scooter", "lat": 38.942791, "is_reserved": 0, "lon": -77.02502566666666, "fusion_lon": 0.0, "is_disabled": 0, "fusion_lat": 0.0, "bike_id": "ad5f41c394d29c856a4d512645cbe0bf", "rental_uris": {"ios": "https://dc.lft.to/lastmile_qr_scan", "android": "https://dc.lft.to/lastmile_qr_scan"}}, {"name": "01eb1ea728c820d76c8bc2286213d08d", "type": "electric_scooter", "lat": 38.903641, "is_reserved": 0, "lon": -77.04332566666666, "fusion_lon": 0.0, "is_disabled": 0, "fusion_lat": 0.0, "bike_id": "01eb1ea728c820d76c8bc2286213d08d", "rental_uris": {"ios": "https://dc.lft.to/lastmile_qr_scan", "android": "https://dc.lft.to/lastmile_qr_scan"}}, {"name": "c9f64221b3a5e719ba9064690454ac63", "type": "electric_scooter", "lat": 38.89355466666667, "is_reserved": 0, "lon": -77.00335433333333, "fusion_lon": 0.0, "is_disabled": 0, "fusion_lat": 0.0, "bike_id": "c9f64221b3a5e719ba9064690454ac63", "rental_uris": {"ios": "https://dc.lft.to/lastmile_qr_scan", "android": "https://dc.lft.to/lastmile_qr_scan"}}, {"name": "eaea1b8a5ffc717767e6848625c1582b", "type": "electric_scooter", "lat": 38.9081655, "is_reserved": 0, "lon": -77.039404, "fusion_lon": 0.0, "is_disabled": 0, "fusion_lat": 0.0, "bike_id": "eaea1b8a5ffc717767e6848625c1582b", "rental_uris": {"ios": "https://dc.lft.to/lastmile_qr_scan", "android": "https://dc.lft.to/lastmile_qr_scan"}}, {"name": "70ee67e2e4af4f79f129928c9c5b7975", "type": "electric_scooter", "lat": 38.9253625, "is_reserved": 0, "lon": -77.03876633333333, "fusion_lon": 0.0, "is_disabled": 0, "fusion_lat": 0.0, "bike_id": "70ee67e2e4af4f79f129928c9c5b7975", "rental_uris": {"ios": "https://dc.lft.to/lastmile_qr_scan", "android": "https://dc.lft.to/lastmile_qr_scan"}}, {"name": "6ad356b67b9e6ad02e6c12179cd75859", "type": "electric_bike", "lat": 38.8922425, "is_reserved": 0, "lon": -76.97024266666666, "fusion_lon": 0.0, "is_disabled": 0, "fusion_lat": 0.0, "bike_id": "6ad356b67b9e6ad02e6c12179cd75859", "rental_uris": {"ios": "https://dc.lft.to/lastmile_qr_scan", "android": "https://dc.lft.to/lastmile_qr_scan"}}, {"name": "2e04f16f6adcf6ad0e48d6e4a30b69ac", "type": "electric_scooter", "lat": 38.893449333333336, "is_reserved": 0, "lon": -77.01964733333334, "fusion_lon": 0.0, "is_disabled": 0, "fusion_lat": 0.0, "bike_id": "2e04f16f6adcf6ad0e48d6e4a30b69ac", "rental_uris": {"ios": "https://dc.lft.to/lastmile_qr_scan", "android": "https://dc.lft.to/lastmile_qr_scan"}}, {"name": "c3739cf79200eeed195df0f1505e83bc", "type": "electric_scooter", "lat": 38.8987745, "is_reserved": 0, "lon": -76.93160766666666, "fusion_lon": 0.0, "is_disabled": 0, "fusion_lat": 0.0, "bike_id": "c3739cf79200eeed195df0f1505e83bc", "rental_uris": {"ios": "https://dc.lft.to/lastmile_qr_scan", "android": "https://dc.lft.to/lastmile_qr_scan"}}, {"name": "2e1cc4728f27d5ee4aa7af0c3af2bf7c", "type": "electric_scooter", "lat": 38.92096083333333, "is_reserved": 0, "lon": -77.0374605, "fusion_lon": 0.0, "is_disabled": 0, "fusion_lat": 0.0, "bike_id": "2e1cc4728f27d5ee4aa7af0c3af2bf7c", "rental_uris": {"ios": "https://dc.lft.to/lastmile_qr_scan", "android": "https://dc.lft.to/lastmile_qr_scan"}}, {"name": "fdaed03f09bb3bed7cb4d75e04c5cbe4", "type": "electric_scooter", "lat": 38.8637305, "is_reserved": 0, "lon": -76.99060966666667, "fusion_lon": 0.0, "is_disabled": 0, "fusion_lat": 0.0, "bike_id": "fdaed03f09bb3bed7cb4d75e04c5cbe4", "rental_uris": {"ios": "https://dc.lft.to/lastmile_qr_scan", "android": "https://dc.lft.to/lastmile_qr_scan"}}, {"name": "e14c435b83cf59df632bdee256673b2e", "type": "electric_scooter", "lat": 38.899558, "is_reserved": 0, "lon": -77.03357333333334, "fusion_lon": 0.0, "is_disabled": 0, "fusion_lat": 0.0, "bike_id": "e14c435b83cf59df632bdee256673b2e", "rental_uris": {"ios": "https://dc.lft.to/lastmile_qr_scan", "android": "https://dc.lft.to/lastmile_qr_scan"}}, {"name": "f4bb29c34edab0dd6a361162c5099eb2", "type": "electric_scooter", "lat": 38.89776116666667, "is_reserved": 0, "lon": -76.97730933333334, "fusion_lon": 0.0, "is_disabled": 0, "fusion_lat": 0.0, "bike_id": "f4bb29c34edab0dd6a361162c5099eb2", "rental_uris": {"ios": "https://dc.lft.to/lastmile_qr_scan", "android": "https://dc.lft.to/lastmile_qr_scan"}}, {"name": "e4323f28bba2cd87bb109ba6c502341e", "type": "electric_bike", "lat": 38.945129, "is_reserved": 0, "lon": -77.006808, "fusion_lon": 0.0, "is_disabled": 0, "fusion_lat": 0.0, "bike_id": "e4323f28bba2cd87bb109ba6c502341e", "rental_uris": {"ios": "https://dc.lft.to/lastmile_qr_scan", "android": "https://dc.lft.to/lastmile_qr_scan"}}, {"name": "e7508cd1070dfa3958afdaa956a4bbb0", "type": "electric_scooter", "lat": 38.90580466666667, "is_reserved": 0, "lon": -77.03852816666667, "fusion_lon": 0.0, "is_disabled": 0, "fusion_lat": 0.0, "bike_id": "e7508cd1070dfa3958afdaa956a4bbb0", "rental_uris": {"ios": "https://dc.lft.to/lastmile_qr_scan", "android": "https://dc.lft.to/lastmile_qr_scan"}}, {"name": "1429ac210381d4c56a2a64f889175ee9", "type": "electric_scooter", "lat": 38.92450566666667, "is_reserved": 0, "lon": -77.033722, "fusion_lon": 0.0, "is_disabled": 0, "fusion_lat": 0.0, "bike_id": "1429ac210381d4c56a2a64f889175ee9", "rental_uris": {"ios": "https://dc.lft.to/lastmile_qr_scan", "android": "https://dc.lft.to/lastmile_qr_scan"}}, {"name": "82bcbb0ab9b32d8fbe986d44c2b1a49a", "type": "electric_scooter", "lat": 38.903191666666665, "is_reserved": 0, "lon": -77.03465866666667, "fusion_lon": 0.0, "is_disabled": 0, "fusion_lat": 0.0, "bike_id": "82bcbb0ab9b32d8fbe986d44c2b1a49a", "rental_uris": {"ios": "https://dc.lft.to/lastmile_qr_scan", "android": "https://dc.lft.to/lastmile_qr_scan"}}, {"name": "5cf5c01d52955ef48795260cfb48eb7d", "type": "electric_scooter", "lat": 38.97233283333333, "is_reserved": 0, "lon": -77.02712816666667, "fusion_lon": 0.0, "is_disabled": 0, "fusion_lat": 0.0, "bike_id": "5cf5c01d52955ef48795260cfb48eb7d", "rental_uris": {"ios": "https://dc.lft.to/lastmile_qr_scan", "android": "https://dc.lft.to/lastmile_qr_scan"}}, {"name": "7867aff92d2d86abbc68a07ed916f146", "type": "electric_scooter", "lat": 38.89530966666667, "is_reserved": 0, "lon": -77.03350566666667, "fusion_lon": 0.0, "is_disabled": 0, "fusion_lat": 0.0, "bike_id": "7867aff92d2d86abbc68a07ed916f146", "rental_uris": {"ios": "https://dc.lft.to/lastmile_qr_scan", "android": "https://dc.lft.to/lastmile_qr_scan"}}, {"name": "c109e24199c5492d60beb8d7a62f66b3", "type": "electric_scooter", "lat": 38.94095733333333, "is_reserved": 0, "lon": -77.03279683333334, "fusion_lon": 0.0, "is_disabled": 0, "fusion_lat": 0.0, "bike_id": "c109e24199c5492d60beb8d7a62f66b3", "rental_uris": {"ios": "https://dc.lft.to/lastmile_qr_scan", "android": "https://dc.lft.to/lastmile_qr_scan"}}, {"name": "bed4c949c4ec2cda8a25a257ee660dbb", "type": "electric_scooter", "lat": 38.90146816666667, "is_reserved": 0, "lon": -77.03318983333334, "fusion_lon": 0.0, "is_disabled": 0, "fusion_lat": 0.0, "bike_id": "bed4c949c4ec2cda8a25a257ee660dbb", "rental_uris": {"ios": "https://dc.lft.to/lastmile_qr_scan", "android": "https://dc.lft.to/lastmile_qr_scan"}}, {"name": "af8266acaa8433fdc9f57f37f3a08b16", "type": "electric_scooter", "lat": 38.924461666666666, "is_reserved": 0, "lon": -77.0203165, "fusion_lon": 0.0, "is_disabled": 0, "fusion_lat": 0.0, "bike_id": "af8266acaa8433fdc9f57f37f3a08b16", "rental_uris": {"ios": "https://dc.lft.to/lastmile_qr_scan", "android": "https://dc.lft.to/lastmile_qr_scan"}}, {"name": "9cde5971a80b0baf6242b240475b5bac", "type": "electric_scooter", "lat": 38.85899333333333, "is_reserved": 0, "lon": -76.96704633333333, "fusion_lon": 0.0, "is_disabled": 0, "fusion_lat": 0.0, "bike_id": "9cde5971a80b0baf6242b240475b5bac", "rental_uris": {"ios": "https://dc.lft.to/lastmile_qr_scan", "android": "https://dc.lft.to/lastmile_qr_scan"}}, {"name": "524f08c09fb3bcc26ced1d6f589e0c34", "type": "electric_scooter", "lat": 38.91402333333333, "is_reserved": 0, "lon": -77.04565483333333, "fusion_lon": 0.0, "is_disabled": 0, "fusion_lat": 0.0, "bike_id": "524f08c09fb3bcc26ced1d6f589e0c34", "rental_uris": {"ios": "https://dc.lft.to/lastmile_qr_scan", "android": "https://dc.lft.to/lastmile_qr_scan"}}, {"name": "f8a7507c6a5ce8edf6964e5eda00fae0", "type": "electric_scooter", "lat": 38.89400083333334, "is_reserved": 0, "lon": -76.9480795, "fusion_lon": 0.0, "is_disabled": 0, "fusion_lat": 0.0, "bike_id": "f8a7507c6a5ce8edf6964e5eda00fae0", "rental_uris": {"ios": "https://dc.lft.to/lastmile_qr_scan", "android": "https://dc.lft.to/lastmile_qr_scan"}}, {"name": "cb5de6cdde51215477c34e9e008bcf28", "type": "electric_scooter", "lat": 38.9196255, "is_reserved": 0, "lon": -77.0319465, "fusion_lon": 0.0, "is_disabled": 0, "fusion_lat": 0.0, "bike_id": "cb5de6cdde51215477c34e9e008bcf28", "rental_uris": {"ios": "https://dc.lft.to/lastmile_qr_scan", "android": "https://dc.lft.to/lastmile_qr_scan"}}, {"name": "2a4e87d543da7b61663e103888d45cbc", "type": "electric_scooter", "lat": 38.932007666666664, "is_reserved": 0, "lon": -77.03851766666666, "fusion_lon": 0.0, "is_disabled": 0, "fusion_lat": 0.0, "bike_id": "2a4e87d543da7b61663e103888d45cbc", "rental_uris": {"ios": "https://dc.lft.to/lastmile_qr_scan", "android": "https://dc.lft.to/lastmile_qr_scan"}}, {"name": "34a6cf8b3c48142fc405896f1d7d1a2c", "type": "electric_scooter", "lat": 38.89994383333333, "is_reserved": 0, "lon": -76.99504316666666, "fusion_lon": 0.0, "is_disabled": 0, "fusion_lat": 0.0, "bike_id": "34a6cf8b3c48142fc405896f1d7d1a2c", "rental_uris": {"ios": "https://dc.lft.to/lastmile_qr_scan", "android": "https://dc.lft.to/lastmile_qr_scan"}}, {"name": "b67b7e0dac0fdaa7dcc8ebec5f3642c2", "type": "electric_scooter", "lat": 38.927480833333334, "is_reserved": 0, "lon": -77.0326845, "fusion_lon": 0.0, "is_disabled": 0, "fusion_lat": 0.0, "bike_id": "b67b7e0dac0fdaa7dcc8ebec5f3642c2", "rental_uris": {"ios": "https://dc.lft.to/lastmile_qr_scan", "android": "https://dc.lft.to/lastmile_qr_scan"}}, {"name": "303b95e8464fdab5e226dd558ecbb370", "type": "electric_scooter", "lat": 38.907538333333335, "is_reserved": 0, "lon": -77.00017966666667, "fusion_lon": 0.0, "is_disabled": 0, "fusion_lat": 0.0, "bike_id": "303b95e8464fdab5e226dd558ecbb370", "rental_uris": {"ios": "https://dc.lft.to/lastmile_qr_scan", "android": "https://dc.lft.to/lastmile_qr_scan"}}, {"name": "4b62f89c58ee86e0a2a6c8d399de314c", "type": "electric_scooter", "lat": 38.90267016666667, "is_reserved": 0, "lon": -77.01762366666667, "fusion_lon": 0.0, "is_disabled": 0, "fusion_lat": 0.0, "bike_id": "4b62f89c58ee86e0a2a6c8d399de314c", "rental_uris": {"ios": "https://dc.lft.to/lastmile_qr_scan", "android": "https://dc.lft.to/lastmile_qr_scan"}}, {"name": "60d37dfce61c94754e47d86a6a7f0a0e", "type": "electric_scooter", "lat": 38.92352416666667, "is_reserved": 0, "lon": -77.01898966666667, "fusion_lon": 0.0, "is_disabled": 0, "fusion_lat": 0.0, "bike_id": "60d37dfce61c94754e47d86a6a7f0a0e", "rental_uris": {"ios": "https://dc.lft.to/lastmile_qr_scan", "android": "https://dc.lft.to/lastmile_qr_scan"}}, {"name": "9b1db89ee09658d5a231c35396d3892a", "type": "electric_scooter", "lat": 38.920623, "is_reserved": 0, "lon": -77.02981633333333, "fusion_lon": 0.0, "is_disabled": 0, "fusion_lat": 0.0, "bike_id": "9b1db89ee09658d5a231c35396d3892a", "rental_uris": {"ios": "https://dc.lft.to/lastmile_qr_scan", "android": "https://dc.lft.to/lastmile_qr_scan"}}, {"name": "37285e3c2a33a7775d47da9803605fd3", "type": "electric_scooter", "lat": 38.89671966666667, "is_reserved": 0, "lon": -77.02954533333333, "fusion_lon": 0.0, "is_disabled": 0, "fusion_lat": 0.0, "bike_id": "37285e3c2a33a7775d47da9803605fd3", "rental_uris": {"ios": "https://dc.lft.to/lastmile_qr_scan", "android": "https://dc.lft.to/lastmile_qr_scan"}}, {"name": "4afb5497cdccaeea65969d8b8b047f48", "type": "electric_scooter", "lat": 38.90590016666667, "is_reserved": 0, "lon": -77.0651635, "fusion_lon": 0.0, "is_disabled": 0, "fusion_lat": 0.0, "bike_id": "4afb5497cdccaeea65969d8b8b047f48", "rental_uris": {"ios": "https://dc.lft.to/lastmile_qr_scan", "android": "https://dc.lft.to/lastmile_qr_scan"}}, {"name": "9262c1bcdbfc1645ea8b85afe3bc4ac2", "type": "electric_bike", "lat": 38.955359666666666, "is_reserved": 0, "lon": -77.02299333333333, "fusion_lon": 0.0, "is_disabled": 0, "fusion_lat": 0.0, "bike_id": "9262c1bcdbfc1645ea8b85afe3bc4ac2", "rental_uris": {"ios": "https://dc.lft.to/lastmile_qr_scan", "android": "https://dc.lft.to/lastmile_qr_scan"}}, {"name": "60196db1d4fe4b4a0d59125eba5b7747", "type": "electric_scooter", "lat": 38.9206415, "is_reserved": 0, "lon": -76.97806133333333, "fusion_lon": 0.0, "is_disabled": 0, "fusion_lat": 0.0, "bike_id": "60196db1d4fe4b4a0d59125eba5b7747", "rental_uris": {"ios": "https://dc.lft.to/lastmile_qr_scan", "android": "https://dc.lft.to/lastmile_qr_scan"}}, {"name": "2fe5602a3135aa35ef2b0df487c082f8", "type": "electric_scooter", "lat": 38.9051445, "is_reserved": 0, "lon": -77.06384216666666, "fusion_lon": 0.0, "is_disabled": 0, "fusion_lat": 0.0, "bike_id": "2fe5602a3135aa35ef2b0df487c082f8", "rental_uris": {"ios": "https://dc.lft.to/lastmile_qr_scan", "android": "https://dc.lft.to/lastmile_qr_scan"}}, {"name": "8588e106220f54202c444caa572eeb72", "type": "electric_bike", "lat": 38.946093166666664, "is_reserved": 0, "lon": -77.06980316666667, "fusion_lon": 0.0, "is_disabled": 0, "fusion_lat": 0.0, "bike_id": "8588e106220f54202c444caa572eeb72", "rental_uris": {"ios": "https://dc.lft.to/lastmile_qr_scan", "android": "https://dc.lft.to/lastmile_qr_scan"}}, {"name": "c97ec07f0b535b0ea6325fabdb62a8d4", "type": "electric_scooter", "lat": 38.9263725, "is_reserved": 0, "lon": -77.03514966666667, "fusion_lon": 0.0, "is_disabled": 0, "fusion_lat": 0.0, "bike_id": "c97ec07f0b535b0ea6325fabdb62a8d4", "rental_uris": {"ios": "https://dc.lft.to/lastmile_qr_scan", "android": "https://dc.lft.to/lastmile_qr_scan"}}, {"name": "52c3d136bcc39b00a59d22dec186bd72", "type": "electric_scooter", "lat": 38.9036385, "is_reserved": 0, "lon": -77.043347, "fusion_lon": 0.0, "is_disabled": 0, "fusion_lat": 0.0, "bike_id": "52c3d136bcc39b00a59d22dec186bd72", "rental_uris": {"ios": "https://dc.lft.to/lastmile_qr_scan", "android": "https://dc.lft.to/lastmile_qr_scan"}}, {"name": "b2f83e90673d0d0c27fc123feb320e26", "type": "electric_scooter", "lat": 38.91969233333333, "is_reserved": 0, "lon": -77.00104583333334, "fusion_lon": 0.0, "is_disabled": 0, "fusion_lat": 0.0, "bike_id": "b2f83e90673d0d0c27fc123feb320e26", "rental_uris": {"ios": "https://dc.lft.to/lastmile_qr_scan", "android": "https://dc.lft.to/lastmile_qr_scan"}}, {"name": "40e988c7d5f77023a7487eee3102bf7b", "type": "electric_scooter", "lat": 38.90588266666666, "is_reserved": 0, "lon": -77.065189, "fusion_lon": 0.0, "is_disabled": 0, "fusion_lat": 0.0, "bike_id": "40e988c7d5f77023a7487eee3102bf7b", "rental_uris": {"ios": "https://dc.lft.to/lastmile_qr_scan", "android": "https://dc.lft.to/lastmile_qr_scan"}}, {"name": "8eee176e73c55878e7457b029d68f6e2", "type": "electric_scooter", "lat": 38.896319166666665, "is_reserved": 0, "lon": -77.03964383333333, "fusion_lon": 0.0, "is_disabled": 0, "fusion_lat": 0.0, "bike_id": "8eee176e73c55878e7457b029d68f6e2", "rental_uris": {"ios": "https://dc.lft.to/lastmile_qr_scan", "android": "https://dc.lft.to/lastmile_qr_scan"}}, {"name": "8d6a274a2d314b11a4706fccf4a063e9", "type": "electric_scooter", "lat": 38.87628566666667, "is_reserved": 0, "lon": -77.00919083333334, "fusion_lon": 0.0, "is_disabled": 0, "fusion_lat": 0.0, "bike_id": "8d6a274a2d314b11a4706fccf4a063e9", "rental_uris": {"ios": "https://dc.lft.to/lastmile_qr_scan", "android": "https://dc.lft.to/lastmile_qr_scan"}}, {"name": "b9181d0b68292316a6c0baf1a396e167", "type": "electric_bike", "lat": 38.8840135, "is_reserved": 0, "lon": -76.960545, "fusion_lon": 0.0, "is_disabled": 0, "fusion_lat": 0.0, "bike_id": "b9181d0b68292316a6c0baf1a396e167", "rental_uris": {"ios": "https://dc.lft.to/lastmile_qr_scan", "android": "https://dc.lft.to/lastmile_qr_scan"}}, {"name": "0fde813bb0885bf8f29715553b64effd", "type": "electric_scooter", "lat": 38.928755833333334, "is_reserved": 0, "lon": -77.04047783333333, "fusion_lon": 0.0, "is_disabled": 0, "fusion_lat": 0.0, "bike_id": "0fde813bb0885bf8f29715553b64effd", "rental_uris": {"ios": "https://dc.lft.to/lastmile_qr_scan", "android": "https://dc.lft.to/lastmile_qr_scan"}}, {"name": "fa11a49061b1944f14a349b7f362e326", "type": "electric_bike", "lat": 38.9367085, "is_reserved": 0, "lon": -76.95205433333334, "fusion_lon": 0.0, "is_disabled": 0, "fusion_lat": 0.0, "bike_id": "fa11a49061b1944f14a349b7f362e326", "rental_uris": {"ios": "https://dc.lft.to/lastmile_qr_scan", "android": "https://dc.lft.to/lastmile_qr_scan"}}, {"name": "03a21f8af0c970e845f0e6ae3b8d6877", "type": "electric_scooter", "lat": 38.906409, "is_reserved": 0, "lon": -77.03468366666667, "fusion_lon": 0.0, "is_disabled": 0, "fusion_lat": 0.0, "bike_id": "03a21f8af0c970e845f0e6ae3b8d6877", "rental_uris": {"ios": "https://dc.lft.to/lastmile_qr_scan", "android": "https://dc.lft.to/lastmile_qr_scan"}}, {"name": "e1c80975f5c7a6852dc8e153ca23ee9b", "type": "electric_scooter", "lat": 38.922323666666664, "is_reserved": 0, "lon": -77.04132866666667, "fusion_lon": 0.0, "is_disabled": 0, "fusion_lat": 0.0, "bike_id": "e1c80975f5c7a6852dc8e153ca23ee9b", "rental_uris": {"ios": "https://dc.lft.to/lastmile_qr_scan", "android": "https://dc.lft.to/lastmile_qr_scan"}}, {"name": "0ddeabd7e555428fb9896fe40a8f450c", "type": "electric_bike", "lat": 38.91856216666667, "is_reserved": 0, "lon": -76.9609045, "fusion_lon": 0.0, "is_disabled": 0, "fusion_lat": 0.0, "bike_id": "0ddeabd7e555428fb9896fe40a8f450c", "rental_uris": {"ios": "https://dc.lft.to/lastmile_qr_scan", "android": "https://dc.lft.to/lastmile_qr_scan"}}, {"name": "3273707e307adfc8f23d1bd77703a866", "type": "electric_bike", "lat": 38.9657465, "is_reserved": 0, "lon": -76.95485, "fusion_lon": 0.0, "is_disabled": 0, "fusion_lat": 0.0, "bike_id": "3273707e307adfc8f23d1bd77703a866", "rental_uris": {"ios": "https://dc.lft.to/lastmile_qr_scan", "android": "https://dc.lft.to/lastmile_qr_scan"}}, {"name": "5920e267be7159d42c2f9eb3dfdaa3e3", "type": "electric_bike", "lat": 38.8244815, "is_reserved": 0, "lon": -77.07043616666667, "fusion_lon": 0.0, "is_disabled": 0, "fusion_lat": 0.0, "bike_id": "5920e267be7159d42c2f9eb3dfdaa3e3", "rental_uris": {"ios": "https://dc.lft.to/lastmile_qr_scan", "android": "https://dc.lft.to/lastmile_qr_scan"}}, {"name": "0e511600ea48f02741d09ab6273dab76", "type": "electric_scooter", "lat": 38.92321416666667, "is_reserved": 0, "lon": -77.04486283333334, "fusion_lon": 0.0, "is_disabled": 0, "fusion_lat": 0.0, "bike_id": "0e511600ea48f02741d09ab6273dab76", "rental_uris": {"ios": "https://dc.lft.to/lastmile_qr_scan", "android": "https://dc.lft.to/lastmile_qr_scan"}}, {"name": "c4fa8e7de850b5a338565a7d86e990ac", "type": "electric_scooter", "lat": 38.9215015, "is_reserved": 0, "lon": -77.03461, "fusion_lon": 0.0, "is_disabled": 0, "fusion_lat": 0.0, "bike_id": "c4fa8e7de850b5a338565a7d86e990ac", "rental_uris": {"ios": "https://dc.lft.to/lastmile_qr_scan", "android": "https://dc.lft.to/lastmile_qr_scan"}}, {"name": "a3592caf48bc991fa2d6976dab7651bc", "type": "electric_scooter", "lat": 38.9029145, "is_reserved": 0, "lon": -77.03649216666666, "fusion_lon": 0.0, "is_disabled": 0, "fusion_lat": 0.0, "bike_id": "a3592caf48bc991fa2d6976dab7651bc", "rental_uris": {"ios": "https://dc.lft.to/lastmile_qr_scan", "android": "https://dc.lft.to/lastmile_qr_scan"}}, {"name": "b4e726b04850344126a0e7b7a247f5c3", "type": "electric_bike", "lat": 38.9066905, "is_reserved": 0, "lon": -76.99959716666666, "fusion_lon": 0.0, "is_disabled": 0, "fusion_lat": 0.0, "bike_id": "b4e726b04850344126a0e7b7a247f5c3", "rental_uris": {"ios": "https://dc.lft.to/lastmile_qr_scan", "android": "https://dc.lft.to/lastmile_qr_scan"}}, {"name": "186d289ce0248fe38ac05b4aa6041a08", "type": "electric_scooter", "lat": 38.91789416666667, "is_reserved": 0, "lon": -77.02290266666667, "fusion_lon": 0.0, "is_disabled": 0, "fusion_lat": 0.0, "bike_id": "186d289ce0248fe38ac05b4aa6041a08", "rental_uris": {"ios": "https://dc.lft.to/lastmile_qr_scan", "android": "https://dc.lft.to/lastmile_qr_scan"}}, {"name": "3d38f18a3ede665e0dcb01dbddfd5407", "type": "electric_scooter", "lat": 38.89024633333333, "is_reserved": 0, "lon": -76.93686433333333, "fusion_lon": 0.0, "is_disabled": 0, "fusion_lat": 0.0, "bike_id": "3d38f18a3ede665e0dcb01dbddfd5407", "rental_uris": {"ios": "https://dc.lft.to/lastmile_qr_scan", "android": "https://dc.lft.to/lastmile_qr_scan"}}, {"name": "2af8defa7502a2f23fa42888b829a7aa", "type": "electric_bike", "lat": 38.89805283333333, "is_reserved": 0, "lon": -76.9906135, "fusion_lon": 0.0, "is_disabled": 0, "fusion_lat": 0.0, "bike_id": "2af8defa7502a2f23fa42888b829a7aa", "rental_uris": {"ios": "https://dc.lft.to/lastmile_qr_scan", "android": "https://dc.lft.to/lastmile_qr_scan"}}, {"name": "7c3f5700c711ca13bfbdec025e09902a", "type": "electric_scooter", "lat": 38.92343566666667, "is_reserved": 0, "lon": -77.0348125, "fusion_lon": 0.0, "is_disabled": 0, "fusion_lat": 0.0, "bike_id": "7c3f5700c711ca13bfbdec025e09902a", "rental_uris": {"ios": "https://dc.lft.to/lastmile_qr_scan", "android": "https://dc.lft.to/lastmile_qr_scan"}}, {"name": "044a465f555d55d67a52743d381ccb8d", "type": "electric_scooter", "lat": 38.89251016666667, "is_reserved": 0, "lon": -77.03188033333333, "fusion_lon": 0.0, "is_disabled": 0, "fusion_lat": 0.0, "bike_id": "044a465f555d55d67a52743d381ccb8d", "rental_uris": {"ios": "https://dc.lft.to/lastmile_qr_scan", "android": "https://dc.lft.to/lastmile_qr_scan"}}, {"name": "4e02cf8304103d6bbc69fccf3f245503", "type": "electric_bike", "lat": 38.88006266666667, "is_reserved": 0, "lon": -76.91593466666667, "fusion_lon": 0.0, "is_disabled": 0, "fusion_lat": 0.0, "bike_id": "4e02cf8304103d6bbc69fccf3f245503", "rental_uris": {"ios": "https://dc.lft.to/lastmile_qr_scan", "android": "https://dc.lft.to/lastmile_qr_scan"}}, {"name": "cb6e005718f234e598fa2ba968a791f4", "type": "electric_scooter", "lat": 38.8984335, "is_reserved": 0, "lon": -76.94477633333334, "fusion_lon": 0.0, "is_disabled": 0, "fusion_lat": 0.0, "bike_id": "cb6e005718f234e598fa2ba968a791f4", "rental_uris": {"ios": "https://dc.lft.to/lastmile_qr_scan", "android": "https://dc.lft.to/lastmile_qr_scan"}}, {"name": "f2a5691d63643811556ab52af826fa38", "type": "electric_scooter", "lat": 38.89740716666667, "is_reserved": 0, "lon": -77.010459, "fusion_lon": 0.0, "is_disabled": 0, "fusion_lat": 0.0, "bike_id": "f2a5691d63643811556ab52af826fa38", "rental_uris": {"ios": "https://dc.lft.to/lastmile_qr_scan", "android": "https://dc.lft.to/lastmile_qr_scan"}}, {"name": "f984702a478971dc10cc2e3d403da3f4", "type": "electric_bike", "lat": 39.094604333333336, "is_reserved": 0, "lon": -77.14991283333333, "fusion_lon": 0.0, "is_disabled": 0, "fusion_lat": 0.0, "bike_id": "f984702a478971dc10cc2e3d403da3f4", "rental_uris": {"ios": "https://dc.lft.to/lastmile_qr_scan", "android": "https://dc.lft.to/lastmile_qr_scan"}}, {"name": "9a2e55d9d9e9cbc20a483f1eb0473e40", "type": "electric_scooter", "lat": 38.894909166666665, "is_reserved": 0, "lon": -77.00211916666666, "fusion_lon": 0.0, "is_disabled": 0, "fusion_lat": 0.0, "bike_id": "9a2e55d9d9e9cbc20a483f1eb0473e40", "rental_uris": {"ios": "https://dc.lft.to/lastmile_qr_scan", "android": "https://dc.lft.to/lastmile_qr_scan"}}, {"name": "cf6d8f6d532d8479420e73a59437eb31", "type": "electric_scooter", "lat": 38.92724166666667, "is_reserved": 0, "lon": -77.0056105, "fusion_lon": 0.0, "is_disabled": 0, "fusion_lat": 0.0, "bike_id": "cf6d8f6d532d8479420e73a59437eb31", "rental_uris": {"ios": "https://dc.lft.to/lastmile_qr_scan", "android": "https://dc.lft.to/lastmile_qr_scan"}}, {"name": "544673da1be6ec949a3006263a062154", "type": "electric_bike", "lat": 38.840614, "is_reserved": 0, "lon": -77.064014, "fusion_lon": 0.0, "is_disabled": 0, "fusion_lat": 0.0, "bike_id": "544673da1be6ec949a3006263a062154", "rental_uris": {"ios": "https://dc.lft.to/lastmile_qr_scan", "android": "https://dc.lft.to/lastmile_qr_scan"}}, {"name": "0895d593c3ead3a1bbbe50e0863ba10b", "type": "electric_bike", "lat": 38.82788016666667, "is_reserved": 0, "lon": -77.00898183333334, "fusion_lon": 0.0, "is_disabled": 0, "fusion_lat": 0.0, "bike_id": "0895d593c3ead3a1bbbe50e0863ba10b", "rental_uris": {"ios": "https://dc.lft.to/lastmile_qr_scan", "android": "https://dc.lft.to/lastmile_qr_scan"}}, {"name": "7fbfb2aa27dcda97da5c4f820ddbef72", "type": "electric_bike", "lat": 38.8628285, "is_reserved": 0, "lon": -77.063586, "fusion_lon": 0.0, "is_disabled": 0, "fusion_lat": 0.0, "bike_id": "7fbfb2aa27dcda97da5c4f820ddbef72", "rental_uris": {"ios": "https://dc.lft.to/lastmile_qr_scan", "android": "https://dc.lft.to/lastmile_qr_scan"}}, {"name": "de4b1721c6df83df1a6df44eda9fadd1", "type": "electric_scooter", "lat": 38.921511333333335, "is_reserved": 0, "lon": -77.03532183333333, "fusion_lon": 0.0, "is_disabled": 0, "fusion_lat": 0.0, "bike_id": "de4b1721c6df83df1a6df44eda9fadd1", "rental_uris": {"ios": "https://dc.lft.to/lastmile_qr_scan", "android": "https://dc.lft.to/lastmile_qr_scan"}}, {"name": "8ae13fffc5425b3304c5109a5dc7e673", "type": "electric_bike", "lat": 38.867531166666666, "is_reserved": 0, "lon": -76.94534516666667, "fusion_lon": 0.0, "is_disabled": 0, "fusion_lat": 0.0, "bike_id": "8ae13fffc5425b3304c5109a5dc7e673", "rental_uris": {"ios": "https://dc.lft.to/lastmile_qr_scan", "android": "https://dc.lft.to/lastmile_qr_scan"}}, {"name": "37d0f126bdf27de7dc5ea383f863effd", "type": "electric_scooter", "lat": 38.90265683333333, "is_reserved": 0, "lon": -77.0175765, "fusion_lon": 0.0, "is_disabled": 0, "fusion_lat": 0.0, "bike_id": "37d0f126bdf27de7dc5ea383f863effd", "rental_uris": {"ios": "https://dc.lft.to/lastmile_qr_scan", "android": "https://dc.lft.to/lastmile_qr_scan"}}, {"name": "967964c662501fa711e54a37088f00d8", "type": "electric_bike", "lat": 38.9427165, "is_reserved": 0, "lon": -76.98072533333334, "fusion_lon": 0.0, "is_disabled": 0, "fusion_lat": 0.0, "bike_id": "967964c662501fa711e54a37088f00d8", "rental_uris": {"ios": "https://dc.lft.to/lastmile_qr_scan", "android": "https://dc.lft.to/lastmile_qr_scan"}}, {"name": "41a169468784f9b29ca66a63e32ba4cb", "type": "electric_scooter", "lat": 38.90248116666667, "is_reserved": 0, "lon": -77.04354266666667, "fusion_lon": 0.0, "is_disabled": 0, "fusion_lat": 0.0, "bike_id": "41a169468784f9b29ca66a63e32ba4cb", "rental_uris": {"ios": "https://dc.lft.to/lastmile_qr_scan", "android": "https://dc.lft.to/lastmile_qr_scan"}}, {"name": "b15d670d19dfdb8d1e4b5eff22bd5c5e", "type": "electric_scooter", "lat": 38.93619266666666, "is_reserved": 0, "lon": -77.03688483333333, "fusion_lon": 0.0, "is_disabled": 0, "fusion_lat": 0.0, "bike_id": "b15d670d19dfdb8d1e4b5eff22bd5c5e", "rental_uris": {"ios": "https://dc.lft.to/lastmile_qr_scan", "android": "https://dc.lft.to/lastmile_qr_scan"}}, {"name": "0fb38c124cd16e805a2ddb9047df7cbe", "type": "electric_scooter", "lat": 38.866616666666665, "is_reserved": 0, "lon": -76.988822, "fusion_lon": 0.0, "is_disabled": 0, "fusion_lat": 0.0, "bike_id": "0fb38c124cd16e805a2ddb9047df7cbe", "rental_uris": {"ios": "https://dc.lft.to/lastmile_qr_scan", "android": "https://dc.lft.to/lastmile_qr_scan"}}, {"name": "1c519a9c7320d16194fcba423eb90fe4", "type": "electric_scooter", "lat": 38.89599666666667, "is_reserved": 0, "lon": -77.01012516666667, "fusion_lon": 0.0, "is_disabled": 0, "fusion_lat": 0.0, "bike_id": "1c519a9c7320d16194fcba423eb90fe4", "rental_uris": {"ios": "https://dc.lft.to/lastmile_qr_scan", "android": "https://dc.lft.to/lastmile_qr_scan"}}, {"name": "a800d8ff411fc0a03903fc2e1a3ee3fb", "type": "electric_scooter", "lat": 38.884532, "is_reserved": 0, "lon": -77.00578533333334, "fusion_lon": 0.0, "is_disabled": 0, "fusion_lat": 0.0, "bike_id": "a800d8ff411fc0a03903fc2e1a3ee3fb", "rental_uris": {"ios": "https://dc.lft.to/lastmile_qr_scan", "android": "https://dc.lft.to/lastmile_qr_scan"}}, {"name": "f31c29e4653600ad22c927da5ce6d7aa", "type": "electric_scooter", "lat": 38.91712283333333, "is_reserved": 0, "lon": -77.03860283333333, "fusion_lon": 0.0, "is_disabled": 0, "fusion_lat": 0.0, "bike_id": "f31c29e4653600ad22c927da5ce6d7aa", "rental_uris": {"ios": "https://dc.lft.to/lastmile_qr_scan", "android": "https://dc.lft.to/lastmile_qr_scan"}}, {"name": "9df537b67d8d3512d51acbe600467c21", "type": "electric_scooter", "lat": 38.90337266666667, "is_reserved": 0, "lon": -77.0400475, "fusion_lon": 0.0, "is_disabled": 0, "fusion_lat": 0.0, "bike_id": "9df537b67d8d3512d51acbe600467c21", "rental_uris": {"ios": "https://dc.lft.to/lastmile_qr_scan", "android": "https://dc.lft.to/lastmile_qr_scan"}}, {"name": "c969a0ab34ea756f2967d142b901d201", "type": "electric_scooter", "lat": 38.90522683333333, "is_reserved": 0, "lon": -77.0662525, "fusion_lon": 0.0, "is_disabled": 0, "fusion_lat": 0.0, "bike_id": "c969a0ab34ea756f2967d142b901d201", "rental_uris": {"ios": "https://dc.lft.to/lastmile_qr_scan", "android": "https://dc.lft.to/lastmile_qr_scan"}}, {"name": "08ecb140b4ca4b8ca5c987fe90d3acda", "type": "electric_scooter", "lat": 38.89885833333334, "is_reserved": 0, "lon": -76.93172166666666, "fusion_lon": 0.0, "is_disabled": 0, "fusion_lat": 0.0, "bike_id": "08ecb140b4ca4b8ca5c987fe90d3acda", "rental_uris": {"ios": "https://dc.lft.to/lastmile_qr_scan", "android": "https://dc.lft.to/lastmile_qr_scan"}}, {"name": "3ee13a511cb9dc6c04439aad865b7eb1", "type": "electric_scooter", "lat": 38.94639316666667, "is_reserved": 0, "lon": -77.01920116666666, "fusion_lon": 0.0, "is_disabled": 0, "fusion_lat": 0.0, "bike_id": "3ee13a511cb9dc6c04439aad865b7eb1", "rental_uris": {"ios": "https://dc.lft.to/lastmile_qr_scan", "android": "https://dc.lft.to/lastmile_qr_scan"}}, {"name": "c23d1c40ff8b1f62b421d7ec91cf00a0", "type": "electric_scooter", "lat": 38.927577, "is_reserved": 0, "lon": -77.0241945, "fusion_lon": 0.0, "is_disabled": 0, "fusion_lat": 0.0, "bike_id": "c23d1c40ff8b1f62b421d7ec91cf00a0", "rental_uris": {"ios": "https://dc.lft.to/lastmile_qr_scan", "android": "https://dc.lft.to/lastmile_qr_scan"}}, {"name": "48ae46bf4ae19caf43f8409c17ed8268", "type": "electric_scooter", "lat": 38.89394433333333, "is_reserved": 0, "lon": -76.993657, "fusion_lon": 0.0, "is_disabled": 0, "fusion_lat": 0.0, "bike_id": "48ae46bf4ae19caf43f8409c17ed8268", "rental_uris": {"ios": "https://dc.lft.to/lastmile_qr_scan", "android": "https://dc.lft.to/lastmile_qr_scan"}}, {"name": "d310d5b461a54f94b3d1a302b4c21a7e", "type": "electric_bike", "lat": 38.874775, "is_reserved": 0, "lon": -76.96521133333333, "fusion_lon": 0.0, "is_disabled": 0, "fusion_lat": 0.0, "bike_id": "d310d5b461a54f94b3d1a302b4c21a7e", "rental_uris": {"ios": "https://dc.lft.to/lastmile_qr_scan", "android": "https://dc.lft.to/lastmile_qr_scan"}}, {"name": "77698223f02ea270d94c03b7d5450a81", "type": "electric_scooter", "lat": 38.9393875, "is_reserved": 0, "lon": -77.01704566666666, "fusion_lon": 0.0, "is_disabled": 0, "fusion_lat": 0.0, "bike_id": "77698223f02ea270d94c03b7d5450a81", "rental_uris": {"ios": "https://dc.lft.to/lastmile_qr_scan", "android": "https://dc.lft.to/lastmile_qr_scan"}}, {"name": "0967bfea9c16bcd7035a1ca266969045", "type": "electric_scooter", "lat": 38.896068, "is_reserved": 0, "lon": -77.04506116666667, "fusion_lon": 0.0, "is_disabled": 0, "fusion_lat": 0.0, "bike_id": "0967bfea9c16bcd7035a1ca266969045", "rental_uris": {"ios": "https://dc.lft.to/lastmile_qr_scan", "android": "https://dc.lft.to/lastmile_qr_scan"}}, {"name": "9a7da8219fe58737a109ea017964abb8", "type": "electric_scooter", "lat": 38.93453983333333, "is_reserved": 0, "lon": -77.07237183333334, "fusion_lon": 0.0, "is_disabled": 0, "fusion_lat": 0.0, "bike_id": "9a7da8219fe58737a109ea017964abb8", "rental_uris": {"ios": "https://dc.lft.to/lastmile_qr_scan", "android": "https://dc.lft.to/lastmile_qr_scan"}}, {"name": "dda6cfc0ba883bbe31b39200ebddc378", "type": "electric_scooter", "lat": 38.883064833333336, "is_reserved": 0, "lon": -77.00931766666666, "fusion_lon": 0.0, "is_disabled": 0, "fusion_lat": 0.0, "bike_id": "dda6cfc0ba883bbe31b39200ebddc378", "rental_uris": {"ios": "https://dc.lft.to/lastmile_qr_scan", "android": "https://dc.lft.to/lastmile_qr_scan"}}, {"name": "e20d6bdf70c7835053f6cb243e0d7790", "type": "electric_scooter", "lat": 38.901252166666666, "is_reserved": 0, "lon": -77.0423105, "fusion_lon": 0.0, "is_disabled": 0, "fusion_lat": 0.0, "bike_id": "e20d6bdf70c7835053f6cb243e0d7790", "rental_uris": {"ios": "https://dc.lft.to/lastmile_qr_scan", "android": "https://dc.lft.to/lastmile_qr_scan"}}, {"name": "8c2eb08d9a6395cea0e47dd715061bd4", "type": "electric_scooter", "lat": 38.907988833333334, "is_reserved": 0, "lon": -77.0435145, "fusion_lon": 0.0, "is_disabled": 0, "fusion_lat": 0.0, "bike_id": "8c2eb08d9a6395cea0e47dd715061bd4", "rental_uris": {"ios": "https://dc.lft.to/lastmile_qr_scan", "android": "https://dc.lft.to/lastmile_qr_scan"}}, {"name": "3a67efc8ad6f562eb52d89bd12bfcf41", "type": "electric_scooter", "lat": 38.9053515, "is_reserved": 0, "lon": -77.05022116666666, "fusion_lon": 0.0, "is_disabled": 0, "fusion_lat": 0.0, "bike_id": "3a67efc8ad6f562eb52d89bd12bfcf41", "rental_uris": {"ios": "https://dc.lft.to/lastmile_qr_scan", "android": "https://dc.lft.to/lastmile_qr_scan"}}, {"name": "e46828878d0a90f13b5162e124b396f3", "type": "electric_scooter", "lat": 38.943158, "is_reserved": 0, "lon": -77.05908383333333, "fusion_lon": 0.0, "is_disabled": 0, "fusion_lat": 0.0, "bike_id": "e46828878d0a90f13b5162e124b396f3", "rental_uris": {"ios": "https://dc.lft.to/lastmile_qr_scan", "android": "https://dc.lft.to/lastmile_qr_scan"}}, {"name": "7686334c97afcacaf5089899b3c23ff2", "type": "electric_scooter", "lat": 38.89822516666667, "is_reserved": 0, "lon": -77.02832416666666, "fusion_lon": 0.0, "is_disabled": 0, "fusion_lat": 0.0, "bike_id": "7686334c97afcacaf5089899b3c23ff2", "rental_uris": {"ios": "https://dc.lft.to/lastmile_qr_scan", "android": "https://dc.lft.to/lastmile_qr_scan"}}, {"name": "4ffe573b802d1cf9f4d5568613dba16d", "type": "electric_bike", "lat": 38.85157233333334, "is_reserved": 0, "lon": -77.1287605, "fusion_lon": 0.0, "is_disabled": 0, "fusion_lat": 0.0, "bike_id": "4ffe573b802d1cf9f4d5568613dba16d", "rental_uris": {"ios": "https://dc.lft.to/lastmile_qr_scan", "android": "https://dc.lft.to/lastmile_qr_scan"}}, {"name": "d2e08c26a191262f46d5d1d4353576da", "type": "electric_scooter", "lat": 38.86571583333333, "is_reserved": 0, "lon": -76.98951266666667, "fusion_lon": 0.0, "is_disabled": 0, "fusion_lat": 0.0, "bike_id": "d2e08c26a191262f46d5d1d4353576da", "rental_uris": {"ios": "https://dc.lft.to/lastmile_qr_scan", "android": "https://dc.lft.to/lastmile_qr_scan"}}, {"name": "93492253be45d625b27dc536114d9f08", "type": "electric_scooter", "lat": 38.90325633333333, "is_reserved": 0, "lon": -77.038374, "fusion_lon": 0.0, "is_disabled": 0, "fusion_lat": 0.0, "bike_id": "93492253be45d625b27dc536114d9f08", "rental_uris": {"ios": "https://dc.lft.to/lastmile_qr_scan", "android": "https://dc.lft.to/lastmile_qr_scan"}}, {"name": "0e0999941e6b2b1349732997f23bde36", "type": "electric_scooter", "lat": 38.894028166666665, "is_reserved": 0, "lon": -77.0237215, "fusion_lon": 0.0, "is_disabled": 0, "fusion_lat": 0.0, "bike_id": "0e0999941e6b2b1349732997f23bde36", "rental_uris": {"ios": "https://dc.lft.to/lastmile_qr_scan", "android": "https://dc.lft.to/lastmile_qr_scan"}}, {"name": "721d1477a9f339300e6a094abd2176f9", "type": "electric_bike", "lat": 38.898342, "is_reserved": 0, "lon": -77.00574666666667, "fusion_lon": 0.0, "is_disabled": 0, "fusion_lat": 0.0, "bike_id": "721d1477a9f339300e6a094abd2176f9", "rental_uris": {"ios": "https://dc.lft.to/lastmile_qr_scan", "android": "https://dc.lft.to/lastmile_qr_scan"}}, {"name": "7a17bb06359c0f621677f4e6cbfa3feb", "type": "electric_scooter", "lat": 38.89918383333333, "is_reserved": 0, "lon": -76.933826, "fusion_lon": 0.0, "is_disabled": 0, "fusion_lat": 0.0, "bike_id": "7a17bb06359c0f621677f4e6cbfa3feb", "rental_uris": {"ios": "https://dc.lft.to/lastmile_qr_scan", "android": "https://dc.lft.to/lastmile_qr_scan"}}, {"name": "b4d1edea3d8534dc9a07f94002524712", "type": "electric_scooter", "lat": 38.9306255, "is_reserved": 0, "lon": -77.03946583333334, "fusion_lon": 0.0, "is_disabled": 0, "fusion_lat": 0.0, "bike_id": "b4d1edea3d8534dc9a07f94002524712", "rental_uris": {"ios": "https://dc.lft.to/lastmile_qr_scan", "android": "https://dc.lft.to/lastmile_qr_scan"}}, {"name": "47831fa7818ada0c56e71d788b3ac270", "type": "electric_scooter", "lat": 38.8872155, "is_reserved": 0, "lon": -77.02812083333333, "fusion_lon": 0.0, "is_disabled": 0, "fusion_lat": 0.0, "bike_id": "47831fa7818ada0c56e71d788b3ac270", "rental_uris": {"ios": "https://dc.lft.to/lastmile_qr_scan", "android": "https://dc.lft.to/lastmile_qr_scan"}}, {"name": "ddb1619ad4c4886a91a56fe4d1bb438f", "type": "electric_scooter", "lat": 38.9013565, "is_reserved": 0, "lon": -77.0449455, "fusion_lon": 0.0, "is_disabled": 0, "fusion_lat": 0.0, "bike_id": "ddb1619ad4c4886a91a56fe4d1bb438f", "rental_uris": {"ios": "https://dc.lft.to/lastmile_qr_scan", "android": "https://dc.lft.to/lastmile_qr_scan"}}, {"name": "c72e40a0c9e7874800b14972879d595d", "type": "electric_scooter", "lat": 38.957325, "is_reserved": 0, "lon": -77.02402183333334, "fusion_lon": 0.0, "is_disabled": 0, "fusion_lat": 0.0, "bike_id": "c72e40a0c9e7874800b14972879d595d", "rental_uris": {"ios": "https://dc.lft.to/lastmile_qr_scan", "android": "https://dc.lft.to/lastmile_qr_scan"}}, {"name": "5d472205285b0cb93b7bc358c0f37f99", "type": "electric_scooter", "lat": 38.9023985, "is_reserved": 0, "lon": -76.97922766666667, "fusion_lon": 0.0, "is_disabled": 0, "fusion_lat": 0.0, "bike_id": "5d472205285b0cb93b7bc358c0f37f99", "rental_uris": {"ios": "https://dc.lft.to/lastmile_qr_scan", "android": "https://dc.lft.to/lastmile_qr_scan"}}, {"name": "f3ad51cbeb4f94873898b302628ede47", "type": "electric_scooter", "lat": 38.90637666666667, "is_reserved": 0, "lon": -77.042701, "fusion_lon": 0.0, "is_disabled": 0, "fusion_lat": 0.0, "bike_id": "f3ad51cbeb4f94873898b302628ede47", "rental_uris": {"ios": "https://dc.lft.to/lastmile_qr_scan", "android": "https://dc.lft.to/lastmile_qr_scan"}}, {"name": "4c038c6d47e2eec0af9aa19e4f67675c", "type": "electric_scooter", "lat": 38.8947285, "is_reserved": 0, "lon": -76.98401016666666, "fusion_lon": 0.0, "is_disabled": 0, "fusion_lat": 0.0, "bike_id": "4c038c6d47e2eec0af9aa19e4f67675c", "rental_uris": {"ios": "https://dc.lft.to/lastmile_qr_scan", "android": "https://dc.lft.to/lastmile_qr_scan"}}, {"name": "8c2da5103e9c83b0a7396d61be154dc5", "type": "electric_bike", "lat": 38.88404033333333, "is_reserved": 0, "lon": -77.04646583333333, "fusion_lon": 0.0, "is_disabled": 0, "fusion_lat": 0.0, "bike_id": "8c2da5103e9c83b0a7396d61be154dc5", "rental_uris": {"ios": "https://dc.lft.to/lastmile_qr_scan", "android": "https://dc.lft.to/lastmile_qr_scan"}}, {"name": "ea72f1a7326046a57ab995ba6f3fd2aa", "type": "electric_scooter", "lat": 38.890117333333336, "is_reserved": 0, "lon": -76.93732333333334, "fusion_lon": 0.0, "is_disabled": 0, "fusion_lat": 0.0, "bike_id": "ea72f1a7326046a57ab995ba6f3fd2aa", "rental_uris": {"ios": "https://dc.lft.to/lastmile_qr_scan", "android": "https://dc.lft.to/lastmile_qr_scan"}}, {"name": "01463b36f5057fa01a85302a5f6f18a0", "type": "electric_scooter", "lat": 38.90111316666667, "is_reserved": 0, "lon": -77.04992616666667, "fusion_lon": 0.0, "is_disabled": 0, "fusion_lat": 0.0, "bike_id": "01463b36f5057fa01a85302a5f6f18a0", "rental_uris": {"ios": "https://dc.lft.to/lastmile_qr_scan", "android": "https://dc.lft.to/lastmile_qr_scan"}}, {"name": "28898c5b1e192b3337f5593fbe719d5b", "type": "electric_scooter", "lat": 38.9037765, "is_reserved": 0, "lon": -77.04493616666667, "fusion_lon": 0.0, "is_disabled": 0, "fusion_lat": 0.0, "bike_id": "28898c5b1e192b3337f5593fbe719d5b", "rental_uris": {"ios": "https://dc.lft.to/lastmile_qr_scan", "android": "https://dc.lft.to/lastmile_qr_scan"}}, {"name": "eaaddc4e7bbccd25ea9fdfe050a7a861", "type": "electric_scooter", "lat": 38.93435016666667, "is_reserved": 0, "lon": -77.0724875, "fusion_lon": 0.0, "is_disabled": 0, "fusion_lat": 0.0, "bike_id": "eaaddc4e7bbccd25ea9fdfe050a7a861", "rental_uris": {"ios": "https://dc.lft.to/lastmile_qr_scan", "android": "https://dc.lft.to/lastmile_qr_scan"}}, {"name": "df7d76d4ba60b9bf5aef6c936df20a7e", "type": "electric_scooter", "lat": 38.897307, "is_reserved": 0, "lon": -77.05572683333334, "fusion_lon": 0.0, "is_disabled": 0, "fusion_lat": 0.0, "bike_id": "df7d76d4ba60b9bf5aef6c936df20a7e", "rental_uris": {"ios": "https://dc.lft.to/lastmile_qr_scan", "android": "https://dc.lft.to/lastmile_qr_scan"}}, {"name": "0c3ff023c54b7ea895fe1afa1c54ca18", "type": "electric_scooter", "lat": 38.9007955, "is_reserved": 0, "lon": -76.93867816666666, "fusion_lon": 0.0, "is_disabled": 0, "fusion_lat": 0.0, "bike_id": "0c3ff023c54b7ea895fe1afa1c54ca18", "rental_uris": {"ios": "https://dc.lft.to/lastmile_qr_scan", "android": "https://dc.lft.to/lastmile_qr_scan"}}, {"name": "5998462903398edb33bdaf3d7fc7fb1f", "type": "electric_scooter", "lat": 38.896763666666665, "is_reserved": 0, "lon": -76.9962085, "fusion_lon": 0.0, "is_disabled": 0, "fusion_lat": 0.0, "bike_id": "5998462903398edb33bdaf3d7fc7fb1f", "rental_uris": {"ios": "https://dc.lft.to/lastmile_qr_scan", "android": "https://dc.lft.to/lastmile_qr_scan"}}, {"name": "f6a7c1bc88a4ee5ef7e2f420d0b91015", "type": "electric_bike", "lat": 38.89614233333333, "is_reserved": 0, "lon": -77.049666, "fusion_lon": 0.0, "is_disabled": 0, "fusion_lat": 0.0, "bike_id": "f6a7c1bc88a4ee5ef7e2f420d0b91015", "rental_uris": {"ios": "https://dc.lft.to/lastmile_qr_scan", "android": "https://dc.lft.to/lastmile_qr_scan"}}, {"name": "3b92b77252d395c8289cef706fb02875", "type": "electric_scooter", "lat": 38.95648416666667, "is_reserved": 0, "lon": -77.03290516666667, "fusion_lon": 0.0, "is_disabled": 0, "fusion_lat": 0.0, "bike_id": "3b92b77252d395c8289cef706fb02875", "rental_uris": {"ios": "https://dc.lft.to/lastmile_qr_scan", "android": "https://dc.lft.to/lastmile_qr_scan"}}, {"name": "65101e4a41c1bcbf35676522198feb6a", "type": "electric_scooter", "lat": 38.93485916666667, "is_reserved": 0, "lon": -77.07291266666667, "fusion_lon": 0.0, "is_disabled": 0, "fusion_lat": 0.0, "bike_id": "65101e4a41c1bcbf35676522198feb6a", "rental_uris": {"ios": "https://dc.lft.to/lastmile_qr_scan", "android": "https://dc.lft.to/lastmile_qr_scan"}}, {"name": "d06db140b6425687d741f522e0ccb140", "type": "electric_bike", "lat": 38.82786883333333, "is_reserved": 0, "lon": -77.00917183333334, "fusion_lon": 0.0, "is_disabled": 0, "fusion_lat": 0.0, "bike_id": "d06db140b6425687d741f522e0ccb140", "rental_uris": {"ios": "https://dc.lft.to/lastmile_qr_scan", "android": "https://dc.lft.to/lastmile_qr_scan"}}, {"name": "c4b982010721a26e322a8bdc396173be", "type": "electric_bike", "lat": 39.00380116666667, "is_reserved": 0, "lon": -77.01289966666667, "fusion_lon": 0.0, "is_disabled": 0, "fusion_lat": 0.0, "bike_id": "c4b982010721a26e322a8bdc396173be", "rental_uris": {"ios": "https://dc.lft.to/lastmile_qr_scan", "android": "https://dc.lft.to/lastmile_qr_scan"}}, {"name": "bcd92d0fe326cce54f34c56ef1af2897", "type": "electric_scooter", "lat": 38.88491616666667, "is_reserved": 0, "lon": -77.00726133333333, "fusion_lon": 0.0, "is_disabled": 0, "fusion_lat": 0.0, "bike_id": "bcd92d0fe326cce54f34c56ef1af2897", "rental_uris": {"ios": "https://dc.lft.to/lastmile_qr_scan", "android": "https://dc.lft.to/lastmile_qr_scan"}}, {"name": "f3ad993f250c9d9a2ef240a2f961e19b", "type": "electric_scooter", "lat": 38.900649333333334, "is_reserved": 0, "lon": -77.044635, "fusion_lon": 0.0, "is_disabled": 0, "fusion_lat": 0.0, "bike_id": "f3ad993f250c9d9a2ef240a2f961e19b", "rental_uris": {"ios": "https://dc.lft.to/lastmile_qr_scan", "android": "https://dc.lft.to/lastmile_qr_scan"}}, {"name": "9bd60ccffbca894033a385098e62f4a9", "type": "electric_scooter", "lat": 38.906564833333334, "is_reserved": 0, "lon": -77.04340016666667, "fusion_lon": 0.0, "is_disabled": 0, "fusion_lat": 0.0, "bike_id": "9bd60ccffbca894033a385098e62f4a9", "rental_uris": {"ios": "https://dc.lft.to/lastmile_qr_scan", "android": "https://dc.lft.to/lastmile_qr_scan"}}, {"name": "cae0b3ea56727b6611ba1c9d1d4f1cf3", "type": "electric_scooter", "lat": 38.900706166666666, "is_reserved": 0, "lon": -77.0074715, "fusion_lon": 0.0, "is_disabled": 0, "fusion_lat": 0.0, "bike_id": "cae0b3ea56727b6611ba1c9d1d4f1cf3", "rental_uris": {"ios": "https://dc.lft.to/lastmile_qr_scan", "android": "https://dc.lft.to/lastmile_qr_scan"}}, {"name": "6b144acf8046a31d2b43c2584177a52e", "type": "electric_bike", "lat": 38.90527083333333, "is_reserved": 0, "lon": -77.0678095, "fusion_lon": 0.0, "is_disabled": 0, "fusion_lat": 0.0, "bike_id": "6b144acf8046a31d2b43c2584177a52e", "rental_uris": {"ios": "https://dc.lft.to/lastmile_qr_scan", "android": "https://dc.lft.to/lastmile_qr_scan"}}, {"name": "ff0877a694b5525b51af8303d3111ff1", "type": "electric_scooter", "lat": 38.90754116666667, "is_reserved": 0, "lon": -77.00080633333333, "fusion_lon": 0.0, "is_disabled": 0, "fusion_lat": 0.0, "bike_id": "ff0877a694b5525b51af8303d3111ff1", "rental_uris": {"ios": "https://dc.lft.to/lastmile_qr_scan", "android": "https://dc.lft.to/lastmile_qr_scan"}}, {"name": "b0b7c8b303c4a658b68019be75c4372a", "type": "electric_scooter", "lat": 38.90334166666667, "is_reserved": 0, "lon": -77.03842883333333, "fusion_lon": 0.0, "is_disabled": 0, "fusion_lat": 0.0, "bike_id": "b0b7c8b303c4a658b68019be75c4372a", "rental_uris": {"ios": "https://dc.lft.to/lastmile_qr_scan", "android": "https://dc.lft.to/lastmile_qr_scan"}}, {"name": "550cb623ab345395972a6e8f16427dba", "type": "electric_scooter", "lat": 38.897363166666665, "is_reserved": 0, "lon": -77.01317233333333, "fusion_lon": 0.0, "is_disabled": 0, "fusion_lat": 0.0, "bike_id": "550cb623ab345395972a6e8f16427dba", "rental_uris": {"ios": "https://dc.lft.to/lastmile_qr_scan", "android": "https://dc.lft.to/lastmile_qr_scan"}}, {"name": "27e88c408764588987c5b3d3c4cd75de", "type": "electric_scooter", "lat": 38.927405, "is_reserved": 0, "lon": -77.0120505, "fusion_lon": 0.0, "is_disabled": 0, "fusion_lat": 0.0, "bike_id": "27e88c408764588987c5b3d3c4cd75de", "rental_uris": {"ios": "https://dc.lft.to/lastmile_qr_scan", "android": "https://dc.lft.to/lastmile_qr_scan"}}, {"name": "6df822385b41ff93f380670f60b62b2d", "type": "electric_scooter", "lat": 38.90408716666666, "is_reserved": 0, "lon": -77.0296515, "fusion_lon": 0.0, "is_disabled": 0, "fusion_lat": 0.0, "bike_id": "6df822385b41ff93f380670f60b62b2d", "rental_uris": {"ios": "https://dc.lft.to/lastmile_qr_scan", "android": "https://dc.lft.to/lastmile_qr_scan"}}, {"name": "0c5b0a3e2eb5618dea4417ee8751dfdf", "type": "electric_scooter", "lat": 38.91266316666667, "is_reserved": 0, "lon": -77.02222516666667, "fusion_lon": 0.0, "is_disabled": 0, "fusion_lat": 0.0, "bike_id": "0c5b0a3e2eb5618dea4417ee8751dfdf", "rental_uris": {"ios": "https://dc.lft.to/lastmile_qr_scan", "android": "https://dc.lft.to/lastmile_qr_scan"}}, {"name": "c771cffb26a042573880a9a0414b7467", "type": "electric_scooter", "lat": 38.91332716666667, "is_reserved": 0, "lon": -77.0312425, "fusion_lon": 0.0, "is_disabled": 0, "fusion_lat": 0.0, "bike_id": "c771cffb26a042573880a9a0414b7467", "rental_uris": {"ios": "https://dc.lft.to/lastmile_qr_scan", "android": "https://dc.lft.to/lastmile_qr_scan"}}, {"name": "94add721d4fa96821d4bbba8ef973267", "type": "electric_scooter", "lat": 38.949567333333334, "is_reserved": 0, "lon": -77.07930133333333, "fusion_lon": 0.0, "is_disabled": 0, "fusion_lat": 0.0, "bike_id": "94add721d4fa96821d4bbba8ef973267", "rental_uris": {"ios": "https://dc.lft.to/lastmile_qr_scan", "android": "https://dc.lft.to/lastmile_qr_scan"}}, {"name": "9a9a95cbacc7f708686ec6cf85deb7a5", "type": "electric_scooter", "lat": 38.899897333333335, "is_reserved": 0, "lon": -77.02919766666666, "fusion_lon": 0.0, "is_disabled": 0, "fusion_lat": 0.0, "bike_id": "9a9a95cbacc7f708686ec6cf85deb7a5", "rental_uris": {"ios": "https://dc.lft.to/lastmile_qr_scan", "android": "https://dc.lft.to/lastmile_qr_scan"}}, {"name": "02ea526502515a0b494166142cc790b9", "type": "electric_scooter", "lat": 38.88413116666667, "is_reserved": 0, "lon": -76.97603383333333, "fusion_lon": 0.0, "is_disabled": 0, "fusion_lat": 0.0, "bike_id": "02ea526502515a0b494166142cc790b9", "rental_uris": {"ios": "https://dc.lft.to/lastmile_qr_scan", "android": "https://dc.lft.to/lastmile_qr_scan"}}, {"name": "9a1405a2bbfb1cda79faac37cb68355e", "type": "electric_scooter", "lat": 38.97424983333333, "is_reserved": 0, "lon": -77.01529033333334, "fusion_lon": 0.0, "is_disabled": 0, "fusion_lat": 0.0, "bike_id": "9a1405a2bbfb1cda79faac37cb68355e", "rental_uris": {"ios": "https://dc.lft.to/lastmile_qr_scan", "android": "https://dc.lft.to/lastmile_qr_scan"}}, {"name": "928fe983106aa3a069a13385f5413073", "type": "electric_scooter", "lat": 38.866895666666665, "is_reserved": 0, "lon": -76.9870645, "fusion_lon": 0.0, "is_disabled": 0, "fusion_lat": 0.0, "bike_id": "928fe983106aa3a069a13385f5413073", "rental_uris": {"ios": "https://dc.lft.to/lastmile_qr_scan", "android": "https://dc.lft.to/lastmile_qr_scan"}}, {"name": "b52d328b3b330914c550e3f9e097076a", "type": "electric_scooter", "lat": 38.84292816666667, "is_reserved": 0, "lon": -76.99950283333334, "fusion_lon": 0.0, "is_disabled": 0, "fusion_lat": 0.0, "bike_id": "b52d328b3b330914c550e3f9e097076a", "rental_uris": {"ios": "https://dc.lft.to/lastmile_qr_scan", "android": "https://dc.lft.to/lastmile_qr_scan"}}, {"name": "1bf05677a84740c574b56ea6b545d75e", "type": "electric_bike", "lat": 38.928972, "is_reserved": 0, "lon": -77.0180795, "fusion_lon": 0.0, "is_disabled": 0, "fusion_lat": 0.0, "bike_id": "1bf05677a84740c574b56ea6b545d75e", "rental_uris": {"ios": "https://dc.lft.to/lastmile_qr_scan", "android": "https://dc.lft.to/lastmile_qr_scan"}}, {"name": "8de1a8af183d3919fa5c953766b8c6ea", "type": "electric_scooter", "lat": 38.9395875, "is_reserved": 0, "lon": -77.03257933333333, "fusion_lon": 0.0, "is_disabled": 0, "fusion_lat": 0.0, "bike_id": "8de1a8af183d3919fa5c953766b8c6ea", "rental_uris": {"ios": "https://dc.lft.to/lastmile_qr_scan", "android": "https://dc.lft.to/lastmile_qr_scan"}}, {"name": "6512b6cc77cdd900d1bbf3e157b192d4", "type": "electric_bike", "lat": 38.98465016666667, "is_reserved": 0, "lon": -76.95524416666666, "fusion_lon": 0.0, "is_disabled": 0, "fusion_lat": 0.0, "bike_id": "6512b6cc77cdd900d1bbf3e157b192d4", "rental_uris": {"ios": "https://dc.lft.to/lastmile_qr_scan", "android": "https://dc.lft.to/lastmile_qr_scan"}}, {"name": "deaeea4444d709d03b3f8d43f9d50696", "type": "electric_scooter", "lat": 38.939528833333334, "is_reserved": 0, "lon": -77.03255366666667, "fusion_lon": 0.0, "is_disabled": 0, "fusion_lat": 0.0, "bike_id": "deaeea4444d709d03b3f8d43f9d50696", "rental_uris": {"ios": "https://dc.lft.to/lastmile_qr_scan", "android": "https://dc.lft.to/lastmile_qr_scan"}}, {"name": "960f40a57d3f93c30e670fe619df11aa", "type": "electric_scooter", "lat": 38.88308116666666, "is_reserved": 0, "lon": -77.01764, "fusion_lon": 0.0, "is_disabled": 0, "fusion_lat": 0.0, "bike_id": "960f40a57d3f93c30e670fe619df11aa", "rental_uris": {"ios": "https://dc.lft.to/lastmile_qr_scan", "android": "https://dc.lft.to/lastmile_qr_scan"}}, {"name": "386828c4672f83e25f95e5716739366a", "type": "electric_scooter", "lat": 38.924859166666664, "is_reserved": 0, "lon": -77.02712033333333, "fusion_lon": 0.0, "is_disabled": 0, "fusion_lat": 0.0, "bike_id": "386828c4672f83e25f95e5716739366a", "rental_uris": {"ios": "https://dc.lft.to/lastmile_qr_scan", "android": "https://dc.lft.to/lastmile_qr_scan"}}, {"name": "d74c5eced06adf853536d41abb6eff9e", "type": "electric_scooter", "lat": 38.90066783333333, "is_reserved": 0, "lon": -77.00732033333334, "fusion_lon": 0.0, "is_disabled": 0, "fusion_lat": 0.0, "bike_id": "d74c5eced06adf853536d41abb6eff9e", "rental_uris": {"ios": "https://dc.lft.to/lastmile_qr_scan", "android": "https://dc.lft.to/lastmile_qr_scan"}}, {"name": "5657aa3b3f7953d0993c6372994664c3", "type": "electric_bike", "lat": 38.83237733333333, "is_reserved": 0, "lon": -77.007192, "fusion_lon": 0.0, "is_disabled": 0, "fusion_lat": 0.0, "bike_id": "5657aa3b3f7953d0993c6372994664c3", "rental_uris": {"ios": "https://dc.lft.to/lastmile_qr_scan", "android": "https://dc.lft.to/lastmile_qr_scan"}}, {"name": "485ad4e59dbef75dbdd752b7efd9b384", "type": "electric_scooter", "lat": 38.9224115, "is_reserved": 0, "lon": -77.0351235, "fusion_lon": 0.0, "is_disabled": 0, "fusion_lat": 0.0, "bike_id": "485ad4e59dbef75dbdd752b7efd9b384", "rental_uris": {"ios": "https://dc.lft.to/lastmile_qr_scan", "android": "https://dc.lft.to/lastmile_qr_scan"}}, {"name": "4e29bc5bcdf04049d118fe5e030022b5", "type": "electric_scooter", "lat": 38.897333, "is_reserved": 0, "lon": -77.02730033333333, "fusion_lon": 0.0, "is_disabled": 0, "fusion_lat": 0.0, "bike_id": "4e29bc5bcdf04049d118fe5e030022b5", "rental_uris": {"ios": "https://dc.lft.to/lastmile_qr_scan", "android": "https://dc.lft.to/lastmile_qr_scan"}}, {"name": "0fdb491d8fb08d735d5956d8963b2c03", "type": "electric_scooter", "lat": 38.90575233333333, "is_reserved": 0, "lon": -77.06272266666667, "fusion_lon": 0.0, "is_disabled": 0, "fusion_lat": 0.0, "bike_id": "0fdb491d8fb08d735d5956d8963b2c03", "rental_uris": {"ios": "https://dc.lft.to/lastmile_qr_scan", "android": "https://dc.lft.to/lastmile_qr_scan"}}, {"name": "e702876cfd467b4dfc41cc829d719e02", "type": "electric_scooter", "lat": 38.89631833333333, "is_reserved": 0, "lon": -77.02955516666667, "fusion_lon": 0.0, "is_disabled": 0, "fusion_lat": 0.0, "bike_id": "e702876cfd467b4dfc41cc829d719e02", "rental_uris": {"ios": "https://dc.lft.to/lastmile_qr_scan", "android": "https://dc.lft.to/lastmile_qr_scan"}}, {"name": "b42e448836871ce83d33299bbafdfdf4", "type": "electric_bike", "lat": 38.8659525, "is_reserved": 0, "lon": -76.93227716666667, "fusion_lon": 0.0, "is_disabled": 0, "fusion_lat": 0.0, "bike_id": "b42e448836871ce83d33299bbafdfdf4", "rental_uris": {"ios": "https://dc.lft.to/lastmile_qr_scan", "android": "https://dc.lft.to/lastmile_qr_scan"}}, {"name": "3fb1109b136437ad2cc5c86cb89f6be2", "type": "electric_scooter", "lat": 38.902079666666666, "is_reserved": 0, "lon": -77.02368983333334, "fusion_lon": 0.0, "is_disabled": 0, "fusion_lat": 0.0, "bike_id": "3fb1109b136437ad2cc5c86cb89f6be2", "rental_uris": {"ios": "https://dc.lft.to/lastmile_qr_scan", "android": "https://dc.lft.to/lastmile_qr_scan"}}, {"name": "3b9ae6a19464c5be29e4c8c0c17a9d79", "type": "electric_scooter", "lat": 38.902765333333335, "is_reserved": 0, "lon": -77.04057016666667, "fusion_lon": 0.0, "is_disabled": 0, "fusion_lat": 0.0, "bike_id": "3b9ae6a19464c5be29e4c8c0c17a9d79", "rental_uris": {"ios": "https://dc.lft.to/lastmile_qr_scan", "android": "https://dc.lft.to/lastmile_qr_scan"}}, {"name": "0f129ff5005e81bad5869158628e5ef1", "type": "electric_bike", "lat": 38.806951, "is_reserved": 0, "lon": -77.05963666666666, "fusion_lon": 0.0, "is_disabled": 0, "fusion_lat": 0.0, "bike_id": "0f129ff5005e81bad5869158628e5ef1", "rental_uris": {"ios": "https://dc.lft.to/lastmile_qr_scan", "android": "https://dc.lft.to/lastmile_qr_scan"}}, {"name": "26da98e735d687c7808c79e0d63b5717", "type": "electric_scooter", "lat": 38.88597266666667, "is_reserved": 0, "lon": -76.9525925, "fusion_lon": 0.0, "is_disabled": 0, "fusion_lat": 0.0, "bike_id": "26da98e735d687c7808c79e0d63b5717", "rental_uris": {"ios": "https://dc.lft.to/lastmile_qr_scan", "android": "https://dc.lft.to/lastmile_qr_scan"}}, {"name": "28491c9c9766ab191be748774fab2f8b", "type": "electric_scooter", "lat": 38.90247883333333, "is_reserved": 0, "lon": -77.04367783333333, "fusion_lon": 0.0, "is_disabled": 0, "fusion_lat": 0.0, "bike_id": "28491c9c9766ab191be748774fab2f8b", "rental_uris": {"ios": "https://dc.lft.to/lastmile_qr_scan", "android": "https://dc.lft.to/lastmile_qr_scan"}}, {"name": "f4c2d38b187147ca2921a6aa25f794af", "type": "electric_scooter", "lat": 38.8871445, "is_reserved": 0, "lon": -77.02580366666666, "fusion_lon": 0.0, "is_disabled": 0, "fusion_lat": 0.0, "bike_id": "f4c2d38b187147ca2921a6aa25f794af", "rental_uris": {"ios": "https://dc.lft.to/lastmile_qr_scan", "android": "https://dc.lft.to/lastmile_qr_scan"}}, {"name": "97d5f5745c02a49366544d390bf545d0", "type": "electric_bike", "lat": 38.85218533333333, "is_reserved": 0, "lon": -77.129556, "fusion_lon": 0.0, "is_disabled": 0, "fusion_lat": 0.0, "bike_id": "97d5f5745c02a49366544d390bf545d0", "rental_uris": {"ios": "https://dc.lft.to/lastmile_qr_scan", "android": "https://dc.lft.to/lastmile_qr_scan"}}, {"name": "b4ba25671eca8d4ecb7d6046f06caae9", "type": "electric_scooter", "lat": 38.92751333333333, "is_reserved": 0, "lon": -77.05372566666667, "fusion_lon": 0.0, "is_disabled": 0, "fusion_lat": 0.0, "bike_id": "b4ba25671eca8d4ecb7d6046f06caae9", "rental_uris": {"ios": "https://dc.lft.to/lastmile_qr_scan", "android": "https://dc.lft.to/lastmile_qr_scan"}}, {"name": "a2c909222ea3a9b9675381bfc65cce05", "type": "electric_scooter", "lat": 38.9037045, "is_reserved": 0, "lon": -77.04022216666667, "fusion_lon": 0.0, "is_disabled": 0, "fusion_lat": 0.0, "bike_id": "a2c909222ea3a9b9675381bfc65cce05", "rental_uris": {"ios": "https://dc.lft.to/lastmile_qr_scan", "android": "https://dc.lft.to/lastmile_qr_scan"}}, {"name": "509ca684b2baf8c42c579a03cdfa78eb", "type": "electric_scooter", "lat": 38.94013116666667, "is_reserved": 0, "lon": -77.0717245, "fusion_lon": 0.0, "is_disabled": 0, "fusion_lat": 0.0, "bike_id": "509ca684b2baf8c42c579a03cdfa78eb", "rental_uris": {"ios": "https://dc.lft.to/lastmile_qr_scan", "android": "https://dc.lft.to/lastmile_qr_scan"}}, {"name": "94adf7b68f4181f274d7750968b735b9", "type": "electric_scooter", "lat": 38.89473733333333, "is_reserved": 0, "lon": -76.9859595, "fusion_lon": 0.0, "is_disabled": 0, "fusion_lat": 0.0, "bike_id": "94adf7b68f4181f274d7750968b735b9", "rental_uris": {"ios": "https://dc.lft.to/lastmile_qr_scan", "android": "https://dc.lft.to/lastmile_qr_scan"}}, {"name": "3f6bbb4835e33ac744aa621a9e0da577", "type": "electric_scooter", "lat": 38.91562783333333, "is_reserved": 0, "lon": -77.03766666666667, "fusion_lon": 0.0, "is_disabled": 0, "fusion_lat": 0.0, "bike_id": "3f6bbb4835e33ac744aa621a9e0da577", "rental_uris": {"ios": "https://dc.lft.to/lastmile_qr_scan", "android": "https://dc.lft.to/lastmile_qr_scan"}}, {"name": "fb07a57295d7f4b072ec833063f03185", "type": "electric_scooter", "lat": 38.9051635, "is_reserved": 0, "lon": -77.03444583333334, "fusion_lon": 0.0, "is_disabled": 0, "fusion_lat": 0.0, "bike_id": "fb07a57295d7f4b072ec833063f03185", "rental_uris": {"ios": "https://dc.lft.to/lastmile_qr_scan", "android": "https://dc.lft.to/lastmile_qr_scan"}}, {"name": "c8a2a610c92ab46caac79e7402f8b6da", "type": "electric_scooter", "lat": 38.90725316666666, "is_reserved": 0, "lon": -76.98598383333334, "fusion_lon": 0.0, "is_disabled": 0, "fusion_lat": 0.0, "bike_id": "c8a2a610c92ab46caac79e7402f8b6da", "rental_uris": {"ios": "https://dc.lft.to/lastmile_qr_scan", "android": "https://dc.lft.to/lastmile_qr_scan"}}, {"name": "5511cb8de8dd9f490e1dc8d0b2166adb", "type": "electric_scooter", "lat": 38.94488583333333, "is_reserved": 0, "lon": -77.06381466666667, "fusion_lon": 0.0, "is_disabled": 0, "fusion_lat": 0.0, "bike_id": "5511cb8de8dd9f490e1dc8d0b2166adb", "rental_uris": {"ios": "https://dc.lft.to/lastmile_qr_scan", "android": "https://dc.lft.to/lastmile_qr_scan"}}, {"name": "4dc2c66bf9aae12a810d84a867a3437a", "type": "electric_scooter", "lat": 38.91686583333333, "is_reserved": 0, "lon": -77.038496, "fusion_lon": 0.0, "is_disabled": 0, "fusion_lat": 0.0, "bike_id": "4dc2c66bf9aae12a810d84a867a3437a", "rental_uris": {"ios": "https://dc.lft.to/lastmile_qr_scan", "android": "https://dc.lft.to/lastmile_qr_scan"}}, {"name": "82d15ff0d721a6dee1653d5de4e37922", "type": "electric_scooter", "lat": 38.9064935, "is_reserved": 0, "lon": -77.03638933333333, "fusion_lon": 0.0, "is_disabled": 0, "fusion_lat": 0.0, "bike_id": "82d15ff0d721a6dee1653d5de4e37922", "rental_uris": {"ios": "https://dc.lft.to/lastmile_qr_scan", "android": "https://dc.lft.to/lastmile_qr_scan"}}, {"name": "523c64b80ec0a7a7222acb8605529449", "type": "electric_scooter", "lat": 38.90367216666667, "is_reserved": 0, "lon": -77.04471233333334, "fusion_lon": 0.0, "is_disabled": 0, "fusion_lat": 0.0, "bike_id": "523c64b80ec0a7a7222acb8605529449", "rental_uris": {"ios": "https://dc.lft.to/lastmile_qr_scan", "android": "https://dc.lft.to/lastmile_qr_scan"}}, {"name": "252e9e5bb9d0293bc4c58f5ae8db9b8b", "type": "electric_scooter", "lat": 38.916994, "is_reserved": 0, "lon": -77.00806366666667, "fusion_lon": 0.0, "is_disabled": 0, "fusion_lat": 0.0, "bike_id": "252e9e5bb9d0293bc4c58f5ae8db9b8b", "rental_uris": {"ios": "https://dc.lft.to/lastmile_qr_scan", "android": "https://dc.lft.to/lastmile_qr_scan"}}, {"name": "18aa8dc6b93c1bcddf61db87fa3c751d", "type": "electric_scooter", "lat": 38.91738516666667, "is_reserved": 0, "lon": -77.02115633333334, "fusion_lon": 0.0, "is_disabled": 0, "fusion_lat": 0.0, "bike_id": "18aa8dc6b93c1bcddf61db87fa3c751d", "rental_uris": {"ios": "https://dc.lft.to/lastmile_qr_scan", "android": "https://dc.lft.to/lastmile_qr_scan"}}, {"name": "f8e4bf48dd4044035ee5d91decd09ead", "type": "electric_scooter", "lat": 38.951024833333335, "is_reserved": 0, "lon": -77.01578266666667, "fusion_lon": 0.0, "is_disabled": 0, "fusion_lat": 0.0, "bike_id": "f8e4bf48dd4044035ee5d91decd09ead", "rental_uris": {"ios": "https://dc.lft.to/lastmile_qr_scan", "android": "https://dc.lft.to/lastmile_qr_scan"}}, {"name": "54f6e3b1179c094b5aaa219c2813b268", "type": "electric_scooter", "lat": 38.891887, "is_reserved": 0, "lon": -77.00305483333334, "fusion_lon": 0.0, "is_disabled": 0, "fusion_lat": 0.0, "bike_id": "54f6e3b1179c094b5aaa219c2813b268", "rental_uris": {"ios": "https://dc.lft.to/lastmile_qr_scan", "android": "https://dc.lft.to/lastmile_qr_scan"}}, {"name": "d6aefee60ebaf23efd2973e5905d84b1", "type": "electric_bike", "lat": 38.930586, "is_reserved": 0, "lon": -76.973245, "fusion_lon": 0.0, "is_disabled": 0, "fusion_lat": 0.0, "bike_id": "d6aefee60ebaf23efd2973e5905d84b1", "rental_uris": {"ios": "https://dc.lft.to/lastmile_qr_scan", "android": "https://dc.lft.to/lastmile_qr_scan"}}, {"name": "a6a71907fd0527f9ee433189260d6d06", "type": "electric_scooter", "lat": 38.952462833333335, "is_reserved": 0, "lon": -77.001786, "fusion_lon": 0.0, "is_disabled": 0, "fusion_lat": 0.0, "bike_id": "a6a71907fd0527f9ee433189260d6d06", "rental_uris": {"ios": "https://dc.lft.to/lastmile_qr_scan", "android": "https://dc.lft.to/lastmile_qr_scan"}}, {"name": "c9cad0d79959b9b40cca8bb61e1980ed", "type": "electric_scooter", "lat": 38.884953333333335, "is_reserved": 0, "lon": -77.0072765, "fusion_lon": 0.0, "is_disabled": 0, "fusion_lat": 0.0, "bike_id": "c9cad0d79959b9b40cca8bb61e1980ed", "rental_uris": {"ios": "https://dc.lft.to/lastmile_qr_scan", "android": "https://dc.lft.to/lastmile_qr_scan"}}, {"name": "6c754d94ecf703f7cbba2e8b1ca48e0b", "type": "electric_bike", "lat": 38.94584866666667, "is_reserved": 0, "lon": -77.00271583333334, "fusion_lon": 0.0, "is_disabled": 0, "fusion_lat": 0.0, "bike_id": "6c754d94ecf703f7cbba2e8b1ca48e0b", "rental_uris": {"ios": "https://dc.lft.to/lastmile_qr_scan", "android": "https://dc.lft.to/lastmile_qr_scan"}}, {"name": "88e3119a34e9a0b60a02dda46eba3f78", "type": "electric_scooter", "lat": 38.930047333333334, "is_reserved": 0, "lon": -77.0554195, "fusion_lon": 0.0, "is_disabled": 0, "fusion_lat": 0.0, "bike_id": "88e3119a34e9a0b60a02dda46eba3f78", "rental_uris": {"ios": "https://dc.lft.to/lastmile_qr_scan", "android": "https://dc.lft.to/lastmile_qr_scan"}}, {"name": "ff5145864dc4ea7d79ea110bb0a30aec", "type": "electric_scooter", "lat": 38.91808366666667, "is_reserved": 0, "lon": -77.02493883333334, "fusion_lon": 0.0, "is_disabled": 0, "fusion_lat": 0.0, "bike_id": "ff5145864dc4ea7d79ea110bb0a30aec", "rental_uris": {"ios": "https://dc.lft.to/lastmile_qr_scan", "android": "https://dc.lft.to/lastmile_qr_scan"}}, {"name": "615d5d02a7930e527350262d34059677", "type": "electric_scooter", "lat": 38.8983975, "is_reserved": 0, "lon": -77.02662016666666, "fusion_lon": 0.0, "is_disabled": 0, "fusion_lat": 0.0, "bike_id": "615d5d02a7930e527350262d34059677", "rental_uris": {"ios": "https://dc.lft.to/lastmile_qr_scan", "android": "https://dc.lft.to/lastmile_qr_scan"}}, {"name": "f33fedfb2c51c0c8db749201c22ad96d", "type": "electric_scooter", "lat": 38.92409583333333, "is_reserved": 0, "lon": -77.01950366666667, "fusion_lon": 0.0, "is_disabled": 0, "fusion_lat": 0.0, "bike_id": "f33fedfb2c51c0c8db749201c22ad96d", "rental_uris": {"ios": "https://dc.lft.to/lastmile_qr_scan", "android": "https://dc.lft.to/lastmile_qr_scan"}}, {"name": "600a234740fa128ffecada867c133b74", "type": "electric_scooter", "lat": 38.8833805, "is_reserved": 0, "lon": -76.99343916666666, "fusion_lon": 0.0, "is_disabled": 0, "fusion_lat": 0.0, "bike_id": "600a234740fa128ffecada867c133b74", "rental_uris": {"ios": "https://dc.lft.to/lastmile_qr_scan", "android": "https://dc.lft.to/lastmile_qr_scan"}}, {"name": "c9726fe679164d6d913e78ecdd40a9a6", "type": "electric_scooter", "lat": 38.8875705, "is_reserved": 0, "lon": -77.0314535, "fusion_lon": 0.0, "is_disabled": 0, "fusion_lat": 0.0, "bike_id": "c9726fe679164d6d913e78ecdd40a9a6", "rental_uris": {"ios": "https://dc.lft.to/lastmile_qr_scan", "android": "https://dc.lft.to/lastmile_qr_scan"}}, {"name": "317943201093e36fc0407e8e22805372", "type": "electric_scooter", "lat": 38.887547833333336, "is_reserved": 0, "lon": -77.02030283333333, "fusion_lon": 0.0, "is_disabled": 0, "fusion_lat": 0.0, "bike_id": "317943201093e36fc0407e8e22805372", "rental_uris": {"ios": "https://dc.lft.to/lastmile_qr_scan", "android": "https://dc.lft.to/lastmile_qr_scan"}},