{"data": {"bikes": [{"bike_id": "159d97a94882b672f7c45e3e2d6e85cd", "type": "electric_bike", "is_disabled": 0, "lat": 38.873072666666665, "rental_uris": {"ios": "https://dc.lft.to/lastmile_qr_scan", "android": "https://dc.lft.to/lastmile_qr_scan"}, "is_reserved": 0, "fusion_lon": 0.0, "fusion_lat": 0.0, "lon": -76.96986716666666, "name": "159d97a94882b672f7c45e3e2d6e85cd"}, {"bike_id": "48f1fc56eb49751641f1b2fcee80dfd9", "type": "electric_scooter", "is_disabled": 0, "lat": 38.919897, "rental_uris": {"ios": "https://dc.lft.to/lastmile_qr_scan", "android": "https://dc.lft.to/lastmile_qr_scan"}, "is_reserved": 0, "fusion_lon": 0.0, "fusion_lat": 0.0, "lon": -76.97306333333333, "name": "48f1fc56eb49751641f1b2fcee80dfd9"}, {"bike_id": "e5bf1f8cc829114be23fb79dd1143f7e", "type": "electric_scooter", "is_disabled": 0, "lat": 38.90414766666667, "rental_uris": {"ios": "https://dc.lft.to/lastmile_qr_scan", "android": "https://dc.lft.to/lastmile_qr_scan"}, "is_reserved": 0, "fusion_lon": 0.0, "fusion_lat": 0.0, "lon": -76.97331633333333, "name": "e5bf1f8cc829114be23fb79dd1143f7e"}, {"bike_id": "aac14c0e79b38dd78f8511ba3f430852", "type": "electric_scooter", "is_disabled": 0, "lat": 38.897322, "rental_uris": {"ios": "https://dc.lft.to/lastmile_qr_scan", "android": "https://dc.lft.to/lastmile_qr_scan"}, "is_reserved": 0, "fusion_lon": 0.0, "fusion_lat": 0.0, "lon": -77.00756816666667, "name": "aac14c0e79b38dd78f8511ba3f430852"}, {"bike_id": "154b8d0c8dbf9e6aec9d6c73f0d91761", "type": "electric_scooter", "is_disabled": 0, "lat": 38.94790283333333, "rental_uris": {"ios": "https://dc.lft.to/lastmile_qr_scan", "android": "https://dc.lft.to/lastmile_qr_scan"}, "is_reserved": 0, "fusion_lon": 0.0, "fusion_lat": 0.0, "lon": -77.07940016666667, "name": "154b8d0c8dbf9e6aec9d6c73f0d91761"}, {"bike_id": "2adbccd240acedade362fb3a76bd5189", "type": "electric_scooter", "is_disabled": 0, "lat": 38.923409, "rental_uris": {"ios": "https://dc.lft.to/lastmile_qr_scan", "android": "https://dc.lft.to/lastmile_qr_scan"}, "is_reserved": 0, "fusion_lon": 0.0, "fusion_lat": 0.0, "lon": -77.03544083333334, "name": "2adbccd240acedade362fb3a76bd5189"}, {"bike_id": "e41a1d7831c7d4a4800f40de7980e037", "type": "electric_bike", "is_disabled": 0, "lat": 38.96135266666667, "rental_uris": {"ios": "https://dc.lft.to/lastmile_qr_scan", "android": "https://dc.lft.to/lastmile_qr_scan"}, "is_reserved": 0, "fusion_lon": 0.0, "fusion_lat": 0.0, "lon": -77.03338766666667, "name": "e41a1d7831c7d4a4800f40de7980e037"}, {"bike_id": "f2a002cbdfde8255fad1e483b44ba678", "type": "electric_scooter", "is_disabled": 0, "lat": 38.91559083333333, "rental_uris": {"ios": "https://dc.lft.to/lastmile_qr_scan", "android": "https://dc.lft.to/lastmile_qr_scan"}, "is_reserved": 0, "fusion_lon": 0.0, "fusion_lat": 0.0, "lon": -77.02156033333333, "name": "f2a002cbdfde8255fad1e483b44ba678"}, {"bike_id": "9cc4d7c50c08b2dfe9a5c09013fc391c", "type": "electric_scooter", "is_disabled": 0, "lat": 38.910568166666664, "rental_uris": {"ios": "https://dc.lft.to/lastmile_qr_scan", "android": "https://dc.lft.to/lastmile_qr_scan"}, "is_reserved": 0, "fusion_lon": 0.0, "fusion_lat": 0.0, "lon": -77.03659066666667, "name": "9cc4d7c50c08b2dfe9a5c09013fc391c"}, {"bike_id": "dd150852fced28147ec25c9c150841aa", "type": "electric_scooter", "is_disabled": 0, "lat": 38.94991866666667, "rental_uris": {"ios": "https://dc.lft.to/lastmile_qr_scan", "android": "https://dc.lft.to/lastmile_qr_scan"}, "is_reserved": 0, "fusion_lon": 0.0, "fusion_lat": 0.0, "lon": -77.02707383333333, "name": "dd150852fced28147ec25c9c150841aa"}, {"bike_id": "6277d75be81c8722cc0c4407a6fc64ae", "type": "electric_bike", "is_disabled": 0, "lat": 38.85359733333333, "rental_uris": {"ios": "https://dc.lft.to/lastmile_qr_scan", "android": "https://dc.lft.to/lastmile_qr_scan"}, "is_reserved": 0, "fusion_lon": 0.0, "fusion_lat": 0.0, "lon": -77.08687616666667, "name": "6277d75be81c8722cc0c4407a6fc64ae"}, {"bike_id": "00405745a1f3fe1baa5c480cef048bd5", "type": "electric_scooter", "is_disabled": 0, "lat": 38.865032166666666, "rental_uris": {"ios": "https://dc.lft.to/lastmile_qr_scan", "android": "https://dc.lft.to/lastmile_qr_scan"}, "is_reserved": 0, "fusion_lon": 0.0, "fusion_lat": 0.0, "lon": -76.9900385, "name": "00405745a1f3fe1baa5c480cef048bd5"}, {"bike_id": "4b8c65fbfcefb75bb731aad169e68b5f", "type": "electric_scooter", "is_disabled": 0, "lat": 38.898691, "rental_uris": {"ios": "https://dc.lft.to/lastmile_qr_scan", "android": "https://dc.lft.to/lastmile_qr_scan"}, "is_reserved": 0, "fusion_lon": 0.0, "fusion_lat": 0.0, "lon": -76.9466805, "name": "4b8c65fbfcefb75bb731aad169e68b5f"}, {"bike_id": "8bc6ea2733f2655e51ac6e20c26cd6cf", "type": "electric_scooter", "is_disabled": 0, "lat": 38.91775483333333, "rental_uris": {"ios": "https://dc.lft.to/lastmile_qr_scan", "android": "https://dc.lft.to/lastmile_qr_scan"}, "is_reserved": 0, "fusion_lon": 0.0, "fusion_lat": 0.0, "lon": -77.03656366666667, "name": "8bc6ea2733f2655e51ac6e20c26cd6cf"}, {"bike_id": "b3868993af97aeacafaa3689db4e9de0", "type": "electric_scooter", "is_disabled": 0, "lat": 38.912720166666666, "rental_uris": {"ios": "https://dc.lft.to/lastmile_qr_scan", "android": "https://dc.lft.to/lastmile_qr_scan"}, "is_reserved": 0, "fusion_lon": 0.0, "fusion_lat": 0.0, "lon": -77.0222595, "name": "b3868993af97aeacafaa3689db4e9de0"}, {"bike_id": "c529313b2f554a5a3babe981ecf21b87", "type": "electric_scooter", "is_disabled": 0, "lat": 38.914161166666666, "rental_uris": {"ios": "https://dc.lft.to/lastmile_qr_scan", "android": "https://dc.lft.to/lastmile_qr_scan"}, "is_reserved": 0, "fusion_lon": 0.0, "fusion_lat": 0.0, "lon": -77.04544616666666, "name": "c529313b2f554a5a3babe981ecf21b87"}, {"bike_id": "71cc5e71d8d32ae9c6b51e21f048a7e0", "type": "electric_scooter", "is_disabled": 0, "lat": 38.88534033333333, "rental_uris": {"ios": "https://dc.lft.to/lastmile_qr_scan", "android": "https://dc.lft.to/lastmile_qr_scan"}, "is_reserved": 0, "fusion_lon": 0.0, "fusion_lat": 0.0, "lon": -76.98055833333333, "name": "71cc5e71d8d32ae9c6b51e21f048a7e0"}, {"bike_id": "6883cf8970dfa9dbbe8f8a9d35e924e7", "type": "electric_scooter", "is_disabled": 0, "lat": 38.9367155, "rental_uris": {"ios": "https://dc.lft.to/lastmile_qr_scan", "android": "https://dc.lft.to/lastmile_qr_scan"}, "is_reserved": 0, "fusion_lon": 0.0, "fusion_lat": 0.0, "lon": -77.03598266666667, "name": "6883cf8970dfa9dbbe8f8a9d35e924e7"}, {"bike_id": "9ed364d659de511427162be376622239", "type": "electric_scooter", "is_disabled": 0, "lat": 38.88737883333334, "rental_uris": {"ios": "https://dc.lft.to/lastmile_qr_scan", "android": "https://dc.lft.to/lastmile_qr_scan"}, "is_reserved": 0, "fusion_lon": 0.0, "fusion_lat": 0.0, "lon": -77.01531666666666, "name": "9ed364d659de511427162be376622239"}, {"bike_id": "80d5285281905d631ef3efd444a0572b", "type": "electric_scooter", "is_disabled": 0, "lat": 38.873338333333336, "rental_uris": {"ios": "https://dc.lft.to/lastmile_qr_scan", "android": "https://dc.lft.to/lastmile_qr_scan"}, "is_reserved": 0, "fusion_lon": 0.0, "fusion_lat": 0.0, "lon": -76.96786766666666, "name": "80d5285281905d631ef3efd444a0572b"}, {"bike_id": "18e111651e468d79e89387b097395385", "type": "electric_scooter", "is_disabled": 0, "lat": 38.88006766666667, "rental_uris": {"ios": "https://dc.lft.to/lastmile_qr_scan", "android": "https://dc.lft.to/lastmile_qr_scan"}, "is_reserved": 0, "fusion_lon": 0.0, "fusion_lat": 0.0, "lon": -77.02483333333333, "name": "18e111651e468d79e89387b097395385"}, {"bike_id": "4654f76c43e45a0aba364dc8d6f50d82", "type": "electric_scooter", "is_disabled": 0, "lat": 38.923365833333335, "rental_uris": {"ios": "https://dc.lft.to/lastmile_qr_scan", "android": "https://dc.lft.to/lastmile_qr_scan"}, "is_reserved": 0, "fusion_lon": 0.0, "fusion_lat": 0.0, "lon": -77.037769, "name": "4654f76c43e45a0aba364dc8d6f50d82"}, {"bike_id": "bbca23fbf3e1c59e14065d717a4c6749", "type": "electric_scooter", "is_disabled": 0, "lat": 38.89888333333333, "rental_uris": {"ios": "https://dc.lft.to/lastmile_qr_scan", "android": "https://dc.lft.to/lastmile_qr_scan"}, "is_reserved": 0, "fusion_lon": 0.0, "fusion_lat": 0.0, "lon": -77.03928116666667, "name": "bbca23fbf3e1c59e14065d717a4c6749"}, {"bike_id": "d92677283a9c45de223f0481dd0d1ae3", "type": "electric_scooter", "is_disabled": 0, "lat": 38.95626883333333, "rental_uris": {"ios": "https://dc.lft.to/lastmile_qr_scan", "android": "https://dc.lft.to/lastmile_qr_scan"}, "is_reserved": 0, "fusion_lon": 0.0, "fusion_lat": 0.0, "lon": -77.036201, "name": "d92677283a9c45de223f0481dd0d1ae3"}, {"bike_id": "696a27d9278c90b4dc0a1e38d71c7f2c", "type": "electric_scooter", "is_disabled": 0, "lat": 38.8732475, "rental_uris": {"ios": "https://dc.lft.to/lastmile_qr_scan", "android": "https://dc.lft.to/lastmile_qr_scan"}, "is_reserved": 0, "fusion_lon": 0.0, "fusion_lat": 0.0, "lon": -77.00603533333333, "name": "696a27d9278c90b4dc0a1e38d71c7f2c"}, {"bike_id": "69f741a3c43251e766fcd3a668122013", "type": "electric_bike", "is_disabled": 0, "lat": 38.974023833333334, "rental_uris": {"ios": "https://dc.lft.to/lastmile_qr_scan", "android": "https://dc.lft.to/lastmile_qr_scan"}, "is_reserved": 0, "fusion_lon": 0.0, "fusion_lat": 0.0, "lon": -77.06459366666667, "name": "69f741a3c43251e766fcd3a668122013"}, {"bike_id": "450d8a57a56e57bf4391a3dcee156134", "type": "electric_scooter", "is_disabled": 0, "lat": 38.900999166666665, "rental_uris": {"ios": "https://dc.lft.to/lastmile_qr_scan", "android": "https://dc.lft.to/lastmile_qr_scan"}, "is_reserved": 0, "fusion_lon": 0.0, "fusion_lat": 0.0, "lon": -77.0498815, "name": "450d8a57a56e57bf4391a3dcee156134"}, {"bike_id": "a33ef697aec141056586d2f2e207fcea", "type": "electric_scooter", "is_disabled": 0, "lat": 38.900231166666664, "rental_uris": {"ios": "https://dc.lft.to/lastmile_qr_scan", "android": "https://dc.lft.to/lastmile_qr_scan"}, "is_reserved": 0, "fusion_lon": 0.0, "fusion_lat": 0.0, "lon": -76.99246366666667, "name": "a33ef697aec141056586d2f2e207fcea"}, {"bike_id": "5ba44e3877cc91e6afafb6d4159ec2a9", "type": "electric_scooter", "is_disabled": 0, "lat": 38.90268316666667, "rental_uris": {"ios": "https://dc.lft.to/lastmile_qr_scan", "android": "https://dc.lft.to/lastmile_qr_scan"}, "is_reserved": 0, "fusion_lon": 0.0, "fusion_lat": 0.0, "lon": -77.003204, "name": "5ba44e3877cc91e6afafb6d4159ec2a9"}, {"bike_id": "779f9cfdd5208069810f97316b9122e4", "type": "electric_scooter", "is_disabled": 0, "lat": 38.901172833333334, "rental_uris": {"ios": "https://dc.lft.to/lastmile_qr_scan", "android": "https://dc.lft.to/lastmile_qr_scan"}, "is_reserved": 0, "fusion_lon": 0.0, "fusion_lat": 0.0, "lon": -76.92955016666667, "name": "779f9cfdd5208069810f97316b9122e4"}, {"bike_id": "59150bfa1095639fd621c9a2dc40ddab", "type": "electric_scooter", "is_disabled": 0, "lat": 38.914918166666666, "rental_uris": {"ios": "https://dc.lft.to/lastmile_qr_scan", "android": "https://dc.lft.to/lastmile_qr_scan"}, "is_reserved": 0, "fusion_lon": 0.0, "fusion_lat": 0.0, "lon": -77.02503166666666, "name": "59150bfa1095639fd621c9a2dc40ddab"}, {"bike_id": "dcfd47134ff1d16825b41e687b06955a", "type": "electric_scooter", "is_disabled": 0, "lat": 38.90012616666667, "rental_uris": {"ios": "https://dc.lft.to/lastmile_qr_scan", "android": "https://dc.lft.to/lastmile_qr_scan"}, "is_reserved": 0, "fusion_lon": 0.0, "fusion_lat": 0.0, "lon": -77.00376766666666, "name": "dcfd47134ff1d16825b41e687b06955a"}, {"bike_id": "78744089e9f4092dda7ecec699f2b1b0", "type": "electric_scooter", "is_disabled": 0, "lat": 38.9175745, "rental_uris": {"ios": "https://dc.lft.to/lastmile_qr_scan", "android": "https://dc.lft.to/lastmile_qr_scan"}, "is_reserved": 0, "fusion_lon": 0.0, "fusion_lat": 0.0, "lon": -77.02797883333334, "name": "78744089e9f4092dda7ecec699f2b1b0"}, {"bike_id": "3501614069d5900d06519f0f7013def4", "type": "electric_scooter", "is_disabled": 0, "lat": 38.912653666666664, "rental_uris": {"ios": "https://dc.lft.to/lastmile_qr_scan", "android": "https://dc.lft.to/lastmile_qr_scan"}, "is_reserved": 0, "fusion_lon": 0.0, "fusion_lat": 0.0, "lon": -77.0022595, "name": "3501614069d5900d06519f0f7013def4"}, {"bike_id": "a03efd4294adf94404b3f61c2b8088ba", "type": "electric_scooter", "is_disabled": 0, "lat": 38.917006, "rental_uris": {"ios": "https://dc.lft.to/lastmile_qr_scan", "android": "https://dc.lft.to/lastmile_qr_scan"}, "is_reserved": 0, "fusion_lon": 0.0, "fusion_lat": 0.0, "lon": -77.0288935, "name": "a03efd4294adf94404b3f61c2b8088ba"}, {"bike_id": "c4e965d1cb1cc625f119c5c9997d7a4c", "type": "electric_scooter", "is_disabled": 0, "lat": 38.892868166666666, "rental_uris": {"ios": "https://dc.lft.to/lastmile_qr_scan", "android": "https://dc.lft.to/lastmile_qr_scan"}, "is_reserved": 0, "fusion_lon": 0.0, "fusion_lat": 0.0, "lon": -77.0260565, "name": "c4e965d1cb1cc625f119c5c9997d7a4c"}, {"bike_id": "cdb65b0cdfe823b3645224fafcd676d9", "type": "electric_bike", "is_disabled": 0, "lat": 38.8039505, "rental_uris": {"ios": "https://dc.lft.to/lastmile_qr_scan", "android": "https://dc.lft.to/lastmile_qr_scan"}, "is_reserved": 0, "fusion_lon": 0.0, "fusion_lat": 0.0, "lon": -77.05562383333333, "name": "cdb65b0cdfe823b3645224fafcd676d9"}, {"bike_id": "21ab6c299e2f340483e6d212a35b4c64", "type": "electric_scooter", "is_disabled": 0, "lat": 38.93901866666667, "rental_uris": {"ios": "https://dc.lft.to/lastmile_qr_scan", "android": "https://dc.lft.to/lastmile_qr_scan"}, "is_reserved": 0, "fusion_lon": 0.0, "fusion_lat": 0.0, "lon": -77.03345716666666, "name": "21ab6c299e2f340483e6d212a35b4c64"}, {"bike_id": "6e21efe16caf7b76f774d7de0b73deac", "type": "electric_scooter", "is_disabled": 0, "lat": 38.939834166666664, "rental_uris": {"ios": "https://dc.lft.to/lastmile_qr_scan", "android": "https://dc.lft.to/lastmile_qr_scan"}, "is_reserved": 0, "fusion_lon": 0.0, "fusion_lat": 0.0, "lon": -77.02878216666667, "name": "6e21efe16caf7b76f774d7de0b73deac"}, {"bike_id": "f50e84c0a4178e67bb2ee29977839200", "type": "electric_scooter", "is_disabled": 0, "lat": 38.8663305, "rental_uris": {"ios": "https://dc.lft.to/lastmile_qr_scan", "android": "https://dc.lft.to/lastmile_qr_scan"}, "is_reserved": 0, "fusion_lon": 0.0, "fusion_lat": 0.0, "lon": -76.987193, "name": "f50e84c0a4178e67bb2ee29977839200"}, {"bike_id": "2a86f9ecf564f23863828a4dc239f815", "type": "electric_scooter", "is_disabled": 0, "lat": 38.8707, "rental_uris": {"ios": "https://dc.lft.to/lastmile_qr_scan", "android": "https://dc.lft.to/lastmile_qr_scan"}, "is_reserved": 0, "fusion_lon": 0.0, "fusion_lat": 0.0, "lon": -76.98128133333333, "name": "2a86f9ecf564f23863828a4dc239f815"}, {"bike_id": "91bf23fa382bccd24db11b514267d7ea", "type": "electric_bike", "is_disabled": 0, "lat": 38.86482266666667, "rental_uris": {"ios": "https://dc.lft.to/lastmile_qr_scan", "android": "https://dc.lft.to/lastmile_qr_scan"}, "is_reserved": 0, "fusion_lon": 0.0, "fusion_lat": 0.0, "lon": -76.97741033333334, "name": "91bf23fa382bccd24db11b514267d7ea"}, {"bike_id": "bdd20d324da8a2cbeec8e210fac3ee72", "type": "electric_scooter", "is_disabled": 0, "lat": 38.94199666666667, "rental_uris": {"ios": "https://dc.lft.to/lastmile_qr_scan", "android": "https://dc.lft.to/lastmile_qr_scan"}, "is_reserved": 0, "fusion_lon": 0.0, "fusion_lat": 0.0, "lon": -77.02546733333334, "name": "bdd20d324da8a2cbeec8e210fac3ee72"}, {"bike_id": "03451d1dbfaca2b416a98c9e8edc1eaa", "type": "electric_scooter", "is_disabled": 0, "lat": 38.9258165, "rental_uris": {"ios": "https://dc.lft.to/lastmile_qr_scan", "android": "https://dc.lft.to/lastmile_qr_scan"}, "is_reserved": 0, "fusion_lon": 0.0, "fusion_lat": 0.0, "lon": -77.02267116666667, "name": "03451d1dbfaca2b416a98c9e8edc1eaa"}, {"bike_id": "e2ef002ea76a44a23b3ce1046a71659c", "type": "electric_scooter", "is_disabled": 0, "lat": 38.85811666666667, "rental_uris": {"ios": "https://dc.lft.to/lastmile_qr_scan", "android": "https://dc.lft.to/lastmile_qr_scan"}, "is_reserved": 0, "fusion_lon": 0.0, "fusion_lat": 0.0, "lon": -76.98928383333333, "name": "e2ef002ea76a44a23b3ce1046a71659c"}, {"bike_id": "e0d57cd094bc41b292c4f4aa395c5f64", "type": "electric_scooter", "is_disabled": 0, "lat": 38.912495, "rental_uris": {"ios": "https://dc.lft.to/lastmile_qr_scan", "android": "https://dc.lft.to/lastmile_qr_scan"}, "is_reserved": 0, "fusion_lon": 0.0, "fusion_lat": 0.0, "lon": -77.03203666666667, "name": "e0d57cd094bc41b292c4f4aa395c5f64"}, {"bike_id": "4cb8674f5f1c78c3318629972aa7c053", "type": "electric_bike", "is_disabled": 0, "lat": 38.924531, "rental_uris": {"ios": "https://dc.lft.to/lastmile_qr_scan", "android": "https://dc.lft.to/lastmile_qr_scan"}, "is_reserved": 0, "fusion_lon": 0.0, "fusion_lat": 0.0, "lon": -77.22563183333334, "name": "4cb8674f5f1c78c3318629972aa7c053"}, {"bike_id": "c361d39a526eca7ed77603d130e4ec69", "type": "electric_scooter", "is_disabled": 0, "lat": 38.90637183333333, "rental_uris": {"ios": "https://dc.lft.to/lastmile_qr_scan", "android": "https://dc.lft.to/lastmile_qr_scan"}, "is_reserved": 0, "fusion_lon": 0.0, "fusion_lat": 0.0, "lon": -77.01004233333333, "name": "c361d39a526eca7ed77603d130e4ec69"}, {"bike_id": "a4bcea0d3d8a93f8aa2b16e8aabe170a", "type": "electric_scooter", "is_disabled": 0, "lat": 38.91125, "rental_uris": {"ios": "https://dc.lft.to/lastmile_qr_scan", "android": "https://dc.lft.to/lastmile_qr_scan"}, "is_reserved": 0, "fusion_lon": 0.0, "fusion_lat": 0.0, "lon": -77.03922816666666, "name": "a4bcea0d3d8a93f8aa2b16e8aabe170a"}, {"bike_id": "4d000cebf2401120df6082565088932a", "type": "electric_scooter", "is_disabled": 0, "lat": 38.92318083333333, "rental_uris": {"ios": "https://dc.lft.to/lastmile_qr_scan", "android": "https://dc.lft.to/lastmile_qr_scan"}, "is_reserved": 0, "fusion_lon": 0.0, "fusion_lat": 0.0, "lon": -77.04201516666667, "name": "4d000cebf2401120df6082565088932a"}, {"bike_id": "01cf93c717cdd47ecb7f955f3507d214", "type": "electric_scooter", "is_disabled": 0, "lat": 38.935246, "rental_uris": {"ios": "https://dc.lft.to/lastmile_qr_scan", "android": "https://dc.lft.to/lastmile_qr_scan"}, "is_reserved": 0, "fusion_lon": 0.0, "fusion_lat": 0.0, "lon": -77.02964833333333, "name": "01cf93c717cdd47ecb7f955f3507d214"}, {"bike_id": "ca982fa1ef2a5e60ec9c46dc32c83b21", "type": "electric_scooter", "is_disabled": 0, "lat": 38.89268833333333, "rental_uris": {"ios": "https://dc.lft.to/lastmile_qr_scan", "android": "https://dc.lft.to/lastmile_qr_scan"}, "is_reserved": 0, "fusion_lon": 0.0, "fusion_lat": 0.0, "lon": -77.02425016666666, "name": "ca982fa1ef2a5e60ec9c46dc32c83b21"}, {"bike_id": "c8b0284f1e9da61f38f6a330b453ec08", "type": "electric_bike", "is_disabled": 0, "lat": 38.94664866666667, "rental_uris": {"ios": "https://dc.lft.to/lastmile_qr_scan", "android": "https://dc.lft.to/lastmile_qr_scan"}, "is_reserved": 0, "fusion_lon": 0.0, "fusion_lat": 0.0, "lon": -76.95668283333333, "name": "c8b0284f1e9da61f38f6a330b453ec08"}, {"bike_id": "aac30503b89a05f9bcbb6925e8e5defe", "type": "electric_scooter", "is_disabled": 0, "lat": 38.97235466666667, "rental_uris": {"ios": "https://dc.lft.to/lastmile_qr_scan", "android": "https://dc.lft.to/lastmile_qr_scan"}, "is_reserved": 0, "fusion_lon": 0.0, "fusion_lat": 0.0, "lon": -77.02691333333334, "name": "aac30503b89a05f9bcbb6925e8e5defe"}, {"bike_id": "90fe1206fb59c2583084a8ced29f44ba", "type": "electric_bike", "is_disabled": 0, "lat": 38.95709383333333, "rental_uris": {"ios": "https://dc.lft.to/lastmile_qr_scan", "android": "https://dc.lft.to/lastmile_qr_scan"}, "is_reserved": 0, "fusion_lon": 0.0, "fusion_lat": 0.0, "lon": -77.0028145, "name": "90fe1206fb59c2583084a8ced29f44ba"}, {"bike_id": "3d60b9579886e1cad722f733bc6d8410", "type": "electric_scooter", "is_disabled": 0, "lat": 38.903671333333335, "rental_uris": {"ios": "https://dc.lft.to/lastmile_qr_scan", "android": "https://dc.lft.to/lastmile_qr_scan"}, "is_reserved": 0, "fusion_lon": 0.0, "fusion_lat": 0.0, "lon": -77.038747, "name": "3d60b9579886e1cad722f733bc6d8410"}, {"bike_id": "56e2fbd234ea4b4d2fe90c9ea997e336", "type": "electric_scooter", "is_disabled": 0, "lat": 38.923750166666665, "rental_uris": {"ios": "https://dc.lft.to/lastmile_qr_scan", "android": "https://dc.lft.to/lastmile_qr_scan"}, "is_reserved": 0, "fusion_lon": 0.0, "fusion_lat": 0.0, "lon": -77.0525265, "name": "56e2fbd234ea4b4d2fe90c9ea997e336"}, {"bike_id": "33b26129830dcc2997e846e21fa6350d", "type": "electric_scooter", "is_disabled": 0, "lat": 38.93637016666667, "rental_uris": {"ios": "https://dc.lft.to/lastmile_qr_scan", "android": "https://dc.lft.to/lastmile_qr_scan"}, "is_reserved": 0, "fusion_lon": 0.0, "fusion_lat": 0.0, "lon": -77.0588645, "name": "33b26129830dcc2997e846e21fa6350d"}, {"bike_id": "64da894c4ba00201b3fc6c9de030a43d", "type": "electric_scooter", "is_disabled": 0, "lat": 38.9028265, "rental_uris": {"ios": "https://dc.lft.to/lastmile_qr_scan", "android": "https://dc.lft.to/lastmile_qr_scan"}, "is_reserved": 0, "fusion_lon": 0.0, "fusion_lat": 0.0, "lon": -77.05811733333333, "name": "64da894c4ba00201b3fc6c9de030a43d"}, {"bike_id": "9d83c05cb719210ca25671d3fc144f65", "type": "electric_scooter", "is_disabled": 0, "lat": 38.870668, "rental_uris": {"ios": "https://dc.lft.to/lastmile_qr_scan", "android": "https://dc.lft.to/lastmile_qr_scan"}, "is_reserved": 0, "fusion_lon": 0.0, "fusion_lat": 0.0, "lon": -76.9813155, "name": "9d83c05cb719210ca25671d3fc144f65"}, {"bike_id": "843a4191e0965ef1923dd6dd0ad7e0e4", "type": "electric_scooter", "is_disabled": 0, "lat": 38.93316516666667, "rental_uris": {"ios": "https://dc.lft.to/lastmile_qr_scan", "android": "https://dc.lft.to/lastmile_qr_scan"}, "is_reserved": 0, "fusion_lon": 0.0, "fusion_lat": 0.0, "lon": -77.0723145, "name": "843a4191e0965ef1923dd6dd0ad7e0e4"}, {"bike_id": "7e53cb3570b7a029a669a38cbe99e392", "type": "electric_scooter", "is_disabled": 0, "lat": 38.92612066666667, "rental_uris": {"ios": "https://dc.lft.to/lastmile_qr_scan", "android": "https://dc.lft.to/lastmile_qr_scan"}, "is_reserved": 0, "fusion_lon": 0.0, "fusion_lat": 0.0, "lon": -77.02163083333333, "name": "7e53cb3570b7a029a669a38cbe99e392"}, {"bike_id": "8ee20775a52dca1a58db02a426ad4790", "type": "electric_scooter", "is_disabled": 0, "lat": 38.932488, "rental_uris": {"ios": "https://dc.lft.to/lastmile_qr_scan", "android": "https://dc.lft.to/lastmile_qr_scan"}, "is_reserved": 0, "fusion_lon": 0.0, "fusion_lat": 0.0, "lon": -77.02000916666667, "name": "8ee20775a52dca1a58db02a426ad4790"}, {"bike_id": "71f18d26bffb106e7fb99022d5c3b1d0", "type": "electric_scooter", "is_disabled": 0, "lat": 38.89846383333333, "rental_uris": {"ios": "https://dc.lft.to/lastmile_qr_scan", "android": "https://dc.lft.to/lastmile_qr_scan"}, "is_reserved": 0, "fusion_lon": 0.0, "fusion_lat": 0.0, "lon": -76.946327, "name": "71f18d26bffb106e7fb99022d5c3b1d0"}, {"bike_id": "dd80e1626cb7033b39dabe27c587b603", "type": "electric_bike", "is_disabled": 0, "lat": 39.054953833333336, "rental_uris": {"ios": "https://dc.lft.to/lastmile_qr_scan", "android": "https://dc.lft.to/lastmile_qr_scan"}, "is_reserved": 0, "fusion_lon": 0.0, "fusion_lat": 0.0, "lon": -77.04652233333333, "name": "dd80e1626cb7033b39dabe27c587b603"}, {"bike_id": "923ddb4320a28a23b5288f9eb75dcbf4", "type": "electric_bike", "is_disabled": 0, "lat": 38.92968783333333, "rental_uris": {"ios": "https://dc.lft.to/lastmile_qr_scan", "android": "https://dc.lft.to/lastmile_qr_scan"}, "is_reserved": 0, "fusion_lon": 0.0, "fusion_lat": 0.0, "lon": -77.18566066666666, "name": "923ddb4320a28a23b5288f9eb75dcbf4"}, {"bike_id": "1f4e797c93dd0eadfba48e296df6bc6a", "type": "electric_scooter", "is_disabled": 0, "lat": 38.90326566666667, "rental_uris": {"ios": "https://dc.lft.to/lastmile_qr_scan", "android": "https://dc.lft.to/lastmile_qr_scan"}, "is_reserved": 0, "fusion_lon": 0.0, "fusion_lat": 0.0, "lon": -77.05257733333333, "name": "1f4e797c93dd0eadfba48e296df6bc6a"}, {"bike_id": "f7cbf6bd99b1ed5aa8c0955e4baaf8ec", "type": "electric_bike", "is_disabled": 0, "lat": 38.97158983333333, "rental_uris": {"ios": "https://dc.lft.to/lastmile_qr_scan", "android": "https://dc.lft.to/lastmile_qr_scan"}, "is_reserved": 0, "fusion_lon": 0.0, "fusion_lat": 0.0, "lon": -77.02726166666666, "name": "f7cbf6bd99b1ed5aa8c0955e4baaf8ec"}, {"bike_id": "19b91d540d8e663d0675e21d014948eb", "type": "electric_scooter", "is_disabled": 0, "lat": 38.897050666666665, "rental_uris": {"ios": "https://dc.lft.to/lastmile_qr_scan", "android": "https://dc.lft.to/lastmile_qr_scan"}, "is_reserved": 0, "fusion_lon": 0.0, "fusion_lat": 0.0, "lon": -77.02226533333334, "name": "19b91d540d8e663d0675e21d014948eb"}, {"bike_id": "9e5b40bc62972da481e5b87b7f4c24b5", "type": "electric_scooter", "is_disabled": 0, "lat": 38.906690166666664, "rental_uris": {"ios": "https://dc.lft.to/lastmile_qr_scan", "android": "https://dc.lft.to/lastmile_qr_scan"}, "is_reserved": 0, "fusion_lon": 0.0, "fusion_lat": 0.0, "lon": -77.02380133333334, "name": "9e5b40bc62972da481e5b87b7f4c24b5"}, {"bike_id": "a9270b5816d45447673afb03919980d0", "type": "electric_bike", "is_disabled": 0, "lat": 38.80413816666667, "rental_uris": {"ios": "https://dc.lft.to/lastmile_qr_scan", "android": "https://dc.lft.to/lastmile_qr_scan"}, "is_reserved": 0, "fusion_lon": 0.0, "fusion_lat": 0.0, "lon": -77.05554216666667, "name": "a9270b5816d45447673afb03919980d0"}, {"bike_id": "11f4632d2edf13a9a7ecdc006e6b37c1", "type": "electric_scooter", "is_disabled": 0, "lat": 38.89518066666667, "rental_uris": {"ios": "https://dc.lft.to/lastmile_qr_scan", "android": "https://dc.lft.to/lastmile_qr_scan"}, "is_reserved": 0, "fusion_lon": 0.0, "fusion_lat": 0.0, "lon": -77.01107316666666, "name": "11f4632d2edf13a9a7ecdc006e6b37c1"}, {"bike_id": "aa1e95799fc080aa7ab488e5e52f776c", "type": "electric_bike", "is_disabled": 0, "lat": 38.80702516666667, "rental_uris": {"ios": "https://dc.lft.to/lastmile_qr_scan", "android": "https://dc.lft.to/lastmile_qr_scan"}, "is_reserved": 0, "fusion_lon": 0.0, "fusion_lat": 0.0, "lon": -77.061793, "name": "aa1e95799fc080aa7ab488e5e52f776c"}, {"bike_id": "478ebe53e7e2b33f7c578fe7aab72288", "type": "electric_scooter", "is_disabled": 0, "lat": 38.922489166666665, "rental_uris": {"ios": "https://dc.lft.to/lastmile_qr_scan", "android": "https://dc.lft.to/lastmile_qr_scan"}, "is_reserved": 0, "fusion_lon": 0.0, "fusion_lat": 0.0, "lon": -77.0389385, "name": "478ebe53e7e2b33f7c578fe7aab72288"}, {"bike_id": "304bdb63bf5211f4774732df93f217fd", "type": "electric_scooter", "is_disabled": 0, "lat": 38.922722666666665, "rental_uris": {"ios": "https://dc.lft.to/lastmile_qr_scan", "android": "https://dc.lft.to/lastmile_qr_scan"}, "is_reserved": 0, "fusion_lon": 0.0, "fusion_lat": 0.0, "lon": -76.99445983333334, "name": "304bdb63bf5211f4774732df93f217fd"}, {"bike_id": "6166da9879bfa565e590972e197b9642", "type": "electric_scooter", "is_disabled": 0, "lat": 38.928419166666664, "rental_uris": {"ios": "https://dc.lft.to/lastmile_qr_scan", "android": "https://dc.lft.to/lastmile_qr_scan"}, "is_reserved": 0, "fusion_lon": 0.0, "fusion_lat": 0.0, "lon": -77.02758666666666, "name": "6166da9879bfa565e590972e197b9642"}, {"bike_id": "82e8b80819d78f4adf42f1bab459c2a2", "type": "electric_bike", "is_disabled": 0, "lat": 38.836039666666665, "rental_uris": {"ios": "https://dc.lft.to/lastmile_qr_scan", "android": "https://dc.lft.to/lastmile_qr_scan"}, "is_reserved": 0, "fusion_lon": 0.0, "fusion_lat": 0.0, "lon": -77.00384983333333, "name": "82e8b80819d78f4adf42f1bab459c2a2"}, {"bike_id": "02301906d26221f8471929aceee60bb4", "type": "electric_scooter", "is_disabled": 0, "lat": 38.90841366666667, "rental_uris": {"ios": "https://dc.lft.to/lastmile_qr_scan", "android": "https://dc.lft.to/lastmile_qr_scan"}, "is_reserved": 0, "fusion_lon": 0.0, "fusion_lat": 0.0, "lon": -77.00181766666667, "name": "02301906d26221f8471929aceee60bb4"}, {"bike_id": "fedd1f678e5e3a81faa944051d5545fb", "type": "electric_scooter", "is_disabled": 0, "lat": 38.91971566666667, "rental_uris": {"ios": "https://dc.lft.to/lastmile_qr_scan", "android": "https://dc.lft.to/lastmile_qr_scan"}, "is_reserved": 0, "fusion_lon": 0.0, "fusion_lat": 0.0, "lon": -77.04218883333333, "name": "fedd1f678e5e3a81faa944051d5545fb"}, {"bike_id": "bfd2f3caec897e5bff8032bece736114", "type": "electric_bike", "is_disabled": 0, "lat": 38.899695, "rental_uris": {"ios": "https://dc.lft.to/lastmile_qr_scan", "android": "https://dc.lft.to/lastmile_qr_scan"}, "is_reserved": 0, "fusion_lon": 0.0, "fusion_lat": 0.0, "lon": -76.98674033333333, "name": "bfd2f3caec897e5bff8032bece736114"}, {"bike_id": "0bb4758c3b00b9b4bea81abd2ad4bb15", "type": "electric_scooter", "is_disabled": 0, "lat": 38.884236, "rental_uris": {"ios": "https://dc.lft.to/lastmile_qr_scan", "android": "https://dc.lft.to/lastmile_qr_scan"}, "is_reserved": 0, "fusion_lon": 0.0, "fusion_lat": 0.0, "lon": -76.95759416666667, "name": "0bb4758c3b00b9b4bea81abd2ad4bb15"}, {"bike_id": "0075db753a9752db2b1b169d01f48665", "type": "electric_scooter", "is_disabled": 0, "lat": 38.889368, "rental_uris": {"ios": "https://dc.lft.to/lastmile_qr_scan", "android": "https://dc.lft.to/lastmile_qr_scan"}, "is_reserved": 0, "fusion_lon": 0.0, "fusion_lat": 0.0, "lon": -77.01500633333333, "name": "0075db753a9752db2b1b169d01f48665"}, {"bike_id": "c0ab663960f9d9450a2725036f0d5335", "type": "electric_scooter", "is_disabled": 0, "lat": 38.9167695, "rental_uris": {"ios": "https://dc.lft.to/lastmile_qr_scan", "android": "https://dc.lft.to/lastmile_qr_scan"}, "is_reserved": 0, "fusion_lon": 0.0, "fusion_lat": 0.0, "lon": -77.02346333333334, "name": "c0ab663960f9d9450a2725036f0d5335"}, {"bike_id": "584f408903c643059dd00809d484f6c3", "type": "electric_scooter", "is_disabled": 0, "lat": 38.90553833333333, "rental_uris": {"ios": "https://dc.lft.to/lastmile_qr_scan", "android": "https://dc.lft.to/lastmile_qr_scan"}, "is_reserved": 0, "fusion_lon": 0.0, "fusion_lat": 0.0, "lon": -76.99619666666666, "name": "584f408903c643059dd00809d484f6c3"}, {"bike_id": "6f3167af9d39072e616ac69355a7d852", "type": "electric_scooter", "is_disabled": 0, "lat": 38.9048845, "rental_uris": {"ios": "https://dc.lft.to/lastmile_qr_scan", "android": "https://dc.lft.to/lastmile_qr_scan"}, "is_reserved": 0, "fusion_lon": 0.0, "fusion_lat": 0.0, "lon": -77.019959, "name": "6f3167af9d39072e616ac69355a7d852"}, {"bike_id": "81b408fd5348bca317a8d5a670925966", "type": "electric_scooter", "is_disabled": 0, "lat": 38.914242, "rental_uris": {"ios": "https://dc.lft.to/lastmile_qr_scan", "android": "https://dc.lft.to/lastmile_qr_scan"}, "is_reserved": 0, "fusion_lon": 0.0, "fusion_lat": 0.0, "lon": -77.04815083333334, "name": "81b408fd5348bca317a8d5a670925966"}, {"bike_id": "49b676d954fb43ee5e31c0c09d4fa658", "type": "electric_scooter", "is_disabled": 0, "lat": 38.94791216666667, "rental_uris": {"ios": "https://dc.lft.to/lastmile_qr_scan", "android": "https://dc.lft.to/lastmile_qr_scan"}, "is_reserved": 0, "fusion_lon": 0.0, "fusion_lat": 0.0, "lon": -77.02139283333334, "name": "49b676d954fb43ee5e31c0c09d4fa658"}, {"bike_id": "a56835d02b348197e73c8e58932fde27", "type": "electric_scooter", "is_disabled": 0, "lat": 38.91368133333334, "rental_uris": {"ios": "https://dc.lft.to/lastmile_qr_scan", "android": "https://dc.lft.to/lastmile_qr_scan"}, "is_reserved": 0, "fusion_lon": 0.0, "fusion_lat": 0.0, "lon": -77.07277166666667, "name": "a56835d02b348197e73c8e58932fde27"}, {"bike_id": "765bd6788df14fdb3be696d50cc0297f", "type": "electric_scooter", "is_disabled": 0, "lat": 38.921475, "rental_uris": {"ios": "https://dc.lft.to/lastmile_qr_scan", "android": "https://dc.lft.to/lastmile_qr_scan"}, "is_reserved": 0, "fusion_lon": 0.0, "fusion_lat": 0.0, "lon": -77.03536416666667, "name": "765bd6788df14fdb3be696d50cc0297f"}, {"bike_id": "61a0f0a8a994cf3a70ededc4af959c25", "type": "electric_bike", "is_disabled": 0, "lat": 38.91011233333333, "rental_uris": {"ios": "https://dc.lft.to/lastmile_qr_scan", "android": "https://dc.lft.to/lastmile_qr_scan"}, "is_reserved": 0, "fusion_lon": 0.0, "fusion_lat": 0.0, "lon": -77.22798516666667, "name": "61a0f0a8a994cf3a70ededc4af959c25"}, {"bike_id": "5abb171bcec1de27182e18ee569288c5", "type": "electric_bike", "is_disabled": 0, "lat": 38.8805995, "rental_uris": {"ios": "https://dc.lft.to/lastmile_qr_scan", "android": "https://dc.lft.to/lastmile_qr_scan"}, "is_reserved": 0, "fusion_lon": 0.0, "fusion_lat": 0.0, "lon": -76.9624245, "name": "5abb171bcec1de27182e18ee569288c5"}, {"bike_id": "ca701ca13da489aaf18a67d9651f38ef", "type": "electric_scooter", "is_disabled": 0, "lat": 38.88243416666667, "rental_uris": {"ios": "https://dc.lft.to/lastmile_qr_scan", "android": "https://dc.lft.to/lastmile_qr_scan"}, "is_reserved": 0, "fusion_lon": 0.0, "fusion_lat": 0.0, "lon": -76.92669566666666, "name": "ca701ca13da489aaf18a67d9651f38ef"}, {"bike_id": "6a5cf91453611b78b8c9314f7cb29310", "type": "electric_scooter", "is_disabled": 0, "lat": 38.86980366666667, "rental_uris": {"ios": "https://dc.lft.to/lastmile_qr_scan", "android": "https://dc.lft.to/lastmile_qr_scan"}, "is_reserved": 0, "fusion_lon": 0.0, "fusion_lat": 0.0, "lon": -76.98183133333333, "name": "6a5cf91453611b78b8c9314f7cb29310"}, {"bike_id": "99c467d8a710900f098312abe95a8f0c", "type": "electric_scooter", "is_disabled": 0, "lat": 38.920024, "rental_uris": {"ios": "https://dc.lft.to/lastmile_qr_scan", "android": "https://dc.lft.to/lastmile_qr_scan"}, "is_reserved": 0, "fusion_lon": 0.0, "fusion_lat": 0.0, "lon": -77.04187633333333, "name": "99c467d8a710900f098312abe95a8f0c"}, {"bike_id": "995e4e5ee1bdc42d182314d251794659", "type": "electric_scooter", "is_disabled": 0, "lat": 38.947034333333335, "rental_uris": {"ios": "https://dc.lft.to/lastmile_qr_scan", "android": "https://dc.lft.to/lastmile_qr_scan"}, "is_reserved": 0, "fusion_lon": 0.0, "fusion_lat": 0.0, "lon": -77.01945033333334, "name": "995e4e5ee1bdc42d182314d251794659"}, {"bike_id": "6b74117afeec0c0a1fb80ccd25b6c9b8", "type": "electric_scooter", "is_disabled": 0, "lat": 38.92822433333333, "rental_uris": {"ios": "https://dc.lft.to/lastmile_qr_scan", "android": "https://dc.lft.to/lastmile_qr_scan"}, "is_reserved": 0, "fusion_lon": 0.0, "fusion_lat": 0.0, "lon": -77.006048, "name": "6b74117afeec0c0a1fb80ccd25b6c9b8"}, {"bike_id": "7358cd006ff98e2f5b9c354c10141b12", "type": "electric_scooter", "is_disabled": 0, "lat": 38.93538183333333, "rental_uris": {"ios": "https://dc.lft.to/lastmile_qr_scan", "android": "https://dc.lft.to/lastmile_qr_scan"}, "is_reserved": 0, "fusion_lon": 0.0, "fusion_lat": 0.0, "lon": -77.02352733333333, "name": "7358cd006ff98e2f5b9c354c10141b12"}, {"bike_id": "09933a8ad1827ab7288ad328ae9e2ab8", "type": "electric_scooter", "is_disabled": 0, "lat": 38.9056255, "rental_uris": {"ios": "https://dc.lft.to/lastmile_qr_scan", "android": "https://dc.lft.to/lastmile_qr_scan"}, "is_reserved": 0, "fusion_lon": 0.0, "fusion_lat": 0.0, "lon": -77.03824416666667, "name": "09933a8ad1827ab7288ad328ae9e2ab8"}, {"bike_id": "57cbbfe664ee77e25caeccbeb0e1efef", "type": "electric_scooter", "is_disabled": 0, "lat": 38.9049475, "rental_uris": {"ios": "https://dc.lft.to/lastmile_qr_scan", "android": "https://dc.lft.to/lastmile_qr_scan"}, "is_reserved": 0, "fusion_lon": 0.0, "fusion_lat": 0.0, "lon": -77.04199133333333, "name": "57cbbfe664ee77e25caeccbeb0e1efef"}, {"bike_id": "4a006caf8b555162e4cb1a8adaacd33d", "type": "electric_scooter", "is_disabled": 0, "lat": 38.91004816666667, "rental_uris": {"ios": "https://dc.lft.to/lastmile_qr_scan", "android": "https://dc.lft.to/lastmile_qr_scan"}, "is_reserved": 0, "fusion_lon": 0.0, "fusion_lat": 0.0, "lon": -77.0442425, "name": "4a006caf8b555162e4cb1a8adaacd33d"}, {"bike_id": "372d290d29bd27f2fceb724708cbe5c1", "type": "electric_bike", "is_disabled": 0, "lat": 38.913578666666666, "rental_uris": {"ios": "https://dc.lft.to/lastmile_qr_scan", "android": "https://dc.lft.to/lastmile_qr_scan"}, "is_reserved": 0, "fusion_lon": 0.0, "fusion_lat": 0.0, "lon": -76.98547416666666, "name": "372d290d29bd27f2fceb724708cbe5c1"}, {"bike_id": "618e0f5f66be01ecb6afd6d7a5e4e330", "type": "electric_scooter", "is_disabled": 0, "lat": 38.92857766666667, "rental_uris": {"ios": "https://dc.lft.to/lastmile_qr_scan", "android": "https://dc.lft.to/lastmile_qr_scan"}, "is_reserved": 0, "fusion_lon": 0.0, "fusion_lat": 0.0, "lon": -77.01951683333333, "name": "618e0f5f66be01ecb6afd6d7a5e4e330"}, {"bike_id": "ce6e1fb512ed7625d963cad378675f8d", "type": "electric_scooter", "is_disabled": 0, "lat": 38.8850705, "rental_uris": {"ios": "https://dc.lft.to/lastmile_qr_scan", "android": "https://dc.lft.to/lastmile_qr_scan"}, "is_reserved": 0, "fusion_lon": 0.0, "fusion_lat": 0.0, "lon": -77.0172825, "name": "ce6e1fb512ed7625d963cad378675f8d"}, {"bike_id": "ba83eb44609ce825fc22fd08f0564a42", "type": "electric_scooter", "is_disabled": 0, "lat": 38.866846333333335, "rental_uris": {"ios": "https://dc.lft.to/lastmile_qr_scan", "android": "https://dc.lft.to/lastmile_qr_scan"}, "is_reserved": 0, "fusion_lon": 0.0, "fusion_lat": 0.0, "lon": -76.98577516666667, "name": "ba83eb44609ce825fc22fd08f0564a42"}, {"bike_id": "f38fc8fa1306fc4fb844a862594cc270", "type": "electric_scooter", "is_disabled": 0, "lat": 38.92471833333333, "rental_uris": {"ios": "https://dc.lft.to/lastmile_qr_scan", "android": "https://dc.lft.to/lastmile_qr_scan"}, "is_reserved": 0, "fusion_lon": 0.0, "fusion_lat": 0.0, "lon": -77.052221, "name": "f38fc8fa1306fc4fb844a862594cc270"}, {"bike_id": "beea3845e6869fd56d9bb48e5b06b01a", "type": "electric_scooter", "is_disabled": 0, "lat": 38.916998666666665, "rental_uris": {"ios": "https://dc.lft.to/lastmile_qr_scan", "android": "https://dc.lft.to/lastmile_qr_scan"}, "is_reserved": 0, "fusion_lon": 0.0, "fusion_lat": 0.0, "lon": -77.03159566666666, "name": "beea3845e6869fd56d9bb48e5b06b01a"}, {"bike_id": "e3b0c07e3dbd03bb0042cf403ac9b937", "type": "electric_scooter", "is_disabled": 0, "lat": 38.9096615, "rental_uris": {"ios": "https://dc.lft.to/lastmile_qr_scan", "android": "https://dc.lft.to/lastmile_qr_scan"}, "is_reserved": 0, "fusion_lon": 0.0, "fusion_lat": 0.0, "lon": -77.02741883333333, "name": "e3b0c07e3dbd03bb0042cf403ac9b937"}, {"bike_id": "ddfa2327ba1fa717080079231b9566ca", "type": "electric_scooter", "is_disabled": 0, "lat": 38.9107445, "rental_uris": {"ios": "https://dc.lft.to/lastmile_qr_scan", "android": "https://dc.lft.to/lastmile_qr_scan"}, "is_reserved": 0, "fusion_lon": 0.0, "fusion_lat": 0.0, "lon": -77.038649, "name": "ddfa2327ba1fa717080079231b9566ca"}, {"bike_id": "c02a35dc855479943bcc0a5f5c3f76ad", "type": "electric_scooter", "is_disabled": 0, "lat": 38.87388983333334, "rental_uris": {"ios": "https://dc.lft.to/lastmile_qr_scan", "android": "https://dc.lft.to/lastmile_qr_scan"}, "is_reserved": 0, "fusion_lon": 0.0, "fusion_lat": 0.0, "lon": -77.043507, "name": "c02a35dc855479943bcc0a5f5c3f76ad"}, {"bike_id": "831afa1e72fa0af9d78b24d48118db92", "type": "electric_scooter", "is_disabled": 0, "lat": 38.9003685, "rental_uris": {"ios": "https://dc.lft.to/lastmile_qr_scan", "android": "https://dc.lft.to/lastmile_qr_scan"}, "is_reserved": 0, "fusion_lon": 0.0, "fusion_lat": 0.0, "lon": -77.03671983333334, "name": "831afa1e72fa0af9d78b24d48118db92"}, {"bike_id": "392cca25bc8d4a2c9ac36e9d5bceba0b", "type": "electric_scooter", "is_disabled": 0, "lat": 38.90724933333333, "rental_uris": {"ios": "https://dc.lft.to/lastmile_qr_scan", "android": "https://dc.lft.to/lastmile_qr_scan"}, "is_reserved": 0, "fusion_lon": 0.0, "fusion_lat": 0.0, "lon": -77.03207883333333, "name": "392cca25bc8d4a2c9ac36e9d5bceba0b"}, {"bike_id": "53e8426683c796ed924bfb508a4a98f7", "type": "electric_scooter", "is_disabled": 0, "lat": 38.90531166666667, "rental_uris": {"ios": "https://dc.lft.to/lastmile_qr_scan", "android": "https://dc.lft.to/lastmile_qr_scan"}, "is_reserved": 0, "fusion_lon": 0.0, "fusion_lat": 0.0, "lon": -77.05939166666667, "name": "53e8426683c796ed924bfb508a4a98f7"}, {"bike_id": "872f23a77956e1c6e74e110f709fc012", "type": "electric_scooter", "is_disabled": 0, "lat": 38.8719385, "rental_uris": {"ios": "https://dc.lft.to/lastmile_qr_scan", "android": "https://dc.lft.to/lastmile_qr_scan"}, "is_reserved": 0, "fusion_lon": 0.0, "fusion_lat": 0.0, "lon": -77.00934666666667, "name": "872f23a77956e1c6e74e110f709fc012"}, {"bike_id": "573eb31f5816679efefe5d60fcb68f1a", "type": "electric_scooter", "is_disabled": 0, "lat": 38.93846833333333, "rental_uris": {"ios": "https://dc.lft.to/lastmile_qr_scan", "android": "https://dc.lft.to/lastmile_qr_scan"}, "is_reserved": 0, "fusion_lon": 0.0, "fusion_lat": 0.0, "lon": -77.07235633333333, "name": "573eb31f5816679efefe5d60fcb68f1a"}, {"bike_id": "da7ee9063b2efcf4817b53d490c9b96e", "type": "electric_bike", "is_disabled": 0, "lat": 39.0629525, "rental_uris": {"ios": "https://dc.lft.to/lastmile_qr_scan", "android": "https://dc.lft.to/lastmile_qr_scan"}, "is_reserved": 0, "fusion_lon": 0.0, "fusion_lat": 0.0, "lon": -77.04980166666667, "name": "da7ee9063b2efcf4817b53d490c9b96e"}, {"bike_id": "218bb3af074c083ddb8a03437a1966b3", "type": "electric_scooter", "is_disabled": 0, "lat": 38.844437166666665, "rental_uris": {"ios": "https://dc.lft.to/lastmile_qr_scan", "android": "https://dc.lft.to/lastmile_qr_scan"}, "is_reserved": 0, "fusion_lon": 0.0, "fusion_lat": 0.0, "lon": -76.99876316666666, "name": "218bb3af074c083ddb8a03437a1966b3"}, {"bike_id": "6dd059414a3bf70b06f30282bf8efbf7", "type": "electric_scooter", "is_disabled": 0, "lat": 38.8969985, "rental_uris": {"ios": "https://dc.lft.to/lastmile_qr_scan", "android": "https://dc.lft.to/lastmile_qr_scan"}, "is_reserved": 0, "fusion_lon": 0.0, "fusion_lat": 0.0, "lon": -77.032346, "name": "6dd059414a3bf70b06f30282bf8efbf7"}, {"bike_id": "e4aea1c5cb7eef50eaf7652f363f96a7", "type": "electric_scooter", "is_disabled": 0, "lat": 38.8973275, "rental_uris": {"ios": "https://dc.lft.to/lastmile_qr_scan", "android": "https://dc.lft.to/lastmile_qr_scan"}, "is_reserved": 0, "fusion_lon": 0.0, "fusion_lat": 0.0, "lon": -77.00753933333333, "name": "e4aea1c5cb7eef50eaf7652f363f96a7"}, {"bike_id": "14b1bd473256230f36f4d1102fd18834", "type": "electric_scooter", "is_disabled": 0, "lat": 38.938896, "rental_uris": {"ios": "https://dc.lft.to/lastmile_qr_scan", "android": "https://dc.lft.to/lastmile_qr_scan"}, "is_reserved": 0, "fusion_lon": 0.0, "fusion_lat": 0.0, "lon": -77.02495466666667, "name": "14b1bd473256230f36f4d1102fd18834"}, {"bike_id": "f2bfea4acaa6c19b97d1ec00b3f77ffb", "type": "electric_scooter", "is_disabled": 0, "lat": 38.902522, "rental_uris": {"ios": "https://dc.lft.to/lastmile_qr_scan", "android": "https://dc.lft.to/lastmile_qr_scan"}, "is_reserved": 0, "fusion_lon": 0.0, "fusion_lat": 0.0, "lon": -77.03842216666666, "name": "f2bfea4acaa6c19b97d1ec00b3f77ffb"}, {"bike_id": "8657b9a31c22e7b436984f9d604e6040", "type": "electric_scooter", "is_disabled": 0, "lat": 38.92454033333333, "rental_uris": {"ios": "https://dc.lft.to/lastmile_qr_scan", "android": "https://dc.lft.to/lastmile_qr_scan"}, "is_reserved": 0, "fusion_lon": 0.0, "fusion_lat": 0.0, "lon": -77.03342233333333, "name": "8657b9a31c22e7b436984f9d604e6040"}, {"bike_id": "68ab2d829d0c0a6477153586b0642cf8", "type": "electric_scooter", "is_disabled": 0, "lat": 38.886801166666665, "rental_uris": {"ios": "https://dc.lft.to/lastmile_qr_scan", "android": "https://dc.lft.to/lastmile_qr_scan"}, "is_reserved": 0, "fusion_lon": 0.0, "fusion_lat": 0.0, "lon": -76.99145033333333, "name": "68ab2d829d0c0a6477153586b0642cf8"}, {"bike_id": "ce4b16eb025b28fbc250b6707fd2c2b1", "type": "electric_bike", "is_disabled": 0, "lat": 38.7960365, "rental_uris": {"ios": "https://dc.lft.to/lastmile_qr_scan", "android": "https://dc.lft.to/lastmile_qr_scan"}, "is_reserved": 0, "fusion_lon": 0.0, "fusion_lat": 0.0, "lon": -76.99743366666667, "name": "ce4b16eb025b28fbc250b6707fd2c2b1"}, {"bike_id": "65579a57d79d22c845628481aaa90252", "type": "electric_scooter", "is_disabled": 0, "lat": 38.908535, "rental_uris": {"ios": "https://dc.lft.to/lastmile_qr_scan", "android": "https://dc.lft.to/lastmile_qr_scan"}, "is_reserved": 0, "fusion_lon": 0.0, "fusion_lat": 0.0, "lon": -77.00177333333333, "name": "65579a57d79d22c845628481aaa90252"}, {"bike_id": "4c64ee13ecb6325fb4da0f37e0fcd220", "type": "electric_scooter", "is_disabled": 0, "lat": 38.86550183333333, "rental_uris": {"ios": "https://dc.lft.to/lastmile_qr_scan", "android": "https://dc.lft.to/lastmile_qr_scan"}, "is_reserved": 0, "fusion_lon": 0.0, "fusion_lat": 0.0, "lon": -76.970401, "name": "4c64ee13ecb6325fb4da0f37e0fcd220"}, {"bike_id": "730da3ec0d5d7d546bc563016326e8fe", "type": "electric_scooter", "is_disabled": 0, "lat": 38.892463, "rental_uris": {"ios": "https://dc.lft.to/lastmile_qr_scan", "android": "https://dc.lft.to/lastmile_qr_scan"}, "is_reserved": 0, "fusion_lon": 0.0, "fusion_lat": 0.0, "lon": -77.02921016666667, "name": "730da3ec0d5d7d546bc563016326e8fe"}, {"bike_id": "d045c19f3dc9260a283fd3c557ae86b9", "type": "electric_scooter", "is_disabled": 0, "lat": 38.90530733333333, "rental_uris": {"ios": "https://dc.lft.to/lastmile_qr_scan", "android": "https://dc.lft.to/lastmile_qr_scan"}, "is_reserved": 0, "fusion_lon": 0.0, "fusion_lat": 0.0, "lon": -77.05688333333333, "name": "d045c19f3dc9260a283fd3c557ae86b9"}, {"bike_id": "bfee8a5ccf3f4ac21a3f68a1b0b5b1dc", "type": "electric_scooter", "is_disabled": 0, "lat": 38.91873016666667, "rental_uris": {"ios": "https://dc.lft.to/lastmile_qr_scan", "android": "https://dc.lft.to/lastmile_qr_scan"}, "is_reserved": 0, "fusion_lon": 0.0, "fusion_lat": 0.0, "lon": -77.044518, "name": "bfee8a5ccf3f4ac21a3f68a1b0b5b1dc"}, {"bike_id": "8bc7969ebce0e40aafb183fe24344031", "type": "electric_scooter", "is_disabled": 0, "lat": 38.90121466666667, "rental_uris": {"ios": "https://dc.lft.to/lastmile_qr_scan", "android": "https://dc.lft.to/lastmile_qr_scan"}, "is_reserved": 0, "fusion_lon": 0.0, "fusion_lat": 0.0, "lon": -77.024597, "name": "8bc7969ebce0e40aafb183fe24344031"}, {"bike_id": "43c338bef5ee232c91d38666f6db4087", "type": "electric_scooter", "is_disabled": 0, "lat": 38.8984365, "rental_uris": {"ios": "https://dc.lft.to/lastmile_qr_scan", "android": "https://dc.lft.to/lastmile_qr_scan"}, "is_reserved": 0, "fusion_lon": 0.0, "fusion_lat": 0.0, "lon": -76.94632733333333, "name": "43c338bef5ee232c91d38666f6db4087"}, {"bike_id": "0fcb71f928c9e27450bf09927afeba4f", "type": "electric_scooter", "is_disabled": 0, "lat": 38.922816, "rental_uris": {"ios": "https://dc.lft.to/lastmile_qr_scan", "android": "https://dc.lft.to/lastmile_qr_scan"}, "is_reserved": 0, "fusion_lon": 0.0, "fusion_lat": 0.0, "lon": -77.029656, "name": "0fcb71f928c9e27450bf09927afeba4f"}, {"bike_id": "449f641f80b76d05098156340a202194", "type": "electric_scooter", "is_disabled": 0, "lat": 38.921462, "rental_uris": {"ios": "https://dc.lft.to/lastmile_qr_scan", "android": "https://dc.lft.to/lastmile_qr_scan"}, "is_reserved": 0, "fusion_lon": 0.0, "fusion_lat": 0.0, "lon": -77.01807866666667, "name": "449f641f80b76d05098156340a202194"}, {"bike_id": "c6c7ccd297fde27cc9114373d5aa326c", "type": "electric_scooter", "is_disabled": 0, "lat": 38.892266166666666, "rental_uris": {"ios": "https://dc.lft.to/lastmile_qr_scan", "android": "https://dc.lft.to/lastmile_qr_scan"}, "is_reserved": 0, "fusion_lon": 0.0, "fusion_lat": 0.0, "lon": -77.05003, "name": "c6c7ccd297fde27cc9114373d5aa326c"}, {"bike_id": "cefc2e84cc9d04aae347e06af4ae30e7", "type": "electric_scooter", "is_disabled": 0, "lat": 38.900617833333335, "rental_uris": {"ios": "https://dc.lft.to/lastmile_qr_scan", "android": "https://dc.lft.to/lastmile_qr_scan"}, "is_reserved": 0, "fusion_lon": 0.0, "fusion_lat": 0.0, "lon": -77.05029316666666, "name": "cefc2e84cc9d04aae347e06af4ae30e7"}, {"bike_id": "3da818b6ed1151d8b49fa6b8ea57b005", "type": "electric_scooter", "is_disabled": 0, "lat": 38.90568916666667, "rental_uris": {"ios": "https://dc.lft.to/lastmile_qr_scan", "android": "https://dc.lft.to/lastmile_qr_scan"}, "is_reserved": 0, "fusion_lon": 0.0, "fusion_lat": 0.0, "lon": -77.038274, "name": "3da818b6ed1151d8b49fa6b8ea57b005"}, {"bike_id": "d71a5a04c6ec66c4dcde1c912686437b", "type": "electric_scooter", "is_disabled": 0, "lat": 38.9222405, "rental_uris": {"ios": "https://dc.lft.to/lastmile_qr_scan", "android": "https://dc.lft.to/lastmile_qr_scan"}, "is_reserved": 0, "fusion_lon": 0.0, "fusion_lat": 0.0, "lon": -77.03296066666667, "name": "d71a5a04c6ec66c4dcde1c912686437b"}, {"bike_id": "8aaa6b1edeb3251327ada419784901da", "type": "electric_scooter", "is_disabled": 0, "lat": 38.919156, "rental_uris": {"ios": "https://dc.lft.to/lastmile_qr_scan", "android": "https://dc.lft.to/lastmile_qr_scan"}, "is_reserved": 0, "fusion_lon": 0.0, "fusion_lat": 0.0, "lon": -77.03375983333333, "name": "8aaa6b1edeb3251327ada419784901da"}, {"bike_id": "00376b6fb8ebc6f3ecd61524d03568a5", "type": "electric_scooter", "is_disabled": 0, "lat": 38.918145333333335, "rental_uris": {"ios": "https://dc.lft.to/lastmile_qr_scan", "android": "https://dc.lft.to/lastmile_qr_scan"}, "is_reserved": 0, "fusion_lon": 0.0, "fusion_lat": 0.0, "lon": -77.04948283333333, "name": "00376b6fb8ebc6f3ecd61524d03568a5"}, {"bike_id": "6b73e73a9bdc5036040ed0cf2d9c20fa", "type": "electric_scooter", "is_disabled": 0, "lat": 38.91405733333333, "rental_uris": {"ios": "https://dc.lft.to/lastmile_qr_scan", "android": "https://dc.lft.to/lastmile_qr_scan"}, "is_reserved": 0, "fusion_lon": 0.0, "fusion_lat": 0.0, "lon": -77.03174916666667, "name": "6b73e73a9bdc5036040ed0cf2d9c20fa"}, {"bike_id": "9be872762a40c6ba966439cd0397783c", "type": "electric_scooter", "is_disabled": 0, "lat": 38.910561, "rental_uris": {"ios": "https://dc.lft.to/lastmile_qr_scan", "android": "https://dc.lft.to/lastmile_qr_scan"}, "is_reserved": 0, "fusion_lon": 0.0, "fusion_lat": 0.0, "lon": -77.04351316666667, "name": "9be872762a40c6ba966439cd0397783c"}, {"bike_id": "2ce6fb0cfcc0328d137999d2ff0bb0e4", "type": "electric_scooter", "is_disabled": 0, "lat": 38.9069905, "rental_uris": {"ios": "https://dc.lft.to/lastmile_qr_scan", "android": "https://dc.lft.to/lastmile_qr_scan"}, "is_reserved": 0, "fusion_lon": 0.0, "fusion_lat": 0.0, "lon": -77.03680833333334, "name": "2ce6fb0cfcc0328d137999d2ff0bb0e4"}, {"bike_id": "d3298b38879edda6ca002d86c77e2dce", "type": "electric_scooter", "is_disabled": 0, "lat": 38.915216, "rental_uris": {"ios": "https://dc.lft.to/lastmile_qr_scan", "android": "https://dc.lft.to/lastmile_qr_scan"}, "is_reserved": 0, "fusion_lon": 0.0, "fusion_lat": 0.0, "lon": -77.01228316666666, "name": "d3298b38879edda6ca002d86c77e2dce"}, {"bike_id": "970159ad81762dd617411ee78743694b", "type": "electric_scooter", "is_disabled": 0, "lat": 38.919201666666666, "rental_uris": {"ios": "https://dc.lft.to/lastmile_qr_scan", "android": "https://dc.lft.to/lastmile_qr_scan"}, "is_reserved": 0, "fusion_lon": 0.0, "fusion_lat": 0.0, "lon": -77.04639783333333, "name": "970159ad81762dd617411ee78743694b"}, {"bike_id": "40b8e016594db805242212d22cc4792e", "type": "electric_bike", "is_disabled": 0, "lat": 38.897440833333334, "rental_uris": {"ios": "https://dc.lft.to/lastmile_qr_scan", "android": "https://dc.lft.to/lastmile_qr_scan"}, "is_reserved": 0, "fusion_lon": 0.0, "fusion_lat": 0.0, "lon": -76.9204615, "name": "40b8e016594db805242212d22cc4792e"}, {"bike_id": "76d8e2e1f94e8e21a32a4fb7b315b0a6", "type": "electric_scooter", "is_disabled": 0, "lat": 38.9245015, "rental_uris": {"ios": "https://dc.lft.to/lastmile_qr_scan", "android": "https://dc.lft.to/lastmile_qr_scan"}, "is_reserved": 0, "fusion_lon": 0.0, "fusion_lat": 0.0, "lon": -77.0419315, "name": "76d8e2e1f94e8e21a32a4fb7b315b0a6"}, {"bike_id": "4f79fd798108f5c85affe62fd3151ea2", "type": "electric_scooter", "is_disabled": 0, "lat": 38.9641465, "rental_uris": {"ios": "https://dc.lft.to/lastmile_qr_scan", "android": "https://dc.lft.to/lastmile_qr_scan"}, "is_reserved": 0, "fusion_lon": 0.0, "fusion_lat": 0.0, "lon": -77.02432166666667, "name": "4f79fd798108f5c85affe62fd3151ea2"}, {"bike_id": "f28f3009ce49c4b46aac856f7fb9c785", "type": "electric_scooter", "is_disabled": 0, "lat": 38.90597016666667, "rental_uris": {"ios": "https://dc.lft.to/lastmile_qr_scan", "android": "https://dc.lft.to/lastmile_qr_scan"}, "is_reserved": 0, "fusion_lon": 0.0, "fusion_lat": 0.0, "lon": -77.070115, "name": "f28f3009ce49c4b46aac856f7fb9c785"}, {"bike_id": "0ec1247814235bda4baa74d2f6bb4322", "type": "electric_scooter", "is_disabled": 0, "lat": 38.92097666666667, "rental_uris": {"ios": "https://dc.lft.to/lastmile_qr_scan", "android": "https://dc.lft.to/lastmile_qr_scan"}, "is_reserved": 0, "fusion_lon": 0.0, "fusion_lat": 0.0, "lon": -77.03166266666666, "name": "0ec1247814235bda4baa74d2f6bb4322"}, {"bike_id": "f653b6990e8ea02b7b331ed23f744754", "type": "electric_scooter", "is_disabled": 0, "lat": 38.90588866666667, "rental_uris": {"ios": "https://dc.lft.to/lastmile_qr_scan", "android": "https://dc.lft.to/lastmile_qr_scan"}, "is_reserved": 0, "fusion_lon": 0.0, "fusion_lat": 0.0, "lon": -77.06803866666667, "name": "f653b6990e8ea02b7b331ed23f744754"}, {"bike_id": "1de8a4b9a357e1923b14f6f570218533", "type": "electric_scooter", "is_disabled": 0, "lat": 38.922826666666666, "rental_uris": {"ios": "https://dc.lft.to/lastmile_qr_scan", "android": "https://dc.lft.to/lastmile_qr_scan"}, "is_reserved": 0, "fusion_lon": 0.0, "fusion_lat": 0.0, "lon": -77.04229933333333, "name": "1de8a4b9a357e1923b14f6f570218533"}, {"bike_id": "5f50e52eca705c3bf9493dd8067ab59b", "type": "electric_bike", "is_disabled": 0, "lat": 38.8593355, "rental_uris": {"ios": "https://dc.lft.to/lastmile_qr_scan", "android": "https://dc.lft.to/lastmile_qr_scan"}, "is_reserved": 0, "fusion_lon": 0.0, "fusion_lat": 0.0, "lon": -77.11830383333333, "name": "5f50e52eca705c3bf9493dd8067ab59b"}, {"bike_id": "30263d4d11d50c37972a445f54504425", "type": "electric_bike", "is_disabled": 0, "lat": 38.823697333333335, "rental_uris": {"ios": "https://dc.lft.to/lastmile_qr_scan", "android": "https://dc.lft.to/lastmile_qr_scan"}, "is_reserved": 0, "fusion_lon": 0.0, "fusion_lat": 0.0, "lon": -77.00219216666666, "name": "30263d4d11d50c37972a445f54504425"}, {"bike_id": "d126e6fe0fccdc3d2084f375b01eaf54", "type": "electric_bike", "is_disabled": 0, "lat": 38.898183, "rental_uris": {"ios": "https://dc.lft.to/lastmile_qr_scan", "android": "https://dc.lft.to/lastmile_qr_scan"}, "is_reserved": 0, "fusion_lon": 0.0, "fusion_lat": 0.0, "lon": -76.99109716666666, "name": "d126e6fe0fccdc3d2084f375b01eaf54"}, {"bike_id": "7f24d4dfe887aa1658e7a2e123f57e0b", "type": "electric_scooter", "is_disabled": 0, "lat": 38.922306666666664, "rental_uris": {"ios": "https://dc.lft.to/lastmile_qr_scan", "android": "https://dc.lft.to/lastmile_qr_scan"}, "is_reserved": 0, "fusion_lon": 0.0, "fusion_lat": 0.0, "lon": -77.04728433333334, "name": "7f24d4dfe887aa1658e7a2e123f57e0b"}, {"bike_id": "487698124623e38be66d45815b9ab23f", "type": "electric_scooter", "is_disabled": 0, "lat": 38.87177533333333, "rental_uris": {"ios": "https://dc.lft.to/lastmile_qr_scan", "android": "https://dc.lft.to/lastmile_qr_scan"}, "is_reserved": 0, "fusion_lon": 0.0, "fusion_lat": 0.0, "lon": -77.00606766666667, "name": "487698124623e38be66d45815b9ab23f"}, {"bike_id": "6c92d7435523c23e419d0878f41085b7", "type": "electric_scooter", "is_disabled": 0, "lat": 38.914299666666665, "rental_uris": {"ios": "https://dc.lft.to/lastmile_qr_scan", "android": "https://dc.lft.to/lastmile_qr_scan"}, "is_reserved": 0, "fusion_lon": 0.0, "fusion_lat": 0.0, "lon": -77.03219366666667, "name": "6c92d7435523c23e419d0878f41085b7"}, {"bike_id": "d98178b4d32a5d132956b8beec0246b7", "type": "electric_scooter", "is_disabled": 0, "lat": 38.91306383333333, "rental_uris": {"ios": "https://dc.lft.to/lastmile_qr_scan", "android": "https://dc.lft.to/lastmile_qr_scan"}, "is_reserved": 0, "fusion_lon": 0.0, "fusion_lat": 0.0, "lon": -77.0169085, "name": "d98178b4d32a5d132956b8beec0246b7"}, {"bike_id": "f6682dfec8e1f638439f63ee15c6fc6e", "type": "electric_scooter", "is_disabled": 0, "lat": 38.9319765, "rental_uris": {"ios": "https://dc.lft.to/lastmile_qr_scan", "android": "https://dc.lft.to/lastmile_qr_scan"}, "is_reserved": 0, "fusion_lon": 0.0, "fusion_lat": 0.0, "lon": -77.02396366666666, "name": "f6682dfec8e1f638439f63ee15c6fc6e"}, {"bike_id": "f296b550f19c657608cd2264a86da017", "type": "electric_scooter", "is_disabled": 0, "lat": 38.916561333333334, "rental_uris": {"ios": "https://dc.lft.to/lastmile_qr_scan", "android": "https://dc.lft.to/lastmile_qr_scan"}, "is_reserved": 0, "fusion_lon": 0.0, "fusion_lat": 0.0, "lon": -77.0228065, "name": "f296b550f19c657608cd2264a86da017"}, {"bike_id": "bd81b6a2ccc298ec98007c9d265885be", "type": "electric_scooter", "is_disabled": 0, "lat": 38.92896833333333, "rental_uris": {"ios": "https://dc.lft.to/lastmile_qr_scan", "android": "https://dc.lft.to/lastmile_qr_scan"}, "is_reserved": 0, "fusion_lon": 0.0, "fusion_lat": 0.0, "lon": -77.03278283333333, "name": "bd81b6a2ccc298ec98007c9d265885be"}, {"bike_id": "bd9b96b73ccbf4d225f24b064c49d5c8", "type": "electric_scooter", "is_disabled": 0, "lat": 38.93418283333333, "rental_uris": {"ios": "https://dc.lft.to/lastmile_qr_scan", "android": "https://dc.lft.to/lastmile_qr_scan"}, "is_reserved": 0, "fusion_lon": 0.0, "fusion_lat": 0.0, "lon": -77.04150016666667, "name": "bd9b96b73ccbf4d225f24b064c49d5c8"}, {"bike_id": "ca04fbc37873b2865daff5d9de2d72dd", "type": "electric_scooter", "is_disabled": 0, "lat": 38.94442566666667, "rental_uris": {"ios": "https://dc.lft.to/lastmile_qr_scan", "android": "https://dc.lft.to/lastmile_qr_scan"}, "is_reserved": 0, "fusion_lon": 0.0, "fusion_lat": 0.0, "lon": -77.06359966666666, "name": "ca04fbc37873b2865daff5d9de2d72dd"}, {"bike_id": "eb32ea9db184ea31cc9522ef95587bd2", "type": "electric_scooter", "is_disabled": 0, "lat": 38.90011033333333, "rental_uris": {"ios": "https://dc.lft.to/lastmile_qr_scan", "android": "https://dc.lft.to/lastmile_qr_scan"}, "is_reserved": 0, "fusion_lon": 0.0, "fusion_lat": 0.0, "lon": -77.00381033333333, "name": "eb32ea9db184ea31cc9522ef95587bd2"}, {"bike_id": "01cac17f2cf943dc4a32420c1fee342b", "type": "electric_scooter", "is_disabled": 0, "lat": 38.90470583333333, "rental_uris": {"ios": "https://dc.lft.to/lastmile_qr_scan", "android": "https://dc.lft.to/lastmile_qr_scan"}, "is_reserved": 0, "fusion_lon": 0.0, "fusion_lat": 0.0, "lon": -76.976119, "name": "01cac17f2cf943dc4a32420c1fee342b"}, {"bike_id": "6b28528f63c680e82e67c89401ceacc2", "type": "electric_scooter", "is_disabled": 0, "lat": 38.904908, "rental_uris": {"ios": "https://dc.lft.to/lastmile_qr_scan", "android": "https://dc.lft.to/lastmile_qr_scan"}, "is_reserved": 0, "fusion_lon": 0.0, "fusion_lat": 0.0, "lon": -77.057293, "name": "6b28528f63c680e82e67c89401ceacc2"}, {"bike_id": "f0ed229d16d19d345cf354c905336c34", "type": "electric_bike", "is_disabled": 0, "lat": 38.882451333333336, "rental_uris": {"ios": "https://dc.lft.to/lastmile_qr_scan", "android": "https://dc.lft.to/lastmile_qr_scan"}, "is_reserved": 0, "fusion_lon": 0.0, "fusion_lat": 0.0, "lon": -76.9625785, "name": "f0ed229d16d19d345cf354c905336c34"}, {"bike_id": "5ad44f65e1857a2848f072e3134cf49f", "type": "electric_scooter", "is_disabled": 0, "lat": 38.922507833333334, "rental_uris": {"ios": "https://dc.lft.to/lastmile_qr_scan", "android": "https://dc.lft.to/lastmile_qr_scan"}, "is_reserved": 0, "fusion_lon": 0.0, "fusion_lat": 0.0, "lon": -77.04212466666667, "name": "5ad44f65e1857a2848f072e3134cf49f"}, {"bike_id": "008e192311a9704c151cd00e565746e9", "type": "electric_bike", "is_disabled": 0, "lat": 38.93228116666667, "rental_uris": {"ios": "https://dc.lft.to/lastmile_qr_scan", "android": "https://dc.lft.to/lastmile_qr_scan"}, "is_reserved": 0, "fusion_lon": 0.0, "fusion_lat": 0.0, "lon": -77.18122816666667, "name": "008e192311a9704c151cd00e565746e9"}, {"bike_id": "4c1bb406dd37aec713d7a5532d6327ba", "type": "electric_bike", "is_disabled": 0, "lat": 38.93446616666667, "rental_uris": {"ios": "https://dc.lft.to/lastmile_qr_scan", "android": "https://dc.lft.to/lastmile_qr_scan"}, "is_reserved": 0, "fusion_lon": 0.0, "fusion_lat": 0.0, "lon": -77.04113433333333, "name": "4c1bb406dd37aec713d7a5532d6327ba"}, {"bike_id": "6434ae33833b9824481e957587d858b0", "type": "electric_scooter", "is_disabled": 0, "lat": 38.929556833333336, "rental_uris": {"ios": "https://dc.lft.to/lastmile_qr_scan", "android": "https://dc.lft.to/lastmile_qr_scan"}, "is_reserved": 0, "fusion_lon": 0.0, "fusion_lat": 0.0, "lon": -77.044072, "name": "6434ae33833b9824481e957587d858b0"}, {"bike_id": "d39d6d8f6cc26a3333a9e86ffdcd0655", "type": "electric_scooter", "is_disabled": 0, "lat": 38.9345885, "rental_uris": {"ios": "https://dc.lft.to/lastmile_qr_scan", "android": "https://dc.lft.to/lastmile_qr_scan"}, "is_reserved": 0, "fusion_lon": 0.0, "fusion_lat": 0.0, "lon": -77.027967, "name": "d39d6d8f6cc26a3333a9e86ffdcd0655"}, {"bike_id": "63ec3f53e235e600e056c6bc1847d32e", "type": "electric_scooter", "is_disabled": 0, "lat": 38.866571666666665, "rental_uris": {"ios": "https://dc.lft.to/lastmile_qr_scan", "android": "https://dc.lft.to/lastmile_qr_scan"}, "is_reserved": 0, "fusion_lon": 0.0, "fusion_lat": 0.0, "lon": -76.9888355, "name": "63ec3f53e235e600e056c6bc1847d32e"}, {"bike_id": "6df87a731eedd4ed8d31234feae7eaa0", "type": "electric_scooter", "is_disabled": 0, "lat": 38.913538, "rental_uris": {"ios": "https://dc.lft.to/lastmile_qr_scan", "android": "https://dc.lft.to/lastmile_qr_scan"}, "is_reserved": 0, "fusion_lon": 0.0, "fusion_lat": 0.0, "lon": -77.04565383333333, "name": "6df87a731eedd4ed8d31234feae7eaa0"}, {"bike_id": "73c776a8cf5cc5f95538d1af80008a5c", "type": "electric_scooter", "is_disabled": 0, "lat": 38.923248666666666, "rental_uris": {"ios": "https://dc.lft.to/lastmile_qr_scan", "android": "https://dc.lft.to/lastmile_qr_scan"}, "is_reserved": 0, "fusion_lon": 0.0, "fusion_lat": 0.0, "lon": -77.03614533333334, "name": "73c776a8cf5cc5f95538d1af80008a5c"}, {"bike_id": "429385eca40fdaae1b21989ad8eeb4c0", "type": "electric_scooter", "is_disabled": 0, "lat": 38.90427966666667, "rental_uris": {"ios": "https://dc.lft.to/lastmile_qr_scan", "android": "https://dc.lft.to/lastmile_qr_scan"}, "is_reserved": 0, "fusion_lon": 0.0, "fusion_lat": 0.0, "lon": -77.0688115, "name": "429385eca40fdaae1b21989ad8eeb4c0"}, {"bike_id": "3e1920ba9a1beba66dc81638845d2e23", "type": "electric_scooter", "is_disabled": 0, "lat": 38.929152333333334, "rental_uris": {"ios": "https://dc.lft.to/lastmile_qr_scan", "android": "https://dc.lft.to/lastmile_qr_scan"}, "is_reserved": 0, "fusion_lon": 0.0, "fusion_lat": 0.0, "lon": -77.02270566666667, "name": "3e1920ba9a1beba66dc81638845d2e23"}, {"bike_id": "49ae3f649435a3d3c519f09fd833665c", "type": "electric_scooter", "is_disabled": 0, "lat": 38.9040885, "rental_uris": {"ios": "https://dc.lft.to/lastmile_qr_scan", "android": "https://dc.lft.to/lastmile_qr_scan"}, "is_reserved": 0, "fusion_lon": 0.0, "fusion_lat": 0.0, "lon": -76.973303, "name": "49ae3f649435a3d3c519f09fd833665c"}, {"bike_id": "0f8998e6ec6b27bba003815343f07ce0", "type": "electric_scooter", "is_disabled": 0, "lat": 38.91030883333333, "rental_uris": {"ios": "https://dc.lft.to/lastmile_qr_scan", "android": "https://dc.lft.to/lastmile_qr_scan"}, "is_reserved": 0, "fusion_lon": 0.0, "fusion_lat": 0.0, "lon": -76.98663716666667, "name": "0f8998e6ec6b27bba003815343f07ce0"}, {"bike_id": "b73c68d8a18066357eac534171601e1a", "type": "electric_bike", "is_disabled": 0, "lat": 38.94473433333334, "rental_uris": {"ios": "https://dc.lft.to/lastmile_qr_scan", "android": "https://dc.lft.to/lastmile_qr_scan"}, "is_reserved": 0, "fusion_lon": 0.0, "fusion_lat": 0.0, "lon": -76.98688816666666, "name": "b73c68d8a18066357eac534171601e1a"}, {"bike_id": "b31ef88948a28c6110aad832eac7977b", "type": "electric_scooter", "is_disabled": 0, "lat": 38.909577, "rental_uris": {"ios": "https://dc.lft.to/lastmile_qr_scan", "android": "https://dc.lft.to/lastmile_qr_scan"}, "is_reserved": 0, "fusion_lon": 0.0, "fusion_lat": 0.0, "lon": -77.04484683333334, "name": "b31ef88948a28c6110aad832eac7977b"}, {"bike_id": "13f0bf602b9fde304174097180abd0fe", "type": "electric_scooter", "is_disabled": 0, "lat": 38.934211, "rental_uris": {"ios": "https://dc.lft.to/lastmile_qr_scan", "android": "https://dc.lft.to/lastmile_qr_scan"}, "is_reserved": 0, "fusion_lon": 0.0, "fusion_lat": 0.0, "lon": -77.07236083333333, "name": "13f0bf602b9fde304174097180abd0fe"}, {"bike_id": "c2b45eb63e6c490510d12c0f82d73dc4", "type": "electric_scooter", "is_disabled": 0, "lat": 38.880424166666664, "rental_uris": {"ios": "https://dc.lft.to/lastmile_qr_scan", "android": "https://dc.lft.to/lastmile_qr_scan"}, "is_reserved": 0, "fusion_lon": 0.0, "fusion_lat": 0.0, "lon": -77.02489833333334, "name": "c2b45eb63e6c490510d12c0f82d73dc4"}, {"bike_id": "7655d017025882cae2e9267e8644f4d2", "type": "electric_scooter", "is_disabled": 0, "lat": 38.89320716666667, "rental_uris": {"ios": "https://dc.lft.to/lastmile_qr_scan", "android": "https://dc.lft.to/lastmile_qr_scan"}, "is_reserved": 0, "fusion_lon": 0.0, "fusion_lat": 0.0, "lon": -77.0487645, "name": "7655d017025882cae2e9267e8644f4d2"}, {"bike_id": "f775d120e45ed1d8354d4886647e4b99", "type": "electric_scooter", "is_disabled": 0, "lat": 38.951513166666665, "rental_uris": {"ios": "https://dc.lft.to/lastmile_qr_scan", "android": "https://dc.lft.to/lastmile_qr_scan"}, "is_reserved": 0, "fusion_lon": 0.0, "fusion_lat": 0.0, "lon": -77.0186925, "name": "f775d120e45ed1d8354d4886647e4b99"}, {"bike_id": "d5a3c1224d4c29da315e58e953eb03f0", "type": "electric_scooter", "is_disabled": 0, "lat": 38.89539116666667, "rental_uris": {"ios": "https://dc.lft.to/lastmile_qr_scan", "android": "https://dc.lft.to/lastmile_qr_scan"}, "is_reserved": 0, "fusion_lon": 0.0, "fusion_lat": 0.0, "lon": -76.94892766666666, "name": "d5a3c1224d4c29da315e58e953eb03f0"}, {"bike_id": "c3a79b70c7015e1e5e464b6124be52f6", "type": "electric_scooter", "is_disabled": 0, "lat": 38.8936125, "rental_uris": {"ios": "https://dc.lft.to/lastmile_qr_scan", "android": "https://dc.lft.to/lastmile_qr_scan"}, "is_reserved": 0, "fusion_lon": 0.0, "fusion_lat": 0.0, "lon": -76.99788133333334, "name": "c3a79b70c7015e1e5e464b6124be52f6"}, {"bike_id": "a10d97720f9d4d2f1ddb9ca1642c408d", "type": "electric_scooter", "is_disabled": 0, "lat": 38.89881116666667, "rental_uris": {"ios": "https://dc.lft.to/lastmile_qr_scan", "android": "https://dc.lft.to/lastmile_qr_scan"}, "is_reserved": 0, "fusion_lon": 0.0, "fusion_lat": 0.0, "lon": -77.01507916666667, "name": "a10d97720f9d4d2f1ddb9ca1642c408d"}, {"bike_id": "d6230a561941b6bff5dbaf12ca9567fd", "type": "electric_scooter", "is_disabled": 0, "lat": 38.89004333333333, "rental_uris": {"ios": "https://dc.lft.to/lastmile_qr_scan", "android": "https://dc.lft.to/lastmile_qr_scan"}, "is_reserved": 0, "fusion_lon": 0.0, "fusion_lat": 0.0, "lon": -76.9374745, "name": "d6230a561941b6bff5dbaf12ca9567fd"}, {"bike_id": "95d89a25e274a8bc8287181576596d0d", "type": "electric_scooter", "is_disabled": 0, "lat": 38.9024065, "rental_uris": {"ios": "https://dc.lft.to/lastmile_qr_scan", "android": "https://dc.lft.to/lastmile_qr_scan"}, "is_reserved": 0, "fusion_lon": 0.0, "fusion_lat": 0.0, "lon": -77.00075566666666, "name": "95d89a25e274a8bc8287181576596d0d"}, {"bike_id": "3f914a25730c0d85ed8fd11322a2d927", "type": "electric_scooter", "is_disabled": 0, "lat": 38.90290916666667, "rental_uris": {"ios": "https://dc.lft.to/lastmile_qr_scan", "android": "https://dc.lft.to/lastmile_qr_scan"}, "is_reserved": 0, "fusion_lon": 0.0, "fusion_lat": 0.0, "lon": -77.04474866666666, "name": "3f914a25730c0d85ed8fd11322a2d927"}, {"bike_id": "b5265aa5debaca702f00b694518b758e", "type": "electric_scooter", "is_disabled": 0, "lat": 38.93135633333333, "rental_uris": {"ios": "https://dc.lft.to/lastmile_qr_scan", "android": "https://dc.lft.to/lastmile_qr_scan"}, "is_reserved": 0, "fusion_lon": 0.0, "fusion_lat": 0.0, "lon": -76.99566566666667, "name": "b5265aa5debaca702f00b694518b758e"}, {"bike_id": "9ae206e5a90f05e0af41cfcc8783577f", "type": "electric_scooter", "is_disabled": 0, "lat": 38.870527833333334, "rental_uris": {"ios": "https://dc.lft.to/lastmile_qr_scan", "android": "https://dc.lft.to/lastmile_qr_scan"}, "is_reserved": 0, "fusion_lon": 0.0, "fusion_lat": 0.0, "lon": -77.00746616666666, "name": "9ae206e5a90f05e0af41cfcc8783577f"}, {"bike_id": "068ad1c28013751530ea964b6a1e6acd", "type": "electric_scooter", "is_disabled": 0, "lat": 38.917688166666665, "rental_uris": {"ios": "https://dc.lft.to/lastmile_qr_scan", "android": "https://dc.lft.to/lastmile_qr_scan"}, "is_reserved": 0, "fusion_lon": 0.0, "fusion_lat": 0.0, "lon": -77.047662, "name": "068ad1c28013751530ea964b6a1e6acd"}, {"bike_id": "4d8c4c9f7d65ffa33cb1baa7e11e4cc0", "type": "electric_scooter", "is_disabled": 0, "lat": 38.92836716666667, "rental_uris": {"ios": "https://dc.lft.to/lastmile_qr_scan", "android": "https://dc.lft.to/lastmile_qr_scan"}, "is_reserved": 0, "fusion_lon": 0.0, "fusion_lat": 0.0, "lon": -77.0232685, "name": "4d8c4c9f7d65ffa33cb1baa7e11e4cc0"}, {"bike_id": "1404a084cd540fa0defe75beb8874a9c", "type": "electric_scooter", "is_disabled": 0, "lat": 38.921437, "rental_uris": {"ios": "https://dc.lft.to/lastmile_qr_scan", "android": "https://dc.lft.to/lastmile_qr_scan"}, "is_reserved": 0, "fusion_lon": 0.0, "fusion_lat": 0.0, "lon": -77.0181065, "name": "1404a084cd540fa0defe75beb8874a9c"}, {"bike_id": "990d987cd32e6013056b627fe03c8770", "type": "electric_scooter", "is_disabled": 0, "lat": 38.928398333333334, "rental_uris": {"ios": "https://dc.lft.to/lastmile_qr_scan", "android": "https://dc.lft.to/lastmile_qr_scan"}, "is_reserved": 0, "fusion_lon": 0.0, "fusion_lat": 0.0, "lon": -77.0551485, "name": "990d987cd32e6013056b627fe03c8770"}, {"bike_id": "51999ed17b49c10b332cd1a474f5fcd1", "type": "electric_scooter", "is_disabled": 0, "lat": 38.8637795, "rental_uris": {"ios": "https://dc.lft.to/lastmile_qr_scan", "android": "https://dc.lft.to/lastmile_qr_scan"}, "is_reserved": 0, "fusion_lon": 0.0, "fusion_lat": 0.0, "lon": -76.99059483333333, "name": "51999ed17b49c10b332cd1a474f5fcd1"}, {"bike_id": "bc30aec7b74afa4f648a136c1153fbd8", "type": "electric_scooter", "is_disabled": 0, "lat": 38.929673666666666, "rental_uris": {"ios": "https://dc.lft.to/lastmile_qr_scan", "android": "https://dc.lft.to/lastmile_qr_scan"}, "is_reserved": 0, "fusion_lon": 0.0, "fusion_lat": 0.0, "lon": -77.0281815, "name": "bc30aec7b74afa4f648a136c1153fbd8"}, {"bike_id": "4b702f7761cf04e04eeeaa2861be99c4", "type": "electric_scooter", "is_disabled": 0, "lat": 38.8842035, "rental_uris": {"ios": "https://dc.lft.to/lastmile_qr_scan", "android": "https://dc.lft.to/lastmile_qr_scan"}, "is_reserved": 0, "fusion_lon": 0.0, "fusion_lat": 0.0, "lon": -77.00746316666667, "name": "4b702f7761cf04e04eeeaa2861be99c4"}, {"bike_id": "009ec1f14f47b0fdee3f9d9124079bc2", "type": "electric_bike", "is_disabled": 0, "lat": 38.956276333333335, "rental_uris": {"ios": "https://dc.lft.to/lastmile_qr_scan", "android": "https://dc.lft.to/lastmile_qr_scan"}, "is_reserved": 0, "fusion_lon": 0.0, "fusion_lat": 0.0, "lon": -76.93873683333334, "name": "009ec1f14f47b0fdee3f9d9124079bc2"}, {"bike_id": "b63ac54d0a705dc9c9c41faab73d8aa7", "type": "electric_bike", "is_disabled": 0, "lat": 38.940224, "rental_uris": {"ios": "https://dc.lft.to/lastmile_qr_scan", "android": "https://dc.lft.to/lastmile_qr_scan"}, "is_reserved": 0, "fusion_lon": 0.0, "fusion_lat": 0.0, "lon": -76.97608216666667, "name": "b63ac54d0a705dc9c9c41faab73d8aa7"}, {"bike_id": "c0f11cadc0456bde35299665c6f517df", "type": "electric_scooter", "is_disabled": 0, "lat": 38.984392, "rental_uris": {"ios": "https://dc.lft.to/lastmile_qr_scan", "android": "https://dc.lft.to/lastmile_qr_scan"}, "is_reserved": 0, "fusion_lon": 0.0, "fusion_lat": 0.0, "lon": -77.02676366666667, "name": "c0f11cadc0456bde35299665c6f517df"}, {"bike_id": "056a50f545b2ea513249d219899ca180", "type": "electric_scooter", "is_disabled": 0, "lat": 38.9009975, "rental_uris": {"ios": "https://dc.lft.to/lastmile_qr_scan", "android": "https://dc.lft.to/lastmile_qr_scan"}, "is_reserved": 0, "fusion_lon": 0.0, "fusion_lat": 0.0, "lon": -77.0383385, "name": "056a50f545b2ea513249d219899ca180"}, {"bike_id": "673bc70db0b50864e2c30c1e9d40a4f5", "type": "electric_scooter", "is_disabled": 0, "lat": 38.90291883333333, "rental_uris": {"ios": "https://dc.lft.to/lastmile_qr_scan", "android": "https://dc.lft.to/lastmile_qr_scan"}, "is_reserved": 0, "fusion_lon": 0.0, "fusion_lat": 0.0, "lon": -77.04472, "name": "673bc70db0b50864e2c30c1e9d40a4f5"}, {"bike_id": "e0bc67ed057723df0e475a5a3378caff", "type": "electric_scooter", "is_disabled": 0, "lat": 38.91900966666667, "rental_uris": {"ios": "https://dc.lft.to/lastmile_qr_scan", "android": "https://dc.lft.to/lastmile_qr_scan"}, "is_reserved": 0, "fusion_lon": 0.0, "fusion_lat": 0.0, "lon": -77.04620116666666, "name": "e0bc67ed057723df0e475a5a3378caff"}, {"bike_id": "e6990d0053cc868ba3b378ab0a1f62c9", "type": "electric_scooter", "is_disabled": 0, "lat": 38.89117366666667, "rental_uris": {"ios": "https://dc.lft.to/lastmile_qr_scan", "android": "https://dc.lft.to/lastmile_qr_scan"}, "is_reserved": 0, "fusion_lon": 0.0, "fusion_lat": 0.0, "lon": -76.99156933333333, "name": "e6990d0053cc868ba3b378ab0a1f62c9"}, {"bike_id": "68d94e14932b08aab5a1175b1fef966a", "type": "electric_scooter", "is_disabled": 0, "lat": 38.9126725, "rental_uris": {"ios": "https://dc.lft.to/lastmile_qr_scan", "android": "https://dc.lft.to/lastmile_qr_scan"}, "is_reserved": 0, "fusion_lon": 0.0, "fusion_lat": 0.0, "lon": -77.067941, "name": "68d94e14932b08aab5a1175b1fef966a"}, {"bike_id": "3c449c1a6dbdf431b37b14b02b6d92d1", "type": "electric_scooter", "is_disabled": 0, "lat": 38.88839016666667, "rental_uris": {"ios": "https://dc.lft.to/lastmile_qr_scan", "android": "https://dc.lft.to/lastmile_qr_scan"}, "is_reserved": 0, "fusion_lon": 0.0, "fusion_lat": 0.0, "lon": -77.04846033333334, "name": "3c449c1a6dbdf431b37b14b02b6d92d1"}, {"bike_id": "c5f43a9a0c92118977c1f9e888ef7686", "type": "electric_scooter", "is_disabled": 0, "lat": 38.9085315, "rental_uris": {"ios": "https://dc.lft.to/lastmile_qr_scan", "android": "https://dc.lft.to/lastmile_qr_scan"}, "is_reserved": 0, "fusion_lon": 0.0, "fusion_lat": 0.0, "lon": -76.99965533333334, "name": "c5f43a9a0c92118977c1f9e888ef7686"}, {"bike_id": "793f06daf3b24762f8b838b35d5e4e56", "type": "electric_scooter", "is_disabled": 0, "lat": 38.86217416666667, "rental_uris": {"ios": "https://dc.lft.to/lastmile_qr_scan", "android": "https://dc.lft.to/lastmile_qr_scan"}, "is_reserved": 0, "fusion_lon": 0.0, "fusion_lat": 0.0, "lon": -76.99486316666666, "name": "793f06daf3b24762f8b838b35d5e4e56"}, {"bike_id": "9aa53fd1daa7c34929091da7505c7c6d", "type": "electric_scooter", "is_disabled": 0, "lat": 38.9147745, "rental_uris": {"ios": "https://dc.lft.to/lastmile_qr_scan", "android": "https://dc.lft.to/lastmile_qr_scan"}, "is_reserved": 0, "fusion_lon": 0.0, "fusion_lat": 0.0, "lon": -77.002873, "name": "9aa53fd1daa7c34929091da7505c7c6d"}, {"bike_id": "bd6144c4b865786e0f78c55e17a5d945", "type": "electric_scooter", "is_disabled": 0, "lat": 38.939513166666664, "rental_uris": {"ios": "https://dc.lft.to/lastmile_qr_scan", "android": "https://dc.lft.to/lastmile_qr_scan"}, "is_reserved": 0, "fusion_lon": 0.0, "fusion_lat": 0.0, "lon": -77.072496, "name": "bd6144c4b865786e0f78c55e17a5d945"}, {"bike_id": "1f677c0911cbd7da031c0a2acdb6f6d5", "type": "electric_scooter", "is_disabled": 0, "lat": 38.9324355, "rental_uris": {"ios": "https://dc.lft.to/lastmile_qr_scan", "android": "https://dc.lft.to/lastmile_qr_scan"}, "is_reserved": 0, "fusion_lon": 0.0, "fusion_lat": 0.0, "lon": -77.03851533333334, "name": "1f677c0911cbd7da031c0a2acdb6f6d5"}, {"bike_id": "ed0ff843a37bd325542c96db8b95e487", "type": "electric_scooter", "is_disabled": 0, "lat": 38.922648833333334, "rental_uris": {"ios": "https://dc.lft.to/lastmile_qr_scan", "android": "https://dc.lft.to/lastmile_qr_scan"}, "is_reserved": 0, "fusion_lon": 0.0, "fusion_lat": 0.0, "lon": -77.01883783333334, "name": "ed0ff843a37bd325542c96db8b95e487"}, {"bike_id": "6a73b1b874f89815bc44f10aeb805d46", "type": "electric_scooter", "is_disabled": 0, "lat": 38.91913916666667, "rental_uris": {"ios": "https://dc.lft.to/lastmile_qr_scan", "android": "https://dc.lft.to/lastmile_qr_scan"}, "is_reserved": 0, "fusion_lon": 0.0, "fusion_lat": 0.0, "lon": -77.03420933333334, "name": "6a73b1b874f89815bc44f10aeb805d46"}, {"bike_id": "729e7ae509cd9cb8e07012816849a99a", "type": "electric_scooter", "is_disabled": 0, "lat": 38.882681833333336, "rental_uris": {"ios": "https://dc.lft.to/lastmile_qr_scan", "android": "https://dc.lft.to/lastmile_qr_scan"}, "is_reserved": 0, "fusion_lon": 0.0, "fusion_lat": 0.0, "lon": -76.99244433333334, "name": "729e7ae509cd9cb8e07012816849a99a"}, {"bike_id": "243916f5eaefebc4a8af42f30db8d36f", "type": "electric_scooter", "is_disabled": 0, "lat": 38.905048, "rental_uris": {"ios": "https://dc.lft.to/lastmile_qr_scan", "android": "https://dc.lft.to/lastmile_qr_scan"}, "is_reserved": 0, "fusion_lon": 0.0, "fusion_lat": 0.0, "lon": -77.0637825, "name": "243916f5eaefebc4a8af42f30db8d36f"}, {"bike_id": "3140b62369c4457b99de7b9100b6a023", "type": "electric_scooter", "is_disabled": 0, "lat": 38.91700483333334, "rental_uris": {"ios": "https://dc.lft.to/lastmile_qr_scan", "android": "https://dc.lft.to/lastmile_qr_scan"}, "is_reserved": 0, "fusion_lon": 0.0, "fusion_lat": 0.0, "lon": -77.040854, "name": "3140b62369c4457b99de7b9100b6a023"}, {"bike_id": "4f9e61d056ef8eefe65613c3575e0e77", "type": "electric_scooter", "is_disabled": 0, "lat": 38.90823916666667, "rental_uris": {"ios": "https://dc.lft.to/lastmile_qr_scan", "android": "https://dc.lft.to/lastmile_qr_scan"}, "is_reserved": 0, "fusion_lon": 0.0, "fusion_lat": 0.0, "lon": -77.02389733333334, "name": "4f9e61d056ef8eefe65613c3575e0e77"}, {"bike_id": "932d0f8d7b9ca720f4ee24babebe3542", "type": "electric_scooter", "is_disabled": 0, "lat": 38.9068695, "rental_uris": {"ios": "https://dc.lft.to/lastmile_qr_scan", "android": "https://dc.lft.to/lastmile_qr_scan"}, "is_reserved": 0, "fusion_lon": 0.0, "fusion_lat": 0.0, "lon": -77.0634215, "name": "932d0f8d7b9ca720f4ee24babebe3542"}, {"bike_id": "057efe1f0ea854e6868a36d58edbe8e4", "type": "electric_scooter", "is_disabled": 0, "lat": 38.908575, "rental_uris": {"ios": "https://dc.lft.to/lastmile_qr_scan", "android": "https://dc.lft.to/lastmile_qr_scan"}, "is_reserved": 0, "fusion_lon": 0.0, "fusion_lat": 0.0, "lon": -77.05573133333333, "name": "057efe1f0ea854e6868a36d58edbe8e4"}, {"bike_id": "acae46b046926565fc869c0375f46ab5", "type": "electric_scooter", "is_disabled": 0, "lat": 38.90382866666667, "rental_uris": {"ios": "https://dc.lft.to/lastmile_qr_scan", "android": "https://dc.lft.to/lastmile_qr_scan"}, "is_reserved": 0, "fusion_lon": 0.0, "fusion_lat": 0.0, "lon": -77.06866216666667, "name": "acae46b046926565fc869c0375f46ab5"}, {"bike_id": "1502bd0ec4043fe18c28c82838d53a5c", "type": "electric_scooter", "is_disabled": 0, "lat": 38.92884, "rental_uris": {"ios": "https://dc.lft.to/lastmile_qr_scan", "android": "https://dc.lft.to/lastmile_qr_scan"}, "is_reserved": 0, "fusion_lon": 0.0, "fusion_lat": 0.0, "lon": -77.0324445, "name": "1502bd0ec4043fe18c28c82838d53a5c"}, {"bike_id": "94a3b9b4b9da69caa304aff58414ec07", "type": "electric_scooter", "is_disabled": 0, "lat": 38.943360166666665, "rental_uris": {"ios": "https://dc.lft.to/lastmile_qr_scan", "android": "https://dc.lft.to/lastmile_qr_scan"}, "is_reserved": 0, "fusion_lon": 0.0, "fusion_lat": 0.0, "lon": -77.01483333333333, "name": "94a3b9b4b9da69caa304aff58414ec07"}, {"bike_id": "869d7f7f3d2a7fc5e00e6f301760eedd", "type": "electric_scooter", "is_disabled": 0, "lat": 38.92150083333333, "rental_uris": {"ios": "https://dc.lft.to/lastmile_qr_scan", "android": "https://dc.lft.to/lastmile_qr_scan"}, "is_reserved": 0, "fusion_lon": 0.0, "fusion_lat": 0.0, "lon": -77.0434955, "name": "869d7f7f3d2a7fc5e00e6f301760eedd"}, {"bike_id": "51f461a010bc287c0c4dca13e981d8fe", "type": "electric_scooter", "is_disabled": 0, "lat": 38.919178333333335, "rental_uris": {"ios": "https://dc.lft.to/lastmile_qr_scan", "android": "https://dc.lft.to/lastmile_qr_scan"}, "is_reserved": 0, "fusion_lon": 0.0, "fusion_lat": 0.0, "lon": -77.0425065, "name": "51f461a010bc287c0c4dca13e981d8fe"}, {"bike_id": "52e03c8487b23a5ae284f8b975074349", "type": "electric_scooter", "is_disabled": 0, "lat": 38.9085325, "rental_uris": {"ios": "https://dc.lft.to/lastmile_qr_scan", "android": "https://dc.lft.to/lastmile_qr_scan"}, "is_reserved": 0, "fusion_lon": 0.0, "fusion_lat": 0.0, "lon": -76.99799783333333, "name": "52e03c8487b23a5ae284f8b975074349"}, {"bike_id": "5e3453dc3671669442563aa73983ae5a", "type": "electric_scooter", "is_disabled": 0, "lat": 38.920193833333336, "rental_uris": {"ios": "https://dc.lft.to/lastmile_qr_scan", "android": "https://dc.lft.to/lastmile_qr_scan"}, "is_reserved": 0, "fusion_lon": 0.0, "fusion_lat": 0.0, "lon": -77.03133233333334, "name": "5e3453dc3671669442563aa73983ae5a"}, {"bike_id": "333629b750cd36e7b3d29cfd2bc6e6be", "type": "electric_scooter", "is_disabled": 0, "lat": 38.89843916666667, "rental_uris": {"ios": "https://dc.lft.to/lastmile_qr_scan", "android": "https://dc.lft.to/lastmile_qr_scan"}, "is_reserved": 0, "fusion_lon": 0.0, "fusion_lat": 0.0, "lon": -76.94639433333333, "name": "333629b750cd36e7b3d29cfd2bc6e6be"}, {"bike_id": "893ad763a505e1345ddeea646f4ac960", "type": "electric_scooter", "is_disabled": 0, "lat": 38.903488833333334, "rental_uris": {"ios": "https://dc.lft.to/lastmile_qr_scan", "android": "https://dc.lft.to/lastmile_qr_scan"}, "is_reserved": 0, "fusion_lon": 0.0, "fusion_lat": 0.0, "lon": -77.06025016666666, "name": "893ad763a505e1345ddeea646f4ac960"}, {"bike_id": "2828ff992302e5ebbf6136fd9d8af665", "type": "electric_scooter", "is_disabled": 0, "lat": 38.890833, "rental_uris": {"ios": "https://dc.lft.to/lastmile_qr_scan", "android": "https://dc.lft.to/lastmile_qr_scan"}, "is_reserved": 0, "fusion_lon": 0.0, "fusion_lat": 0.0, "lon": -77.0404425, "name": "2828ff992302e5ebbf6136fd9d8af665"}, {"bike_id": "f8d303dc8641b845cad5b22ab6d1ece6", "type": "electric_scooter", "is_disabled": 0, "lat": 38.9142255, "rental_uris": {"ios": "https://dc.lft.to/lastmile_qr_scan", "android": "https://dc.lft.to/lastmile_qr_scan"}, "is_reserved": 0, "fusion_lon": 0.0, "fusion_lat": 0.0, "lon": -77.02183316666667, "name": "f8d303dc8641b845cad5b22ab6d1ece6"}, {"bike_id": "79add80f65933fad16cd610e8d4ad06b", "type": "electric_scooter", "is_disabled": 0, "lat": 38.86376383333333, "rental_uris": {"ios": "https://dc.lft.to/lastmile_qr_scan", "android": "https://dc.lft.to/lastmile_qr_scan"}, "is_reserved": 0, "fusion_lon": 0.0, "fusion_lat": 0.0, "lon": -76.99063183333334, "name": "79add80f65933fad16cd610e8d4ad06b"}, {"bike_id": "fa1a7d4a83ef3318f3011ae8b74931ba", "type": "electric_scooter", "is_disabled": 0, "lat": 38.8669125, "rental_uris": {"ios": "https://dc.lft.to/lastmile_qr_scan", "android": "https://dc.lft.to/lastmile_qr_scan"}, "is_reserved": 0, "fusion_lon": 0.0, "fusion_lat": 0.0, "lon": -76.98555483333334, "name": "fa1a7d4a83ef3318f3011ae8b74931ba"}, {"bike_id": "cc60c51861d0e103758753c9a8418aa8", "type": "electric_scooter", "is_disabled": 0, "lat": 38.878442166666666, "rental_uris": {"ios": "https://dc.lft.to/lastmile_qr_scan", "android": "https://dc.lft.to/lastmile_qr_scan"}, "is_reserved": 0, "fusion_lon": 0.0, "fusion_lat": 0.0, "lon": -77.00590066666666, "name": "cc60c51861d0e103758753c9a8418aa8"}, {"bike_id": "e9e9004e525549dbaa7304f19642ec23", "type": "electric_scooter", "is_disabled": 0, "lat": 38.9037885, "rental_uris": {"ios": "https://dc.lft.to/lastmile_qr_scan", "android": "https://dc.lft.to/lastmile_qr_scan"}, "is_reserved": 0, "fusion_lon": 0.0, "fusion_lat": 0.0, "lon": -77.06852883333333, "name": "e9e9004e525549dbaa7304f19642ec23"}, {"bike_id": "3eaa2df065322001186c7ea80ae9a3db", "type": "electric_scooter", "is_disabled": 0, "lat": 38.9100765, "rental_uris": {"ios": "https://dc.lft.to/lastmile_qr_scan", "android": "https://dc.lft.to/lastmile_qr_scan"}, "is_reserved": 0, "fusion_lon": 0.0, "fusion_lat": 0.0, "lon": -77.05277483333333, "name": "3eaa2df065322001186c7ea80ae9a3db"}, {"bike_id": "97ade39befafbd947a29e7d4a304d5a1", "type": "electric_scooter", "is_disabled": 0, "lat": 38.8794165, "rental_uris": {"ios": "https://dc.lft.to/lastmile_qr_scan", "android": "https://dc.lft.to/lastmile_qr_scan"}, "is_reserved": 0, "fusion_lon": 0.0, "fusion_lat": 0.0, "lon": -77.02377133333333, "name": "97ade39befafbd947a29e7d4a304d5a1"}, {"bike_id": "1345630503e81fd368a83e1c9ba35173", "type": "electric_scooter", "is_disabled": 0, "lat": 38.9273645, "rental_uris": {"ios": "https://dc.lft.to/lastmile_qr_scan", "android": "https://dc.lft.to/lastmile_qr_scan"}, "is_reserved": 0, "fusion_lon": 0.0, "fusion_lat": 0.0, "lon": -77.03439833333333, "name": "1345630503e81fd368a83e1c9ba35173"}, {"bike_id": "37dcc646dc3fe475f83681617de03e3c", "type": "electric_scooter", "is_disabled": 0, "lat": 38.93194283333333, "rental_uris": {"ios": "https://dc.lft.to/lastmile_qr_scan", "android": "https://dc.lft.to/lastmile_qr_scan"}, "is_reserved": 0, "fusion_lon": 0.0, "fusion_lat": 0.0, "lon": -77.0202565, "name": "37dcc646dc3fe475f83681617de03e3c"}, {"bike_id": "f6e820a793aad0d8340260e766555a71", "type": "electric_scooter", "is_disabled": 0, "lat": 38.9141985, "rental_uris": {"ios": "https://dc.lft.to/lastmile_qr_scan", "android": "https://dc.lft.to/lastmile_qr_scan"}, "is_reserved": 0, "fusion_lon": 0.0, "fusion_lat": 0.0, "lon": -77.031788, "name": "f6e820a793aad0d8340260e766555a71"}, {"bike_id": "285c8b9dfe49b85b117cf38d54d2c1ec", "type": "electric_scooter", "is_disabled": 0, "lat": 38.927788, "rental_uris": {"ios": "https://dc.lft.to/lastmile_qr_scan", "android": "https://dc.lft.to/lastmile_qr_scan"}, "is_reserved": 0, "fusion_lon": 0.0, "fusion_lat": 0.0, "lon": -76.98763733333334, "name": "285c8b9dfe49b85b117cf38d54d2c1ec"}, {"bike_id": "86782ae0ebb71948dc18416c6f5b7ca5", "type": "electric_scooter", "is_disabled": 0, "lat": 38.912006, "rental_uris": {"ios": "https://dc.lft.to/lastmile_qr_scan", "android": "https://dc.lft.to/lastmile_qr_scan"}, "is_reserved": 0, "fusion_lon": 0.0, "fusion_lat": 0.0, "lon": -77.03217366666667, "name": "86782ae0ebb71948dc18416c6f5b7ca5"}, {"bike_id": "d07802ae82906513f4d85718650591dc", "type": "electric_scooter", "is_disabled": 0, "lat": 38.905667, "rental_uris": {"ios": "https://dc.lft.to/lastmile_qr_scan", "android": "https://dc.lft.to/lastmile_qr_scan"}, "is_reserved": 0, "fusion_lon": 0.0, "fusion_lat": 0.0, "lon": -76.99795833333333, "name": "d07802ae82906513f4d85718650591dc"}, {"bike_id": "d375e01d77859b612d965e151fba9a56", "type": "electric_scooter", "is_disabled": 0, "lat": 38.93543866666667, "rental_uris": {"ios": "https://dc.lft.to/lastmile_qr_scan", "android": "https://dc.lft.to/lastmile_qr_scan"}, "is_reserved": 0, "fusion_lon": 0.0, "fusion_lat": 0.0, "lon": -77.023565, "name": "d375e01d77859b612d965e151fba9a56"}, {"bike_id": "0635c284427162615c0af299e978d257", "type": "electric_scooter", "is_disabled": 0, "lat": 38.909462166666664, "rental_uris": {"ios": "https://dc.lft.to/lastmile_qr_scan", "android": "https://dc.lft.to/lastmile_qr_scan"}, "is_reserved": 0, "fusion_lon": 0.0, "fusion_lat": 0.0, "lon": -77.0442625, "name": "0635c284427162615c0af299e978d257"}, {"bike_id": "2f4b352b8f9d01dd2b9323e3139b85d9", "type": "electric_scooter", "is_disabled": 0, "lat": 38.920261333333336, "rental_uris": {"ios": "https://dc.lft.to/lastmile_qr_scan", "android": "https://dc.lft.to/lastmile_qr_scan"}, "is_reserved": 0, "fusion_lon": 0.0, "fusion_lat": 0.0, "lon": -77.0312395, "name": "2f4b352b8f9d01dd2b9323e3139b85d9"}, {"bike_id": "33e14119ae4d0acf5623917532f978bc", "type": "electric_scooter", "is_disabled": 0, "lat": 38.89477933333333, "rental_uris": {"ios": "https://dc.lft.to/lastmile_qr_scan", "android": "https://dc.lft.to/lastmile_qr_scan"}, "is_reserved": 0, "fusion_lon": 0.0, "fusion_lat": 0.0, "lon": -76.94859733333334, "name": "33e14119ae4d0acf5623917532f978bc"}, {"bike_id": "61ac1b0ca24b831e78ea9534ef3e7e40", "type": "electric_scooter", "is_disabled": 0, "lat": 38.901546, "rental_uris": {"ios": "https://dc.lft.to/lastmile_qr_scan", "android": "https://dc.lft.to/lastmile_qr_scan"}, "is_reserved": 0, "fusion_lon": 0.0, "fusion_lat": 0.0, "lon": -77.05919683333333, "name": "61ac1b0ca24b831e78ea9534ef3e7e40"}, {"bike_id": "e17c962494def90e47d78ce47eaf3765", "type": "electric_scooter", "is_disabled": 0, "lat": 38.924402, "rental_uris": {"ios": "https://dc.lft.to/lastmile_qr_scan", "android": "https://dc.lft.to/lastmile_qr_scan"}, "is_reserved": 0, "fusion_lon": 0.0, "fusion_lat": 0.0, "lon": -77.0297, "name": "e17c962494def90e47d78ce47eaf3765"}, {"bike_id": "660292a9e974b9974b750e54941e6118", "type": "electric_bike", "is_disabled": 0, "lat": 38.97882383333334, "rental_uris": {"ios": "https://dc.lft.to/lastmile_qr_scan", "android": "https://dc.lft.to/lastmile_qr_scan"}, "is_reserved": 0, "fusion_lon": 0.0, "fusion_lat": 0.0, "lon": -77.06023666666667, "name": "660292a9e974b9974b750e54941e6118"}, {"bike_id": "3522467d9039bb73839104f7c7fb941e", "type": "electric_scooter", "is_disabled": 0, "lat": 38.93734466666667, "rental_uris": {"ios": "https://dc.lft.to/lastmile_qr_scan", "android": "https://dc.lft.to/lastmile_qr_scan"}, "is_reserved": 0, "fusion_lon": 0.0, "fusion_lat": 0.0, "lon": -77.02484616666666, "name": "3522467d9039bb73839104f7c7fb941e"}, {"bike_id": "9a1c9b06a7250fc321ba643d573f4da0", "type": "electric_scooter", "is_disabled": 0, "lat": 38.92133416666667, "rental_uris": {"ios": "https://dc.lft.to/lastmile_qr_scan", "android": "https://dc.lft.to/lastmile_qr_scan"}, "is_reserved": 0, "fusion_lon": 0.0, "fusion_lat": 0.0, "lon": -77.01811466666666, "name": "9a1c9b06a7250fc321ba643d573f4da0"}, {"bike_id": "74d45e9b522487d853d8f1ee8a8fbe81", "type": "electric_scooter", "is_disabled": 0, "lat": 38.92528683333333, "rental_uris": {"ios": "https://dc.lft.to/lastmile_qr_scan", "android": "https://dc.lft.to/lastmile_qr_scan"}, "is_reserved": 0, "fusion_lon": 0.0, "fusion_lat": 0.0, "lon": -77.04122383333333, "name": "74d45e9b522487d853d8f1ee8a8fbe81"}, {"bike_id": "90a290418d00bfe146eb52b07db6073c", "type": "electric_scooter", "is_disabled": 0, "lat": 38.91111466666667, "rental_uris": {"ios": "https://dc.lft.to/lastmile_qr_scan", "android": "https://dc.lft.to/lastmile_qr_scan"}, "is_reserved": 0, "fusion_lon": 0.0, "fusion_lat": 0.0, "lon": -77.02447616666667, "name": "90a290418d00bfe146eb52b07db6073c"}, {"bike_id": "b88ed4f63f1a243fabc9901b074a5dae", "type": "electric_scooter", "is_disabled": 0, "lat": 38.9471015, "rental_uris": {"ios": "https://dc.lft.to/lastmile_qr_scan", "android": "https://dc.lft.to/lastmile_qr_scan"}, "is_reserved": 0, "fusion_lon": 0.0, "fusion_lat": 0.0, "lon": -77.02772683333333, "name": "b88ed4f63f1a243fabc9901b074a5dae"}, {"bike_id": "51f5b5f764fb21cb0471a96e4d6f7433", "type": "electric_scooter", "is_disabled": 0, "lat": 38.927918, "rental_uris": {"ios": "https://dc.lft.to/lastmile_qr_scan", "android": "https://dc.lft.to/lastmile_qr_scan"}, "is_reserved": 0, "fusion_lon": 0.0, "fusion_lat": 0.0, "lon": -77.052623, "name": "51f5b5f764fb21cb0471a96e4d6f7433"}, {"bike_id": "db41cb3fc5e997f6c35ac539e5841e3a", "type": "electric_scooter", "is_disabled": 0, "lat": 38.90848916666667, "rental_uris": {"ios": "https://dc.lft.to/lastmile_qr_scan", "android": "https://dc.lft.to/lastmile_qr_scan"}, "is_reserved": 0, "fusion_lon": 0.0, "fusion_lat": 0.0, "lon": -76.99807433333334, "name": "db41cb3fc5e997f6c35ac539e5841e3a"}, {"bike_id": "65769a4781e02216e603ae5fa403e1d4", "type": "electric_scooter", "is_disabled": 0, "lat": 38.903791, "rental_uris": {"ios": "https://dc.lft.to/lastmile_qr_scan", "android": "https://dc.lft.to/lastmile_qr_scan"}, "is_reserved": 0, "fusion_lon": 0.0, "fusion_lat": 0.0, "lon": -77.00892683333333, "name": "65769a4781e02216e603ae5fa403e1d4"}, {"bike_id": "f02781f768f6a8b459ba469bded10813", "type": "electric_scooter", "is_disabled": 0, "lat": 38.862084333333335, "rental_uris": {"ios": "https://dc.lft.to/lastmile_qr_scan", "android": "https://dc.lft.to/lastmile_qr_scan"}, "is_reserved": 0, "fusion_lon": 0.0, "fusion_lat": 0.0, "lon": -76.99470766666667, "name": "f02781f768f6a8b459ba469bded10813"}, {"bike_id": "f0d3244eab55f741c374ae9409d45f84", "type": "electric_scooter", "is_disabled": 0, "lat": 38.8669635, "rental_uris": {"ios": "https://dc.lft.to/lastmile_qr_scan", "android": "https://dc.lft.to/lastmile_qr_scan"}, "is_reserved": 0, "fusion_lon": 0.0, "fusion_lat": 0.0, "lon": -76.98711533333334, "name": "f0d3244eab55f741c374ae9409d45f84"}, {"bike_id": "d69e7cef546bcaac3a9964ba17602a06", "type": "electric_scooter", "is_disabled": 0, "lat": 38.918259666666664, "rental_uris": {"ios": "https://dc.lft.to/lastmile_qr_scan", "android": "https://dc.lft.to/lastmile_qr_scan"}, "is_reserved": 0, "fusion_lon": 0.0, "fusion_lat": 0.0, "lon": -77.0455725, "name": "d69e7cef546bcaac3a9964ba17602a06"}, {"bike_id": "b024d80273bfc182186ad21da2e2e1a4", "type": "electric_scooter", "is_disabled": 0, "lat": 38.9381635, "rental_uris": {"ios": "https://dc.lft.to/lastmile_qr_scan", "android": "https://dc.lft.to/lastmile_qr_scan"}, "is_reserved": 0, "fusion_lon": 0.0, "fusion_lat": 0.0, "lon": -77.02713666666666, "name": "b024d80273bfc182186ad21da2e2e1a4"}, {"bike_id": "72944cc1705f1911ae939ac0e17ae929", "type": "electric_scooter", "is_disabled": 0, "lat": 38.913355333333335, "rental_uris": {"ios": "https://dc.lft.to/lastmile_qr_scan", "android": "https://dc.lft.to/lastmile_qr_scan"}, "is_reserved": 0, "fusion_lon": 0.0, "fusion_lat": 0.0, "lon": -77.03173583333333, "name": "72944cc1705f1911ae939ac0e17ae929"}, {"bike_id": "99977c1ce47ed4ec42ec13f3962f3ffe", "type": "electric_scooter", "is_disabled": 0, "lat": 38.9313625, "rental_uris": {"ios": "https://dc.lft.to/lastmile_qr_scan", "android": "https://dc.lft.to/lastmile_qr_scan"}, "is_reserved": 0, "fusion_lon": 0.0, "fusion_lat": 0.0, "lon": -77.05733966666666, "name": "99977c1ce47ed4ec42ec13f3962f3ffe"}, {"bike_id": "35ad7ffe54cc68ad74e57f3ebc9cb69a", "type": "electric_scooter", "is_disabled": 0, "lat": 38.90847333333333, "rental_uris": {"ios": "https://dc.lft.to/lastmile_qr_scan", "android": "https://dc.lft.to/lastmile_qr_scan"}, "is_reserved": 0, "fusion_lon": 0.0, "fusion_lat": 0.0, "lon": -76.99954883333334, "name": "35ad7ffe54cc68ad74e57f3ebc9cb69a"}, {"bike_id": "946b0133c937e5ce1f43f4b92b43397b", "type": "electric_scooter", "is_disabled": 0, "lat": 38.906952833333335, "rental_uris": {"ios": "https://dc.lft.to/lastmile_qr_scan", "android": "https://dc.lft.to/lastmile_qr_scan"}, "is_reserved": 0, "fusion_lon": 0.0, "fusion_lat": 0.0, "lon": -77.03816916666666, "name": "946b0133c937e5ce1f43f4b92b43397b"}, {"bike_id": "5362ce610d45cb48746ce1eec9a1ccf6", "type": "electric_scooter", "is_disabled": 0, "lat": 38.86672266666667, "rental_uris": {"ios": "https://dc.lft.to/lastmile_qr_scan", "android": "https://dc.lft.to/lastmile_qr_scan"}, "is_reserved": 0, "fusion_lon": 0.0, "fusion_lat": 0.0, "lon": -76.9852315, "name": "5362ce610d45cb48746ce1eec9a1ccf6"}, {"bike_id": "d4ed31af8ffd08d4c3298f94653c1c37", "type": "electric_scooter", "is_disabled": 0, "lat": 38.92406966666667, "rental_uris": {"ios": "https://dc.lft.to/lastmile_qr_scan", "android": "https://dc.lft.to/lastmile_qr_scan"}, "is_reserved": 0, "fusion_lon": 0.0, "fusion_lat": 0.0, "lon": -77.0506665, "name": "d4ed31af8ffd08d4c3298f94653c1c37"}, {"bike_id": "fbbbfbeb559c1987e9aafca643e5d5a6", "type": "electric_scooter", "is_disabled": 0, "lat": 38.882611833333335, "rental_uris": {"ios": "https://dc.lft.to/lastmile_qr_scan", "android": "https://dc.lft.to/lastmile_qr_scan"}, "is_reserved": 0, "fusion_lon": 0.0, "fusion_lat": 0.0, "lon": -76.9950685, "name": "fbbbfbeb559c1987e9aafca643e5d5a6"}, {"bike_id": "8cbbee62fc7916093126e1610debd9c8", "type": "electric_scooter", "is_disabled": 0, "lat": 38.92869683333333, "rental_uris": {"ios": "https://dc.lft.to/lastmile_qr_scan", "android": "https://dc.lft.to/lastmile_qr_scan"}, "is_reserved": 0, "fusion_lon": 0.0, "fusion_lat": 0.0, "lon": -77.01386916666667, "name": "8cbbee62fc7916093126e1610debd9c8"}, {"bike_id": "dade5cd770bfdbbf61d3db6bee226739", "type": "electric_scooter", "is_disabled": 0, "lat": 38.928504, "rental_uris": {"ios": "https://dc.lft.to/lastmile_qr_scan", "android": "https://dc.lft.to/lastmile_qr_scan"}, "is_reserved": 0, "fusion_lon": 0.0, "fusion_lat": 0.0, "lon": -77.01955733333334, "name": "dade5cd770bfdbbf61d3db6bee226739"}, {"bike_id": "054bd0317b5e90e38cd41ed83dd40c8b", "type": "electric_scooter", "is_disabled": 0, "lat": 38.914107333333334, "rental_uris": {"ios": "https://dc.lft.to/lastmile_qr_scan", "android": "https://dc.lft.to/lastmile_qr_scan"}, "is_reserved": 0, "fusion_lon": 0.0, "fusion_lat": 0.0, "lon": -77.01366866666666, "name": "054bd0317b5e90e38cd41ed83dd40c8b"}, {"bike_id": "56221081f9431826be13eccc3c2388ac", "type": "electric_scooter", "is_disabled": 0, "lat": 38.93584833333333, "rental_uris": {"ios": "https://dc.lft.to/lastmile_qr_scan", "android": "https://dc.lft.to/lastmile_qr_scan"}, "is_reserved": 0, "fusion_lon": 0.0, "fusion_lat": 0.0, "lon": -77.03808933333333, "name": "56221081f9431826be13eccc3c2388ac"}, {"bike_id": "8a03ceda71b78c8fe24cc99aab90b3ee", "type": "electric_scooter", "is_disabled": 0, "lat": 38.941161666666666, "rental_uris": {"ios": "https://dc.lft.to/lastmile_qr_scan", "android": "https://dc.lft.to/lastmile_qr_scan"}, "is_reserved": 0, "fusion_lon": 0.0, "fusion_lat": 0.0, "lon": -77.02543366666667, "name": "8a03ceda71b78c8fe24cc99aab90b3ee"}, {"bike_id": "c35c6d2493117d4942c4c40b462ea77a", "type": "electric_bike", "is_disabled": 0, "lat": 38.9517465, "rental_uris": {"ios": "https://dc.lft.to/lastmile_qr_scan", "android": "https://dc.lft.to/lastmile_qr_scan"}, "is_reserved": 0, "fusion_lon": 0.0, "fusion_lat": 0.0, "lon": -76.97731766666666, "name": "c35c6d2493117d4942c4c40b462ea77a"}, {"bike_id": "cd717b0b73d6b64cf3c68d0bf8053ee9", "type": "electric_scooter", "is_disabled": 0, "lat": 38.904876333333334, "rental_uris": {"ios": "https://dc.lft.to/lastmile_qr_scan", "android": "https://dc.lft.to/lastmile_qr_scan"}, "is_reserved": 0, "fusion_lon": 0.0, "fusion_lat": 0.0, "lon": -76.94959166666666, "name": "cd717b0b73d6b64cf3c68d0bf8053ee9"}, {"bike_id": "1554490153d4c4808ab291171e3fcdd2", "type": "electric_scooter", "is_disabled": 0, "lat": 38.924962, "rental_uris": {"ios": "https://dc.lft.to/lastmile_qr_scan", "android": "https://dc.lft.to/lastmile_qr_scan"}, "is_reserved": 0, "fusion_lon": 0.0, "fusion_lat": 0.0, "lon": -77.031836, "name": "1554490153d4c4808ab291171e3fcdd2"}, {"bike_id": "cf55547321644ad8ff5dacb946cef12a", "type": "electric_scooter", "is_disabled": 0, "lat": 38.90077016666667, "rental_uris": {"ios": "https://dc.lft.to/lastmile_qr_scan", "android": "https://dc.lft.to/lastmile_qr_scan"}, "is_reserved": 0, "fusion_lon": 0.0, "fusion_lat": 0.0, "lon": -77.01718933333333, "name": "cf55547321644ad8ff5dacb946cef12a"}, {"bike_id": "6c43a6637fdae99898dc3b5929698b8f", "type": "electric_scooter", "is_disabled": 0, "lat": 38.91608083333333, "rental_uris": {"ios": "https://dc.lft.to/lastmile_qr_scan", "android": "https://dc.lft.to/lastmile_qr_scan"}, "is_reserved": 0, "fusion_lon": 0.0, "fusion_lat": 0.0, "lon": -77.04503933333334, "name": "6c43a6637fdae99898dc3b5929698b8f"}, {"bike_id": "5981672022d97e12776ed2bdf44c30a9", "type": "electric_scooter", "is_disabled": 0, "lat": 38.90844333333333, "rental_uris": {"ios": "https://dc.lft.to/lastmile_qr_scan", "android": "https://dc.lft.to/lastmile_qr_scan"}, "is_reserved": 0, "fusion_lon": 0.0, "fusion_lat": 0.0, "lon": -77.02228533333333, "name": "5981672022d97e12776ed2bdf44c30a9"}, {"bike_id": "994c1ba7fbabe7a3cad7354a2081f9ab", "type": "electric_scooter", "is_disabled": 0, "lat": 38.90358333333333, "rental_uris": {"ios": "https://dc.lft.to/lastmile_qr_scan", "android": "https://dc.lft.to/lastmile_qr_scan"}, "is_reserved": 0, "fusion_lon": 0.0, "fusion_lat": 0.0, "lon": -77.02200216666667, "name": "994c1ba7fbabe7a3cad7354a2081f9ab"},