{"data": {"bikes": [{"is_disabled": 0, "is_reserved": 0, "fusion_lat": 0.0, "lat": 38.90548233333333, "fusion_lon": 0.0, "rental_uris": {"ios": "https://dc.lft.to/lastmile_qr_scan", "android": "https://dc.lft.to/lastmile_qr_scan"}, "lon": -77.02186416666666, "bike_id": "e820af5b2c117cd86bf99ecc079ea22d", "type": "electric_scooter", "name": "e820af5b2c117cd86bf99ecc079ea22d"}, {"is_disabled": 0, "is_reserved": 0, "fusion_lat": 0.0, "lat": 38.934797, "fusion_lon": 0.0, "rental_uris": {"ios": "https://dc.lft.to/lastmile_qr_scan", "android": "https://dc.lft.to/lastmile_qr_scan"}, "lon": -77.036037, "bike_id": "a5b7088d049c2a48072972e6057d751e", "type": "electric_scooter", "name": "a5b7088d049c2a48072972e6057d751e"}, {"is_disabled": 0, "is_reserved": 0, "fusion_lat": 0.0, "lat": 38.952384333333335, "fusion_lon": 0.0, "rental_uris": {"ios": "https://dc.lft.to/lastmile_qr_scan", "android": "https://dc.lft.to/lastmile_qr_scan"}, "lon": -76.97952933333333, "bike_id": "22066152d5debdd319d2a5b23e711729", "type": "electric_bike", "name": "22066152d5debdd319d2a5b23e711729"}, {"is_disabled": 0, "is_reserved": 0, "fusion_lat": 0.0, "lat": 38.89784933333333, "fusion_lon": 0.0, "rental_uris": {"ios": "https://dc.lft.to/lastmile_qr_scan", "android": "https://dc.lft.to/lastmile_qr_scan"}, "lon": -77.00751783333334, "bike_id": "b38ebc6dfe36377a8a31d7ca72285e84", "type": "electric_scooter", "name": "b38ebc6dfe36377a8a31d7ca72285e84"}, {"is_disabled": 0, "is_reserved": 0, "fusion_lat": 0.0, "lat": 38.89694183333334, "fusion_lon": 0.0, "rental_uris": {"ios": "https://dc.lft.to/lastmile_qr_scan", "android": "https://dc.lft.to/lastmile_qr_scan"}, "lon": -77.04335733333333, "bike_id": "47114aec21f9d3c866e3cdb69a4ce70a", "type": "electric_scooter", "name": "47114aec21f9d3c866e3cdb69a4ce70a"}, {"is_disabled": 0, "is_reserved": 0, "fusion_lat": 0.0, "lat": 38.90642066666667, "fusion_lon": 0.0, "rental_uris": {"ios": "https://dc.lft.to/lastmile_qr_scan", "android": "https://dc.lft.to/lastmile_qr_scan"}, "lon": -77.06900566666667, "bike_id": "08ebad29f978bdcbf4b856b5557f52cf", "type": "electric_scooter", "name": "08ebad29f978bdcbf4b856b5557f52cf"}, {"is_disabled": 0, "is_reserved": 0, "fusion_lat": 0.0, "lat": 38.894219666666665, "fusion_lon": 0.0, "rental_uris": {"ios": "https://dc.lft.to/lastmile_qr_scan", "android": "https://dc.lft.to/lastmile_qr_scan"}, "lon": -77.05594683333334, "bike_id": "a9857dc0d980894177c703a93f62d796", "type": "electric_scooter", "name": "a9857dc0d980894177c703a93f62d796"}, {"is_disabled": 0, "is_reserved": 0, "fusion_lat": 0.0, "lat": 38.896223166666665, "fusion_lon": 0.0, "rental_uris": {"ios": "https://dc.lft.to/lastmile_qr_scan", "android": "https://dc.lft.to/lastmile_qr_scan"}, "lon": -77.03165733333333, "bike_id": "773ea92ae2729ce85fdd4141ea53e10a", "type": "electric_scooter", "name": "773ea92ae2729ce85fdd4141ea53e10a"}, {"is_disabled": 0, "is_reserved": 0, "fusion_lat": 0.0, "lat": 38.91418216666667, "fusion_lon": 0.0, "rental_uris": {"ios": "https://dc.lft.to/lastmile_qr_scan", "android": "https://dc.lft.to/lastmile_qr_scan"}, "lon": -77.0317335, "bike_id": "b0a4cf49814d4eda45bf8a478f997505", "type": "electric_scooter", "name": "b0a4cf49814d4eda45bf8a478f997505"}, {"is_disabled": 0, "is_reserved": 0, "fusion_lat": 0.0, "lat": 38.911164166666666, "fusion_lon": 0.0, "rental_uris": {"ios": "https://dc.lft.to/lastmile_qr_scan", "android": "https://dc.lft.to/lastmile_qr_scan"}, "lon": -77.01112583333334, "bike_id": "b69dac0d4c05180247ae1d291b74aab5", "type": "electric_scooter", "name": "b69dac0d4c05180247ae1d291b74aab5"}, {"is_disabled": 0, "is_reserved": 0, "fusion_lat": 0.0, "lat": 38.9156425, "fusion_lon": 0.0, "rental_uris": {"ios": "https://dc.lft.to/lastmile_qr_scan", "android": "https://dc.lft.to/lastmile_qr_scan"}, "lon": -77.031864, "bike_id": "ede14c354e73fa97f650608ef50cdff8", "type": "electric_scooter", "name": "ede14c354e73fa97f650608ef50cdff8"}, {"is_disabled": 0, "is_reserved": 0, "fusion_lat": 0.0, "lat": 38.90068616666667, "fusion_lon": 0.0, "rental_uris": {"ios": "https://dc.lft.to/lastmile_qr_scan", "android": "https://dc.lft.to/lastmile_qr_scan"}, "lon": -76.94976933333334, "bike_id": "9108ba0bd661cf6430910be20f923897", "type": "electric_scooter", "name": "9108ba0bd661cf6430910be20f923897"}, {"is_disabled": 0, "is_reserved": 0, "fusion_lat": 0.0, "lat": 38.89827616666667, "fusion_lon": 0.0, "rental_uris": {"ios": "https://dc.lft.to/lastmile_qr_scan", "android": "https://dc.lft.to/lastmile_qr_scan"}, "lon": -77.033735, "bike_id": "34de842e11558907e3bc149e9b2c2c63", "type": "electric_scooter", "name": "34de842e11558907e3bc149e9b2c2c63"}, {"is_disabled": 0, "is_reserved": 0, "fusion_lat": 0.0, "lat": 38.90433933333333, "fusion_lon": 0.0, "rental_uris": {"ios": "https://dc.lft.to/lastmile_qr_scan", "android": "https://dc.lft.to/lastmile_qr_scan"}, "lon": -77.06289866666667, "bike_id": "efa5ec79a3464409a16e93c0530b7ad9", "type": "electric_bike", "name": "efa5ec79a3464409a16e93c0530b7ad9"}, {"is_disabled": 0, "is_reserved": 0, "fusion_lat": 0.0, "lat": 38.92792466666667, "fusion_lon": 0.0, "rental_uris": {"ios": "https://dc.lft.to/lastmile_qr_scan", "android": "https://dc.lft.to/lastmile_qr_scan"}, "lon": -77.0213115, "bike_id": "a31163e45e16c9aad227afa1e9c71cbf", "type": "electric_scooter", "name": "a31163e45e16c9aad227afa1e9c71cbf"}, {"is_disabled": 0, "is_reserved": 0, "fusion_lat": 0.0, "lat": 38.95241883333333, "fusion_lon": 0.0, "rental_uris": {"ios": "https://dc.lft.to/lastmile_qr_scan", "android": "https://dc.lft.to/lastmile_qr_scan"}, "lon": -76.9825115, "bike_id": "2fbcd352266f9526011c5978af07ba32", "type": "electric_bike", "name": "2fbcd352266f9526011c5978af07ba32"}, {"is_disabled": 0, "is_reserved": 0, "fusion_lat": 0.0, "lat": 38.89194783333333, "fusion_lon": 0.0, "rental_uris": {"ios": "https://dc.lft.to/lastmile_qr_scan", "android": "https://dc.lft.to/lastmile_qr_scan"}, "lon": -77.0317395, "bike_id": "008db9e4435889ef172500ae27a98fb2", "type": "electric_scooter", "name": "008db9e4435889ef172500ae27a98fb2"}, {"is_disabled": 0, "is_reserved": 0, "fusion_lat": 0.0, "lat": 38.9250295, "fusion_lon": 0.0, "rental_uris": {"ios": "https://dc.lft.to/lastmile_qr_scan", "android": "https://dc.lft.to/lastmile_qr_scan"}, "lon": -77.02445016666667, "bike_id": "e410cd0a18f19139c004f39916ad5d25", "type": "electric_scooter", "name": "e410cd0a18f19139c004f39916ad5d25"}, {"is_disabled": 0, "is_reserved": 0, "fusion_lat": 0.0, "lat": 38.92805883333333, "fusion_lon": 0.0, "rental_uris": {"ios": "https://dc.lft.to/lastmile_qr_scan", "android": "https://dc.lft.to/lastmile_qr_scan"}, "lon": -77.04334066666667, "bike_id": "6ddb844ac293ce2d05f27928c4fa47ff", "type": "electric_scooter", "name": "6ddb844ac293ce2d05f27928c4fa47ff"}, {"is_disabled": 0, "is_reserved": 0, "fusion_lat": 0.0, "lat": 38.92133366666667, "fusion_lon": 0.0, "rental_uris": {"ios": "https://dc.lft.to/lastmile_qr_scan", "android": "https://dc.lft.to/lastmile_qr_scan"}, "lon": -76.99397433333333, "bike_id": "b9e20eee755cbd42cc6f42b626f70d6d", "type": "electric_scooter", "name": "b9e20eee755cbd42cc6f42b626f70d6d"}, {"is_disabled": 0, "is_reserved": 0, "fusion_lat": 0.0, "lat": 38.92824383333333, "fusion_lon": 0.0, "rental_uris": {"ios": "https://dc.lft.to/lastmile_qr_scan", "android": "https://dc.lft.to/lastmile_qr_scan"}, "lon": -77.0225725, "bike_id": "70843d221cf06ea07f817789a8f58622", "type": "electric_scooter", "name": "70843d221cf06ea07f817789a8f58622"}, {"is_disabled": 0, "is_reserved": 0, "fusion_lat": 0.0, "lat": 38.91830983333333, "fusion_lon": 0.0, "rental_uris": {"ios": "https://dc.lft.to/lastmile_qr_scan", "android": "https://dc.lft.to/lastmile_qr_scan"}, "lon": -77.05313883333334, "bike_id": "a0b1ee61dfcfeac560c455f419a23b36", "type": "electric_scooter", "name": "a0b1ee61dfcfeac560c455f419a23b36"}, {"is_disabled": 0, "is_reserved": 0, "fusion_lat": 0.0, "lat": 38.840917166666664, "fusion_lon": 0.0, "rental_uris": {"ios": "https://dc.lft.to/lastmile_qr_scan", "android": "https://dc.lft.to/lastmile_qr_scan"}, "lon": -76.98710716666666, "bike_id": "138b20eee4ac396e13bf623b65af4165", "type": "electric_bike", "name": "138b20eee4ac396e13bf623b65af4165"}, {"is_disabled": 0, "is_reserved": 0, "fusion_lat": 0.0, "lat": 38.93459166666667, "fusion_lon": 0.0, "rental_uris": {"ios": "https://dc.lft.to/lastmile_qr_scan", "android": "https://dc.lft.to/lastmile_qr_scan"}, "lon": -77.02407233333334, "bike_id": "3785255c362575122b23518fccf40d9b", "type": "electric_scooter", "name": "3785255c362575122b23518fccf40d9b"}, {"is_disabled": 0, "is_reserved": 0, "fusion_lat": 0.0, "lat": 38.90663516666667, "fusion_lon": 0.0, "rental_uris": {"ios": "https://dc.lft.to/lastmile_qr_scan", "android": "https://dc.lft.to/lastmile_qr_scan"}, "lon": -77.02965816666666, "bike_id": "5c2c5510b42b89ff9bb796f429968ed0", "type": "electric_scooter", "name": "5c2c5510b42b89ff9bb796f429968ed0"}, {"is_disabled": 0, "is_reserved": 0, "fusion_lat": 0.0, "lat": 38.91039766666667, "fusion_lon": 0.0, "rental_uris": {"ios": "https://dc.lft.to/lastmile_qr_scan", "android": "https://dc.lft.to/lastmile_qr_scan"}, "lon": -77.04332116666667, "bike_id": "303b0436b30e72e4d52c5bb1f5691628", "type": "electric_scooter", "name": "303b0436b30e72e4d52c5bb1f5691628"}, {"is_disabled": 0, "is_reserved": 0, "fusion_lat": 0.0, "lat": 38.8839395, "fusion_lon": 0.0, "rental_uris": {"ios": "https://dc.lft.to/lastmile_qr_scan", "android": "https://dc.lft.to/lastmile_qr_scan"}, "lon": -77.04634733333333, "bike_id": "1de7d5772d0f23a5aba49d801e866be0", "type": "electric_bike", "name": "1de7d5772d0f23a5aba49d801e866be0"}, {"is_disabled": 0, "is_reserved": 0, "fusion_lat": 0.0, "lat": 38.92354666666667, "fusion_lon": 0.0, "rental_uris": {"ios": "https://dc.lft.to/lastmile_qr_scan", "android": "https://dc.lft.to/lastmile_qr_scan"}, "lon": -77.05281316666667, "bike_id": "8921dd385d826f27056e47906599c0ec", "type": "electric_scooter", "name": "8921dd385d826f27056e47906599c0ec"}, {"is_disabled": 0, "is_reserved": 0, "fusion_lat": 0.0, "lat": 38.8850275, "fusion_lon": 0.0, "rental_uris": {"ios": "https://dc.lft.to/lastmile_qr_scan", "android": "https://dc.lft.to/lastmile_qr_scan"}, "lon": -76.99838583333333, "bike_id": "22142b3aa59432bdb08a81d7beb33376", "type": "electric_scooter", "name": "22142b3aa59432bdb08a81d7beb33376"}, {"is_disabled": 0, "is_reserved": 0, "fusion_lat": 0.0, "lat": 38.9163685, "fusion_lon": 0.0, "rental_uris": {"ios": "https://dc.lft.to/lastmile_qr_scan", "android": "https://dc.lft.to/lastmile_qr_scan"}, "lon": -77.03190666666667, "bike_id": "2544bc03b28c31c355b511212643dfcd", "type": "electric_scooter", "name": "2544bc03b28c31c355b511212643dfcd"}, {"is_disabled": 0, "is_reserved": 0, "fusion_lat": 0.0, "lat": 38.8752375, "fusion_lon": 0.0, "rental_uris": {"ios": "https://dc.lft.to/lastmile_qr_scan", "android": "https://dc.lft.to/lastmile_qr_scan"}, "lon": -77.012308, "bike_id": "7e7751b0d760b1bc8c920cf821eb5ab9", "type": "electric_scooter", "name": "7e7751b0d760b1bc8c920cf821eb5ab9"}, {"is_disabled": 0, "is_reserved": 0, "fusion_lat": 0.0, "lat": 39.000734333333334, "fusion_lon": 0.0, "rental_uris": {"ios": "https://dc.lft.to/lastmile_qr_scan", "android": "https://dc.lft.to/lastmile_qr_scan"}, "lon": -77.0063145, "bike_id": "f1a578ac98143f4900877d279b9b40cf", "type": "electric_bike", "name": "f1a578ac98143f4900877d279b9b40cf"}, {"is_disabled": 0, "is_reserved": 0, "fusion_lat": 0.0, "lat": 38.87683583333333, "fusion_lon": 0.0, "rental_uris": {"ios": "https://dc.lft.to/lastmile_qr_scan", "android": "https://dc.lft.to/lastmile_qr_scan"}, "lon": -77.00055316666666, "bike_id": "5d6ca9345d366939e8d743c946b126e4", "type": "electric_scooter", "name": "5d6ca9345d366939e8d743c946b126e4"}, {"is_disabled": 0, "is_reserved": 0, "fusion_lat": 0.0, "lat": 38.93949466666667, "fusion_lon": 0.0, "rental_uris": {"ios": "https://dc.lft.to/lastmile_qr_scan", "android": "https://dc.lft.to/lastmile_qr_scan"}, "lon": -77.0218155, "bike_id": "1c5ce5a01a1973656049fc5531cd30aa", "type": "electric_scooter", "name": "1c5ce5a01a1973656049fc5531cd30aa"}, {"is_disabled": 0, "is_reserved": 0, "fusion_lat": 0.0, "lat": 38.91898033333333, "fusion_lon": 0.0, "rental_uris": {"ios": "https://dc.lft.to/lastmile_qr_scan", "android": "https://dc.lft.to/lastmile_qr_scan"}, "lon": -77.00045533333333, "bike_id": "250a92eeea3375409fe9f8de8b668197", "type": "electric_scooter", "name": "250a92eeea3375409fe9f8de8b668197"}, {"is_disabled": 0, "is_reserved": 0, "fusion_lat": 0.0, "lat": 38.927014166666666, "fusion_lon": 0.0, "rental_uris": {"ios": "https://dc.lft.to/lastmile_qr_scan", "android": "https://dc.lft.to/lastmile_qr_scan"}, "lon": -76.9607695, "bike_id": "9cc0c25b5fe9f6ff9f2a6d391551b40a", "type": "electric_scooter", "name": "9cc0c25b5fe9f6ff9f2a6d391551b40a"}, {"is_disabled": 0, "is_reserved": 0, "fusion_lat": 0.0, "lat": 38.954308833333336, "fusion_lon": 0.0, "rental_uris": {"ios": "https://dc.lft.to/lastmile_qr_scan", "android": "https://dc.lft.to/lastmile_qr_scan"}, "lon": -77.01851716666667, "bike_id": "369945ab4382063f68d5a475bf41b7e5", "type": "electric_scooter", "name": "369945ab4382063f68d5a475bf41b7e5"}, {"is_disabled": 0, "is_reserved": 0, "fusion_lat": 0.0, "lat": 38.8555325, "fusion_lon": 0.0, "rental_uris": {"ios": "https://dc.lft.to/lastmile_qr_scan", "android": "https://dc.lft.to/lastmile_qr_scan"}, "lon": -77.06401866666667, "bike_id": "c08aa5c047f6fb9be178af5f2ca885fb", "type": "electric_bike", "name": "c08aa5c047f6fb9be178af5f2ca885fb"}, {"is_disabled": 0, "is_reserved": 0, "fusion_lat": 0.0, "lat": 38.98366583333333, "fusion_lon": 0.0, "rental_uris": {"ios": "https://dc.lft.to/lastmile_qr_scan", "android": "https://dc.lft.to/lastmile_qr_scan"}, "lon": -76.98846316666666, "bike_id": "e2f586616b566bd8fbddcc793c967ffb", "type": "electric_bike", "name": "e2f586616b566bd8fbddcc793c967ffb"}, {"is_disabled": 0, "is_reserved": 0, "fusion_lat": 0.0, "lat": 38.896061, "fusion_lon": 0.0, "rental_uris": {"ios": "https://dc.lft.to/lastmile_qr_scan", "android": "https://dc.lft.to/lastmile_qr_scan"}, "lon": -77.0468385, "bike_id": "d6663eecd02527435278393a4f222008", "type": "electric_scooter", "name": "d6663eecd02527435278393a4f222008"}, {"is_disabled": 0, "is_reserved": 0, "fusion_lat": 0.0, "lat": 38.9112075, "fusion_lon": 0.0, "rental_uris": {"ios": "https://dc.lft.to/lastmile_qr_scan", "android": "https://dc.lft.to/lastmile_qr_scan"}, "lon": -77.03294883333334, "bike_id": "80a27b201cab8359bcb57af80fc6fa34", "type": "electric_scooter", "name": "80a27b201cab8359bcb57af80fc6fa34"}, {"is_disabled": 0, "is_reserved": 0, "fusion_lat": 0.0, "lat": 38.91779916666667, "fusion_lon": 0.0, "rental_uris": {"ios": "https://dc.lft.to/lastmile_qr_scan", "android": "https://dc.lft.to/lastmile_qr_scan"}, "lon": -77.023538, "bike_id": "d0d4c3c050c6437a15cd498c0e35e33c", "type": "electric_scooter", "name": "d0d4c3c050c6437a15cd498c0e35e33c"}, {"is_disabled": 0, "is_reserved": 0, "fusion_lat": 0.0, "lat": 38.8422255, "fusion_lon": 0.0, "rental_uris": {"ios": "https://dc.lft.to/lastmile_qr_scan", "android": "https://dc.lft.to/lastmile_qr_scan"}, "lon": -76.94891333333334, "bike_id": "319c68cde8ab76d269f654abffd17bf6", "type": "electric_bike", "name": "319c68cde8ab76d269f654abffd17bf6"}, {"is_disabled": 0, "is_reserved": 0, "fusion_lat": 0.0, "lat": 38.887719833333335, "fusion_lon": 0.0, "rental_uris": {"ios": "https://dc.lft.to/lastmile_qr_scan", "android": "https://dc.lft.to/lastmile_qr_scan"}, "lon": -76.93263866666666, "bike_id": "5946c91ceeea7c454d95249a93acf184", "type": "electric_scooter", "name": "5946c91ceeea7c454d95249a93acf184"}, {"is_disabled": 0, "is_reserved": 0, "fusion_lat": 0.0, "lat": 38.89749033333333, "fusion_lon": 0.0, "rental_uris": {"ios": "https://dc.lft.to/lastmile_qr_scan", "android": "https://dc.lft.to/lastmile_qr_scan"}, "lon": -77.019897, "bike_id": "f036a2005fab3f5595b0a1646d9c6a71", "type": "electric_scooter", "name": "f036a2005fab3f5595b0a1646d9c6a71"}, {"is_disabled": 0, "is_reserved": 0, "fusion_lat": 0.0, "lat": 38.9214865, "fusion_lon": 0.0, "rental_uris": {"ios": "https://dc.lft.to/lastmile_qr_scan", "android": "https://dc.lft.to/lastmile_qr_scan"}, "lon": -77.03655833333333, "bike_id": "e5d403c964886860eac9925c7e321bdd", "type": "electric_scooter", "name": "e5d403c964886860eac9925c7e321bdd"}, {"is_disabled": 0, "is_reserved": 0, "fusion_lat": 0.0, "lat": 38.920682166666666, "fusion_lon": 0.0, "rental_uris": {"ios": "https://dc.lft.to/lastmile_qr_scan", "android": "https://dc.lft.to/lastmile_qr_scan"}, "lon": -77.02567933333333, "bike_id": "462f3d8b5671eeac72525fcfb8012b5f", "type": "electric_scooter", "name": "462f3d8b5671eeac72525fcfb8012b5f"}, {"is_disabled": 0, "is_reserved": 0, "fusion_lat": 0.0, "lat": 38.879048, "fusion_lon": 0.0, "rental_uris": {"ios": "https://dc.lft.to/lastmile_qr_scan", "android": "https://dc.lft.to/lastmile_qr_scan"}, "lon": -77.00561766666667, "bike_id": "088f66231d1715af82a42f03cb244b15", "type": "electric_scooter", "name": "088f66231d1715af82a42f03cb244b15"}, {"is_disabled": 0, "is_reserved": 0, "fusion_lat": 0.0, "lat": 38.904713666666666, "fusion_lon": 0.0, "rental_uris": {"ios": "https://dc.lft.to/lastmile_qr_scan", "android": "https://dc.lft.to/lastmile_qr_scan"}, "lon": -76.9505405, "bike_id": "583ac255d218b0662e31716fc2f5f57e", "type": "electric_scooter", "name": "583ac255d218b0662e31716fc2f5f57e"}, {"is_disabled": 0, "is_reserved": 0, "fusion_lat": 0.0, "lat": 38.9012815, "fusion_lon": 0.0, "rental_uris": {"ios": "https://dc.lft.to/lastmile_qr_scan", "android": "https://dc.lft.to/lastmile_qr_scan"}, "lon": -77.00282866666667, "bike_id": "4135d0623b347475dd06e780d1e810f1", "type": "electric_scooter", "name": "4135d0623b347475dd06e780d1e810f1"}, {"is_disabled": 0, "is_reserved": 0, "fusion_lat": 0.0, "lat": 38.92434266666667, "fusion_lon": 0.0, "rental_uris": {"ios": "https://dc.lft.to/lastmile_qr_scan", "android": "https://dc.lft.to/lastmile_qr_scan"}, "lon": -77.02981333333334, "bike_id": "5fa2172084d121581a56f7418f8ac61d", "type": "electric_scooter", "name": "5fa2172084d121581a56f7418f8ac61d"}, {"is_disabled": 0, "is_reserved": 0, "fusion_lat": 0.0, "lat": 38.90067583333333, "fusion_lon": 0.0, "rental_uris": {"ios": "https://dc.lft.to/lastmile_qr_scan", "android": "https://dc.lft.to/lastmile_qr_scan"}, "lon": -77.044633, "bike_id": "2bdfc0fcc67b7e62443f1904145f13d1", "type": "electric_scooter", "name": "2bdfc0fcc67b7e62443f1904145f13d1"}, {"is_disabled": 0, "is_reserved": 0, "fusion_lat": 0.0, "lat": 38.91129133333333, "fusion_lon": 0.0, "rental_uris": {"ios": "https://dc.lft.to/lastmile_qr_scan", "android": "https://dc.lft.to/lastmile_qr_scan"}, "lon": -77.02284566666667, "bike_id": "cf810c70ba319e9786b9a621ce46f40b", "type": "electric_scooter", "name": "cf810c70ba319e9786b9a621ce46f40b"}, {"is_disabled": 0, "is_reserved": 0, "fusion_lat": 0.0, "lat": 38.855197833333335, "fusion_lon": 0.0, "rental_uris": {"ios": "https://dc.lft.to/lastmile_qr_scan", "android": "https://dc.lft.to/lastmile_qr_scan"}, "lon": -76.99149866666667, "bike_id": "15ef504790be40f1e5aaf3517fb86b6c", "type": "electric_scooter", "name": "15ef504790be40f1e5aaf3517fb86b6c"}, {"is_disabled": 0, "is_reserved": 0, "fusion_lat": 0.0, "lat": 38.911178166666666, "fusion_lon": 0.0, "rental_uris": {"ios": "https://dc.lft.to/lastmile_qr_scan", "android": "https://dc.lft.to/lastmile_qr_scan"}, "lon": -77.04238766666667, "bike_id": "37952c5ac54e78677cb4f340b12b5039", "type": "electric_scooter", "name": "37952c5ac54e78677cb4f340b12b5039"}, {"is_disabled": 0, "is_reserved": 0, "fusion_lat": 0.0, "lat": 38.95650216666667, "fusion_lon": 0.0, "rental_uris": {"ios": "https://dc.lft.to/lastmile_qr_scan", "android": "https://dc.lft.to/lastmile_qr_scan"}, "lon": -77.01967333333333, "bike_id": "969b5d1160688e91ddaab85828342932", "type": "electric_scooter", "name": "969b5d1160688e91ddaab85828342932"}, {"is_disabled": 0, "is_reserved": 0, "fusion_lat": 0.0, "lat": 38.930311333333336, "fusion_lon": 0.0, "rental_uris": {"ios": "https://dc.lft.to/lastmile_qr_scan", "android": "https://dc.lft.to/lastmile_qr_scan"}, "lon": -77.02959866666667, "bike_id": "141ede05aee2c00e644d23094d413ec2", "type": "electric_scooter", "name": "141ede05aee2c00e644d23094d413ec2"}, {"is_disabled": 0, "is_reserved": 0, "fusion_lat": 0.0, "lat": 38.9216025, "fusion_lon": 0.0, "rental_uris": {"ios": "https://dc.lft.to/lastmile_qr_scan", "android": "https://dc.lft.to/lastmile_qr_scan"}, "lon": -77.01809416666667, "bike_id": "36835b620493528e5b8095872897bd1d", "type": "electric_scooter", "name": "36835b620493528e5b8095872897bd1d"}, {"is_disabled": 0, "is_reserved": 0, "fusion_lat": 0.0, "lat": 38.905032166666665, "fusion_lon": 0.0, "rental_uris": {"ios": "https://dc.lft.to/lastmile_qr_scan", "android": "https://dc.lft.to/lastmile_qr_scan"}, "lon": -77.060103, "bike_id": "75aa9199c6284f45b2bf50ffbdf421c5", "type": "electric_scooter", "name": "75aa9199c6284f45b2bf50ffbdf421c5"}, {"is_disabled": 0, "is_reserved": 0, "fusion_lat": 0.0, "lat": 38.9286735, "fusion_lon": 0.0, "rental_uris": {"ios": "https://dc.lft.to/lastmile_qr_scan", "android": "https://dc.lft.to/lastmile_qr_scan"}, "lon": -77.0140405, "bike_id": "e8c6ad74424c80a86a98b5c67870cfa1", "type": "electric_scooter", "name": "e8c6ad74424c80a86a98b5c67870cfa1"}, {"is_disabled": 0, "is_reserved": 0, "fusion_lat": 0.0, "lat": 38.91402583333333, "fusion_lon": 0.0, "rental_uris": {"ios": "https://dc.lft.to/lastmile_qr_scan", "android": "https://dc.lft.to/lastmile_qr_scan"}, "lon": -77.0308815, "bike_id": "3b3b7b71bd2f3208b5646dc81525114a", "type": "electric_scooter", "name": "3b3b7b71bd2f3208b5646dc81525114a"}, {"is_disabled": 0, "is_reserved": 0, "fusion_lat": 0.0, "lat": 38.88124033333333, "fusion_lon": 0.0, "rental_uris": {"ios": "https://dc.lft.to/lastmile_qr_scan", "android": "https://dc.lft.to/lastmile_qr_scan"}, "lon": -76.99289416666667, "bike_id": "9701ccf61789a78c8eb7c3dadb78d948", "type": "electric_scooter", "name": "9701ccf61789a78c8eb7c3dadb78d948"}, {"is_disabled": 0, "is_reserved": 0, "fusion_lat": 0.0, "lat": 38.91692033333333, "fusion_lon": 0.0, "rental_uris": {"ios": "https://dc.lft.to/lastmile_qr_scan", "android": "https://dc.lft.to/lastmile_qr_scan"}, "lon": -77.0359315, "bike_id": "4986fa242031fe1fa362f726526f82bc", "type": "electric_scooter", "name": "4986fa242031fe1fa362f726526f82bc"}, {"is_disabled": 0, "is_reserved": 0, "fusion_lat": 0.0, "lat": 38.960165, "fusion_lon": 0.0, "rental_uris": {"ios": "https://dc.lft.to/lastmile_qr_scan", "android": "https://dc.lft.to/lastmile_qr_scan"}, "lon": -77.028217, "bike_id": "eb39b7bff59fb680e4b316eb46e6f625", "type": "electric_scooter", "name": "eb39b7bff59fb680e4b316eb46e6f625"}, {"is_disabled": 0, "is_reserved": 0, "fusion_lat": 0.0, "lat": 38.92019166666667, "fusion_lon": 0.0, "rental_uris": {"ios": "https://dc.lft.to/lastmile_qr_scan", "android": "https://dc.lft.to/lastmile_qr_scan"}, "lon": -76.99979616666667, "bike_id": "aeb922c263ef1b5e6f924c0bdf460867", "type": "electric_scooter", "name": "aeb922c263ef1b5e6f924c0bdf460867"}, {"is_disabled": 0, "is_reserved": 0, "fusion_lat": 0.0, "lat": 38.9223865, "fusion_lon": 0.0, "rental_uris": {"ios": "https://dc.lft.to/lastmile_qr_scan", "android": "https://dc.lft.to/lastmile_qr_scan"}, "lon": -77.04475633333334, "bike_id": "efd3789fff456f103561bac6bdb9244c", "type": "electric_scooter", "name": "efd3789fff456f103561bac6bdb9244c"}, {"is_disabled": 0, "is_reserved": 0, "fusion_lat": 0.0, "lat": 38.90004833333333, "fusion_lon": 0.0, "rental_uris": {"ios": "https://dc.lft.to/lastmile_qr_scan", "android": "https://dc.lft.to/lastmile_qr_scan"}, "lon": -77.02187516666666, "bike_id": "71623867ebfce38a5ac6cb42ffb129de", "type": "electric_scooter", "name": "71623867ebfce38a5ac6cb42ffb129de"}, {"is_disabled": 0, "is_reserved": 0, "fusion_lat": 0.0, "lat": 38.876951, "fusion_lon": 0.0, "rental_uris": {"ios": "https://dc.lft.to/lastmile_qr_scan", "android": "https://dc.lft.to/lastmile_qr_scan"}, "lon": -76.99624233333333, "bike_id": "f3e8a5366c85553778d77bb81cf2739a", "type": "electric_scooter", "name": "f3e8a5366c85553778d77bb81cf2739a"}, {"is_disabled": 0, "is_reserved": 0, "fusion_lat": 0.0, "lat": 38.892327, "fusion_lon": 0.0, "rental_uris": {"ios": "https://dc.lft.to/lastmile_qr_scan", "android": "https://dc.lft.to/lastmile_qr_scan"}, "lon": -77.02206633333333, "bike_id": "aef1461eea0b730227ab667ec73ac524", "type": "electric_scooter", "name": "aef1461eea0b730227ab667ec73ac524"}, {"is_disabled": 0, "is_reserved": 0, "fusion_lat": 0.0, "lat": 38.90272233333334, "fusion_lon": 0.0, "rental_uris": {"ios": "https://dc.lft.to/lastmile_qr_scan", "android": "https://dc.lft.to/lastmile_qr_scan"}, "lon": -77.05905916666667, "bike_id": "a91a60cbed9884c87e0ba4704a790395", "type": "electric_scooter", "name": "a91a60cbed9884c87e0ba4704a790395"}, {"is_disabled": 0, "is_reserved": 0, "fusion_lat": 0.0, "lat": 38.87447266666667, "fusion_lon": 0.0, "rental_uris": {"ios": "https://dc.lft.to/lastmile_qr_scan", "android": "https://dc.lft.to/lastmile_qr_scan"}, "lon": -77.00280966666666, "bike_id": "49bcc7f1b6a842ffd27cdad64355df57", "type": "electric_scooter", "name": "49bcc7f1b6a842ffd27cdad64355df57"}, {"is_disabled": 0, "is_reserved": 0, "fusion_lat": 0.0, "lat": 38.947138, "fusion_lon": 0.0, "rental_uris": {"ios": "https://dc.lft.to/lastmile_qr_scan", "android": "https://dc.lft.to/lastmile_qr_scan"}, "lon": -77.02617783333334, "bike_id": "1fe507a06230031b16c9bd05bcc21c99", "type": "electric_scooter", "name": "1fe507a06230031b16c9bd05bcc21c99"}, {"is_disabled": 0, "is_reserved": 0, "fusion_lat": 0.0, "lat": 38.938615666666664, "fusion_lon": 0.0, "rental_uris": {"ios": "https://dc.lft.to/lastmile_qr_scan", "android": "https://dc.lft.to/lastmile_qr_scan"}, "lon": -77.03045683333333, "bike_id": "2423f64e9debfe0e5472a4f774cb4cc7", "type": "electric_scooter", "name": "2423f64e9debfe0e5472a4f774cb4cc7"}, {"is_disabled": 0, "is_reserved": 0, "fusion_lat": 0.0, "lat": 38.929720833333334, "fusion_lon": 0.0, "rental_uris": {"ios": "https://dc.lft.to/lastmile_qr_scan", "android": "https://dc.lft.to/lastmile_qr_scan"}, "lon": -77.02822816666666, "bike_id": "a0e79c034f9c9ae3dd0c573259c1740b", "type": "electric_scooter", "name": "a0e79c034f9c9ae3dd0c573259c1740b"}, {"is_disabled": 0, "is_reserved": 0, "fusion_lat": 0.0, "lat": 38.84705983333333, "fusion_lon": 0.0, "rental_uris": {"ios": "https://dc.lft.to/lastmile_qr_scan", "android": "https://dc.lft.to/lastmile_qr_scan"}, "lon": -76.99624283333333, "bike_id": "9bd500e9cc8162138ec3ee05df2b6a17", "type": "electric_bike", "name": "9bd500e9cc8162138ec3ee05df2b6a17"}, {"is_disabled": 0, "is_reserved": 0, "fusion_lat": 0.0, "lat": 38.92443866666667, "fusion_lon": 0.0, "rental_uris": {"ios": "https://dc.lft.to/lastmile_qr_scan", "android": "https://dc.lft.to/lastmile_qr_scan"}, "lon": -77.02133016666667, "bike_id": "07f2481665bab0d2d29996ef3cb3b19f", "type": "electric_scooter", "name": "07f2481665bab0d2d29996ef3cb3b19f"}, {"is_disabled": 0, "is_reserved": 0, "fusion_lat": 0.0, "lat": 38.910069, "fusion_lon": 0.0, "rental_uris": {"ios": "https://dc.lft.to/lastmile_qr_scan", "android": "https://dc.lft.to/lastmile_qr_scan"}, "lon": -77.044264, "bike_id": "db25f566455d37a8745d0e47cc0540d7", "type": "electric_scooter", "name": "db25f566455d37a8745d0e47cc0540d7"}, {"is_disabled": 0, "is_reserved": 0, "fusion_lat": 0.0, "lat": 38.930784833333334, "fusion_lon": 0.0, "rental_uris": {"ios": "https://dc.lft.to/lastmile_qr_scan", "android": "https://dc.lft.to/lastmile_qr_scan"}, "lon": -77.0775995, "bike_id": "316dc70e885e00b6bde0ba8db72e1144", "type": "electric_scooter", "name": "316dc70e885e00b6bde0ba8db72e1144"}, {"is_disabled": 0, "is_reserved": 0, "fusion_lat": 0.0, "lat": 38.925768166666664, "fusion_lon": 0.0, "rental_uris": {"ios": "https://dc.lft.to/lastmile_qr_scan", "android": "https://dc.lft.to/lastmile_qr_scan"}, "lon": -76.99493366666667, "bike_id": "bdcb8f4945b10daed0880496838ba409", "type": "electric_scooter", "name": "bdcb8f4945b10daed0880496838ba409"}, {"is_disabled": 0, "is_reserved": 0, "fusion_lat": 0.0, "lat": 39.00376133333334, "fusion_lon": 0.0, "rental_uris": {"ios": "https://dc.lft.to/lastmile_qr_scan", "android": "https://dc.lft.to/lastmile_qr_scan"}, "lon": -77.01285283333333, "bike_id": "373fd874ab075606fceb98f15a1d7acf", "type": "electric_bike", "name": "373fd874ab075606fceb98f15a1d7acf"}, {"is_disabled": 0, "is_reserved": 0, "fusion_lat": 0.0, "lat": 38.9203435, "fusion_lon": 0.0, "rental_uris": {"ios": "https://dc.lft.to/lastmile_qr_scan", "android": "https://dc.lft.to/lastmile_qr_scan"}, "lon": -76.97956266666667, "bike_id": "a331bba32f899cd2a5765ca68dca920f", "type": "electric_bike", "name": "a331bba32f899cd2a5765ca68dca920f"}, {"is_disabled": 0, "is_reserved": 0, "fusion_lat": 0.0, "lat": 38.939703333333334, "fusion_lon": 0.0, "rental_uris": {"ios": "https://dc.lft.to/lastmile_qr_scan", "android": "https://dc.lft.to/lastmile_qr_scan"}, "lon": -77.0343285, "bike_id": "5809356e84d986a3fd6d4209b96067c6", "type": "electric_scooter", "name": "5809356e84d986a3fd6d4209b96067c6"}, {"is_disabled": 0, "is_reserved": 0, "fusion_lat": 0.0, "lat": 38.911013833333335, "fusion_lon": 0.0, "rental_uris": {"ios": "https://dc.lft.to/lastmile_qr_scan", "android": "https://dc.lft.to/lastmile_qr_scan"}, "lon": -77.04444166666667, "bike_id": "30011a6316ea70557acc2a6ae6e94847", "type": "electric_scooter", "name": "30011a6316ea70557acc2a6ae6e94847"}, {"is_disabled": 0, "is_reserved": 0, "fusion_lat": 0.0, "lat": 38.951473, "fusion_lon": 0.0, "rental_uris": {"ios": "https://dc.lft.to/lastmile_qr_scan", "android": "https://dc.lft.to/lastmile_qr_scan"}, "lon": -77.01869383333333, "bike_id": "90980ef751443178706c2bbae1b77d92", "type": "electric_scooter", "name": "90980ef751443178706c2bbae1b77d92"}, {"is_disabled": 0, "is_reserved": 0, "fusion_lat": 0.0, "lat": 38.938775666666665, "fusion_lon": 0.0, "rental_uris": {"ios": "https://dc.lft.to/lastmile_qr_scan", "android": "https://dc.lft.to/lastmile_qr_scan"}, "lon": -77.0328595, "bike_id": "ddd397f6a4c6896c26d317a3b72f7fa8", "type": "electric_scooter", "name": "ddd397f6a4c6896c26d317a3b72f7fa8"}, {"is_disabled": 0, "is_reserved": 0, "fusion_lat": 0.0, "lat": 38.9334365, "fusion_lon": 0.0, "rental_uris": {"ios": "https://dc.lft.to/lastmile_qr_scan", "android": "https://dc.lft.to/lastmile_qr_scan"}, "lon": -77.06041766666667, "bike_id": "9586a07fc2e4fe607a7770346a549748", "type": "electric_scooter", "name": "9586a07fc2e4fe607a7770346a549748"}, {"is_disabled": 0, "is_reserved": 0, "fusion_lat": 0.0, "lat": 38.956292833333336, "fusion_lon": 0.0, "rental_uris": {"ios": "https://dc.lft.to/lastmile_qr_scan", "android": "https://dc.lft.to/lastmile_qr_scan"}, "lon": -77.02207816666666, "bike_id": "25f38a064978fd93d8b6daa1bc245136", "type": "electric_scooter", "name": "25f38a064978fd93d8b6daa1bc245136"}, {"is_disabled": 0, "is_reserved": 0, "fusion_lat": 0.0, "lat": 38.9236475, "fusion_lon": 0.0, "rental_uris": {"ios": "https://dc.lft.to/lastmile_qr_scan", "android": "https://dc.lft.to/lastmile_qr_scan"}, "lon": -77.05241916666667, "bike_id": "8c4a664cc86b71f2b1c4a7bf94754f3a", "type": "electric_scooter", "name": "8c4a664cc86b71f2b1c4a7bf94754f3a"}, {"is_disabled": 0, "is_reserved": 0, "fusion_lat": 0.0, "lat": 38.827592, "fusion_lon": 0.0, "rental_uris": {"ios": "https://dc.lft.to/lastmile_qr_scan", "android": "https://dc.lft.to/lastmile_qr_scan"}, "lon": -77.06012383333334, "bike_id": "e312fd1902be864c614894500d607890", "type": "electric_bike", "name": "e312fd1902be864c614894500d607890"}, {"is_disabled": 0, "is_reserved": 0, "fusion_lat": 0.0, "lat": 38.91654883333333, "fusion_lon": 0.0, "rental_uris": {"ios": "https://dc.lft.to/lastmile_qr_scan", "android": "https://dc.lft.to/lastmile_qr_scan"}, "lon": -77.02387566666667, "bike_id": "ee7df5c9de7565560988892cb4d90a70", "type": "electric_scooter", "name": "ee7df5c9de7565560988892cb4d90a70"}, {"is_disabled": 0, "is_reserved": 0, "fusion_lat": 0.0, "lat": 38.916882333333334, "fusion_lon": 0.0, "rental_uris": {"ios": "https://dc.lft.to/lastmile_qr_scan", "android": "https://dc.lft.to/lastmile_qr_scan"}, "lon": -77.02712383333333, "bike_id": "a4706ac76fb3a7f0ad96fcfdcd550286", "type": "electric_scooter", "name": "a4706ac76fb3a7f0ad96fcfdcd550286"}, {"is_disabled": 0, "is_reserved": 0, "fusion_lat": 0.0, "lat": 38.91714983333333, "fusion_lon": 0.0, "rental_uris": {"ios": "https://dc.lft.to/lastmile_qr_scan", "android": "https://dc.lft.to/lastmile_qr_scan"}, "lon": -77.02604966666667, "bike_id": "4fea832186fb86116252fec6db8279d0", "type": "electric_scooter", "name": "4fea832186fb86116252fec6db8279d0"}, {"is_disabled": 0, "is_reserved": 0, "fusion_lat": 0.0, "lat": 38.918194666666665, "fusion_lon": 0.0, "rental_uris": {"ios": "https://dc.lft.to/lastmile_qr_scan", "android": "https://dc.lft.to/lastmile_qr_scan"}, "lon": -77.01206166666667, "bike_id": "6b1deaafb8c96aca9706600337ccf3cb", "type": "electric_scooter", "name": "6b1deaafb8c96aca9706600337ccf3cb"}, {"is_disabled": 0, "is_reserved": 0, "fusion_lat": 0.0, "lat": 38.900240333333336, "fusion_lon": 0.0, "rental_uris": {"ios": "https://dc.lft.to/lastmile_qr_scan", "android": "https://dc.lft.to/lastmile_qr_scan"}, "lon": -77.04881433333334, "bike_id": "49ea1dd5d5bc1023a8be6be4b5a70be9", "type": "electric_scooter", "name": "49ea1dd5d5bc1023a8be6be4b5a70be9"}, {"is_disabled": 0, "is_reserved": 0, "fusion_lat": 0.0, "lat": 38.92324383333333, "fusion_lon": 0.0, "rental_uris": {"ios": "https://dc.lft.to/lastmile_qr_scan", "android": "https://dc.lft.to/lastmile_qr_scan"}, "lon": -77.04555383333333, "bike_id": "6ac04834df1059079112ed52ce810fb5", "type": "electric_scooter", "name": "6ac04834df1059079112ed52ce810fb5"}, {"is_disabled": 0, "is_reserved": 0, "fusion_lat": 0.0, "lat": 38.9284915, "fusion_lon": 0.0, "rental_uris": {"ios": "https://dc.lft.to/lastmile_qr_scan", "android": "https://dc.lft.to/lastmile_qr_scan"}, "lon": -77.01382583333333, "bike_id": "fe995c08570893ccb44b4b5e151bee8c", "type": "electric_scooter", "name": "fe995c08570893ccb44b4b5e151bee8c"}, {"is_disabled": 0, "is_reserved": 0, "fusion_lat": 0.0, "lat": 38.91569116666667, "fusion_lon": 0.0, "rental_uris": {"ios": "https://dc.lft.to/lastmile_qr_scan", "android": "https://dc.lft.to/lastmile_qr_scan"}, "lon": -77.03184183333333, "bike_id": "dbad8da1644b7d02e2de75c6a3fb20a2", "type": "electric_scooter", "name": "dbad8da1644b7d02e2de75c6a3fb20a2"}, {"is_disabled": 0, "is_reserved": 0, "fusion_lat": 0.0, "lat": 38.90532783333333, "fusion_lon": 0.0, "rental_uris": {"ios": "https://dc.lft.to/lastmile_qr_scan", "android": "https://dc.lft.to/lastmile_qr_scan"}, "lon": -77.05907783333333, "bike_id": "423bec1b33d73814a442a079856f3141", "type": "electric_bike", "name": "423bec1b33d73814a442a079856f3141"}, {"is_disabled": 0, "is_reserved": 0, "fusion_lat": 0.0, "lat": 38.9060125, "fusion_lon": 0.0, "rental_uris": {"ios": "https://dc.lft.to/lastmile_qr_scan", "android": "https://dc.lft.to/lastmile_qr_scan"}, "lon": -77.03169483333333, "bike_id": "280e906cd2dd50541e9e11bf0061ff2d", "type": "electric_scooter", "name": "280e906cd2dd50541e9e11bf0061ff2d"}, {"is_disabled": 0, "is_reserved": 0, "fusion_lat": 0.0, "lat": 38.9063565, "fusion_lon": 0.0, "rental_uris": {"ios": "https://dc.lft.to/lastmile_qr_scan", "android": "https://dc.lft.to/lastmile_qr_scan"}, "lon": -77.068988, "bike_id": "39717366f8931588303865ee31d9ac49", "type": "electric_scooter", "name": "39717366f8931588303865ee31d9ac49"}, {"is_disabled": 0, "is_reserved": 0, "fusion_lat": 0.0, "lat": 38.891300333333334, "fusion_lon": 0.0, "rental_uris": {"ios": "https://dc.lft.to/lastmile_qr_scan", "android": "https://dc.lft.to/lastmile_qr_scan"}, "lon": -76.999447, "bike_id": "0ade1d00e646607bdee2373b4a3a42a9", "type": "electric_scooter", "name": "0ade1d00e646607bdee2373b4a3a42a9"}, {"is_disabled": 0, "is_reserved": 0, "fusion_lat": 0.0, "lat": 38.876372, "fusion_lon": 0.0, "rental_uris": {"ios": "https://dc.lft.to/lastmile_qr_scan", "android": "https://dc.lft.to/lastmile_qr_scan"}, "lon": -76.9929595, "bike_id": "c1d54a7406cf8aa797c11bedb45340d1", "type": "electric_scooter", "name": "c1d54a7406cf8aa797c11bedb45340d1"}, {"is_disabled": 0, "is_reserved": 0, "fusion_lat": 0.0, "lat": 38.864674666666666, "fusion_lon": 0.0, "rental_uris": {"ios": "https://dc.lft.to/lastmile_qr_scan", "android": "https://dc.lft.to/lastmile_qr_scan"}, "lon": -76.97755133333334, "bike_id": "7a0fa52c8b8024fb6669c1d8e25a9fef", "type": "electric_scooter", "name": "7a0fa52c8b8024fb6669c1d8e25a9fef"}, {"is_disabled": 0, "is_reserved": 0, "fusion_lat": 0.0, "lat": 38.9542885, "fusion_lon": 0.0, "rental_uris": {"ios": "https://dc.lft.to/lastmile_qr_scan", "android": "https://dc.lft.to/lastmile_qr_scan"}, "lon": -76.98797666666667, "bike_id": "e25e4b3e07a77b1e1633226b9a71d556", "type": "electric_scooter", "name": "e25e4b3e07a77b1e1633226b9a71d556"}, {"is_disabled": 0, "is_reserved": 0, "fusion_lat": 0.0, "lat": 38.8950825, "fusion_lon": 0.0, "rental_uris": {"ios": "https://dc.lft.to/lastmile_qr_scan", "android": "https://dc.lft.to/lastmile_qr_scan"}, "lon": -77.02296016666666, "bike_id": "9327ecc92c901ef28788bb6fe14ebc77", "type": "electric_scooter", "name": "9327ecc92c901ef28788bb6fe14ebc77"}, {"is_disabled": 0, "is_reserved": 0, "fusion_lat": 0.0, "lat": 38.915699333333336, "fusion_lon": 0.0, "rental_uris": {"ios": "https://dc.lft.to/lastmile_qr_scan", "android": "https://dc.lft.to/lastmile_qr_scan"}, "lon": -77.02287266666667, "bike_id": "248c1877476193adca864536e491f3a6", "type": "electric_scooter", "name": "248c1877476193adca864536e491f3a6"}, {"is_disabled": 0, "is_reserved": 0, "fusion_lat": 0.0, "lat": 38.8052015, "fusion_lon": 0.0, "rental_uris": {"ios": "https://dc.lft.to/lastmile_qr_scan", "android": "https://dc.lft.to/lastmile_qr_scan"}, "lon": -77.04334983333334, "bike_id": "dc48b39ad3c81c141acb45cbc2de7057", "type": "electric_bike", "name": "dc48b39ad3c81c141acb45cbc2de7057"}, {"is_disabled": 0, "is_reserved": 0, "fusion_lat": 0.0, "lat": 38.864911, "fusion_lon": 0.0, "rental_uris": {"ios": "https://dc.lft.to/lastmile_qr_scan", "android": "https://dc.lft.to/lastmile_qr_scan"}, "lon": -76.9698305, "bike_id": "38ff4a1b449a278e90b966b81e8e104b", "type": "electric_bike", "name": "38ff4a1b449a278e90b966b81e8e104b"}, {"is_disabled": 0, "is_reserved": 0, "fusion_lat": 0.0, "lat": 38.897323, "fusion_lon": 0.0, "rental_uris": {"ios": "https://dc.lft.to/lastmile_qr_scan", "android": "https://dc.lft.to/lastmile_qr_scan"}, "lon": -77.017581, "bike_id": "04035553ba0fc3c377a70ab26452b8ba", "type": "electric_scooter", "name": "04035553ba0fc3c377a70ab26452b8ba"}, {"is_disabled": 0, "is_reserved": 0, "fusion_lat": 0.0, "lat": 38.8789065, "fusion_lon": 0.0, "rental_uris": {"ios": "https://dc.lft.to/lastmile_qr_scan", "android": "https://dc.lft.to/lastmile_qr_scan"}, "lon": -76.93530066666666, "bike_id": "38beb4b173a1d8779103138086b8a8ec", "type": "electric_scooter", "name": "38beb4b173a1d8779103138086b8a8ec"}, {"is_disabled": 0, "is_reserved": 0, "fusion_lat": 0.0, "lat": 38.922191833333336, "fusion_lon": 0.0, "rental_uris": {"ios": "https://dc.lft.to/lastmile_qr_scan", "android": "https://dc.lft.to/lastmile_qr_scan"}, "lon": -77.038864, "bike_id": "23832d7bc47bed4abb922a78ea3fe1b4", "type": "electric_scooter", "name": "23832d7bc47bed4abb922a78ea3fe1b4"}, {"is_disabled": 0, "is_reserved": 0, "fusion_lat": 0.0, "lat": 38.91474633333333, "fusion_lon": 0.0, "rental_uris": {"ios": "https://dc.lft.to/lastmile_qr_scan", "android": "https://dc.lft.to/lastmile_qr_scan"}, "lon": -77.0318865, "bike_id": "5b723cec45dd52f4227585b2d09c77a6", "type": "electric_scooter", "name": "5b723cec45dd52f4227585b2d09c77a6"}, {"is_disabled": 0, "is_reserved": 0, "fusion_lat": 0.0, "lat": 38.89826866666667, "fusion_lon": 0.0, "rental_uris": {"ios": "https://dc.lft.to/lastmile_qr_scan", "android": "https://dc.lft.to/lastmile_qr_scan"}, "lon": -77.0465145, "bike_id": "1f22618427fffff3f2c308927bf23556", "type": "electric_scooter", "name": "1f22618427fffff3f2c308927bf23556"}, {"is_disabled": 0, "is_reserved": 0, "fusion_lat": 0.0, "lat": 38.89756633333333, "fusion_lon": 0.0, "rental_uris": {"ios": "https://dc.lft.to/lastmile_qr_scan", "android": "https://dc.lft.to/lastmile_qr_scan"}, "lon": -77.05490233333333, "bike_id": "881ba294d4ee7edefae1ed8eba39bb52", "type": "electric_scooter", "name": "881ba294d4ee7edefae1ed8eba39bb52"}, {"is_disabled": 0, "is_reserved": 0, "fusion_lat": 0.0, "lat": 38.910182666666664, "fusion_lon": 0.0, "rental_uris": {"ios": "https://dc.lft.to/lastmile_qr_scan", "android": "https://dc.lft.to/lastmile_qr_scan"}, "lon": -77.04401583333333, "bike_id": "de1c70bf1fabfaf403e8de55e3e69ba4", "type": "electric_scooter", "name": "de1c70bf1fabfaf403e8de55e3e69ba4"}, {"is_disabled": 0, "is_reserved": 0, "fusion_lat": 0.0, "lat": 38.88730433333333, "fusion_lon": 0.0, "rental_uris": {"ios": "https://dc.lft.to/lastmile_qr_scan", "android": "https://dc.lft.to/lastmile_qr_scan"}, "lon": -77.015112, "bike_id": "64df91a3d3890393f73bca0a8bf51dbc", "type": "electric_scooter", "name": "64df91a3d3890393f73bca0a8bf51dbc"}, {"is_disabled": 0, "is_reserved": 0, "fusion_lat": 0.0, "lat": 38.8968355, "fusion_lon": 0.0, "rental_uris": {"ios": "https://dc.lft.to/lastmile_qr_scan", "android": "https://dc.lft.to/lastmile_qr_scan"}, "lon": -76.9390585, "bike_id": "d9988753bea07ee175e12844974ccf1f", "type": "electric_scooter", "name": "d9988753bea07ee175e12844974ccf1f"}, {"is_disabled": 0, "is_reserved": 0, "fusion_lat": 0.0, "lat": 38.9507085, "fusion_lon": 0.0, "rental_uris": {"ios": "https://dc.lft.to/lastmile_qr_scan", "android": "https://dc.lft.to/lastmile_qr_scan"}, "lon": -76.99598383333333, "bike_id": "271be4a8ad74565e19e6b22291c18b90", "type": "electric_bike", "name": "271be4a8ad74565e19e6b22291c18b90"}, {"is_disabled": 0, "is_reserved": 0, "fusion_lat": 0.0, "lat": 38.881533833333336, "fusion_lon": 0.0, "rental_uris": {"ios": "https://dc.lft.to/lastmile_qr_scan", "android": "https://dc.lft.to/lastmile_qr_scan"}, "lon": -77.0129435, "bike_id": "014278a5acd0f2726a3101fd04cbaaab", "type": "electric_scooter", "name": "014278a5acd0f2726a3101fd04cbaaab"}, {"is_disabled": 0, "is_reserved": 0, "fusion_lat": 0.0, "lat": 38.91454016666667, "fusion_lon": 0.0, "rental_uris": {"ios": "https://dc.lft.to/lastmile_qr_scan", "android": "https://dc.lft.to/lastmile_qr_scan"}, "lon": -77.00896116666667, "bike_id": "15e51ee5ab8620ffa054536ec83bb499", "type": "electric_scooter", "name": "15e51ee5ab8620ffa054536ec83bb499"}, {"is_disabled": 0, "is_reserved": 0, "fusion_lat": 0.0, "lat": 38.90987066666667, "fusion_lon": 0.0, "rental_uris": {"ios": "https://dc.lft.to/lastmile_qr_scan", "android": "https://dc.lft.to/lastmile_qr_scan"}, "lon": -77.046537, "bike_id": "1a696870cbbfccb938943bf38e616f45", "type": "electric_scooter", "name": "1a696870cbbfccb938943bf38e616f45"}, {"is_disabled": 0, "is_reserved": 0, "fusion_lat": 0.0, "lat": 38.953318, "fusion_lon": 0.0, "rental_uris": {"ios": "https://dc.lft.to/lastmile_qr_scan", "android": "https://dc.lft.to/lastmile_qr_scan"}, "lon": -76.98255716666667, "bike_id": "8f49e21249d1dffdd512a29ad3937cc3", "type": "electric_bike", "name": "8f49e21249d1dffdd512a29ad3937cc3"}, {"is_disabled": 0, "is_reserved": 0, "fusion_lat": 0.0, "lat": 38.90531466666667, "fusion_lon": 0.0, "rental_uris": {"ios": "https://dc.lft.to/lastmile_qr_scan", "android": "https://dc.lft.to/lastmile_qr_scan"}, "lon": -77.05656383333333, "bike_id": "b63a6e6fdd357af709cbe0c3ac444ade", "type": "electric_scooter", "name": "b63a6e6fdd357af709cbe0c3ac444ade"}, {"is_disabled": 0, "is_reserved": 0, "fusion_lat": 0.0, "lat": 38.922342666666665, "fusion_lon": 0.0, "rental_uris": {"ios": "https://dc.lft.to/lastmile_qr_scan", "android": "https://dc.lft.to/lastmile_qr_scan"}, "lon": -77.03888783333333, "bike_id": "39cec1d65b77f55cbe445e3c3ebb06aa", "type": "electric_scooter", "name": "39cec1d65b77f55cbe445e3c3ebb06aa"}, {"is_disabled": 0, "is_reserved": 0, "fusion_lat": 0.0, "lat": 38.92142583333333, "fusion_lon": 0.0, "rental_uris": {"ios": "https://dc.lft.to/lastmile_qr_scan", "android": "https://dc.lft.to/lastmile_qr_scan"}, "lon": -77.03505616666666, "bike_id": "a20400adb7ac93326b00fdbbf68640a6", "type": "electric_scooter", "name": "a20400adb7ac93326b00fdbbf68640a6"}, {"is_disabled": 0, "is_reserved": 0, "fusion_lat": 0.0, "lat": 38.89086233333333, "fusion_lon": 0.0, "rental_uris": {"ios": "https://dc.lft.to/lastmile_qr_scan", "android": "https://dc.lft.to/lastmile_qr_scan"}, "lon": -76.9546325, "bike_id": "991494e77ab8d4137c2c42bdb050c6a1", "type": "electric_bike", "name": "991494e77ab8d4137c2c42bdb050c6a1"}, {"is_disabled": 0, "is_reserved": 0, "fusion_lat": 0.0, "lat": 38.935385833333335, "fusion_lon": 0.0, "rental_uris": {"ios": "https://dc.lft.to/lastmile_qr_scan", "android": "https://dc.lft.to/lastmile_qr_scan"}, "lon": -76.9835935, "bike_id": "f39d39e9912175dcf3a1ad1301ab7a51", "type": "electric_bike", "name": "f39d39e9912175dcf3a1ad1301ab7a51"}, {"is_disabled": 0, "is_reserved": 0, "fusion_lat": 0.0, "lat": 38.93056216666667, "fusion_lon": 0.0, "rental_uris": {"ios": "https://dc.lft.to/lastmile_qr_scan", "android": "https://dc.lft.to/lastmile_qr_scan"}, "lon": -76.9732435, "bike_id": "b32e76cb570dea22fe8ee11502fb9eb5", "type": "electric_scooter", "name": "b32e76cb570dea22fe8ee11502fb9eb5"}, {"is_disabled": 0, "is_reserved": 0, "fusion_lat": 0.0, "lat": 38.95635083333333, "fusion_lon": 0.0, "rental_uris": {"ios": "https://dc.lft.to/lastmile_qr_scan", "android": "https://dc.lft.to/lastmile_qr_scan"}, "lon": -77.0362975, "bike_id": "5f6839701fb4f372d9ba160c88de4347", "type": "electric_scooter", "name": "5f6839701fb4f372d9ba160c88de4347"}, {"is_disabled": 0, "is_reserved": 0, "fusion_lat": 0.0, "lat": 38.927289, "fusion_lon": 0.0, "rental_uris": {"ios": "https://dc.lft.to/lastmile_qr_scan", "android": "https://dc.lft.to/lastmile_qr_scan"}, "lon": -77.022714, "bike_id": "3d65812b0e4eaae939563ff10da71e62", "type": "electric_scooter", "name": "3d65812b0e4eaae939563ff10da71e62"}, {"is_disabled": 0, "is_reserved": 0, "fusion_lat": 0.0, "lat": 38.93340216666667, "fusion_lon": 0.0, "rental_uris": {"ios": "https://dc.lft.to/lastmile_qr_scan", "android": "https://dc.lft.to/lastmile_qr_scan"}, "lon": -77.01934333333334, "bike_id": "d34a5cdd9569968935a9ec88962516a1", "type": "electric_scooter", "name": "d34a5cdd9569968935a9ec88962516a1"}, {"is_disabled": 0, "is_reserved": 0, "fusion_lat": 0.0, "lat": 38.93235, "fusion_lon": 0.0, "rental_uris": {"ios": "https://dc.lft.to/lastmile_qr_scan", "android": "https://dc.lft.to/lastmile_qr_scan"}, "lon": -77.02033033333333, "bike_id": "b37cdb3f88554b4728ac403bd17d8bd1", "type": "electric_scooter", "name": "b37cdb3f88554b4728ac403bd17d8bd1"}, {"is_disabled": 0, "is_reserved": 0, "fusion_lat": 0.0, "lat": 38.929711833333336, "fusion_lon": 0.0, "rental_uris": {"ios": "https://dc.lft.to/lastmile_qr_scan", "android": "https://dc.lft.to/lastmile_qr_scan"}, "lon": -77.02818666666667, "bike_id": "dfbde20722c947d3685a0508f9cc73b8", "type": "electric_scooter", "name": "dfbde20722c947d3685a0508f9cc73b8"}, {"is_disabled": 0, "is_reserved": 0, "fusion_lat": 0.0, "lat": 38.902292833333334, "fusion_lon": 0.0, "rental_uris": {"ios": "https://dc.lft.to/lastmile_qr_scan", "android": "https://dc.lft.to/lastmile_qr_scan"}, "lon": -77.034735, "bike_id": "d15617bfa4418bb25ff40c67c8617677", "type": "electric_scooter", "name": "d15617bfa4418bb25ff40c67c8617677"}, {"is_disabled": 0, "is_reserved": 0, "fusion_lat": 0.0, "lat": 38.85793816666666, "fusion_lon": 0.0, "rental_uris": {"ios": "https://dc.lft.to/lastmile_qr_scan", "android": "https://dc.lft.to/lastmile_qr_scan"}, "lon": -76.9874925, "bike_id": "a73dc8aa6417bd22e43fe0ec90bd0c4d", "type": "electric_bike", "name": "a73dc8aa6417bd22e43fe0ec90bd0c4d"}, {"is_disabled": 0, "is_reserved": 0, "fusion_lat": 0.0, "lat": 38.926208, "fusion_lon": 0.0, "rental_uris": {"ios": "https://dc.lft.to/lastmile_qr_scan", "android": "https://dc.lft.to/lastmile_qr_scan"}, "lon": -76.99057366666666, "bike_id": "95444b66f9f55364ea09e37395455557", "type": "electric_scooter", "name": "95444b66f9f55364ea09e37395455557"}, {"is_disabled": 0, "is_reserved": 0, "fusion_lat": 0.0, "lat": 38.92680266666667, "fusion_lon": 0.0, "rental_uris": {"ios": "https://dc.lft.to/lastmile_qr_scan", "android": "https://dc.lft.to/lastmile_qr_scan"}, "lon": -77.00855516666667, "bike_id": "1ca22b3d82e466b0e81fa0225865a072", "type": "electric_scooter", "name": "1ca22b3d82e466b0e81fa0225865a072"}, {"is_disabled": 0, "is_reserved": 0, "fusion_lat": 0.0, "lat": 38.922576166666666, "fusion_lon": 0.0, "rental_uris": {"ios": "https://dc.lft.to/lastmile_qr_scan", "android": "https://dc.lft.to/lastmile_qr_scan"}, "lon": -77.03657666666666, "bike_id": "b258a2c98c7f0ce81f81f539f61859cc", "type": "electric_scooter", "name": "b258a2c98c7f0ce81f81f539f61859cc"}, {"is_disabled": 0, "is_reserved": 0, "fusion_lat": 0.0, "lat": 39.0262215, "fusion_lon": 0.0, "rental_uris": {"ios": "https://dc.lft.to/lastmile_qr_scan", "android": "https://dc.lft.to/lastmile_qr_scan"}, "lon": -77.0387835, "bike_id": "22c69da4aee3bfb25ed79fd6eb088ad4", "type": "electric_bike", "name": "22c69da4aee3bfb25ed79fd6eb088ad4"}, {"is_disabled": 0, "is_reserved": 0, "fusion_lat": 0.0, "lat": 38.917791666666666, "fusion_lon": 0.0, "rental_uris": {"ios": "https://dc.lft.to/lastmile_qr_scan", "android": "https://dc.lft.to/lastmile_qr_scan"}, "lon": -77.0429885, "bike_id": "2f6ce99b61f245cbf3fb71a2acca273f", "type": "electric_scooter", "name": "2f6ce99b61f245cbf3fb71a2acca273f"}, {"is_disabled": 0, "is_reserved": 0, "fusion_lat": 0.0, "lat": 38.892836333333335, "fusion_lon": 0.0, "rental_uris": {"ios": "https://dc.lft.to/lastmile_qr_scan", "android": "https://dc.lft.to/lastmile_qr_scan"}, "lon": -77.04195583333333, "bike_id": "bdadc8802d448ef5c589afc3e5bc5374", "type": "electric_scooter", "name": "bdadc8802d448ef5c589afc3e5bc5374"}, {"is_disabled": 0, "is_reserved": 0, "fusion_lat": 0.0, "lat": 38.846721, "fusion_lon": 0.0, "rental_uris": {"ios": "https://dc.lft.to/lastmile_qr_scan", "android": "https://dc.lft.to/lastmile_qr_scan"}, "lon": -77.13939383333333, "bike_id": "3cf087225a4aecef79058b20718ae4d6", "type": "electric_bike", "name": "3cf087225a4aecef79058b20718ae4d6"}, {"is_disabled": 0, "is_reserved": 0, "fusion_lat": 0.0, "lat": 38.88115366666667, "fusion_lon": 0.0, "rental_uris": {"ios": "https://dc.lft.to/lastmile_qr_scan", "android": "https://dc.lft.to/lastmile_qr_scan"}, "lon": -77.02649683333334, "bike_id": "2dc93375cb3b054bff47a9cb5869562d", "type": "electric_scooter", "name": "2dc93375cb3b054bff47a9cb5869562d"}, {"is_disabled": 0, "is_reserved": 0, "fusion_lat": 0.0, "lat": 38.91557133333333, "fusion_lon": 0.0, "rental_uris": {"ios": "https://dc.lft.to/lastmile_qr_scan", "android": "https://dc.lft.to/lastmile_qr_scan"}, "lon": -77.0510165, "bike_id": "14fd8b9a4b2174e3f3fee50e2e69299c", "type": "electric_scooter", "name": "14fd8b9a4b2174e3f3fee50e2e69299c"}, {"is_disabled": 0, "is_reserved": 0, "fusion_lat": 0.0, "lat": 38.94492066666667, "fusion_lon": 0.0, "rental_uris": {"ios": "https://dc.lft.to/lastmile_qr_scan", "android": "https://dc.lft.to/lastmile_qr_scan"}, "lon": -77.0073535, "bike_id": "d5c6e9a3722a4ca8cb42bc6cd87285a1", "type": "electric_bike", "name": "d5c6e9a3722a4ca8cb42bc6cd87285a1"}, {"is_disabled": 0, "is_reserved": 0, "fusion_lat": 0.0, "lat": 38.80519566666667, "fusion_lon": 0.0, "rental_uris": {"ios": "https://dc.lft.to/lastmile_qr_scan", "android": "https://dc.lft.to/lastmile_qr_scan"}, "lon": -77.04340916666666, "bike_id": "7d85bcd81ca7214429c6c5b944401d13", "type": "electric_bike", "name": "7d85bcd81ca7214429c6c5b944401d13"}, {"is_disabled": 0, "is_reserved": 0, "fusion_lat": 0.0, "lat": 38.876321833333336, "fusion_lon": 0.0, "rental_uris": {"ios": "https://dc.lft.to/lastmile_qr_scan", "android": "https://dc.lft.to/lastmile_qr_scan"}, "lon": -77.014753, "bike_id": "b69e5558fe8a174ddb8e10cfac673142", "type": "electric_scooter", "name": "b69e5558fe8a174ddb8e10cfac673142"}, {"is_disabled": 0, "is_reserved": 0, "fusion_lat": 0.0, "lat": 38.908418, "fusion_lon": 0.0, "rental_uris": {"ios": "https://dc.lft.to/lastmile_qr_scan", "android": "https://dc.lft.to/lastmile_qr_scan"}, "lon": -76.93447183333333, "bike_id": "b8a2d31f732257e5ab6fac0a2b61e431", "type": "electric_scooter", "name": "b8a2d31f732257e5ab6fac0a2b61e431"}, {"is_disabled": 0, "is_reserved": 0, "fusion_lat": 0.0, "lat": 38.916986, "fusion_lon": 0.0, "rental_uris": {"ios": "https://dc.lft.to/lastmile_qr_scan", "android": "https://dc.lft.to/lastmile_qr_scan"}, "lon": -77.02839233333333, "bike_id": "fdbcaaaa2e144eaaa197c3c9132bc2bf", "type": "electric_bike", "name": "fdbcaaaa2e144eaaa197c3c9132bc2bf"}, {"is_disabled": 0, "is_reserved": 0, "fusion_lat": 0.0, "lat": 38.92044633333333, "fusion_lon": 0.0, "rental_uris": {"ios": "https://dc.lft.to/lastmile_qr_scan", "android": "https://dc.lft.to/lastmile_qr_scan"}, "lon": -77.02575466666667, "bike_id": "fe27f9e23f492fe6003c90bdbe10b97a", "type": "electric_scooter", "name": "fe27f9e23f492fe6003c90bdbe10b97a"}, {"is_disabled": 0, "is_reserved": 0, "fusion_lat": 0.0, "lat": 38.96795933333333, "fusion_lon": 0.0, "rental_uris": {"ios": "https://dc.lft.to/lastmile_qr_scan", "android": "https://dc.lft.to/lastmile_qr_scan"}, "lon": -77.024329, "bike_id": "2fbeae34f569eb9f308ca58a23da1766", "type": "electric_scooter", "name": "2fbeae34f569eb9f308ca58a23da1766"}, {"is_disabled": 0, "is_reserved": 0, "fusion_lat": 0.0, "lat": 38.901594333333335, "fusion_lon": 0.0, "rental_uris": {"ios": "https://dc.lft.to/lastmile_qr_scan", "android": "https://dc.lft.to/lastmile_qr_scan"}, "lon": -77.02484683333333, "bike_id": "584cd12688673ca7ee1ad8b1514e4e15", "type": "electric_scooter", "name": "584cd12688673ca7ee1ad8b1514e4e15"}, {"is_disabled": 0, "is_reserved": 0, "fusion_lat": 0.0, "lat": 38.92419616666667, "fusion_lon": 0.0, "rental_uris": {"ios": "https://dc.lft.to/lastmile_qr_scan", "android": "https://dc.lft.to/lastmile_qr_scan"}, "lon": -77.0229935, "bike_id": "1c2d47590575ee3210a920450563c2cc", "type": "electric_scooter", "name": "1c2d47590575ee3210a920450563c2cc"}, {"is_disabled": 0, "is_reserved": 0, "fusion_lat": 0.0, "lat": 38.9309305, "fusion_lon": 0.0, "rental_uris": {"ios": "https://dc.lft.to/lastmile_qr_scan", "android": "https://dc.lft.to/lastmile_qr_scan"}, "lon": -77.02473066666667, "bike_id": "9327f0977c758b7d94690b782e38eda5", "type": "electric_scooter", "name": "9327f0977c758b7d94690b782e38eda5"}, {"is_disabled": 0, "is_reserved": 0, "fusion_lat": 0.0, "lat": 38.9114745, "fusion_lon": 0.0, "rental_uris": {"ios": "https://dc.lft.to/lastmile_qr_scan", "android": "https://dc.lft.to/lastmile_qr_scan"}, "lon": -77.04474483333334, "bike_id": "ad12440685e01f6365fb022543c754ba", "type": "electric_scooter", "name": "ad12440685e01f6365fb022543c754ba"}, {"is_disabled": 0, "is_reserved": 0, "fusion_lat": 0.0, "lat": 38.92653716666667, "fusion_lon": 0.0, "rental_uris": {"ios": "https://dc.lft.to/lastmile_qr_scan", "android": "https://dc.lft.to/lastmile_qr_scan"}, "lon": -77.0243095, "bike_id": "2c00839903018313caf50b9f15516188", "type": "electric_scooter", "name": "2c00839903018313caf50b9f15516188"}, {"is_disabled": 0, "is_reserved": 0, "fusion_lat": 0.0, "lat": 38.94723483333333, "fusion_lon": 0.0, "rental_uris": {"ios": "https://dc.lft.to/lastmile_qr_scan", "android": "https://dc.lft.to/lastmile_qr_scan"}, "lon": -77.023568, "bike_id": "98c4e9d93e0161c3c1abe21e714c21e3", "type": "electric_scooter", "name": "98c4e9d93e0161c3c1abe21e714c21e3"}, {"is_disabled": 0, "is_reserved": 0, "fusion_lat": 0.0, "lat": 38.91816166666667, "fusion_lon": 0.0, "rental_uris": {"ios": "https://dc.lft.to/lastmile_qr_scan", "android": "https://dc.lft.to/lastmile_qr_scan"}, "lon": -77.0252705, "bike_id": "9a999ff5badd18a1173a0780a6b2a24b", "type": "electric_scooter", "name": "9a999ff5badd18a1173a0780a6b2a24b"}, {"is_disabled": 0, "is_reserved": 0, "fusion_lat": 0.0, "lat": 38.913366333333336, "fusion_lon": 0.0, "rental_uris": {"ios": "https://dc.lft.to/lastmile_qr_scan", "android": "https://dc.lft.to/lastmile_qr_scan"}, "lon": -77.03129683333333, "bike_id": "55dcc29159c29c5b98c7b06359d8b3d8", "type": "electric_scooter", "name": "55dcc29159c29c5b98c7b06359d8b3d8"}, {"is_disabled": 0, "is_reserved": 0, "fusion_lat": 0.0, "lat": 38.9177765, "fusion_lon": 0.0, "rental_uris": {"ios": "https://dc.lft.to/lastmile_qr_scan", "android": "https://dc.lft.to/lastmile_qr_scan"}, "lon": -77.024669, "bike_id": "18d31d992a8bb6721057788fdb2c549f", "type": "electric_scooter", "name": "18d31d992a8bb6721057788fdb2c549f"}, {"is_disabled": 0, "is_reserved": 0, "fusion_lat": 0.0, "lat": 38.90186633333333, "fusion_lon": 0.0, "rental_uris": {"ios": "https://dc.lft.to/lastmile_qr_scan", "android": "https://dc.lft.to/lastmile_qr_scan"}, "lon": -77.05083316666666, "bike_id": "70e6b76b43604cc19bea84a2d4b4f378", "type": "electric_scooter", "name": "70e6b76b43604cc19bea84a2d4b4f378"}, {"is_disabled": 0, "is_reserved": 0, "fusion_lat": 0.0, "lat": 38.94262166666667, "fusion_lon": 0.0, "rental_uris": {"ios": "https://dc.lft.to/lastmile_qr_scan", "android": "https://dc.lft.to/lastmile_qr_scan"}, "lon": -76.98456416666667, "bike_id": "da1da9e2e115069093383a2c46f9c917", "type": "electric_scooter", "name": "da1da9e2e115069093383a2c46f9c917"}, {"is_disabled": 0, "is_reserved": 0, "fusion_lat": 0.0, "lat": 38.896613333333335, "fusion_lon": 0.0, "rental_uris": {"ios": "https://dc.lft.to/lastmile_qr_scan", "android": "https://dc.lft.to/lastmile_qr_scan"}, "lon": -77.05137366666666, "bike_id": "3bb7faf83c435347a01d89b906278984", "type": "electric_scooter", "name": "3bb7faf83c435347a01d89b906278984"}, {"is_disabled": 0, "is_reserved": 0, "fusion_lat": 0.0, "lat": 38.886206, "fusion_lon": 0.0, "rental_uris": {"ios": "https://dc.lft.to/lastmile_qr_scan", "android": "https://dc.lft.to/lastmile_qr_scan"}, "lon": -76.9902175, "bike_id": "2b85ac122200ad1b4111597dd5296e58", "type": "electric_bike", "name": "2b85ac122200ad1b4111597dd5296e58"}, {"is_disabled": 0, "is_reserved": 0, "fusion_lat": 0.0, "lat": 38.924529, "fusion_lon": 0.0, "rental_uris": {"ios": "https://dc.lft.to/lastmile_qr_scan", "android": "https://dc.lft.to/lastmile_qr_scan"}, "lon": -77.03888633333334, "bike_id": "35db9327ec21495938e17da2841bd9aa", "type": "electric_scooter", "name": "35db9327ec21495938e17da2841bd9aa"}, {"is_disabled": 0, "is_reserved": 0, "fusion_lat": 0.0, "lat": 38.892283166666665, "fusion_lon": 0.0, "rental_uris": {"ios": "https://dc.lft.to/lastmile_qr_scan", "android": "https://dc.lft.to/lastmile_qr_scan"}, "lon": -77.05002016666667, "bike_id": "11e7b75cc77afbd542647a2280875892", "type": "electric_scooter", "name": "11e7b75cc77afbd542647a2280875892"}, {"is_disabled": 0, "is_reserved": 0, "fusion_lat": 0.0, "lat": 38.906912, "fusion_lon": 0.0, "rental_uris": {"ios": "https://dc.lft.to/lastmile_qr_scan", "android": "https://dc.lft.to/lastmile_qr_scan"}, "lon": -76.952515, "bike_id": "45aca56c24af40c25032329d75819401", "type": "electric_bike", "name": "45aca56c24af40c25032329d75819401"}, {"is_disabled": 0, "is_reserved": 0, "fusion_lat": 0.0, "lat": 38.947141, "fusion_lon": 0.0, "rental_uris": {"ios": "https://dc.lft.to/lastmile_qr_scan", "android": "https://dc.lft.to/lastmile_qr_scan"}, "lon": -77.06801583333333, "bike_id": "5da756bd938a57246ad37c5693f1ee73", "type": "electric_scooter", "name": "5da756bd938a57246ad37c5693f1ee73"}, {"is_disabled": 0, "is_reserved": 0, "fusion_lat": 0.0, "lat": 38.88354966666667, "fusion_lon": 0.0, "rental_uris": {"ios": "https://dc.lft.to/lastmile_qr_scan", "android": "https://dc.lft.to/lastmile_qr_scan"}, "lon": -76.957672, "bike_id": "a8e85e55271d76a25ab68f6b10b266f0", "type": "electric_scooter", "name": "a8e85e55271d76a25ab68f6b10b266f0"}, {"is_disabled": 0, "is_reserved": 0, "fusion_lat": 0.0, "lat": 38.90557166666667, "fusion_lon": 0.0, "rental_uris": {"ios": "https://dc.lft.to/lastmile_qr_scan", "android": "https://dc.lft.to/lastmile_qr_scan"}, "lon": -77.007097, "bike_id": "bcea15e6efcaf29808bafb462f7987c9", "type": "electric_scooter", "name": "bcea15e6efcaf29808bafb462f7987c9"}, {"is_disabled": 0, "is_reserved": 0, "fusion_lat": 0.0, "lat": 38.90442933333333, "fusion_lon": 0.0, "rental_uris": {"ios": "https://dc.lft.to/lastmile_qr_scan", "android": "https://dc.lft.to/lastmile_qr_scan"}, "lon": -77.03108366666666, "bike_id": "87e82d4b6a41b4dc74c37c8ed659315a", "type": "electric_scooter", "name": "87e82d4b6a41b4dc74c37c8ed659315a"}, {"is_disabled": 0, "is_reserved": 0, "fusion_lat": 0.0, "lat": 38.909680333333334, "fusion_lon": 0.0, "rental_uris": {"ios": "https://dc.lft.to/lastmile_qr_scan", "android": "https://dc.lft.to/lastmile_qr_scan"}, "lon": -77.04441916666667, "bike_id": "8cb99ddba988a0cd1746d2ac063d5b84", "type": "electric_bike", "name": "8cb99ddba988a0cd1746d2ac063d5b84"}, {"is_disabled": 0, "is_reserved": 0, "fusion_lat": 0.0, "lat": 38.90590916666667, "fusion_lon": 0.0, "rental_uris": {"ios": "https://dc.lft.to/lastmile_qr_scan", "android": "https://dc.lft.to/lastmile_qr_scan"}, "lon": -77.01611716666666, "bike_id": "74c2b2dc9012fb460092c1d17dbffdb1", "type": "electric_scooter", "name": "74c2b2dc9012fb460092c1d17dbffdb1"}, {"is_disabled": 0, "is_reserved": 0, "fusion_lat": 0.0, "lat": 38.884336833333336, "fusion_lon": 0.0, "rental_uris": {"ios": "https://dc.lft.to/lastmile_qr_scan", "android": "https://dc.lft.to/lastmile_qr_scan"}, "lon": -77.0251415, "bike_id": "9e57ce7165382c8fb77068257c23233f", "type": "electric_scooter", "name": "9e57ce7165382c8fb77068257c23233f"}, {"is_disabled": 0, "is_reserved": 0, "fusion_lat": 0.0, "lat": 38.9213945, "fusion_lon": 0.0, "rental_uris": {"ios": "https://dc.lft.to/lastmile_qr_scan", "android": "https://dc.lft.to/lastmile_qr_scan"}, "lon": -77.0456215, "bike_id": "06b183685b389de8c3d6ca213207b06d", "type": "electric_scooter", "name": "06b183685b389de8c3d6ca213207b06d"}, {"is_disabled": 0, "is_reserved": 0, "fusion_lat": 0.0, "lat": 38.9220805, "fusion_lon": 0.0, "rental_uris": {"ios": "https://dc.lft.to/lastmile_qr_scan", "android": "https://dc.lft.to/lastmile_qr_scan"}, "lon": -77.074375, "bike_id": "00803b3d0521d652e6339cf4ae31a45e", "type": "electric_scooter", "name": "00803b3d0521d652e6339cf4ae31a45e"}, {"is_disabled": 0, "is_reserved": 0, "fusion_lat": 0.0, "lat": 38.93067816666667, "fusion_lon": 0.0, "rental_uris": {"ios": "https://dc.lft.to/lastmile_qr_scan", "android": "https://dc.lft.to/lastmile_qr_scan"}, "lon": -77.03205183333333, "bike_id": "70bd2f9905a1a64b7b537c3f6a1b56e3", "type": "electric_scooter", "name": "70bd2f9905a1a64b7b537c3f6a1b56e3"}, {"is_disabled": 0, "is_reserved": 0, "fusion_lat": 0.0, "lat": 38.91457033333333, "fusion_lon": 0.0, "rental_uris": {"ios": "https://dc.lft.to/lastmile_qr_scan", "android": "https://dc.lft.to/lastmile_qr_scan"}, "lon": -77.021606, "bike_id": "1ddd82887a41839136ee6cd7c0d95e80", "type": "electric_scooter", "name": "1ddd82887a41839136ee6cd7c0d95e80"}, {"is_disabled": 0, "is_reserved": 0, "fusion_lat": 0.0, "lat": 38.921588, "fusion_lon": 0.0, "rental_uris": {"ios": "https://dc.lft.to/lastmile_qr_scan", "android": "https://dc.lft.to/lastmile_qr_scan"}, "lon": -77.0366885, "bike_id": "5f3e64d16d4876d9cbdd1c84606b44af", "type": "electric_scooter", "name": "5f3e64d16d4876d9cbdd1c84606b44af"}, {"is_disabled": 0, "is_reserved": 0, "fusion_lat": 0.0, "lat": 38.899226166666665, "fusion_lon": 0.0, "rental_uris": {"ios": "https://dc.lft.to/lastmile_qr_scan", "android": "https://dc.lft.to/lastmile_qr_scan"}, "lon": -77.003565, "bike_id": "dea924ce615c7b5c32c9e7a503707edb", "type": "electric_scooter", "name": "dea924ce615c7b5c32c9e7a503707edb"}, {"is_disabled": 0, "is_reserved": 0, "fusion_lat": 0.0, "lat": 38.90548866666666, "fusion_lon": 0.0, "rental_uris": {"ios": "https://dc.lft.to/lastmile_qr_scan", "android": "https://dc.lft.to/lastmile_qr_scan"}, "lon": -77.021834, "bike_id": "9ac06b6b97ca4ac053cc186f8f3f5f7d", "type": "electric_scooter", "name": "9ac06b6b97ca4ac053cc186f8f3f5f7d"}, {"is_disabled": 0, "is_reserved": 0, "fusion_lat": 0.0, "lat": 38.9111405, "fusion_lon": 0.0, "rental_uris": {"ios": "https://dc.lft.to/lastmile_qr_scan", "android": "https://dc.lft.to/lastmile_qr_scan"}, "lon": -77.04330233333333, "bike_id": "586a681f47b7b80a550773225add7e08", "type": "electric_scooter", "name": "586a681f47b7b80a550773225add7e08"}, {"is_disabled": 0, "is_reserved": 0, "fusion_lat": 0.0, "lat": 38.893823, "fusion_lon": 0.0, "rental_uris": {"ios": "https://dc.lft.to/lastmile_qr_scan", "android": "https://dc.lft.to/lastmile_qr_scan"}, "lon": -76.92306616666667, "bike_id": "54af230f2d9f182cc823fb380c169dda", "type": "electric_scooter", "name": "54af230f2d9f182cc823fb380c169dda"}, {"is_disabled": 0, "is_reserved": 0, "fusion_lat": 0.0, "lat": 38.916809666666666, "fusion_lon": 0.0, "rental_uris": {"ios": "https://dc.lft.to/lastmile_qr_scan", "android": "https://dc.lft.to/lastmile_qr_scan"}, "lon": -77.03196383333334, "bike_id": "b5926d06e6a3cdddede549311bd7568c", "type": "electric_scooter", "name": "b5926d06e6a3cdddede549311bd7568c"}, {"is_disabled": 0, "is_reserved": 0, "fusion_lat": 0.0, "lat": 38.915529166666666, "fusion_lon": 0.0, "rental_uris": {"ios": "https://dc.lft.to/lastmile_qr_scan", "android": "https://dc.lft.to/lastmile_qr_scan"}, "lon": -77.05407, "bike_id": "bda3e95f196374e8d6c9e58915b5f340", "type": "electric_scooter", "name": "bda3e95f196374e8d6c9e58915b5f340"}, {"is_disabled": 0, "is_reserved": 0, "fusion_lat": 0.0, "lat": 38.9095965, "fusion_lon": 0.0, "rental_uris": {"ios": "https://dc.lft.to/lastmile_qr_scan", "android": "https://dc.lft.to/lastmile_qr_scan"}, "lon": -77.03421933333334, "bike_id": "0ca5dfbbaf6921211436deaa4d20280d", "type": "electric_scooter", "name": "0ca5dfbbaf6921211436deaa4d20280d"}, {"is_disabled": 0, "is_reserved": 0, "fusion_lat": 0.0, "lat": 38.909584333333335, "fusion_lon": 0.0, "rental_uris": {"ios": "https://dc.lft.to/lastmile_qr_scan", "android": "https://dc.lft.to/lastmile_qr_scan"}, "lon": -77.03417566666667, "bike_id": "c0c0283eabfd1cea1d7941ff036b1012", "type": "electric_scooter", "name": "c0c0283eabfd1cea1d7941ff036b1012"}, {"is_disabled": 0, "is_reserved": 0, "fusion_lat": 0.0, "lat": 38.9181325, "fusion_lon": 0.0, "rental_uris": {"ios": "https://dc.lft.to/lastmile_qr_scan", "android": "https://dc.lft.to/lastmile_qr_scan"}, "lon": -77.02522433333333, "bike_id": "a49345e1803467fad3c0c741f87d90ad", "type": "electric_scooter", "name": "a49345e1803467fad3c0c741f87d90ad"}, {"is_disabled": 0, "is_reserved": 0, "fusion_lat": 0.0, "lat": 38.91203683333333, "fusion_lon": 0.0, "rental_uris": {"ios": "https://dc.lft.to/lastmile_qr_scan", "android": "https://dc.lft.to/lastmile_qr_scan"}, "lon": -77.02096833333333, "bike_id": "d34dec10c08194480a47aed4ae8d9541", "type": "electric_scooter", "name": "d34dec10c08194480a47aed4ae8d9541"}, {"is_disabled": 0, "is_reserved": 0, "fusion_lat": 0.0, "lat": 38.90261533333333, "fusion_lon": 0.0, "rental_uris": {"ios": "https://dc.lft.to/lastmile_qr_scan", "android": "https://dc.lft.to/lastmile_qr_scan"}, "lon": -77.00328833333333, "bike_id": "5cbc34f8655b2a047c7a86bdea9aacda", "type": "electric_scooter", "name": "5cbc34f8655b2a047c7a86bdea9aacda"}, {"is_disabled": 0, "is_reserved": 0, "fusion_lat": 0.0, "lat": 38.910312, "fusion_lon": 0.0, "rental_uris": {"ios": "https://dc.lft.to/lastmile_qr_scan", "android": "https://dc.lft.to/lastmile_qr_scan"}, "lon": -76.9233545, "bike_id": "c10a48ef75b2ca71136cc7bd8b7a9c05", "type": "electric_bike", "name": "c10a48ef75b2ca71136cc7bd8b7a9c05"}, {"is_disabled": 0, "is_reserved": 0, "fusion_lat": 0.0, "lat": 38.92258733333333, "fusion_lon": 0.0, "rental_uris": {"ios": "https://dc.lft.to/lastmile_qr_scan", "android": "https://dc.lft.to/lastmile_qr_scan"}, "lon": -77.0363965, "bike_id": "4718e81a585c73135400f8fb36ef4894", "type": "electric_scooter", "name": "4718e81a585c73135400f8fb36ef4894"}, {"is_disabled": 0, "is_reserved": 0, "fusion_lat": 0.0, "lat": 38.913511166666666, "fusion_lon": 0.0, "rental_uris": {"ios": "https://dc.lft.to/lastmile_qr_scan", "android": "https://dc.lft.to/lastmile_qr_scan"}, "lon": -76.97138583333333, "bike_id": "8770ab3a413b5b82f0ceb3f47e8f3b17", "type": "electric_scooter", "name": "8770ab3a413b5b82f0ceb3f47e8f3b17"}, {"is_disabled": 0, "is_reserved": 0, "fusion_lat": 0.0, "lat": 38.92503583333333, "fusion_lon": 0.0, "rental_uris": {"ios": "https://dc.lft.to/lastmile_qr_scan", "android": "https://dc.lft.to/lastmile_qr_scan"}, "lon": -77.02362133333334, "bike_id": "050fd55f5662f56aead81a0941201327", "type": "electric_scooter", "name": "050fd55f5662f56aead81a0941201327"}, {"is_disabled": 0, "is_reserved": 0, "fusion_lat": 0.0, "lat": 38.91710333333333, "fusion_lon": 0.0, "rental_uris": {"ios": "https://dc.lft.to/lastmile_qr_scan", "android": "https://dc.lft.to/lastmile_qr_scan"}, "lon": -77.02302833333333, "bike_id": "6251489de2af676f4e68f48f5a9a6b05", "type": "electric_scooter", "name": "6251489de2af676f4e68f48f5a9a6b05"}, {"is_disabled": 0, "is_reserved": 0, "fusion_lat": 0.0, "lat": 38.90029583333333, "fusion_lon": 0.0, "rental_uris": {"ios": "https://dc.lft.to/lastmile_qr_scan", "android": "https://dc.lft.to/lastmile_qr_scan"}, "lon": -77.00687066666667, "bike_id": "09a1ed181742400841a332ad3b9484d9", "type": "electric_scooter", "name": "09a1ed181742400841a332ad3b9484d9"}, {"is_disabled": 0, "is_reserved": 0, "fusion_lat": 0.0, "lat": 38.891945666666665, "fusion_lon": 0.0, "rental_uris": {"ios": "https://dc.lft.to/lastmile_qr_scan", "android": "https://dc.lft.to/lastmile_qr_scan"}, "lon": -77.03174866666667, "bike_id": "ac97c58f045785d88f4618155fb9f078", "type": "electric_scooter", "name": "ac97c58f045785d88f4618155fb9f078"}, {"is_disabled": 0, "is_reserved": 0, "fusion_lat": 0.0, "lat": 38.9097155, "fusion_lon": 0.0, "rental_uris": {"ios": "https://dc.lft.to/lastmile_qr_scan", "android": "https://dc.lft.to/lastmile_qr_scan"}, "lon": -77.04514683333333, "bike_id": "4198bb588bd662524b89156c2f1c522c", "type": "electric_scooter", "name": "4198bb588bd662524b89156c2f1c522c"}, {"is_disabled": 0, "is_reserved": 0, "fusion_lat": 0.0, "lat": 38.88487766666667, "fusion_lon": 0.0, "rental_uris": {"ios": "https://dc.lft.to/lastmile_qr_scan", "android": "https://dc.lft.to/lastmile_qr_scan"}, "lon": -77.03471666666667, "bike_id": "6f7d47f5b475c0158fca646065061776", "type": "electric_scooter", "name": "6f7d47f5b475c0158fca646065061776"}, {"is_disabled": 0, "is_reserved": 0, "fusion_lat": 0.0, "lat": 38.936800166666664, "fusion_lon": 0.0, "rental_uris": {"ios": "https://dc.lft.to/lastmile_qr_scan", "android": "https://dc.lft.to/lastmile_qr_scan"}, "lon": -77.05853216666667, "bike_id": "c5754ddb9987982c8c0b9f4913c86d97", "type": "electric_scooter", "name": "c5754ddb9987982c8c0b9f4913c86d97"}, {"is_disabled": 0, "is_reserved": 0, "fusion_lat": 0.0, "lat": 38.88870166666667, "fusion_lon": 0.0, "rental_uris": {"ios": "https://dc.lft.to/lastmile_qr_scan", "android": "https://dc.lft.to/lastmile_qr_scan"}, "lon": -76.957016, "bike_id": "399696465867860d4715174e47167d61", "type": "electric_bike", "name": "399696465867860d4715174e47167d61"}, {"is_disabled": 0, "is_reserved": 0, "fusion_lat": 0.0, "lat": 38.902539833333336, "fusion_lon": 0.0, "rental_uris": {"ios": "https://dc.lft.to/lastmile_qr_scan", "android": "https://dc.lft.to/lastmile_qr_scan"}, "lon": -77.0088945, "bike_id": "0b6b0cbbc4f8b06031a50fe1184cec45", "type": "electric_scooter", "name": "0b6b0cbbc4f8b06031a50fe1184cec45"}, {"is_disabled": 0, "is_reserved": 0, "fusion_lat": 0.0, "lat": 38.90809816666667, "fusion_lon": 0.0, "rental_uris": {"ios": "https://dc.lft.to/lastmile_qr_scan", "android": "https://dc.lft.to/lastmile_qr_scan"}, "lon": -77.006066, "bike_id": "5f45c94fb66dfdd9e654d8d27e2865e9", "type": "electric_scooter", "name": "5f45c94fb66dfdd9e654d8d27e2865e9"}, {"is_disabled": 0, "is_reserved": 0, "fusion_lat": 0.0, "lat": 38.90502333333333, "fusion_lon": 0.0, "rental_uris": {"ios": "https://dc.lft.to/lastmile_qr_scan", "android": "https://dc.lft.to/lastmile_qr_scan"}, "lon": -77.04838416666666, "bike_id": "6ef22c7815a458b85efc852490796491", "type": "electric_scooter", "name": "6ef22c7815a458b85efc852490796491"}, {"is_disabled": 0, "is_reserved": 0, "fusion_lat": 0.0, "lat": 38.90188166666667, "fusion_lon": 0.0, "rental_uris": {"ios": "https://dc.lft.to/lastmile_qr_scan", "android": "https://dc.lft.to/lastmile_qr_scan"}, "lon": -77.0020685, "bike_id": "52c4da68fa6acc615e2730c5e639238e", "type": "electric_scooter", "name": "52c4da68fa6acc615e2730c5e639238e"}, {"is_disabled": 0, "is_reserved": 0, "fusion_lat": 0.0, "lat": 38.902903333333335, "fusion_lon": 0.0, "rental_uris": {"ios": "https://dc.lft.to/lastmile_qr_scan", "android": "https://dc.lft.to/lastmile_qr_scan"}, "lon": -77.03983733333334, "bike_id": "573e47676ab9add26fe4f61329a89d72", "type": "electric_scooter", "name": "573e47676ab9add26fe4f61329a89d72"}, {"is_disabled": 0, "is_reserved": 0, "fusion_lat": 0.0, "lat": 38.919142, "fusion_lon": 0.0, "rental_uris": {"ios": "https://dc.lft.to/lastmile_qr_scan", "android": "https://dc.lft.to/lastmile_qr_scan"}, "lon": -77.03119883333333, "bike_id": "dfc875ae077aa91656224cbe096b1ab0", "type": "electric_scooter", "name": "dfc875ae077aa91656224cbe096b1ab0"}, {"is_disabled": 0, "is_reserved": 0, "fusion_lat": 0.0, "lat": 38.90558, "fusion_lon": 0.0, "rental_uris": {"ios": "https://dc.lft.to/lastmile_qr_scan", "android": "https://dc.lft.to/lastmile_qr_scan"}, "lon": -77.04178133333333, "bike_id": "5009dff71fad05d248fa0eb15fbabf5a", "type": "electric_scooter", "name": "5009dff71fad05d248fa0eb15fbabf5a"}, {"is_disabled": 0, "is_reserved": 0, "fusion_lat": 0.0, "lat": 38.89545583333334, "fusion_lon": 0.0, "rental_uris": {"ios": "https://dc.lft.to/lastmile_qr_scan", "android": "https://dc.lft.to/lastmile_qr_scan"}, "lon": -77.073801, "bike_id": "e0f17ce8cc7f5a0c8a6f5cfdae3c4603", "type": "electric_bike", "name": "e0f17ce8cc7f5a0c8a6f5cfdae3c4603"}, {"is_disabled": 0, "is_reserved": 0, "fusion_lat": 0.0, "lat": 38.9758585, "fusion_lon": 0.0, "rental_uris": {"ios": "https://dc.lft.to/lastmile_qr_scan", "android": "https://dc.lft.to/lastmile_qr_scan"}, "lon": -77.01863233333333, "bike_id": "10e85050a321ea333b6a359353d82db1", "type": "electric_scooter", "name": "10e85050a321ea333b6a359353d82db1"}, {"is_disabled": 0, "is_reserved": 0, "fusion_lat": 0.0, "lat": 38.84289116666667, "fusion_lon": 0.0, "rental_uris": {"ios": "https://dc.lft.to/lastmile_qr_scan", "android": "https://dc.lft.to/lastmile_qr_scan"}, "lon": -77.06380516666667, "bike_id": "c152df1c2595a92134a56842a65c996f", "type": "electric_bike", "name": "c152df1c2595a92134a56842a65c996f"}, {"is_disabled": 0, "is_reserved": 0, "fusion_lat": 0.0, "lat": 38.897332, "fusion_lon": 0.0, "rental_uris": {"ios": "https://dc.lft.to/lastmile_qr_scan", "android": "https://dc.lft.to/lastmile_qr_scan"}, "lon": -77.0453925, "bike_id": "b03901a92df41e94095da132bc91bfe6", "type": "electric_scooter", "name": "b03901a92df41e94095da132bc91bfe6"}, {"is_disabled": 0, "is_reserved": 0, "fusion_lat": 0.0, "lat": 38.91244533333333, "fusion_lon": 0.0, "rental_uris": {"ios": "https://dc.lft.to/lastmile_qr_scan", "android": "https://dc.lft.to/lastmile_qr_scan"}, "lon": -77.03181883333333, "bike_id": "3b066fbf9d4020d20655b9ca33d30de6", "type": "electric_scooter", "name": "3b066fbf9d4020d20655b9ca33d30de6"}, {"is_disabled": 0, "is_reserved": 0, "fusion_lat": 0.0, "lat": 38.929715333333334, "fusion_lon": 0.0, "rental_uris": {"ios": "https://dc.lft.to/lastmile_qr_scan", "android": "https://dc.lft.to/lastmile_qr_scan"}, "lon": -77.02927833333334, "bike_id": "081bab6edc33218cbf3a8f7289430477", "type": "electric_scooter", "name": "081bab6edc33218cbf3a8f7289430477"}, {"is_disabled": 0, "is_reserved": 0, "fusion_lat": 0.0, "lat": 38.92658866666667, "fusion_lon": 0.0, "rental_uris": {"ios": "https://dc.lft.to/lastmile_qr_scan", "android": "https://dc.lft.to/lastmile_qr_scan"}, "lon": -76.9929695, "bike_id": "705c2f71d42ced416bef9bfaffdb87e0", "type": "electric_scooter", "name": "705c2f71d42ced416bef9bfaffdb87e0"}, {"is_disabled": 0, "is_reserved": 0, "fusion_lat": 0.0, "lat": 38.9871585, "fusion_lon": 0.0, "rental_uris": {"ios": "https://dc.lft.to/lastmile_qr_scan", "android": "https://dc.lft.to/lastmile_qr_scan"}, "lon": -77.0376405, "bike_id": "ffd76b86fcd31d153fdf333a595c248f", "type": "electric_bike", "name": "ffd76b86fcd31d153fdf333a595c248f"}, {"is_disabled": 0, "is_reserved": 0, "fusion_lat": 0.0, "lat": 38.952485, "fusion_lon": 0.0, "rental_uris": {"ios": "https://dc.lft.to/lastmile_qr_scan", "android": "https://dc.lft.to/lastmile_qr_scan"}, "lon": -77.09626733333333, "bike_id": "a64dae6c4c869c4855680f953b1dc251", "type": "electric_bike", "name": "a64dae6c4c869c4855680f953b1dc251"}, {"is_disabled": 0, "is_reserved": 0, "fusion_lat": 0.0, "lat": 38.936342833333335, "fusion_lon": 0.0, "rental_uris": {"ios": "https://dc.lft.to/lastmile_qr_scan", "android": "https://dc.lft.to/lastmile_qr_scan"}, "lon": -77.027007, "bike_id": "5144f7fcb39b667d9c19862f7d59e892", "type": "electric_bike", "name": "5144f7fcb39b667d9c19862f7d59e892"}, {"is_disabled": 0, "is_reserved": 0, "fusion_lat": 0.0, "lat": 38.935332833333334, "fusion_lon": 0.0, "rental_uris": {"ios": "https://dc.lft.to/lastmile_qr_scan", "android": "https://dc.lft.to/lastmile_qr_scan"}, "lon": -77.023533, "bike_id": "9ba95a961e7d121dd2a2f530cdf4f79c", "type": "electric_scooter", "name": "9ba95a961e7d121dd2a2f530cdf4f79c"}, {"is_disabled": 0, "is_reserved": 0, "fusion_lat": 0.0, "lat": 38.91487883333333, "fusion_lon": 0.0, "rental_uris": {"ios": "https://dc.lft.to/lastmile_qr_scan", "android": "https://dc.lft.to/lastmile_qr_scan"}, "lon": -77.02156166666667, "bike_id": "06b2fd22752503d8586f2411cfeee98e", "type": "electric_scooter", "name": "06b2fd22752503d8586f2411cfeee98e"}, {"is_disabled": 0, "is_reserved": 0, "fusion_lat": 0.0, "lat": 38.9265785, "fusion_lon": 0.0, "rental_uris": {"ios": "https://dc.lft.to/lastmile_qr_scan", "android": "https://dc.lft.to/lastmile_qr_scan"}, "lon": -77.05202566666667, "bike_id": "1bde0c87f926fbcafc67a91ba9bbbed1", "type": "electric_scooter", "name": "1bde0c87f926fbcafc67a91ba9bbbed1"}, {"is_disabled": 0, "is_reserved": 0, "fusion_lat": 0.0, "lat": 38.905071666666664, "fusion_lon": 0.0, "rental_uris": {"ios": "https://dc.lft.to/lastmile_qr_scan", "android": "https://dc.lft.to/lastmile_qr_scan"}, "lon": -76.95195716666667, "bike_id": "0d4d926170aa3b2f03e6197c92fb5f6a", "type": "electric_scooter", "name": "0d4d926170aa3b2f03e6197c92fb5f6a"}, {"is_disabled": 0, "is_reserved": 0, "fusion_lat": 0.0, "lat": 38.87642866666667, "fusion_lon": 0.0, "rental_uris": {"ios": "https://dc.lft.to/lastmile_qr_scan", "android": "https://dc.lft.to/lastmile_qr_scan"}, "lon": -77.01470733333333, "bike_id": "f69734a492e3801f8c650fa2a3b37980", "type": "electric_scooter", "name": "f69734a492e3801f8c650fa2a3b37980"}, {"is_disabled": 0, "is_reserved": 0, "fusion_lat": 0.0, "lat": 38.89605533333334, "fusion_lon": 0.0, "rental_uris": {"ios": "https://dc.lft.to/lastmile_qr_scan", "android": "https://dc.lft.to/lastmile_qr_scan"}, "lon": -77.0450505, "bike_id": "0e17de68844b9b6c88e76f03e6d5f6da", "type": "electric_scooter", "name": "0e17de68844b9b6c88e76f03e6d5f6da"}, {"is_disabled": 0, "is_reserved": 0, "fusion_lat": 0.0, "lat": 38.8823935, "fusion_lon": 0.0, "rental_uris": {"ios": "https://dc.lft.to/lastmile_qr_scan", "android": "https://dc.lft.to/lastmile_qr_scan"}, "lon": -77.00922433333334, "bike_id": "778c6b96caa168c9dfea42458dc71afc", "type": "electric_scooter", "name": "778c6b96caa168c9dfea42458dc71afc"}, {"is_disabled": 0, "is_reserved": 0, "fusion_lat": 0.0, "lat": 38.892205, "fusion_lon": 0.0, "rental_uris": {"ios": "https://dc.lft.to/lastmile_qr_scan", "android": "https://dc.lft.to/lastmile_qr_scan"}, "lon": -77.02774866666667, "bike_id": "79ce6a25cc6dd165157ce1cc9b3c8334", "type": "electric_scooter", "name": "79ce6a25cc6dd165157ce1cc9b3c8334"}, {"is_disabled": 0, "is_reserved": 0, "fusion_lat": 0.0, "lat": 38.88544733333333, "fusion_lon": 0.0, "rental_uris": {"ios": "https://dc.lft.to/lastmile_qr_scan", "android": "https://dc.lft.to/lastmile_qr_scan"}, "lon": -76.95976083333333, "bike_id": "000ba144bbb9973175ac40c01b9194f5", "type": "electric_scooter", "name": "000ba144bbb9973175ac40c01b9194f5"}, {"is_disabled": 0, "is_reserved": 0, "fusion_lat": 0.0, "lat": 38.86009, "fusion_lon": 0.0, "rental_uris": {"ios": "https://dc.lft.to/lastmile_qr_scan", "android": "https://dc.lft.to/lastmile_qr_scan"}, "lon": -77.06528366666667, "bike_id": "2e5057c697f45e47b5693c846f5417cc", "type": "electric_bike", "name": "2e5057c697f45e47b5693c846f5417cc"}, {"is_disabled": 0, "is_reserved": 0, "fusion_lat": 0.0, "lat": 38.91804466666667, "fusion_lon": 0.0, "rental_uris": {"ios": "https://dc.lft.to/lastmile_qr_scan", "android": "https://dc.lft.to/lastmile_qr_scan"}, "lon": -77.02490116666667, "bike_id": "3fa0eea32fa3931d6f49b6126b7e9777", "type": "electric_scooter", "name": "3fa0eea32fa3931d6f49b6126b7e9777"}, {"is_disabled": 0, "is_reserved": 0, "fusion_lat": 0.0, "lat": 38.896684, "fusion_lon": 0.0, "rental_uris": {"ios": "https://dc.lft.to/lastmile_qr_scan", "android": "https://dc.lft.to/lastmile_qr_scan"}, "lon": -76.93204833333333, "bike_id": "b93c4e0fb8ed1fa85d2446ea0aadd15c", "type": "electric_scooter", "name": "b93c4e0fb8ed1fa85d2446ea0aadd15c"}, {"is_disabled": 0, "is_reserved": 0, "fusion_lat": 0.0, "lat": 38.923802, "fusion_lon": 0.0, "rental_uris": {"ios": "https://dc.lft.to/lastmile_qr_scan", "android": "https://dc.lft.to/lastmile_qr_scan"}, "lon": -77.04017266666666, "bike_id": "76b607670ea3bef6e418d04ce5f97080", "type": "electric_scooter", "name": "76b607670ea3bef6e418d04ce5f97080"}, {"is_disabled": 0, "is_reserved": 0, "fusion_lat": 0.0, "lat": 38.91045366666667, "fusion_lon": 0.0, "rental_uris": {"ios": "https://dc.lft.to/lastmile_qr_scan", "android": "https://dc.lft.to/lastmile_qr_scan"}, "lon": -77.03712483333334, "bike_id": "8a7bc8606e11cf1e677cbf790d228712", "type": "electric_scooter", "name": "8a7bc8606e11cf1e677cbf790d228712"}, {"is_disabled": 0, "is_reserved": 0, "fusion_lat": 0.0, "lat": 38.885746833333336, "fusion_lon": 0.0, "rental_uris": {"ios": "https://dc.lft.to/lastmile_qr_scan", "android": "https://dc.lft.to/lastmile_qr_scan"}, "lon": -77.02005283333334, "bike_id": "f05cad31387fb95506f6d00b190cd324", "type": "electric_scooter", "name": "f05cad31387fb95506f6d00b190cd324"}, {"is_disabled": 0, "is_reserved": 0, "fusion_lat": 0.0, "lat": 38.934272666666665, "fusion_lon": 0.0, "rental_uris": {"ios": "https://dc.lft.to/lastmile_qr_scan", "android": "https://dc.lft.to/lastmile_qr_scan"}, "lon": -77.04311683333333, "bike_id": "60ed0d718db7b851f48a52961b1efa39", "type": "electric_scooter", "name": "60ed0d718db7b851f48a52961b1efa39"}, {"is_disabled": 0, "is_reserved": 0, "fusion_lat": 0.0, "lat": 38.9458565, "fusion_lon": 0.0, "rental_uris": {"ios": "https://dc.lft.to/lastmile_qr_scan", "android": "https://dc.lft.to/lastmile_qr_scan"}, "lon": -77.020316, "bike_id": "40bacd1e0e43baefc0a247c710c890c3", "type": "electric_scooter", "name": "40bacd1e0e43baefc0a247c710c890c3"}, {"is_disabled": 0, "is_reserved": 0, "fusion_lat": 0.0, "lat": 38.9104915, "fusion_lon": 0.0, "rental_uris": {"ios": "https://dc.lft.to/lastmile_qr_scan", "android": "https://dc.lft.to/lastmile_qr_scan"}, "lon": -77.0150685, "bike_id": "7860655d0d2d269360a6ba2eb38c8a1b", "type": "electric_scooter", "name": "7860655d0d2d269360a6ba2eb38c8a1b"}, {"is_disabled": 0, "is_reserved": 0, "fusion_lat": 0.0, "lat": 38.9064495, "fusion_lon": 0.0, "rental_uris": {"ios": "https://dc.lft.to/lastmile_qr_scan", "android": "https://dc.lft.to/lastmile_qr_scan"}, "lon": -77.0455445, "bike_id": "6333d28e68c9db485d6511ba31e85c0b", "type": "electric_scooter", "name": "6333d28e68c9db485d6511ba31e85c0b"}, {"is_disabled": 0, "is_reserved": 0, "fusion_lat": 0.0, "lat": 38.9463215, "fusion_lon": 0.0, "rental_uris": {"ios": "https://dc.lft.to/lastmile_qr_scan", "android": "https://dc.lft.to/lastmile_qr_scan"}, "lon": -77.0184235, "bike_id": "23fb99bcdc5553d47ff7a85fb6ad5149", "type": "electric_scooter", "name": "23fb99bcdc5553d47ff7a85fb6ad5149"}, {"is_disabled": 0, "is_reserved": 0, "fusion_lat": 0.0, "lat": 38.893490166666666, "fusion_lon": 0.0, "rental_uris": {"ios": "https://dc.lft.to/lastmile_qr_scan", "android": "https://dc.lft.to/lastmile_qr_scan"}, "lon": -77.03965333333333, "bike_id": "998281cefe73a200abfdebc6711f6713", "type": "electric_scooter", "name": "998281cefe73a200abfdebc6711f6713"}, {"is_disabled": 0, "is_reserved": 0, "fusion_lat": 0.0, "lat": 38.902661333333334, "fusion_lon": 0.0, "rental_uris": {"ios": "https://dc.lft.to/lastmile_qr_scan", "android": "https://dc.lft.to/lastmile_qr_scan"}, "lon": -77.0396555, "bike_id": "0ac9a133048769430d2db645c399e648", "type": "electric_scooter", "name": "0ac9a133048769430d2db645c399e648"}, {"is_disabled": 0, "is_reserved": 0, "fusion_lat": 0.0, "lat": 38.84274283333333, "fusion_lon": 0.0, "rental_uris": {"ios": "https://dc.lft.to/lastmile_qr_scan", "android": "https://dc.lft.to/lastmile_qr_scan"}, "lon": -76.98837516666667, "bike_id": "1ba589f2861a91998eb39ea3c37c0086", "type": "electric_bike", "name": "1ba589f2861a91998eb39ea3c37c0086"}, {"is_disabled": 0, "is_reserved": 0, "fusion_lat": 0.0, "lat": 38.806773, "fusion_lon": 0.0, "rental_uris": {"ios": "https://dc.lft.to/lastmile_qr_scan", "android": "https://dc.lft.to/lastmile_qr_scan"}, "lon": -77.06914683333333, "bike_id": "1758fe49691205469129acf7b531b588", "type": "electric_bike", "name": "1758fe49691205469129acf7b531b588"}, {"is_disabled": 0, "is_reserved": 0, "fusion_lat": 0.0, "lat": 38.906914, "fusion_lon": 0.0, "rental_uris": {"ios": "https://dc.lft.to/lastmile_qr_scan", "android": "https://dc.lft.to/lastmile_qr_scan"}, "lon": -77.06298066666666, "bike_id": "5c7b251b83e1ae190980fda7b323fe76", "type": "electric_scooter", "name": "5c7b251b83e1ae190980fda7b323fe76"}, {"is_disabled": 0, "is_reserved": 0, "fusion_lat": 0.0, "lat": 38.923115, "fusion_lon": 0.0, "rental_uris": {"ios": "https://dc.lft.to/lastmile_qr_scan", "android": "https://dc.lft.to/lastmile_qr_scan"}, "lon": -77.03391416666666, "bike_id": "1f036788526df57431be4535a23f914a", "type": "electric_scooter", "name": "1f036788526df57431be4535a23f914a"}, {"is_disabled": 0, "is_reserved": 0, "fusion_lat": 0.0, "lat": 38.894540166666665, "fusion_lon": 0.0, "rental_uris": {"ios": "https://dc.lft.to/lastmile_qr_scan", "android": "https://dc.lft.to/lastmile_qr_scan"}, "lon": -76.936743, "bike_id": "cdfdd6b1597ae685a85de3891655a1db", "type": "electric_bike", "name": "cdfdd6b1597ae685a85de3891655a1db"}, {"is_disabled": 0, "is_reserved": 0, "fusion_lat": 0.0, "lat": 38.898421666666664, "fusion_lon": 0.0, "rental_uris": {"ios": "https://dc.lft.to/lastmile_qr_scan", "android": "https://dc.lft.to/lastmile_qr_scan"}, "lon": -77.00201333333334, "bike_id": "80e64cc161311901a938d54d9e18737e", "type": "electric_scooter", "name": "80e64cc161311901a938d54d9e18737e"}, {"is_disabled": 0, "is_reserved": 0, "fusion_lat": 0.0, "lat": 38.97437516666667, "fusion_lon": 0.0, "rental_uris": {"ios": "https://dc.lft.to/lastmile_qr_scan", "android": "https://dc.lft.to/lastmile_qr_scan"}, "lon": -77.09612716666666, "bike_id": "b75ce50a78e939c94b3272b87028d017", "type": "electric_bike", "name": "b75ce50a78e939c94b3272b87028d017"}, {"is_disabled": 0, "is_reserved": 0, "fusion_lat": 0.0, "lat": 38.917071666666665, "fusion_lon": 0.0, "rental_uris": {"ios": "https://dc.lft.to/lastmile_qr_scan", "android": "https://dc.lft.to/lastmile_qr_scan"}, "lon": -77.04146716666666, "bike_id": "e184f1ac54390f38011e9b70f8719daa", "type": "electric_scooter", "name": "e184f1ac54390f38011e9b70f8719daa"}, {"is_disabled": 0, "is_reserved": 0, "fusion_lat": 0.0, "lat": 38.87653783333333, "fusion_lon": 0.0, "rental_uris": {"ios": "https://dc.lft.to/lastmile_qr_scan", "android": "https://dc.lft.to/lastmile_qr_scan"}, "lon": -77.008829, "bike_id": "81201a4ff9987783d0f705c94ff3e612", "type": "electric_scooter", "name": "81201a4ff9987783d0f705c94ff3e612"}, {"is_disabled": 0, "is_reserved": 0, "fusion_lat": 0.0, "lat": 38.928671, "fusion_lon": 0.0, "rental_uris": {"ios": "https://dc.lft.to/lastmile_qr_scan", "android": "https://dc.lft.to/lastmile_qr_scan"}, "lon": -77.05656416666666, "bike_id": "33ccdc5b510134480a6b549ba88e77ea", "type": "electric_scooter", "name": "33ccdc5b510134480a6b549ba88e77ea"}, {"is_disabled": 0, "is_reserved": 0, "fusion_lat": 0.0, "lat": 38.920110333333334, "fusion_lon": 0.0, "rental_uris": {"ios": "https://dc.lft.to/lastmile_qr_scan", "android": "https://dc.lft.to/lastmile_qr_scan"}, "lon": -77.03162583333334, "bike_id": "fc6f6ffb4c72795e6410eac8e00e9aed", "type": "electric_scooter", "name": "fc6f6ffb4c72795e6410eac8e00e9aed"}, {"is_disabled": 0, "is_reserved": 0, "fusion_lat": 0.0, "lat": 38.899124, "fusion_lon": 0.0, "rental_uris": {"ios": "https://dc.lft.to/lastmile_qr_scan", "android": "https://dc.lft.to/lastmile_qr_scan"}, "lon": -76.9336805, "bike_id": "d310a96f2aa2fb0106ea4fd2aff8d28b", "type": "electric_scooter", "name": "d310a96f2aa2fb0106ea4fd2aff8d28b"}, {"is_disabled": 0, "is_reserved": 0, "fusion_lat": 0.0, "lat": 38.880391, "fusion_lon": 0.0, "rental_uris": {"ios": "https://dc.lft.to/lastmile_qr_scan", "android": "https://dc.lft.to/lastmile_qr_scan"}, "lon": -76.9271925, "bike_id": "51dc6495e0fc0ab71aaed66cee3f7437", "type": "electric_scooter", "name": "51dc6495e0fc0ab71aaed66cee3f7437"}, {"is_disabled": 0, "is_reserved": 0, "fusion_lat": 0.0, "lat": 38.9126285, "fusion_lon": 0.0, "rental_uris": {"ios": "https://dc.lft.to/lastmile_qr_scan", "android": "https://dc.lft.to/lastmile_qr_scan"}, "lon": -77.01602183333334, "bike_id": "fe611fdd4f54c511f0b4fb6765952622", "type": "electric_scooter", "name": "fe611fdd4f54c511f0b4fb6765952622"}, {"is_disabled": 0, "is_reserved": 0, "fusion_lat": 0.0, "lat": 38.8291725, "fusion_lon": 0.0, "rental_uris": {"ios": "https://dc.lft.to/lastmile_qr_scan", "android": "https://dc.lft.to/lastmile_qr_scan"}, "lon": -77.06875483333333, "bike_id": "ba41cce8e6b53a775a5c57fba63895be", "type": "electric_bike", "name": "ba41cce8e6b53a775a5c57fba63895be"}, {"is_disabled": 0, "is_reserved": 0, "fusion_lat": 0.0, "lat": 38.89903983333333, "fusion_lon": 0.0, "rental_uris": {"ios": "https://dc.lft.to/lastmile_qr_scan", "android": "https://dc.lft.to/lastmile_qr_scan"}, "lon": -77.03972233333333, "bike_id": "72b1f895c6fa038028982957f56d6406", "type": "electric_scooter", "name": "72b1f895c6fa038028982957f56d6406"}, {"is_disabled": 0, "is_reserved": 0, "fusion_lat": 0.0, "lat": 38.92252933333333, "fusion_lon": 0.0, "rental_uris": {"ios": "https://dc.lft.to/lastmile_qr_scan", "android": "https://dc.lft.to/lastmile_qr_scan"}, "lon": -77.07275516666667, "bike_id": "e345ca8794c6b78c7dc6dba01a1ee427", "type": "electric_scooter", "name": "e345ca8794c6b78c7dc6dba01a1ee427"}, {"is_disabled": 0, "is_reserved": 0, "fusion_lat": 0.0, "lat": 38.91678916666667, "fusion_lon": 0.0, "rental_uris": {"ios": "https://dc.lft.to/lastmile_qr_scan", "android": "https://dc.lft.to/lastmile_qr_scan"}, "lon": -77.03193783333333, "bike_id": "045f5c25288bebf548aa4038e276a78c", "type": "electric_scooter", "name": "045f5c25288bebf548aa4038e276a78c"}, {"is_disabled": 0, "is_reserved": 0, "fusion_lat": 0.0, "lat": 38.9276015, "fusion_lon": 0.0, "rental_uris": {"ios": "https://dc.lft.to/lastmile_qr_scan", "android": "https://dc.lft.to/lastmile_qr_scan"}, "lon": -77.02950316666667, "bike_id": "b96f6acb3b5d41cc918a34c97fa00f3e", "type": "electric_scooter", "name": "b96f6acb3b5d41cc918a34c97fa00f3e"}, {"is_disabled": 0, "is_reserved": 0, "fusion_lat": 0.0, "lat": 38.89605533333334, "fusion_lon": 0.0, "rental_uris": {"ios": "https://dc.lft.to/lastmile_qr_scan", "android": "https://dc.lft.to/lastmile_qr_scan"}, "lon": -77.00335183333334, "bike_id": "df50365e70b5019a3f96391bd8e6e343", "type": "electric_scooter", "name": "df50365e70b5019a3f96391bd8e6e343"}, {"is_disabled": 0, "is_reserved": 0, "fusion_lat": 0.0, "lat": 38.90357816666667, "fusion_lon": 0.0, "rental_uris": {"ios": "https://dc.lft.to/lastmile_qr_scan", "android": "https://dc.lft.to/lastmile_qr_scan"}, "lon": -77.02949683333334, "bike_id": "341914d4d2d12662680b7b944d7293e7", "type": "electric_scooter", "name": "341914d4d2d12662680b7b944d7293e7"}, {"is_disabled": 0, "is_reserved": 0, "fusion_lat": 0.0, "lat": 38.91105866666667, "fusion_lon": 0.0, "rental_uris": {"ios": "https://dc.lft.to/lastmile_qr_scan", "android": "https://dc.lft.to/lastmile_qr_scan"}, "lon": -77.01156983333334, "bike_id": "9213831cd49944a6b6603cb949dd20f3", "type": "electric_scooter", "name": "9213831cd49944a6b6603cb949dd20f3"}, {"is_disabled": 0, "is_reserved": 0, "fusion_lat": 0.0, "lat": 38.92343833333334, "fusion_lon": 0.0, "rental_uris": {"ios": "https://dc.lft.to/lastmile_qr_scan", "android": "https://dc.lft.to/lastmile_qr_scan"}, "lon": -77.01903833333333, "bike_id": "42d1d819badb94ab4e452cd17e005361", "type": "electric_scooter", "name": "42d1d819badb94ab4e452cd17e005361"}, {"is_disabled": 0, "is_reserved": 0, "fusion_lat": 0.0, "lat": 38.91537483333333, "fusion_lon": 0.0, "rental_uris": {"ios": "https://dc.lft.to/lastmile_qr_scan", "android": "https://dc.lft.to/lastmile_qr_scan"}, "lon": -77.0091505, "bike_id": "88d6acaa563fe86fa6a96f4420541fa9", "type": "electric_scooter", "name": "88d6acaa563fe86fa6a96f4420541fa9"}, {"is_disabled": 0, "is_reserved": 0, "fusion_lat": 0.0, "lat": 38.91745, "fusion_lon": 0.0, "rental_uris": {"ios": "https://dc.lft.to/lastmile_qr_scan", "android": "https://dc.lft.to/lastmile_qr_scan"}, "lon": -77.04070433333334, "bike_id": "1a4ea35f1ebf16c68f6274a931469523", "type": "electric_scooter", "name": "1a4ea35f1ebf16c68f6274a931469523"}, {"is_disabled": 0, "is_reserved": 0, "fusion_lat": 0.0, "lat": 38.928310833333335, "fusion_lon": 0.0, "rental_uris": {"ios": "https://dc.lft.to/lastmile_qr_scan", "android": "https://dc.lft.to/lastmile_qr_scan"}, "lon": -77.0137805, "bike_id": "d6177caae51fbdbca0bcdd7b6d6cb822", "type": "electric_scooter", "name": "d6177caae51fbdbca0bcdd7b6d6cb822"}, {"is_disabled": 0, "is_reserved": 0, "fusion_lat": 0.0, "lat": 38.896073333333334, "fusion_lon": 0.0, "rental_uris": {"ios": "https://dc.lft.to/lastmile_qr_scan", "android": "https://dc.lft.to/lastmile_qr_scan"}, "lon": -76.998028, "bike_id": "77f1142b9d6fc52c80d1da203194c924", "type": "electric_scooter", "name": "77f1142b9d6fc52c80d1da203194c924"}, {"is_disabled": 0, "is_reserved": 0, "fusion_lat": 0.0, "lat": 38.917731333333336, "fusion_lon": 0.0, "rental_uris": {"ios": "https://dc.lft.to/lastmile_qr_scan", "android": "https://dc.lft.to/lastmile_qr_scan"}, "lon": -77.02695, "bike_id": "ba73404270518635a6b791162d7215d3", "type": "electric_scooter", "name": "ba73404270518635a6b791162d7215d3"}, {"is_disabled": 0, "is_reserved": 0, "fusion_lat": 0.0, "lat": 38.90892216666667, "fusion_lon": 0.0, "rental_uris": {"ios": "https://dc.lft.to/lastmile_qr_scan", "android": "https://dc.lft.to/lastmile_qr_scan"}, "lon": -77.04384433333334, "bike_id": "519c9df783baa0dbc3782bb8ddffca8c", "type": "electric_scooter", "name": "519c9df783baa0dbc3782bb8ddffca8c"}, {"is_disabled": 0, "is_reserved": 0, "fusion_lat": 0.0, "lat": 38.89227116666667, "fusion_lon": 0.0, "rental_uris": {"ios": "https://dc.lft.to/lastmile_qr_scan", "android": "https://dc.lft.to/lastmile_qr_scan"}, "lon": -77.04647216666666, "bike_id": "7d5270dac69361224a91e178f976e110", "type": "electric_scooter", "name": "7d5270dac69361224a91e178f976e110"}, {"is_disabled": 0, "is_reserved": 0, "fusion_lat": 0.0, "lat": 38.93981633333333, "fusion_lon": 0.0, "rental_uris": {"ios": "https://dc.lft.to/lastmile_qr_scan", "android": "https://dc.lft.to/lastmile_qr_scan"}, "lon": -77.0289875, "bike_id": "e11de55b5e0ca529577fa88a57ccadd1", "type": "electric_scooter", "name": "e11de55b5e0ca529577fa88a57ccadd1"}, {"is_disabled": 0, "is_reserved": 0, "fusion_lat": 0.0, "lat": 38.9045475, "fusion_lon": 0.0, "rental_uris": {"ios": "https://dc.lft.to/lastmile_qr_scan", "android": "https://dc.lft.to/lastmile_qr_scan"}, "lon": -76.93279, "bike_id": "ece63f7c892ce8c7c9c87cff95b0cc56", "type": "electric_scooter", "name": "ece63f7c892ce8c7c9c87cff95b0cc56"}, {"is_disabled": 0, "is_reserved": 0, "fusion_lat": 0.0, "lat": 38.93290433333333, "fusion_lon": 0.0, "rental_uris": {"ios": "https://dc.lft.to/lastmile_qr_scan", "android": "https://dc.lft.to/lastmile_qr_scan"}, "lon": -77.02315616666667, "bike_id": "d4f1aec67642d58a699ea05db94b14b2", "type": "electric_scooter", "name": "d4f1aec67642d58a699ea05db94b14b2"}, {"is_disabled": 0, "is_reserved": 0, "fusion_lat": 0.0, "lat": 38.930957, "fusion_lon": 0.0, "rental_uris": {"ios": "https://dc.lft.to/lastmile_qr_scan", "android": "https://dc.lft.to/lastmile_qr_scan"}, "lon": -77.02663733333333, "bike_id": "b7e0a6d8196874bb6207b5c503578e9d", "type": "electric_scooter", "name": "b7e0a6d8196874bb6207b5c503578e9d"}, {"is_disabled": 0, "is_reserved": 0, "fusion_lat": 0.0, "lat": 38.8967095, "fusion_lon": 0.0, "rental_uris": {"ios": "https://dc.lft.to/lastmile_qr_scan", "android": "https://dc.lft.to/lastmile_qr_scan"}, "lon": -77.04892533333333, "bike_id": "0ce44b509fef9104ba42016fd18f72b3", "type": "electric_scooter", "name": "0ce44b509fef9104ba42016fd18f72b3"}, {"is_disabled": 0, "is_reserved": 0, "fusion_lat": 0.0, "lat": 38.8936115, "fusion_lon": 0.0, "rental_uris": {"ios": "https://dc.lft.to/lastmile_qr_scan", "android": "https://dc.lft.to/lastmile_qr_scan"}, "lon": -76.94109283333333, "bike_id": "ec2fb1af03315eb2ec5f0eed6e47a22d", "type": "electric_scooter", "name": "ec2fb1af03315eb2ec5f0eed6e47a22d"}, {"is_disabled": 0, "is_reserved": 0, "fusion_lat": 0.0, "lat": 38.9369615, "fusion_lon": 0.0, "rental_uris": {"ios": "https://dc.lft.to/lastmile_qr_scan", "android": "https://dc.lft.to/lastmile_qr_scan"}, "lon": -77.056012, "bike_id": "382708cd8f5c30416abeddae0482afbc", "type": "electric_scooter", "name": "382708cd8f5c30416abeddae0482afbc"}, {"is_disabled": 0, "is_reserved": 0, "fusion_lat": 0.0, "lat": 38.90262766666667, "fusion_lon": 0.0, "rental_uris": {"ios": "https://dc.lft.to/lastmile_qr_scan", "android": "https://dc.lft.to/lastmile_qr_scan"}, "lon": -77.03963633333333, "bike_id": "9f8a28f8910e007134e68d28ff5b63ed", "type": "electric_scooter", "name": "9f8a28f8910e007134e68d28ff5b63ed"}, {"is_disabled": 0, "is_reserved": 0, "fusion_lat": 0.0, "lat": 38.99996633333333, "fusion_lon": 0.0, "rental_uris": {"ios": "https://dc.lft.to/lastmile_qr_scan", "android": "https://dc.lft.to/lastmile_qr_scan"}, "lon": -76.918031, "bike_id": "a8677248a0f1cf8aa82c7f6a1f019a4c", "type": "electric_bike", "name": "a8677248a0f1cf8aa82c7f6a1f019a4c"}, {"is_disabled": 0, "is_reserved": 0, "fusion_lat": 0.0, "lat": 38.8998195, "fusion_lon": 0.0, "rental_uris": {"ios": "https://dc.lft.to/lastmile_qr_scan", "android": "https://dc.lft.to/lastmile_qr_scan"}, "lon": -77.00932133333333, "bike_id": "e527bdd8b5cb4153f657f1fdb64e46db", "type": "electric_scooter", "name": "e527bdd8b5cb4153f657f1fdb64e46db"}, {"is_disabled": 0, "is_reserved": 0, "fusion_lat": 0.0, "lat": 38.8988275, "fusion_lon": 0.0, "rental_uris": {"ios": "https://dc.lft.to/lastmile_qr_scan", "android": "https://dc.lft.to/lastmile_qr_scan"}, "lon": -77.03993283333334, "bike_id": "7f870b4c9e3b65b8c1a1a569c4357ae2", "type": "electric_scooter", "name": "7f870b4c9e3b65b8c1a1a569c4357ae2"}, {"is_disabled": 0, "is_reserved": 0, "fusion_lat": 0.0, "lat": 38.87678716666667, "fusion_lon": 0.0, "rental_uris": {"ios": "https://dc.lft.to/lastmile_qr_scan", "android": "https://dc.lft.to/lastmile_qr_scan"}, "lon": -77.00053866666667, "bike_id": "1464c5c6ea810236eb5f77eb013d2d8f", "type": "electric_scooter", "name": "1464c5c6ea810236eb5f77eb013d2d8f"}, {"is_disabled": 0, "is_reserved": 0, "fusion_lat": 0.0, "lat": 38.866747, "fusion_lon": 0.0, "rental_uris": {"ios": "https://dc.lft.to/lastmile_qr_scan", "android": "https://dc.lft.to/lastmile_qr_scan"},