{"data": {"bikes": [{"bike_id": "cfbbbe021975771ea53f9a7e793fe616", "type": "electric_scooter", "is_disabled": 0, "lat": 38.89511916666667, "rental_uris": {"ios": "https://dc.lft.to/lastmile_qr_scan", "android": "https://dc.lft.to/lastmile_qr_scan"}, "is_reserved": 0, "fusion_lon": 0.0, "fusion_lat": 0.0, "lon": -77.01103216666667, "name": "cfbbbe021975771ea53f9a7e793fe616"}, {"bike_id": "aae26366e2fe3967cc196ff2c34eccd8", "type": "electric_scooter", "is_disabled": 0, "lat": 38.8874415, "rental_uris": {"ios": "https://dc.lft.to/lastmile_qr_scan", "android": "https://dc.lft.to/lastmile_qr_scan"}, "is_reserved": 0, "fusion_lon": 0.0, "fusion_lat": 0.0, "lon": -77.02727916666667, "name": "aae26366e2fe3967cc196ff2c34eccd8"}, {"bike_id": "d2acab89007268d53c761311d8bb97c4", "type": "electric_bike", "is_disabled": 0, "lat": 38.86485616666667, "rental_uris": {"ios": "https://dc.lft.to/lastmile_qr_scan", "android": "https://dc.lft.to/lastmile_qr_scan"}, "is_reserved": 0, "fusion_lon": 0.0, "fusion_lat": 0.0, "lon": -76.97743483333333, "name": "d2acab89007268d53c761311d8bb97c4"}, {"bike_id": "c43d51a3fb2b0f910df96a7191124456", "type": "electric_scooter", "is_disabled": 0, "lat": 38.899640833333336, "rental_uris": {"ios": "https://dc.lft.to/lastmile_qr_scan", "android": "https://dc.lft.to/lastmile_qr_scan"}, "is_reserved": 0, "fusion_lon": 0.0, "fusion_lat": 0.0, "lon": -77.047581, "name": "c43d51a3fb2b0f910df96a7191124456"}, {"bike_id": "25c5b374ce55a68900efe3dbb904131c", "type": "electric_scooter", "is_disabled": 0, "lat": 38.938947666666664, "rental_uris": {"ios": "https://dc.lft.to/lastmile_qr_scan", "android": "https://dc.lft.to/lastmile_qr_scan"}, "is_reserved": 0, "fusion_lon": 0.0, "fusion_lat": 0.0, "lon": -77.03318783333333, "name": "25c5b374ce55a68900efe3dbb904131c"}, {"bike_id": "e2ccd7ecd81ebf74fede72bdbce9123f", "type": "electric_scooter", "is_disabled": 0, "lat": 38.941848666666665, "rental_uris": {"ios": "https://dc.lft.to/lastmile_qr_scan", "android": "https://dc.lft.to/lastmile_qr_scan"}, "is_reserved": 0, "fusion_lon": 0.0, "fusion_lat": 0.0, "lon": -77.02490083333333, "name": "e2ccd7ecd81ebf74fede72bdbce9123f"}, {"bike_id": "665df1290ae0dbafc05a91ef9fdcadc1", "type": "electric_scooter", "is_disabled": 0, "lat": 38.928169, "rental_uris": {"ios": "https://dc.lft.to/lastmile_qr_scan", "android": "https://dc.lft.to/lastmile_qr_scan"}, "is_reserved": 0, "fusion_lon": 0.0, "fusion_lat": 0.0, "lon": -77.01385283333333, "name": "665df1290ae0dbafc05a91ef9fdcadc1"}, {"bike_id": "0782e80330812c43cfbc5341ad770894", "type": "electric_scooter", "is_disabled": 0, "lat": 38.914851666666664, "rental_uris": {"ios": "https://dc.lft.to/lastmile_qr_scan", "android": "https://dc.lft.to/lastmile_qr_scan"}, "is_reserved": 0, "fusion_lon": 0.0, "fusion_lat": 0.0, "lon": -77.02495883333333, "name": "0782e80330812c43cfbc5341ad770894"}, {"bike_id": "fb5e4de5aa234e86330a20e5bb2a45a4", "type": "electric_scooter", "is_disabled": 0, "lat": 38.922163833333336, "rental_uris": {"ios": "https://dc.lft.to/lastmile_qr_scan", "android": "https://dc.lft.to/lastmile_qr_scan"}, "is_reserved": 0, "fusion_lon": 0.0, "fusion_lat": 0.0, "lon": -77.03456483333333, "name": "fb5e4de5aa234e86330a20e5bb2a45a4"}, {"bike_id": "25c1409a19f02aa5840081960c76211a", "type": "electric_scooter", "is_disabled": 0, "lat": 38.8929095, "rental_uris": {"ios": "https://dc.lft.to/lastmile_qr_scan", "android": "https://dc.lft.to/lastmile_qr_scan"}, "is_reserved": 0, "fusion_lon": 0.0, "fusion_lat": 0.0, "lon": -77.02617316666667, "name": "25c1409a19f02aa5840081960c76211a"}, {"bike_id": "03940cdf4c0e2c31a744fae51988f272", "type": "electric_scooter", "is_disabled": 0, "lat": 38.94192133333333, "rental_uris": {"ios": "https://dc.lft.to/lastmile_qr_scan", "android": "https://dc.lft.to/lastmile_qr_scan"}, "is_reserved": 0, "fusion_lon": 0.0, "fusion_lat": 0.0, "lon": -77.0255245, "name": "03940cdf4c0e2c31a744fae51988f272"}, {"bike_id": "4557c3da97a9e3ac4ece9018be33b267", "type": "electric_scooter", "is_disabled": 0, "lat": 38.8706995, "rental_uris": {"ios": "https://dc.lft.to/lastmile_qr_scan", "android": "https://dc.lft.to/lastmile_qr_scan"}, "is_reserved": 0, "fusion_lon": 0.0, "fusion_lat": 0.0, "lon": -76.98126566666667, "name": "4557c3da97a9e3ac4ece9018be33b267"}, {"bike_id": "d7326873b654d8de6fdeefc54268e4b5", "type": "electric_scooter", "is_disabled": 0, "lat": 38.85808883333333, "rental_uris": {"ios": "https://dc.lft.to/lastmile_qr_scan", "android": "https://dc.lft.to/lastmile_qr_scan"}, "is_reserved": 0, "fusion_lon": 0.0, "fusion_lat": 0.0, "lon": -76.98921816666666, "name": "d7326873b654d8de6fdeefc54268e4b5"}, {"bike_id": "e5d9dcbe4db94aa6803c5a46bfe4093b", "type": "electric_scooter", "is_disabled": 0, "lat": 38.90025966666666, "rental_uris": {"ios": "https://dc.lft.to/lastmile_qr_scan", "android": "https://dc.lft.to/lastmile_qr_scan"}, "is_reserved": 0, "fusion_lon": 0.0, "fusion_lat": 0.0, "lon": -76.99858983333333, "name": "e5d9dcbe4db94aa6803c5a46bfe4093b"}, {"bike_id": "3ef39f80992e7df084b35bc4195b45dd", "type": "electric_scooter", "is_disabled": 0, "lat": 38.900267, "rental_uris": {"ios": "https://dc.lft.to/lastmile_qr_scan", "android": "https://dc.lft.to/lastmile_qr_scan"}, "is_reserved": 0, "fusion_lon": 0.0, "fusion_lat": 0.0, "lon": -76.9901215, "name": "3ef39f80992e7df084b35bc4195b45dd"}, {"bike_id": "7b0cf66bd6fd76a6e373e8f17f9097bb", "type": "electric_bike", "is_disabled": 0, "lat": 38.924045, "rental_uris": {"ios": "https://dc.lft.to/lastmile_qr_scan", "android": "https://dc.lft.to/lastmile_qr_scan"}, "is_reserved": 0, "fusion_lon": 0.0, "fusion_lat": 0.0, "lon": -77.024295, "name": "7b0cf66bd6fd76a6e373e8f17f9097bb"}, {"bike_id": "0d849b0f99af3f68b463905a8c52b50f", "type": "electric_scooter", "is_disabled": 0, "lat": 38.922343833333336, "rental_uris": {"ios": "https://dc.lft.to/lastmile_qr_scan", "android": "https://dc.lft.to/lastmile_qr_scan"}, "is_reserved": 0, "fusion_lon": 0.0, "fusion_lat": 0.0, "lon": -76.97533166666666, "name": "0d849b0f99af3f68b463905a8c52b50f"}, {"bike_id": "dfd65385e1f62879a461854b160ce9e1", "type": "electric_scooter", "is_disabled": 0, "lat": 38.909669, "rental_uris": {"ios": "https://dc.lft.to/lastmile_qr_scan", "android": "https://dc.lft.to/lastmile_qr_scan"}, "is_reserved": 0, "fusion_lon": 0.0, "fusion_lat": 0.0, "lon": -77.007602, "name": "dfd65385e1f62879a461854b160ce9e1"}, {"bike_id": "816d9d8a9ed84500d722fe5b9bbe93dc", "type": "electric_scooter", "is_disabled": 0, "lat": 38.899786, "rental_uris": {"ios": "https://dc.lft.to/lastmile_qr_scan", "android": "https://dc.lft.to/lastmile_qr_scan"}, "is_reserved": 0, "fusion_lon": 0.0, "fusion_lat": 0.0, "lon": -77.02061083333334, "name": "816d9d8a9ed84500d722fe5b9bbe93dc"}, {"bike_id": "beaf5cbd51bfe8e0d1d37d43e0eb7035", "type": "electric_scooter", "is_disabled": 0, "lat": 38.93317783333333, "rental_uris": {"ios": "https://dc.lft.to/lastmile_qr_scan", "android": "https://dc.lft.to/lastmile_qr_scan"}, "is_reserved": 0, "fusion_lon": 0.0, "fusion_lat": 0.0, "lon": -77.02749083333333, "name": "beaf5cbd51bfe8e0d1d37d43e0eb7035"}, {"bike_id": "20db5cfa133eb06993ef0473f9db21f3", "type": "electric_scooter", "is_disabled": 0, "lat": 38.876584, "rental_uris": {"ios": "https://dc.lft.to/lastmile_qr_scan", "android": "https://dc.lft.to/lastmile_qr_scan"}, "is_reserved": 0, "fusion_lon": 0.0, "fusion_lat": 0.0, "lon": -76.99640733333334, "name": "20db5cfa133eb06993ef0473f9db21f3"}, {"bike_id": "b1a8bede93852862329c90c2d5022849", "type": "electric_scooter", "is_disabled": 0, "lat": 38.919571, "rental_uris": {"ios": "https://dc.lft.to/lastmile_qr_scan", "android": "https://dc.lft.to/lastmile_qr_scan"}, "is_reserved": 0, "fusion_lon": 0.0, "fusion_lat": 0.0, "lon": -77.04224116666667, "name": "b1a8bede93852862329c90c2d5022849"}, {"bike_id": "94889a46da424afee18d897285fca85f", "type": "electric_scooter", "is_disabled": 0, "lat": 38.9095425, "rental_uris": {"ios": "https://dc.lft.to/lastmile_qr_scan", "android": "https://dc.lft.to/lastmile_qr_scan"}, "is_reserved": 0, "fusion_lon": 0.0, "fusion_lat": 0.0, "lon": -77.03942783333333, "name": "94889a46da424afee18d897285fca85f"}, {"bike_id": "533955a8e69df200ff61c770da8d0547", "type": "electric_scooter", "is_disabled": 0, "lat": 38.92096433333333, "rental_uris": {"ios": "https://dc.lft.to/lastmile_qr_scan", "android": "https://dc.lft.to/lastmile_qr_scan"}, "is_reserved": 0, "fusion_lon": 0.0, "fusion_lat": 0.0, "lon": -77.01707866666666, "name": "533955a8e69df200ff61c770da8d0547"}, {"bike_id": "024162809f206b8dd0e2d25f6e24d276", "type": "electric_scooter", "is_disabled": 0, "lat": 38.91684383333333, "rental_uris": {"ios": "https://dc.lft.to/lastmile_qr_scan", "android": "https://dc.lft.to/lastmile_qr_scan"}, "is_reserved": 0, "fusion_lon": 0.0, "fusion_lat": 0.0, "lon": -77.03748016666667, "name": "024162809f206b8dd0e2d25f6e24d276"}, {"bike_id": "1d6fb4c24449e83124797ea411c766ed", "type": "electric_scooter", "is_disabled": 0, "lat": 38.91824016666666, "rental_uris": {"ios": "https://dc.lft.to/lastmile_qr_scan", "android": "https://dc.lft.to/lastmile_qr_scan"}, "is_reserved": 0, "fusion_lon": 0.0, "fusion_lat": 0.0, "lon": -77.04944383333333, "name": "1d6fb4c24449e83124797ea411c766ed"}, {"bike_id": "728662c07511c429a94ca31fe68be313", "type": "electric_scooter", "is_disabled": 0, "lat": 38.905679166666665, "rental_uris": {"ios": "https://dc.lft.to/lastmile_qr_scan", "android": "https://dc.lft.to/lastmile_qr_scan"}, "is_reserved": 0, "fusion_lon": 0.0, "fusion_lat": 0.0, "lon": -77.03823533333333, "name": "728662c07511c429a94ca31fe68be313"}, {"bike_id": "51444c173940900e929656d303979745", "type": "electric_scooter", "is_disabled": 0, "lat": 38.86002533333333, "rental_uris": {"ios": "https://dc.lft.to/lastmile_qr_scan", "android": "https://dc.lft.to/lastmile_qr_scan"}, "is_reserved": 0, "fusion_lon": 0.0, "fusion_lat": 0.0, "lon": -76.98519516666667, "name": "51444c173940900e929656d303979745"}, {"bike_id": "6c1ca5df31bc5bf22d5d77e1afdb72be", "type": "electric_scooter", "is_disabled": 0, "lat": 38.891920166666665, "rental_uris": {"ios": "https://dc.lft.to/lastmile_qr_scan", "android": "https://dc.lft.to/lastmile_qr_scan"}, "is_reserved": 0, "fusion_lon": 0.0, "fusion_lat": 0.0, "lon": -77.02980033333333, "name": "6c1ca5df31bc5bf22d5d77e1afdb72be"}, {"bike_id": "88971d8b8636940b845e358a6a8334a6", "type": "electric_scooter", "is_disabled": 0, "lat": 38.9059825, "rental_uris": {"ios": "https://dc.lft.to/lastmile_qr_scan", "android": "https://dc.lft.to/lastmile_qr_scan"}, "is_reserved": 0, "fusion_lon": 0.0, "fusion_lat": 0.0, "lon": -77.07019066666666, "name": "88971d8b8636940b845e358a6a8334a6"}, {"bike_id": "4a49950d2e4443127946d7fcdbb23a50", "type": "electric_scooter", "is_disabled": 0, "lat": 38.919292666666664, "rental_uris": {"ios": "https://dc.lft.to/lastmile_qr_scan", "android": "https://dc.lft.to/lastmile_qr_scan"}, "is_reserved": 0, "fusion_lon": 0.0, "fusion_lat": 0.0, "lon": -77.0462385, "name": "4a49950d2e4443127946d7fcdbb23a50"}, {"bike_id": "5180c3158cb332bc56a9c0a4d26e0cdf", "type": "electric_scooter", "is_disabled": 0, "lat": 38.900077333333336, "rental_uris": {"ios": "https://dc.lft.to/lastmile_qr_scan", "android": "https://dc.lft.to/lastmile_qr_scan"}, "is_reserved": 0, "fusion_lon": 0.0, "fusion_lat": 0.0, "lon": -76.99347033333333, "name": "5180c3158cb332bc56a9c0a4d26e0cdf"}, {"bike_id": "7e5c58e104da76c5b79b73d518e69d81", "type": "electric_scooter", "is_disabled": 0, "lat": 38.90860266666667, "rental_uris": {"ios": "https://dc.lft.to/lastmile_qr_scan", "android": "https://dc.lft.to/lastmile_qr_scan"}, "is_reserved": 0, "fusion_lon": 0.0, "fusion_lat": 0.0, "lon": -77.00327433333334, "name": "7e5c58e104da76c5b79b73d518e69d81"}, {"bike_id": "63bd7ffbfac6058f71cf74feabc9d172", "type": "electric_scooter", "is_disabled": 0, "lat": 38.96133233333333, "rental_uris": {"ios": "https://dc.lft.to/lastmile_qr_scan", "android": "https://dc.lft.to/lastmile_qr_scan"}, "is_reserved": 0, "fusion_lon": 0.0, "fusion_lat": 0.0, "lon": -77.00970633333333, "name": "63bd7ffbfac6058f71cf74feabc9d172"}, {"bike_id": "a46562d53cc9b5e0e77b3f62c0f42904", "type": "electric_scooter", "is_disabled": 0, "lat": 38.922717166666665, "rental_uris": {"ios": "https://dc.lft.to/lastmile_qr_scan", "android": "https://dc.lft.to/lastmile_qr_scan"}, "is_reserved": 0, "fusion_lon": 0.0, "fusion_lat": 0.0, "lon": -77.04285333333333, "name": "a46562d53cc9b5e0e77b3f62c0f42904"}, {"bike_id": "cfab8c85b9f3f2f8a660cac2af913cc7", "type": "electric_scooter", "is_disabled": 0, "lat": 38.919215666666666, "rental_uris": {"ios": "https://dc.lft.to/lastmile_qr_scan", "android": "https://dc.lft.to/lastmile_qr_scan"}, "is_reserved": 0, "fusion_lon": 0.0, "fusion_lat": 0.0, "lon": -77.03363166666666, "name": "cfab8c85b9f3f2f8a660cac2af913cc7"}, {"bike_id": "d7db1f8d67b5577290a01d592a132e8b", "type": "electric_bike", "is_disabled": 0, "lat": 38.89743383333333, "rental_uris": {"ios": "https://dc.lft.to/lastmile_qr_scan", "android": "https://dc.lft.to/lastmile_qr_scan"}, "is_reserved": 0, "fusion_lon": 0.0, "fusion_lat": 0.0, "lon": -76.92044433333334, "name": "d7db1f8d67b5577290a01d592a132e8b"}, {"bike_id": "e7b6a887787577275258fdab1e9c5a6f", "type": "electric_scooter", "is_disabled": 0, "lat": 38.917767, "rental_uris": {"ios": "https://dc.lft.to/lastmile_qr_scan", "android": "https://dc.lft.to/lastmile_qr_scan"}, "is_reserved": 0, "fusion_lon": 0.0, "fusion_lat": 0.0, "lon": -77.0440575, "name": "e7b6a887787577275258fdab1e9c5a6f"}, {"bike_id": "0d782ea6b6a190452f3df478a31122e9", "type": "electric_scooter", "is_disabled": 0, "lat": 38.89521033333333, "rental_uris": {"ios": "https://dc.lft.to/lastmile_qr_scan", "android": "https://dc.lft.to/lastmile_qr_scan"}, "is_reserved": 0, "fusion_lon": 0.0, "fusion_lat": 0.0, "lon": -77.01091816666667, "name": "0d782ea6b6a190452f3df478a31122e9"}, {"bike_id": "3fbec347af5412e07af6ede1265ec239", "type": "electric_scooter", "is_disabled": 0, "lat": 38.903763, "rental_uris": {"ios": "https://dc.lft.to/lastmile_qr_scan", "android": "https://dc.lft.to/lastmile_qr_scan"}, "is_reserved": 0, "fusion_lon": 0.0, "fusion_lat": 0.0, "lon": -77.04344533333334, "name": "3fbec347af5412e07af6ede1265ec239"}, {"bike_id": "9975d3e66fdcd6459e1399921a81e325", "type": "electric_scooter", "is_disabled": 0, "lat": 38.874188, "rental_uris": {"ios": "https://dc.lft.to/lastmile_qr_scan", "android": "https://dc.lft.to/lastmile_qr_scan"}, "is_reserved": 0, "fusion_lon": 0.0, "fusion_lat": 0.0, "lon": -76.96907316666666, "name": "9975d3e66fdcd6459e1399921a81e325"}, {"bike_id": "1094735dda539f4c6ae9f06937656b99", "type": "electric_scooter", "is_disabled": 0, "lat": 38.863703666666666, "rental_uris": {"ios": "https://dc.lft.to/lastmile_qr_scan", "android": "https://dc.lft.to/lastmile_qr_scan"}, "is_reserved": 0, "fusion_lon": 0.0, "fusion_lat": 0.0, "lon": -76.99061283333333, "name": "1094735dda539f4c6ae9f06937656b99"}, {"bike_id": "eb0dbe55d889224838fee6b28cf584c5", "type": "electric_scooter", "is_disabled": 0, "lat": 38.9547395, "rental_uris": {"ios": "https://dc.lft.to/lastmile_qr_scan", "android": "https://dc.lft.to/lastmile_qr_scan"}, "is_reserved": 0, "fusion_lon": 0.0, "fusion_lat": 0.0, "lon": -77.0821485, "name": "eb0dbe55d889224838fee6b28cf584c5"}, {"bike_id": "0fffdb05cbaf18103c05f7dbe425a470", "type": "electric_scooter", "is_disabled": 0, "lat": 38.905607333333336, "rental_uris": {"ios": "https://dc.lft.to/lastmile_qr_scan", "android": "https://dc.lft.to/lastmile_qr_scan"}, "is_reserved": 0, "fusion_lon": 0.0, "fusion_lat": 0.0, "lon": -77.006029, "name": "0fffdb05cbaf18103c05f7dbe425a470"}, {"bike_id": "ab3dde2815c679e0617aead6b85e370f", "type": "electric_scooter", "is_disabled": 0, "lat": 38.9426985, "rental_uris": {"ios": "https://dc.lft.to/lastmile_qr_scan", "android": "https://dc.lft.to/lastmile_qr_scan"}, "is_reserved": 0, "fusion_lon": 0.0, "fusion_lat": 0.0, "lon": -77.03255783333333, "name": "ab3dde2815c679e0617aead6b85e370f"}, {"bike_id": "4c4a2028998909e259770ea1db7ae26d", "type": "electric_bike", "is_disabled": 0, "lat": 38.8973295, "rental_uris": {"ios": "https://dc.lft.to/lastmile_qr_scan", "android": "https://dc.lft.to/lastmile_qr_scan"}, "is_reserved": 0, "fusion_lon": 0.0, "fusion_lat": 0.0, "lon": -76.9920795, "name": "4c4a2028998909e259770ea1db7ae26d"}, {"bike_id": "44544a3f80841619cdc03e312a4c1d84", "type": "electric_scooter", "is_disabled": 0, "lat": 38.91496583333333, "rental_uris": {"ios": "https://dc.lft.to/lastmile_qr_scan", "android": "https://dc.lft.to/lastmile_qr_scan"}, "is_reserved": 0, "fusion_lon": 0.0, "fusion_lat": 0.0, "lon": -77.03206783333333, "name": "44544a3f80841619cdc03e312a4c1d84"}, {"bike_id": "4858441cc3be91def7352e7741024d0a", "type": "electric_bike", "is_disabled": 0, "lat": 38.879381, "rental_uris": {"ios": "https://dc.lft.to/lastmile_qr_scan", "android": "https://dc.lft.to/lastmile_qr_scan"}, "is_reserved": 0, "fusion_lon": 0.0, "fusion_lat": 0.0, "lon": -76.98082083333334, "name": "4858441cc3be91def7352e7741024d0a"}, {"bike_id": "2110bd6fc76cb56957ada833e4badaae", "type": "electric_scooter", "is_disabled": 0, "lat": 38.9140425, "rental_uris": {"ios": "https://dc.lft.to/lastmile_qr_scan", "android": "https://dc.lft.to/lastmile_qr_scan"}, "is_reserved": 0, "fusion_lon": 0.0, "fusion_lat": 0.0, "lon": -77.0155225, "name": "2110bd6fc76cb56957ada833e4badaae"}, {"bike_id": "39e578f5a5b8327129285cea7806d258", "type": "electric_scooter", "is_disabled": 0, "lat": 38.90682116666667, "rental_uris": {"ios": "https://dc.lft.to/lastmile_qr_scan", "android": "https://dc.lft.to/lastmile_qr_scan"}, "is_reserved": 0, "fusion_lon": 0.0, "fusion_lat": 0.0, "lon": -77.0358495, "name": "39e578f5a5b8327129285cea7806d258"}, {"bike_id": "e2318fe607153f1aa375be5939a1f819", "type": "electric_scooter", "is_disabled": 0, "lat": 38.8991575, "rental_uris": {"ios": "https://dc.lft.to/lastmile_qr_scan", "android": "https://dc.lft.to/lastmile_qr_scan"}, "is_reserved": 0, "fusion_lon": 0.0, "fusion_lat": 0.0, "lon": -76.93371716666667, "name": "e2318fe607153f1aa375be5939a1f819"}, {"bike_id": "c5a58c59b9863fe962b485b2f0367c9e", "type": "electric_scooter", "is_disabled": 0, "lat": 38.936764833333335, "rental_uris": {"ios": "https://dc.lft.to/lastmile_qr_scan", "android": "https://dc.lft.to/lastmile_qr_scan"}, "is_reserved": 0, "fusion_lon": 0.0, "fusion_lat": 0.0, "lon": -77.03627733333333, "name": "c5a58c59b9863fe962b485b2f0367c9e"}, {"bike_id": "8fb06157cbc04c9d9bd6566043cad4f3", "type": "electric_scooter", "is_disabled": 0, "lat": 38.91669983333333, "rental_uris": {"ios": "https://dc.lft.to/lastmile_qr_scan", "android": "https://dc.lft.to/lastmile_qr_scan"}, "is_reserved": 0, "fusion_lon": 0.0, "fusion_lat": 0.0, "lon": -77.03216233333333, "name": "8fb06157cbc04c9d9bd6566043cad4f3"}, {"bike_id": "7253b0ce35060f852698e5f6ea9fa3ce", "type": "electric_scooter", "is_disabled": 0, "lat": 38.916064166666665, "rental_uris": {"ios": "https://dc.lft.to/lastmile_qr_scan", "android": "https://dc.lft.to/lastmile_qr_scan"}, "is_reserved": 0, "fusion_lon": 0.0, "fusion_lat": 0.0, "lon": -77.04858133333333, "name": "7253b0ce35060f852698e5f6ea9fa3ce"}, {"bike_id": "cf80598a9bea838d9f3eb3b09b750830", "type": "electric_bike", "is_disabled": 0, "lat": 38.872778333333336, "rental_uris": {"ios": "https://dc.lft.to/lastmile_qr_scan", "android": "https://dc.lft.to/lastmile_qr_scan"}, "is_reserved": 0, "fusion_lon": 0.0, "fusion_lat": 0.0, "lon": -77.233175, "name": "cf80598a9bea838d9f3eb3b09b750830"}, {"bike_id": "bbd4e95c1a2bf17dc77e586a44f99f45", "type": "electric_scooter", "is_disabled": 0, "lat": 38.8696965, "rental_uris": {"ios": "https://dc.lft.to/lastmile_qr_scan", "android": "https://dc.lft.to/lastmile_qr_scan"}, "is_reserved": 0, "fusion_lon": 0.0, "fusion_lat": 0.0, "lon": -76.98170383333333, "name": "bbd4e95c1a2bf17dc77e586a44f99f45"}, {"bike_id": "81da1fb1e9572bdd755a9544047b99b2", "type": "electric_scooter", "is_disabled": 0, "lat": 38.928481, "rental_uris": {"ios": "https://dc.lft.to/lastmile_qr_scan", "android": "https://dc.lft.to/lastmile_qr_scan"}, "is_reserved": 0, "fusion_lon": 0.0, "fusion_lat": 0.0, "lon": -77.019509, "name": "81da1fb1e9572bdd755a9544047b99b2"}, {"bike_id": "81548489d38736f72c4246adde5179ca", "type": "electric_scooter", "is_disabled": 0, "lat": 38.947878333333335, "rental_uris": {"ios": "https://dc.lft.to/lastmile_qr_scan", "android": "https://dc.lft.to/lastmile_qr_scan"}, "is_reserved": 0, "fusion_lon": 0.0, "fusion_lat": 0.0, "lon": -77.02133533333334, "name": "81548489d38736f72c4246adde5179ca"}, {"bike_id": "4e27759395fe6aacf36e5a066c5f2cb5", "type": "electric_scooter", "is_disabled": 0, "lat": 38.92589483333333, "rental_uris": {"ios": "https://dc.lft.to/lastmile_qr_scan", "android": "https://dc.lft.to/lastmile_qr_scan"}, "is_reserved": 0, "fusion_lon": 0.0, "fusion_lat": 0.0, "lon": -77.0249505, "name": "4e27759395fe6aacf36e5a066c5f2cb5"}, {"bike_id": "1c276a7cbb29f644ed3ca1cfe91c5ff0", "type": "electric_scooter", "is_disabled": 0, "lat": 38.9024315, "rental_uris": {"ios": "https://dc.lft.to/lastmile_qr_scan", "android": "https://dc.lft.to/lastmile_qr_scan"}, "is_reserved": 0, "fusion_lon": 0.0, "fusion_lat": 0.0, "lon": -77.04317583333334, "name": "1c276a7cbb29f644ed3ca1cfe91c5ff0"}, {"bike_id": "5564ec604a56b929d3a34ec104a266fb", "type": "electric_scooter", "is_disabled": 0, "lat": 38.924394, "rental_uris": {"ios": "https://dc.lft.to/lastmile_qr_scan", "android": "https://dc.lft.to/lastmile_qr_scan"}, "is_reserved": 0, "fusion_lon": 0.0, "fusion_lat": 0.0, "lon": -77.033561, "name": "5564ec604a56b929d3a34ec104a266fb"}, {"bike_id": "c17bbfcac0fd5bcbfb5dae4d2cb83359", "type": "electric_bike", "is_disabled": 0, "lat": 38.88058916666667, "rental_uris": {"ios": "https://dc.lft.to/lastmile_qr_scan", "android": "https://dc.lft.to/lastmile_qr_scan"}, "is_reserved": 0, "fusion_lon": 0.0, "fusion_lat": 0.0, "lon": -76.96243883333334, "name": "c17bbfcac0fd5bcbfb5dae4d2cb83359"}, {"bike_id": "e0e63c003045087fb9770190ea10b4f4", "type": "electric_scooter", "is_disabled": 0, "lat": 38.9057935, "rental_uris": {"ios": "https://dc.lft.to/lastmile_qr_scan", "android": "https://dc.lft.to/lastmile_qr_scan"}, "is_reserved": 0, "fusion_lon": 0.0, "fusion_lat": 0.0, "lon": -77.03827983333333, "name": "e0e63c003045087fb9770190ea10b4f4"}, {"bike_id": "03a2d1941752915c22af247010386e72", "type": "electric_scooter", "is_disabled": 0, "lat": 38.944485666666665, "rental_uris": {"ios": "https://dc.lft.to/lastmile_qr_scan", "android": "https://dc.lft.to/lastmile_qr_scan"}, "is_reserved": 0, "fusion_lon": 0.0, "fusion_lat": 0.0, "lon": -77.028019, "name": "03a2d1941752915c22af247010386e72"}, {"bike_id": "3370569ed52f1a4a08f2122fd8b1f111", "type": "electric_scooter", "is_disabled": 0, "lat": 38.913684833333335, "rental_uris": {"ios": "https://dc.lft.to/lastmile_qr_scan", "android": "https://dc.lft.to/lastmile_qr_scan"}, "is_reserved": 0, "fusion_lon": 0.0, "fusion_lat": 0.0, "lon": -77.0726675, "name": "3370569ed52f1a4a08f2122fd8b1f111"}, {"bike_id": "e87a509cc56691cbc5f8e064f4e49c59", "type": "electric_scooter", "is_disabled": 0, "lat": 38.91913366666667, "rental_uris": {"ios": "https://dc.lft.to/lastmile_qr_scan", "android": "https://dc.lft.to/lastmile_qr_scan"}, "is_reserved": 0, "fusion_lon": 0.0, "fusion_lat": 0.0, "lon": -77.014136, "name": "e87a509cc56691cbc5f8e064f4e49c59"}, {"bike_id": "bd2176b304a156cb4f7ec06442995a47", "type": "electric_bike", "is_disabled": 0, "lat": 38.910151166666665, "rental_uris": {"ios": "https://dc.lft.to/lastmile_qr_scan", "android": "https://dc.lft.to/lastmile_qr_scan"}, "is_reserved": 0, "fusion_lon": 0.0, "fusion_lat": 0.0, "lon": -77.22802366666667, "name": "bd2176b304a156cb4f7ec06442995a47"}, {"bike_id": "fde2981a3a4d5f3d01cd069efb839081", "type": "electric_scooter", "is_disabled": 0, "lat": 38.921525333333335, "rental_uris": {"ios": "https://dc.lft.to/lastmile_qr_scan", "android": "https://dc.lft.to/lastmile_qr_scan"}, "is_reserved": 0, "fusion_lon": 0.0, "fusion_lat": 0.0, "lon": -77.035342, "name": "fde2981a3a4d5f3d01cd069efb839081"}, {"bike_id": "ccf11cc7d545d92eba24c80b3edaae25", "type": "electric_scooter", "is_disabled": 0, "lat": 38.901505666666665, "rental_uris": {"ios": "https://dc.lft.to/lastmile_qr_scan", "android": "https://dc.lft.to/lastmile_qr_scan"}, "is_reserved": 0, "fusion_lon": 0.0, "fusion_lat": 0.0, "lon": -76.93060016666666, "name": "ccf11cc7d545d92eba24c80b3edaae25"}, {"bike_id": "65b76d56858c3d7b1df14a8bcc42c780", "type": "electric_bike", "is_disabled": 0, "lat": 39.06292666666667, "rental_uris": {"ios": "https://dc.lft.to/lastmile_qr_scan", "android": "https://dc.lft.to/lastmile_qr_scan"}, "is_reserved": 0, "fusion_lon": 0.0, "fusion_lat": 0.0, "lon": -77.04979183333333, "name": "65b76d56858c3d7b1df14a8bcc42c780"}, {"bike_id": "f34231c357f7e639ec79d86d0f105c17", "type": "electric_scooter", "is_disabled": 0, "lat": 38.892168166666664, "rental_uris": {"ios": "https://dc.lft.to/lastmile_qr_scan", "android": "https://dc.lft.to/lastmile_qr_scan"}, "is_reserved": 0, "fusion_lon": 0.0, "fusion_lat": 0.0, "lon": -77.025865, "name": "f34231c357f7e639ec79d86d0f105c17"}, {"bike_id": "f95600a39f41103a0e5b79ae9094cd16", "type": "electric_scooter", "is_disabled": 0, "lat": 38.938861, "rental_uris": {"ios": "https://dc.lft.to/lastmile_qr_scan", "android": "https://dc.lft.to/lastmile_qr_scan"}, "is_reserved": 0, "fusion_lon": 0.0, "fusion_lat": 0.0, "lon": -77.02494616666667, "name": "f95600a39f41103a0e5b79ae9094cd16"}, {"bike_id": "cb63babeb528a0cf559acc4afb9893ff", "type": "electric_scooter", "is_disabled": 0, "lat": 38.901987, "rental_uris": {"ios": "https://dc.lft.to/lastmile_qr_scan", "android": "https://dc.lft.to/lastmile_qr_scan"}, "is_reserved": 0, "fusion_lon": 0.0, "fusion_lat": 0.0, "lon": -77.02372916666667, "name": "cb63babeb528a0cf559acc4afb9893ff"}, {"bike_id": "bef9991ba39c49112a83677ef8b06a5d", "type": "electric_scooter", "is_disabled": 0, "lat": 38.93844766666667, "rental_uris": {"ios": "https://dc.lft.to/lastmile_qr_scan", "android": "https://dc.lft.to/lastmile_qr_scan"}, "is_reserved": 0, "fusion_lon": 0.0, "fusion_lat": 0.0, "lon": -77.072334, "name": "bef9991ba39c49112a83677ef8b06a5d"}, {"bike_id": "3e2e1aca92b8cf266c282f71dbed398b", "type": "electric_scooter", "is_disabled": 0, "lat": 38.902762333333335, "rental_uris": {"ios": "https://dc.lft.to/lastmile_qr_scan", "android": "https://dc.lft.to/lastmile_qr_scan"}, "is_reserved": 0, "fusion_lon": 0.0, "fusion_lat": 0.0, "lon": -77.03837766666666, "name": "3e2e1aca92b8cf266c282f71dbed398b"}, {"bike_id": "6b694f7ba47dc101e309f6aa8473e7c5", "type": "electric_scooter", "is_disabled": 0, "lat": 38.862162833333336, "rental_uris": {"ios": "https://dc.lft.to/lastmile_qr_scan", "android": "https://dc.lft.to/lastmile_qr_scan"}, "is_reserved": 0, "fusion_lon": 0.0, "fusion_lat": 0.0, "lon": -76.99485633333333, "name": "6b694f7ba47dc101e309f6aa8473e7c5"}, {"bike_id": "2b46bebec0141739c126dab2ec25a00b", "type": "electric_scooter", "is_disabled": 0, "lat": 38.8719795, "rental_uris": {"ios": "https://dc.lft.to/lastmile_qr_scan", "android": "https://dc.lft.to/lastmile_qr_scan"}, "is_reserved": 0, "fusion_lon": 0.0, "fusion_lat": 0.0, "lon": -77.00929916666666, "name": "2b46bebec0141739c126dab2ec25a00b"}, {"bike_id": "b91d22d21e61cce8286a9ec81a10d1a9", "type": "electric_scooter", "is_disabled": 0, "lat": 38.906379333333334, "rental_uris": {"ios": "https://dc.lft.to/lastmile_qr_scan", "android": "https://dc.lft.to/lastmile_qr_scan"}, "is_reserved": 0, "fusion_lon": 0.0, "fusion_lat": 0.0, "lon": -77.04865866666667, "name": "b91d22d21e61cce8286a9ec81a10d1a9"}, {"bike_id": "4a8ce600733f4fa6f79f5c4f6827d69f", "type": "electric_scooter", "is_disabled": 0, "lat": 38.90751733333333, "rental_uris": {"ios": "https://dc.lft.to/lastmile_qr_scan", "android": "https://dc.lft.to/lastmile_qr_scan"}, "is_reserved": 0, "fusion_lon": 0.0, "fusion_lat": 0.0, "lon": -77.03210166666666, "name": "4a8ce600733f4fa6f79f5c4f6827d69f"}, {"bike_id": "7a027c45e595051a7894571ba6322400", "type": "electric_scooter", "is_disabled": 0, "lat": 38.862361, "rental_uris": {"ios": "https://dc.lft.to/lastmile_qr_scan", "android": "https://dc.lft.to/lastmile_qr_scan"}, "is_reserved": 0, "fusion_lon": 0.0, "fusion_lat": 0.0, "lon": -76.99520583333333, "name": "7a027c45e595051a7894571ba6322400"}, {"bike_id": "1bb3c9e9a32cb5979cd4a63fd1a8f24c", "type": "electric_scooter", "is_disabled": 0, "lat": 38.914841333333335, "rental_uris": {"ios": "https://dc.lft.to/lastmile_qr_scan", "android": "https://dc.lft.to/lastmile_qr_scan"}, "is_reserved": 0, "fusion_lon": 0.0, "fusion_lat": 0.0, "lon": -77.041559, "name": "1bb3c9e9a32cb5979cd4a63fd1a8f24c"}, {"bike_id": "311b633d14ef8bf3edf8d6ea665d64df", "type": "electric_scooter", "is_disabled": 0, "lat": 38.90101133333334, "rental_uris": {"ios": "https://dc.lft.to/lastmile_qr_scan", "android": "https://dc.lft.to/lastmile_qr_scan"}, "is_reserved": 0, "fusion_lon": 0.0, "fusion_lat": 0.0, "lon": -77.05164766666667, "name": "311b633d14ef8bf3edf8d6ea665d64df"}, {"bike_id": "4b0ae6aa5a955582eebdf1220e8e8d0a", "type": "electric_scooter", "is_disabled": 0, "lat": 38.893228, "rental_uris": {"ios": "https://dc.lft.to/lastmile_qr_scan", "android": "https://dc.lft.to/lastmile_qr_scan"}, "is_reserved": 0, "fusion_lon": 0.0, "fusion_lat": 0.0, "lon": -77.048792, "name": "4b0ae6aa5a955582eebdf1220e8e8d0a"}, {"bike_id": "b3a5b58dcb7a924d291a4f423e8dd6d6", "type": "electric_scooter", "is_disabled": 0, "lat": 38.92704366666667, "rental_uris": {"ios": "https://dc.lft.to/lastmile_qr_scan", "android": "https://dc.lft.to/lastmile_qr_scan"}, "is_reserved": 0, "fusion_lon": 0.0, "fusion_lat": 0.0, "lon": -77.03730716666666, "name": "b3a5b58dcb7a924d291a4f423e8dd6d6"}, {"bike_id": "3e036bb84abf920e7512853e7393ecde", "type": "electric_scooter", "is_disabled": 0, "lat": 38.87678433333333, "rental_uris": {"ios": "https://dc.lft.to/lastmile_qr_scan", "android": "https://dc.lft.to/lastmile_qr_scan"}, "is_reserved": 0, "fusion_lon": 0.0, "fusion_lat": 0.0, "lon": -77.01793, "name": "3e036bb84abf920e7512853e7393ecde"}, {"bike_id": "cf53cbdda81da8b4a803a22b884e1fac", "type": "electric_scooter", "is_disabled": 0, "lat": 38.9157035, "rental_uris": {"ios": "https://dc.lft.to/lastmile_qr_scan", "android": "https://dc.lft.to/lastmile_qr_scan"}, "is_reserved": 0, "fusion_lon": 0.0, "fusion_lat": 0.0, "lon": -77.0346865, "name": "cf53cbdda81da8b4a803a22b884e1fac"}, {"bike_id": "13d4913eecd51e5a50af0fef2623a849", "type": "electric_bike", "is_disabled": 0, "lat": 38.799861, "rental_uris": {"ios": "https://dc.lft.to/lastmile_qr_scan", "android": "https://dc.lft.to/lastmile_qr_scan"}, "is_reserved": 0, "fusion_lon": 0.0, "fusion_lat": 0.0, "lon": -77.12979216666666, "name": "13d4913eecd51e5a50af0fef2623a849"}, {"bike_id": "05aca1ab023c77954138c0255911c9be", "type": "electric_scooter", "is_disabled": 0, "lat": 38.86690083333333, "rental_uris": {"ios": "https://dc.lft.to/lastmile_qr_scan", "android": "https://dc.lft.to/lastmile_qr_scan"}, "is_reserved": 0, "fusion_lon": 0.0, "fusion_lat": 0.0, "lon": -76.98574066666667, "name": "05aca1ab023c77954138c0255911c9be"}, {"bike_id": "62e4557796758cf6bc41452089561915", "type": "electric_scooter", "is_disabled": 0, "lat": 38.8984845, "rental_uris": {"ios": "https://dc.lft.to/lastmile_qr_scan", "android": "https://dc.lft.to/lastmile_qr_scan"}, "is_reserved": 0, "fusion_lon": 0.0, "fusion_lat": 0.0, "lon": -77.00748416666667, "name": "62e4557796758cf6bc41452089561915"}, {"bike_id": "fec1dd77de2271a6623614489166a39c", "type": "electric_scooter", "is_disabled": 0, "lat": 38.9074285, "rental_uris": {"ios": "https://dc.lft.to/lastmile_qr_scan", "android": "https://dc.lft.to/lastmile_qr_scan"}, "is_reserved": 0, "fusion_lon": 0.0, "fusion_lat": 0.0, "lon": -77.03443816666666, "name": "fec1dd77de2271a6623614489166a39c"}, {"bike_id": "3c7a473d7bbf2fd4cf72fa0877990720", "type": "electric_scooter", "is_disabled": 0, "lat": 38.925961, "rental_uris": {"ios": "https://dc.lft.to/lastmile_qr_scan", "android": "https://dc.lft.to/lastmile_qr_scan"}, "is_reserved": 0, "fusion_lon": 0.0, "fusion_lat": 0.0, "lon": -77.0217605, "name": "3c7a473d7bbf2fd4cf72fa0877990720"}, {"bike_id": "c2e9f1329d2a51416e2749861468fa50", "type": "electric_scooter", "is_disabled": 0, "lat": 38.91836333333333, "rental_uris": {"ios": "https://dc.lft.to/lastmile_qr_scan", "android": "https://dc.lft.to/lastmile_qr_scan"}, "is_reserved": 0, "fusion_lon": 0.0, "fusion_lat": 0.0, "lon": -77.04832666666667, "name": "c2e9f1329d2a51416e2749861468fa50"}, {"bike_id": "33f0938d8eb240ac8d21c5e61359019b", "type": "electric_scooter", "is_disabled": 0, "lat": 38.91776766666667, "rental_uris": {"ios": "https://dc.lft.to/lastmile_qr_scan", "android": "https://dc.lft.to/lastmile_qr_scan"}, "is_reserved": 0, "fusion_lon": 0.0, "fusion_lat": 0.0, "lon": -77.02335616666667, "name": "33f0938d8eb240ac8d21c5e61359019b"}, {"bike_id": "73ee2ccb2f012eaf5e3d0aa63e054eaf", "type": "electric_scooter", "is_disabled": 0, "lat": 38.93087233333333, "rental_uris": {"ios": "https://dc.lft.to/lastmile_qr_scan", "android": "https://dc.lft.to/lastmile_qr_scan"}, "is_reserved": 0, "fusion_lon": 0.0, "fusion_lat": 0.0, "lon": -77.0256525, "name": "73ee2ccb2f012eaf5e3d0aa63e054eaf"}, {"bike_id": "8bd9cc4b840a6a3d779be0032bae4e47", "type": "electric_scooter", "is_disabled": 0, "lat": 38.907331166666665, "rental_uris": {"ios": "https://dc.lft.to/lastmile_qr_scan", "android": "https://dc.lft.to/lastmile_qr_scan"}, "is_reserved": 0, "fusion_lon": 0.0, "fusion_lat": 0.0, "lon": -77.01309383333333, "name": "8bd9cc4b840a6a3d779be0032bae4e47"}, {"bike_id": "a1ac42f0eca88b96238c01a77724cfe0", "type": "electric_scooter", "is_disabled": 0, "lat": 38.866834833333336, "rental_uris": {"ios": "https://dc.lft.to/lastmile_qr_scan", "android": "https://dc.lft.to/lastmile_qr_scan"}, "is_reserved": 0, "fusion_lon": 0.0, "fusion_lat": 0.0, "lon": -76.9857805, "name": "a1ac42f0eca88b96238c01a77724cfe0"}, {"bike_id": "aa630c175a689e7da9603fea90e1fd57", "type": "electric_scooter", "is_disabled": 0, "lat": 38.95656133333333, "rental_uris": {"ios": "https://dc.lft.to/lastmile_qr_scan", "android": "https://dc.lft.to/lastmile_qr_scan"}, "is_reserved": 0, "fusion_lon": 0.0, "fusion_lat": 0.0, "lon": -77.0103625, "name": "aa630c175a689e7da9603fea90e1fd57"}, {"bike_id": "b6286c761ec488379707c2d135698990", "type": "electric_scooter", "is_disabled": 0, "lat": 38.90681083333333, "rental_uris": {"ios": "https://dc.lft.to/lastmile_qr_scan", "android": "https://dc.lft.to/lastmile_qr_scan"}, "is_reserved": 0, "fusion_lon": 0.0, "fusion_lat": 0.0, "lon": -77.05326116666667, "name": "b6286c761ec488379707c2d135698990"}, {"bike_id": "a5dabed83b021cd5ad7605582c34cc0d", "type": "electric_scooter", "is_disabled": 0, "lat": 38.90151083333333, "rental_uris": {"ios": "https://dc.lft.to/lastmile_qr_scan", "android": "https://dc.lft.to/lastmile_qr_scan"}, "is_reserved": 0, "fusion_lon": 0.0, "fusion_lat": 0.0, "lon": -77.01524266666667, "name": "a5dabed83b021cd5ad7605582c34cc0d"}, {"bike_id": "42ffdc623725b15a239cff66ff42c71a", "type": "electric_scooter", "is_disabled": 0, "lat": 38.91118983333333, "rental_uris": {"ios": "https://dc.lft.to/lastmile_qr_scan", "android": "https://dc.lft.to/lastmile_qr_scan"}, "is_reserved": 0, "fusion_lon": 0.0, "fusion_lat": 0.0, "lon": -77.022407, "name": "42ffdc623725b15a239cff66ff42c71a"}, {"bike_id": "484bbaa9aa10091140d604a8a11e8cca", "type": "electric_scooter", "is_disabled": 0, "lat": 38.9179165, "rental_uris": {"ios": "https://dc.lft.to/lastmile_qr_scan", "android": "https://dc.lft.to/lastmile_qr_scan"}, "is_reserved": 0, "fusion_lon": 0.0, "fusion_lat": 0.0, "lon": -77.0232635, "name": "484bbaa9aa10091140d604a8a11e8cca"}, {"bike_id": "32ed16cc6a0f25e1c7e0dd28d21221ca", "type": "electric_bike", "is_disabled": 0, "lat": 38.80909033333333, "rental_uris": {"ios": "https://dc.lft.to/lastmile_qr_scan", "android": "https://dc.lft.to/lastmile_qr_scan"}, "is_reserved": 0, "fusion_lon": 0.0, "fusion_lat": 0.0, "lon": -77.08652983333333, "name": "32ed16cc6a0f25e1c7e0dd28d21221ca"}, {"bike_id": "bf305a27c6f8b56efc9663e7734e3296", "type": "electric_scooter", "is_disabled": 0, "lat": 38.92148733333333, "rental_uris": {"ios": "https://dc.lft.to/lastmile_qr_scan", "android": "https://dc.lft.to/lastmile_qr_scan"}, "is_reserved": 0, "fusion_lon": 0.0, "fusion_lat": 0.0, "lon": -77.035322, "name": "bf305a27c6f8b56efc9663e7734e3296"}, {"bike_id": "2841407ceefe3c4035c359e8a0b57c70", "type": "electric_scooter", "is_disabled": 0, "lat": 38.9226005, "rental_uris": {"ios": "https://dc.lft.to/lastmile_qr_scan", "android": "https://dc.lft.to/lastmile_qr_scan"}, "is_reserved": 0, "fusion_lon": 0.0, "fusion_lat": 0.0, "lon": -77.01874483333333, "name": "2841407ceefe3c4035c359e8a0b57c70"}, {"bike_id": "e972b77bc8a3346669d71d748cc6ded0", "type": "electric_scooter", "is_disabled": 0, "lat": 38.92090733333333, "rental_uris": {"ios": "https://dc.lft.to/lastmile_qr_scan", "android": "https://dc.lft.to/lastmile_qr_scan"}, "is_reserved": 0, "fusion_lon": 0.0, "fusion_lat": 0.0, "lon": -77.02532866666667, "name": "e972b77bc8a3346669d71d748cc6ded0"}, {"bike_id": "a05fd75ff2fe09b0631907a2ad6c9411", "type": "electric_scooter", "is_disabled": 0, "lat": 38.902809833333336, "rental_uris": {"ios": "https://dc.lft.to/lastmile_qr_scan", "android": "https://dc.lft.to/lastmile_qr_scan"}, "is_reserved": 0, "fusion_lon": 0.0, "fusion_lat": 0.0, "lon": -77.00339366666667, "name": "a05fd75ff2fe09b0631907a2ad6c9411"}, {"bike_id": "a4d938b24c8ed072860a45186b5d756c", "type": "electric_scooter", "is_disabled": 0, "lat": 38.93455483333334, "rental_uris": {"ios": "https://dc.lft.to/lastmile_qr_scan", "android": "https://dc.lft.to/lastmile_qr_scan"}, "is_reserved": 0, "fusion_lon": 0.0, "fusion_lat": 0.0, "lon": -77.07258966666667, "name": "a4d938b24c8ed072860a45186b5d756c"}, {"bike_id": "4a3d21354de83e69175ea688a4c3985b", "type": "electric_scooter", "is_disabled": 0, "lat": 38.928489166666665, "rental_uris": {"ios": "https://dc.lft.to/lastmile_qr_scan", "android": "https://dc.lft.to/lastmile_qr_scan"}, "is_reserved": 0, "fusion_lon": 0.0, "fusion_lat": 0.0, "lon": -77.019514, "name": "4a3d21354de83e69175ea688a4c3985b"}, {"bike_id": "e6143890d553c4f5e5dd9d52abb15593", "type": "electric_scooter", "is_disabled": 0, "lat": 38.87730116666667, "rental_uris": {"ios": "https://dc.lft.to/lastmile_qr_scan", "android": "https://dc.lft.to/lastmile_qr_scan"}, "is_reserved": 0, "fusion_lon": 0.0, "fusion_lat": 0.0, "lon": -77.01789416666666, "name": "e6143890d553c4f5e5dd9d52abb15593"}, {"bike_id": "14be4498be2a3ba627e247d6dc088c0c", "type": "electric_scooter", "is_disabled": 0, "lat": 38.933209833333336, "rental_uris": {"ios": "https://dc.lft.to/lastmile_qr_scan", "android": "https://dc.lft.to/lastmile_qr_scan"}, "is_reserved": 0, "fusion_lon": 0.0, "fusion_lat": 0.0, "lon": -77.03259366666667, "name": "14be4498be2a3ba627e247d6dc088c0c"}, {"bike_id": "1db0bea0dd5ab7bc443ccad85bd2eb4a", "type": "electric_scooter", "is_disabled": 0, "lat": 38.91695966666666, "rental_uris": {"ios": "https://dc.lft.to/lastmile_qr_scan", "android": "https://dc.lft.to/lastmile_qr_scan"}, "is_reserved": 0, "fusion_lon": 0.0, "fusion_lat": 0.0, "lon": -77.03595366666667, "name": "1db0bea0dd5ab7bc443ccad85bd2eb4a"}, {"bike_id": "04560a9c908e9d5b869ceeea31217412", "type": "electric_scooter", "is_disabled": 0, "lat": 38.909112, "rental_uris": {"ios": "https://dc.lft.to/lastmile_qr_scan", "android": "https://dc.lft.to/lastmile_qr_scan"}, "is_reserved": 0, "fusion_lon": 0.0, "fusion_lat": 0.0, "lon": -76.98424383333334, "name": "04560a9c908e9d5b869ceeea31217412"}, {"bike_id": "98fb5831c55055cc1d9b71c55d4d5b93", "type": "electric_scooter", "is_disabled": 0, "lat": 38.924857833333334, "rental_uris": {"ios": "https://dc.lft.to/lastmile_qr_scan", "android": "https://dc.lft.to/lastmile_qr_scan"}, "is_reserved": 0, "fusion_lon": 0.0, "fusion_lat": 0.0, "lon": -77.0576555, "name": "98fb5831c55055cc1d9b71c55d4d5b93"}, {"bike_id": "83f54d0f83e51ea64d5eccab7082d979", "type": "electric_scooter", "is_disabled": 0, "lat": 38.9159025, "rental_uris": {"ios": "https://dc.lft.to/lastmile_qr_scan", "android": "https://dc.lft.to/lastmile_qr_scan"}, "is_reserved": 0, "fusion_lon": 0.0, "fusion_lat": 0.0, "lon": -77.0452905, "name": "83f54d0f83e51ea64d5eccab7082d979"}, {"bike_id": "08f30aad54f6158a73a0dc80cd00ea0f", "type": "electric_scooter", "is_disabled": 0, "lat": 38.91466583333333, "rental_uris": {"ios": "https://dc.lft.to/lastmile_qr_scan", "android": "https://dc.lft.to/lastmile_qr_scan"}, "is_reserved": 0, "fusion_lon": 0.0, "fusion_lat": 0.0, "lon": -77.0321015, "name": "08f30aad54f6158a73a0dc80cd00ea0f"}, {"bike_id": "e6733ade0d628e5fb0e416ecd4c44d04", "type": "electric_scooter", "is_disabled": 0, "lat": 38.893025333333334, "rental_uris": {"ios": "https://dc.lft.to/lastmile_qr_scan", "android": "https://dc.lft.to/lastmile_qr_scan"}, "is_reserved": 0, "fusion_lon": 0.0, "fusion_lat": 0.0, "lon": -76.9397515, "name": "e6733ade0d628e5fb0e416ecd4c44d04"}, {"bike_id": "ac2a725ef69add0a80710247ca013336", "type": "electric_scooter", "is_disabled": 0, "lat": 38.90971183333333, "rental_uris": {"ios": "https://dc.lft.to/lastmile_qr_scan", "android": "https://dc.lft.to/lastmile_qr_scan"}, "is_reserved": 0, "fusion_lon": 0.0, "fusion_lat": 0.0, "lon": -77.0362215, "name": "ac2a725ef69add0a80710247ca013336"}, {"bike_id": "99f3aa9a9654e8c62ba34e131e54a244", "type": "electric_scooter", "is_disabled": 0, "lat": 38.864694666666665, "rental_uris": {"ios": "https://dc.lft.to/lastmile_qr_scan", "android": "https://dc.lft.to/lastmile_qr_scan"}, "is_reserved": 0, "fusion_lon": 0.0, "fusion_lat": 0.0, "lon": -76.982349, "name": "99f3aa9a9654e8c62ba34e131e54a244"}, {"bike_id": "465eb6a8e26d1ea575d62145b909d01a", "type": "electric_scooter", "is_disabled": 0, "lat": 38.96208683333333, "rental_uris": {"ios": "https://dc.lft.to/lastmile_qr_scan", "android": "https://dc.lft.to/lastmile_qr_scan"}, "is_reserved": 0, "fusion_lon": 0.0, "fusion_lat": 0.0, "lon": -77.02233466666667, "name": "465eb6a8e26d1ea575d62145b909d01a"}, {"bike_id": "bb9503d0e2a9a2f5bb5a9742733463d2", "type": "electric_scooter", "is_disabled": 0, "lat": 38.8929055, "rental_uris": {"ios": "https://dc.lft.to/lastmile_qr_scan", "android": "https://dc.lft.to/lastmile_qr_scan"}, "is_reserved": 0, "fusion_lon": 0.0, "fusion_lat": 0.0, "lon": -77.01223216666666, "name": "bb9503d0e2a9a2f5bb5a9742733463d2"}, {"bike_id": "e32f93114273b72328d90c37b84fb98c", "type": "electric_scooter", "is_disabled": 0, "lat": 38.927425, "rental_uris": {"ios": "https://dc.lft.to/lastmile_qr_scan", "android": "https://dc.lft.to/lastmile_qr_scan"}, "is_reserved": 0, "fusion_lon": 0.0, "fusion_lat": 0.0, "lon": -77.02531083333334, "name": "e32f93114273b72328d90c37b84fb98c"}, {"bike_id": "00a04ef65829b088bf5f90a78939edec", "type": "electric_bike", "is_disabled": 0, "lat": 38.896164666666664, "rental_uris": {"ios": "https://dc.lft.to/lastmile_qr_scan", "android": "https://dc.lft.to/lastmile_qr_scan"}, "is_reserved": 0, "fusion_lon": 0.0, "fusion_lat": 0.0, "lon": -77.02232416666666, "name": "00a04ef65829b088bf5f90a78939edec"}, {"bike_id": "039c49749aae1a5685cfb81a1f76cfdb", "type": "electric_bike", "is_disabled": 0, "lat": 38.98370833333333, "rental_uris": {"ios": "https://dc.lft.to/lastmile_qr_scan", "android": "https://dc.lft.to/lastmile_qr_scan"}, "is_reserved": 0, "fusion_lon": 0.0, "fusion_lat": 0.0, "lon": -76.972189, "name": "039c49749aae1a5685cfb81a1f76cfdb"}, {"bike_id": "e4c8b0162994ef3c665d5e5d601204a7", "type": "electric_scooter", "is_disabled": 0, "lat": 38.905050333333335, "rental_uris": {"ios": "https://dc.lft.to/lastmile_qr_scan", "android": "https://dc.lft.to/lastmile_qr_scan"}, "is_reserved": 0, "fusion_lon": 0.0, "fusion_lat": 0.0, "lon": -77.02964483333334, "name": "e4c8b0162994ef3c665d5e5d601204a7"}, {"bike_id": "2141ffcd7b8404ccb5952a895cad8aff", "type": "electric_bike", "is_disabled": 0, "lat": 38.9257615, "rental_uris": {"ios": "https://dc.lft.to/lastmile_qr_scan", "android": "https://dc.lft.to/lastmile_qr_scan"}, "is_reserved": 0, "fusion_lon": 0.0, "fusion_lat": 0.0, "lon": -77.079277, "name": "2141ffcd7b8404ccb5952a895cad8aff"}, {"bike_id": "6bcbe93085991afd025f537d23ecdfa4", "type": "electric_scooter", "is_disabled": 0, "lat": 38.904142, "rental_uris": {"ios": "https://dc.lft.to/lastmile_qr_scan", "android": "https://dc.lft.to/lastmile_qr_scan"}, "is_reserved": 0, "fusion_lon": 0.0, "fusion_lat": 0.0, "lon": -77.05468816666666, "name": "6bcbe93085991afd025f537d23ecdfa4"}, {"bike_id": "0c7d39b2d2d47e9e03729b26947e38dc", "type": "electric_scooter", "is_disabled": 0, "lat": 38.93670483333333, "rental_uris": {"ios": "https://dc.lft.to/lastmile_qr_scan", "android": "https://dc.lft.to/lastmile_qr_scan"}, "is_reserved": 0, "fusion_lon": 0.0, "fusion_lat": 0.0, "lon": -77.03563516666667, "name": "0c7d39b2d2d47e9e03729b26947e38dc"}, {"bike_id": "e12d4e48a4cf2fd77180afb9a6dd5ea9", "type": "electric_scooter", "is_disabled": 0, "lat": 38.86246233333333, "rental_uris": {"ios": "https://dc.lft.to/lastmile_qr_scan", "android": "https://dc.lft.to/lastmile_qr_scan"}, "is_reserved": 0, "fusion_lon": 0.0, "fusion_lat": 0.0, "lon": -76.99503433333334, "name": "e12d4e48a4cf2fd77180afb9a6dd5ea9"}, {"bike_id": "25c8ef8524925d1d98d99583fae6af7f", "type": "electric_scooter", "is_disabled": 0, "lat": 38.91415966666667, "rental_uris": {"ios": "https://dc.lft.to/lastmile_qr_scan", "android": "https://dc.lft.to/lastmile_qr_scan"}, "is_reserved": 0, "fusion_lon": 0.0, "fusion_lat": 0.0, "lon": -77.04154866666667, "name": "25c8ef8524925d1d98d99583fae6af7f"}, {"bike_id": "6aa0e616e3b86ac3dbb77754ef4c76eb", "type": "electric_scooter", "is_disabled": 0, "lat": 38.906438666666666, "rental_uris": {"ios": "https://dc.lft.to/lastmile_qr_scan", "android": "https://dc.lft.to/lastmile_qr_scan"}, "is_reserved": 0, "fusion_lon": 0.0, "fusion_lat": 0.0, "lon": -77.05315983333334, "name": "6aa0e616e3b86ac3dbb77754ef4c76eb"}, {"bike_id": "78e7c1af70587dbbffe79fc453ae932b", "type": "electric_scooter", "is_disabled": 0, "lat": 38.92401233333333, "rental_uris": {"ios": "https://dc.lft.to/lastmile_qr_scan", "android": "https://dc.lft.to/lastmile_qr_scan"}, "is_reserved": 0, "fusion_lon": 0.0, "fusion_lat": 0.0, "lon": -77.02972816666667, "name": "78e7c1af70587dbbffe79fc453ae932b"}, {"bike_id": "417b47a43c90511aad818e651d92fe54", "type": "electric_scooter", "is_disabled": 0, "lat": 38.92254916666667, "rental_uris": {"ios": "https://dc.lft.to/lastmile_qr_scan", "android": "https://dc.lft.to/lastmile_qr_scan"}, "is_reserved": 0, "fusion_lon": 0.0, "fusion_lat": 0.0, "lon": -77.04184983333333, "name": "417b47a43c90511aad818e651d92fe54"}, {"bike_id": "ae66a39739bd63e91ebe3f1741d3add2", "type": "electric_scooter", "is_disabled": 0, "lat": 38.8806485, "rental_uris": {"ios": "https://dc.lft.to/lastmile_qr_scan", "android": "https://dc.lft.to/lastmile_qr_scan"}, "is_reserved": 0, "fusion_lon": 0.0, "fusion_lat": 0.0, "lon": -76.93214266666666, "name": "ae66a39739bd63e91ebe3f1741d3add2"}, {"bike_id": "3efacdd57fa284acdf52e619d716fcf8", "type": "electric_scooter", "is_disabled": 0, "lat": 38.92153016666666, "rental_uris": {"ios": "https://dc.lft.to/lastmile_qr_scan", "android": "https://dc.lft.to/lastmile_qr_scan"}, "is_reserved": 0, "fusion_lon": 0.0, "fusion_lat": 0.0, "lon": -77.03378816666667, "name": "3efacdd57fa284acdf52e619d716fcf8"}, {"bike_id": "64443754c8d659b24616503760190399", "type": "electric_scooter", "is_disabled": 0, "lat": 38.93174716666667, "rental_uris": {"ios": "https://dc.lft.to/lastmile_qr_scan", "android": "https://dc.lft.to/lastmile_qr_scan"}, "is_reserved": 0, "fusion_lon": 0.0, "fusion_lat": 0.0, "lon": -76.99485183333333, "name": "64443754c8d659b24616503760190399"}, {"bike_id": "aa3a3e1930903a2b577efcfd2d6e9253", "type": "electric_scooter", "is_disabled": 0, "lat": 38.9156275, "rental_uris": {"ios": "https://dc.lft.to/lastmile_qr_scan", "android": "https://dc.lft.to/lastmile_qr_scan"}, "is_reserved": 0, "fusion_lon": 0.0, "fusion_lat": 0.0, "lon": -77.04283633333333, "name": "aa3a3e1930903a2b577efcfd2d6e9253"}, {"bike_id": "93a4abb1e866655fea34f0540c7e18f2", "type": "electric_bike", "is_disabled": 0, "lat": 38.883461833333335, "rental_uris": {"ios": "https://dc.lft.to/lastmile_qr_scan", "android": "https://dc.lft.to/lastmile_qr_scan"}, "is_reserved": 0, "fusion_lon": 0.0, "fusion_lat": 0.0, "lon": -76.9363075, "name": "93a4abb1e866655fea34f0540c7e18f2"}, {"bike_id": "82eda5c6e53db59616c9178778967eb1", "type": "electric_scooter", "is_disabled": 0, "lat": 38.91796183333334, "rental_uris": {"ios": "https://dc.lft.to/lastmile_qr_scan", "android": "https://dc.lft.to/lastmile_qr_scan"}, "is_reserved": 0, "fusion_lon": 0.0, "fusion_lat": 0.0, "lon": -77.0270345, "name": "82eda5c6e53db59616c9178778967eb1"}, {"bike_id": "142554dffac401e4d0cd6997f9f83fc8", "type": "electric_scooter", "is_disabled": 0, "lat": 38.91110333333334, "rental_uris": {"ios": "https://dc.lft.to/lastmile_qr_scan", "android": "https://dc.lft.to/lastmile_qr_scan"}, "is_reserved": 0, "fusion_lon": 0.0, "fusion_lat": 0.0, "lon": -77.032959, "name": "142554dffac401e4d0cd6997f9f83fc8"}, {"bike_id": "9c3d6ba7ad3d6b78bb02736c0d654bb4", "type": "electric_scooter", "is_disabled": 0, "lat": 38.916666666666664, "rental_uris": {"ios": "https://dc.lft.to/lastmile_qr_scan", "android": "https://dc.lft.to/lastmile_qr_scan"}, "is_reserved": 0, "fusion_lon": 0.0, "fusion_lat": 0.0, "lon": -77.0289035, "name": "9c3d6ba7ad3d6b78bb02736c0d654bb4"}, {"bike_id": "5c8d428e3d9e9ebff31e7a259a66770e", "type": "electric_scooter", "is_disabled": 0, "lat": 38.90267766666667, "rental_uris": {"ios": "https://dc.lft.to/lastmile_qr_scan", "android": "https://dc.lft.to/lastmile_qr_scan"}, "is_reserved": 0, "fusion_lon": 0.0, "fusion_lat": 0.0, "lon": -77.028282, "name": "5c8d428e3d9e9ebff31e7a259a66770e"}, {"bike_id": "f737e1b58b82742eca4f84a279bfa765", "type": "electric_scooter", "is_disabled": 0, "lat": 38.88854933333333, "rental_uris": {"ios": "https://dc.lft.to/lastmile_qr_scan", "android": "https://dc.lft.to/lastmile_qr_scan"}, "is_reserved": 0, "fusion_lon": 0.0, "fusion_lat": 0.0, "lon": -77.00046216666667, "name": "f737e1b58b82742eca4f84a279bfa765"}, {"bike_id": "747bacc0bb9bf520cac8c2bb25dfbf8b", "type": "electric_scooter", "is_disabled": 0, "lat": 38.91926016666667, "rental_uris": {"ios": "https://dc.lft.to/lastmile_qr_scan", "android": "https://dc.lft.to/lastmile_qr_scan"}, "is_reserved": 0, "fusion_lon": 0.0, "fusion_lat": 0.0, "lon": -77.04241533333334, "name": "747bacc0bb9bf520cac8c2bb25dfbf8b"}, {"bike_id": "8308a7ec607ea2a2d24e074bb3da42dc", "type": "electric_scooter", "is_disabled": 0, "lat": 38.8637425, "rental_uris": {"ios": "https://dc.lft.to/lastmile_qr_scan", "android": "https://dc.lft.to/lastmile_qr_scan"}, "is_reserved": 0, "fusion_lon": 0.0, "fusion_lat": 0.0, "lon": -76.99061933333333, "name": "8308a7ec607ea2a2d24e074bb3da42dc"}, {"bike_id": "0d7f521b08a5acf85eec49fc852c8b29", "type": "electric_scooter", "is_disabled": 0, "lat": 38.8668875, "rental_uris": {"ios": "https://dc.lft.to/lastmile_qr_scan", "android": "https://dc.lft.to/lastmile_qr_scan"}, "is_reserved": 0, "fusion_lon": 0.0, "fusion_lat": 0.0, "lon": -76.985577, "name": "0d7f521b08a5acf85eec49fc852c8b29"}, {"bike_id": "8c1892f68ca45748a3e70f8a6d4c5587", "type": "electric_scooter", "is_disabled": 0, "lat": 38.90357066666667, "rental_uris": {"ios": "https://dc.lft.to/lastmile_qr_scan", "android": "https://dc.lft.to/lastmile_qr_scan"}, "is_reserved": 0, "fusion_lon": 0.0, "fusion_lat": 0.0, "lon": -77.06012, "name": "8c1892f68ca45748a3e70f8a6d4c5587"}, {"bike_id": "4fc8e0755d511828f7ccddadf246325e", "type": "electric_scooter", "is_disabled": 0, "lat": 38.88373683333333, "rental_uris": {"ios": "https://dc.lft.to/lastmile_qr_scan", "android": "https://dc.lft.to/lastmile_qr_scan"}, "is_reserved": 0, "fusion_lon": 0.0, "fusion_lat": 0.0, "lon": -77.02637466666667, "name": "4fc8e0755d511828f7ccddadf246325e"}, {"bike_id": "adf96c638cf3e11f9988d1b854f78479", "type": "electric_scooter", "is_disabled": 0, "lat": 38.90532116666667, "rental_uris": {"ios": "https://dc.lft.to/lastmile_qr_scan", "android": "https://dc.lft.to/lastmile_qr_scan"}, "is_reserved": 0, "fusion_lon": 0.0, "fusion_lat": 0.0, "lon": -77.0485685, "name": "adf96c638cf3e11f9988d1b854f78479"}, {"bike_id": "4735a73df36e09a6fe0187ed2953acbb", "type": "electric_scooter", "is_disabled": 0, "lat": 38.86418116666667, "rental_uris": {"ios": "https://dc.lft.to/lastmile_qr_scan", "android": "https://dc.lft.to/lastmile_qr_scan"}, "is_reserved": 0, "fusion_lon": 0.0, "fusion_lat": 0.0, "lon": -76.98047716666666, "name": "4735a73df36e09a6fe0187ed2953acbb"}, {"bike_id": "63308eb2266187cc062bcd09bece7ee8", "type": "electric_scooter", "is_disabled": 0, "lat": 38.90844033333333, "rental_uris": {"ios": "https://dc.lft.to/lastmile_qr_scan", "android": "https://dc.lft.to/lastmile_qr_scan"}, "is_reserved": 0, "fusion_lon": 0.0, "fusion_lat": 0.0, "lon": -76.99799366666667, "name": "63308eb2266187cc062bcd09bece7ee8"}, {"bike_id": "ec09ef648ee5c036ba0c201c70cfd727", "type": "electric_scooter", "is_disabled": 0, "lat": 38.898396, "rental_uris": {"ios": "https://dc.lft.to/lastmile_qr_scan", "android": "https://dc.lft.to/lastmile_qr_scan"}, "is_reserved": 0, "fusion_lon": 0.0, "fusion_lat": 0.0, "lon": -76.94635583333333, "name": "ec09ef648ee5c036ba0c201c70cfd727"}, {"bike_id": "21c952675e71c0693288e23a7d74d7f1", "type": "electric_scooter", "is_disabled": 0, "lat": 38.920122, "rental_uris": {"ios": "https://dc.lft.to/lastmile_qr_scan", "android": "https://dc.lft.to/lastmile_qr_scan"}, "is_reserved": 0, "fusion_lon": 0.0, "fusion_lat": 0.0, "lon": -77.03119666666667, "name": "21c952675e71c0693288e23a7d74d7f1"}, {"bike_id": "755f7f73c967964552a5debb39cd9a2e", "type": "electric_scooter", "is_disabled": 0, "lat": 38.9073275, "rental_uris": {"ios": "https://dc.lft.to/lastmile_qr_scan", "android": "https://dc.lft.to/lastmile_qr_scan"}, "is_reserved": 0, "fusion_lon": 0.0, "fusion_lat": 0.0, "lon": -77.063362, "name": "755f7f73c967964552a5debb39cd9a2e"}, {"bike_id": "34d3b47828d1fa23b1494b64ac9c7b67", "type": "electric_scooter", "is_disabled": 0, "lat": 38.914864333333334, "rental_uris": {"ios": "https://dc.lft.to/lastmile_qr_scan", "android": "https://dc.lft.to/lastmile_qr_scan"}, "is_reserved": 0, "fusion_lon": 0.0, "fusion_lat": 0.0, "lon": -76.98577466666667, "name": "34d3b47828d1fa23b1494b64ac9c7b67"}, {"bike_id": "eb45822683b405b68cbd9ed906602c55", "type": "electric_scooter", "is_disabled": 0, "lat": 38.925944333333334, "rental_uris": {"ios": "https://dc.lft.to/lastmile_qr_scan", "android": "https://dc.lft.to/lastmile_qr_scan"}, "is_reserved": 0, "fusion_lon": 0.0, "fusion_lat": 0.0, "lon": -77.008363, "name": "eb45822683b405b68cbd9ed906602c55"}, {"bike_id": "0a1de3d0e2b0fc586f2fece60b3f0701", "type": "electric_scooter", "is_disabled": 0, "lat": 38.909462166666664, "rental_uris": {"ios": "https://dc.lft.to/lastmile_qr_scan", "android": "https://dc.lft.to/lastmile_qr_scan"}, "is_reserved": 0, "fusion_lon": 0.0, "fusion_lat": 0.0, "lon": -77.04040616666667, "name": "0a1de3d0e2b0fc586f2fece60b3f0701"}, {"bike_id": "08f1bd8e85cb5df26f289650c866c595", "type": "electric_scooter", "is_disabled": 0, "lat": 38.900271833333335, "rental_uris": {"ios": "https://dc.lft.to/lastmile_qr_scan", "android": "https://dc.lft.to/lastmile_qr_scan"}, "is_reserved": 0, "fusion_lon": 0.0, "fusion_lat": 0.0, "lon": -76.9806345, "name": "08f1bd8e85cb5df26f289650c866c595"}, {"bike_id": "288689f90347ca0f643f4316f35f630a", "type": "electric_scooter", "is_disabled": 0, "lat": 38.920563333333334, "rental_uris": {"ios": "https://dc.lft.to/lastmile_qr_scan", "android": "https://dc.lft.to/lastmile_qr_scan"}, "is_reserved": 0, "fusion_lon": 0.0, "fusion_lat": 0.0, "lon": -77.0344775, "name": "288689f90347ca0f643f4316f35f630a"}, {"bike_id": "4148ca56c455bd5c694f721e05164e01", "type": "electric_scooter", "is_disabled": 0, "lat": 38.9014795, "rental_uris": {"ios": "https://dc.lft.to/lastmile_qr_scan", "android": "https://dc.lft.to/lastmile_qr_scan"}, "is_reserved": 0, "fusion_lon": 0.0, "fusion_lat": 0.0, "lon": -77.0220675, "name": "4148ca56c455bd5c694f721e05164e01"}, {"bike_id": "77d6644bd16c3a5eb0d5cb4fe84eb4f2", "type": "electric_scooter", "is_disabled": 0, "lat": 38.931821666666664, "rental_uris": {"ios": "https://dc.lft.to/lastmile_qr_scan", "android": "https://dc.lft.to/lastmile_qr_scan"}, "is_reserved": 0, "fusion_lon": 0.0, "fusion_lat": 0.0, "lon": -77.04302333333334, "name": "77d6644bd16c3a5eb0d5cb4fe84eb4f2"}, {"bike_id": "589b109fe1c70f40aaa371d4b2d90a0b", "type": "electric_scooter", "is_disabled": 0, "lat": 38.905626166666664, "rental_uris": {"ios": "https://dc.lft.to/lastmile_qr_scan", "android": "https://dc.lft.to/lastmile_qr_scan"}, "is_reserved": 0, "fusion_lon": 0.0, "fusion_lat": 0.0, "lon": -77.0054785, "name": "589b109fe1c70f40aaa371d4b2d90a0b"}, {"bike_id": "0fe2beb640338851953fa9fc2e9ac90e", "type": "electric_scooter", "is_disabled": 0, "lat": 38.877051333333334, "rental_uris": {"ios": "https://dc.lft.to/lastmile_qr_scan", "android": "https://dc.lft.to/lastmile_qr_scan"}, "is_reserved": 0, "fusion_lon": 0.0, "fusion_lat": 0.0, "lon": -77.0177525, "name": "0fe2beb640338851953fa9fc2e9ac90e"}, {"bike_id": "c0513077a8cae9f15e9d71f3170a7aca", "type": "electric_scooter", "is_disabled": 0, "lat": 38.885995666666666, "rental_uris": {"ios": "https://dc.lft.to/lastmile_qr_scan", "android": "https://dc.lft.to/lastmile_qr_scan"}, "is_reserved": 0, "fusion_lon": 0.0, "fusion_lat": 0.0, "lon": -77.02827416666666, "name": "c0513077a8cae9f15e9d71f3170a7aca"}, {"bike_id": "b799a4622312a4e356d3021c417fa65b", "type": "electric_scooter", "is_disabled": 0, "lat": 38.84439833333333, "rental_uris": {"ios": "https://dc.lft.to/lastmile_qr_scan", "android": "https://dc.lft.to/lastmile_qr_scan"}, "is_reserved": 0, "fusion_lon": 0.0, "fusion_lat": 0.0, "lon": -76.99775416666667, "name": "b799a4622312a4e356d3021c417fa65b"}, {"bike_id": "d99cf4314295455757e327cf060a4fc6", "type": "electric_scooter", "is_disabled": 0, "lat": 38.884141666666665, "rental_uris": {"ios": "https://dc.lft.to/lastmile_qr_scan", "android": "https://dc.lft.to/lastmile_qr_scan"}, "is_reserved": 0, "fusion_lon": 0.0, "fusion_lat": 0.0, "lon": -77.03172333333333, "name": "d99cf4314295455757e327cf060a4fc6"}, {"bike_id": "f94452306558ab248572c79a33ec21d8", "type": "electric_scooter", "is_disabled": 0, "lat": 38.93290783333333, "rental_uris": {"ios": "https://dc.lft.to/lastmile_qr_scan", "android": "https://dc.lft.to/lastmile_qr_scan"}, "is_reserved": 0, "fusion_lon": 0.0, "fusion_lat": 0.0, "lon": -77.04121266666667, "name": "f94452306558ab248572c79a33ec21d8"}, {"bike_id": "31a0e08c7bd1bbc7f6d7840dca1b5c84", "type": "electric_scooter", "is_disabled": 0, "lat": 38.90206033333333, "rental_uris": {"ios": "https://dc.lft.to/lastmile_qr_scan", "android": "https://dc.lft.to/lastmile_qr_scan"}, "is_reserved": 0, "fusion_lon": 0.0, "fusion_lat": 0.0, "lon": -77.023754, "name": "31a0e08c7bd1bbc7f6d7840dca1b5c84"}, {"bike_id": "558c66204eff1e155cab7744dc2c96bc", "type": "electric_scooter", "is_disabled": 0, "lat": 38.895458, "rental_uris": {"ios": "https://dc.lft.to/lastmile_qr_scan", "android": "https://dc.lft.to/lastmile_qr_scan"}, "is_reserved": 0, "fusion_lon": 0.0, "fusion_lat": 0.0, "lon": -76.92952516666666, "name": "558c66204eff1e155cab7744dc2c96bc"}, {"bike_id": "996c3350a949406c70dcce1b38c667b5", "type": "electric_scooter", "is_disabled": 0, "lat": 38.905584833333336, "rental_uris": {"ios": "https://dc.lft.to/lastmile_qr_scan", "android": "https://dc.lft.to/lastmile_qr_scan"}, "is_reserved": 0, "fusion_lon": 0.0, "fusion_lat": 0.0, "lon": -76.98140283333333, "name": "996c3350a949406c70dcce1b38c667b5"}, {"bike_id": "88362f0c59ef901e43e0c7cd9e1bd7ff", "type": "electric_bike", "is_disabled": 0, "lat": 38.85786566666667, "rental_uris": {"ios": "https://dc.lft.to/lastmile_qr_scan", "android": "https://dc.lft.to/lastmile_qr_scan"}, "is_reserved": 0, "fusion_lon": 0.0, "fusion_lat": 0.0, "lon": -77.1201955, "name": "88362f0c59ef901e43e0c7cd9e1bd7ff"}, {"bike_id": "9e12a299272cb9dcb910e36f2d03bafe", "type": "electric_scooter", "is_disabled": 0, "lat": 38.9268065, "rental_uris": {"ios": "https://dc.lft.to/lastmile_qr_scan", "android": "https://dc.lft.to/lastmile_qr_scan"}, "is_reserved": 0, "fusion_lon": 0.0, "fusion_lat": 0.0, "lon": -77.04351666666666, "name": "9e12a299272cb9dcb910e36f2d03bafe"}, {"bike_id": "f6b6b35df9e1d49cd7b76c906746f9f9", "type": "electric_scooter", "is_disabled": 0, "lat": 38.911337, "rental_uris": {"ios": "https://dc.lft.to/lastmile_qr_scan", "android": "https://dc.lft.to/lastmile_qr_scan"}, "is_reserved": 0, "fusion_lon": 0.0, "fusion_lat": 0.0, "lon": -77.0653615, "name": "f6b6b35df9e1d49cd7b76c906746f9f9"}, {"bike_id": "cd87f6a253d2096e8fd004cdc2050503", "type": "electric_scooter", "is_disabled": 0, "lat": 38.905670666666666, "rental_uris": {"ios": "https://dc.lft.to/lastmile_qr_scan", "android": "https://dc.lft.to/lastmile_qr_scan"}, "is_reserved": 0, "fusion_lon": 0.0, "fusion_lat": 0.0, "lon": -76.976302, "name": "cd87f6a253d2096e8fd004cdc2050503"}, {"bike_id": "5822019b8ca6dd5902628843b53835a6", "type": "electric_scooter", "is_disabled": 0, "lat": 38.91699883333333, "rental_uris": {"ios": "https://dc.lft.to/lastmile_qr_scan", "android": "https://dc.lft.to/lastmile_qr_scan"}, "is_reserved": 0, "fusion_lon": 0.0, "fusion_lat": 0.0, "lon": -77.03179116666666, "name": "5822019b8ca6dd5902628843b53835a6"}, {"bike_id": "64aac89a963d2192edbbfb55744fb36d", "type": "electric_scooter", "is_disabled": 0, "lat": 38.928541833333334, "rental_uris": {"ios": "https://dc.lft.to/lastmile_qr_scan", "android": "https://dc.lft.to/lastmile_qr_scan"}, "is_reserved": 0, "fusion_lon": 0.0, "fusion_lat": 0.0, "lon": -77.05436233333333, "name": "64aac89a963d2192edbbfb55744fb36d"}, {"bike_id": "d5223831a4f5d7dbddb48f71693d8c54", "type": "electric_scooter", "is_disabled": 0, "lat": 38.9024985, "rental_uris": {"ios": "https://dc.lft.to/lastmile_qr_scan", "android": "https://dc.lft.to/lastmile_qr_scan"}, "is_reserved": 0, "fusion_lon": 0.0, "fusion_lat": 0.0, "lon": -77.0186215, "name": "d5223831a4f5d7dbddb48f71693d8c54"}, {"bike_id": "81c888164b5853b9ce5f647f66e86289", "type": "electric_scooter", "is_disabled": 0, "lat": 38.922686, "rental_uris": {"ios": "https://dc.lft.to/lastmile_qr_scan", "android": "https://dc.lft.to/lastmile_qr_scan"}, "is_reserved": 0, "fusion_lon": 0.0, "fusion_lat": 0.0, "lon": -77.032792, "name": "81c888164b5853b9ce5f647f66e86289"}, {"bike_id": "07b3ce7a9dacf153754da09769918b94", "type": "electric_scooter", "is_disabled": 0, "lat": 38.90731666666667, "rental_uris": {"ios": "https://dc.lft.to/lastmile_qr_scan", "android": "https://dc.lft.to/lastmile_qr_scan"}, "is_reserved": 0, "fusion_lon": 0.0, "fusion_lat": 0.0, "lon": -77.0295635, "name": "07b3ce7a9dacf153754da09769918b94"}, {"bike_id": "accd6e16dc43738f2c447752bce9c44f", "type": "electric_bike", "is_disabled": 0, "lat": 38.9083335, "rental_uris": {"ios": "https://dc.lft.to/lastmile_qr_scan", "android": "https://dc.lft.to/lastmile_qr_scan"}, "is_reserved": 0, "fusion_lon": 0.0, "fusion_lat": 0.0, "lon": -76.93310633333333, "name": "accd6e16dc43738f2c447752bce9c44f"}, {"bike_id": "85bed4c3a66b463674e65c036c5e20da", "type": "electric_scooter", "is_disabled": 0, "lat": 38.9091325, "rental_uris": {"ios": "https://dc.lft.to/lastmile_qr_scan", "android": "https://dc.lft.to/lastmile_qr_scan"}, "is_reserved": 0, "fusion_lon": 0.0, "fusion_lat": 0.0, "lon": -77.0450055, "name": "85bed4c3a66b463674e65c036c5e20da"}, {"bike_id": "2d3c13829e7f3715512453ee064f21be", "type": "electric_scooter", "is_disabled": 0, "lat": 38.90977916666667, "rental_uris": {"ios": "https://dc.lft.to/lastmile_qr_scan", "android": "https://dc.lft.to/lastmile_qr_scan"}, "is_reserved": 0, "fusion_lon": 0.0, "fusion_lat": 0.0, "lon": -77.0318535, "name": "2d3c13829e7f3715512453ee064f21be"}, {"bike_id": "a06de7a2d53e9036e1d3d34d32afe919", "type": "electric_scooter", "is_disabled": 0, "lat": 38.870859333333335, "rental_uris": {"ios": "https://dc.lft.to/lastmile_qr_scan", "android": "https://dc.lft.to/lastmile_qr_scan"}, "is_reserved": 0, "fusion_lon": 0.0, "fusion_lat": 0.0, "lon": -77.0121355, "name": "a06de7a2d53e9036e1d3d34d32afe919"}, {"bike_id": "1a401f284bf39bbc209b9481af0aaa66", "type": "electric_scooter", "is_disabled": 0, "lat": 38.908020666666665, "rental_uris": {"ios": "https://dc.lft.to/lastmile_qr_scan", "android": "https://dc.lft.to/lastmile_qr_scan"}, "is_reserved": 0, "fusion_lon": 0.0, "fusion_lat": 0.0, "lon": -77.04330366666667, "name": "1a401f284bf39bbc209b9481af0aaa66"}, {"bike_id": "5bd36c01be3c6cf95e85d17a1263527e", "type": "electric_scooter", "is_disabled": 0, "lat": 38.884004833333336, "rental_uris": {"ios": "https://dc.lft.to/lastmile_qr_scan", "android": "https://dc.lft.to/lastmile_qr_scan"}, "is_reserved": 0, "fusion_lon": 0.0, "fusion_lat": 0.0, "lon": -76.9539405, "name": "5bd36c01be3c6cf95e85d17a1263527e"}, {"bike_id": "a337a9e7d83faad1efdb0a1ec0487bd5", "type": "electric_scooter", "is_disabled": 0, "lat": 38.91194483333334, "rental_uris": {"ios": "https://dc.lft.to/lastmile_qr_scan", "android": "https://dc.lft.to/lastmile_qr_scan"}, "is_reserved": 0, "fusion_lon": 0.0, "fusion_lat": 0.0, "lon": -77.01897716666667, "name": "a337a9e7d83faad1efdb0a1ec0487bd5"}, {"bike_id": "a9003e62b96c365695853133c5595c53", "type": "electric_scooter", "is_disabled": 0, "lat": 38.92550133333334, "rental_uris": {"ios": "https://dc.lft.to/lastmile_qr_scan", "android": "https://dc.lft.to/lastmile_qr_scan"}, "is_reserved": 0, "fusion_lon": 0.0, "fusion_lat": 0.0, "lon": -77.03349316666667, "name": "a9003e62b96c365695853133c5595c53"}, {"bike_id": "fd9751bbe4aea38544c2494a1994136f", "type": "electric_scooter", "is_disabled": 0, "lat": 38.95109816666667, "rental_uris": {"ios": "https://dc.lft.to/lastmile_qr_scan", "android": "https://dc.lft.to/lastmile_qr_scan"}, "is_reserved": 0, "fusion_lon": 0.0, "fusion_lat": 0.0, "lon": -77.01434016666667, "name": "fd9751bbe4aea38544c2494a1994136f"}, {"bike_id": "bab43fdaa225ae5f9dec5cba0ea38c47", "type": "electric_scooter", "is_disabled": 0, "lat": 38.92612366666667, "rental_uris": {"ios": "https://dc.lft.to/lastmile_qr_scan", "android": "https://dc.lft.to/lastmile_qr_scan"}, "is_reserved": 0, "fusion_lon": 0.0, "fusion_lat": 0.0, "lon": -77.04332633333334, "name": "bab43fdaa225ae5f9dec5cba0ea38c47"}, {"bike_id": "2b9c411917c695043b16d87ce758fa83", "type": "electric_bike", "is_disabled": 0, "lat": 38.858675833333336, "rental_uris": {"ios": "https://dc.lft.to/lastmile_qr_scan", "android": "https://dc.lft.to/lastmile_qr_scan"}, "is_reserved": 0, "fusion_lon": 0.0, "fusion_lat": 0.0, "lon": -77.09550183333333, "name": "2b9c411917c695043b16d87ce758fa83"}, {"bike_id": "1932c10931c7dd409ba326a27a0a1a9c", "type": "electric_scooter", "is_disabled": 0, "lat": 38.900722333333334, "rental_uris": {"ios": "https://dc.lft.to/lastmile_qr_scan", "android": "https://dc.lft.to/lastmile_qr_scan"}, "is_reserved": 0, "fusion_lon": 0.0, "fusion_lat": 0.0, "lon": -77.05124233333333, "name": "1932c10931c7dd409ba326a27a0a1a9c"}, {"bike_id": "c00cde67f98b0c62620a05c401ac171d", "type": "electric_bike", "is_disabled": 0, "lat": 38.99529116666667, "rental_uris": {"ios": "https://dc.lft.to/lastmile_qr_scan", "android": "https://dc.lft.to/lastmile_qr_scan"}, "is_reserved": 0, "fusion_lon": 0.0, "fusion_lat": 0.0, "lon": -77.0694865, "name": "c00cde67f98b0c62620a05c401ac171d"}, {"bike_id": "9bb11e5c905a83b6f0fbfcb7c3c22461", "type": "electric_scooter", "is_disabled": 0, "lat": 38.89500866666667, "rental_uris": {"ios": "https://dc.lft.to/lastmile_qr_scan", "android": "https://dc.lft.to/lastmile_qr_scan"}, "is_reserved": 0, "fusion_lon": 0.0, "fusion_lat": 0.0, "lon": -76.9347775, "name": "9bb11e5c905a83b6f0fbfcb7c3c22461"}, {"bike_id": "4003c616ddb53e4cdfc17366dcd431a4", "type": "electric_scooter", "is_disabled": 0, "lat": 38.91509333333333, "rental_uris": {"ios": "https://dc.lft.to/lastmile_qr_scan", "android": "https://dc.lft.to/lastmile_qr_scan"}, "is_reserved": 0, "fusion_lon": 0.0, "fusion_lat": 0.0, "lon": -77.02282866666667, "name": "4003c616ddb53e4cdfc17366dcd431a4"}, {"bike_id": "b96e15457298397b309e63c4e53ca01b", "type": "electric_bike", "is_disabled": 0, "lat": 38.908591, "rental_uris": {"ios": "https://dc.lft.to/lastmile_qr_scan", "android": "https://dc.lft.to/lastmile_qr_scan"}, "is_reserved": 0, "fusion_lon": 0.0, "fusion_lat": 0.0, "lon": -76.99961066666667, "name": "b96e15457298397b309e63c4e53ca01b"}, {"bike_id": "77b1f8b9f736225583c2804f36caa01c", "type": "electric_scooter", "is_disabled": 0, "lat": 38.8669475, "rental_uris": {"ios": "https://dc.lft.to/lastmile_qr_scan", "android": "https://dc.lft.to/lastmile_qr_scan"}, "is_reserved": 0, "fusion_lon": 0.0, "fusion_lat": 0.0, "lon": -76.9856095, "name": "77b1f8b9f736225583c2804f36caa01c"}, {"bike_id": "0cf2d5625f02b612e44dd9274e3b124c", "type": "electric_bike", "is_disabled": 0, "lat": 38.94257983333333, "rental_uris": {"ios": "https://dc.lft.to/lastmile_qr_scan", "android": "https://dc.lft.to/lastmile_qr_scan"}, "is_reserved": 0, "fusion_lon": 0.0, "fusion_lat": 0.0, "lon": -76.99071516666666, "name": "0cf2d5625f02b612e44dd9274e3b124c"}, {"bike_id": "901f2a2a31f63d8b5e68dcf3087ddadf", "type": "electric_scooter", "is_disabled": 0, "lat": 38.9181225, "rental_uris": {"ios": "https://dc.lft.to/lastmile_qr_scan", "android": "https://dc.lft.to/lastmile_qr_scan"}, "is_reserved": 0, "fusion_lon": 0.0, "fusion_lat": 0.0, "lon": -77.03206133333333, "name": "901f2a2a31f63d8b5e68dcf3087ddadf"}, {"bike_id": "f45328c3e7c3389bbfa01c93c4000cff", "type": "electric_scooter", "is_disabled": 0, "lat": 38.89833466666666, "rental_uris": {"ios": "https://dc.lft.to/lastmile_qr_scan", "android": "https://dc.lft.to/lastmile_qr_scan"}, "is_reserved": 0, "fusion_lon": 0.0, "fusion_lat": 0.0, "lon": -77.04348183333333, "name": "f45328c3e7c3389bbfa01c93c4000cff"}, {"bike_id": "110dc260ae92a605e5ccca68ed6aa3ba", "type": "electric_bike", "is_disabled": 0, "lat": 38.8928685, "rental_uris": {"ios": "https://dc.lft.to/lastmile_qr_scan", "android": "https://dc.lft.to/lastmile_qr_scan"}, "is_reserved": 0, "fusion_lon": 0.0, "fusion_lat": 0.0, "lon": -76.97616116666667, "name": "110dc260ae92a605e5ccca68ed6aa3ba"}, {"bike_id": "eba4fbebea133e974147501898775f51", "type": "electric_scooter", "is_disabled": 0, "lat": 38.935284333333335, "rental_uris": {"ios": "https://dc.lft.to/lastmile_qr_scan", "android": "https://dc.lft.to/lastmile_qr_scan"}, "is_reserved": 0, "fusion_lon": 0.0, "fusion_lat": 0.0, "lon": -77.05443633333333, "name": "eba4fbebea133e974147501898775f51"}, {"bike_id": "eaa98be588359ad9dd27e7c7d51565ef", "type": "electric_scooter", "is_disabled": 0, "lat": 38.9001365, "rental_uris": {"ios": "https://dc.lft.to/lastmile_qr_scan", "android": "https://dc.lft.to/lastmile_qr_scan"}, "is_reserved": 0, "fusion_lon": 0.0, "fusion_lat": 0.0, "lon": -77.0240275, "name": "eaa98be588359ad9dd27e7c7d51565ef"}, {"bike_id": "620946d0e741b4ff0749a2ef8f73f6c1", "type": "electric_scooter", "is_disabled": 0, "lat": 38.90253933333334, "rental_uris": {"ios": "https://dc.lft.to/lastmile_qr_scan", "android": "https://dc.lft.to/lastmile_qr_scan"}, "is_reserved": 0, "fusion_lon": 0.0, "fusion_lat": 0.0, "lon": -77.04466783333334, "name": "620946d0e741b4ff0749a2ef8f73f6c1"}, {"bike_id": "e3058dea40892c148114bd8dd4779a8e", "type": "electric_scooter", "is_disabled": 0, "lat": 38.91151133333334, "rental_uris": {"ios": "https://dc.lft.to/lastmile_qr_scan", "android": "https://dc.lft.to/lastmile_qr_scan"}, "is_reserved": 0, "fusion_lon": 0.0, "fusion_lat": 0.0, "lon": -77.0228035, "name": "e3058dea40892c148114bd8dd4779a8e"}, {"bike_id": "5c086e9185b3552cad1cd84b92bfd1b9", "type": "electric_scooter", "is_disabled": 0, "lat": 38.87627633333334, "rental_uris": {"ios": "https://dc.lft.to/lastmile_qr_scan", "android": "https://dc.lft.to/lastmile_qr_scan"}, "is_reserved": 0, "fusion_lon": 0.0, "fusion_lat": 0.0, "lon": -76.96528133333334, "name": "5c086e9185b3552cad1cd84b92bfd1b9"}, {"bike_id": "364ce53ea6348eb5e589f75f5826a7a0", "type": "electric_scooter", "is_disabled": 0, "lat": 38.90431266666667, "rental_uris": {"ios": "https://dc.lft.to/lastmile_qr_scan", "android": "https://dc.lft.to/lastmile_qr_scan"}, "is_reserved": 0, "fusion_lon": 0.0, "fusion_lat": 0.0, "lon": -77.05330333333333, "name": "364ce53ea6348eb5e589f75f5826a7a0"}, {"bike_id": "be0a9cdb6c9eb26ac7331f67dc169014", "type": "electric_scooter", "is_disabled": 0, "lat": 38.900638, "rental_uris": {"ios": "https://dc.lft.to/lastmile_qr_scan", "android": "https://dc.lft.to/lastmile_qr_scan"}, "is_reserved": 0, "fusion_lon": 0.0, "fusion_lat": 0.0, "lon": -76.92750283333334, "name": "be0a9cdb6c9eb26ac7331f67dc169014"}, {"bike_id": "2e8dc1e8429fb9267b339ce737af68c6", "type": "electric_scooter", "is_disabled": 0, "lat": 38.96403983333333, "rental_uris": {"ios": "https://dc.lft.to/lastmile_qr_scan", "android": "https://dc.lft.to/lastmile_qr_scan"}, "is_reserved": 0, "fusion_lon": 0.0, "fusion_lat": 0.0, "lon": -77.02766416666667, "name": "2e8dc1e8429fb9267b339ce737af68c6"}, {"bike_id": "cd3f4bf65a911d35b15b86e047a75a9c", "type": "electric_scooter", "is_disabled": 0, "lat": 38.898739666666664, "rental_uris": {"ios": "https://dc.lft.to/lastmile_qr_scan", "android": "https://dc.lft.to/lastmile_qr_scan"}, "is_reserved": 0, "fusion_lon": 0.0, "fusion_lat": 0.0, "lon": -76.9318775, "name": "cd3f4bf65a911d35b15b86e047a75a9c"}, {"bike_id": "575bc46b6c2d6fa6bf6f3b01b2c23f31", "type": "electric_scooter", "is_disabled": 0, "lat": 38.9037485, "rental_uris": {"ios": "https://dc.lft.to/lastmile_qr_scan", "android": "https://dc.lft.to/lastmile_qr_scan"}, "is_reserved": 0, "fusion_lon": 0.0, "fusion_lat": 0.0, "lon": -77.04496183333333, "name": "575bc46b6c2d6fa6bf6f3b01b2c23f31"}, {"bike_id": "7c5868825940fa2802766b56849b8909", "type": "electric_scooter", "is_disabled": 0, "lat": 38.902164666666664, "rental_uris": {"ios": "https://dc.lft.to/lastmile_qr_scan", "android": "https://dc.lft.to/lastmile_qr_scan"}, "is_reserved": 0, "fusion_lon": 0.0, "fusion_lat": 0.0, "lon": -77.02219533333333, "name": "7c5868825940fa2802766b56849b8909"}, {"bike_id": "e74e26c471be071d1f336623fdb94f9e", "type": "electric_scooter", "is_disabled": 0, "lat": 38.90398883333334, "rental_uris": {"ios": "https://dc.lft.to/lastmile_qr_scan", "android": "https://dc.lft.to/lastmile_qr_scan"}, "is_reserved": 0, "fusion_lon": 0.0, "fusion_lat": 0.0, "lon": -77.06312433333333, "name": "e74e26c471be071d1f336623fdb94f9e"}, {"bike_id": "c758408899f2da695bfb5d38489dc0a8", "type": "electric_scooter", "is_disabled": 0, "lat": 38.924882333333336, "rental_uris": {"ios": "https://dc.lft.to/lastmile_qr_scan", "android": "https://dc.lft.to/lastmile_qr_scan"}, "is_reserved": 0, "fusion_lon": 0.0, "fusion_lat": 0.0, "lon": -77.05758, "name": "c758408899f2da695bfb5d38489dc0a8"}, {"bike_id": "9df8e6d91e05d0b8ce8743c851966160", "type": "electric_scooter", "is_disabled": 0, "lat": 38.936347, "rental_uris": {"ios": "https://dc.lft.to/lastmile_qr_scan", "android": "https://dc.lft.to/lastmile_qr_scan"}, "is_reserved": 0, "fusion_lon": 0.0, "fusion_lat": 0.0, "lon": -77.05885733333334, "name": "9df8e6d91e05d0b8ce8743c851966160"}, {"bike_id": "dd117fb95ba592cf81bc59fc407f7deb", "type": "electric_scooter", "is_disabled": 0, "lat": 38.9064185, "rental_uris": {"ios": "https://dc.lft.to/lastmile_qr_scan", "android": "https://dc.lft.to/lastmile_qr_scan"}, "is_reserved": 0, "fusion_lon": 0.0, "fusion_lat": 0.0, "lon": -77.01431733333334, "name": "dd117fb95ba592cf81bc59fc407f7deb"}, {"bike_id": "c91aead5c7487e7b6c0aa63cd4ed8a15", "type": "electric_scooter", "is_disabled": 0, "lat": 38.9058665, "rental_uris": {"ios": "https://dc.lft.to/lastmile_qr_scan", "android": "https://dc.lft.to/lastmile_qr_scan"}, "is_reserved": 0, "fusion_lon": 0.0, "fusion_lat": 0.0, "lon": -77.03823266666667, "name": "c91aead5c7487e7b6c0aa63cd4ed8a15"}, {"bike_id": "c68954d96bd1d7b41e281a4aae0db6cc", "type": "electric_scooter", "is_disabled": 0, "lat": 38.9106635, "rental_uris": {"ios": "https://dc.lft.to/lastmile_qr_scan", "android": "https://dc.lft.to/lastmile_qr_scan"}, "is_reserved": 0, "fusion_lon": 0.0, "fusion_lat": 0.0, "lon": -77.0371075, "name": "c68954d96bd1d7b41e281a4aae0db6cc"}, {"bike_id": "671d974fed0f0834e0a37cc8cdf2ba90", "type": "electric_scooter", "is_disabled": 0, "lat": 38.94203866666667, "rental_uris": {"ios": "https://dc.lft.to/lastmile_qr_scan", "android": "https://dc.lft.to/lastmile_qr_scan"}, "is_reserved": 0, "fusion_lon": 0.0, "fusion_lat": 0.0, "lon": -77.02581483333333, "name": "671d974fed0f0834e0a37cc8cdf2ba90"}, {"bike_id": "c76c5d4ed6b2cbc3adb07d27ea055dc0", "type": "electric_bike", "is_disabled": 0, "lat": 38.8719465, "rental_uris": {"ios": "https://dc.lft.to/lastmile_qr_scan", "android": "https://dc.lft.to/lastmile_qr_scan"}, "is_reserved": 0, "fusion_lon": 0.0, "fusion_lat": 0.0, "lon": -77.01226566666666, "name": "c76c5d4ed6b2cbc3adb07d27ea055dc0"}, {"bike_id": "6366dfd0827e09c0645375e8d4d51011", "type": "electric_scooter", "is_disabled": 0, "lat": 38.879137666666665, "rental_uris": {"ios": "https://dc.lft.to/lastmile_qr_scan", "android": "https://dc.lft.to/lastmile_qr_scan"}, "is_reserved": 0, "fusion_lon": 0.0, "fusion_lat": 0.0, "lon": -76.99504383333333, "name": "6366dfd0827e09c0645375e8d4d51011"}, {"bike_id": "685d03ac68e9fcf994332485f52297a8", "type": "electric_scooter", "is_disabled": 0, "lat": 38.9068925, "rental_uris": {"ios": "https://dc.lft.to/lastmile_qr_scan", "android": "https://dc.lft.to/lastmile_qr_scan"}, "is_reserved": 0, "fusion_lon": 0.0, "fusion_lat": 0.0, "lon": -77.05330183333334, "name": "685d03ac68e9fcf994332485f52297a8"}, {"bike_id": "9216f49fadd21b92be9c85b9f6908b7e", "type": "electric_bike", "is_disabled": 0, "lat": 38.90825866666667, "rental_uris": {"ios": "https://dc.lft.to/lastmile_qr_scan", "android": "https://dc.lft.to/lastmile_qr_scan"}, "is_reserved": 0, "fusion_lon": 0.0, "fusion_lat": 0.0, "lon": -76.94156283333334, "name": "9216f49fadd21b92be9c85b9f6908b7e"}, {"bike_id": "c21a7b7a8207044ed60cc8fd9b493d44", "type": "electric_scooter", "is_disabled": 0, "lat": 38.93117383333333, "rental_uris": {"ios": "https://dc.lft.to/lastmile_qr_scan", "android": "https://dc.lft.to/lastmile_qr_scan"}, "is_reserved": 0, "fusion_lon": 0.0, "fusion_lat": 0.0, "lon": -77.021015, "name": "c21a7b7a8207044ed60cc8fd9b493d44"}, {"bike_id": "a25050fef4644fc8f45467d5c86f5669", "type": "electric_scooter", "is_disabled": 0, "lat": 38.907806, "rental_uris": {"ios": "https://dc.lft.to/lastmile_qr_scan", "android": "https://dc.lft.to/lastmile_qr_scan"}, "is_reserved": 0, "fusion_lon": 0.0, "fusion_lat": 0.0, "lon": -77.01106933333334, "name": "a25050fef4644fc8f45467d5c86f5669"}, {"bike_id": "3e835e4038089ce0730515ba28935b9e", "type": "electric_scooter", "is_disabled": 0, "lat": 38.91683233333333, "rental_uris": {"ios": "https://dc.lft.to/lastmile_qr_scan", "android": "https://dc.lft.to/lastmile_qr_scan"}, "is_reserved": 0, "fusion_lon": 0.0, "fusion_lat": 0.0, "lon": -77.02956683333333, "name": "3e835e4038089ce0730515ba28935b9e"}, {"bike_id": "3fb1d1def6319db58cf047d835a3dd02", "type": "electric_scooter", "is_disabled": 0, "lat": 38.889321333333335, "rental_uris": {"ios": "https://dc.lft.to/lastmile_qr_scan", "android": "https://dc.lft.to/lastmile_qr_scan"}, "is_reserved": 0, "fusion_lon": 0.0, "fusion_lat": 0.0, "lon": -77.01504816666667, "name": "3fb1d1def6319db58cf047d835a3dd02"}, {"bike_id": "26904d80b8c9f506d4eab77ad1438fbc", "type": "electric_bike", "is_disabled": 0, "lat": 38.89564633333333, "rental_uris": {"ios": "https://dc.lft.to/lastmile_qr_scan", "android": "https://dc.lft.to/lastmile_qr_scan"}, "is_reserved": 0, "fusion_lon": 0.0, "fusion_lat": 0.0, "lon": -77.127367, "name": "26904d80b8c9f506d4eab77ad1438fbc"}, {"bike_id": "64504ac525bc38c05d19c7cb4543aeeb", "type": "electric_scooter", "is_disabled": 0, "lat": 38.89853166666666, "rental_uris": {"ios": "https://dc.lft.to/lastmile_qr_scan", "android": "https://dc.lft.to/lastmile_qr_scan"}, "is_reserved": 0, "fusion_lon": 0.0, "fusion_lat": 0.0, "lon": -76.9903445, "name": "64504ac525bc38c05d19c7cb4543aeeb"}, {"bike_id": "0133a5c511f18f065ea5767c3045e4f1", "type": "electric_scooter", "is_disabled": 0, "lat": 38.91122883333333, "rental_uris": {"ios": "https://dc.lft.to/lastmile_qr_scan", "android": "https://dc.lft.to/lastmile_qr_scan"}, "is_reserved": 0, "fusion_lon": 0.0, "fusion_lat": 0.0, "lon": -77.03830233333333, "name": "0133a5c511f18f065ea5767c3045e4f1"}, {"bike_id": "d0b4880a097d14a65c1bd8bb929fb043", "type": "electric_scooter", "is_disabled": 0, "lat": 38.9129535, "rental_uris": {"ios": "https://dc.lft.to/lastmile_qr_scan", "android": "https://dc.lft.to/lastmile_qr_scan"}, "is_reserved": 0, "fusion_lon": 0.0, "fusion_lat": 0.0, "lon": -77.01977966666666, "name": "d0b4880a097d14a65c1bd8bb929fb043"}, {"bike_id": "e5a1bced1718cf7dbb776b8448502ccf", "type": "electric_bike", "is_disabled": 0, "lat": 38.8769295, "rental_uris": {"ios": "https://dc.lft.to/lastmile_qr_scan", "android": "https://dc.lft.to/lastmile_qr_scan"}, "is_reserved": 0, "fusion_lon": 0.0, "fusion_lat": 0.0, "lon": -77.10979433333333, "name": "e5a1bced1718cf7dbb776b8448502ccf"}, {"bike_id": "7617006f36f854435537adafccd2f1ad", "type": "electric_scooter", "is_disabled": 0, "lat": 38.917051, "rental_uris": {"ios": "https://dc.lft.to/lastmile_qr_scan", "android": "https://dc.lft.to/lastmile_qr_scan"}, "is_reserved": 0, "fusion_lon": 0.0, "fusion_lat": 0.0, "lon": -77.01075816666666, "name": "7617006f36f854435537adafccd2f1ad"}, {"bike_id": "d1342c0d6a8d0d39718d84ae57ce1477", "type": "electric_scooter", "is_disabled": 0, "lat": 38.892272, "rental_uris": {"ios": "https://dc.lft.to/lastmile_qr_scan", "android": "https://dc.lft.to/lastmile_qr_scan"}, "is_reserved": 0, "fusion_lon": 0.0, "fusion_lat": 0.0, "lon": -77.02180333333334, "name": "d1342c0d6a8d0d39718d84ae57ce1477"}, {"bike_id": "b6d50615eda7cfd01055887440549db4", "type": "electric_scooter", "is_disabled": 0, "lat": 38.863704166666665, "rental_uris": {"ios": "https://dc.lft.to/lastmile_qr_scan", "android": "https://dc.lft.to/lastmile_qr_scan"}, "is_reserved": 0, "fusion_lon": 0.0, "fusion_lat": 0.0, "lon": -76.99055666666666, "name": "b6d50615eda7cfd01055887440549db4"}, {"bike_id": "1c8e3d9768fcdcab5dca0047e5dc2ba8", "type": "electric_scooter", "is_disabled": 0, "lat": 38.862470333333334, "rental_uris": {"ios": "https://dc.lft.to/lastmile_qr_scan", "android": "https://dc.lft.to/lastmile_qr_scan"}, "is_reserved": 0, "fusion_lon": 0.0, "fusion_lat": 0.0, "lon": -76.99268733333334, "name": "1c8e3d9768fcdcab5dca0047e5dc2ba8"}, {"bike_id": "3de179c1d81a29e8b2617e181491d43c", "type": "electric_scooter", "is_disabled": 0, "lat": 38.907725666666664, "rental_uris": {"ios": "https://dc.lft.to/lastmile_qr_scan", "android": "https://dc.lft.to/lastmile_qr_scan"}, "is_reserved": 0, "fusion_lon": 0.0, "fusion_lat": 0.0, "lon": -77.02035183333334, "name": "3de179c1d81a29e8b2617e181491d43c"}, {"bike_id": "69dd5a6544dc73bcdbf4b80513727203", "type": "electric_bike", "is_disabled": 0, "lat": 39.0369875, "rental_uris": {"ios": "https://dc.lft.to/lastmile_qr_scan", "android": "https://dc.lft.to/lastmile_qr_scan"}, "is_reserved": 0, "fusion_lon": 0.0, "fusion_lat": 0.0, "lon": -77.02858216666667, "name": "69dd5a6544dc73bcdbf4b80513727203"}, {"bike_id": "72db4d7e3d780bd5454f2a06596d94ce", "type": "electric_scooter", "is_disabled": 0, "lat": 38.959320166666664, "rental_uris": {"ios": "https://dc.lft.to/lastmile_qr_scan", "android": "https://dc.lft.to/lastmile_qr_scan"}, "is_reserved": 0, "fusion_lon": 0.0, "fusion_lat": 0.0, "lon": -77.0311915, "name": "72db4d7e3d780bd5454f2a06596d94ce"}, {"bike_id": "773707e6c0b8d45f3df010ab4b30171d", "type": "electric_bike", "is_disabled": 0, "lat": 38.95504316666667, "rental_uris": {"ios": "https://dc.lft.to/lastmile_qr_scan", "android": "https://dc.lft.to/lastmile_qr_scan"}, "is_reserved": 0, "fusion_lon": 0.0, "fusion_lat": 0.0, "lon": -76.99354366666667, "name": "773707e6c0b8d45f3df010ab4b30171d"}, {"bike_id": "cab366ca94a271b35c2f5ea71069cfe8", "type": "electric_scooter", "is_disabled": 0, "lat": 38.93696516666667, "rental_uris": {"ios": "https://dc.lft.to/lastmile_qr_scan", "android": "https://dc.lft.to/lastmile_qr_scan"}, "is_reserved": 0, "fusion_lon": 0.0, "fusion_lat": 0.0, "lon": -77.03276633333333, "name": "cab366ca94a271b35c2f5ea71069cfe8"}, {"bike_id": "d756c82031dc7f1020f2f71303780ee0", "type": "electric_scooter", "is_disabled": 0, "lat": 38.906479, "rental_uris": {"ios": "https://dc.lft.to/lastmile_qr_scan", "android": "https://dc.lft.to/lastmile_qr_scan"}, "is_reserved": 0, "fusion_lon": 0.0, "fusion_lat": 0.0, "lon": -77.05146683333334, "name": "d756c82031dc7f1020f2f71303780ee0"}, {"bike_id": "f8eee76aac003885c9cfef60be130416", "type": "electric_scooter", "is_disabled": 0, "lat": 38.907468333333334, "rental_uris": {"ios": "https://dc.lft.to/lastmile_qr_scan", "android": "https://dc.lft.to/lastmile_qr_scan"}, "is_reserved": 0, "fusion_lon": 0.0, "fusion_lat": 0.0, "lon": -77.0414635, "name": "f8eee76aac003885c9cfef60be130416"}, {"bike_id": "3ebb3fd370902bb240e346bbc791d5fc", "type": "electric_scooter", "is_disabled": 0, "lat": 38.87564316666667, "rental_uris": {"ios": "https://dc.lft.to/lastmile_qr_scan", "android": "https://dc.lft.to/lastmile_qr_scan"}, "is_reserved": 0, "fusion_lon": 0.0, "fusion_lat": 0.0, "lon": -76.9586935, "name": "3ebb3fd370902bb240e346bbc791d5fc"}, {"bike_id": "c12e95014c3bdfbe3dc23755e4ae42ab", "type": "electric_scooter", "is_disabled": 0, "lat": 38.917117, "rental_uris": {"ios": "https://dc.lft.to/lastmile_qr_scan", "android": "https://dc.lft.to/lastmile_qr_scan"}, "is_reserved": 0, "fusion_lon": 0.0, "fusion_lat": 0.0, "lon": -77.03660566666667, "name": "c12e95014c3bdfbe3dc23755e4ae42ab"}, {"bike_id": "8bc8776a28c93b56eb63545bd0fc6d24", "type": "electric_scooter", "is_disabled": 0, "lat": 38.9198585, "rental_uris": {"ios": "https://dc.lft.to/lastmile_qr_scan", "android": "https://dc.lft.to/lastmile_qr_scan"}, "is_reserved": 0, "fusion_lon": 0.0, "fusion_lat": 0.0, "lon": -77.02389366666667, "name": "8bc8776a28c93b56eb63545bd0fc6d24"}, {"bike_id": "af135572db68f59c0e17bdd62c38905e", "type": "electric_bike", "is_disabled": 0, "lat": 38.9588525, "rental_uris": {"ios": "https://dc.lft.to/lastmile_qr_scan", "android": "https://dc.lft.to/lastmile_qr_scan"}, "is_reserved": 0, "fusion_lon": 0.0, "fusion_lat": 0.0, "lon": -77.02740883333334, "name": "af135572db68f59c0e17bdd62c38905e"}, {"bike_id": "035e76f84ffd185c298f0aefadaa3d19", "type": "electric_scooter", "is_disabled": 0, "lat": 38.87644733333333, "rental_uris": {"ios": "https://dc.lft.to/lastmile_qr_scan", "android": "https://dc.lft.to/lastmile_qr_scan"}, "is_reserved": 0, "fusion_lon": 0.0, "fusion_lat": 0.0, "lon": -76.96507883333334, "name": "035e76f84ffd185c298f0aefadaa3d19"}, {"bike_id": "92bc5007dede33608bda5704c997375b", "type": "electric_scooter", "is_disabled": 0, "lat": 38.90343566666667, "rental_uris": {"ios": "https://dc.lft.to/lastmile_qr_scan", "android": "https://dc.lft.to/lastmile_qr_scan"}, "is_reserved": 0, "fusion_lon": 0.0, "fusion_lat": 0.0, "lon": -76.98512266666667, "name": "92bc5007dede33608bda5704c997375b"}, {"bike_id": "d8acd7321b5dc373389a8594dc31d76c", "type": "electric_scooter", "is_disabled": 0, "lat": 38.94509816666667, "rental_uris": {"ios": "https://dc.lft.to/lastmile_qr_scan", "android": "https://dc.lft.to/lastmile_qr_scan"}, "is_reserved": 0, "fusion_lon": 0.0, "fusion_lat": 0.0, "lon": -77.02175216666667, "name": "d8acd7321b5dc373389a8594dc31d76c"}, {"bike_id": "f6cffa88fde335669d0969beb250b196", "type": "electric_scooter", "is_disabled": 0, "lat": 38.88339033333333, "rental_uris": {"ios": "https://dc.lft.to/lastmile_qr_scan", "android": "https://dc.lft.to/lastmile_qr_scan"}, "is_reserved": 0, "fusion_lon": 0.0, "fusion_lat": 0.0, "lon": -76.99500683333333, "name": "f6cffa88fde335669d0969beb250b196"}, {"bike_id": "cfad9b43b6deff0050af654f26134957", "type": "electric_scooter", "is_disabled": 0, "lat": 38.93211066666667, "rental_uris": {"ios": "https://dc.lft.to/lastmile_qr_scan", "android": "https://dc.lft.to/lastmile_qr_scan"}, "is_reserved": 0, "fusion_lon": 0.0, "fusion_lat": 0.0, "lon": -77.0351545, "name": "cfad9b43b6deff0050af654f26134957"}, {"bike_id": "0bfe99ddec7c60764128df280067a636", "type": "electric_scooter", "is_disabled": 0, "lat": 38.923163833333334, "rental_uris": {"ios": "https://dc.lft.to/lastmile_qr_scan", "android": "https://dc.lft.to/lastmile_qr_scan"}, "is_reserved": 0, "fusion_lon": 0.0, "fusion_lat": 0.0, "lon": -77.02137666666667, "name": "0bfe99ddec7c60764128df280067a636"}, {"bike_id": "fd13008f2e4efc3bc91ed4fa73eda00f", "type": "electric_scooter", "is_disabled": 0, "lat": 38.90209483333334, "rental_uris": {"ios": "https://dc.lft.to/lastmile_qr_scan", "android": "https://dc.lft.to/lastmile_qr_scan"}, "is_reserved": 0, "fusion_lon": 0.0, "fusion_lat": 0.0, "lon": -77.047486, "name": "fd13008f2e4efc3bc91ed4fa73eda00f"}, {"bike_id": "ef0fe6a219001010ae0c1859a518832f", "type": "electric_scooter", "is_disabled": 0, "lat": 38.90070383333333, "rental_uris": {"ios": "https://dc.lft.to/lastmile_qr_scan", "android": "https://dc.lft.to/lastmile_qr_scan"}, "is_reserved": 0, "fusion_lon": 0.0, "fusion_lat": 0.0, "lon": -77.04685916666666, "name": "ef0fe6a219001010ae0c1859a518832f"}, {"bike_id": "e24eba4f4caba555ecaa53469b2b2b9b", "type": "electric_scooter", "is_disabled": 0, "lat": 38.905610333333335, "rental_uris": {"ios": "https://dc.lft.to/lastmile_qr_scan", "android": "https://dc.lft.to/lastmile_qr_scan"}, "is_reserved": 0, "fusion_lon": 0.0, "fusion_lat": 0.0, "lon": -77.00470083333333, "name": "e24eba4f4caba555ecaa53469b2b2b9b"}, {"bike_id": "a147aa13ae71307ffc19c97159caa421", "type": "electric_scooter", "is_disabled": 0, "lat": 38.923642, "rental_uris": {"ios": "https://dc.lft.to/lastmile_qr_scan", "android": "https://dc.lft.to/lastmile_qr_scan"}, "is_reserved": 0, "fusion_lon": 0.0, "fusion_lat": 0.0, "lon": -77.05133533333333, "name": "a147aa13ae71307ffc19c97159caa421"}, {"bike_id": "c7d9661b056c8d891f8a2cf4195f749e", "type": "electric_scooter", "is_disabled": 0, "lat": 38.9324505, "rental_uris": {"ios": "https://dc.lft.to/lastmile_qr_scan", "android": "https://dc.lft.to/lastmile_qr_scan"}, "is_reserved": 0, "fusion_lon": 0.0, "fusion_lat": 0.0, "lon": -77.03639383333334, "name": "c7d9661b056c8d891f8a2cf4195f749e"}, {"bike_id": "b7763625afcd522399d0ea88c7cbfcae", "type": "electric_scooter", "is_disabled": 0, "lat": 38.8876115, "rental_uris": {"ios": "https://dc.lft.to/lastmile_qr_scan", "android": "https://dc.lft.to/lastmile_qr_scan"}, "is_reserved": 0, "fusion_lon": 0.0, "fusion_lat": 0.0, "lon": -76.95597816666667, "name": "b7763625afcd522399d0ea88c7cbfcae"}, {"bike_id": "12b20b3bc219d9ad4e91971ed4c3e172", "type": "electric_scooter", "is_disabled": 0, "lat": 38.91154216666666, "rental_uris": {"ios": "https://dc.lft.to/lastmile_qr_scan", "android": "https://dc.lft.to/lastmile_qr_scan"}, "is_reserved": 0, "fusion_lon": 0.0, "fusion_lat": 0.0, "lon": -77.04430116666667, "name": "12b20b3bc219d9ad4e91971ed4c3e172"}, {"bike_id": "037f1a92eca71191967b47b4eb553a32", "type": "electric_bike", "is_disabled": 0, "lat": 38.84524733333333, "rental_uris": {"ios": "https://dc.lft.to/lastmile_qr_scan", "android": "https://dc.lft.to/lastmile_qr_scan"}, "is_reserved": 0, "fusion_lon": 0.0, "fusion_lat": 0.0, "lon": -76.97394483333333, "name": "037f1a92eca71191967b47b4eb553a32"}, {"bike_id": "04771a700372fe5953c1008c8a0103c1", "type": "electric_scooter", "is_disabled": 0, "lat": 38.95016366666667, "rental_uris": {"ios": "https://dc.lft.to/lastmile_qr_scan", "android": "https://dc.lft.to/lastmile_qr_scan"}, "is_reserved": 0, "fusion_lon": 0.0, "fusion_lat": 0.0, "lon": -77.0088025, "name": "04771a700372fe5953c1008c8a0103c1"}, {"bike_id": "e69b31ed3142677e911828f58b480613", "type": "electric_scooter", "is_disabled": 0, "lat": 38.86734166666667, "rental_uris": {"ios": "https://dc.lft.to/lastmile_qr_scan", "android": "https://dc.lft.to/lastmile_qr_scan"}, "is_reserved": 0, "fusion_lon": 0.0, "fusion_lat": 0.0, "lon": -76.9786375, "name": "e69b31ed3142677e911828f58b480613"}, {"bike_id": "efcc35e5bee93aeb999dd95cdbb28586", "type": "electric_scooter", "is_disabled": 0, "lat": 38.923933, "rental_uris": {"ios": "https://dc.lft.to/lastmile_qr_scan", "android": "https://dc.lft.to/lastmile_qr_scan"}, "is_reserved": 0, "fusion_lon": 0.0, "fusion_lat": 0.0, "lon": -77.02493266666667, "name": "efcc35e5bee93aeb999dd95cdbb28586"}, {"bike_id": "fcd429c07b5e1a9be48158aed1559707", "type": "electric_scooter", "is_disabled": 0, "lat": 38.90733133333333, "rental_uris": {"ios": "https://dc.lft.to/lastmile_qr_scan", "android": "https://dc.lft.to/lastmile_qr_scan"}, "is_reserved": 0, "fusion_lon": 0.0, "fusion_lat": 0.0, "lon": -76.97970933333333, "name": "fcd429c07b5e1a9be48158aed1559707"}, {"bike_id": "9564577709e95536818bb0b24124f6ad", "type": "electric_scooter", "is_disabled": 0, "lat": 38.83148933333333, "rental_uris": {"ios": "https://dc.lft.to/lastmile_qr_scan", "android": "https://dc.lft.to/lastmile_qr_scan"}, "is_reserved": 0, "fusion_lon": 0.0, "fusion_lat": 0.0, "lon": -77.05130666666666, "name": "9564577709e95536818bb0b24124f6ad"}, {"bike_id": "796aecac719ac47876159fcc838489b8", "type": "electric_scooter", "is_disabled": 0, "lat": 38.912585166666666, "rental_uris": {"ios": "https://dc.lft.to/lastmile_qr_scan", "android": "https://dc.lft.to/lastmile_qr_scan"}, "is_reserved": 0, "fusion_lon": 0.0, "fusion_lat": 0.0, "lon": -77.02225416666667, "name": "796aecac719ac47876159fcc838489b8"}, {"bike_id": "4348b83c7e37b0b70ddba083de37d4a6", "type": "electric_scooter", "is_disabled": 0, "lat": 38.90956966666667, "rental_uris": {"ios": "https://dc.lft.to/lastmile_qr_scan", "android": "https://dc.lft.to/lastmile_qr_scan"}, "is_reserved": 0, "fusion_lon": 0.0, "fusion_lat": 0.0, "lon": -77.02681366666667, "name": "4348b83c7e37b0b70ddba083de37d4a6"}, {"bike_id": "514109c2ce18bd748d4a030840a63527", "type": "electric_scooter", "is_disabled": 0, "lat": 38.907469666666664, "rental_uris": {"ios": "https://dc.lft.to/lastmile_qr_scan", "android": "https://dc.lft.to/lastmile_qr_scan"}, "is_reserved": 0, "fusion_lon": 0.0, "fusion_lat": 0.0, "lon": -77.03188966666667, "name": "514109c2ce18bd748d4a030840a63527"}, {"bike_id": "46b5a1cb21bd47435243f8f57357e9ee", "type": "electric_scooter", "is_disabled": 0, "lat": 38.917696, "rental_uris": {"ios": "https://dc.lft.to/lastmile_qr_scan", "android": "https://dc.lft.to/lastmile_qr_scan"}, "is_reserved": 0, "fusion_lon": 0.0, "fusion_lat": 0.0, "lon": -77.03448633333333, "name": "46b5a1cb21bd47435243f8f57357e9ee"}, {"bike_id": "70f852aa546f0e9e09eb982ca77a630d", "type": "electric_scooter", "is_disabled": 0, "lat": 38.9078235, "rental_uris": {"ios": "https://dc.lft.to/lastmile_qr_scan", "android": "https://dc.lft.to/lastmile_qr_scan"}, "is_reserved": 0, "fusion_lon": 0.0, "fusion_lat": 0.0, "lon": -77.0319865, "name": "70f852aa546f0e9e09eb982ca77a630d"}, {"bike_id": "f9f5cdaccc46503629bf584d5b8e236e", "type": "electric_bike", "is_disabled": 0, "lat": 38.99598016666667, "rental_uris": {"ios": "https://dc.lft.to/lastmile_qr_scan", "android": "https://dc.lft.to/lastmile_qr_scan"}, "is_reserved": 0, "fusion_lon": 0.0, "fusion_lat": 0.0, "lon": -77.02676716666667, "name": "f9f5cdaccc46503629bf584d5b8e236e"}, {"bike_id": "c79fc718389a088e8afa3bc3a897b34a", "type": "electric_scooter", "is_disabled": 0, "lat": 38.91741583333334, "rental_uris": {"ios": "https://dc.lft.to/lastmile_qr_scan", "android": "https://dc.lft.to/lastmile_qr_scan"}, "is_reserved": 0, "fusion_lon": 0.0, "fusion_lat": 0.0, "lon": -77.04073416666667, "name": "c79fc718389a088e8afa3bc3a897b34a"}, {"bike_id": "37f0884dfa508a70c62009d04304d173", "type": "electric_scooter", "is_disabled": 0, "lat": 38.935252166666665, "rental_uris": {"ios": "https://dc.lft.to/lastmile_qr_scan", "android": "https://dc.lft.to/lastmile_qr_scan"}, "is_reserved": 0, "fusion_lon": 0.0, "fusion_lat": 0.0, "lon": -77.02964066666667, "name": "37f0884dfa508a70c62009d04304d173"}, {"bike_id": "5e9a4558574ddd34857b4fde547f682d", "type": "electric_scooter", "is_disabled": 0, "lat": 38.91705, "rental_uris": {"ios": "https://dc.lft.to/lastmile_qr_scan", "android": "https://dc.lft.to/lastmile_qr_scan"}, "is_reserved": 0, "fusion_lon": 0.0, "fusion_lat": 0.0, "lon": -77.03459416666666, "name": "5e9a4558574ddd34857b4fde547f682d"}, {"bike_id": "a9fe6d0ee84c50cab811802d92f3ac13", "type": "electric_scooter", "is_disabled": 0, "lat": 38.9064135, "rental_uris": {"ios": "https://dc.lft.to/lastmile_qr_scan", "android": "https://dc.lft.to/lastmile_qr_scan"}, "is_reserved": 0, "fusion_lon": 0.0, "fusion_lat": 0.0, "lon": -77.01017616666667, "name": "a9fe6d0ee84c50cab811802d92f3ac13"}, {"bike_id": "da7102309ebbd8cb3177da44526936b8", "type": "electric_scooter", "is_disabled": 0, "lat": 38.92630183333333, "rental_uris": {"ios": "https://dc.lft.to/lastmile_qr_scan", "android": "https://dc.lft.to/lastmile_qr_scan"}, "is_reserved": 0, "fusion_lon": 0.0, "fusion_lat": 0.0, "lon": -77.03248316666667, "name": "da7102309ebbd8cb3177da44526936b8"}, {"bike_id": "2adffb567533d151abf747ccd5864ccd", "type": "electric_scooter", "is_disabled": 0, "lat": 38.90545916666667, "rental_uris": {"ios": "https://dc.lft.to/lastmile_qr_scan", "android": "https://dc.lft.to/lastmile_qr_scan"}, "is_reserved": 0, "fusion_lon": 0.0, "fusion_lat": 0.0, "lon": -77.05002066666667, "name": "2adffb567533d151abf747ccd5864ccd"}, {"bike_id": "5cd4fc8376c07738482ad0338ea0952b", "type": "electric_scooter", "is_disabled": 0, "lat": 38.89340883333333, "rental_uris": {"ios": "https://dc.lft.to/lastmile_qr_scan", "android": "https://dc.lft.to/lastmile_qr_scan"}, "is_reserved": 0, "fusion_lon": 0.0, "fusion_lat": 0.0, "lon": -77.02423383333333, "name": "5cd4fc8376c07738482ad0338ea0952b"}, {"bike_id": "ad6f0f1b242db002f6e62341796edc41", "type": "electric_scooter", "is_disabled": 0, "lat": 38.935461833333335, "rental_uris": {"ios": "https://dc.lft.to/lastmile_qr_scan", "android": "https://dc.lft.to/lastmile_qr_scan"}, "is_reserved": 0, "fusion_lon": 0.0, "fusion_lat": 0.0, "lon": -77.05829366666667, "name": "ad6f0f1b242db002f6e62341796edc41"}, {"bike_id": "c5502acda6c5f2071e1077fb1a8ff644", "type": "electric_bike", "is_disabled": 0, "lat": 38.892228, "rental_uris": {"ios": "https://dc.lft.to/lastmile_qr_scan", "android": "https://dc.lft.to/lastmile_qr_scan"}, "is_reserved": 0, "fusion_lon": 0.0, "fusion_lat": 0.0, "lon": -76.97081983333334, "name": "c5502acda6c5f2071e1077fb1a8ff644"}, {"bike_id": "7a20d280358e558665ee98706af51267", "type": "electric_scooter", "is_disabled": 0, "lat": 38.971972, "rental_uris": {"ios": "https://dc.lft.to/lastmile_qr_scan", "android": "https://dc.lft.to/lastmile_qr_scan"}, "is_reserved": 0, "fusion_lon": 0.0, "fusion_lat": 0.0, "lon": -77.02682333333334, "name": "7a20d280358e558665ee98706af51267"}, {"bike_id": "8408d82778fe93115576dcdf82235d26", "type": "electric_scooter", "is_disabled": 0, "lat": 38.911121333333334, "rental_uris": {"ios": "https://dc.lft.to/lastmile_qr_scan", "android": "https://dc.lft.to/lastmile_qr_scan"}, "is_reserved": 0, "fusion_lon": 0.0, "fusion_lat": 0.0, "lon": -77.03919533333334, "name": "8408d82778fe93115576dcdf82235d26"}, {"bike_id": "253eeadf8e1b2b2b2649c22d44d868a6", "type": "electric_bike", "is_disabled": 0, "lat": 38.955926833333336, "rental_uris": {"ios": "https://dc.lft.to/lastmile_qr_scan", "android": "https://dc.lft.to/lastmile_qr_scan"}, "is_reserved": 0, "fusion_lon": 0.0, "fusion_lat": 0.0, "lon": -77.08797916666667, "name": "253eeadf8e1b2b2b2649c22d44d868a6"},