{"data": {"bikes": [{"name": "f84bd11bcafd36f3aaaf686f55054cc8", "fusion_lat": 0.0, "type": "electric_scooter", "lat": 38.92291766666666, "is_reserved": 0, "is_disabled": 0, "fusion_lon": 0.0, "bike_id": "f84bd11bcafd36f3aaaf686f55054cc8", "lon": -77.02970266666667, "rental_uris": {"ios": "https://dc.lft.to/lastmile_qr_scan", "android": "https://dc.lft.to/lastmile_qr_scan"}}, {"name": "32d6ff10ba138da6ae1d61882dedecbb", "fusion_lat": 0.0, "type": "electric_scooter", "lat": 38.8749585, "is_reserved": 0, "is_disabled": 0, "fusion_lon": 0.0, "bike_id": "32d6ff10ba138da6ae1d61882dedecbb", "lon": -76.99791516666667, "rental_uris": {"ios": "https://dc.lft.to/lastmile_qr_scan", "android": "https://dc.lft.to/lastmile_qr_scan"}}, {"name": "8c957aa1b541445561fc6b26daa49c71", "fusion_lat": 0.0, "type": "electric_scooter", "lat": 38.9061495, "is_reserved": 0, "is_disabled": 0, "fusion_lon": 0.0, "bike_id": "8c957aa1b541445561fc6b26daa49c71", "lon": -77.00609883333334, "rental_uris": {"ios": "https://dc.lft.to/lastmile_qr_scan", "android": "https://dc.lft.to/lastmile_qr_scan"}}, {"name": "444811634adeff59f113518245e67aed", "fusion_lat": 0.0, "type": "electric_scooter", "lat": 38.9002025, "is_reserved": 0, "is_disabled": 0, "fusion_lon": 0.0, "bike_id": "444811634adeff59f113518245e67aed", "lon": -77.00091766666667, "rental_uris": {"ios": "https://dc.lft.to/lastmile_qr_scan", "android": "https://dc.lft.to/lastmile_qr_scan"}}, {"name": "797b9124f68151513caef195e64c83c1", "fusion_lat": 0.0, "type": "electric_scooter", "lat": 38.92057116666667, "is_reserved": 0, "is_disabled": 0, "fusion_lon": 0.0, "bike_id": "797b9124f68151513caef195e64c83c1", "lon": -77.023705, "rental_uris": {"ios": "https://dc.lft.to/lastmile_qr_scan", "android": "https://dc.lft.to/lastmile_qr_scan"}}, {"name": "1e7e7740c23e8a393adfa63f8da0d35d", "fusion_lat": 0.0, "type": "electric_scooter", "lat": 38.91404766666667, "is_reserved": 0, "is_disabled": 0, "fusion_lon": 0.0, "bike_id": "1e7e7740c23e8a393adfa63f8da0d35d", "lon": -77.02228433333333, "rental_uris": {"ios": "https://dc.lft.to/lastmile_qr_scan", "android": "https://dc.lft.to/lastmile_qr_scan"}}, {"name": "cac2ef69ff10b4e50b1cf6f886a12dbb", "fusion_lat": 0.0, "type": "electric_scooter", "lat": 38.949578, "is_reserved": 0, "is_disabled": 0, "fusion_lon": 0.0, "bike_id": "cac2ef69ff10b4e50b1cf6f886a12dbb", "lon": -77.02723716666667, "rental_uris": {"ios": "https://dc.lft.to/lastmile_qr_scan", "android": "https://dc.lft.to/lastmile_qr_scan"}}, {"name": "7282cd626eaebc31ff58e076014a3b84", "fusion_lat": 0.0, "type": "electric_scooter", "lat": 38.916987666666664, "is_reserved": 0, "is_disabled": 0, "fusion_lon": 0.0, "bike_id": "7282cd626eaebc31ff58e076014a3b84", "lon": -77.031723, "rental_uris": {"ios": "https://dc.lft.to/lastmile_qr_scan", "android": "https://dc.lft.to/lastmile_qr_scan"}}, {"name": "50493484a0366aad2ab2c4ed734ebfc0", "fusion_lat": 0.0, "type": "electric_bike", "lat": 38.9357755, "is_reserved": 0, "is_disabled": 0, "fusion_lon": 0.0, "bike_id": "50493484a0366aad2ab2c4ed734ebfc0", "lon": -77.02125416666667, "rental_uris": {"ios": "https://dc.lft.to/lastmile_qr_scan", "android": "https://dc.lft.to/lastmile_qr_scan"}}, {"name": "e21523a9723ccaf7a26432b4fc63fa13", "fusion_lat": 0.0, "type": "electric_scooter", "lat": 38.9003175, "is_reserved": 0, "is_disabled": 0, "fusion_lon": 0.0, "bike_id": "e21523a9723ccaf7a26432b4fc63fa13", "lon": -76.99826916666666, "rental_uris": {"ios": "https://dc.lft.to/lastmile_qr_scan", "android": "https://dc.lft.to/lastmile_qr_scan"}}, {"name": "39371f3c129f0e227f3b685cb59d3692", "fusion_lat": 0.0, "type": "electric_scooter", "lat": 38.8859375, "is_reserved": 0, "is_disabled": 0, "fusion_lon": 0.0, "bike_id": "39371f3c129f0e227f3b685cb59d3692", "lon": -77.022056, "rental_uris": {"ios": "https://dc.lft.to/lastmile_qr_scan", "android": "https://dc.lft.to/lastmile_qr_scan"}}, {"name": "3da1b30fba828fd89d0dd6fbf1e57d98", "fusion_lat": 0.0, "type": "electric_scooter", "lat": 38.9341545, "is_reserved": 0, "is_disabled": 0, "fusion_lon": 0.0, "bike_id": "3da1b30fba828fd89d0dd6fbf1e57d98", "lon": -77.04187983333334, "rental_uris": {"ios": "https://dc.lft.to/lastmile_qr_scan", "android": "https://dc.lft.to/lastmile_qr_scan"}}, {"name": "b1a769a91517f72c1c1c561a240206a3", "fusion_lat": 0.0, "type": "electric_bike", "lat": 38.883456, "is_reserved": 0, "is_disabled": 0, "fusion_lon": 0.0, "bike_id": "b1a769a91517f72c1c1c561a240206a3", "lon": -77.18297183333334, "rental_uris": {"ios": "https://dc.lft.to/lastmile_qr_scan", "android": "https://dc.lft.to/lastmile_qr_scan"}}, {"name": "1fd63ce86e56cad72a6df07b48854e1f", "fusion_lat": 0.0, "type": "electric_scooter", "lat": 38.90543916666667, "is_reserved": 0, "is_disabled": 0, "fusion_lon": 0.0, "bike_id": "1fd63ce86e56cad72a6df07b48854e1f", "lon": -77.06275, "rental_uris": {"ios": "https://dc.lft.to/lastmile_qr_scan", "android": "https://dc.lft.to/lastmile_qr_scan"}}, {"name": "c34481e69b3597fc77cea5e3125569a8", "fusion_lat": 0.0, "type": "electric_scooter", "lat": 38.9104445, "is_reserved": 0, "is_disabled": 0, "fusion_lon": 0.0, "bike_id": "c34481e69b3597fc77cea5e3125569a8", "lon": -77.043707, "rental_uris": {"ios": "https://dc.lft.to/lastmile_qr_scan", "android": "https://dc.lft.to/lastmile_qr_scan"}}, {"name": "1a6eeadb623d4051592f654eaa91824b", "fusion_lat": 0.0, "type": "electric_scooter", "lat": 38.90031166666667, "is_reserved": 0, "is_disabled": 0, "fusion_lon": 0.0, "bike_id": "1a6eeadb623d4051592f654eaa91824b", "lon": -76.9985645, "rental_uris": {"ios": "https://dc.lft.to/lastmile_qr_scan", "android": "https://dc.lft.to/lastmile_qr_scan"}}, {"name": "89fe6054037a555e666985fdc6b1047b", "fusion_lat": 0.0, "type": "electric_scooter", "lat": 38.89851016666667, "is_reserved": 0, "is_disabled": 0, "fusion_lon": 0.0, "bike_id": "89fe6054037a555e666985fdc6b1047b", "lon": -77.01611216666667, "rental_uris": {"ios": "https://dc.lft.to/lastmile_qr_scan", "android": "https://dc.lft.to/lastmile_qr_scan"}}, {"name": "c04ddcc1219b229c755d0596812d5291", "fusion_lat": 0.0, "type": "electric_scooter", "lat": 38.9428065, "is_reserved": 0, "is_disabled": 0, "fusion_lon": 0.0, "bike_id": "c04ddcc1219b229c755d0596812d5291", "lon": -77.02505633333334, "rental_uris": {"ios": "https://dc.lft.to/lastmile_qr_scan", "android": "https://dc.lft.to/lastmile_qr_scan"}}, {"name": "55ba1d6d2d35c1d4d10c093383976cdb", "fusion_lat": 0.0, "type": "electric_scooter", "lat": 38.89370016666667, "is_reserved": 0, "is_disabled": 0, "fusion_lon": 0.0, "bike_id": "55ba1d6d2d35c1d4d10c093383976cdb", "lon": -76.95001866666667, "rental_uris": {"ios": "https://dc.lft.to/lastmile_qr_scan", "android": "https://dc.lft.to/lastmile_qr_scan"}}, {"name": "4c66a6ac67fb4223b0c3102dd1a79b23", "fusion_lat": 0.0, "type": "electric_scooter", "lat": 38.92725816666667, "is_reserved": 0, "is_disabled": 0, "fusion_lon": 0.0, "bike_id": "4c66a6ac67fb4223b0c3102dd1a79b23", "lon": -77.07136433333334, "rental_uris": {"ios": "https://dc.lft.to/lastmile_qr_scan", "android": "https://dc.lft.to/lastmile_qr_scan"}}, {"name": "6a17d6694ab003673e55ee2d9356e466", "fusion_lat": 0.0, "type": "electric_scooter", "lat": 38.90572933333333, "is_reserved": 0, "is_disabled": 0, "fusion_lon": 0.0, "bike_id": "6a17d6694ab003673e55ee2d9356e466", "lon": -77.0298325, "rental_uris": {"ios": "https://dc.lft.to/lastmile_qr_scan", "android": "https://dc.lft.to/lastmile_qr_scan"}}, {"name": "2da4a500099dfc96dee6405dbd14cf3c", "fusion_lat": 0.0, "type": "electric_scooter", "lat": 38.939107166666666, "is_reserved": 0, "is_disabled": 0, "fusion_lon": 0.0, "bike_id": "2da4a500099dfc96dee6405dbd14cf3c", "lon": -77.06040816666666, "rental_uris": {"ios": "https://dc.lft.to/lastmile_qr_scan", "android": "https://dc.lft.to/lastmile_qr_scan"}}, {"name": "367ed5d55ed03d1a1af97b4287d5ab2a", "fusion_lat": 0.0, "type": "electric_scooter", "lat": 38.90571816666667, "is_reserved": 0, "is_disabled": 0, "fusion_lon": 0.0, "bike_id": "367ed5d55ed03d1a1af97b4287d5ab2a", "lon": -77.02969516666667, "rental_uris": {"ios": "https://dc.lft.to/lastmile_qr_scan", "android": "https://dc.lft.to/lastmile_qr_scan"}}, {"name": "33fd11be7920a774ec076c6ece25630f", "fusion_lat": 0.0, "type": "electric_scooter", "lat": 38.8850325, "is_reserved": 0, "is_disabled": 0, "fusion_lon": 0.0, "bike_id": "33fd11be7920a774ec076c6ece25630f", "lon": -77.03061433333333, "rental_uris": {"ios": "https://dc.lft.to/lastmile_qr_scan", "android": "https://dc.lft.to/lastmile_qr_scan"}}, {"name": "2d9d45dc9cc9e3f58a69dee40184e7a7", "fusion_lat": 0.0, "type": "electric_scooter", "lat": 38.920493, "is_reserved": 0, "is_disabled": 0, "fusion_lon": 0.0, "bike_id": "2d9d45dc9cc9e3f58a69dee40184e7a7", "lon": -77.03444316666666, "rental_uris": {"ios": "https://dc.lft.to/lastmile_qr_scan", "android": "https://dc.lft.to/lastmile_qr_scan"}}, {"name": "52f8776b017dfd652f2da70141eb23c4", "fusion_lat": 0.0, "type": "electric_bike", "lat": 38.93483883333333, "is_reserved": 0, "is_disabled": 0, "fusion_lon": 0.0, "bike_id": "52f8776b017dfd652f2da70141eb23c4", "lon": -77.03015383333333, "rental_uris": {"ios": "https://dc.lft.to/lastmile_qr_scan", "android": "https://dc.lft.to/lastmile_qr_scan"}}, {"name": "fa9e14ff605289e1381faeb4366873e9", "fusion_lat": 0.0, "type": "electric_scooter", "lat": 38.9006485, "is_reserved": 0, "is_disabled": 0, "fusion_lon": 0.0, "bike_id": "fa9e14ff605289e1381faeb4366873e9", "lon": -77.045074, "rental_uris": {"ios": "https://dc.lft.to/lastmile_qr_scan", "android": "https://dc.lft.to/lastmile_qr_scan"}}, {"name": "cceeb475add0d7deda757fbf3bbc80b3", "fusion_lat": 0.0, "type": "electric_scooter", "lat": 38.918724166666664, "is_reserved": 0, "is_disabled": 0, "fusion_lon": 0.0, "bike_id": "cceeb475add0d7deda757fbf3bbc80b3", "lon": -77.04139783333333, "rental_uris": {"ios": "https://dc.lft.to/lastmile_qr_scan", "android": "https://dc.lft.to/lastmile_qr_scan"}}, {"name": "d6c8043f095095b7311e5345a016e84c", "fusion_lat": 0.0, "type": "electric_scooter", "lat": 38.9141575, "is_reserved": 0, "is_disabled": 0, "fusion_lon": 0.0, "bike_id": "d6c8043f095095b7311e5345a016e84c", "lon": -77.026465, "rental_uris": {"ios": "https://dc.lft.to/lastmile_qr_scan", "android": "https://dc.lft.to/lastmile_qr_scan"}}, {"name": "c056ba6dd9fb51f70ccbaffa7dce2538", "fusion_lat": 0.0, "type": "electric_scooter", "lat": 38.904723, "is_reserved": 0, "is_disabled": 0, "fusion_lon": 0.0, "bike_id": "c056ba6dd9fb51f70ccbaffa7dce2538", "lon": -77.04842733333334, "rental_uris": {"ios": "https://dc.lft.to/lastmile_qr_scan", "android": "https://dc.lft.to/lastmile_qr_scan"}}, {"name": "840f37308db620fb4119d8b2313ecf76", "fusion_lat": 0.0, "type": "electric_bike", "lat": 39.0388115, "is_reserved": 0, "is_disabled": 0, "fusion_lon": 0.0, "bike_id": "840f37308db620fb4119d8b2313ecf76", "lon": -76.99046383333334, "rental_uris": {"ios": "https://dc.lft.to/lastmile_qr_scan", "android": "https://dc.lft.to/lastmile_qr_scan"}}, {"name": "0afa09c4fd49d60ce349cdc81b7eb8c9", "fusion_lat": 0.0, "type": "electric_scooter", "lat": 38.916004666666666, "is_reserved": 0, "is_disabled": 0, "fusion_lon": 0.0, "bike_id": "0afa09c4fd49d60ce349cdc81b7eb8c9", "lon": -77.02302766666666, "rental_uris": {"ios": "https://dc.lft.to/lastmile_qr_scan", "android": "https://dc.lft.to/lastmile_qr_scan"}}, {"name": "4c61da738ad08e5df6efd7d59a428331", "fusion_lat": 0.0, "type": "electric_scooter", "lat": 38.91704883333333, "is_reserved": 0, "is_disabled": 0, "fusion_lon": 0.0, "bike_id": "4c61da738ad08e5df6efd7d59a428331", "lon": -77.0427235, "rental_uris": {"ios": "https://dc.lft.to/lastmile_qr_scan", "android": "https://dc.lft.to/lastmile_qr_scan"}}, {"name": "cc1453eccdf958f534fff8572f2b0ad8", "fusion_lat": 0.0, "type": "electric_scooter", "lat": 38.9231805, "is_reserved": 0, "is_disabled": 0, "fusion_lon": 0.0, "bike_id": "cc1453eccdf958f534fff8572f2b0ad8", "lon": -77.04521566666666, "rental_uris": {"ios": "https://dc.lft.to/lastmile_qr_scan", "android": "https://dc.lft.to/lastmile_qr_scan"}}, {"name": "c79eb280df61c5a1fd9d528d3629d181", "fusion_lat": 0.0, "type": "electric_scooter", "lat": 38.920658, "is_reserved": 0, "is_disabled": 0, "fusion_lon": 0.0, "bike_id": "c79eb280df61c5a1fd9d528d3629d181", "lon": -77.04382366666667, "rental_uris": {"ios": "https://dc.lft.to/lastmile_qr_scan", "android": "https://dc.lft.to/lastmile_qr_scan"}}, {"name": "b22b309df44d0964f27857cf53eb7fa6", "fusion_lat": 0.0, "type": "electric_scooter", "lat": 38.96112816666667, "is_reserved": 0, "is_disabled": 0, "fusion_lon": 0.0, "bike_id": "b22b309df44d0964f27857cf53eb7fa6", "lon": -77.02815833333334, "rental_uris": {"ios": "https://dc.lft.to/lastmile_qr_scan", "android": "https://dc.lft.to/lastmile_qr_scan"}}, {"name": "b6d7bc9432f181889bc0afdb12634681", "fusion_lat": 0.0, "type": "electric_scooter", "lat": 38.91707016666667, "is_reserved": 0, "is_disabled": 0, "fusion_lon": 0.0, "bike_id": "b6d7bc9432f181889bc0afdb12634681", "lon": -77.028505, "rental_uris": {"ios": "https://dc.lft.to/lastmile_qr_scan", "android": "https://dc.lft.to/lastmile_qr_scan"}}, {"name": "be59ead5549af4796f952e0f96e2c315", "fusion_lat": 0.0, "type": "electric_scooter", "lat": 38.902469833333335, "is_reserved": 0, "is_disabled": 0, "fusion_lon": 0.0, "bike_id": "be59ead5549af4796f952e0f96e2c315", "lon": -77.01756666666667, "rental_uris": {"ios": "https://dc.lft.to/lastmile_qr_scan", "android": "https://dc.lft.to/lastmile_qr_scan"}}, {"name": "0c8402bbf427535dd9d340ba1a6007c6", "fusion_lat": 0.0, "type": "electric_scooter", "lat": 38.91190533333334, "is_reserved": 0, "is_disabled": 0, "fusion_lon": 0.0, "bike_id": "0c8402bbf427535dd9d340ba1a6007c6", "lon": -76.99625066666667, "rental_uris": {"ios": "https://dc.lft.to/lastmile_qr_scan", "android": "https://dc.lft.to/lastmile_qr_scan"}}, {"name": "89592dc2aaef9f5b69d648928f690e53", "fusion_lat": 0.0, "type": "electric_scooter", "lat": 38.8983315, "is_reserved": 0, "is_disabled": 0, "fusion_lon": 0.0, "bike_id": "89592dc2aaef9f5b69d648928f690e53", "lon": -76.94642933333333, "rental_uris": {"ios": "https://dc.lft.to/lastmile_qr_scan", "android": "https://dc.lft.to/lastmile_qr_scan"}}, {"name": "4896b5c45dcbf21f74c6ae4a99ea9de0", "fusion_lat": 0.0, "type": "electric_scooter", "lat": 38.921024, "is_reserved": 0, "is_disabled": 0, "fusion_lon": 0.0, "bike_id": "4896b5c45dcbf21f74c6ae4a99ea9de0", "lon": -77.02984683333334, "rental_uris": {"ios": "https://dc.lft.to/lastmile_qr_scan", "android": "https://dc.lft.to/lastmile_qr_scan"}}, {"name": "4c880fc91dfa8a440fda36d48a248467", "fusion_lat": 0.0, "type": "electric_scooter", "lat": 38.94107016666667, "is_reserved": 0, "is_disabled": 0, "fusion_lon": 0.0, "bike_id": "4c880fc91dfa8a440fda36d48a248467", "lon": -77.02664466666667, "rental_uris": {"ios": "https://dc.lft.to/lastmile_qr_scan", "android": "https://dc.lft.to/lastmile_qr_scan"}}, {"name": "259af3fbfc3d67061618e3dfbd7aedf0", "fusion_lat": 0.0, "type": "electric_bike", "lat": 38.928641666666664, "is_reserved": 0, "is_disabled": 0, "fusion_lon": 0.0, "bike_id": "259af3fbfc3d67061618e3dfbd7aedf0", "lon": -76.96109316666667, "rental_uris": {"ios": "https://dc.lft.to/lastmile_qr_scan", "android": "https://dc.lft.to/lastmile_qr_scan"}}, {"name": "9d1dd025e04f008f1419f5d84951000a", "fusion_lat": 0.0, "type": "electric_scooter", "lat": 38.902071, "is_reserved": 0, "is_disabled": 0, "fusion_lon": 0.0, "bike_id": "9d1dd025e04f008f1419f5d84951000a", "lon": -76.9881305, "rental_uris": {"ios": "https://dc.lft.to/lastmile_qr_scan", "android": "https://dc.lft.to/lastmile_qr_scan"}}, {"name": "b4d6569771345a98fa888a4103781dc5", "fusion_lat": 0.0, "type": "electric_scooter", "lat": 38.864574833333336, "is_reserved": 0, "is_disabled": 0, "fusion_lon": 0.0, "bike_id": "b4d6569771345a98fa888a4103781dc5", "lon": -76.98246766666666, "rental_uris": {"ios": "https://dc.lft.to/lastmile_qr_scan", "android": "https://dc.lft.to/lastmile_qr_scan"}}, {"name": "6c944f53dea5a6d6ed2e81d4800f49c6", "fusion_lat": 0.0, "type": "electric_scooter", "lat": 38.90411533333334, "is_reserved": 0, "is_disabled": 0, "fusion_lon": 0.0, "bike_id": "6c944f53dea5a6d6ed2e81d4800f49c6", "lon": -77.05345233333334, "rental_uris": {"ios": "https://dc.lft.to/lastmile_qr_scan", "android": "https://dc.lft.to/lastmile_qr_scan"}}, {"name": "b0c6166174ecf6ad1bb16b14c154d357", "fusion_lat": 0.0, "type": "electric_scooter", "lat": 38.96559583333333, "is_reserved": 0, "is_disabled": 0, "fusion_lon": 0.0, "bike_id": "b0c6166174ecf6ad1bb16b14c154d357", "lon": -77.01629233333334, "rental_uris": {"ios": "https://dc.lft.to/lastmile_qr_scan", "android": "https://dc.lft.to/lastmile_qr_scan"}}, {"name": "ced02e8f0f2f44f7d4e04b794f7afbb5", "fusion_lat": 0.0, "type": "electric_scooter", "lat": 38.90638533333333, "is_reserved": 0, "is_disabled": 0, "fusion_lon": 0.0, "bike_id": "ced02e8f0f2f44f7d4e04b794f7afbb5", "lon": -77.0260315, "rental_uris": {"ios": "https://dc.lft.to/lastmile_qr_scan", "android": "https://dc.lft.to/lastmile_qr_scan"}}, {"name": "61dd6180c8efd03687afa457da8babd7", "fusion_lat": 0.0, "type": "electric_scooter", "lat": 38.93860983333333, "is_reserved": 0, "is_disabled": 0, "fusion_lon": 0.0, "bike_id": "61dd6180c8efd03687afa457da8babd7", "lon": -77.02649916666667, "rental_uris": {"ios": "https://dc.lft.to/lastmile_qr_scan", "android": "https://dc.lft.to/lastmile_qr_scan"}}, {"name": "4a8df084a6df0e86251bbc0138441eeb", "fusion_lat": 0.0, "type": "electric_bike", "lat": 38.920428666666666, "is_reserved": 0, "is_disabled": 0, "fusion_lon": 0.0, "bike_id": "4a8df084a6df0e86251bbc0138441eeb", "lon": -77.003536, "rental_uris": {"ios": "https://dc.lft.to/lastmile_qr_scan", "android": "https://dc.lft.to/lastmile_qr_scan"}}, {"name": "de65ce9b9e9031c7771c6b9529bd9eec", "fusion_lat": 0.0, "type": "electric_scooter", "lat": 38.9047675, "is_reserved": 0, "is_disabled": 0, "fusion_lon": 0.0, "bike_id": "de65ce9b9e9031c7771c6b9529bd9eec", "lon": -77.02811233333334, "rental_uris": {"ios": "https://dc.lft.to/lastmile_qr_scan", "android": "https://dc.lft.to/lastmile_qr_scan"}}, {"name": "3b845bef54864e0c5d9fc62b0c879acc", "fusion_lat": 0.0, "type": "electric_scooter", "lat": 38.908728333333336, "is_reserved": 0, "is_disabled": 0, "fusion_lon": 0.0, "bike_id": "3b845bef54864e0c5d9fc62b0c879acc", "lon": -77.00339383333333, "rental_uris": {"ios": "https://dc.lft.to/lastmile_qr_scan", "android": "https://dc.lft.to/lastmile_qr_scan"}}, {"name": "afcc4723c6fb41d9b856b94623f0a55c", "fusion_lat": 0.0, "type": "electric_scooter", "lat": 38.91713466666667, "is_reserved": 0, "is_disabled": 0, "fusion_lon": 0.0, "bike_id": "afcc4723c6fb41d9b856b94623f0a55c", "lon": -77.02798316666667, "rental_uris": {"ios": "https://dc.lft.to/lastmile_qr_scan", "android": "https://dc.lft.to/lastmile_qr_scan"}}, {"name": "1af18062bc7e7ed53c308245bb455628", "fusion_lat": 0.0, "type": "electric_scooter", "lat": 38.90034166666667, "is_reserved": 0, "is_disabled": 0, "fusion_lon": 0.0, "bike_id": "1af18062bc7e7ed53c308245bb455628", "lon": -77.00192866666667, "rental_uris": {"ios": "https://dc.lft.to/lastmile_qr_scan", "android": "https://dc.lft.to/lastmile_qr_scan"}}, {"name": "db68843a90e89c279d9aa724917f7ab5", "fusion_lat": 0.0, "type": "electric_scooter", "lat": 38.92821433333334, "is_reserved": 0, "is_disabled": 0, "fusion_lon": 0.0, "bike_id": "db68843a90e89c279d9aa724917f7ab5", "lon": -77.02260483333333, "rental_uris": {"ios": "https://dc.lft.to/lastmile_qr_scan", "android": "https://dc.lft.to/lastmile_qr_scan"}}, {"name": "29c7cc3efba603ebf12644e16cfab3ed", "fusion_lat": 0.0, "type": "electric_bike", "lat": 38.92429933333333, "is_reserved": 0, "is_disabled": 0, "fusion_lon": 0.0, "bike_id": "29c7cc3efba603ebf12644e16cfab3ed", "lon": -76.99129483333333, "rental_uris": {"ios": "https://dc.lft.to/lastmile_qr_scan", "android": "https://dc.lft.to/lastmile_qr_scan"}}, {"name": "af3c7604713067de8b0d2b173c67cd96", "fusion_lat": 0.0, "type": "electric_scooter", "lat": 38.9004635, "is_reserved": 0, "is_disabled": 0, "fusion_lon": 0.0, "bike_id": "af3c7604713067de8b0d2b173c67cd96", "lon": -77.00244416666666, "rental_uris": {"ios": "https://dc.lft.to/lastmile_qr_scan", "android": "https://dc.lft.to/lastmile_qr_scan"}}, {"name": "1d12480a263e4e28e453905a6503c9d1", "fusion_lat": 0.0, "type": "electric_bike", "lat": 38.8427355, "is_reserved": 0, "is_disabled": 0, "fusion_lon": 0.0, "bike_id": "1d12480a263e4e28e453905a6503c9d1", "lon": -76.98844233333334, "rental_uris": {"ios": "https://dc.lft.to/lastmile_qr_scan", "android": "https://dc.lft.to/lastmile_qr_scan"}}, {"name": "b06610b5dc5521ef36440432cb52eb73", "fusion_lat": 0.0, "type": "electric_scooter", "lat": 38.92579, "is_reserved": 0, "is_disabled": 0, "fusion_lon": 0.0, "bike_id": "b06610b5dc5521ef36440432cb52eb73", "lon": -76.99491, "rental_uris": {"ios": "https://dc.lft.to/lastmile_qr_scan", "android": "https://dc.lft.to/lastmile_qr_scan"}}, {"name": "f7451c29ba26744f0451425c99762ed5", "fusion_lat": 0.0, "type": "electric_scooter", "lat": 38.90344, "is_reserved": 0, "is_disabled": 0, "fusion_lon": 0.0, "bike_id": "f7451c29ba26744f0451425c99762ed5", "lon": -77.02607866666666, "rental_uris": {"ios": "https://dc.lft.to/lastmile_qr_scan", "android": "https://dc.lft.to/lastmile_qr_scan"}}, {"name": "c1ed907fdc4d9ead3836393de1a84ed2", "fusion_lat": 0.0, "type": "electric_bike", "lat": 38.9600945, "is_reserved": 0, "is_disabled": 0, "fusion_lon": 0.0, "bike_id": "c1ed907fdc4d9ead3836393de1a84ed2", "lon": -76.9986605, "rental_uris": {"ios": "https://dc.lft.to/lastmile_qr_scan", "android": "https://dc.lft.to/lastmile_qr_scan"}}, {"name": "4661180e7542170152920c8b628012cc", "fusion_lat": 0.0, "type": "electric_bike", "lat": 38.88119316666667, "is_reserved": 0, "is_disabled": 0, "fusion_lon": 0.0, "bike_id": "4661180e7542170152920c8b628012cc", "lon": -77.01347266666667, "rental_uris": {"ios": "https://dc.lft.to/lastmile_qr_scan", "android": "https://dc.lft.to/lastmile_qr_scan"}}, {"name": "5371fe8b4df1b15b0f7bb1f615eafb54", "fusion_lat": 0.0, "type": "electric_scooter", "lat": 38.90163733333333, "is_reserved": 0, "is_disabled": 0, "fusion_lon": 0.0, "bike_id": "5371fe8b4df1b15b0f7bb1f615eafb54", "lon": -77.04694366666666, "rental_uris": {"ios": "https://dc.lft.to/lastmile_qr_scan", "android": "https://dc.lft.to/lastmile_qr_scan"}}, {"name": "0f84fec573962e0985e44b148c3d22ad", "fusion_lat": 0.0, "type": "electric_scooter", "lat": 38.942019, "is_reserved": 0, "is_disabled": 0, "fusion_lon": 0.0, "bike_id": "0f84fec573962e0985e44b148c3d22ad", "lon": -77.0251595, "rental_uris": {"ios": "https://dc.lft.to/lastmile_qr_scan", "android": "https://dc.lft.to/lastmile_qr_scan"}}, {"name": "a58673468d2d16f5358e72adb8ed1d61", "fusion_lat": 0.0, "type": "electric_scooter", "lat": 38.86154416666667, "is_reserved": 0, "is_disabled": 0, "fusion_lon": 0.0, "bike_id": "a58673468d2d16f5358e72adb8ed1d61", "lon": -76.98933516666666, "rental_uris": {"ios": "https://dc.lft.to/lastmile_qr_scan", "android": "https://dc.lft.to/lastmile_qr_scan"}}, {"name": "4103f418f4711a5364672e777d02052b", "fusion_lat": 0.0, "type": "electric_scooter", "lat": 38.907412, "is_reserved": 0, "is_disabled": 0, "fusion_lon": 0.0, "bike_id": "4103f418f4711a5364672e777d02052b", "lon": -77.04344183333333, "rental_uris": {"ios": "https://dc.lft.to/lastmile_qr_scan", "android": "https://dc.lft.to/lastmile_qr_scan"}}, {"name": "4a6595a36e83ebf22a4214efc3bfdb92", "fusion_lat": 0.0, "type": "electric_scooter", "lat": 38.921322333333336, "is_reserved": 0, "is_disabled": 0, "fusion_lon": 0.0, "bike_id": "4a6595a36e83ebf22a4214efc3bfdb92", "lon": -77.02530183333333, "rental_uris": {"ios": "https://dc.lft.to/lastmile_qr_scan", "android": "https://dc.lft.to/lastmile_qr_scan"}}, {"name": "a41f7dfe319997e8d81635ec254c10f0", "fusion_lat": 0.0, "type": "electric_bike", "lat": 38.83147233333333, "is_reserved": 0, "is_disabled": 0, "fusion_lon": 0.0, "bike_id": "a41f7dfe319997e8d81635ec254c10f0", "lon": -77.11315733333333, "rental_uris": {"ios": "https://dc.lft.to/lastmile_qr_scan", "android": "https://dc.lft.to/lastmile_qr_scan"}}, {"name": "cc8f2027ae7c29125c61982b2369bffc", "fusion_lat": 0.0, "type": "electric_scooter", "lat": 38.921535, "is_reserved": 0, "is_disabled": 0, "fusion_lon": 0.0, "bike_id": "cc8f2027ae7c29125c61982b2369bffc", "lon": -77.03470316666667, "rental_uris": {"ios": "https://dc.lft.to/lastmile_qr_scan", "android": "https://dc.lft.to/lastmile_qr_scan"}}, {"name": "c9395624c14a724339352420698f1d67", "fusion_lat": 0.0, "type": "electric_scooter", "lat": 38.91807266666667, "is_reserved": 0, "is_disabled": 0, "fusion_lon": 0.0, "bike_id": "c9395624c14a724339352420698f1d67", "lon": -77.04626216666666, "rental_uris": {"ios": "https://dc.lft.to/lastmile_qr_scan", "android": "https://dc.lft.to/lastmile_qr_scan"}}, {"name": "3accbe2a3cd749b479efb008e30735fd", "fusion_lat": 0.0, "type": "electric_scooter", "lat": 38.892415166666666, "is_reserved": 0, "is_disabled": 0, "fusion_lon": 0.0, "bike_id": "3accbe2a3cd749b479efb008e30735fd", "lon": -77.0338505, "rental_uris": {"ios": "https://dc.lft.to/lastmile_qr_scan", "android": "https://dc.lft.to/lastmile_qr_scan"}}, {"name": "161434f9a6157b1fd4c1eeedfc416aaa", "fusion_lat": 0.0, "type": "electric_scooter", "lat": 38.905542833333335, "is_reserved": 0, "is_disabled": 0, "fusion_lon": 0.0, "bike_id": "161434f9a6157b1fd4c1eeedfc416aaa", "lon": -77.045566, "rental_uris": {"ios": "https://dc.lft.to/lastmile_qr_scan", "android": "https://dc.lft.to/lastmile_qr_scan"}}, {"name": "c19d233dac2d180f46c5e2eba268aa72", "fusion_lat": 0.0, "type": "electric_scooter", "lat": 38.92185583333333, "is_reserved": 0, "is_disabled": 0, "fusion_lon": 0.0, "bike_id": "c19d233dac2d180f46c5e2eba268aa72", "lon": -77.04282183333333, "rental_uris": {"ios": "https://dc.lft.to/lastmile_qr_scan", "android": "https://dc.lft.to/lastmile_qr_scan"}}, {"name": "f8e4698f9471888af303d90c7a7306a0", "fusion_lat": 0.0, "type": "electric_scooter", "lat": 38.9074325, "is_reserved": 0, "is_disabled": 0, "fusion_lon": 0.0, "bike_id": "f8e4698f9471888af303d90c7a7306a0", "lon": -77.02692766666667, "rental_uris": {"ios": "https://dc.lft.to/lastmile_qr_scan", "android": "https://dc.lft.to/lastmile_qr_scan"}}, {"name": "366564bbf3d435f68bf4c5323ffada17", "fusion_lat": 0.0, "type": "electric_scooter", "lat": 38.9319125, "is_reserved": 0, "is_disabled": 0, "fusion_lon": 0.0, "bike_id": "366564bbf3d435f68bf4c5323ffada17", "lon": -77.03446883333334, "rental_uris": {"ios": "https://dc.lft.to/lastmile_qr_scan", "android": "https://dc.lft.to/lastmile_qr_scan"}}, {"name": "bfb7a72b56506e30a3ce3ed3389a09ec", "fusion_lat": 0.0, "type": "electric_scooter", "lat": 38.9181555, "is_reserved": 0, "is_disabled": 0, "fusion_lon": 0.0, "bike_id": "bfb7a72b56506e30a3ce3ed3389a09ec", "lon": -77.02504516666667, "rental_uris": {"ios": "https://dc.lft.to/lastmile_qr_scan", "android": "https://dc.lft.to/lastmile_qr_scan"}}, {"name": "921ee9ae9523a60f0a27276f0fe29bf8", "fusion_lat": 0.0, "type": "electric_scooter", "lat": 38.91019933333333, "is_reserved": 0, "is_disabled": 0, "fusion_lon": 0.0, "bike_id": "921ee9ae9523a60f0a27276f0fe29bf8", "lon": -77.0487425, "rental_uris": {"ios": "https://dc.lft.to/lastmile_qr_scan", "android": "https://dc.lft.to/lastmile_qr_scan"}}, {"name": "a88eee33aa4869faf68e622552992073", "fusion_lat": 0.0, "type": "electric_scooter", "lat": 38.897876833333335, "is_reserved": 0, "is_disabled": 0, "fusion_lon": 0.0, "bike_id": "a88eee33aa4869faf68e622552992073", "lon": -77.03181316666667, "rental_uris": {"ios": "https://dc.lft.to/lastmile_qr_scan", "android": "https://dc.lft.to/lastmile_qr_scan"}}, {"name": "f227c07d725468f886f96cefff667d28", "fusion_lat": 0.0, "type": "electric_scooter", "lat": 38.91935333333333, "is_reserved": 0, "is_disabled": 0, "fusion_lon": 0.0, "bike_id": "f227c07d725468f886f96cefff667d28", "lon": -77.02394966666667, "rental_uris": {"ios": "https://dc.lft.to/lastmile_qr_scan", "android": "https://dc.lft.to/lastmile_qr_scan"}}, {"name": "3a9c1c0e37744a5a875217153aab9ea4", "fusion_lat": 0.0, "type": "electric_scooter", "lat": 38.9054815, "is_reserved": 0, "is_disabled": 0, "fusion_lon": 0.0, "bike_id": "3a9c1c0e37744a5a875217153aab9ea4", "lon": -77.03247683333333, "rental_uris": {"ios": "https://dc.lft.to/lastmile_qr_scan", "android": "https://dc.lft.to/lastmile_qr_scan"}}, {"name": "7a14b98cc07792c997770d0c5eeaeaa9", "fusion_lat": 0.0, "type": "electric_scooter", "lat": 38.93314083333333, "is_reserved": 0, "is_disabled": 0, "fusion_lon": 0.0, "bike_id": "7a14b98cc07792c997770d0c5eeaeaa9", "lon": -77.03443066666667, "rental_uris": {"ios": "https://dc.lft.to/lastmile_qr_scan", "android": "https://dc.lft.to/lastmile_qr_scan"}}, {"name": "699880a468e1d8ba92b46b25bcb13d71", "fusion_lat": 0.0, "type": "electric_scooter", "lat": 38.9496125, "is_reserved": 0, "is_disabled": 0, "fusion_lon": 0.0, "bike_id": "699880a468e1d8ba92b46b25bcb13d71", "lon": -77.0272325, "rental_uris": {"ios": "https://dc.lft.to/lastmile_qr_scan", "android": "https://dc.lft.to/lastmile_qr_scan"}}, {"name": "e3b5c5ef9572b863c5de79e8fa02bb90", "fusion_lat": 0.0, "type": "electric_bike", "lat": 38.839346666666664, "is_reserved": 0, "is_disabled": 0, "fusion_lon": 0.0, "bike_id": "e3b5c5ef9572b863c5de79e8fa02bb90", "lon": -77.07903083333333, "rental_uris": {"ios": "https://dc.lft.to/lastmile_qr_scan", "android": "https://dc.lft.to/lastmile_qr_scan"}}, {"name": "3cde406e4e96975ac31674c449ec965e", "fusion_lat": 0.0, "type": "electric_scooter", "lat": 38.900378, "is_reserved": 0, "is_disabled": 0, "fusion_lon": 0.0, "bike_id": "3cde406e4e96975ac31674c449ec965e", "lon": -77.00193616666667, "rental_uris": {"ios": "https://dc.lft.to/lastmile_qr_scan", "android": "https://dc.lft.to/lastmile_qr_scan"}}, {"name": "670384a8b928c0400a25621bc82302d2", "fusion_lat": 0.0, "type": "electric_bike", "lat": 39.03347016666667, "is_reserved": 0, "is_disabled": 0, "fusion_lon": 0.0, "bike_id": "670384a8b928c0400a25621bc82302d2", "lon": -77.04904533333334, "rental_uris": {"ios": "https://dc.lft.to/lastmile_qr_scan", "android": "https://dc.lft.to/lastmile_qr_scan"}}, {"name": "a143beef0d7d23ce176f7746a609789c", "fusion_lat": 0.0, "type": "electric_scooter", "lat": 38.975012166666666, "is_reserved": 0, "is_disabled": 0, "fusion_lon": 0.0, "bike_id": "a143beef0d7d23ce176f7746a609789c", "lon": -77.01691633333333, "rental_uris": {"ios": "https://dc.lft.to/lastmile_qr_scan", "android": "https://dc.lft.to/lastmile_qr_scan"}}, {"name": "0ce1c651a7fcafb0be58e71456be9b58", "fusion_lat": 0.0, "type": "electric_scooter", "lat": 38.9436995, "is_reserved": 0, "is_disabled": 0, "fusion_lon": 0.0, "bike_id": "0ce1c651a7fcafb0be58e71456be9b58", "lon": -77.06122816666667, "rental_uris": {"ios": "https://dc.lft.to/lastmile_qr_scan", "android": "https://dc.lft.to/lastmile_qr_scan"}}, {"name": "8d11ceb357e0ee232e78d6bdbfe967da", "fusion_lat": 0.0, "type": "electric_scooter", "lat": 38.9063355, "is_reserved": 0, "is_disabled": 0, "fusion_lon": 0.0, "bike_id": "8d11ceb357e0ee232e78d6bdbfe967da", "lon": -77.05149583333333, "rental_uris": {"ios": "https://dc.lft.to/lastmile_qr_scan", "android": "https://dc.lft.to/lastmile_qr_scan"}}, {"name": "eb1b7b10521a7366b8f2bd597c27f87b", "fusion_lat": 0.0, "type": "electric_scooter", "lat": 38.91568383333333, "is_reserved": 0, "is_disabled": 0, "fusion_lon": 0.0, "bike_id": "eb1b7b10521a7366b8f2bd597c27f87b", "lon": -77.04674333333334, "rental_uris": {"ios": "https://dc.lft.to/lastmile_qr_scan", "android": "https://dc.lft.to/lastmile_qr_scan"}}, {"name": "8f590ceeb140c8e6ab7b716c3683dbb4", "fusion_lat": 0.0, "type": "electric_scooter", "lat": 38.9236835, "is_reserved": 0, "is_disabled": 0, "fusion_lon": 0.0, "bike_id": "8f590ceeb140c8e6ab7b716c3683dbb4", "lon": -77.01922333333333, "rental_uris": {"ios": "https://dc.lft.to/lastmile_qr_scan", "android": "https://dc.lft.to/lastmile_qr_scan"}}, {"name": "0f070579af93859bc84740916fb7f605", "fusion_lat": 0.0, "type": "electric_scooter", "lat": 38.93309283333333, "is_reserved": 0, "is_disabled": 0, "fusion_lon": 0.0, "bike_id": "0f070579af93859bc84740916fb7f605", "lon": -77.03767666666667, "rental_uris": {"ios": "https://dc.lft.to/lastmile_qr_scan", "android": "https://dc.lft.to/lastmile_qr_scan"}}, {"name": "bc381f827a2ccb3b9883d85a5bec77ee", "fusion_lat": 0.0, "type": "electric_scooter", "lat": 38.93607216666667, "is_reserved": 0, "is_disabled": 0, "fusion_lon": 0.0, "bike_id": "bc381f827a2ccb3b9883d85a5bec77ee", "lon": -77.058621, "rental_uris": {"ios": "https://dc.lft.to/lastmile_qr_scan", "android": "https://dc.lft.to/lastmile_qr_scan"}}, {"name": "e63530124dee99dd7bc548d5cee6c77d", "fusion_lat": 0.0, "type": "electric_scooter", "lat": 38.91006633333333, "is_reserved": 0, "is_disabled": 0, "fusion_lon": 0.0, "bike_id": "e63530124dee99dd7bc548d5cee6c77d", "lon": -77.04423183333333, "rental_uris": {"ios": "https://dc.lft.to/lastmile_qr_scan", "android": "https://dc.lft.to/lastmile_qr_scan"}}, {"name": "b6eee01a5e631663e5172540c176ccf0", "fusion_lat": 0.0, "type": "electric_scooter", "lat": 38.929658833333335, "is_reserved": 0, "is_disabled": 0, "fusion_lon": 0.0, "bike_id": "b6eee01a5e631663e5172540c176ccf0", "lon": -77.019751, "rental_uris": {"ios": "https://dc.lft.to/lastmile_qr_scan", "android": "https://dc.lft.to/lastmile_qr_scan"}}, {"name": "55743aa99633b567bd5e5649f29e862b", "fusion_lat": 0.0, "type": "electric_scooter", "lat": 38.87917483333333, "is_reserved": 0, "is_disabled": 0, "fusion_lon": 0.0, "bike_id": "55743aa99633b567bd5e5649f29e862b", "lon": -77.021555, "rental_uris": {"ios": "https://dc.lft.to/lastmile_qr_scan", "android": "https://dc.lft.to/lastmile_qr_scan"}}, {"name": "c53409a37cd2cbaa6fa0810389c2d995", "fusion_lat": 0.0, "type": "electric_scooter", "lat": 38.895531166666665, "is_reserved": 0, "is_disabled": 0, "fusion_lon": 0.0, "bike_id": "c53409a37cd2cbaa6fa0810389c2d995", "lon": -76.98375166666666, "rental_uris": {"ios": "https://dc.lft.to/lastmile_qr_scan", "android": "https://dc.lft.to/lastmile_qr_scan"}}, {"name": "8de8d9843032628f14306ff135496dc7", "fusion_lat": 0.0, "type": "electric_bike", "lat": 38.852238666666665, "is_reserved": 0, "is_disabled": 0, "fusion_lon": 0.0, "bike_id": "8de8d9843032628f14306ff135496dc7", "lon": -77.12955483333333, "rental_uris": {"ios": "https://dc.lft.to/lastmile_qr_scan", "android": "https://dc.lft.to/lastmile_qr_scan"}}, {"name": "eba3771db71344ba7cbb4732f37c204a", "fusion_lat": 0.0, "type": "electric_scooter", "lat": 38.93948683333333, "is_reserved": 0, "is_disabled": 0, "fusion_lon": 0.0, "bike_id": "eba3771db71344ba7cbb4732f37c204a", "lon": -77.03261533333334, "rental_uris": {"ios": "https://dc.lft.to/lastmile_qr_scan", "android": "https://dc.lft.to/lastmile_qr_scan"}}, {"name": "7474ed3eea4590af62574bc8cd48b730", "fusion_lat": 0.0, "type": "electric_scooter", "lat": 38.876686666666664, "is_reserved": 0, "is_disabled": 0, "fusion_lon": 0.0, "bike_id": "7474ed3eea4590af62574bc8cd48b730", "lon": -77.0043895, "rental_uris": {"ios": "https://dc.lft.to/lastmile_qr_scan", "android": "https://dc.lft.to/lastmile_qr_scan"}}, {"name": "0fbf49a3104e884c1ced4f7cc4279c2b", "fusion_lat": 0.0, "type": "electric_scooter", "lat": 38.91727733333333, "is_reserved": 0, "is_disabled": 0, "fusion_lon": 0.0, "bike_id": "0fbf49a3104e884c1ced4f7cc4279c2b", "lon": -77.03842433333334, "rental_uris": {"ios": "https://dc.lft.to/lastmile_qr_scan", "android": "https://dc.lft.to/lastmile_qr_scan"}}, {"name": "42590520c0392f1851a59d7aae49e237", "fusion_lat": 0.0, "type": "electric_scooter", "lat": 38.90075016666667, "is_reserved": 0, "is_disabled": 0, "fusion_lon": 0.0, "bike_id": "42590520c0392f1851a59d7aae49e237", "lon": -77.04890316666666, "rental_uris": {"ios": "https://dc.lft.to/lastmile_qr_scan", "android": "https://dc.lft.to/lastmile_qr_scan"}}, {"name": "0131f8e16d9ddce8afc7d64f1efc1376", "fusion_lat": 0.0, "type": "electric_scooter", "lat": 38.88049683333333, "is_reserved": 0, "is_disabled": 0, "fusion_lon": 0.0, "bike_id": "0131f8e16d9ddce8afc7d64f1efc1376", "lon": -76.95986916666666, "rental_uris": {"ios": "https://dc.lft.to/lastmile_qr_scan", "android": "https://dc.lft.to/lastmile_qr_scan"}}, {"name": "5a379a94ad10a65a072215ffa91720f2", "fusion_lat": 0.0, "type": "electric_scooter", "lat": 38.91948216666667, "is_reserved": 0, "is_disabled": 0, "fusion_lon": 0.0, "bike_id": "5a379a94ad10a65a072215ffa91720f2", "lon": -77.01398233333333, "rental_uris": {"ios": "https://dc.lft.to/lastmile_qr_scan", "android": "https://dc.lft.to/lastmile_qr_scan"}}, {"name": "974139c4f07dc3788aff096eb807a4a5", "fusion_lat": 0.0, "type": "electric_scooter", "lat": 38.9157635, "is_reserved": 0, "is_disabled": 0, "fusion_lon": 0.0, "bike_id": "974139c4f07dc3788aff096eb807a4a5", "lon": -77.031963, "rental_uris": {"ios": "https://dc.lft.to/lastmile_qr_scan", "android": "https://dc.lft.to/lastmile_qr_scan"}}, {"name": "56ea8be65382c3eaa26ecdbc69d09fce", "fusion_lat": 0.0, "type": "electric_bike", "lat": 38.865929333333334, "is_reserved": 0, "is_disabled": 0, "fusion_lon": 0.0, "bike_id": "56ea8be65382c3eaa26ecdbc69d09fce", "lon": -76.932297, "rental_uris": {"ios": "https://dc.lft.to/lastmile_qr_scan", "android": "https://dc.lft.to/lastmile_qr_scan"}}, {"name": "c526a3bbd624ddf23c8d9ce048f73150", "fusion_lat": 0.0, "type": "electric_bike", "lat": 38.9845285, "is_reserved": 0, "is_disabled": 0, "fusion_lon": 0.0, "bike_id": "c526a3bbd624ddf23c8d9ce048f73150", "lon": -76.955257, "rental_uris": {"ios": "https://dc.lft.to/lastmile_qr_scan", "android": "https://dc.lft.to/lastmile_qr_scan"}}, {"name": "7bed1c8d60d7118a8c4547e9207e55ea", "fusion_lat": 0.0, "type": "electric_scooter", "lat": 38.93951883333333, "is_reserved": 0, "is_disabled": 0, "fusion_lon": 0.0, "bike_id": "7bed1c8d60d7118a8c4547e9207e55ea", "lon": -77.03264166666666, "rental_uris": {"ios": "https://dc.lft.to/lastmile_qr_scan", "android": "https://dc.lft.to/lastmile_qr_scan"}}, {"name": "ec7f1939bfb7764d3daac555aa5a04cf", "fusion_lat": 0.0, "type": "electric_scooter", "lat": 38.9305485, "is_reserved": 0, "is_disabled": 0, "fusion_lon": 0.0, "bike_id": "ec7f1939bfb7764d3daac555aa5a04cf", "lon": -77.02324366666667, "rental_uris": {"ios": "https://dc.lft.to/lastmile_qr_scan", "android": "https://dc.lft.to/lastmile_qr_scan"}}, {"name": "844bb33ad398928205029cbd92812079", "fusion_lat": 0.0, "type": "electric_scooter", "lat": 38.908966166666666, "is_reserved": 0, "is_disabled": 0, "fusion_lon": 0.0, "bike_id": "844bb33ad398928205029cbd92812079", "lon": -77.03213116666667, "rental_uris": {"ios": "https://dc.lft.to/lastmile_qr_scan", "android": "https://dc.lft.to/lastmile_qr_scan"}}, {"name": "f3274621f442600bc7ebb60a2ea4e45b", "fusion_lat": 0.0, "type": "electric_scooter", "lat": 38.91257383333333, "is_reserved": 0, "is_disabled": 0, "fusion_lon": 0.0, "bike_id": "f3274621f442600bc7ebb60a2ea4e45b", "lon": -77.00768783333334, "rental_uris": {"ios": "https://dc.lft.to/lastmile_qr_scan", "android": "https://dc.lft.to/lastmile_qr_scan"}}, {"name": "3a1eeb93954849a3a2c6b9d2645af71f", "fusion_lat": 0.0, "type": "electric_scooter", "lat": 38.897286333333334, "is_reserved": 0, "is_disabled": 0, "fusion_lon": 0.0, "bike_id": "3a1eeb93954849a3a2c6b9d2645af71f", "lon": -77.0476025, "rental_uris": {"ios": "https://dc.lft.to/lastmile_qr_scan", "android": "https://dc.lft.to/lastmile_qr_scan"}}, {"name": "ccb1644528ebc8ec2db1725364a20e82", "fusion_lat": 0.0, "type": "electric_scooter", "lat": 38.924449333333335, "is_reserved": 0, "is_disabled": 0, "fusion_lon": 0.0, "bike_id": "ccb1644528ebc8ec2db1725364a20e82", "lon": -77.02975233333333, "rental_uris": {"ios": "https://dc.lft.to/lastmile_qr_scan", "android": "https://dc.lft.to/lastmile_qr_scan"}}, {"name": "4522f8422b0d3c3babff39e75a2401d9", "fusion_lat": 0.0, "type": "electric_scooter", "lat": 38.883534166666664, "is_reserved": 0, "is_disabled": 0, "fusion_lon": 0.0, "bike_id": "4522f8422b0d3c3babff39e75a2401d9", "lon": -76.9493895, "rental_uris": {"ios": "https://dc.lft.to/lastmile_qr_scan", "android": "https://dc.lft.to/lastmile_qr_scan"}}, {"name": "3206463bde1ad8b0d8d16140249f6d41", "fusion_lat": 0.0, "type": "electric_scooter", "lat": 38.92562, "is_reserved": 0, "is_disabled": 0, "fusion_lon": 0.0, "bike_id": "3206463bde1ad8b0d8d16140249f6d41", "lon": -77.06286766666666, "rental_uris": {"ios": "https://dc.lft.to/lastmile_qr_scan", "android": "https://dc.lft.to/lastmile_qr_scan"}}, {"name": "43b961e441108a8dc9e6547b1c5c28c5", "fusion_lat": 0.0, "type": "electric_bike", "lat": 38.9285235, "is_reserved": 0, "is_disabled": 0, "fusion_lon": 0.0, "bike_id": "43b961e441108a8dc9e6547b1c5c28c5", "lon": -77.10675766666667, "rental_uris": {"ios": "https://dc.lft.to/lastmile_qr_scan", "android": "https://dc.lft.to/lastmile_qr_scan"}}, {"name": "0a8703e0deb545c7020e0c389703ed73", "fusion_lat": 0.0, "type": "electric_scooter", "lat": 38.894913833333334, "is_reserved": 0, "is_disabled": 0, "fusion_lon": 0.0, "bike_id": "0a8703e0deb545c7020e0c389703ed73", "lon": -77.01085766666667, "rental_uris": {"ios": "https://dc.lft.to/lastmile_qr_scan", "android": "https://dc.lft.to/lastmile_qr_scan"}}, {"name": "eaac9412aafd46332322f5b516070f93", "fusion_lat": 0.0, "type": "electric_scooter", "lat": 38.9028375, "is_reserved": 0, "is_disabled": 0, "fusion_lon": 0.0, "bike_id": "eaac9412aafd46332322f5b516070f93", "lon": -77.0426775, "rental_uris": {"ios": "https://dc.lft.to/lastmile_qr_scan", "android": "https://dc.lft.to/lastmile_qr_scan"}}, {"name": "8371ff406227086e7de902ce550480cc", "fusion_lat": 0.0, "type": "electric_scooter", "lat": 38.89726616666667, "is_reserved": 0, "is_disabled": 0, "fusion_lon": 0.0, "bike_id": "8371ff406227086e7de902ce550480cc", "lon": -77.0434015, "rental_uris": {"ios": "https://dc.lft.to/lastmile_qr_scan", "android": "https://dc.lft.to/lastmile_qr_scan"}}, {"name": "41f60adeafe52b8707b8f73a194183e0", "fusion_lat": 0.0, "type": "electric_scooter", "lat": 38.86362033333333, "is_reserved": 0, "is_disabled": 0, "fusion_lon": 0.0, "bike_id": "41f60adeafe52b8707b8f73a194183e0", "lon": -77.01368466666666, "rental_uris": {"ios": "https://dc.lft.to/lastmile_qr_scan", "android": "https://dc.lft.to/lastmile_qr_scan"}}, {"name": "a0f29c186f9d64324c21bb0b757c333a", "fusion_lat": 0.0, "type": "electric_scooter", "lat": 38.89915116666667, "is_reserved": 0, "is_disabled": 0, "fusion_lon": 0.0, "bike_id": "a0f29c186f9d64324c21bb0b757c333a", "lon": -77.03297216666667, "rental_uris": {"ios": "https://dc.lft.to/lastmile_qr_scan", "android": "https://dc.lft.to/lastmile_qr_scan"}}, {"name": "7c9f472c388e1ee801a4c6b3235f612f", "fusion_lat": 0.0, "type": "electric_scooter", "lat": 38.929784833333336, "is_reserved": 0, "is_disabled": 0, "fusion_lon": 0.0, "bike_id": "7c9f472c388e1ee801a4c6b3235f612f", "lon": -77.02618383333333, "rental_uris": {"ios": "https://dc.lft.to/lastmile_qr_scan", "android": "https://dc.lft.to/lastmile_qr_scan"}}, {"name": "7612e21c274a6af2fef78a2b6def504c", "fusion_lat": 0.0, "type": "electric_scooter", "lat": 38.94201, "is_reserved": 0, "is_disabled": 0, "fusion_lon": 0.0, "bike_id": "7612e21c274a6af2fef78a2b6def504c", "lon": -77.025155, "rental_uris": {"ios": "https://dc.lft.to/lastmile_qr_scan", "android": "https://dc.lft.to/lastmile_qr_scan"}}, {"name": "d1b410c6988d30c715b4971fc08bf23b", "fusion_lat": 0.0, "type": "electric_scooter", "lat": 38.8650775, "is_reserved": 0, "is_disabled": 0, "fusion_lon": 0.0, "bike_id": "d1b410c6988d30c715b4971fc08bf23b", "lon": -76.99004866666667, "rental_uris": {"ios": "https://dc.lft.to/lastmile_qr_scan", "android": "https://dc.lft.to/lastmile_qr_scan"}}, {"name": "2ed5ee3de6a70d8e9fb752db13a8f0e5", "fusion_lat": 0.0, "type": "electric_scooter", "lat": 38.900229833333334, "is_reserved": 0, "is_disabled": 0, "fusion_lon": 0.0, "bike_id": "2ed5ee3de6a70d8e9fb752db13a8f0e5", "lon": -76.99745266666666, "rental_uris": {"ios": "https://dc.lft.to/lastmile_qr_scan", "android": "https://dc.lft.to/lastmile_qr_scan"}}, {"name": "c95704f08a4290379c9b98d6dab30030", "fusion_lat": 0.0, "type": "electric_scooter", "lat": 38.92838483333333, "is_reserved": 0, "is_disabled": 0, "fusion_lon": 0.0, "bike_id": "c95704f08a4290379c9b98d6dab30030", "lon": -77.054245, "rental_uris": {"ios": "https://dc.lft.to/lastmile_qr_scan", "android": "https://dc.lft.to/lastmile_qr_scan"}}, {"name": "a92af1d6839717162dc26e129c7825c8", "fusion_lat": 0.0, "type": "electric_scooter", "lat": 38.901194833333335, "is_reserved": 0, "is_disabled": 0, "fusion_lon": 0.0, "bike_id": "a92af1d6839717162dc26e129c7825c8", "lon": -77.0320655, "rental_uris": {"ios": "https://dc.lft.to/lastmile_qr_scan", "android": "https://dc.lft.to/lastmile_qr_scan"}}, {"name": "568eb419ff33ea95f4f473dc63256af3", "fusion_lat": 0.0, "type": "electric_scooter", "lat": 38.91894833333333, "is_reserved": 0, "is_disabled": 0, "fusion_lon": 0.0, "bike_id": "568eb419ff33ea95f4f473dc63256af3", "lon": -77.05291133333333, "rental_uris": {"ios": "https://dc.lft.to/lastmile_qr_scan", "android": "https://dc.lft.to/lastmile_qr_scan"}}, {"name": "536c0b1540653ed841dae3bb4faf0db8", "fusion_lat": 0.0, "type": "electric_scooter", "lat": 38.898341, "is_reserved": 0, "is_disabled": 0, "fusion_lon": 0.0, "bike_id": "536c0b1540653ed841dae3bb4faf0db8", "lon": -76.94643916666666, "rental_uris": {"ios": "https://dc.lft.to/lastmile_qr_scan", "android": "https://dc.lft.to/lastmile_qr_scan"}}, {"name": "22800040900365603ccebddad72efc4e", "fusion_lat": 0.0, "type": "electric_scooter", "lat": 38.895129, "is_reserved": 0, "is_disabled": 0, "fusion_lon": 0.0, "bike_id": "22800040900365603ccebddad72efc4e", "lon": -76.94891833333334, "rental_uris": {"ios": "https://dc.lft.to/lastmile_qr_scan", "android": "https://dc.lft.to/lastmile_qr_scan"}}, {"name": "609c410aac3a759dd1b3f2867ee64749", "fusion_lat": 0.0, "type": "electric_scooter", "lat": 38.920777, "is_reserved": 0, "is_disabled": 0, "fusion_lon": 0.0, "bike_id": "609c410aac3a759dd1b3f2867ee64749", "lon": -77.02394883333334, "rental_uris": {"ios": "https://dc.lft.to/lastmile_qr_scan", "android": "https://dc.lft.to/lastmile_qr_scan"}}, {"name": "929dde8d042c6b10ece9f637dd81de34", "fusion_lat": 0.0, "type": "electric_scooter", "lat": 38.90139416666667, "is_reserved": 0, "is_disabled": 0, "fusion_lon": 0.0, "bike_id": "929dde8d042c6b10ece9f637dd81de34", "lon": -77.00069816666667, "rental_uris": {"ios": "https://dc.lft.to/lastmile_qr_scan", "android": "https://dc.lft.to/lastmile_qr_scan"}}, {"name": "453d0cdab8cf2db895e61db98879b847", "fusion_lat": 0.0, "type": "electric_scooter", "lat": 38.8950215, "is_reserved": 0, "is_disabled": 0, "fusion_lon": 0.0, "bike_id": "453d0cdab8cf2db895e61db98879b847", "lon": -77.02412516666666, "rental_uris": {"ios": "https://dc.lft.to/lastmile_qr_scan", "android": "https://dc.lft.to/lastmile_qr_scan"}}, {"name": "1f891d088a5138f9d66093eaa5d5f0bd", "fusion_lat": 0.0, "type": "electric_scooter", "lat": 38.880105666666665, "is_reserved": 0, "is_disabled": 0, "fusion_lon": 0.0, "bike_id": "1f891d088a5138f9d66093eaa5d5f0bd", "lon": -76.93128916666667, "rental_uris": {"ios": "https://dc.lft.to/lastmile_qr_scan", "android": "https://dc.lft.to/lastmile_qr_scan"}}, {"name": "af8267b113540f9d00d815c92794c113", "fusion_lat": 0.0, "type": "electric_scooter", "lat": 38.900307, "is_reserved": 0, "is_disabled": 0, "fusion_lon": 0.0, "bike_id": "af8267b113540f9d00d815c92794c113", "lon": -76.99742933333333, "rental_uris": {"ios": "https://dc.lft.to/lastmile_qr_scan", "android": "https://dc.lft.to/lastmile_qr_scan"}}, {"name": "f4a005674b5d4833e01d7548246cb47b", "fusion_lat": 0.0, "type": "electric_scooter", "lat": 38.89280983333333, "is_reserved": 0, "is_disabled": 0, "fusion_lon": 0.0, "bike_id": "f4a005674b5d4833e01d7548246cb47b", "lon": -77.05037166666666, "rental_uris": {"ios": "https://dc.lft.to/lastmile_qr_scan", "android": "https://dc.lft.to/lastmile_qr_scan"}}, {"name": "ff3d9c839b0a8d016cfaa63103061f38", "fusion_lat": 0.0, "type": "electric_scooter", "lat": 38.910517666666664, "is_reserved": 0, "is_disabled": 0, "fusion_lon": 0.0, "bike_id": "ff3d9c839b0a8d016cfaa63103061f38", "lon": -77.04582383333333, "rental_uris": {"ios": "https://dc.lft.to/lastmile_qr_scan", "android": "https://dc.lft.to/lastmile_qr_scan"}}, {"name": "841b6e73dfb21936915201606348fc22", "fusion_lat": 0.0, "type": "electric_scooter", "lat": 38.90569516666667, "is_reserved": 0, "is_disabled": 0, "fusion_lon": 0.0, "bike_id": "841b6e73dfb21936915201606348fc22", "lon": -77.0059905, "rental_uris": {"ios": "https://dc.lft.to/lastmile_qr_scan", "android": "https://dc.lft.to/lastmile_qr_scan"}}, {"name": "b549c4bb0a75d225b4de4c96ec296c49", "fusion_lat": 0.0, "type": "electric_scooter", "lat": 38.93116233333333, "is_reserved": 0, "is_disabled": 0, "fusion_lon": 0.0, "bike_id": "b549c4bb0a75d225b4de4c96ec296c49", "lon": -77.03033883333333, "rental_uris": {"ios": "https://dc.lft.to/lastmile_qr_scan", "android": "https://dc.lft.to/lastmile_qr_scan"}}, {"name": "99cb57934cb2430fe1d9a73f60c33315", "fusion_lat": 0.0, "type": "electric_bike", "lat": 38.827268333333336, "is_reserved": 0, "is_disabled": 0, "fusion_lon": 0.0, "bike_id": "99cb57934cb2430fe1d9a73f60c33315", "lon": -77.00862866666667, "rental_uris": {"ios": "https://dc.lft.to/lastmile_qr_scan", "android": "https://dc.lft.to/lastmile_qr_scan"}}, {"name": "f7bd7cb4d67b8cea99c0ab55225bc303", "fusion_lat": 0.0, "type": "electric_bike", "lat": 38.8460885, "is_reserved": 0, "is_disabled": 0, "fusion_lon": 0.0, "bike_id": "f7bd7cb4d67b8cea99c0ab55225bc303", "lon": -76.97831116666667, "rental_uris": {"ios": "https://dc.lft.to/lastmile_qr_scan", "android": "https://dc.lft.to/lastmile_qr_scan"}}, {"name": "63947f4a884ac2d9b0c3d80883c80f9b", "fusion_lat": 0.0, "type": "electric_scooter", "lat": 38.9090575, "is_reserved": 0, "is_disabled": 0, "fusion_lon": 0.0, "bike_id": "63947f4a884ac2d9b0c3d80883c80f9b", "lon": -77.02811766666666, "rental_uris": {"ios": "https://dc.lft.to/lastmile_qr_scan", "android": "https://dc.lft.to/lastmile_qr_scan"}}, {"name": "1e569695bf8662f663001a200b5f56fd", "fusion_lat": 0.0, "type": "electric_bike", "lat": 39.058103833333334, "is_reserved": 0, "is_disabled": 0, "fusion_lon": 0.0, "bike_id": "1e569695bf8662f663001a200b5f56fd", "lon": -77.126284, "rental_uris": {"ios": "https://dc.lft.to/lastmile_qr_scan", "android": "https://dc.lft.to/lastmile_qr_scan"}}, {"name": "954accab8f2c6cdf6b1a552f2e4e8425", "fusion_lat": 0.0, "type": "electric_scooter", "lat": 38.90341683333333, "is_reserved": 0, "is_disabled": 0, "fusion_lon": 0.0, "bike_id": "954accab8f2c6cdf6b1a552f2e4e8425", "lon": -77.05288516666667, "rental_uris": {"ios": "https://dc.lft.to/lastmile_qr_scan", "android": "https://dc.lft.to/lastmile_qr_scan"}}, {"name": "e725ef0d0b1a4dc86c9beefc5ff3c453", "fusion_lat": 0.0, "type": "electric_scooter", "lat": 38.919627166666665, "is_reserved": 0, "is_disabled": 0, "fusion_lon": 0.0, "bike_id": "e725ef0d0b1a4dc86c9beefc5ff3c453", "lon": -77.038594, "rental_uris": {"ios": "https://dc.lft.to/lastmile_qr_scan", "android": "https://dc.lft.to/lastmile_qr_scan"}}, {"name": "77b5ab12da7f5d6b455f9cfd5ab1a2f9", "fusion_lat": 0.0, "type": "electric_scooter", "lat": 38.913346, "is_reserved": 0, "is_disabled": 0, "fusion_lon": 0.0, "bike_id": "77b5ab12da7f5d6b455f9cfd5ab1a2f9", "lon": -77.04563833333333, "rental_uris": {"ios": "https://dc.lft.to/lastmile_qr_scan", "android": "https://dc.lft.to/lastmile_qr_scan"}}, {"name": "30ddc7a70adc5ad095b745f966861a28", "fusion_lat": 0.0, "type": "electric_scooter", "lat": 38.941800666666666, "is_reserved": 0, "is_disabled": 0, "fusion_lon": 0.0, "bike_id": "30ddc7a70adc5ad095b745f966861a28", "lon": -77.03029233333334, "rental_uris": {"ios": "https://dc.lft.to/lastmile_qr_scan", "android": "https://dc.lft.to/lastmile_qr_scan"}}, {"name": "ada2d44917f40d56d487d30bd485b1b0", "fusion_lat": 0.0, "type": "electric_bike", "lat": 39.08900833333333, "is_reserved": 0, "is_disabled": 0, "fusion_lon": 0.0, "bike_id": "ada2d44917f40d56d487d30bd485b1b0", "lon": -77.1784935, "rental_uris": {"ios": "https://dc.lft.to/lastmile_qr_scan", "android": "https://dc.lft.to/lastmile_qr_scan"}}, {"name": "f81b3be4f4a64047494781848efff464", "fusion_lat": 0.0, "type": "electric_scooter", "lat": 38.919151166666666, "is_reserved": 0, "is_disabled": 0, "fusion_lon": 0.0, "bike_id": "f81b3be4f4a64047494781848efff464", "lon": -77.026207, "rental_uris": {"ios": "https://dc.lft.to/lastmile_qr_scan", "android": "https://dc.lft.to/lastmile_qr_scan"}}, {"name": "2529a9f49ab6d2f6e616ddfc18397dec", "fusion_lat": 0.0, "type": "electric_scooter", "lat": 38.897329166666665, "is_reserved": 0, "is_disabled": 0, "fusion_lon": 0.0, "bike_id": "2529a9f49ab6d2f6e616ddfc18397dec", "lon": -77.00926266666667, "rental_uris": {"ios": "https://dc.lft.to/lastmile_qr_scan", "android": "https://dc.lft.to/lastmile_qr_scan"}}, {"name": "70dc2582ac0a61f7de6a711275f7811a", "fusion_lat": 0.0, "type": "electric_bike", "lat": 38.94965, "is_reserved": 0, "is_disabled": 0, "fusion_lon": 0.0, "bike_id": "70dc2582ac0a61f7de6a711275f7811a", "lon": -76.96103133333334, "rental_uris": {"ios": "https://dc.lft.to/lastmile_qr_scan", "android": "https://dc.lft.to/lastmile_qr_scan"}}, {"name": "73f3055cd6702913f66976a966380b47", "fusion_lat": 0.0, "type": "electric_scooter", "lat": 38.92152133333333, "is_reserved": 0, "is_disabled": 0, "fusion_lon": 0.0, "bike_id": "73f3055cd6702913f66976a966380b47", "lon": -77.03383066666666, "rental_uris": {"ios": "https://dc.lft.to/lastmile_qr_scan", "android": "https://dc.lft.to/lastmile_qr_scan"}}, {"name": "ee287c424e39d2cffb98811be06e7602", "fusion_lat": 0.0, "type": "electric_scooter", "lat": 38.9082045, "is_reserved": 0, "is_disabled": 0, "fusion_lon": 0.0, "bike_id": "ee287c424e39d2cffb98811be06e7602", "lon": -77.00109333333333, "rental_uris": {"ios": "https://dc.lft.to/lastmile_qr_scan", "android": "https://dc.lft.to/lastmile_qr_scan"}}, {"name": "68a4d3bba3a0d4addbe7728513149872", "fusion_lat": 0.0, "type": "electric_scooter", "lat": 38.906673166666664, "is_reserved": 0, "is_disabled": 0, "fusion_lon": 0.0, "bike_id": "68a4d3bba3a0d4addbe7728513149872", "lon": -77.0270035, "rental_uris": {"ios": "https://dc.lft.to/lastmile_qr_scan", "android": "https://dc.lft.to/lastmile_qr_scan"}}, {"name": "981fd6a045fe860e66082f8ffcd18320", "fusion_lat": 0.0, "type": "electric_scooter", "lat": 38.905990833333334, "is_reserved": 0, "is_disabled": 0, "fusion_lon": 0.0, "bike_id": "981fd6a045fe860e66082f8ffcd18320", "lon": -77.04144116666667, "rental_uris": {"ios": "https://dc.lft.to/lastmile_qr_scan", "android": "https://dc.lft.to/lastmile_qr_scan"}}, {"name": "b64a1dcfa7b1be348ce47db79f98fadf", "fusion_lat": 0.0, "type": "electric_scooter", "lat": 38.90029233333333, "is_reserved": 0, "is_disabled": 0, "fusion_lon": 0.0, "bike_id": "b64a1dcfa7b1be348ce47db79f98fadf", "lon": -76.99831783333333, "rental_uris": {"ios": "https://dc.lft.to/lastmile_qr_scan", "android": "https://dc.lft.to/lastmile_qr_scan"}}, {"name": "61e0b3362a249bf5f20e1dc339e0db38", "fusion_lat": 0.0, "type": "electric_scooter", "lat": 38.914899, "is_reserved": 0, "is_disabled": 0, "fusion_lon": 0.0, "bike_id": "61e0b3362a249bf5f20e1dc339e0db38", "lon": -77.04062483333334, "rental_uris": {"ios": "https://dc.lft.to/lastmile_qr_scan", "android": "https://dc.lft.to/lastmile_qr_scan"}}, {"name": "04905432015aba212953a862807401ad", "fusion_lat": 0.0, "type": "electric_scooter", "lat": 38.921491333333336, "is_reserved": 0, "is_disabled": 0, "fusion_lon": 0.0, "bike_id": "04905432015aba212953a862807401ad", "lon": -77.0401015, "rental_uris": {"ios": "https://dc.lft.to/lastmile_qr_scan", "android": "https://dc.lft.to/lastmile_qr_scan"}}, {"name": "3fd37728be19f164d762cf83129c5f09", "fusion_lat": 0.0, "type": "electric_scooter", "lat": 38.904148666666664, "is_reserved": 0, "is_disabled": 0, "fusion_lon": 0.0, "bike_id": "3fd37728be19f164d762cf83129c5f09", "lon": -76.97884566666667, "rental_uris": {"ios": "https://dc.lft.to/lastmile_qr_scan", "android": "https://dc.lft.to/lastmile_qr_scan"}}, {"name": "6a2969de7600ec376843864e50bae534", "fusion_lat": 0.0, "type": "electric_scooter", "lat": 38.916960333333336, "is_reserved": 0, "is_disabled": 0, "fusion_lon": 0.0, "bike_id": "6a2969de7600ec376843864e50bae534", "lon": -77.03169116666666, "rental_uris": {"ios": "https://dc.lft.to/lastmile_qr_scan", "android": "https://dc.lft.to/lastmile_qr_scan"}}, {"name": "55650d91f2e93a5040e1f108d27404c2", "fusion_lat": 0.0, "type": "electric_scooter", "lat": 38.90878, "is_reserved": 0, "is_disabled": 0, "fusion_lon": 0.0, "bike_id": "55650d91f2e93a5040e1f108d27404c2", "lon": -77.01899983333334, "rental_uris": {"ios": "https://dc.lft.to/lastmile_qr_scan", "android": "https://dc.lft.to/lastmile_qr_scan"}}, {"name": "3820b46f360b25bf72199232512222ca", "fusion_lat": 0.0, "type": "electric_scooter", "lat": 38.91124116666667, "is_reserved": 0, "is_disabled": 0, "fusion_lon": 0.0, "bike_id": "3820b46f360b25bf72199232512222ca", "lon": -77.02389066666667, "rental_uris": {"ios": "https://dc.lft.to/lastmile_qr_scan", "android": "https://dc.lft.to/lastmile_qr_scan"}}, {"name": "48880cc5afe8cdca1676f174090ea50f", "fusion_lat": 0.0, "type": "electric_bike", "lat": 38.92985566666667, "is_reserved": 0, "is_disabled": 0, "fusion_lon": 0.0, "bike_id": "48880cc5afe8cdca1676f174090ea50f", "lon": -77.01972033333334, "rental_uris": {"ios": "https://dc.lft.to/lastmile_qr_scan", "android": "https://dc.lft.to/lastmile_qr_scan"}}, {"name": "4d9329a607e846f5637dbc1250531154", "fusion_lat": 0.0, "type": "electric_scooter", "lat": 38.92124166666667, "is_reserved": 0, "is_disabled": 0, "fusion_lon": 0.0, "bike_id": "4d9329a607e846f5637dbc1250531154", "lon": -77.0421925, "rental_uris": {"ios": "https://dc.lft.to/lastmile_qr_scan", "android": "https://dc.lft.to/lastmile_qr_scan"}}, {"name": "8a209ed70a0972e187b8617a83827b6b", "fusion_lat": 0.0, "type": "electric_bike", "lat": 38.929856, "is_reserved": 0, "is_disabled": 0, "fusion_lon": 0.0, "bike_id": "8a209ed70a0972e187b8617a83827b6b", "lon": -77.01977183333334, "rental_uris": {"ios": "https://dc.lft.to/lastmile_qr_scan", "android": "https://dc.lft.to/lastmile_qr_scan"}}, {"name": "795928e166c2549208acda4eb1c627e2", "fusion_lat": 0.0, "type": "electric_scooter", "lat": 38.907137, "is_reserved": 0, "is_disabled": 0, "fusion_lon": 0.0, "bike_id": "795928e166c2549208acda4eb1c627e2", "lon": -77.00539483333333, "rental_uris": {"ios": "https://dc.lft.to/lastmile_qr_scan", "android": "https://dc.lft.to/lastmile_qr_scan"}}, {"name": "95cd8c8dca4c863dff0e4c4a1e9b6bbf", "fusion_lat": 0.0, "type": "electric_scooter", "lat": 38.9046115, "is_reserved": 0, "is_disabled": 0, "fusion_lon": 0.0, "bike_id": "95cd8c8dca4c863dff0e4c4a1e9b6bbf", "lon": -77.014246, "rental_uris": {"ios": "https://dc.lft.to/lastmile_qr_scan", "android": "https://dc.lft.to/lastmile_qr_scan"}}, {"name": "3a1d03b30895beab6c204721911fab3a", "fusion_lat": 0.0, "type": "electric_scooter", "lat": 38.935441, "is_reserved": 0, "is_disabled": 0, "fusion_lon": 0.0, "bike_id": "3a1d03b30895beab6c204721911fab3a", "lon": -77.03416233333333, "rental_uris": {"ios": "https://dc.lft.to/lastmile_qr_scan", "android": "https://dc.lft.to/lastmile_qr_scan"}}, {"name": "8eb2284add61546f080ff4ac55ad3a8e", "fusion_lat": 0.0, "type": "electric_bike", "lat": 38.85788383333333, "is_reserved": 0, "is_disabled": 0, "fusion_lon": 0.0, "bike_id": "8eb2284add61546f080ff4ac55ad3a8e", "lon": -76.98743833333333, "rental_uris": {"ios": "https://dc.lft.to/lastmile_qr_scan", "android": "https://dc.lft.to/lastmile_qr_scan"}}, {"name": "ea68f12f86c414da1d6e967f49ee771a", "fusion_lat": 0.0, "type": "electric_scooter", "lat": 38.9188435, "is_reserved": 0, "is_disabled": 0, "fusion_lon": 0.0, "bike_id": "ea68f12f86c414da1d6e967f49ee771a", "lon": -77.03758733333333, "rental_uris": {"ios": "https://dc.lft.to/lastmile_qr_scan", "android": "https://dc.lft.to/lastmile_qr_scan"}}, {"name": "92175c167e68811235b22866e74a22a0", "fusion_lat": 0.0, "type": "electric_scooter", "lat": 38.918442166666665, "is_reserved": 0, "is_disabled": 0, "fusion_lon": 0.0, "bike_id": "92175c167e68811235b22866e74a22a0", "lon": -77.02597633333333, "rental_uris": {"ios": "https://dc.lft.to/lastmile_qr_scan", "android": "https://dc.lft.to/lastmile_qr_scan"}}, {"name": "171b24bd663bdcb1e0f6b1528f8f0c6e", "fusion_lat": 0.0, "type": "electric_bike", "lat": 38.95955433333334, "is_reserved": 0, "is_disabled": 0, "fusion_lon": 0.0, "bike_id": "171b24bd663bdcb1e0f6b1528f8f0c6e", "lon": -77.100925, "rental_uris": {"ios": "https://dc.lft.to/lastmile_qr_scan", "android": "https://dc.lft.to/lastmile_qr_scan"}}, {"name": "3acbab599c39ffafbe1d9eb939378116", "fusion_lat": 0.0, "type": "electric_scooter", "lat": 38.89222216666667, "is_reserved": 0, "is_disabled": 0, "fusion_lon": 0.0, "bike_id": "3acbab599c39ffafbe1d9eb939378116", "lon": -77.05005133333333, "rental_uris": {"ios": "https://dc.lft.to/lastmile_qr_scan", "android": "https://dc.lft.to/lastmile_qr_scan"}}, {"name": "73e48f64cd9549168e283a4805aa06b5", "fusion_lat": 0.0, "type": "electric_bike", "lat": 38.91100766666667, "is_reserved": 0, "is_disabled": 0, "fusion_lon": 0.0, "bike_id": "73e48f64cd9549168e283a4805aa06b5", "lon": -77.0050015, "rental_uris": {"ios": "https://dc.lft.to/lastmile_qr_scan", "android": "https://dc.lft.to/lastmile_qr_scan"}}, {"name": "2396e9efd482cb281d7f7743ff053968", "fusion_lat": 0.0, "type": "electric_scooter", "lat": 38.924200666666664, "is_reserved": 0, "is_disabled": 0, "fusion_lon": 0.0, "bike_id": "2396e9efd482cb281d7f7743ff053968", "lon": -77.0194455, "rental_uris": {"ios": "https://dc.lft.to/lastmile_qr_scan", "android": "https://dc.lft.to/lastmile_qr_scan"}}, {"name": "5a734bfcaf87e7a0baefc8a9e19f6ebb", "fusion_lat": 0.0, "type": "electric_scooter", "lat": 38.91812516666667, "is_reserved": 0, "is_disabled": 0, "fusion_lon": 0.0, "bike_id": "5a734bfcaf87e7a0baefc8a9e19f6ebb", "lon": -77.04010816666667, "rental_uris": {"ios": "https://dc.lft.to/lastmile_qr_scan", "android": "https://dc.lft.to/lastmile_qr_scan"}}, {"name": "1bfa6749fcd54a7da550886772a8f347", "fusion_lat": 0.0, "type": "electric_scooter", "lat": 38.87751133333333, "is_reserved": 0, "is_disabled": 0, "fusion_lon": 0.0, "bike_id": "1bfa6749fcd54a7da550886772a8f347", "lon": -77.019787, "rental_uris": {"ios": "https://dc.lft.to/lastmile_qr_scan", "android": "https://dc.lft.to/lastmile_qr_scan"}}, {"name": "68b0f3861d07cbf1bf3b848e46a18963", "fusion_lat": 0.0, "type": "electric_scooter", "lat": 38.92479216666667, "is_reserved": 0, "is_disabled": 0, "fusion_lon": 0.0, "bike_id": "68b0f3861d07cbf1bf3b848e46a18963", "lon": -77.0283975, "rental_uris": {"ios": "https://dc.lft.to/lastmile_qr_scan", "android": "https://dc.lft.to/lastmile_qr_scan"}}, {"name": "7c5d57da82a973cc2149eabb1af7b933", "fusion_lat": 0.0, "type": "electric_scooter", "lat": 38.93615633333334, "is_reserved": 0, "is_disabled": 0, "fusion_lon": 0.0, "bike_id": "7c5d57da82a973cc2149eabb1af7b933", "lon": -77.0321455, "rental_uris": {"ios": "https://dc.lft.to/lastmile_qr_scan", "android": "https://dc.lft.to/lastmile_qr_scan"}}, {"name": "d41582eb2f31dc161fe6bc817ba12f74", "fusion_lat": 0.0, "type": "electric_scooter", "lat": 38.90144466666667, "is_reserved": 0, "is_disabled": 0, "fusion_lon": 0.0, "bike_id": "d41582eb2f31dc161fe6bc817ba12f74", "lon": -77.00067616666666, "rental_uris": {"ios": "https://dc.lft.to/lastmile_qr_scan", "android": "https://dc.lft.to/lastmile_qr_scan"}}, {"name": "cc66674e952a7ed4a9e1071e7de4037f", "fusion_lat": 0.0, "type": "electric_scooter", "lat": 38.91948383333333, "is_reserved": 0, "is_disabled": 0, "fusion_lon": 0.0, "bike_id": "cc66674e952a7ed4a9e1071e7de4037f", "lon": -77.013881, "rental_uris": {"ios": "https://dc.lft.to/lastmile_qr_scan", "android": "https://dc.lft.to/lastmile_qr_scan"}}, {"name": "16a37d4376a085d885a49010509a436b", "fusion_lat": 0.0, "type": "electric_scooter", "lat": 38.92946533333333, "is_reserved": 0, "is_disabled": 0, "fusion_lon": 0.0, "bike_id": "16a37d4376a085d885a49010509a436b", "lon": -76.99745466666667, "rental_uris": {"ios": "https://dc.lft.to/lastmile_qr_scan", "android": "https://dc.lft.to/lastmile_qr_scan"}}, {"name": "039f963925b4111fb774011f48ce958c", "fusion_lat": 0.0, "type": "electric_scooter", "lat": 38.8842725, "is_reserved": 0, "is_disabled": 0, "fusion_lon": 0.0, "bike_id": "039f963925b4111fb774011f48ce958c", "lon": -77.03047433333333, "rental_uris": {"ios": "https://dc.lft.to/lastmile_qr_scan", "android": "https://dc.lft.to/lastmile_qr_scan"}}, {"name": "d539e740a2328fe2f5c4a7bb5814472a", "fusion_lat": 0.0, "type": "electric_scooter", "lat": 38.9325135, "is_reserved": 0, "is_disabled": 0, "fusion_lon": 0.0, "bike_id": "d539e740a2328fe2f5c4a7bb5814472a", "lon": -77.0238465, "rental_uris": {"ios": "https://dc.lft.to/lastmile_qr_scan", "android": "https://dc.lft.to/lastmile_qr_scan"}}, {"name": "b31c05892d675f3b2ed9c551e5241570", "fusion_lat": 0.0, "type": "electric_scooter", "lat": 38.90760916666667, "is_reserved": 0, "is_disabled": 0, "fusion_lon": 0.0, "bike_id": "b31c05892d675f3b2ed9c551e5241570", "lon": -77.02797433333333, "rental_uris": {"ios": "https://dc.lft.to/lastmile_qr_scan", "android": "https://dc.lft.to/lastmile_qr_scan"}}, {"name": "bff2d5088093a5a2ef7c29baced997f7", "fusion_lat": 0.0, "type": "electric_scooter", "lat": 38.917183333333334, "is_reserved": 0, "is_disabled": 0, "fusion_lon": 0.0, "bike_id": "bff2d5088093a5a2ef7c29baced997f7", "lon": -77.0383635, "rental_uris": {"ios": "https://dc.lft.to/lastmile_qr_scan", "android": "https://dc.lft.to/lastmile_qr_scan"}}, {"name": "cef9e95c79c7b3ac02d0951f85800f79", "fusion_lat": 0.0, "type": "electric_scooter", "lat": 38.902608666666666, "is_reserved": 0, "is_disabled": 0, "fusion_lon": 0.0, "bike_id": "cef9e95c79c7b3ac02d0951f85800f79", "lon": -77.03987166666667, "rental_uris": {"ios": "https://dc.lft.to/lastmile_qr_scan", "android": "https://dc.lft.to/lastmile_qr_scan"}}, {"name": "6af57f4fea15e9181ab64c5ae42ef78e", "fusion_lat": 0.0, "type": "electric_bike", "lat": 38.82446266666667, "is_reserved": 0, "is_disabled": 0, "fusion_lon": 0.0, "bike_id": "6af57f4fea15e9181ab64c5ae42ef78e", "lon": -77.0704985, "rental_uris": {"ios": "https://dc.lft.to/lastmile_qr_scan", "android": "https://dc.lft.to/lastmile_qr_scan"}}, {"name": "e50b460598cf1ec0e2c1e7be71d9fa65", "fusion_lat": 0.0, "type": "electric_scooter", "lat": 38.899203166666666, "is_reserved": 0, "is_disabled": 0, "fusion_lon": 0.0, "bike_id": "e50b460598cf1ec0e2c1e7be71d9fa65", "lon": -76.93381133333334, "rental_uris": {"ios": "https://dc.lft.to/lastmile_qr_scan", "android": "https://dc.lft.to/lastmile_qr_scan"}}, {"name": "0f8982bcf711eae20597bcc89118d67b", "fusion_lat": 0.0, "type": "electric_scooter", "lat": 38.901679, "is_reserved": 0, "is_disabled": 0, "fusion_lon": 0.0, "bike_id": "0f8982bcf711eae20597bcc89118d67b", "lon": -77.02184033333333, "rental_uris": {"ios": "https://dc.lft.to/lastmile_qr_scan", "android": "https://dc.lft.to/lastmile_qr_scan"}}, {"name": "321e9880f4c58fc282816ce386be5b47", "fusion_lat": 0.0, "type": "electric_bike", "lat": 38.924421333333335, "is_reserved": 0, "is_disabled": 0, "fusion_lon": 0.0, "bike_id": "321e9880f4c58fc282816ce386be5b47", "lon": -76.996629, "rental_uris": {"ios": "https://dc.lft.to/lastmile_qr_scan", "android": "https://dc.lft.to/lastmile_qr_scan"}}, {"name": "9e83eb1b1ac5066c1f38920ef33c84e8", "fusion_lat": 0.0, "type": "electric_scooter", "lat": 38.897397166666664, "is_reserved": 0, "is_disabled": 0, "fusion_lon": 0.0, "bike_id": "9e83eb1b1ac5066c1f38920ef33c84e8", "lon": -77.04646666666666, "rental_uris": {"ios": "https://dc.lft.to/lastmile_qr_scan", "android": "https://dc.lft.to/lastmile_qr_scan"}}, {"name": "d99f1594702c4e65a80da20d616af49e", "fusion_lat": 0.0, "type": "electric_scooter", "lat": 38.923216333333336, "is_reserved": 0, "is_disabled": 0, "fusion_lon": 0.0, "bike_id": "d99f1594702c4e65a80da20d616af49e", "lon": -77.03519783333333, "rental_uris": {"ios": "https://dc.lft.to/lastmile_qr_scan", "android": "https://dc.lft.to/lastmile_qr_scan"}}, {"name": "c31d01f500cab220efe77657074ab184", "fusion_lat": 0.0, "type": "electric_bike", "lat": 38.88120883333333, "is_reserved": 0, "is_disabled": 0, "fusion_lon": 0.0, "bike_id": "c31d01f500cab220efe77657074ab184", "lon": -77.0164885, "rental_uris": {"ios": "https://dc.lft.to/lastmile_qr_scan", "android": "https://dc.lft.to/lastmile_qr_scan"}}, {"name": "545c5e23dcbdfd75e56ac843aae04078", "fusion_lat": 0.0, "type": "electric_bike", "lat": 38.918564833333335, "is_reserved": 0, "is_disabled": 0, "fusion_lon": 0.0, "bike_id": "545c5e23dcbdfd75e56ac843aae04078", "lon": -76.96092683333333, "rental_uris": {"ios": "https://dc.lft.to/lastmile_qr_scan", "android": "https://dc.lft.to/lastmile_qr_scan"}}, {"name": "c65161cbc1948790828e7e122a547924", "fusion_lat": 0.0, "type": "electric_scooter", "lat": 38.90324866666667, "is_reserved": 0, "is_disabled": 0, "fusion_lon": 0.0, "bike_id": "c65161cbc1948790828e7e122a547924", "lon": -77.05179483333333, "rental_uris": {"ios": "https://dc.lft.to/lastmile_qr_scan", "android": "https://dc.lft.to/lastmile_qr_scan"}}, {"name": "66498d70b205312716cef3b395bb2083", "fusion_lat": 0.0, "type": "electric_scooter", "lat": 38.923148166666664, "is_reserved": 0, "is_disabled": 0, "fusion_lon": 0.0, "bike_id": "66498d70b205312716cef3b395bb2083", "lon": -77.02976516666666, "rental_uris": {"ios": "https://dc.lft.to/lastmile_qr_scan", "android": "https://dc.lft.to/lastmile_qr_scan"}}, {"name": "6fcb0f7d6fd0c13f26e0d899ff95dd53", "fusion_lat": 0.0, "type": "electric_bike", "lat": 38.959305666666666, "is_reserved": 0, "is_disabled": 0, "fusion_lon": 0.0, "bike_id": "6fcb0f7d6fd0c13f26e0d899ff95dd53", "lon": -76.92538216666667, "rental_uris": {"ios": "https://dc.lft.to/lastmile_qr_scan", "android": "https://dc.lft.to/lastmile_qr_scan"}}, {"name": "fb31e9f6ceadcb6bbf7151387f75fb45", "fusion_lat": 0.0, "type": "electric_scooter", "lat": 38.917050833333334, "is_reserved": 0, "is_disabled": 0, "fusion_lon": 0.0, "bike_id": "fb31e9f6ceadcb6bbf7151387f75fb45", "lon": -77.04173266666666, "rental_uris": {"ios": "https://dc.lft.to/lastmile_qr_scan", "android": "https://dc.lft.to/lastmile_qr_scan"}}, {"name": "8d73477aca84a758dd4d301d9dfa22f1", "fusion_lat": 0.0, "type": "electric_scooter", "lat": 38.90434066666667, "is_reserved": 0, "is_disabled": 0, "fusion_lon": 0.0, "bike_id": "8d73477aca84a758dd4d301d9dfa22f1", "lon": -77.02848066666667, "rental_uris": {"ios": "https://dc.lft.to/lastmile_qr_scan", "android": "https://dc.lft.to/lastmile_qr_scan"}}, {"name": "b25f3417cc815e33e52626be461776df", "fusion_lat": 0.0, "type": "electric_scooter", "lat": 38.9081955, "is_reserved": 0, "is_disabled": 0, "fusion_lon": 0.0, "bike_id": "b25f3417cc815e33e52626be461776df", "lon": -77.0394345, "rental_uris": {"ios": "https://dc.lft.to/lastmile_qr_scan", "android": "https://dc.lft.to/lastmile_qr_scan"}}, {"name": "83a2c71c38a51d04cb609ac4a7a9552f", "fusion_lat": 0.0, "type": "electric_scooter", "lat": 38.903801333333334, "is_reserved": 0, "is_disabled": 0, "fusion_lon": 0.0, "bike_id": "83a2c71c38a51d04cb609ac4a7a9552f", "lon": -77.00686766666666, "rental_uris": {"ios": "https://dc.lft.to/lastmile_qr_scan", "android": "https://dc.lft.to/lastmile_qr_scan"}}, {"name": "b3377693ce0333fadc36ca72360b7f02", "fusion_lat": 0.0, "type": "electric_scooter", "lat": 38.928215, "is_reserved": 0, "is_disabled": 0, "fusion_lon": 0.0, "bike_id": "b3377693ce0333fadc36ca72360b7f02", "lon": -77.02257166666666, "rental_uris": {"ios": "https://dc.lft.to/lastmile_qr_scan", "android": "https://dc.lft.to/lastmile_qr_scan"}}, {"name": "5afdc2e1421642b8d2ea9524af0f004e", "fusion_lat": 0.0, "type": "electric_scooter", "lat": 38.975017, "is_reserved": 0, "is_disabled": 0, "fusion_lon": 0.0, "bike_id": "5afdc2e1421642b8d2ea9524af0f004e", "lon": -77.01693883333333, "rental_uris": {"ios": "https://dc.lft.to/lastmile_qr_scan", "android": "https://dc.lft.to/lastmile_qr_scan"}}, {"name": "b1ee551182578986e139870776cd778c", "fusion_lat": 0.0, "type": "electric_scooter", "lat": 38.9000405, "is_reserved": 0, "is_disabled": 0, "fusion_lon": 0.0, "bike_id": "b1ee551182578986e139870776cd778c", "lon": -77.0533315, "rental_uris": {"ios": "https://dc.lft.to/lastmile_qr_scan", "android": "https://dc.lft.to/lastmile_qr_scan"}}, {"name": "c06ee755e49404a8d09bd1a72078862d", "fusion_lat": 0.0, "type": "electric_scooter", "lat": 38.86961516666667, "is_reserved": 0, "is_disabled": 0, "fusion_lon": 0.0, "bike_id": "c06ee755e49404a8d09bd1a72078862d", "lon": -77.01375533333334, "rental_uris": {"ios": "https://dc.lft.to/lastmile_qr_scan", "android": "https://dc.lft.to/lastmile_qr_scan"}}, {"name": "22650197dd40f19546d66925ed00188e", "fusion_lat": 0.0, "type": "electric_scooter", "lat": 38.92650866666666, "is_reserved": 0, "is_disabled": 0, "fusion_lon": 0.0, "bike_id": "22650197dd40f19546d66925ed00188e", "lon": -77.037281, "rental_uris": {"ios": "https://dc.lft.to/lastmile_qr_scan", "android": "https://dc.lft.to/lastmile_qr_scan"}}, {"name": "b26a35595464d16a9536460b28644dea", "fusion_lat": 0.0, "type": "electric_bike", "lat": 38.95332166666667, "is_reserved": 0, "is_disabled": 0, "fusion_lon": 0.0, "bike_id": "b26a35595464d16a9536460b28644dea", "lon": -76.97830766666667, "rental_uris": {"ios": "https://dc.lft.to/lastmile_qr_scan", "android": "https://dc.lft.to/lastmile_qr_scan"}}, {"name": "cb84831a08587ba26b5d385534c922bf", "fusion_lat": 0.0, "type": "electric_scooter", "lat": 38.91052033333333, "is_reserved": 0, "is_disabled": 0, "fusion_lon": 0.0, "bike_id": "cb84831a08587ba26b5d385534c922bf", "lon": -77.02199216666666, "rental_uris": {"ios": "https://dc.lft.to/lastmile_qr_scan", "android": "https://dc.lft.to/lastmile_qr_scan"}}, {"name": "98d543aa286b922072d0f9b7fd44fd8d", "fusion_lat": 0.0, "type": "electric_scooter", "lat": 38.91822416666667, "is_reserved": 0, "is_disabled": 0, "fusion_lon": 0.0, "bike_id": "98d543aa286b922072d0f9b7fd44fd8d", "lon": -77.03442233333334, "rental_uris": {"ios": "https://dc.lft.to/lastmile_qr_scan", "android": "https://dc.lft.to/lastmile_qr_scan"}}, {"name": "40e798d81e75a3f0d8f4537f5a749724", "fusion_lat": 0.0, "type": "electric_scooter", "lat": 38.901462333333335, "is_reserved": 0, "is_disabled": 0, "fusion_lon": 0.0, "bike_id": "40e798d81e75a3f0d8f4537f5a749724", "lon": -77.00062383333334, "rental_uris": {"ios": "https://dc.lft.to/lastmile_qr_scan", "android": "https://dc.lft.to/lastmile_qr_scan"}}, {"name": "8b5c3590643da3aa70ca4dc77ceedc58", "fusion_lat": 0.0, "type": "electric_scooter", "lat": 38.912381833333335, "is_reserved": 0, "is_disabled": 0, "fusion_lon": 0.0, "bike_id": "8b5c3590643da3aa70ca4dc77ceedc58", "lon": -77.04884733333333, "rental_uris": {"ios": "https://dc.lft.to/lastmile_qr_scan", "android": "https://dc.lft.to/lastmile_qr_scan"}}, {"name": "cb6cb0c09e84240a41536ba29447df93", "fusion_lat": 0.0, "type": "electric_scooter", "lat": 38.89547566666667, "is_reserved": 0, "is_disabled": 0, "fusion_lon": 0.0, "bike_id": "cb6cb0c09e84240a41536ba29447df93", "lon": -76.94879416666667, "rental_uris": {"ios": "https://dc.lft.to/lastmile_qr_scan", "android": "https://dc.lft.to/lastmile_qr_scan"}}, {"name": "abe72c20540534aaebf09867ec246cec", "fusion_lat": 0.0, "type": "electric_bike", "lat": 38.8999455, "is_reserved": 0, "is_disabled": 0, "fusion_lon": 0.0, "bike_id": "abe72c20540534aaebf09867ec246cec", "lon": -76.9983675, "rental_uris": {"ios": "https://dc.lft.to/lastmile_qr_scan", "android": "https://dc.lft.to/lastmile_qr_scan"}}, {"name": "c53946d82abd63c9af45311eb614106b", "fusion_lat": 0.0, "type": "electric_bike", "lat": 38.8775255, "is_reserved": 0, "is_disabled": 0, "fusion_lon": 0.0, "bike_id": "c53946d82abd63c9af45311eb614106b", "lon": -76.97984016666666, "rental_uris": {"ios": "https://dc.lft.to/lastmile_qr_scan", "android": "https://dc.lft.to/lastmile_qr_scan"}}, {"name": "a25a090eab4799b9e6ebcbb90b48dfd2", "fusion_lat": 0.0, "type": "electric_scooter", "lat": 38.9096605, "is_reserved": 0, "is_disabled": 0, "fusion_lon": 0.0, "bike_id": "a25a090eab4799b9e6ebcbb90b48dfd2", "lon": -77.01119366666667, "rental_uris": {"ios": "https://dc.lft.to/lastmile_qr_scan", "android": "https://dc.lft.to/lastmile_qr_scan"}}, {"name": "5f49f0c63c31ad1dcb48071680dadb9a", "fusion_lat": 0.0, "type": "electric_bike", "lat": 38.93959483333333, "is_reserved": 0, "is_disabled": 0, "fusion_lon": 0.0, "bike_id": "5f49f0c63c31ad1dcb48071680dadb9a", "lon": -77.360932, "rental_uris": {"ios": "https://dc.lft.to/lastmile_qr_scan", "android": "https://dc.lft.to/lastmile_qr_scan"}}, {"name": "cbeece5e889a8f41fb55aedcf676adee", "fusion_lat": 0.0, "type": "electric_scooter", "lat": 38.90026566666667, "is_reserved": 0, "is_disabled": 0, "fusion_lon": 0.0, "bike_id": "cbeece5e889a8f41fb55aedcf676adee", "lon": -77.033422, "rental_uris": {"ios": "https://dc.lft.to/lastmile_qr_scan", "android": "https://dc.lft.to/lastmile_qr_scan"}}, {"name": "e3d9978bf9158be3f7e70042a598a0be", "fusion_lat": 0.0, "type": "electric_scooter", "lat": 38.937755833333334, "is_reserved": 0, "is_disabled": 0, "fusion_lon": 0.0, "bike_id": "e3d9978bf9158be3f7e70042a598a0be", "lon": -77.03263883333334, "rental_uris": {"ios": "https://dc.lft.to/lastmile_qr_scan", "android": "https://dc.lft.to/lastmile_qr_scan"}}, {"name": "4405205a548973f211326e26a53c7f5b", "fusion_lat": 0.0, "type": "electric_scooter", "lat": 38.92005966666667, "is_reserved": 0, "is_disabled": 0, "fusion_lon": 0.0, "bike_id": "4405205a548973f211326e26a53c7f5b", "lon": -76.98495766666667, "rental_uris": {"ios": "https://dc.lft.to/lastmile_qr_scan", "android": "https://dc.lft.to/lastmile_qr_scan"}}, {"name": "8edb69d597ba69fbb55c62a59468114f", "fusion_lat": 0.0, "type": "electric_scooter", "lat": 38.942250333333334, "is_reserved": 0, "is_disabled": 0, "fusion_lon": 0.0, "bike_id": "8edb69d597ba69fbb55c62a59468114f", "lon": -77.0768255, "rental_uris": {"ios": "https://dc.lft.to/lastmile_qr_scan", "android": "https://dc.lft.to/lastmile_qr_scan"}}, {"name": "401f936c18730980ce20bca6005ef7de", "fusion_lat": 0.0, "type": "electric_bike", "lat": 38.85064116666667, "is_reserved": 0, "is_disabled": 0, "fusion_lon": 0.0, "bike_id": "401f936c18730980ce20bca6005ef7de", "lon": -76.97327066666666, "rental_uris": {"ios": "https://dc.lft.to/lastmile_qr_scan", "android": "https://dc.lft.to/lastmile_qr_scan"}}, {"name": "591e79600e72df351d4535f0fcb42c86", "fusion_lat": 0.0, "type": "electric_scooter", "lat": 38.90238633333333, "is_reserved": 0, "is_disabled": 0, "fusion_lon": 0.0, "bike_id": "591e79600e72df351d4535f0fcb42c86", "lon": -77.001973, "rental_uris": {"ios": "https://dc.lft.to/lastmile_qr_scan", "android": "https://dc.lft.to/lastmile_qr_scan"}}, {"name": "f2cc9df7cc0cc6490cce4872b279ee40", "fusion_lat": 0.0, "type": "electric_scooter", "lat": 38.906981, "is_reserved": 0, "is_disabled": 0, "fusion_lon": 0.0, "bike_id": "f2cc9df7cc0cc6490cce4872b279ee40", "lon": -77.0318365, "rental_uris": {"ios": "https://dc.lft.to/lastmile_qr_scan", "android": "https://dc.lft.to/lastmile_qr_scan"}}, {"name": "c42ca3d282b4f1e1026da8f4ebc5dbb1", "fusion_lat": 0.0, "type": "electric_scooter", "lat": 38.905745333333336, "is_reserved": 0, "is_disabled": 0, "fusion_lon": 0.0, "bike_id": "c42ca3d282b4f1e1026da8f4ebc5dbb1", "lon": -77.03262883333333, "rental_uris": {"ios": "https://dc.lft.to/lastmile_qr_scan", "android": "https://dc.lft.to/lastmile_qr_scan"}}, {"name": "08990b19b46183ab4d6aa092a2cb73d2", "fusion_lat": 0.0, "type": "electric_scooter", "lat": 38.92536966666667, "is_reserved": 0, "is_disabled": 0, "fusion_lon": 0.0, "bike_id": "08990b19b46183ab4d6aa092a2cb73d2", "lon": -77.02634533333334, "rental_uris": {"ios": "https://dc.lft.to/lastmile_qr_scan", "android": "https://dc.lft.to/lastmile_qr_scan"}}, {"name": "a9d55292210a8ea305d085f005eb8ed1", "fusion_lat": 0.0, "type": "electric_scooter", "lat": 38.91615066666667, "is_reserved": 0, "is_disabled": 0, "fusion_lon": 0.0, "bike_id": "a9d55292210a8ea305d085f005eb8ed1", "lon": -77.02304983333333, "rental_uris": {"ios": "https://dc.lft.to/lastmile_qr_scan", "android": "https://dc.lft.to/lastmile_qr_scan"}}, {"name": "f35e2756c241a0e7c32ef8b5029acef2", "fusion_lat": 0.0, "type": "electric_scooter", "lat": 38.922343166666664, "is_reserved": 0, "is_disabled": 0, "fusion_lon": 0.0, "bike_id": "f35e2756c241a0e7c32ef8b5029acef2", "lon": -77.03912, "rental_uris": {"ios": "https://dc.lft.to/lastmile_qr_scan", "android": "https://dc.lft.to/lastmile_qr_scan"}}, {"name": "d622f8207a2853300d43a5418eb7e9bf", "fusion_lat": 0.0, "type": "electric_bike", "lat": 38.898058, "is_reserved": 0, "is_disabled": 0, "fusion_lon": 0.0, "bike_id": "d622f8207a2853300d43a5418eb7e9bf", "lon": -77.00596883333333, "rental_uris": {"ios": "https://dc.lft.to/lastmile_qr_scan", "android": "https://dc.lft.to/lastmile_qr_scan"}}, {"name": "82027ca322ff6068d888e898a2230b95", "fusion_lat": 0.0, "type": "electric_scooter", "lat": 38.92343316666667, "is_reserved": 0, "is_disabled": 0, "fusion_lon": 0.0, "bike_id": "82027ca322ff6068d888e898a2230b95", "lon": -77.05096316666666, "rental_uris": {"ios": "https://dc.lft.to/lastmile_qr_scan", "android": "https://dc.lft.to/lastmile_qr_scan"}}, {"name": "0ef696189e7b0aa9a26155b75950fa34", "fusion_lat": 0.0, "type": "electric_scooter", "lat": 38.91361666666667, "is_reserved": 0, "is_disabled": 0, "fusion_lon": 0.0, "bike_id": "0ef696189e7b0aa9a26155b75950fa34", "lon": -77.04558733333333, "rental_uris": {"ios": "https://dc.lft.to/lastmile_qr_scan", "android": "https://dc.lft.to/lastmile_qr_scan"}}, {"name": "cad33c3259b8962986903cbb44cb6b45", "fusion_lat": 0.0, "type": "electric_scooter", "lat": 38.891247666666665, "is_reserved": 0, "is_disabled": 0, "fusion_lon": 0.0, "bike_id": "cad33c3259b8962986903cbb44cb6b45", "lon": -76.99161616666666, "rental_uris": {"ios": "https://dc.lft.to/lastmile_qr_scan", "android": "https://dc.lft.to/lastmile_qr_scan"}}, {"name": "1461eb007890f24c7a5fb7b8bb765255", "fusion_lat": 0.0, "type": "electric_scooter", "lat": 38.90337383333333, "is_reserved": 0, "is_disabled": 0, "fusion_lon": 0.0, "bike_id": "1461eb007890f24c7a5fb7b8bb765255", "lon": -77.03653566666667, "rental_uris": {"ios": "https://dc.lft.to/lastmile_qr_scan", "android": "https://dc.lft.to/lastmile_qr_scan"}}, {"name": "c1fc9c69653ab80f2077c822ab34cdc5", "fusion_lat": 0.0, "type": "electric_scooter", "lat": 38.934099833333335, "is_reserved": 0, "is_disabled": 0, "fusion_lon": 0.0, "bike_id": "c1fc9c69653ab80f2077c822ab34cdc5", "lon": -77.02608133333334, "rental_uris": {"ios": "https://dc.lft.to/lastmile_qr_scan", "android": "https://dc.lft.to/lastmile_qr_scan"}}, {"name": "9cb9f86a861bb6cc0fabc9c341661e41", "fusion_lat": 0.0, "type": "electric_scooter", "lat": 38.92923866666667, "is_reserved": 0, "is_disabled": 0, "fusion_lon": 0.0, "bike_id": "9cb9f86a861bb6cc0fabc9c341661e41", "lon": -77.03759416666666, "rental_uris": {"ios": "https://dc.lft.to/lastmile_qr_scan", "android": "https://dc.lft.to/lastmile_qr_scan"}}, {"name": "5963ebe91174078c675d68b9508f9e03", "fusion_lat": 0.0, "type": "electric_scooter", "lat": 38.926699666666664, "is_reserved": 0, "is_disabled": 0, "fusion_lon": 0.0, "bike_id": "5963ebe91174078c675d68b9508f9e03", "lon": -76.99541633333334, "rental_uris": {"ios": "https://dc.lft.to/lastmile_qr_scan", "android": "https://dc.lft.to/lastmile_qr_scan"}}, {"name": "c7ef3b8b2be19c2fa832a8be4f8087b5", "fusion_lat": 0.0, "type": "electric_scooter", "lat": 38.91010266666667, "is_reserved": 0, "is_disabled": 0, "fusion_lon": 0.0, "bike_id": "c7ef3b8b2be19c2fa832a8be4f8087b5", "lon": -77.038415, "rental_uris": {"ios": "https://dc.lft.to/lastmile_qr_scan", "android": "https://dc.lft.to/lastmile_qr_scan"}}, {"name": "d5f5c0c3542af125ca51e3809b73ab45", "fusion_lat": 0.0, "type": "electric_scooter", "lat": 38.916760333333336, "is_reserved": 0, "is_disabled": 0, "fusion_lon": 0.0, "bike_id": "d5f5c0c3542af125ca51e3809b73ab45", "lon": -77.01447983333334, "rental_uris": {"ios": "https://dc.lft.to/lastmile_qr_scan", "android": "https://dc.lft.to/lastmile_qr_scan"}}, {"name": "e1d5c60b233e46530657ef713ce3c6f0", "fusion_lat": 0.0, "type": "electric_scooter", "lat": 38.94923983333333, "is_reserved": 0, "is_disabled": 0, "fusion_lon": 0.0, "bike_id": "e1d5c60b233e46530657ef713ce3c6f0", "lon": -77.01928983333333, "rental_uris": {"ios": "https://dc.lft.to/lastmile_qr_scan", "android": "https://dc.lft.to/lastmile_qr_scan"}}, {"name": "f0dbcbaf145c50e419e702c6a3057036", "fusion_lat": 0.0, "type": "electric_scooter", "lat": 38.912274, "is_reserved": 0, "is_disabled": 0, "fusion_lon": 0.0, "bike_id": "f0dbcbaf145c50e419e702c6a3057036", "lon": -77.03844466666666, "rental_uris": {"ios": "https://dc.lft.to/lastmile_qr_scan", "android": "https://dc.lft.to/lastmile_qr_scan"}}, {"name": "5349a529feac8e2005cde841472bba1f", "fusion_lat": 0.0, "type": "electric_bike", "lat": 38.9140125, "is_reserved": 0, "is_disabled": 0, "fusion_lon": 0.0, "bike_id": "5349a529feac8e2005cde841472bba1f", "lon": -77.02014716666666, "rental_uris": {"ios": "https://dc.lft.to/lastmile_qr_scan", "android": "https://dc.lft.to/lastmile_qr_scan"}}, {"name": "44d41e4d233cd3112058f8ca1cc4f2a0", "fusion_lat": 0.0, "type": "electric_scooter", "lat": 38.9373275, "is_reserved": 0, "is_disabled": 0, "fusion_lon": 0.0, "bike_id": "44d41e4d233cd3112058f8ca1cc4f2a0", "lon": -77.03271633333334, "rental_uris": {"ios": "https://dc.lft.to/lastmile_qr_scan", "android": "https://dc.lft.to/lastmile_qr_scan"}}, {"name": "a638e13eac01d2a3fe183d3c859d943d", "fusion_lat": 0.0, "type": "electric_scooter", "lat": 38.9156245, "is_reserved": 0, "is_disabled": 0, "fusion_lon": 0.0, "bike_id": "a638e13eac01d2a3fe183d3c859d943d", "lon": -77.01416266666666, "rental_uris": {"ios": "https://dc.lft.to/lastmile_qr_scan", "android": "https://dc.lft.to/lastmile_qr_scan"}}, {"name": "dd071bcc577140fef413d90f829379ce", "fusion_lat": 0.0, "type": "electric_scooter", "lat": 38.92284766666667, "is_reserved": 0, "is_disabled": 0, "fusion_lon": 0.0, "bike_id": "dd071bcc577140fef413d90f829379ce", "lon": -77.03661316666667, "rental_uris": {"ios": "https://dc.lft.to/lastmile_qr_scan", "android": "https://dc.lft.to/lastmile_qr_scan"}}, {"name": "47c045e98577d2236879e58286a9eb74", "fusion_lat": 0.0, "type": "electric_scooter", "lat": 38.926860833333336, "is_reserved": 0, "is_disabled": 0, "fusion_lon": 0.0, "bike_id": "47c045e98577d2236879e58286a9eb74", "lon": -77.06644616666667, "rental_uris": {"ios": "https://dc.lft.to/lastmile_qr_scan", "android": "https://dc.lft.to/lastmile_qr_scan"}}, {"name": "e20c65f8694a5e151b25f9f4e3a6c716", "fusion_lat": 0.0, "type": "electric_scooter", "lat": 38.91661216666667, "is_reserved": 0, "is_disabled": 0, "fusion_lon": 0.0, "bike_id": "e20c65f8694a5e151b25f9f4e3a6c716", "lon": -77.022953, "rental_uris": {"ios": "https://dc.lft.to/lastmile_qr_scan", "android": "https://dc.lft.to/lastmile_qr_scan"}}, {"name": "e1812f59bc4f75d3f52d36212fc92a90", "fusion_lat": 0.0, "type": "electric_bike", "lat": 38.946045833333336, "is_reserved": 0, "is_disabled": 0, "fusion_lon": 0.0, "bike_id": "e1812f59bc4f75d3f52d36212fc92a90", "lon": -77.02980733333334, "rental_uris": {"ios": "https://dc.lft.to/lastmile_qr_scan", "android": "https://dc.lft.to/lastmile_qr_scan"}}, {"name": "b6e666d47c31fdca96a4e6ec812a13dd", "fusion_lat": 0.0, "type": "electric_scooter", "lat": 38.90959083333333, "is_reserved": 0, "is_disabled": 0, "fusion_lon": 0.0, "bike_id": "b6e666d47c31fdca96a4e6ec812a13dd", "lon": -77.0113945, "rental_uris": {"ios": "https://dc.lft.to/lastmile_qr_scan", "android": "https://dc.lft.to/lastmile_qr_scan"}}, {"name": "7cbaba76228f83fb8945ecfdc9abc6a8", "fusion_lat": 0.0, "type": "electric_scooter", "lat": 38.91035816666667, "is_reserved": 0, "is_disabled": 0, "fusion_lon": 0.0, "bike_id": "7cbaba76228f83fb8945ecfdc9abc6a8", "lon": -77.0238685, "rental_uris": {"ios": "https://dc.lft.to/lastmile_qr_scan", "android": "https://dc.lft.to/lastmile_qr_scan"}}, {"name": "01d6cfafb6d017bbda00ed9a8318976c", "fusion_lat": 0.0, "type": "electric_bike", "lat": 38.854057166666664, "is_reserved": 0, "is_disabled": 0, "fusion_lon": 0.0, "bike_id": "01d6cfafb6d017bbda00ed9a8318976c", "lon": -77.11822033333333, "rental_uris": {"ios": "https://dc.lft.to/lastmile_qr_scan", "android": "https://dc.lft.to/lastmile_qr_scan"}}, {"name": "1275329a4b21038829397ed9c1d0d130", "fusion_lat": 0.0, "type": "electric_scooter", "lat": 38.91485016666667, "is_reserved": 0, "is_disabled": 0, "fusion_lon": 0.0, "bike_id": "1275329a4b21038829397ed9c1d0d130", "lon": -77.0218115, "rental_uris": {"ios": "https://dc.lft.to/lastmile_qr_scan", "android": "https://dc.lft.to/lastmile_qr_scan"}}, {"name": "0ea1e1b609fc7d166f131cf149276506", "fusion_lat": 0.0, "type": "electric_scooter", "lat": 38.89765416666667, "is_reserved": 0, "is_disabled": 0, "fusion_lon": 0.0, "bike_id": "0ea1e1b609fc7d166f131cf149276506", "lon": -76.977221, "rental_uris": {"ios": "https://dc.lft.to/lastmile_qr_scan", "android": "https://dc.lft.to/lastmile_qr_scan"}}, {"name": "81798deb5a6d1f5fd7947470627f2ddd", "fusion_lat": 0.0, "type": "electric_bike", "lat": 38.9175625, "is_reserved": 0, "is_disabled": 0, "fusion_lon": 0.0, "bike_id": "81798deb5a6d1f5fd7947470627f2ddd", "lon": -77.01603183333333, "rental_uris": {"ios": "https://dc.lft.to/lastmile_qr_scan", "android": "https://dc.lft.to/lastmile_qr_scan"}}, {"name": "5a6e45355e38873a98c164bd3893ac0d", "fusion_lat": 0.0, "type": "electric_scooter", "lat": 38.944363333333335, "is_reserved": 0, "is_disabled": 0, "fusion_lon": 0.0, "bike_id": "5a6e45355e38873a98c164bd3893ac0d", "lon": -77.032857, "rental_uris": {"ios": "https://dc.lft.to/lastmile_qr_scan", "android": "https://dc.lft.to/lastmile_qr_scan"}}, {"name": "ca0a301d53b7da6c1f5bb07aca2622e3", "fusion_lat": 0.0, "type": "electric_scooter", "lat": 38.9236035, "is_reserved": 0, "is_disabled": 0, "fusion_lon": 0.0, "bike_id": "ca0a301d53b7da6c1f5bb07aca2622e3", "lon": -77.058396, "rental_uris": {"ios": "https://dc.lft.to/lastmile_qr_scan", "android": "https://dc.lft.to/lastmile_qr_scan"}}, {"name": "2e6f9d4a1ef90d1ce0291f5489f35791", "fusion_lat": 0.0, "type": "electric_scooter", "lat": 38.9251435, "is_reserved": 0, "is_disabled": 0, "fusion_lon": 0.0, "bike_id": "2e6f9d4a1ef90d1ce0291f5489f35791", "lon": -77.0017065, "rental_uris": {"ios": "https://dc.lft.to/lastmile_qr_scan", "android": "https://dc.lft.to/lastmile_qr_scan"}}, {"name": "85fecca2386e4634ccfb1999fe878cda", "fusion_lat": 0.0, "type": "electric_scooter", "lat": 38.912699833333335, "is_reserved": 0, "is_disabled": 0, "fusion_lon": 0.0, "bike_id": "85fecca2386e4634ccfb1999fe878cda", "lon": -77.04503416666667, "rental_uris": {"ios": "https://dc.lft.to/lastmile_qr_scan", "android": "https://dc.lft.to/lastmile_qr_scan"}}, {"name": "794d743643a203d01361bf7b240d8cdb", "fusion_lat": 0.0, "type": "electric_scooter", "lat": 38.896178166666665, "is_reserved": 0, "is_disabled": 0, "fusion_lon": 0.0, "bike_id": "794d743643a203d01361bf7b240d8cdb", "lon": -77.04464833333333, "rental_uris": {"ios": "https://dc.lft.to/lastmile_qr_scan", "android": "https://dc.lft.to/lastmile_qr_scan"}}, {"name": "0c5689f1db4e697a9db8b6e66f4a18ed", "fusion_lat": 0.0, "type": "electric_scooter", "lat": 38.89523233333333, "is_reserved": 0, "is_disabled": 0, "fusion_lon": 0.0, "bike_id": "0c5689f1db4e697a9db8b6e66f4a18ed", "lon": -77.01139083333334, "rental_uris": {"ios": "https://dc.lft.to/lastmile_qr_scan", "android": "https://dc.lft.to/lastmile_qr_scan"}}, {"name": "a55c346af4ae2c00ab69f8193074419c", "fusion_lat": 0.0, "type": "electric_scooter", "lat": 38.928499, "is_reserved": 0, "is_disabled": 0, "fusion_lon": 0.0, "bike_id": "a55c346af4ae2c00ab69f8193074419c", "lon": -77.02733883333333, "rental_uris": {"ios": "https://dc.lft.to/lastmile_qr_scan", "android": "https://dc.lft.to/lastmile_qr_scan"}}, {"name": "32ea78e3efb119480f3ada0d44725c74", "fusion_lat": 0.0, "type": "electric_scooter", "lat": 38.919308, "is_reserved": 0, "is_disabled": 0, "fusion_lon": 0.0, "bike_id": "32ea78e3efb119480f3ada0d44725c74", "lon": -77.03423183333334, "rental_uris": {"ios": "https://dc.lft.to/lastmile_qr_scan", "android": "https://dc.lft.to/lastmile_qr_scan"}}, {"name": "378573468ad1011034c4f459fea34fe4", "fusion_lat": 0.0, "type": "electric_scooter", "lat": 38.90682783333333, "is_reserved": 0, "is_disabled": 0, "fusion_lon": 0.0, "bike_id": "378573468ad1011034c4f459fea34fe4", "lon": -77.04646666666666, "rental_uris": {"ios": "https://dc.lft.to/lastmile_qr_scan", "android": "https://dc.lft.to/lastmile_qr_scan"}}, {"name": "1ae9150e5440d7fc806161516657eca5", "fusion_lat": 0.0, "type": "electric_scooter", "lat": 38.90197116666667, "is_reserved": 0, "is_disabled": 0, "fusion_lon": 0.0, "bike_id": "1ae9150e5440d7fc806161516657eca5", "lon": -76.98210533333334, "rental_uris": {"ios": "https://dc.lft.to/lastmile_qr_scan", "android": "https://dc.lft.to/lastmile_qr_scan"}}, {"name": "a2b7fc222e0c1750b2097e00d698008a", "fusion_lat": 0.0, "type": "electric_scooter", "lat": 38.91768316666667, "is_reserved": 0, "is_disabled": 0, "fusion_lon": 0.0, "bike_id": "a2b7fc222e0c1750b2097e00d698008a", "lon": -77.09672516666667, "rental_uris": {"ios": "https://dc.lft.to/lastmile_qr_scan", "android": "https://dc.lft.to/lastmile_qr_scan"}}, {"name": "06d523cae3ad7dfb43e7bf1a9590939c", "fusion_lat": 0.0, "type": "electric_scooter", "lat": 38.9096175, "is_reserved": 0, "is_disabled": 0, "fusion_lon": 0.0, "bike_id": "06d523cae3ad7dfb43e7bf1a9590939c", "lon": -77.02746883333333, "rental_uris": {"ios": "https://dc.lft.to/lastmile_qr_scan", "android": "https://dc.lft.to/lastmile_qr_scan"}}, {"name": "ab12b90e81f99f1385afc4c5c0fe35da", "fusion_lat": 0.0, "type": "electric_scooter", "lat": 38.92512933333333, "is_reserved": 0, "is_disabled": 0, "fusion_lon": 0.0, "bike_id": "ab12b90e81f99f1385afc4c5c0fe35da", "lon": -77.033193, "rental_uris": {"ios": "https://dc.lft.to/lastmile_qr_scan", "android": "https://dc.lft.to/lastmile_qr_scan"}}, {"name": "22968793490e5712df2d743dfb18ebf9", "fusion_lat": 0.0, "type": "electric_scooter", "lat": 38.86659, "is_reserved": 0, "is_disabled": 0, "fusion_lon": 0.0, "bike_id": "22968793490e5712df2d743dfb18ebf9", "lon": -76.9888415, "rental_uris": {"ios": "https://dc.lft.to/lastmile_qr_scan", "android": "https://dc.lft.to/lastmile_qr_scan"}}, {"name": "97ef7d033387a6afdb7f32fcb8482045", "fusion_lat": 0.0, "type": "electric_scooter", "lat": 38.9192605, "is_reserved": 0, "is_disabled": 0, "fusion_lon": 0.0, "bike_id": "97ef7d033387a6afdb7f32fcb8482045", "lon": -77.0415705, "rental_uris": {"ios": "https://dc.lft.to/lastmile_qr_scan", "android": "https://dc.lft.to/lastmile_qr_scan"}}, {"name": "c9f1c96554e883b1640478b782b71868", "fusion_lat": 0.0, "type": "electric_scooter", "lat": 38.9247385, "is_reserved": 0, "is_disabled": 0, "fusion_lon": 0.0, "bike_id": "c9f1c96554e883b1640478b782b71868", "lon": -77.02891983333333, "rental_uris": {"ios": "https://dc.lft.to/lastmile_qr_scan", "android": "https://dc.lft.to/lastmile_qr_scan"}}, {"name": "5de2a1e12e3e420e5eff589819cff745", "fusion_lat": 0.0, "type": "electric_scooter", "lat": 38.91110416666667, "is_reserved": 0, "is_disabled": 0, "fusion_lon": 0.0, "bike_id": "5de2a1e12e3e420e5eff589819cff745", "lon": -77.02462883333334, "rental_uris": {"ios": "https://dc.lft.to/lastmile_qr_scan", "android": "https://dc.lft.to/lastmile_qr_scan"}}, {"name": "ff85ae2d71fac5471d502493d4ddf136", "fusion_lat": 0.0, "type": "electric_scooter", "lat": 38.88374116666667, "is_reserved": 0, "is_disabled": 0, "fusion_lon": 0.0, "bike_id": "ff85ae2d71fac5471d502493d4ddf136", "lon": -76.923716, "rental_uris": {"ios": "https://dc.lft.to/lastmile_qr_scan", "android": "https://dc.lft.to/lastmile_qr_scan"}}, {"name": "c549d1f2de9ecc89a915f2be9cf41601", "fusion_lat": 0.0, "type": "electric_scooter", "lat": 38.93900516666667, "is_reserved": 0, "is_disabled": 0, "fusion_lon": 0.0, "bike_id": "c549d1f2de9ecc89a915f2be9cf41601", "lon": -77.0328225, "rental_uris": {"ios": "https://dc.lft.to/lastmile_qr_scan", "android": "https://dc.lft.to/lastmile_qr_scan"}}, {"name": "b576c4f12363f5d7f6663a23a64c2540", "fusion_lat": 0.0, "type": "electric_scooter", "lat": 38.8728855, "is_reserved": 0, "is_disabled": 0, "fusion_lon": 0.0, "bike_id": "b576c4f12363f5d7f6663a23a64c2540", "lon": -77.0098685, "rental_uris": {"ios": "https://dc.lft.to/lastmile_qr_scan", "android": "https://dc.lft.to/lastmile_qr_scan"}}, {"name": "1ad0a87ee18e495b8ff2e68302bc18ab", "fusion_lat": 0.0, "type": "electric_bike", "lat": 38.99349266666667, "is_reserved": 0, "is_disabled": 0, "fusion_lon": 0.0, "bike_id": "1ad0a87ee18e495b8ff2e68302bc18ab", "lon": -77.02662666666667, "rental_uris": {"ios": "https://dc.lft.to/lastmile_qr_scan", "android": "https://dc.lft.to/lastmile_qr_scan"}}, {"name": "37299004691837aedf8fa6c9da265a0f", "fusion_lat": 0.0, "type": "electric_scooter", "lat": 38.90844366666666, "is_reserved": 0, "is_disabled": 0, "fusion_lon": 0.0, "bike_id": "37299004691837aedf8fa6c9da265a0f", "lon": -77.03182866666667, "rental_uris": {"ios": "https://dc.lft.to/lastmile_qr_scan", "android": "https://dc.lft.to/lastmile_qr_scan"}}, {"name": "0b79535370774025b4a680c9b57c9f72", "fusion_lat": 0.0, "type": "electric_scooter", "lat": 38.9118475, "is_reserved": 0, "is_disabled": 0, "fusion_lon": 0.0, "bike_id": "0b79535370774025b4a680c9b57c9f72", "lon": -77.04152666666667, "rental_uris": {"ios": "https://dc.lft.to/lastmile_qr_scan", "android": "https://dc.lft.to/lastmile_qr_scan"}}, {"name": "e6940f764fc9f8b830f2504085245754", "fusion_lat": 0.0, "type": "electric_scooter", "lat": 38.94464683333333, "is_reserved": 0, "is_disabled": 0, "fusion_lon": 0.0, "bike_id": "e6940f764fc9f8b830f2504085245754", "lon": -77.00656433333333, "rental_uris": {"ios": "https://dc.lft.to/lastmile_qr_scan", "android": "https://dc.lft.to/lastmile_qr_scan"}}, {"name": "08ef5ef3d8cf9204a0e87d713e64b107", "fusion_lat": 0.0, "type": "electric_scooter", "lat": 38.90373316666667, "is_reserved": 0, "is_disabled": 0, "fusion_lon": 0.0, "bike_id": "08ef5ef3d8cf9204a0e87d713e64b107", "lon": -77.0426135, "rental_uris": {"ios": "https://dc.lft.to/lastmile_qr_scan", "android": "https://dc.lft.to/lastmile_qr_scan"}}, {"name": "f38bc24a05dfc5a33874781139382784", "fusion_lat": 0.0, "type": "electric_scooter", "lat": 38.90935733333333, "is_reserved": 0, "is_disabled": 0, "fusion_lon": 0.0, "bike_id": "f38bc24a05dfc5a33874781139382784", "lon": -77.04666166666667, "rental_uris": {"ios": "https://dc.lft.to/lastmile_qr_scan", "android": "https://dc.lft.to/lastmile_qr_scan"}}, {"name": "d944ee673145b4951a8ad6a362d47c9b", "fusion_lat": 0.0, "type": "electric_scooter", "lat": 38.8987525, "is_reserved": 0, "is_disabled": 0, "fusion_lon": 0.0, "bike_id": "d944ee673145b4951a8ad6a362d47c9b", "lon": -77.03337516666667, "rental_uris": {"ios": "https://dc.lft.to/lastmile_qr_scan", "android": "https://dc.lft.to/lastmile_qr_scan"}}, {"name": "c7f6f67d19aba60a97ef9e4df9d5ce53", "fusion_lat": 0.0, "type": "electric_scooter", "lat": 38.93568583333333, "is_reserved": 0, "is_disabled": 0, "fusion_lon": 0.0, "bike_id": "c7f6f67d19aba60a97ef9e4df9d5ce53", "lon": -77.02124716666667, "rental_uris": {"ios": "https://dc.lft.to/lastmile_qr_scan", "android": "https://dc.lft.to/lastmile_qr_scan"}}, {"name": "be2d4dc47ac2050e83d8e502cfaaaaa7", "fusion_lat": 0.0, "type": "electric_scooter", "lat": 38.935604833333336, "is_reserved": 0, "is_disabled": 0, "fusion_lon": 0.0, "bike_id": "be2d4dc47ac2050e83d8e502cfaaaaa7", "lon": -77.021384, "rental_uris": {"ios": "https://dc.lft.to/lastmile_qr_scan", "android": "https://dc.lft.to/lastmile_qr_scan"}}, {"name": "d4bd265e1f0539b5cb5f6b821b984913", "fusion_lat": 0.0, "type": "electric_scooter", "lat": 38.93111233333333, "is_reserved": 0, "is_disabled": 0, "fusion_lon": 0.0, "bike_id": "d4bd265e1f0539b5cb5f6b821b984913", "lon": -77.02402583333334, "rental_uris": {"ios": "https://dc.lft.to/lastmile_qr_scan", "android": "https://dc.lft.to/lastmile_qr_scan"}},