{"data": {"bikes": [{"fusion_lon": 0.0, "is_reserved": 0, "bike_id": "cfc942351b43eab4e52c1ca43956f04e", "lon": -77.037708, "name": "cfc942351b43eab4e52c1ca43956f04e", "lat": 38.90871216666667, "fusion_lat": 0.0, "rental_uris": {"ios": "https://dc.lft.to/lastmile_qr_scan", "android": "https://dc.lft.to/lastmile_qr_scan"}, "is_disabled": 0, "type": "electric_scooter"}, {"fusion_lon": 0.0, "is_reserved": 0, "bike_id": "a7f3656af7e84c8de67c00072e4c95aa", "lon": -77.06611466666666, "name": "a7f3656af7e84c8de67c00072e4c95aa", "lat": 38.93657683333333, "fusion_lat": 0.0, "rental_uris": {"ios": "https://dc.lft.to/lastmile_qr_scan", "android": "https://dc.lft.to/lastmile_qr_scan"}, "is_disabled": 0, "type": "electric_scooter"}, {"fusion_lon": 0.0, "is_reserved": 0, "bike_id": "7f41dc0a3dcbfb156963c9b2acf743d8", "lon": -77.03176583333334, "name": "7f41dc0a3dcbfb156963c9b2acf743d8", "lat": 38.920934833333334, "fusion_lat": 0.0, "rental_uris": {"ios": "https://dc.lft.to/lastmile_qr_scan", "android": "https://dc.lft.to/lastmile_qr_scan"}, "is_disabled": 0, "type": "electric_scooter"}, {"fusion_lon": 0.0, "is_reserved": 0, "bike_id": "f23ecd144ac2a1ac314d2e4d7f71cc8a", "lon": -77.02303, "name": "f23ecd144ac2a1ac314d2e4d7f71cc8a", "lat": 38.9160985, "fusion_lat": 0.0, "rental_uris": {"ios": "https://dc.lft.to/lastmile_qr_scan", "android": "https://dc.lft.to/lastmile_qr_scan"}, "is_disabled": 0, "type": "electric_scooter"}, {"fusion_lon": 0.0, "is_reserved": 0, "bike_id": "5e048841320314e2ef3ffd99b971fc3f", "lon": -77.02945933333334, "name": "5e048841320314e2ef3ffd99b971fc3f", "lat": 38.9013745, "fusion_lat": 0.0, "rental_uris": {"ios": "https://dc.lft.to/lastmile_qr_scan", "android": "https://dc.lft.to/lastmile_qr_scan"}, "is_disabled": 0, "type": "electric_scooter"}, {"fusion_lon": 0.0, "is_reserved": 0, "bike_id": "f6fa3faffb1aa209fe3738d16db0ada0", "lon": -77.00228316666667, "name": "f6fa3faffb1aa209fe3738d16db0ada0", "lat": 38.92509233333333, "fusion_lat": 0.0, "rental_uris": {"ios": "https://dc.lft.to/lastmile_qr_scan", "android": "https://dc.lft.to/lastmile_qr_scan"}, "is_disabled": 0, "type": "electric_scooter"}, {"fusion_lon": 0.0, "is_reserved": 0, "bike_id": "138e86df905ad25ce3fbb348041eb427", "lon": -77.07328683333333, "name": "138e86df905ad25ce3fbb348041eb427", "lat": 38.9263275, "fusion_lat": 0.0, "rental_uris": {"ios": "https://dc.lft.to/lastmile_qr_scan", "android": "https://dc.lft.to/lastmile_qr_scan"}, "is_disabled": 0, "type": "electric_scooter"}, {"fusion_lon": 0.0, "is_reserved": 0, "bike_id": "13843de46f9e8c972a17287892e76ae8", "lon": -77.02842916666667, "name": "13843de46f9e8c972a17287892e76ae8", "lat": 38.8871795, "fusion_lat": 0.0, "rental_uris": {"ios": "https://dc.lft.to/lastmile_qr_scan", "android": "https://dc.lft.to/lastmile_qr_scan"}, "is_disabled": 0, "type": "electric_scooter"}, {"fusion_lon": 0.0, "is_reserved": 0, "bike_id": "6a49ab9dc2b08613a19e5edc34965b58", "lon": -77.04805183333333, "name": "6a49ab9dc2b08613a19e5edc34965b58", "lat": 38.9003895, "fusion_lat": 0.0, "rental_uris": {"ios": "https://dc.lft.to/lastmile_qr_scan", "android": "https://dc.lft.to/lastmile_qr_scan"}, "is_disabled": 0, "type": "electric_scooter"}, {"fusion_lon": 0.0, "is_reserved": 0, "bike_id": "b85ceb8035b8f698bf2ddb96804b34cc", "lon": -77.0010665, "name": "b85ceb8035b8f698bf2ddb96804b34cc", "lat": 38.8738255, "fusion_lat": 0.0, "rental_uris": {"ios": "https://dc.lft.to/lastmile_qr_scan", "android": "https://dc.lft.to/lastmile_qr_scan"}, "is_disabled": 0, "type": "electric_scooter"}, {"fusion_lon": 0.0, "is_reserved": 0, "bike_id": "43af8af70eda7af757fdd433bd081fdb", "lon": -77.05339666666667, "name": "43af8af70eda7af757fdd433bd081fdb", "lat": 38.90536016666667, "fusion_lat": 0.0, "rental_uris": {"ios": "https://dc.lft.to/lastmile_qr_scan", "android": "https://dc.lft.to/lastmile_qr_scan"}, "is_disabled": 0, "type": "electric_scooter"}, {"fusion_lon": 0.0, "is_reserved": 0, "bike_id": "b5e1a447fc98c490e72ecb9bdae083de", "lon": -77.0194535, "name": "b5e1a447fc98c490e72ecb9bdae083de", "lat": 38.92267733333333, "fusion_lat": 0.0, "rental_uris": {"ios": "https://dc.lft.to/lastmile_qr_scan", "android": "https://dc.lft.to/lastmile_qr_scan"}, "is_disabled": 0, "type": "electric_scooter"}, {"fusion_lon": 0.0, "is_reserved": 0, "bike_id": "087be34c0cee61ffe2276b070d69bc1f", "lon": -77.00218583333333, "name": "087be34c0cee61ffe2276b070d69bc1f", "lat": 38.886386333333334, "fusion_lat": 0.0, "rental_uris": {"ios": "https://dc.lft.to/lastmile_qr_scan", "android": "https://dc.lft.to/lastmile_qr_scan"}, "is_disabled": 0, "type": "electric_scooter"}, {"fusion_lon": 0.0, "is_reserved": 0, "bike_id": "679c5f843a9e8bf5219dfc75bd06f43b", "lon": -77.04490866666667, "name": "679c5f843a9e8bf5219dfc75bd06f43b", "lat": 38.918736, "fusion_lat": 0.0, "rental_uris": {"ios": "https://dc.lft.to/lastmile_qr_scan", "android": "https://dc.lft.to/lastmile_qr_scan"}, "is_disabled": 0, "type": "electric_scooter"}, {"fusion_lon": 0.0, "is_reserved": 0, "bike_id": "47a869c3a0bfb11d79ef9fdc656ec178", "lon": -77.0295485, "name": "47a869c3a0bfb11d79ef9fdc656ec178", "lat": 38.905023, "fusion_lat": 0.0, "rental_uris": {"ios": "https://dc.lft.to/lastmile_qr_scan", "android": "https://dc.lft.to/lastmile_qr_scan"}, "is_disabled": 0, "type": "electric_scooter"}, {"fusion_lon": 0.0, "is_reserved": 0, "bike_id": "d0e392932c48df3bff84bcc4042cea47", "lon": -77.02155616666667, "name": "d0e392932c48df3bff84bcc4042cea47", "lat": 38.92443866666667, "fusion_lat": 0.0, "rental_uris": {"ios": "https://dc.lft.to/lastmile_qr_scan", "android": "https://dc.lft.to/lastmile_qr_scan"}, "is_disabled": 0, "type": "electric_scooter"}, {"fusion_lon": 0.0, "is_reserved": 0, "bike_id": "bfb78596fd35486cba17c425409fa7c5", "lon": -77.00513033333333, "name": "bfb78596fd35486cba17c425409fa7c5", "lat": 38.960458833333334, "fusion_lat": 0.0, "rental_uris": {"ios": "https://dc.lft.to/lastmile_qr_scan", "android": "https://dc.lft.to/lastmile_qr_scan"}, "is_disabled": 0, "type": "electric_scooter"}, {"fusion_lon": 0.0, "is_reserved": 0, "bike_id": "ef058192579a65ea477629e1260f80a1", "lon": -77.0433955, "name": "ef058192579a65ea477629e1260f80a1", "lat": 38.930625166666665, "fusion_lat": 0.0, "rental_uris": {"ios": "https://dc.lft.to/lastmile_qr_scan", "android": "https://dc.lft.to/lastmile_qr_scan"}, "is_disabled": 0, "type": "electric_scooter"}, {"fusion_lon": 0.0, "is_reserved": 0, "bike_id": "3347e113c305f5ecb2eab4101ee6d7aa", "lon": -77.01745816666667, "name": "3347e113c305f5ecb2eab4101ee6d7aa", "lat": 38.9012295, "fusion_lat": 0.0, "rental_uris": {"ios": "https://dc.lft.to/lastmile_qr_scan", "android": "https://dc.lft.to/lastmile_qr_scan"}, "is_disabled": 0, "type": "electric_scooter"}, {"fusion_lon": 0.0, "is_reserved": 0, "bike_id": "4974c54aec10da3ed8dafa2cb68e8321", "lon": -77.04226633333333, "name": "4974c54aec10da3ed8dafa2cb68e8321", "lat": 38.92293433333333, "fusion_lat": 0.0, "rental_uris": {"ios": "https://dc.lft.to/lastmile_qr_scan", "android": "https://dc.lft.to/lastmile_qr_scan"}, "is_disabled": 0, "type": "electric_scooter"}, {"fusion_lon": 0.0, "is_reserved": 0, "bike_id": "ccbf866948f7f6207044e8522b8dcd6d", "lon": -76.93177716666666, "name": "ccbf866948f7f6207044e8522b8dcd6d", "lat": 38.898847333333336, "fusion_lat": 0.0, "rental_uris": {"ios": "https://dc.lft.to/lastmile_qr_scan", "android": "https://dc.lft.to/lastmile_qr_scan"}, "is_disabled": 0, "type": "electric_scooter"}, {"fusion_lon": 0.0, "is_reserved": 0, "bike_id": "fdf1bb4771cc3041f4a33fcff1fe2ddf", "lon": -77.03139833333333, "name": "fdf1bb4771cc3041f4a33fcff1fe2ddf", "lat": 38.92378016666667, "fusion_lat": 0.0, "rental_uris": {"ios": "https://dc.lft.to/lastmile_qr_scan", "android": "https://dc.lft.to/lastmile_qr_scan"}, "is_disabled": 0, "type": "electric_scooter"}, {"fusion_lon": 0.0, "is_reserved": 0, "bike_id": "cbc0d6dc96c2ba19fc2b1653210bbd5d", "lon": -77.0395435, "name": "cbc0d6dc96c2ba19fc2b1653210bbd5d", "lat": 38.92483683333333, "fusion_lat": 0.0, "rental_uris": {"ios": "https://dc.lft.to/lastmile_qr_scan", "android": "https://dc.lft.to/lastmile_qr_scan"}, "is_disabled": 0, "type": "electric_scooter"}, {"fusion_lon": 0.0, "is_reserved": 0, "bike_id": "40cd687430f9ecf22841b26cd1c6957f", "lon": -77.04358966666666, "name": "40cd687430f9ecf22841b26cd1c6957f", "lat": 38.896891833333335, "fusion_lat": 0.0, "rental_uris": {"ios": "https://dc.lft.to/lastmile_qr_scan", "android": "https://dc.lft.to/lastmile_qr_scan"}, "is_disabled": 0, "type": "electric_scooter"}, {"fusion_lon": 0.0, "is_reserved": 0, "bike_id": "84bc15dc89c0f526a0cd19f606b66fca", "lon": -77.03794016666667, "name": "84bc15dc89c0f526a0cd19f606b66fca", "lat": 38.920671, "fusion_lat": 0.0, "rental_uris": {"ios": "https://dc.lft.to/lastmile_qr_scan", "android": "https://dc.lft.to/lastmile_qr_scan"}, "is_disabled": 0, "type": "electric_scooter"}, {"fusion_lon": 0.0, "is_reserved": 0, "bike_id": "8cea75812b01e60a8acf6757986cba59", "lon": -77.03364116666667, "name": "8cea75812b01e60a8acf6757986cba59", "lat": 38.9191975, "fusion_lat": 0.0, "rental_uris": {"ios": "https://dc.lft.to/lastmile_qr_scan", "android": "https://dc.lft.to/lastmile_qr_scan"}, "is_disabled": 0, "type": "electric_scooter"}, {"fusion_lon": 0.0, "is_reserved": 0, "bike_id": "efd21ed56b8ec2e23fa1e0d211fc1f8e", "lon": -77.03424383333333, "name": "efd21ed56b8ec2e23fa1e0d211fc1f8e", "lat": 38.935383, "fusion_lat": 0.0, "rental_uris": {"ios": "https://dc.lft.to/lastmile_qr_scan", "android": "https://dc.lft.to/lastmile_qr_scan"}, "is_disabled": 0, "type": "electric_scooter"}, {"fusion_lon": 0.0, "is_reserved": 0, "bike_id": "a07feb8a20808c3a34d6594f2426f169", "lon": -76.9981925, "name": "a07feb8a20808c3a34d6594f2426f169", "lat": 38.9292335, "fusion_lat": 0.0, "rental_uris": {"ios": "https://dc.lft.to/lastmile_qr_scan", "android": "https://dc.lft.to/lastmile_qr_scan"}, "is_disabled": 0, "type": "electric_scooter"}, {"fusion_lon": 0.0, "is_reserved": 0, "bike_id": "194cd93a6bd074a5a4c007c5f9ce32ac", "lon": -77.00032333333333, "name": "194cd93a6bd074a5a4c007c5f9ce32ac", "lat": 38.873809666666666, "fusion_lat": 0.0, "rental_uris": {"ios": "https://dc.lft.to/lastmile_qr_scan", "android": "https://dc.lft.to/lastmile_qr_scan"}, "is_disabled": 0, "type": "electric_scooter"}, {"fusion_lon": 0.0, "is_reserved": 0, "bike_id": "c4459f3687c98a8498ec1377861c0314", "lon": -77.02376216666667, "name": "c4459f3687c98a8498ec1377861c0314", "lat": 38.902226666666664, "fusion_lat": 0.0, "rental_uris": {"ios": "https://dc.lft.to/lastmile_qr_scan", "android": "https://dc.lft.to/lastmile_qr_scan"}, "is_disabled": 0, "type": "electric_scooter"}, {"fusion_lon": 0.0, "is_reserved": 0, "bike_id": "5551fab4526b27d9037faddec1e4b05b", "lon": -77.04021166666666, "name": "5551fab4526b27d9037faddec1e4b05b", "lat": 38.90151733333333, "fusion_lat": 0.0, "rental_uris": {"ios": "https://dc.lft.to/lastmile_qr_scan", "android": "https://dc.lft.to/lastmile_qr_scan"}, "is_disabled": 0, "type": "electric_scooter"}, {"fusion_lon": 0.0, "is_reserved": 0, "bike_id": "3c163d7d1621a4ffb92dc5bea53943bf", "lon": -77.03779983333334, "name": "3c163d7d1621a4ffb92dc5bea53943bf", "lat": 38.91706966666667, "fusion_lat": 0.0, "rental_uris": {"ios": "https://dc.lft.to/lastmile_qr_scan", "android": "https://dc.lft.to/lastmile_qr_scan"}, "is_disabled": 0, "type": "electric_scooter"}, {"fusion_lon": 0.0, "is_reserved": 0, "bike_id": "c22730cc56097a4693b739a002df9261", "lon": -77.04145283333334, "name": "c22730cc56097a4693b739a002df9261", "lat": 38.9339945, "fusion_lat": 0.0, "rental_uris": {"ios": "https://dc.lft.to/lastmile_qr_scan", "android": "https://dc.lft.to/lastmile_qr_scan"}, "is_disabled": 0, "type": "electric_scooter"}, {"fusion_lon": 0.0, "is_reserved": 0, "bike_id": "8022ac44bf2abf1ecfd2bd18cef44f78", "lon": -77.02138416666666, "name": "8022ac44bf2abf1ecfd2bd18cef44f78", "lat": 38.93765833333333, "fusion_lat": 0.0, "rental_uris": {"ios": "https://dc.lft.to/lastmile_qr_scan", "android": "https://dc.lft.to/lastmile_qr_scan"}, "is_disabled": 0, "type": "electric_scooter"}, {"fusion_lon": 0.0, "is_reserved": 0, "bike_id": "9602fc74769d49dc7645979785ce5b5f", "lon": -77.04908466666667, "name": "9602fc74769d49dc7645979785ce5b5f", "lat": 38.89897416666667, "fusion_lat": 0.0, "rental_uris": {"ios": "https://dc.lft.to/lastmile_qr_scan", "android": "https://dc.lft.to/lastmile_qr_scan"}, "is_disabled": 0, "type": "electric_scooter"}, {"fusion_lon": 0.0, "is_reserved": 0, "bike_id": "328e9809b2123c38ac491b93ddea6f2b", "lon": -77.01485516666666, "name": "328e9809b2123c38ac491b93ddea6f2b", "lat": 38.88505766666667, "fusion_lat": 0.0, "rental_uris": {"ios": "https://dc.lft.to/lastmile_qr_scan", "android": "https://dc.lft.to/lastmile_qr_scan"}, "is_disabled": 0, "type": "electric_scooter"}, {"fusion_lon": 0.0, "is_reserved": 0, "bike_id": "722cbfbd46f1fc2f4329fd60241594c9", "lon": -77.03185966666666, "name": "722cbfbd46f1fc2f4329fd60241594c9", "lat": 38.92018683333333, "fusion_lat": 0.0, "rental_uris": {"ios": "https://dc.lft.to/lastmile_qr_scan", "android": "https://dc.lft.to/lastmile_qr_scan"}, "is_disabled": 0, "type": "electric_scooter"}, {"fusion_lon": 0.0, "is_reserved": 0, "bike_id": "69ca551a4f1edf104dd8dde2d2f4b6b6", "lon": -77.018031, "name": "69ca551a4f1edf104dd8dde2d2f4b6b6", "lat": 38.92144533333333, "fusion_lat": 0.0, "rental_uris": {"ios": "https://dc.lft.to/lastmile_qr_scan", "android": "https://dc.lft.to/lastmile_qr_scan"}, "is_disabled": 0, "type": "electric_scooter"}, {"fusion_lon": 0.0, "is_reserved": 0, "bike_id": "12b50a3e454fddc0c149a54123268065", "lon": -77.02212066666667, "name": "12b50a3e454fddc0c149a54123268065", "lat": 38.9127125, "fusion_lat": 0.0, "rental_uris": {"ios": "https://dc.lft.to/lastmile_qr_scan", "android": "https://dc.lft.to/lastmile_qr_scan"}, "is_disabled": 0, "type": "electric_scooter"}, {"fusion_lon": 0.0, "is_reserved": 0, "bike_id": "3eaa60d82cb496603839de31130a3b66", "lon": -77.03178516666667, "name": "3eaa60d82cb496603839de31130a3b66", "lat": 38.915458, "fusion_lat": 0.0, "rental_uris": {"ios": "https://dc.lft.to/lastmile_qr_scan", "android": "https://dc.lft.to/lastmile_qr_scan"}, "is_disabled": 0, "type": "electric_scooter"}, {"fusion_lon": 0.0, "is_reserved": 0, "bike_id": "407f1c8d5a83d73585fefb543103e02d", "lon": -76.99492716666667, "name": "407f1c8d5a83d73585fefb543103e02d", "lat": 38.838724666666664, "fusion_lat": 0.0, "rental_uris": {"ios": "https://dc.lft.to/lastmile_qr_scan", "android": "https://dc.lft.to/lastmile_qr_scan"}, "is_disabled": 0, "type": "electric_bike"}, {"fusion_lon": 0.0, "is_reserved": 0, "bike_id": "f55d12c6856ff72a2315292bad8e6326", "lon": -77.05323716666666, "name": "f55d12c6856ff72a2315292bad8e6326", "lat": 38.918324166666665, "fusion_lat": 0.0, "rental_uris": {"ios": "https://dc.lft.to/lastmile_qr_scan", "android": "https://dc.lft.to/lastmile_qr_scan"}, "is_disabled": 0, "type": "electric_scooter"}, {"fusion_lon": 0.0, "is_reserved": 0, "bike_id": "208a10bfd7efe227fe52b0ac7eadd4ea", "lon": -77.0021375, "name": "208a10bfd7efe227fe52b0ac7eadd4ea", "lat": 38.87777333333333, "fusion_lat": 0.0, "rental_uris": {"ios": "https://dc.lft.to/lastmile_qr_scan", "android": "https://dc.lft.to/lastmile_qr_scan"}, "is_disabled": 0, "type": "electric_scooter"}, {"fusion_lon": 0.0, "is_reserved": 0, "bike_id": "2d02828090d666db25e9bf906ff8c493", "lon": -77.0095395, "name": "2d02828090d666db25e9bf906ff8c493", "lat": 38.897546166666665, "fusion_lat": 0.0, "rental_uris": {"ios": "https://dc.lft.to/lastmile_qr_scan", "android": "https://dc.lft.to/lastmile_qr_scan"}, "is_disabled": 0, "type": "electric_scooter"}, {"fusion_lon": 0.0, "is_reserved": 0, "bike_id": "e5853a2e1a1dd98f8cd1229bd9fe3152", "lon": -77.08080116666666, "name": "e5853a2e1a1dd98f8cd1229bd9fe3152", "lat": 38.90862583333333, "fusion_lat": 0.0, "rental_uris": {"ios": "https://dc.lft.to/lastmile_qr_scan", "android": "https://dc.lft.to/lastmile_qr_scan"}, "is_disabled": 0, "type": "electric_bike"}, {"fusion_lon": 0.0, "is_reserved": 0, "bike_id": "17d4cceb601d02956cc834e33f53111b", "lon": -77.01590133333333, "name": "17d4cceb601d02956cc834e33f53111b", "lat": 38.930106333333335, "fusion_lat": 0.0, "rental_uris": {"ios": "https://dc.lft.to/lastmile_qr_scan", "android": "https://dc.lft.to/lastmile_qr_scan"}, "is_disabled": 0, "type": "electric_scooter"}, {"fusion_lon": 0.0, "is_reserved": 0, "bike_id": "3fff169c2eb434cad2d7ab6c69c22019", "lon": -76.970725, "name": "3fff169c2eb434cad2d7ab6c69c22019", "lat": 38.84644183333333, "fusion_lat": 0.0, "rental_uris": {"ios": "https://dc.lft.to/lastmile_qr_scan", "android": "https://dc.lft.to/lastmile_qr_scan"}, "is_disabled": 0, "type": "electric_bike"}, {"fusion_lon": 0.0, "is_reserved": 0, "bike_id": "1b57529b660b92279660fe4ea87b4ab8", "lon": -76.996624, "name": "1b57529b660b92279660fe4ea87b4ab8", "lat": 38.878622166666666, "fusion_lat": 0.0, "rental_uris": {"ios": "https://dc.lft.to/lastmile_qr_scan", "android": "https://dc.lft.to/lastmile_qr_scan"}, "is_disabled": 0, "type": "electric_scooter"}, {"fusion_lon": 0.0, "is_reserved": 0, "bike_id": "d7a5436d41707df9ee4eda4fb306428d", "lon": -76.98481716666667, "name": "d7a5436d41707df9ee4eda4fb306428d", "lat": 38.902575, "fusion_lat": 0.0, "rental_uris": {"ios": "https://dc.lft.to/lastmile_qr_scan", "android": "https://dc.lft.to/lastmile_qr_scan"}, "is_disabled": 0, "type": "electric_scooter"}, {"fusion_lon": 0.0, "is_reserved": 0, "bike_id": "241cc4afbc2f83b417a1afd562891bac", "lon": -77.03219, "name": "241cc4afbc2f83b417a1afd562891bac", "lat": 38.909491333333335, "fusion_lat": 0.0, "rental_uris": {"ios": "https://dc.lft.to/lastmile_qr_scan", "android": "https://dc.lft.to/lastmile_qr_scan"}, "is_disabled": 0, "type": "electric_scooter"}, {"fusion_lon": 0.0, "is_reserved": 0, "bike_id": "e4cf6ec0d0bf36eb01ff53324beee149", "lon": -77.0066335, "name": "e4cf6ec0d0bf36eb01ff53324beee149", "lat": 38.8717625, "fusion_lat": 0.0, "rental_uris": {"ios": "https://dc.lft.to/lastmile_qr_scan", "android": "https://dc.lft.to/lastmile_qr_scan"}, "is_disabled": 0, "type": "electric_scooter"}, {"fusion_lon": 0.0, "is_reserved": 0, "bike_id": "9479c47bedb9f096f4794b09226ca335", "lon": -77.0267115, "name": "9479c47bedb9f096f4794b09226ca335", "lat": 38.894618333333334, "fusion_lat": 0.0, "rental_uris": {"ios": "https://dc.lft.to/lastmile_qr_scan", "android": "https://dc.lft.to/lastmile_qr_scan"}, "is_disabled": 0, "type": "electric_scooter"}, {"fusion_lon": 0.0, "is_reserved": 0, "bike_id": "22ed036483eedf450d4686682a34722c", "lon": -77.02313483333333, "name": "22ed036483eedf450d4686682a34722c", "lat": 38.91781116666667, "fusion_lat": 0.0, "rental_uris": {"ios": "https://dc.lft.to/lastmile_qr_scan", "android": "https://dc.lft.to/lastmile_qr_scan"}, "is_disabled": 0, "type": "electric_scooter"}, {"fusion_lon": 0.0, "is_reserved": 0, "bike_id": "5d92a618e319573624015782f7eba8de", "lon": -76.97386216666666, "name": "5d92a618e319573624015782f7eba8de", "lat": 38.9038655, "fusion_lat": 0.0, "rental_uris": {"ios": "https://dc.lft.to/lastmile_qr_scan", "android": "https://dc.lft.to/lastmile_qr_scan"}, "is_disabled": 0, "type": "electric_scooter"}, {"fusion_lon": 0.0, "is_reserved": 0, "bike_id": "b6e0509a655c5fe5211e1d2c15fa52c6", "lon": -76.99798783333334, "name": "b6e0509a655c5fe5211e1d2c15fa52c6", "lat": 38.9085015, "fusion_lat": 0.0, "rental_uris": {"ios": "https://dc.lft.to/lastmile_qr_scan", "android": "https://dc.lft.to/lastmile_qr_scan"}, "is_disabled": 0, "type": "electric_scooter"}, {"fusion_lon": 0.0, "is_reserved": 0, "bike_id": "d8c134a51229481d3d69ca4e79bd8969", "lon": -77.02209083333334, "name": "d8c134a51229481d3d69ca4e79bd8969", "lat": 38.89632433333333, "fusion_lat": 0.0, "rental_uris": {"ios": "https://dc.lft.to/lastmile_qr_scan", "android": "https://dc.lft.to/lastmile_qr_scan"}, "is_disabled": 0, "type": "electric_scooter"}, {"fusion_lon": 0.0, "is_reserved": 0, "bike_id": "24b116cb85ec51441ea26b5841ab03e9", "lon": -76.98626, "name": "24b116cb85ec51441ea26b5841ab03e9", "lat": 38.85456583333333, "fusion_lat": 0.0, "rental_uris": {"ios": "https://dc.lft.to/lastmile_qr_scan", "android": "https://dc.lft.to/lastmile_qr_scan"}, "is_disabled": 0, "type": "electric_bike"}, {"fusion_lon": 0.0, "is_reserved": 0, "bike_id": "bcd870709330e91392625bf58f7ead62", "lon": -77.03215216666666, "name": "bcd870709330e91392625bf58f7ead62", "lat": 38.901315833333335, "fusion_lat": 0.0, "rental_uris": {"ios": "https://dc.lft.to/lastmile_qr_scan", "android": "https://dc.lft.to/lastmile_qr_scan"}, "is_disabled": 0, "type": "electric_scooter"}, {"fusion_lon": 0.0, "is_reserved": 0, "bike_id": "a1684cbc99b9e9792edf08b2084243ae", "lon": -77.0261925, "name": "a1684cbc99b9e9792edf08b2084243ae", "lat": 38.8835805, "fusion_lat": 0.0, "rental_uris": {"ios": "https://dc.lft.to/lastmile_qr_scan", "android": "https://dc.lft.to/lastmile_qr_scan"}, "is_disabled": 0, "type": "electric_scooter"}, {"fusion_lon": 0.0, "is_reserved": 0, "bike_id": "e95b0276ee8ee5f8b6a1f56a11de847a", "lon": -76.97618633333333, "name": "e95b0276ee8ee5f8b6a1f56a11de847a", "lat": 38.8929125, "fusion_lat": 0.0, "rental_uris": {"ios": "https://dc.lft.to/lastmile_qr_scan", "android": "https://dc.lft.to/lastmile_qr_scan"}, "is_disabled": 0, "type": "electric_bike"}, {"fusion_lon": 0.0, "is_reserved": 0, "bike_id": "3906e9471f80fbe0a2f5eb7f2a2d00cf", "lon": -77.0524895, "name": "3906e9471f80fbe0a2f5eb7f2a2d00cf", "lat": 38.92341833333333, "fusion_lat": 0.0, "rental_uris": {"ios": "https://dc.lft.to/lastmile_qr_scan", "android": "https://dc.lft.to/lastmile_qr_scan"}, "is_disabled": 0, "type": "electric_scooter"}, {"fusion_lon": 0.0, "is_reserved": 0, "bike_id": "d0e75cd3d625c4b951c6bac4e2538447", "lon": -77.021917, "name": "d0e75cd3d625c4b951c6bac4e2538447", "lat": 38.9247555, "fusion_lat": 0.0, "rental_uris": {"ios": "https://dc.lft.to/lastmile_qr_scan", "android": "https://dc.lft.to/lastmile_qr_scan"}, "is_disabled": 0, "type": "electric_scooter"}, {"fusion_lon": 0.0, "is_reserved": 0, "bike_id": "dfd16afcb2eea83ffe6d674e4a3a8d14", "lon": -77.04171083333334, "name": "dfd16afcb2eea83ffe6d674e4a3a8d14", "lat": 38.9174765, "fusion_lat": 0.0, "rental_uris": {"ios": "https://dc.lft.to/lastmile_qr_scan", "android": "https://dc.lft.to/lastmile_qr_scan"}, "is_disabled": 0, "type": "electric_scooter"}, {"fusion_lon": 0.0, "is_reserved": 0, "bike_id": "fa2f8539198ddde7758114bcd6979c47", "lon": -77.04501383333333, "name": "fa2f8539198ddde7758114bcd6979c47", "lat": 38.90560383333333, "fusion_lat": 0.0, "rental_uris": {"ios": "https://dc.lft.to/lastmile_qr_scan", "android": "https://dc.lft.to/lastmile_qr_scan"}, "is_disabled": 0, "type": "electric_scooter"}, {"fusion_lon": 0.0, "is_reserved": 0, "bike_id": "ea2e0e27078c33809d8207cd74aa554a", "lon": -77.02522683333333, "name": "ea2e0e27078c33809d8207cd74aa554a", "lat": 38.938778, "fusion_lat": 0.0, "rental_uris": {"ios": "https://dc.lft.to/lastmile_qr_scan", "android": "https://dc.lft.to/lastmile_qr_scan"}, "is_disabled": 0, "type": "electric_scooter"}, {"fusion_lon": 0.0, "is_reserved": 0, "bike_id": "8501dee9cd4336df55f64454da8759f8", "lon": -77.0469995, "name": "8501dee9cd4336df55f64454da8759f8", "lat": 38.89837516666667, "fusion_lat": 0.0, "rental_uris": {"ios": "https://dc.lft.to/lastmile_qr_scan", "android": "https://dc.lft.to/lastmile_qr_scan"}, "is_disabled": 0, "type": "electric_scooter"}, {"fusion_lon": 0.0, "is_reserved": 0, "bike_id": "d67715cc80b5ce91f09b822ef2c8f5bf", "lon": -77.0216255, "name": "d67715cc80b5ce91f09b822ef2c8f5bf", "lat": 38.892186833333334, "fusion_lat": 0.0, "rental_uris": {"ios": "https://dc.lft.to/lastmile_qr_scan", "android": "https://dc.lft.to/lastmile_qr_scan"}, "is_disabled": 0, "type": "electric_scooter"}, {"fusion_lon": 0.0, "is_reserved": 0, "bike_id": "cce0895e69e7c1c3317f5fc2549fcd3e", "lon": -76.98820066666667, "name": "cce0895e69e7c1c3317f5fc2549fcd3e", "lat": 38.90037683333333, "fusion_lat": 0.0, "rental_uris": {"ios": "https://dc.lft.to/lastmile_qr_scan", "android": "https://dc.lft.to/lastmile_qr_scan"}, "is_disabled": 0, "type": "electric_scooter"}, {"fusion_lon": 0.0, "is_reserved": 0, "bike_id": "b9b013c1ddbef07ee69a7bac284f1dea", "lon": -77.04054033333334, "name": "b9b013c1ddbef07ee69a7bac284f1dea", "lat": 38.90728983333333, "fusion_lat": 0.0, "rental_uris": {"ios": "https://dc.lft.to/lastmile_qr_scan", "android": "https://dc.lft.to/lastmile_qr_scan"}, "is_disabled": 0, "type": "electric_scooter"}, {"fusion_lon": 0.0, "is_reserved": 0, "bike_id": "356913d6a766ac9688479d42743d3769", "lon": -77.02018483333333, "name": "356913d6a766ac9688479d42743d3769", "lat": 38.87676233333333, "fusion_lat": 0.0, "rental_uris": {"ios": "https://dc.lft.to/lastmile_qr_scan", "android": "https://dc.lft.to/lastmile_qr_scan"}, "is_disabled": 0, "type": "electric_scooter"}, {"fusion_lon": 0.0, "is_reserved": 0, "bike_id": "d00381aced545ea101324b8bf23b5548", "lon": -77.029799, "name": "d00381aced545ea101324b8bf23b5548", "lat": 38.928042833333336, "fusion_lat": 0.0, "rental_uris": {"ios": "https://dc.lft.to/lastmile_qr_scan", "android": "https://dc.lft.to/lastmile_qr_scan"}, "is_disabled": 0, "type": "electric_scooter"}, {"fusion_lon": 0.0, "is_reserved": 0, "bike_id": "70b4a7776c729f03065c78bd556ab9fd", "lon": -77.038054, "name": "70b4a7776c729f03065c78bd556ab9fd", "lat": 38.9110875, "fusion_lat": 0.0, "rental_uris": {"ios": "https://dc.lft.to/lastmile_qr_scan", "android": "https://dc.lft.to/lastmile_qr_scan"}, "is_disabled": 0, "type": "electric_scooter"}, {"fusion_lon": 0.0, "is_reserved": 0, "bike_id": "6aa48ab7a7020a68071ebb71dde569aa", "lon": -77.0187325, "name": "6aa48ab7a7020a68071ebb71dde569aa", "lat": 38.9319515, "fusion_lat": 0.0, "rental_uris": {"ios": "https://dc.lft.to/lastmile_qr_scan", "android": "https://dc.lft.to/lastmile_qr_scan"}, "is_disabled": 0, "type": "electric_scooter"}, {"fusion_lon": 0.0, "is_reserved": 0, "bike_id": "47066e7027f7097d58a840dd7211d487", "lon": -77.02179183333334, "name": "47066e7027f7097d58a840dd7211d487", "lat": 38.88706116666667, "fusion_lat": 0.0, "rental_uris": {"ios": "https://dc.lft.to/lastmile_qr_scan", "android": "https://dc.lft.to/lastmile_qr_scan"}, "is_disabled": 0, "type": "electric_scooter"}, {"fusion_lon": 0.0, "is_reserved": 0, "bike_id": "9990c562dfa98805a4a50469cf2e3069", "lon": -77.0235065, "name": "9990c562dfa98805a4a50469cf2e3069", "lat": 38.92998, "fusion_lat": 0.0, "rental_uris": {"ios": "https://dc.lft.to/lastmile_qr_scan", "android": "https://dc.lft.to/lastmile_qr_scan"}, "is_disabled": 0, "type": "electric_scooter"}, {"fusion_lon": 0.0, "is_reserved": 0, "bike_id": "e340d00c8e22d8987a7a6dc5c11151f1", "lon": -77.01953366666666, "name": "e340d00c8e22d8987a7a6dc5c11151f1", "lat": 38.92361966666667, "fusion_lat": 0.0, "rental_uris": {"ios": "https://dc.lft.to/lastmile_qr_scan", "android": "https://dc.lft.to/lastmile_qr_scan"}, "is_disabled": 0, "type": "electric_scooter"}, {"fusion_lon": 0.0, "is_reserved": 0, "bike_id": "b874c8079d9cd68a10d34cd953be15fa", "lon": -77.04363766666667, "name": "b874c8079d9cd68a10d34cd953be15fa", "lat": 38.91048766666667, "fusion_lat": 0.0, "rental_uris": {"ios": "https://dc.lft.to/lastmile_qr_scan", "android": "https://dc.lft.to/lastmile_qr_scan"}, "is_disabled": 0, "type": "electric_scooter"}, {"fusion_lon": 0.0, "is_reserved": 0, "bike_id": "a3c0f6eee52078cce748540ff3876fa7", "lon": -77.02792533333333, "name": "a3c0f6eee52078cce748540ff3876fa7", "lat": 38.929698, "fusion_lat": 0.0, "rental_uris": {"ios": "https://dc.lft.to/lastmile_qr_scan", "android": "https://dc.lft.to/lastmile_qr_scan"}, "is_disabled": 0, "type": "electric_scooter"}, {"fusion_lon": 0.0, "is_reserved": 0, "bike_id": "a1f34f74e2f01571886effcf29bf27d5", "lon": -77.06454666666667, "name": "a1f34f74e2f01571886effcf29bf27d5", "lat": 38.90521916666667, "fusion_lat": 0.0, "rental_uris": {"ios": "https://dc.lft.to/lastmile_qr_scan", "android": "https://dc.lft.to/lastmile_qr_scan"}, "is_disabled": 0, "type": "electric_scooter"}, {"fusion_lon": 0.0, "is_reserved": 0, "bike_id": "a2f2a552029714ad3df8760519cbaa71", "lon": -77.03666383333334, "name": "a2f2a552029714ad3df8760519cbaa71", "lat": 38.922420833333334, "fusion_lat": 0.0, "rental_uris": {"ios": "https://dc.lft.to/lastmile_qr_scan", "android": "https://dc.lft.to/lastmile_qr_scan"}, "is_disabled": 0, "type": "electric_scooter"}, {"fusion_lon": 0.0, "is_reserved": 0, "bike_id": "8bd9337861deb5462838eaa7e6f3d9de", "lon": -77.03403733333333, "name": "8bd9337861deb5462838eaa7e6f3d9de", "lat": 38.905624, "fusion_lat": 0.0, "rental_uris": {"ios": "https://dc.lft.to/lastmile_qr_scan", "android": "https://dc.lft.to/lastmile_qr_scan"}, "is_disabled": 0, "type": "electric_scooter"}, {"fusion_lon": 0.0, "is_reserved": 0, "bike_id": "b439e42c55e2ac26f5c97c3f76862a63", "lon": -77.04904783333333, "name": "b439e42c55e2ac26f5c97c3f76862a63", "lat": 38.898745166666664, "fusion_lat": 0.0, "rental_uris": {"ios": "https://dc.lft.to/lastmile_qr_scan", "android": "https://dc.lft.to/lastmile_qr_scan"}, "is_disabled": 0, "type": "electric_scooter"}, {"fusion_lon": 0.0, "is_reserved": 0, "bike_id": "16f9eafa91cfab1ab3e9eee8be535e0e", "lon": -77.033876, "name": "16f9eafa91cfab1ab3e9eee8be535e0e", "lat": 38.909676166666664, "fusion_lat": 0.0, "rental_uris": {"ios": "https://dc.lft.to/lastmile_qr_scan", "android": "https://dc.lft.to/lastmile_qr_scan"}, "is_disabled": 0, "type": "electric_scooter"}, {"fusion_lon": 0.0, "is_reserved": 0, "bike_id": "2b4146a263b5af598399dde6b2b56a13", "lon": -77.02494333333334, "name": "2b4146a263b5af598399dde6b2b56a13", "lat": 38.9418505, "fusion_lat": 0.0, "rental_uris": {"ios": "https://dc.lft.to/lastmile_qr_scan", "android": "https://dc.lft.to/lastmile_qr_scan"}, "is_disabled": 0, "type": "electric_scooter"}, {"fusion_lon": 0.0, "is_reserved": 0, "bike_id": "058b8433476ab3ed920e926d06f25094", "lon": -77.036804, "name": "058b8433476ab3ed920e926d06f25094", "lat": 38.9232775, "fusion_lat": 0.0, "rental_uris": {"ios": "https://dc.lft.to/lastmile_qr_scan", "android": "https://dc.lft.to/lastmile_qr_scan"}, "is_disabled": 0, "type": "electric_scooter"}, {"fusion_lon": 0.0, "is_reserved": 0, "bike_id": "a21fd617b8871bec733caeaa4f8aa5e2", "lon": -77.0392035, "name": "a21fd617b8871bec733caeaa4f8aa5e2", "lat": 38.92474633333333, "fusion_lat": 0.0, "rental_uris": {"ios": "https://dc.lft.to/lastmile_qr_scan", "android": "https://dc.lft.to/lastmile_qr_scan"}, "is_disabled": 0, "type": "electric_scooter"}, {"fusion_lon": 0.0, "is_reserved": 0, "bike_id": "d6cb14514661a7a80be6c6d7ca006b36", "lon": -77.046683, "name": "d6cb14514661a7a80be6c6d7ca006b36", "lat": 38.913697, "fusion_lat": 0.0, "rental_uris": {"ios": "https://dc.lft.to/lastmile_qr_scan", "android": "https://dc.lft.to/lastmile_qr_scan"}, "is_disabled": 0, "type": "electric_scooter"}, {"fusion_lon": 0.0, "is_reserved": 0, "bike_id": "7165d48a41ec6950e660d801e6d66ee2", "lon": -77.00352116666667, "name": "7165d48a41ec6950e660d801e6d66ee2", "lat": 38.893735, "fusion_lat": 0.0, "rental_uris": {"ios": "https://dc.lft.to/lastmile_qr_scan", "android": "https://dc.lft.to/lastmile_qr_scan"}, "is_disabled": 0, "type": "electric_scooter"}, {"fusion_lon": 0.0, "is_reserved": 0, "bike_id": "f44c654a6cb9936cd56c127a582f6166", "lon": -76.9373875, "name": "f44c654a6cb9936cd56c127a582f6166", "lat": 38.8902295, "fusion_lat": 0.0, "rental_uris": {"ios": "https://dc.lft.to/lastmile_qr_scan", "android": "https://dc.lft.to/lastmile_qr_scan"}, "is_disabled": 0, "type": "electric_scooter"}, {"fusion_lon": 0.0, "is_reserved": 0, "bike_id": "0093ce516a2b4d0fde88b3624450d7b4", "lon": -77.04158883333334, "name": "0093ce516a2b4d0fde88b3624450d7b4", "lat": 38.905105666666664, "fusion_lat": 0.0, "rental_uris": {"ios": "https://dc.lft.to/lastmile_qr_scan", "android": "https://dc.lft.to/lastmile_qr_scan"}, "is_disabled": 0, "type": "electric_scooter"}, {"fusion_lon": 0.0, "is_reserved": 0, "bike_id": "e48244bdb2ccec638344493321f6a555", "lon": -77.03327783333333, "name": "e48244bdb2ccec638344493321f6a555", "lat": 38.92161133333333, "fusion_lat": 0.0, "rental_uris": {"ios": "https://dc.lft.to/lastmile_qr_scan", "android": "https://dc.lft.to/lastmile_qr_scan"}, "is_disabled": 0, "type": "electric_scooter"}, {"fusion_lon": 0.0, "is_reserved": 0, "bike_id": "c88e4dc42d33217160f2a2ce157f3304", "lon": -77.02781766666666, "name": "c88e4dc42d33217160f2a2ce157f3304", "lat": 38.94286966666667, "fusion_lat": 0.0, "rental_uris": {"ios": "https://dc.lft.to/lastmile_qr_scan", "android": "https://dc.lft.to/lastmile_qr_scan"}, "is_disabled": 0, "type": "electric_scooter"}, {"fusion_lon": 0.0, "is_reserved": 0, "bike_id": "9fb04374208f42985c538fe8ad13a2a3", "lon": -77.04049716666667, "name": "9fb04374208f42985c538fe8ad13a2a3", "lat": 38.907289, "fusion_lat": 0.0, "rental_uris": {"ios": "https://dc.lft.to/lastmile_qr_scan", "android": "https://dc.lft.to/lastmile_qr_scan"}, "is_disabled": 0, "type": "electric_scooter"}, {"fusion_lon": 0.0, "is_reserved": 0, "bike_id": "e9ea4f50ce639e6bf5a564df1ebe59c7", "lon": -77.06269016666667, "name": "e9ea4f50ce639e6bf5a564df1ebe59c7", "lat": 38.906235, "fusion_lat": 0.0, "rental_uris": {"ios": "https://dc.lft.to/lastmile_qr_scan", "android": "https://dc.lft.to/lastmile_qr_scan"}, "is_disabled": 0, "type": "electric_scooter"}, {"fusion_lon": 0.0, "is_reserved": 0, "bike_id": "e219afdfb99788d4f19b1d961133bbdf", "lon": -76.9318015, "name": "e219afdfb99788d4f19b1d961133bbdf", "lat": 38.898821833333336, "fusion_lat": 0.0, "rental_uris": {"ios": "https://dc.lft.to/lastmile_qr_scan", "android": "https://dc.lft.to/lastmile_qr_scan"}, "is_disabled": 0, "type": "electric_scooter"}, {"fusion_lon": 0.0, "is_reserved": 0, "bike_id": "750498cd559f564808ed319e39eea39e", "lon": -77.04798366666667, "name": "750498cd559f564808ed319e39eea39e", "lat": 38.896052166666664, "fusion_lat": 0.0, "rental_uris": {"ios": "https://dc.lft.to/lastmile_qr_scan", "android": "https://dc.lft.to/lastmile_qr_scan"}, "is_disabled": 0, "type": "electric_scooter"}, {"fusion_lon": 0.0, "is_reserved": 0, "bike_id": "4f9e5677ecd21c250ab6f586447fd470", "lon": -77.03217466666666, "name": "4f9e5677ecd21c250ab6f586447fd470", "lat": 38.909398833333334, "fusion_lat": 0.0, "rental_uris": {"ios": "https://dc.lft.to/lastmile_qr_scan", "android": "https://dc.lft.to/lastmile_qr_scan"}, "is_disabled": 0, "type": "electric_scooter"}, {"fusion_lon": 0.0, "is_reserved": 0, "bike_id": "b9b573cec88e4400187a4d9999aab7af", "lon": -77.050726, "name": "b9b573cec88e4400187a4d9999aab7af", "lat": 38.92357783333333, "fusion_lat": 0.0, "rental_uris": {"ios": "https://dc.lft.to/lastmile_qr_scan", "android": "https://dc.lft.to/lastmile_qr_scan"}, "is_disabled": 0, "type": "electric_scooter"}, {"fusion_lon": 0.0, "is_reserved": 0, "bike_id": "aa6776cc03e3958323f4d1b0bb0e23ed", "lon": -77.0435275, "name": "aa6776cc03e3958323f4d1b0bb0e23ed", "lat": 38.90616266666667, "fusion_lat": 0.0, "rental_uris": {"ios": "https://dc.lft.to/lastmile_qr_scan", "android": "https://dc.lft.to/lastmile_qr_scan"}, "is_disabled": 0, "type": "electric_scooter"}, {"fusion_lon": 0.0, "is_reserved": 0, "bike_id": "621e9f4f1391d43ae1967bc128073e4d", "lon": -77.03943533333333, "name": "621e9f4f1391d43ae1967bc128073e4d", "lat": 38.93153216666666, "fusion_lat": 0.0, "rental_uris": {"ios": "https://dc.lft.to/lastmile_qr_scan", "android": "https://dc.lft.to/lastmile_qr_scan"}, "is_disabled": 0, "type": "electric_scooter"}, {"fusion_lon": 0.0, "is_reserved": 0, "bike_id": "9c52916b0038bcde0ce3191651569c06", "lon": -77.03731583333334, "name": "9c52916b0038bcde0ce3191651569c06", "lat": 38.920303833333335, "fusion_lat": 0.0, "rental_uris": {"ios": "https://dc.lft.to/lastmile_qr_scan", "android": "https://dc.lft.to/lastmile_qr_scan"}, "is_disabled": 0, "type": "electric_scooter"}, {"fusion_lon": 0.0, "is_reserved": 0, "bike_id": "fa811538291fc3ab6a5024db5b2eadc4", "lon": -77.03200616666666, "name": "fa811538291fc3ab6a5024db5b2eadc4", "lat": 38.90852, "fusion_lat": 0.0, "rental_uris": {"ios": "https://dc.lft.to/lastmile_qr_scan", "android": "https://dc.lft.to/lastmile_qr_scan"}, "is_disabled": 0, "type": "electric_scooter"}, {"fusion_lon": 0.0, "is_reserved": 0, "bike_id": "cd6660d721acedca659c05e4db29dba8", "lon": -77.040245, "name": "cd6660d721acedca659c05e4db29dba8", "lat": 38.92445283333333, "fusion_lat": 0.0, "rental_uris": {"ios": "https://dc.lft.to/lastmile_qr_scan", "android": "https://dc.lft.to/lastmile_qr_scan"}, "is_disabled": 0, "type": "electric_scooter"}, {"fusion_lon": 0.0, "is_reserved": 0, "bike_id": "e7afa7ce3c0a77be141bb59686bfaa57", "lon": -77.02963883333334, "name": "e7afa7ce3c0a77be141bb59686bfaa57", "lat": 38.89325933333333, "fusion_lat": 0.0, "rental_uris": {"ios": "https://dc.lft.to/lastmile_qr_scan", "android": "https://dc.lft.to/lastmile_qr_scan"}, "is_disabled": 0, "type": "electric_scooter"}, {"fusion_lon": 0.0, "is_reserved": 0, "bike_id": "00619ddf52782a2d11ce7525f0d55b02", "lon": -77.02135983333334, "name": "00619ddf52782a2d11ce7525f0d55b02", "lat": 38.922761333333334, "fusion_lat": 0.0, "rental_uris": {"ios": "https://dc.lft.to/lastmile_qr_scan", "android": "https://dc.lft.to/lastmile_qr_scan"}, "is_disabled": 0, "type": "electric_scooter"}, {"fusion_lon": 0.0, "is_reserved": 0, "bike_id": "fa6c3427070bcdc87154aa30cbaf5051", "lon": -77.01961783333333, "name": "fa6c3427070bcdc87154aa30cbaf5051", "lat": 38.9232615, "fusion_lat": 0.0, "rental_uris": {"ios": "https://dc.lft.to/lastmile_qr_scan", "android": "https://dc.lft.to/lastmile_qr_scan"}, "is_disabled": 0, "type": "electric_scooter"}, {"fusion_lon": 0.0, "is_reserved": 0, "bike_id": "6e90ebb4a49a228b8c5df738f182a5ad", "lon": -77.04533183333334, "name": "6e90ebb4a49a228b8c5df738f182a5ad", "lat": 38.908634166666666, "fusion_lat": 0.0, "rental_uris": {"ios": "https://dc.lft.to/lastmile_qr_scan", "android": "https://dc.lft.to/lastmile_qr_scan"}, "is_disabled": 0, "type": "electric_scooter"}, {"fusion_lon": 0.0, "is_reserved": 0, "bike_id": "8acf387ce787ac0fffd5678195ae4e6c", "lon": -77.02114283333333, "name": "8acf387ce787ac0fffd5678195ae4e6c", "lat": 38.9275155, "fusion_lat": 0.0, "rental_uris": {"ios": "https://dc.lft.to/lastmile_qr_scan", "android": "https://dc.lft.to/lastmile_qr_scan"}, "is_disabled": 0, "type": "electric_scooter"}, {"fusion_lon": 0.0, "is_reserved": 0, "bike_id": "4ca021d55f9528f132cf9366d2f4ffb0", "lon": -77.03009983333334, "name": "4ca021d55f9528f132cf9366d2f4ffb0", "lat": 38.92474683333333, "fusion_lat": 0.0, "rental_uris": {"ios": "https://dc.lft.to/lastmile_qr_scan", "android": "https://dc.lft.to/lastmile_qr_scan"}, "is_disabled": 0, "type": "electric_scooter"}, {"fusion_lon": 0.0, "is_reserved": 0, "bike_id": "720207814a618b80a7d29d30c78b41ee", "lon": -77.02756966666666, "name": "720207814a618b80a7d29d30c78b41ee", "lat": 38.95735066666667, "fusion_lat": 0.0, "rental_uris": {"ios": "https://dc.lft.to/lastmile_qr_scan", "android": "https://dc.lft.to/lastmile_qr_scan"}, "is_disabled": 0, "type": "electric_scooter"}, {"fusion_lon": 0.0, "is_reserved": 0, "bike_id": "1a823f159f8aa4e9baf42a824d5d5cae", "lon": -76.9986415, "name": "1a823f159f8aa4e9baf42a824d5d5cae", "lat": 38.83742383333333, "fusion_lat": 0.0, "rental_uris": {"ios": "https://dc.lft.to/lastmile_qr_scan", "android": "https://dc.lft.to/lastmile_qr_scan"}, "is_disabled": 0, "type": "electric_scooter"}, {"fusion_lon": 0.0, "is_reserved": 0, "bike_id": "1ab71270b19a45fa5f47eac607b2a231", "lon": -77.02978183333333, "name": "1ab71270b19a45fa5f47eac607b2a231", "lat": 38.9236865, "fusion_lat": 0.0, "rental_uris": {"ios": "https://dc.lft.to/lastmile_qr_scan", "android": "https://dc.lft.to/lastmile_qr_scan"}, "is_disabled": 0, "type": "electric_scooter"}, {"fusion_lon": 0.0, "is_reserved": 0, "bike_id": "e506909c4c39e4d205cdfa0faf882f46", "lon": -77.07458533333333, "name": "e506909c4c39e4d205cdfa0faf882f46", "lat": 38.91257266666667, "fusion_lat": 0.0, "rental_uris": {"ios": "https://dc.lft.to/lastmile_qr_scan", "android": "https://dc.lft.to/lastmile_qr_scan"}, "is_disabled": 0, "type": "electric_scooter"}, {"fusion_lon": 0.0, "is_reserved": 0, "bike_id": "e20db96c661e9135422543e5d57007f3", "lon": -77.04662966666666, "name": "e20db96c661e9135422543e5d57007f3", "lat": 38.90394833333333, "fusion_lat": 0.0, "rental_uris": {"ios": "https://dc.lft.to/lastmile_qr_scan", "android": "https://dc.lft.to/lastmile_qr_scan"}, "is_disabled": 0, "type": "electric_scooter"}, {"fusion_lon": 0.0, "is_reserved": 0, "bike_id": "68abdb851935658752b240ba37f60a8b", "lon": -77.019866, "name": "68abdb851935658752b240ba37f60a8b", "lat": 38.8951425, "fusion_lat": 0.0, "rental_uris": {"ios": "https://dc.lft.to/lastmile_qr_scan", "android": "https://dc.lft.to/lastmile_qr_scan"}, "is_disabled": 0, "type": "electric_scooter"}, {"fusion_lon": 0.0, "is_reserved": 0, "bike_id": "463c6120bae11718157ad9dc4859420f", "lon": -76.975748, "name": "463c6120bae11718157ad9dc4859420f", "lat": 38.9033705, "fusion_lat": 0.0, "rental_uris": {"ios": "https://dc.lft.to/lastmile_qr_scan", "android": "https://dc.lft.to/lastmile_qr_scan"}, "is_disabled": 0, "type": "electric_scooter"}, {"fusion_lon": 0.0, "is_reserved": 0, "bike_id": "54eb5e28172368973236128e0463fb92", "lon": -76.94896183333333, "name": "54eb5e28172368973236128e0463fb92", "lat": 38.894918, "fusion_lat": 0.0, "rental_uris": {"ios": "https://dc.lft.to/lastmile_qr_scan", "android": "https://dc.lft.to/lastmile_qr_scan"}, "is_disabled": 0, "type": "electric_scooter"}, {"fusion_lon": 0.0, "is_reserved": 0, "bike_id": "46cbd4473b45414e5d29940b5748489a", "lon": -77.044437, "name": "46cbd4473b45414e5d29940b5748489a", "lat": 38.9099125, "fusion_lat": 0.0, "rental_uris": {"ios": "https://dc.lft.to/lastmile_qr_scan", "android": "https://dc.lft.to/lastmile_qr_scan"}, "is_disabled": 0, "type": "electric_scooter"}, {"fusion_lon": 0.0, "is_reserved": 0, "bike_id": "38a850fb7c08d1a106661d4de4f427e3", "lon": -77.02639566666667, "name": "38a850fb7c08d1a106661d4de4f427e3", "lat": 38.89219083333333, "fusion_lat": 0.0, "rental_uris": {"ios": "https://dc.lft.to/lastmile_qr_scan", "android": "https://dc.lft.to/lastmile_qr_scan"}, "is_disabled": 0, "type": "electric_scooter"}, {"fusion_lon": 0.0, "is_reserved": 0, "bike_id": "1f23ab9793d6eadcbe5d3b0e685a48a1", "lon": -77.03432516666666, "name": "1f23ab9793d6eadcbe5d3b0e685a48a1", "lat": 38.939727833333336, "fusion_lat": 0.0, "rental_uris": {"ios": "https://dc.lft.to/lastmile_qr_scan", "android": "https://dc.lft.to/lastmile_qr_scan"}, "is_disabled": 0, "type": "electric_scooter"}, {"fusion_lon": 0.0, "is_reserved": 0, "bike_id": "62eaa6be19631df90a415c80e9c6bc92", "lon": -77.03748333333333, "name": "62eaa6be19631df90a415c80e9c6bc92", "lat": 38.917003666666666, "fusion_lat": 0.0, "rental_uris": {"ios": "https://dc.lft.to/lastmile_qr_scan", "android": "https://dc.lft.to/lastmile_qr_scan"}, "is_disabled": 0, "type": "electric_scooter"}, {"fusion_lon": 0.0, "is_reserved": 0, "bike_id": "f962114f39c5f7b7f407cf96e4d317f2", "lon": -76.99699150000001, "name": "f962114f39c5f7b7f407cf96e4d317f2", "lat": 38.884245166666666, "fusion_lat": 0.0, "rental_uris": {"ios": "https://dc.lft.to/lastmile_qr_scan", "android": "https://dc.lft.to/lastmile_qr_scan"}, "is_disabled": 0, "type": "electric_scooter"}, {"fusion_lon": 0.0, "is_reserved": 0, "bike_id": "d6d510dd2b49f0e9a9cc1d55a36b3883", "lon": -77.00526966666666, "name": "d6d510dd2b49f0e9a9cc1d55a36b3883", "lat": 38.87953266666667, "fusion_lat": 0.0, "rental_uris": {"ios": "https://dc.lft.to/lastmile_qr_scan", "android": "https://dc.lft.to/lastmile_qr_scan"}, "is_disabled": 0, "type": "electric_scooter"}, {"fusion_lon": 0.0, "is_reserved": 0, "bike_id": "f5e6c71967cbdbafa53377289cb18da5", "lon": -77.01288416666667, "name": "f5e6c71967cbdbafa53377289cb18da5", "lat": 39.003867666666665, "fusion_lat": 0.0, "rental_uris": {"ios": "https://dc.lft.to/lastmile_qr_scan", "android": "https://dc.lft.to/lastmile_qr_scan"}, "is_disabled": 0, "type": "electric_bike"}, {"fusion_lon": 0.0, "is_reserved": 0, "bike_id": "d5e3f319dd6ea207233c4c9e149b0f54", "lon": -77.079638, "name": "d5e3f319dd6ea207233c4c9e149b0f54", "lat": 38.9456315, "fusion_lat": 0.0, "rental_uris": {"ios": "https://dc.lft.to/lastmile_qr_scan", "android": "https://dc.lft.to/lastmile_qr_scan"}, "is_disabled": 0, "type": "electric_scooter"}, {"fusion_lon": 0.0, "is_reserved": 0, "bike_id": "55e2249d7126d5ab9a39c2aa4794c4b3", "lon": -77.036361, "name": "55e2249d7126d5ab9a39c2aa4794c4b3", "lat": 38.903805, "fusion_lat": 0.0, "rental_uris": {"ios": "https://dc.lft.to/lastmile_qr_scan", "android": "https://dc.lft.to/lastmile_qr_scan"}, "is_disabled": 0, "type": "electric_scooter"}, {"fusion_lon": 0.0, "is_reserved": 0, "bike_id": "581b5efc348b940119a6a372a3eb32c8", "lon": -77.039545, "name": "581b5efc348b940119a6a372a3eb32c8", "lat": 38.89846583333333, "fusion_lat": 0.0, "rental_uris": {"ios": "https://dc.lft.to/lastmile_qr_scan", "android": "https://dc.lft.to/lastmile_qr_scan"}, "is_disabled": 0, "type": "electric_scooter"}, {"fusion_lon": 0.0, "is_reserved": 0, "bike_id": "b684160d01572fa2b75606db48ca4c5a", "lon": -77.04617133333333, "name": "b684160d01572fa2b75606db48ca4c5a", "lat": 38.916778666666666, "fusion_lat": 0.0, "rental_uris": {"ios": "https://dc.lft.to/lastmile_qr_scan", "android": "https://dc.lft.to/lastmile_qr_scan"}, "is_disabled": 0, "type": "electric_scooter"}, {"fusion_lon": 0.0, "is_reserved": 0, "bike_id": "862a94f3ebb6168dbf66f2770bd70c42", "lon": -77.01673783333334, "name": "862a94f3ebb6168dbf66f2770bd70c42", "lat": 38.92066416666667, "fusion_lat": 0.0, "rental_uris": {"ios": "https://dc.lft.to/lastmile_qr_scan", "android": "https://dc.lft.to/lastmile_qr_scan"}, "is_disabled": 0, "type": "electric_scooter"}, {"fusion_lon": 0.0, "is_reserved": 0, "bike_id": "92ec794c122e8a06be1d0a9c55a53d57", "lon": -76.9986485, "name": "92ec794c122e8a06be1d0a9c55a53d57", "lat": 38.90038033333333, "fusion_lat": 0.0, "rental_uris": {"ios": "https://dc.lft.to/lastmile_qr_scan", "android": "https://dc.lft.to/lastmile_qr_scan"}, "is_disabled": 0, "type": "electric_scooter"}, {"fusion_lon": 0.0, "is_reserved": 0, "bike_id": "b218ac2a2f2489e2b577a472f7a4e1f4", "lon": -76.98840566666667, "name": "b218ac2a2f2489e2b577a472f7a4e1f4", "lat": 38.900346, "fusion_lat": 0.0, "rental_uris": {"ios": "https://dc.lft.to/lastmile_qr_scan", "android": "https://dc.lft.to/lastmile_qr_scan"}, "is_disabled": 0, "type": "electric_scooter"}, {"fusion_lon": 0.0, "is_reserved": 0, "bike_id": "8662c707738335ba56c8af3c01446dc1", "lon": -77.11532483333333, "name": "8662c707738335ba56c8af3c01446dc1", "lat": 39.074675166666665, "fusion_lat": 0.0, "rental_uris": {"ios": "https://dc.lft.to/lastmile_qr_scan", "android": "https://dc.lft.to/lastmile_qr_scan"}, "is_disabled": 0, "type": "electric_bike"}, {"fusion_lon": 0.0, "is_reserved": 0, "bike_id": "e1532b4ebcd27a3aa77a32f7a015e77e", "lon": -77.04544583333333, "name": "e1532b4ebcd27a3aa77a32f7a015e77e", "lat": 38.913226333333334, "fusion_lat": 0.0, "rental_uris": {"ios": "https://dc.lft.to/lastmile_qr_scan", "android": "https://dc.lft.to/lastmile_qr_scan"}, "is_disabled": 0, "type": "electric_scooter"}, {"fusion_lon": 0.0, "is_reserved": 0, "bike_id": "9ee24647ae2e67ac6a067b058088acdf", "lon": -77.03866216666667, "name": "9ee24647ae2e67ac6a067b058088acdf", "lat": 38.91707683333333, "fusion_lat": 0.0, "rental_uris": {"ios": "https://dc.lft.to/lastmile_qr_scan", "android": "https://dc.lft.to/lastmile_qr_scan"}, "is_disabled": 0, "type": "electric_scooter"}, {"fusion_lon": 0.0, "is_reserved": 0, "bike_id": "aca6f68299504c0753834d92950710ea", "lon": -77.0237715, "name": "aca6f68299504c0753834d92950710ea", "lat": 38.992334166666666, "fusion_lat": 0.0, "rental_uris": {"ios": "https://dc.lft.to/lastmile_qr_scan", "android": "https://dc.lft.to/lastmile_qr_scan"}, "is_disabled": 0, "type": "electric_bike"}, {"fusion_lon": 0.0, "is_reserved": 0, "bike_id": "b9b299d7d0dbbf38b061632234301e36", "lon": -77.0190835, "name": "b9b299d7d0dbbf38b061632234301e36", "lat": 38.92342516666667, "fusion_lat": 0.0, "rental_uris": {"ios": "https://dc.lft.to/lastmile_qr_scan", "android": "https://dc.lft.to/lastmile_qr_scan"}, "is_disabled": 0, "type": "electric_scooter"}, {"fusion_lon": 0.0, "is_reserved": 0, "bike_id": "f09c2cc3750d4a8e35ad8c1c871d2cc2", "lon": -77.01371883333333, "name": "f09c2cc3750d4a8e35ad8c1c871d2cc2", "lat": 38.887035833333336, "fusion_lat": 0.0, "rental_uris": {"ios": "https://dc.lft.to/lastmile_qr_scan", "android": "https://dc.lft.to/lastmile_qr_scan"}, "is_disabled": 0, "type": "electric_scooter"}, {"fusion_lon": 0.0, "is_reserved": 0, "bike_id": "bd320c905daa46eb92620ed660462706", "lon": -77.00930266666667, "name": "bd320c905daa46eb92620ed660462706", "lat": 38.9026165, "fusion_lat": 0.0, "rental_uris": {"ios": "https://dc.lft.to/lastmile_qr_scan", "android": "https://dc.lft.to/lastmile_qr_scan"}, "is_disabled": 0, "type": "electric_scooter"}, {"fusion_lon": 0.0, "is_reserved": 0, "bike_id": "13ce821b27a9b5970ee3364cccabd40e", "lon": -77.04157433333333, "name": "13ce821b27a9b5970ee3364cccabd40e", "lat": 38.91952833333333, "fusion_lat": 0.0, "rental_uris": {"ios": "https://dc.lft.to/lastmile_qr_scan", "android": "https://dc.lft.to/lastmile_qr_scan"}, "is_disabled": 0, "type": "electric_scooter"}, {"fusion_lon": 0.0, "is_reserved": 0, "bike_id": "8744f2aee1e080414971aae79cf789e7", "lon": -77.063807, "name": "8744f2aee1e080414971aae79cf789e7", "lat": 38.84297, "fusion_lat": 0.0, "rental_uris": {"ios": "https://dc.lft.to/lastmile_qr_scan", "android": "https://dc.lft.to/lastmile_qr_scan"}, "is_disabled": 0, "type": "electric_bike"}, {"fusion_lon": 0.0, "is_reserved": 0, "bike_id": "949a21c4485db98e1b2e813961c9808f", "lon": -77.02971633333334, "name": "949a21c4485db98e1b2e813961c9808f", "lat": 38.92683983333333, "fusion_lat": 0.0, "rental_uris": {"ios": "https://dc.lft.to/lastmile_qr_scan", "android": "https://dc.lft.to/lastmile_qr_scan"}, "is_disabled": 0, "type": "electric_scooter"}, {"fusion_lon": 0.0, "is_reserved": 0, "bike_id": "4aca676f9fbb6279a5de3d1270e89cd7", "lon": -77.027136, "name": "4aca676f9fbb6279a5de3d1270e89cd7", "lat": 38.972376, "fusion_lat": 0.0, "rental_uris": {"ios": "https://dc.lft.to/lastmile_qr_scan", "android": "https://dc.lft.to/lastmile_qr_scan"}, "is_disabled": 0, "type": "electric_scooter"}, {"fusion_lon": 0.0, "is_reserved": 0, "bike_id": "7d7a2f950728a4c495079dbe4d893677", "lon": -76.99163666666666, "name": "7d7a2f950728a4c495079dbe4d893677", "lat": 38.900397166666664, "fusion_lat": 0.0, "rental_uris": {"ios": "https://dc.lft.to/lastmile_qr_scan", "android": "https://dc.lft.to/lastmile_qr_scan"}, "is_disabled": 0, "type": "electric_scooter"}, {"fusion_lon": 0.0, "is_reserved": 0, "bike_id": "ac7fca077341a00d8ac781bff361be90", "lon": -77.02988283333333, "name": "ac7fca077341a00d8ac781bff361be90", "lat": 38.922417333333335, "fusion_lat": 0.0, "rental_uris": {"ios": "https://dc.lft.to/lastmile_qr_scan", "android": "https://dc.lft.to/lastmile_qr_scan"}, "is_disabled": 0, "type": "electric_scooter"}, {"fusion_lon": 0.0, "is_reserved": 0, "bike_id": "d23036b6b0013c98264a0c65c7ba89bf", "lon": -77.04879233333334, "name": "d23036b6b0013c98264a0c65c7ba89bf", "lat": 38.90161716666667, "fusion_lat": 0.0, "rental_uris": {"ios": "https://dc.lft.to/lastmile_qr_scan", "android": "https://dc.lft.to/lastmile_qr_scan"}, "is_disabled": 0, "type": "electric_scooter"}, {"fusion_lon": 0.0, "is_reserved": 0, "bike_id": "f8a29f972f9dfd1d77a7a20fdec83b9b", "lon": -77.04151133333333, "name": "f8a29f972f9dfd1d77a7a20fdec83b9b", "lat": 38.9074715, "fusion_lat": 0.0, "rental_uris": {"ios": "https://dc.lft.to/lastmile_qr_scan", "android": "https://dc.lft.to/lastmile_qr_scan"}, "is_disabled": 0, "type": "electric_scooter"}, {"fusion_lon": 0.0, "is_reserved": 0, "bike_id": "aad06ee42af7726f1124bbfbde08dadf", "lon": -76.97761783333333, "name": "aad06ee42af7726f1124bbfbde08dadf", "lat": 38.8648525, "fusion_lat": 0.0, "rental_uris": {"ios": "https://dc.lft.to/lastmile_qr_scan", "android": "https://dc.lft.to/lastmile_qr_scan"}, "is_disabled": 0, "type": "electric_bike"}, {"fusion_lon": 0.0, "is_reserved": 0, "bike_id": "76b4ec12509f91a45d1e3239ce2803aa", "lon": -77.03662666666666, "name": "76b4ec12509f91a45d1e3239ce2803aa", "lat": 38.935809, "fusion_lat": 0.0, "rental_uris": {"ios": "https://dc.lft.to/lastmile_qr_scan", "android": "https://dc.lft.to/lastmile_qr_scan"}, "is_disabled": 0, "type": "electric_bike"}, {"fusion_lon": 0.0, "is_reserved": 0, "bike_id": "53459986b2623e31e876f71a6843a9d0", "lon": -77.02823483333333, "name": "53459986b2623e31e876f71a6843a9d0", "lat": 38.902423166666665, "fusion_lat": 0.0, "rental_uris": {"ios": "https://dc.lft.to/lastmile_qr_scan", "android": "https://dc.lft.to/lastmile_qr_scan"}, "is_disabled": 0, "type": "electric_scooter"}, {"fusion_lon": 0.0, "is_reserved": 0, "bike_id": "2d7f94af488def3e1c33258b2a2302da", "lon": -76.97084383333333, "name": "2d7f94af488def3e1c33258b2a2302da", "lat": 38.95067433333333, "fusion_lat": 0.0, "rental_uris": {"ios": "https://dc.lft.to/lastmile_qr_scan", "android": "https://dc.lft.to/lastmile_qr_scan"}, "is_disabled": 0, "type": "electric_bike"}, {"fusion_lon": 0.0, "is_reserved": 0, "bike_id": "57eb8202844de1df22b2ea96aa8a7250", "lon": -77.099641, "name": "57eb8202844de1df22b2ea96aa8a7250", "lat": 38.8579, "fusion_lat": 0.0, "rental_uris": {"ios": "https://dc.lft.to/lastmile_qr_scan", "android": "https://dc.lft.to/lastmile_qr_scan"}, "is_disabled": 0, "type": "electric_bike"}, {"fusion_lon": 0.0, "is_reserved": 0, "bike_id": "8ad83a4948950065e567395ad270a812", "lon": -77.027509, "name": "8ad83a4948950065e567395ad270a812", "lat": 38.944122666666665, "fusion_lat": 0.0, "rental_uris": {"ios": "https://dc.lft.to/lastmile_qr_scan", "android": "https://dc.lft.to/lastmile_qr_scan"}, "is_disabled": 0, "type": "electric_scooter"}, {"fusion_lon": 0.0, "is_reserved": 0, "bike_id": "a2026e13cd0d3391cda5723449bd7dd9", "lon": -77.02811233333334, "name": "a2026e13cd0d3391cda5723449bd7dd9", "lat": 38.955882, "fusion_lat": 0.0, "rental_uris": {"ios": "https://dc.lft.to/lastmile_qr_scan", "android": "https://dc.lft.to/lastmile_qr_scan"}, "is_disabled": 0, "type": "electric_scooter"}, {"fusion_lon": 0.0, "is_reserved": 0, "bike_id": "8d83e461a29616eae8deab2a82bb1657", "lon": -77.03800333333334, "name": "8d83e461a29616eae8deab2a82bb1657", "lat": 38.924791666666664, "fusion_lat": 0.0, "rental_uris": {"ios": "https://dc.lft.to/lastmile_qr_scan", "android": "https://dc.lft.to/lastmile_qr_scan"}, "is_disabled": 0, "type": "electric_scooter"}, {"fusion_lon": 0.0, "is_reserved": 0, "bike_id": "2b73cbe99fb03120ef3b48f5198e4ec8", "lon": -77.00407366666667, "name": "2b73cbe99fb03120ef3b48f5198e4ec8", "lat": 38.905767, "fusion_lat": 0.0, "rental_uris": {"ios": "https://dc.lft.to/lastmile_qr_scan", "android": "https://dc.lft.to/lastmile_qr_scan"}, "is_disabled": 0, "type": "electric_scooter"}, {"fusion_lon": 0.0, "is_reserved": 0, "bike_id": "d1f0944bf60c4794b14b62f0b0ca1cf3", "lon": -77.02131716666666, "name": "d1f0944bf60c4794b14b62f0b0ca1cf3", "lat": 38.92419733333333, "fusion_lat": 0.0, "rental_uris": {"ios": "https://dc.lft.to/lastmile_qr_scan", "android": "https://dc.lft.to/lastmile_qr_scan"}, "is_disabled": 0, "type": "electric_scooter"}, {"fusion_lon": 0.0, "is_reserved": 0, "bike_id": "dce288bd99b799bf8f112385cb09ceff", "lon": -77.00560316666666, "name": "dce288bd99b799bf8f112385cb09ceff", "lat": 38.89609566666667, "fusion_lat": 0.0, "rental_uris": {"ios": "https://dc.lft.to/lastmile_qr_scan", "android": "https://dc.lft.to/lastmile_qr_scan"}, "is_disabled": 0, "type": "electric_scooter"}, {"fusion_lon": 0.0, "is_reserved": 0, "bike_id": "0b1e31ccdad9283bd5d1c49c9a27c7a8", "lon": -76.93740366666667, "name": "0b1e31ccdad9283bd5d1c49c9a27c7a8", "lat": 38.890154833333334, "fusion_lat": 0.0, "rental_uris": {"ios": "https://dc.lft.to/lastmile_qr_scan", "android": "https://dc.lft.to/lastmile_qr_scan"}, "is_disabled": 0, "type": "electric_scooter"}, {"fusion_lon": 0.0, "is_reserved": 0, "bike_id": "95d01684920b4eceee09a51149c27f69", "lon": -77.09029616666666, "name": "95d01684920b4eceee09a51149c27f69", "lat": 38.92649616666667, "fusion_lat": 0.0, "rental_uris": {"ios": "https://dc.lft.to/lastmile_qr_scan", "android": "https://dc.lft.to/lastmile_qr_scan"}, "is_disabled": 0, "type": "electric_bike"}, {"fusion_lon": 0.0, "is_reserved": 0, "bike_id": "09784c88171e05814eaf17180ef05b93", "lon": -77.01808933333334, "name": "09784c88171e05814eaf17180ef05b93", "lat": 38.901241166666665, "fusion_lat": 0.0, "rental_uris": {"ios": "https://dc.lft.to/lastmile_qr_scan", "android": "https://dc.lft.to/lastmile_qr_scan"}, "is_disabled": 0, "type": "electric_scooter"}, {"fusion_lon": 0.0, "is_reserved": 0, "bike_id": "fbe4bfe3ee94b1c046a9cd8fe6328d2e", "lon": -77.043828, "name": "fbe4bfe3ee94b1c046a9cd8fe6328d2e", "lat": 38.92110783333333, "fusion_lat": 0.0, "rental_uris": {"ios": "https://dc.lft.to/lastmile_qr_scan", "android": "https://dc.lft.to/lastmile_qr_scan"}, "is_disabled": 0, "type": "electric_scooter"}, {"fusion_lon": 0.0, "is_reserved": 0, "bike_id": "dcd98d1cdbaf6dbc31846eb48182f2f1", "lon": -77.02212333333334, "name": "dcd98d1cdbaf6dbc31846eb48182f2f1", "lat": 38.922312, "fusion_lat": 0.0, "rental_uris": {"ios": "https://dc.lft.to/lastmile_qr_scan", "android": "https://dc.lft.to/lastmile_qr_scan"}, "is_disabled": 0, "type": "electric_scooter"}, {"fusion_lon": 0.0, "is_reserved": 0, "bike_id": "1627a3f24e72d3d13fe3cbe882e5689d", "lon": -76.93761366666666, "name": "1627a3f24e72d3d13fe3cbe882e5689d", "lat": 38.890420666666664, "fusion_lat": 0.0, "rental_uris": {"ios": "https://dc.lft.to/lastmile_qr_scan", "android": "https://dc.lft.to/lastmile_qr_scan"}, "is_disabled": 0, "type": "electric_scooter"}, {"fusion_lon": 0.0, "is_reserved": 0, "bike_id": "e8b57a23f52794d40725d4de197b4be9", "lon": -77.03193616666667, "name": "e8b57a23f52794d40725d4de197b4be9", "lat": 38.892382833333336, "fusion_lat": 0.0, "rental_uris": {"ios": "https://dc.lft.to/lastmile_qr_scan", "android": "https://dc.lft.to/lastmile_qr_scan"}, "is_disabled": 0, "type": "electric_scooter"}, {"fusion_lon": 0.0, "is_reserved": 0, "bike_id": "10e002effcb7ea5fbe278df686d557af", "lon": -77.020953, "name": "10e002effcb7ea5fbe278df686d557af", "lat": 38.90173333333333, "fusion_lat": 0.0, "rental_uris": {"ios": "https://dc.lft.to/lastmile_qr_scan", "android": "https://dc.lft.to/lastmile_qr_scan"}, "is_disabled": 0, "type": "electric_scooter"}, {"fusion_lon": 0.0, "is_reserved": 0, "bike_id": "54d2b21c4ecfcd5109116cc09417b736", "lon": -77.0272685, "name": "54d2b21c4ecfcd5109116cc09417b736", "lat": 38.951331833333334, "fusion_lat": 0.0, "rental_uris": {"ios": "https://dc.lft.to/lastmile_qr_scan", "android": "https://dc.lft.to/lastmile_qr_scan"}, "is_disabled": 0, "type": "electric_scooter"}, {"fusion_lon": 0.0, "is_reserved": 0, "bike_id": "96cde507f937c3117c87dedc16017790", "lon": -76.932108, "name": "96cde507f937c3117c87dedc16017790", "lat": 38.8966795, "fusion_lat": 0.0, "rental_uris": {"ios": "https://dc.lft.to/lastmile_qr_scan", "android": "https://dc.lft.to/lastmile_qr_scan"}, "is_disabled": 0, "type": "electric_scooter"}, {"fusion_lon": 0.0, "is_reserved": 0, "bike_id": "dfa7f37948482627469e8929e75e8aa0", "lon": -77.01821633333333, "name": "dfa7f37948482627469e8929e75e8aa0", "lat": 38.914041, "fusion_lat": 0.0, "rental_uris": {"ios": "https://dc.lft.to/lastmile_qr_scan", "android": "https://dc.lft.to/lastmile_qr_scan"}, "is_disabled": 0, "type": "electric_scooter"}, {"fusion_lon": 0.0, "is_reserved": 0, "bike_id": "5055dc9916a3178ea405d84e85ef4c83", "lon": -77.045993, "name": "5055dc9916a3178ea405d84e85ef4c83", "lat": 38.91359766666667, "fusion_lat": 0.0, "rental_uris": {"ios": "https://dc.lft.to/lastmile_qr_scan", "android": "https://dc.lft.to/lastmile_qr_scan"}, "is_disabled": 0, "type": "electric_scooter"}, {"fusion_lon": 0.0, "is_reserved": 0, "bike_id": "cec2a2dcbafe1e0bf84a75a5b446681b", "lon": -77.064227, "name": "cec2a2dcbafe1e0bf84a75a5b446681b", "lat": 38.93625866666667, "fusion_lat": 0.0, "rental_uris": {"ios": "https://dc.lft.to/lastmile_qr_scan", "android": "https://dc.lft.to/lastmile_qr_scan"}, "is_disabled": 0, "type": "electric_scooter"}, {"fusion_lon": 0.0, "is_reserved": 0, "bike_id": "b3a7bf10f618db724ff8240050951c2d", "lon": -77.01918816666667, "name": "b3a7bf10f618db724ff8240050951c2d", "lat": 38.92367, "fusion_lat": 0.0, "rental_uris": {"ios": "https://dc.lft.to/lastmile_qr_scan", "android": "https://dc.lft.to/lastmile_qr_scan"}, "is_disabled": 0, "type": "electric_scooter"}, {"fusion_lon": 0.0, "is_reserved": 0, "bike_id": "2aa31c86eee71cc86b4072cd18425334", "lon": -77.0451705, "name": "2aa31c86eee71cc86b4072cd18425334", "lat": 38.907820666666666, "fusion_lat": 0.0, "rental_uris": {"ios": "https://dc.lft.to/lastmile_qr_scan", "android": "https://dc.lft.to/lastmile_qr_scan"}, "is_disabled": 0, "type": "electric_scooter"}, {"fusion_lon": 0.0, "is_reserved": 0, "bike_id": "4d1bfb5111bb00564ceaa1da4b419002", "lon": -77.0270665, "name": "4d1bfb5111bb00564ceaa1da4b419002", "lat": 38.91757166666667, "fusion_lat": 0.0, "rental_uris": {"ios": "https://dc.lft.to/lastmile_qr_scan", "android": "https://dc.lft.to/lastmile_qr_scan"}, "is_disabled": 0, "type": "electric_scooter"}, {"fusion_lon": 0.0, "is_reserved": 0, "bike_id": "bc96c94e26d486dfc4f02ae79056c8e8", "lon": -77.0148105, "name": "bc96c94e26d486dfc4f02ae79056c8e8", "lat": 38.926754833333334, "fusion_lat": 0.0, "rental_uris": {"ios": "https://dc.lft.to/lastmile_qr_scan", "android": "https://dc.lft.to/lastmile_qr_scan"}, "is_disabled": 0, "type": "electric_scooter"}, {"fusion_lon": 0.0, "is_reserved": 0, "bike_id": "e337209a6fe683aca5e4f38b753cd6eb", "lon": -76.997199, "name": "e337209a6fe683aca5e4f38b753cd6eb", "lat": 38.90789866666667, "fusion_lat": 0.0, "rental_uris": {"ios": "https://dc.lft.to/lastmile_qr_scan", "android": "https://dc.lft.to/lastmile_qr_scan"}, "is_disabled": 0, "type": "electric_scooter"}, {"fusion_lon": 0.0, "is_reserved": 0, "bike_id": "f733a1a27c11b3b3920f47e9a44e67a1", "lon": -77.00878466666667, "name": "f733a1a27c11b3b3920f47e9a44e67a1", "lat": 38.90635533333333, "fusion_lat": 0.0, "rental_uris": {"ios": "https://dc.lft.to/lastmile_qr_scan", "android": "https://dc.lft.to/lastmile_qr_scan"}, "is_disabled": 0, "type": "electric_scooter"}, {"fusion_lon": 0.0, "is_reserved": 0, "bike_id": "521967946d87e8b86f7751f8c8ebcea8", "lon": -77.019588, "name": "521967946d87e8b86f7751f8c8ebcea8", "lat": 38.923707666666665, "fusion_lat": 0.0, "rental_uris": {"ios": "https://dc.lft.to/lastmile_qr_scan", "android": "https://dc.lft.to/lastmile_qr_scan"}, "is_disabled": 0, "type": "electric_scooter"}, {"fusion_lon": 0.0, "is_reserved": 0, "bike_id": "b32da33c5ee4c083074dfb5e182bbf20", "lon": -77.0342505, "name": "b32da33c5ee4c083074dfb5e182bbf20", "lat": 38.90382316666667, "fusion_lat": 0.0, "rental_uris": {"ios": "https://dc.lft.to/lastmile_qr_scan", "android": "https://dc.lft.to/lastmile_qr_scan"}, "is_disabled": 0, "type": "electric_scooter"}, {"fusion_lon": 0.0, "is_reserved": 0, "bike_id": "0a0fa661058488c5af556612ffa8c194", "lon": -77.01834766666667, "name": "0a0fa661058488c5af556612ffa8c194", "lat": 38.94201866666667, "fusion_lat": 0.0, "rental_uris": {"ios": "https://dc.lft.to/lastmile_qr_scan", "android": "https://dc.lft.to/lastmile_qr_scan"}, "is_disabled": 0, "type": "electric_scooter"}, {"fusion_lon": 0.0, "is_reserved": 0, "bike_id": "74a918407b00d9f7e54bdc72bf428e0c", "lon": -77.01763333333334, "name": "74a918407b00d9f7e54bdc72bf428e0c", "lat": 38.877227833333336, "fusion_lat": 0.0, "rental_uris": {"ios": "https://dc.lft.to/lastmile_qr_scan", "android": "https://dc.lft.to/lastmile_qr_scan"}, "is_disabled": 0, "type": "electric_scooter"}, {"fusion_lon": 0.0, "is_reserved": 0, "bike_id": "b7bd493af781638555b2b6336d453415", "lon": -77.0335385, "name": "b7bd493af781638555b2b6336d453415", "lat": 38.8982285, "fusion_lat": 0.0, "rental_uris": {"ios": "https://dc.lft.to/lastmile_qr_scan", "android": "https://dc.lft.to/lastmile_qr_scan"}, "is_disabled": 0, "type": "electric_scooter"}, {"fusion_lon": 0.0, "is_reserved": 0, "bike_id": "8cd91ba24a29fd6d802b8fe7c687df14", "lon": -77.06037283333333, "name": "8cd91ba24a29fd6d802b8fe7c687df14", "lat": 38.905261, "fusion_lat": 0.0, "rental_uris": {"ios": "https://dc.lft.to/lastmile_qr_scan", "android": "https://dc.lft.to/lastmile_qr_scan"}, "is_disabled": 0, "type": "electric_scooter"}, {"fusion_lon": 0.0, "is_reserved": 0, "bike_id": "094f8c9de893827ce2801f01c6afcc79", "lon": -76.93387483333333, "name": "094f8c9de893827ce2801f01c6afcc79", "lat": 38.899094166666664, "fusion_lat": 0.0, "rental_uris": {"ios": "https://dc.lft.to/lastmile_qr_scan", "android": "https://dc.lft.to/lastmile_qr_scan"}, "is_disabled": 0, "type": "electric_scooter"}, {"fusion_lon": 0.0, "is_reserved": 0, "bike_id": "a140c571416de192369e3a26a1e2a626", "lon": -77.02746366666666, "name": "a140c571416de192369e3a26a1e2a626", "lat": 38.8922105, "fusion_lat": 0.0, "rental_uris": {"ios": "https://dc.lft.to/lastmile_qr_scan", "android": "https://dc.lft.to/lastmile_qr_scan"}, "is_disabled": 0, "type": "electric_scooter"}, {"fusion_lon": 0.0, "is_reserved": 0, "bike_id": "b8257caee611683cff3ba6d8dbbcb243", "lon": -76.937417, "name": "b8257caee611683cff3ba6d8dbbcb243", "lat": 38.890163333333334, "fusion_lat": 0.0, "rental_uris": {"ios": "https://dc.lft.to/lastmile_qr_scan", "android": "https://dc.lft.to/lastmile_qr_scan"}, "is_disabled": 0, "type": "electric_scooter"}, {"fusion_lon": 0.0, "is_reserved": 0, "bike_id": "49cf41d9bfe1eda8a37ac2fab7cd868f", "lon": -77.025192, "name": "49cf41d9bfe1eda8a37ac2fab7cd868f", "lat": 38.938816, "fusion_lat": 0.0, "rental_uris": {"ios": "https://dc.lft.to/lastmile_qr_scan", "android": "https://dc.lft.to/lastmile_qr_scan"}, "is_disabled": 0, "type": "electric_scooter"}, {"fusion_lon": 0.0, "is_reserved": 0, "bike_id": "17a6555f9eb6c48d9daf945fdd9760d7", "lon": -77.03899333333334, "name": "17a6555f9eb6c48d9daf945fdd9760d7", "lat": 38.90252016666667, "fusion_lat": 0.0, "rental_uris": {"ios": "https://dc.lft.to/lastmile_qr_scan", "android": "https://dc.lft.to/lastmile_qr_scan"}, "is_disabled": 0, "type": "electric_scooter"}, {"fusion_lon": 0.0, "is_reserved": 0, "bike_id": "668d94a6b48e5076d27eb3fcae4e32d6", "lon": -77.02161583333333, "name": "668d94a6b48e5076d27eb3fcae4e32d6", "lat": 38.925014833333336, "fusion_lat": 0.0, "rental_uris": {"ios": "https://dc.lft.to/lastmile_qr_scan", "android": "https://dc.lft.to/lastmile_qr_scan"}, "is_disabled": 0, "type": "electric_scooter"}, {"fusion_lon": 0.0, "is_reserved": 0, "bike_id": "9825c6f4558e12539f8b81714358b929", "lon": -77.04802316666667, "name": "9825c6f4558e12539f8b81714358b929", "lat": 38.89221416666667, "fusion_lat": 0.0, "rental_uris": {"ios": "https://dc.lft.to/lastmile_qr_scan", "android": "https://dc.lft.to/lastmile_qr_scan"}, "is_disabled": 0, "type": "electric_scooter"}, {"fusion_lon": 0.0, "is_reserved": 0, "bike_id": "4222c59faff9adae3fa5a2470e5674ff", "lon": -76.9799775, "name": "4222c59faff9adae3fa5a2470e5674ff", "lat": 38.8988425, "fusion_lat": 0.0, "rental_uris": {"ios": "https://dc.lft.to/lastmile_qr_scan", "android": "https://dc.lft.to/lastmile_qr_scan"}, "is_disabled": 0, "type": "electric_scooter"}, {"fusion_lon": 0.0, "is_reserved": 0, "bike_id": "1ba8804b23baa14bfd3f0e16a09f528e", "lon": -77.0322095, "name": "1ba8804b23baa14bfd3f0e16a09f528e", "lat": 38.919051333333336, "fusion_lat": 0.0, "rental_uris": {"ios": "https://dc.lft.to/lastmile_qr_scan", "android": "https://dc.lft.to/lastmile_qr_scan"}, "is_disabled": 0, "type": "electric_scooter"}, {"fusion_lon": 0.0, "is_reserved": 0, "bike_id": "02a84e9eb334b12c5ff3cccfd3e25255", "lon": -77.04101633333333, "name": "02a84e9eb334b12c5ff3cccfd3e25255", "lat": 38.8985685, "fusion_lat": 0.0, "rental_uris": {"ios": "https://dc.lft.to/lastmile_qr_scan", "android": "https://dc.lft.to/lastmile_qr_scan"}, "is_disabled": 0, "type": "electric_scooter"}, {"fusion_lon": 0.0, "is_reserved": 0, "bike_id": "e8ffd2277ef86256666fedd441fdf929", "lon": -76.972332, "name": "e8ffd2277ef86256666fedd441fdf929", "lat": 38.92459266666667, "fusion_lat": 0.0, "rental_uris": {"ios": "https://dc.lft.to/lastmile_qr_scan", "android": "https://dc.lft.to/lastmile_qr_scan"}, "is_disabled": 0, "type": "electric_scooter"}, {"fusion_lon": 0.0, "is_reserved": 0, "bike_id": "6a6bcb74d924f3d19080d7fb8efd8d82", "lon": -76.97754283333333, "name": "6a6bcb74d924f3d19080d7fb8efd8d82", "lat": 38.86489483333333, "fusion_lat": 0.0, "rental_uris": {"ios": "https://dc.lft.to/lastmile_qr_scan", "android": "https://dc.lft.to/lastmile_qr_scan"}, "is_disabled": 0, "type": "electric_bike"}, {"fusion_lon": 0.0, "is_reserved": 0, "bike_id": "904144a86726920c09fe9f281eaf2fec", "lon": -77.05440416666667, "name": "904144a86726920c09fe9f281eaf2fec", "lat": 38.92675833333333, "fusion_lat": 0.0, "rental_uris": {"ios": "https://dc.lft.to/lastmile_qr_scan", "android": "https://dc.lft.to/lastmile_qr_scan"}, "is_disabled": 0, "type": "electric_scooter"}, {"fusion_lon": 0.0, "is_reserved": 0, "bike_id": "716ce6647d4e37c497c83ef08a1768ff", "lon": -77.02159366666666, "name": "716ce6647d4e37c497c83ef08a1768ff", "lat": 38.924441, "fusion_lat": 0.0, "rental_uris": {"ios": "https://dc.lft.to/lastmile_qr_scan", "android": "https://dc.lft.to/lastmile_qr_scan"}, "is_disabled": 0, "type": "electric_scooter"}, {"fusion_lon": 0.0, "is_reserved": 0, "bike_id": "d9d3e64004db8154fb9074e5b344bb3f", "lon": -77.04825733333334, "name": "d9d3e64004db8154fb9074e5b344bb3f", "lat": 38.90967283333333, "fusion_lat": 0.0, "rental_uris": {"ios": "https://dc.lft.to/lastmile_qr_scan", "android": "https://dc.lft.to/lastmile_qr_scan"}, "is_disabled": 0, "type": "electric_scooter"}, {"fusion_lon": 0.0, "is_reserved": 0, "bike_id": "54495e21ddb18ffb8a4ba8d142ba591d", "lon": -77.0299425, "name": "54495e21ddb18ffb8a4ba8d142ba591d", "lat": 38.94057033333333, "fusion_lat": 0.0, "rental_uris": {"ios": "https://dc.lft.to/lastmile_qr_scan", "android": "https://dc.lft.to/lastmile_qr_scan"}, "is_disabled": 0, "type": "electric_bike"}, {"fusion_lon": 0.0, "is_reserved": 0, "bike_id": "eeb6b619c3b4d309dcd0e9ddc8f2261f", "lon": -77.02224166666667, "name": "eeb6b619c3b4d309dcd0e9ddc8f2261f", "lat": 38.921024, "fusion_lat": 0.0, "rental_uris": {"ios": "https://dc.lft.to/lastmile_qr_scan", "android": "https://dc.lft.to/lastmile_qr_scan"}, "is_disabled": 0, "type": "electric_scooter"}, {"fusion_lon": 0.0, "is_reserved": 0, "bike_id": "1c4bacbf2c6da7278858754031f859a4", "lon": -77.01009083333334, "name": "1c4bacbf2c6da7278858754031f859a4", "lat": 38.867229, "fusion_lat": 0.0, "rental_uris": {"ios": "https://dc.lft.to/lastmile_qr_scan", "android": "https://dc.lft.to/lastmile_qr_scan"}, "is_disabled": 0, "type": "electric_scooter"}, {"fusion_lon": 0.0, "is_reserved": 0, "bike_id": "6ec25976fc3da9b67456db451f59896f", "lon": -77.04685333333333, "name": "6ec25976fc3da9b67456db451f59896f", "lat": 38.902989166666664, "fusion_lat": 0.0, "rental_uris": {"ios": "https://dc.lft.to/lastmile_qr_scan", "android": "https://dc.lft.to/lastmile_qr_scan"}, "is_disabled": 0, "type": "electric_scooter"}, {"fusion_lon": 0.0, "is_reserved": 0, "bike_id": "aac6378e77386f415f662b374cd5b34d", "lon": -77.06826833333334, "name": "aac6378e77386f415f662b374cd5b34d", "lat": 38.931539, "fusion_lat": 0.0, "rental_uris": {"ios": "https://dc.lft.to/lastmile_qr_scan", "android": "https://dc.lft.to/lastmile_qr_scan"}, "is_disabled": 0, "type": "electric_scooter"}, {"fusion_lon": 0.0, "is_reserved": 0, "bike_id": "20e3028533183d0e3edce8d2c5ebf44b", "lon": -77.0229495, "name": "20e3028533183d0e3edce8d2c5ebf44b", "lat": 38.9164025, "fusion_lat": 0.0, "rental_uris": {"ios": "https://dc.lft.to/lastmile_qr_scan", "android": "https://dc.lft.to/lastmile_qr_scan"}, "is_disabled": 0, "type": "electric_scooter"}, {"fusion_lon": 0.0, "is_reserved": 0, "bike_id": "9341b3175a4364d6f45da11283947154", "lon": -76.9815105, "name": "9341b3175a4364d6f45da11283947154", "lat": 39.00718583333333, "fusion_lat": 0.0, "rental_uris": {"ios": "https://dc.lft.to/lastmile_qr_scan", "android": "https://dc.lft.to/lastmile_qr_scan"}, "is_disabled": 0, "type": "electric_bike"}, {"fusion_lon": 0.0, "is_reserved": 0, "bike_id": "dc6cb5c3f304eb0fb00e67311498656b", "lon": -77.01800083333333, "name": "dc6cb5c3f304eb0fb00e67311498656b", "lat": 38.920613333333336, "fusion_lat": 0.0, "rental_uris": {"ios": "https://dc.lft.to/lastmile_qr_scan", "android": "https://dc.lft.to/lastmile_qr_scan"}, "is_disabled": 0, "type": "electric_scooter"}, {"fusion_lon": 0.0, "is_reserved": 0, "bike_id": "1fd627e4a0a8e080621099020fad29e3", "lon": -77.0033875, "name": "1fd627e4a0a8e080621099020fad29e3", "lat": 38.89364116666667, "fusion_lat": 0.0, "rental_uris": {"ios": "https://dc.lft.to/lastmile_qr_scan", "android": "https://dc.lft.to/lastmile_qr_scan"}, "is_disabled": 0, "type": "electric_scooter"}, {"fusion_lon": 0.0, "is_reserved": 0, "bike_id": "2e22f694205a25705d61118820bdc734", "lon": -77.02302383333334, "name": "2e22f694205a25705d61118820bdc734", "lat": 38.90181033333333, "fusion_lat": 0.0, "rental_uris": {"ios": "https://dc.lft.to/lastmile_qr_scan", "android": "https://dc.lft.to/lastmile_qr_scan"}, "is_disabled": 0, "type": "electric_scooter"}, {"fusion_lon": 0.0, "is_reserved": 0, "bike_id": "99d7c5e84645257e41f0d62be0d4b059", "lon": -77.04009633333334, "name": "99d7c5e84645257e41f0d62be0d4b059", "lat": 38.896346333333334, "fusion_lat": 0.0, "rental_uris": {"ios": "https://dc.lft.to/lastmile_qr_scan", "android": "https://dc.lft.to/lastmile_qr_scan"}, "is_disabled": 0, "type": "electric_scooter"}, {"fusion_lon": 0.0, "is_reserved": 0, "bike_id": "e47cfe39fa5c6a78cf7bfc5d8f20167e", "lon": -77.02488466666667, "name": "e47cfe39fa5c6a78cf7bfc5d8f20167e", "lat": 38.92068233333333, "fusion_lat": 0.0, "rental_uris": {"ios": "https://dc.lft.to/lastmile_qr_scan", "android": "https://dc.lft.to/lastmile_qr_scan"}, "is_disabled": 0, "type": "electric_scooter"}, {"fusion_lon": 0.0, "is_reserved": 0, "bike_id": "6ed7994aa870751fae23ee2c75c570b7", "lon": -77.0393265, "name": "6ed7994aa870751fae23ee2c75c570b7", "lat": 38.9248815, "fusion_lat": 0.0, "rental_uris": {"ios": "https://dc.lft.to/lastmile_qr_scan", "android": "https://dc.lft.to/lastmile_qr_scan"}, "is_disabled": 0, "type": "electric_scooter"}, {"fusion_lon": 0.0, "is_reserved": 0, "bike_id": "7a50c38a5e12987ab8e40897b053bcb2", "lon": -77.046878, "name": "7a50c38a5e12987ab8e40897b053bcb2", "lat": 38.902951333333334, "fusion_lat": 0.0, "rental_uris": {"ios": "https://dc.lft.to/lastmile_qr_scan", "android": "https://dc.lft.to/lastmile_qr_scan"}, "is_disabled": 0, "type": "electric_scooter"}, {"fusion_lon": 0.0, "is_reserved": 0, "bike_id": "dc5286ea4728954cedb6a50a399538d4", "lon": -77.04261183333334, "name": "dc5286ea4728954cedb6a50a399538d4", "lat": 38.90278283333333, "fusion_lat": 0.0, "rental_uris": {"ios": "https://dc.lft.to/lastmile_qr_scan", "android": "https://dc.lft.to/lastmile_qr_scan"}, "is_disabled": 0, "type": "electric_scooter"}, {"fusion_lon": 0.0, "is_reserved": 0, "bike_id": "f2bbc24e7328af312cb8e3ea880bb8c9", "lon": -77.021418, "name": "f2bbc24e7328af312cb8e3ea880bb8c9", "lat": 38.93299966666667, "fusion_lat": 0.0, "rental_uris": {"ios": "https://dc.lft.to/lastmile_qr_scan", "android": "https://dc.lft.to/lastmile_qr_scan"}, "is_disabled": 0, "type": "electric_scooter"}, {"fusion_lon": 0.0, "is_reserved": 0, "bike_id": "7bacf0cebf4fc267b90068a89c7c9dbd", "lon": -77.03390716666667, "name": "7bacf0cebf4fc267b90068a89c7c9dbd", "lat": 38.92052266666666, "fusion_lat": 0.0, "rental_uris": {"ios": "https://dc.lft.to/lastmile_qr_scan", "android": "https://dc.lft.to/lastmile_qr_scan"}, "is_disabled": 0, "type": "electric_scooter"}, {"fusion_lon": 0.0, "is_reserved": 0, "bike_id": "a10a209f280b873ca2f8de3ff30ff715", "lon": -77.0880635, "name": "a10a209f280b873ca2f8de3ff30ff715", "lat": 38.90958466666667, "fusion_lat": 0.0, "rental_uris": {"ios": "https://dc.lft.to/lastmile_qr_scan", "android": "https://dc.lft.to/lastmile_qr_scan"}, "is_disabled": 0, "type": "electric_bike"}, {"fusion_lon": 0.0, "is_reserved": 0, "bike_id": "5f542153e9d9c63fc182de2e55da1e31", "lon": -77.03416666666666, "name": "5f542153e9d9c63fc182de2e55da1e31", "lat": 38.91706216666667, "fusion_lat": 0.0, "rental_uris": {"ios": "https://dc.lft.to/lastmile_qr_scan", "android": "https://dc.lft.to/lastmile_qr_scan"}, "is_disabled": 0, "type": "electric_scooter"}, {"fusion_lon": 0.0, "is_reserved": 0, "bike_id": "855f25a39d600705c2dc96cfdf3c8482", "lon": -76.97640883333334, "name": "855f25a39d600705c2dc96cfdf3c8482", "lat": 38.8868915, "fusion_lat": 0.0, "rental_uris": {"ios": "https://dc.lft.to/lastmile_qr_scan", "android": "https://dc.lft.to/lastmile_qr_scan"}, "is_disabled": 0, "type": "electric_scooter"}, {"fusion_lon": 0.0, "is_reserved": 0, "bike_id": "efddd6e15e884a7c43299bceced20b99", "lon": -77.02826516666667, "name": "efddd6e15e884a7c43299bceced20b99", "lat": 38.902396333333336, "fusion_lat": 0.0, "rental_uris": {"ios": "https://dc.lft.to/lastmile_qr_scan", "android": "https://dc.lft.to/lastmile_qr_scan"}, "is_disabled": 0, "type": "electric_scooter"}, {"fusion_lon": 0.0, "is_reserved": 0, "bike_id": "48611808276daf51a00d77fdb807530c", "lon": -77.04220416666666, "name": "48611808276daf51a00d77fdb807530c", "lat": 38.921510166666664, "fusion_lat": 0.0, "rental_uris": {"ios": "https://dc.lft.to/lastmile_qr_scan", "android": "https://dc.lft.to/lastmile_qr_scan"}, "is_disabled": 0, "type": "electric_scooter"}, {"fusion_lon": 0.0, "is_reserved": 0, "bike_id": "7f67a240ab72f082a077c00ef52e8141", "lon": -77.00084, "name": "7f67a240ab72f082a077c00ef52e8141", "lat": 38.873768, "fusion_lat": 0.0, "rental_uris": {"ios": "https://dc.lft.to/lastmile_qr_scan", "android": "https://dc.lft.to/lastmile_qr_scan"}, "is_disabled": 0, "type": "electric_scooter"}, {"fusion_lon": 0.0, "is_reserved": 0, "bike_id": "fa6561684cc6504e23e23a4749218606", "lon": -77.02747633333334, "name": "fa6561684cc6504e23e23a4749218606", "lat": 38.8921945, "fusion_lat": 0.0, "rental_uris": {"ios": "https://dc.lft.to/lastmile_qr_scan", "android": "https://dc.lft.to/lastmile_qr_scan"}, "is_disabled": 0, "type": "electric_scooter"}, {"fusion_lon": 0.0, "is_reserved": 0, "bike_id": "2b6a0385733c97505edef49443d41b19", "lon": -77.00157833333333, "name": "2b6a0385733c97505edef49443d41b19", "lat": 38.902405333333334, "fusion_lat": 0.0, "rental_uris": {"ios": "https://dc.lft.to/lastmile_qr_scan", "android": "https://dc.lft.to/lastmile_qr_scan"}, "is_disabled": 0, "type": "electric_scooter"}, {"fusion_lon": 0.0, "is_reserved": 0, "bike_id": "adf5165c1de41738636fcff95cae10d6", "lon": -77.03526916666667, "name": "adf5165c1de41738636fcff95cae10d6", "lat": 38.92243116666667, "fusion_lat": 0.0, "rental_uris": {"ios": "https://dc.lft.to/lastmile_qr_scan", "android": "https://dc.lft.to/lastmile_qr_scan"}, "is_disabled": 0, "type": "electric_scooter"}, {"fusion_lon": 0.0, "is_reserved": 0, "bike_id": "6a59f4d53a5252469b9706379eaae69d", "lon": -77.00610433333334, "name": "6a59f4d53a5252469b9706379eaae69d", "lat": 38.89809266666666, "fusion_lat": 0.0, "rental_uris": {"ios": "https://dc.lft.to/lastmile_qr_scan", "android": "https://dc.lft.to/lastmile_qr_scan"}, "is_disabled": 0, "type": "electric_bike"}, {"fusion_lon": 0.0, "is_reserved": 0, "bike_id": "69497b04e6c7848a1e2851a31e0aef95", "lon": -76.93533483333333, "name": "69497b04e6c7848a1e2851a31e0aef95", "lat": 38.87893033333334, "fusion_lat": 0.0, "rental_uris": {"ios": "https://dc.lft.to/lastmile_qr_scan", "android": "https://dc.lft.to/lastmile_qr_scan"}, "is_disabled": 0, "type": "electric_scooter"}, {"fusion_lon": 0.0, "is_reserved": 0, "bike_id": "0b4866ca6531efdd15c299bd728ec8de", "lon": -76.94638966666666, "name": "0b4866ca6531efdd15c299bd728ec8de", "lat": 38.89832366666667, "fusion_lat": 0.0, "rental_uris": {"ios": "https://dc.lft.to/lastmile_qr_scan", "android": "https://dc.lft.to/lastmile_qr_scan"}, "is_disabled": 0, "type": "electric_scooter"}, {"fusion_lon": 0.0, "is_reserved": 0, "bike_id": "a040993edfa946dd4a28a24c763934d8", "lon": -76.98823466666667, "name": "a040993edfa946dd4a28a24c763934d8", "lat": 38.9003945, "fusion_lat": 0.0, "rental_uris": {"ios": "https://dc.lft.to/lastmile_qr_scan", "android": "https://dc.lft.to/lastmile_qr_scan"}, "is_disabled": 0, "type": "electric_scooter"}, {"fusion_lon": 0.0, "is_reserved": 0, "bike_id": "561ff830ce43d5de6d4ece665eb58346", "lon": -77.044686, "name": "561ff830ce43d5de6d4ece665eb58346", "lat": 38.912584, "fusion_lat": 0.0, "rental_uris": {"ios": "https://dc.lft.to/lastmile_qr_scan", "android": "https://dc.lft.to/lastmile_qr_scan"}, "is_disabled": 0, "type": "electric_scooter"}, {"fusion_lon": 0.0, "is_reserved": 0, "bike_id": "fd1354069e2cf466da61ef29ea7f379d", "lon": -77.02524616666666, "name": "fd1354069e2cf466da61ef29ea7f379d", "lat": 38.938736166666665, "fusion_lat": 0.0, "rental_uris": {"ios": "https://dc.lft.to/lastmile_qr_scan", "android": "https://dc.lft.to/lastmile_qr_scan"}, "is_disabled": 0, "type": "electric_scooter"}, {"fusion_lon": 0.0, "is_reserved": 0, "bike_id": "19a3d75ba508367596903ffd924f8c5c", "lon": -77.02093766666667, "name": "19a3d75ba508367596903ffd924f8c5c", "lat": 38.9271865, "fusion_lat": 0.0, "rental_uris": {"ios": "https://dc.lft.to/lastmile_qr_scan", "android": "https://dc.lft.to/lastmile_qr_scan"}, "is_disabled": 0, "type": "electric_scooter"}, {"fusion_lon": 0.0, "is_reserved": 0, "bike_id": "93b1f638ee2494f6637228e37e20f7c8", "lon": -77.0215095, "name": "93b1f638ee2494f6637228e37e20f7c8", "lat": 38.90240266666667, "fusion_lat": 0.0, "rental_uris": {"ios": "https://dc.lft.to/lastmile_qr_scan", "android": "https://dc.lft.to/lastmile_qr_scan"}, "is_disabled": 0, "type": "electric_scooter"}, {"fusion_lon": 0.0, "is_reserved": 0, "bike_id": "a03f35db2ad3612f4821f8ce015d83ea", "lon": -77.05038216666667, "name": "a03f35db2ad3612f4821f8ce015d83ea", "lat": 38.91573983333333, "fusion_lat": 0.0, "rental_uris": {"ios": "https://dc.lft.to/lastmile_qr_scan", "android": "https://dc.lft.to/lastmile_qr_scan"}, "is_disabled": 0, "type": "electric_scooter"}, {"fusion_lon": 0.0, "is_reserved": 0, "bike_id": "22a4a4fd2ed40087de90164cca6ff349", "lon": -77.041691, "name": "22a4a4fd2ed40087de90164cca6ff349", "lat": 38.9105335, "fusion_lat": 0.0, "rental_uris": {"ios": "https://dc.lft.to/lastmile_qr_scan", "android": "https://dc.lft.to/lastmile_qr_scan"}, "is_disabled": 0, "type": "electric_scooter"}, {"fusion_lon": 0.0, "is_reserved": 0, "bike_id": "302fc52f20b5cb462566b681fa8de655", "lon": -77.03621316666667, "name": "302fc52f20b5cb462566b681fa8de655", "lat": 38.9284785, "fusion_lat": 0.0, "rental_uris": {"ios": "https://dc.lft.to/lastmile_qr_scan", "android": "https://dc.lft.to/lastmile_qr_scan"}, "is_disabled": 0, "type": "electric_scooter"}, {"fusion_lon": 0.0, "is_reserved": 0, "bike_id": "087400284085345ed0cbf098edc8dc6d", "lon": -77.04660066666666, "name": "087400284085345ed0cbf098edc8dc6d", "lat": 38.904283166666666, "fusion_lat": 0.0, "rental_uris": {"ios": "https://dc.lft.to/lastmile_qr_scan", "android": "https://dc.lft.to/lastmile_qr_scan"}, "is_disabled": 0, "type": "electric_scooter"}, {"fusion_lon": 0.0, "is_reserved": 0, "bike_id": "300f3a7a60972074574372955cc15e00", "lon": -77.01367116666667, "name": "300f3a7a60972074574372955cc15e00", "lat": 38.9622855, "fusion_lat": 0.0, "rental_uris": {"ios": "https://dc.lft.to/lastmile_qr_scan", "android": "https://dc.lft.to/lastmile_qr_scan"}, "is_disabled": 0, "type": "electric_scooter"}, {"fusion_lon": 0.0, "is_reserved": 0, "bike_id": "b4f33dd3a954457e4cf963c1cfc9f35b", "lon": -77.01530133333333, "name": "b4f33dd3a954457e4cf963c1cfc9f35b", "lat": 38.895176666666664, "fusion_lat": 0.0, "rental_uris": {"ios": "https://dc.lft.to/lastmile_qr_scan", "android": "https://dc.lft.to/lastmile_qr_scan"}, "is_disabled": 0, "type": "electric_scooter"}, {"fusion_lon": 0.0, "is_reserved": 0, "bike_id": "3c57048814770f93006caf70831c74f4", "lon": -77.0248185, "name": "3c57048814770f93006caf70831c74f4", "lat": 38.93102583333334, "fusion_lat": 0.0, "rental_uris": {"ios": "https://dc.lft.to/lastmile_qr_scan", "android": "https://dc.lft.to/lastmile_qr_scan"}, "is_disabled": 0, "type": "electric_scooter"}, {"fusion_lon": 0.0, "is_reserved": 0, "bike_id": "cda36c902412de8f8ce6c7978b4240a1", "lon": -76.99107883333333, "name": "cda36c902412de8f8ce6c7978b4240a1", "lat": 38.80480466666667, "fusion_lat": 0.0, "rental_uris": {"ios": "https://dc.lft.to/lastmile_qr_scan", "android": "https://dc.lft.to/lastmile_qr_scan"}, "is_disabled": 0, "type": "electric_bike"}, {"fusion_lon": 0.0, "is_reserved": 0, "bike_id": "a2209cbe276a6fd7cdbecc990b64085d", "lon": -77.01555416666666, "name": "a2209cbe276a6fd7cdbecc990b64085d", "lat": 38.92799866666667, "fusion_lat": 0.0, "rental_uris": {"ios": "https://dc.lft.to/lastmile_qr_scan", "android": "https://dc.lft.to/lastmile_qr_scan"}, "is_disabled": 0, "type": "electric_scooter"}, {"fusion_lon": 0.0, "is_reserved": 0, "bike_id": "5577f4b53134f4d3a852d71e4d6e1ee9", "lon": -76.98724366666667, "name": "5577f4b53134f4d3a852d71e4d6e1ee9", "lat": 38.863397166666665, "fusion_lat": 0.0, "rental_uris": {"ios": "https://dc.lft.to/lastmile_qr_scan", "android": "https://dc.lft.to/lastmile_qr_scan"}, "is_disabled": 0, "type": "electric_bike"}, {"fusion_lon": 0.0, "is_reserved": 0, "bike_id": "1eb9c5eedc6534ab2ae25752f6809ede", "lon": -77.05442216666667, "name": "1eb9c5eedc6534ab2ae25752f6809ede", "lat": 38.784628166666664, "fusion_lat": 0.0, "rental_uris": {"ios": "https://dc.lft.to/lastmile_qr_scan", "android": "https://dc.lft.to/lastmile_qr_scan"}, "is_disabled": 0, "type": "electric_bike"}, {"fusion_lon": 0.0, "is_reserved": 0, "bike_id": "13fc736e1dfbf4e82655f2a5bbec7708", "lon": -77.04177783333333, "name": "13fc736e1dfbf4e82655f2a5bbec7708", "lat": 38.91704266666667, "fusion_lat": 0.0, "rental_uris": {"ios": "https://dc.lft.to/lastmile_qr_scan", "android": "https://dc.lft.to/lastmile_qr_scan"}, "is_disabled": 0, "type": "electric_scooter"}, {"fusion_lon": 0.0, "is_reserved": 0, "bike_id": "48d5e6ce52f9950fac70c8b993bca2ef", "lon": -77.0318765, "name": "48d5e6ce52f9950fac70c8b993bca2ef", "lat": 38.8923085, "fusion_lat": 0.0, "rental_uris": {"ios": "https://dc.lft.to/lastmile_qr_scan", "android": "https://dc.lft.to/lastmile_qr_scan"}, "is_disabled": 0, "type": "electric_scooter"}, {"fusion_lon": 0.0, "is_reserved": 0, "bike_id": "e99c849fdaf329b9be94178f0f1d7be1", "lon": -77.007076, "name": "e99c849fdaf329b9be94178f0f1d7be1", "lat": 38.907322, "fusion_lat": 0.0, "rental_uris": {"ios": "https://dc.lft.to/lastmile_qr_scan", "android": "https://dc.lft.to/lastmile_qr_scan"}, "is_disabled": 0, "type": "electric_scooter"}, {"fusion_lon": 0.0, "is_reserved": 0, "bike_id": "ea75a40b9f3293444b7623e10de8fc4d", "lon": -76.97935266666667, "name": "ea75a40b9f3293444b7623e10de8fc4d", "lat": 38.90692833333333, "fusion_lat": 0.0, "rental_uris": {"ios": "https://dc.lft.to/lastmile_qr_scan", "android": "https://dc.lft.to/lastmile_qr_scan"}, "is_disabled": 0, "type": "electric_scooter"}, {"fusion_lon": 0.0, "is_reserved": 0, "bike_id": "c65fb50f1f6f45ce394f4fb40095e1a0", "lon": -76.99859066666667, "name": "c65fb50f1f6f45ce394f4fb40095e1a0", "lat": 38.88658233333334, "fusion_lat": 0.0, "rental_uris": {"ios": "https://dc.lft.to/lastmile_qr_scan", "android": "https://dc.lft.to/lastmile_qr_scan"}, "is_disabled": 0, "type": "electric_scooter"}, {"fusion_lon": 0.0, "is_reserved": 0, "bike_id": "cba9aba3dbd4861f213c56704a88303c", "lon": -76.98897216666667, "name": "cba9aba3dbd4861f213c56704a88303c", "lat": 38.89548333333333, "fusion_lat": 0.0, "rental_uris": {"ios": "https://dc.lft.to/lastmile_qr_scan", "android": "https://dc.lft.to/lastmile_qr_scan"}, "is_disabled": 0, "type": "electric_scooter"}, {"fusion_lon": 0.0, "is_reserved": 0, "bike_id": "62a4475e8a08c1fc66b4607163ca50db", "lon": -77.01772683333333, "name": "62a4475e8a08c1fc66b4607163ca50db", "lat": 38.902541, "fusion_lat": 0.0, "rental_uris": {"ios": "https://dc.lft.to/lastmile_qr_scan", "android": "https://dc.lft.to/lastmile_qr_scan"}, "is_disabled": 0, "type": "electric_scooter"}, {"fusion_lon": 0.0, "is_reserved": 0, "bike_id": "364d2b0f8c84cc10217c644225c154b3", "lon": -77.02303266666667, "name": "364d2b0f8c84cc10217c644225c154b3", "lat": 38.9656015, "fusion_lat": 0.0, "rental_uris": {"ios": "https://dc.lft.to/lastmile_qr_scan", "android": "https://dc.lft.to/lastmile_qr_scan"}, "is_disabled": 0, "type": "electric_bike"}, {"fusion_lon": 0.0, "is_reserved": 0, "bike_id": "ed452107e7a75e410711232d3d2a3883", "lon": -77.02360933333334, "name": "ed452107e7a75e410711232d3d2a3883", "lat": 38.937576, "fusion_lat": 0.0, "rental_uris": {"ios": "https://dc.lft.to/lastmile_qr_scan", "android": "https://dc.lft.to/lastmile_qr_scan"}, "is_disabled": 0, "type": "electric_scooter"}, {"fusion_lon": 0.0, "is_reserved": 0, "bike_id": "2b1ea5bae5a80427e1cfc832226b3701", "lon": -77.02385716666667, "name": "2b1ea5bae5a80427e1cfc832226b3701", "lat": 38.892345, "fusion_lat": 0.0, "rental_uris": {"ios": "https://dc.lft.to/lastmile_qr_scan", "android": "https://dc.lft.to/lastmile_qr_scan"}, "is_disabled": 0, "type": "electric_scooter"}, {"fusion_lon": 0.0, "is_reserved": 0, "bike_id": "c1eea1b46bb4b4a1b620a58e64b97911", "lon": -77.05278816666667, "name": "c1eea1b46bb4b4a1b620a58e64b97911", "lat": 38.91016966666667, "fusion_lat": 0.0, "rental_uris": {"ios": "https://dc.lft.to/lastmile_qr_scan", "android": "https://dc.lft.to/lastmile_qr_scan"}, "is_disabled": 0, "type": "electric_scooter"}, {"fusion_lon": 0.0, "is_reserved": 0, "bike_id": "7c4a623a10a5a1d9164eafbf33f5013d", "lon": -77.04337766666667, "name": "7c4a623a10a5a1d9164eafbf33f5013d", "lat": 38.89229983333333, "fusion_lat": 0.0, "rental_uris": {"ios": "https://dc.lft.to/lastmile_qr_scan", "android": "https://dc.lft.to/lastmile_qr_scan"}, "is_disabled": 0, "type": "electric_scooter"}, {"fusion_lon": 0.0, "is_reserved": 0, "bike_id": "8cadca35915c6cfabb33e8bd95154cbd", "lon": -77.03848916666666, "name": "8cadca35915c6cfabb33e8bd95154cbd", "lat": 38.90279183333333, "fusion_lat": 0.0, "rental_uris": {"ios": "https://dc.lft.to/lastmile_qr_scan", "android": "https://dc.lft.to/lastmile_qr_scan"}, "is_disabled": 0, "type": "electric_scooter"}, {"fusion_lon": 0.0, "is_reserved": 0, "bike_id": "e5a3cfa2d47127d3697334de90197052", "lon": -77.02640483333333, "name": "e5a3cfa2d47127d3697334de90197052", "lat": 38.8975015, "fusion_lat": 0.0, "rental_uris": {"ios": "https://dc.lft.to/lastmile_qr_scan", "android": "https://dc.lft.to/lastmile_qr_scan"}, "is_disabled": 0, "type": "electric_scooter"}, {"fusion_lon": 0.0, "is_reserved": 0, "bike_id": "35718410558930a35a2fe42967451717", "lon": -77.01486316666667, "name": "35718410558930a35a2fe42967451717", "lat": 38.92673083333333, "fusion_lat": 0.0, "rental_uris": {"ios": "https://dc.lft.to/lastmile_qr_scan", "android": "https://dc.lft.to/lastmile_qr_scan"}, "is_disabled": 0, "type": "electric_scooter"}, {"fusion_lon": 0.0, "is_reserved": 0, "bike_id": "f8db03160173b8e49fea3d671f984153", "lon": -77.0312455, "name": "f8db03160173b8e49fea3d671f984153", "lat": 38.95935033333333, "fusion_lat": 0.0, "rental_uris": {"ios": "https://dc.lft.to/lastmile_qr_scan", "android": "https://dc.lft.to/lastmile_qr_scan"}, "is_disabled": 0, "type": "electric_scooter"}, {"fusion_lon": 0.0, "is_reserved": 0, "bike_id": "9a7b0e603c1051fdf232cd35777a1159", "lon": -77.04833316666667, "name": "9a7b0e603c1051fdf232cd35777a1159", "lat": 38.900363166666665, "fusion_lat": 0.0, "rental_uris": {"ios": "https://dc.lft.to/lastmile_qr_scan", "android": "https://dc.lft.to/lastmile_qr_scan"}, "is_disabled": 0, "type": "electric_scooter"}, {"fusion_lon": 0.0, "is_reserved": 0, "bike_id": "83f4f22bfc5cb503fb264dc3e173c271", "lon": -77.02733566666667, "name": "83f4f22bfc5cb503fb264dc3e173c271", "lat": 38.93456483333333, "fusion_lat": 0.0, "rental_uris": {"ios": "https://dc.lft.to/lastmile_qr_scan", "android": "https://dc.lft.to/lastmile_qr_scan"}, "is_disabled": 0, "type": "electric_scooter"}, {"fusion_lon": 0.0, "is_reserved": 0, "bike_id": "01602a79419ccae3fd01885e1052fff0", "lon": -77.02860333333334, "name": "01602a79419ccae3fd01885e1052fff0", "lat": 38.916969333333334, "fusion_lat": 0.0, "rental_uris": {"ios": "https://dc.lft.to/lastmile_qr_scan", "android": "https://dc.lft.to/lastmile_qr_scan"}, "is_disabled": 0, "type": "electric_scooter"}, {"fusion_lon": 0.0, "is_reserved": 0, "bike_id": "66184aa6b03684ecd2fde3adfe2678e4", "lon": -76.95144433333333, "name": "66184aa6b03684ecd2fde3adfe2678e4", "lat": 39.08432116666667, "fusion_lat": 0.0, "rental_uris": {"ios": "https://dc.lft.to/lastmile_qr_scan", "android": "https://dc.lft.to/lastmile_qr_scan"}, "is_disabled": 0, "type": "electric_bike"}, {"fusion_lon": 0.0, "is_reserved": 0, "bike_id": "ab213a5d19941ca06e9ebbf2adb32b60", "lon": -76.93042, "name": "ab213a5d19941ca06e9ebbf2adb32b60", "lat": 38.883948, "fusion_lat": 0.0, "rental_uris": {"ios": "https://dc.lft.to/lastmile_qr_scan", "android": "https://dc.lft.to/lastmile_qr_scan"}, "is_disabled": 0, "type": "electric_scooter"}, {"fusion_lon": 0.0, "is_reserved": 0, "bike_id": "26db8e7681a656b7b0ddd486c4fb87a5", "lon": -76.99499933333334, "name": "26db8e7681a656b7b0ddd486c4fb87a5", "lat": 38.882386833333335, "fusion_lat": 0.0, "rental_uris": {"ios": "https://dc.lft.to/lastmile_qr_scan", "android": "https://dc.lft.to/lastmile_qr_scan"}, "is_disabled": 0, "type": "electric_scooter"}, {"fusion_lon": 0.0, "is_reserved": 0, "bike_id": "3172df75343d02c4ac41f9d04299c43c", "lon": -77.02671783333334, "name": "3172df75343d02c4ac41f9d04299c43c", "lat": 38.897263833333334, "fusion_lat": 0.0, "rental_uris": {"ios": "https://dc.lft.to/lastmile_qr_scan", "android": "https://dc.lft.to/lastmile_qr_scan"}, "is_disabled": 0, "type": "electric_scooter"}, {"fusion_lon": 0.0, "is_reserved": 0, "bike_id": "aa0f5c75c7dca536632cabb1165068a2", "lon": -76.93674566666667, "name": "aa0f5c75c7dca536632cabb1165068a2", "lat": 38.886614333333334, "fusion_lat": 0.0, "rental_uris": {"ios": "https://dc.lft.to/lastmile_qr_scan", "android": "https://dc.lft.to/lastmile_qr_scan"}, "is_disabled": 0, "type": "electric_scooter"}, {"fusion_lon": 0.0, "is_reserved": 0, "bike_id": "9d625d844622a72c9d251994db50c596", "lon": -77.02218866666666, "name": "9d625d844622a72c9d251994db50c596", "lat": 38.92471666666667, "fusion_lat": 0.0, "rental_uris": {"ios": "https://dc.lft.to/lastmile_qr_scan", "android": "https://dc.lft.to/lastmile_qr_scan"}, "is_disabled": 0, "type": "electric_scooter"}, {"fusion_lon": 0.0, "is_reserved": 0, "bike_id": "260963869ec0f13d638f67f185b7bccf", "lon": -77.011691, "name": "260963869ec0f13d638f67f185b7bccf", "lat": 38.92134566666667, "fusion_lat": 0.0, "rental_uris": {"ios": "https://dc.lft.to/lastmile_qr_scan", "android": "https://dc.lft.to/lastmile_qr_scan"}, "is_disabled": 0, "type": "electric_scooter"}, {"fusion_lon": 0.0, "is_reserved": 0, "bike_id": "4f7c633e95937e46e6a1bd635dcfec29", "lon": -77.021611, "name": "4f7c633e95937e46e6a1bd635dcfec29", "lat": 38.926109333333336, "fusion_lat": 0.0, "rental_uris": {"ios": "https://dc.lft.to/lastmile_qr_scan", "android": "https://dc.lft.to/lastmile_qr_scan"}, "is_disabled": 0, "type": "electric_scooter"}, {"fusion_lon": 0.0, "is_reserved": 0, "bike_id": "1836ba6197c31b649c73413bf64ab468", "lon": -77.01796283333333, "name": "1836ba6197c31b649c73413bf64ab468", "lat": 38.9214385, "fusion_lat": 0.0, "rental_uris": {"ios": "https://dc.lft.to/lastmile_qr_scan", "android": "https://dc.lft.to/lastmile_qr_scan"}, "is_disabled": 0, "type": "electric_scooter"}, {"fusion_lon": 0.0, "is_reserved": 0, "bike_id": "d4f6dff9c6699037bbc229269fc15dd9", "lon": -76.97809533333333, "name": "d4f6dff9c6699037bbc229269fc15dd9", "lat": 38.906158, "fusion_lat": 0.0, "rental_uris": {"ios": "https://dc.lft.to/lastmile_qr_scan", "android": "https://dc.lft.to/lastmile_qr_scan"}, "is_disabled": 0, "type": "electric_scooter"}, {"fusion_lon": 0.0, "is_reserved": 0, "bike_id": "05b249803b7b69008427408cfbad7379", "lon": -77.03550383333334, "name": "05b249803b7b69008427408cfbad7379", "lat": 38.92867966666667, "fusion_lat": 0.0, "rental_uris": {"ios": "https://dc.lft.to/lastmile_qr_scan", "android": "https://dc.lft.to/lastmile_qr_scan"}, "is_disabled": 0, "type": "electric_scooter"}, {"fusion_lon": 0.0, "is_reserved": 0, "bike_id": "a2653a418bae3c45f52a45734fab7682", "lon": -77.03182983333333, "name": "a2653a418bae3c45f52a45734fab7682", "lat": 38.9037045, "fusion_lat": 0.0, "rental_uris": {"ios": "https://dc.lft.to/lastmile_qr_scan", "android": "https://dc.lft.to/lastmile_qr_scan"}, "is_disabled": 0, "type": "electric_scooter"}, {"fusion_lon": 0.0, "is_reserved": 0, "bike_id": "5ccb206a9a2ad52d2b99a7aff9e77f2c", "lon": -77.04562916666667, "name": "5ccb206a9a2ad52d2b99a7aff9e77f2c", "lat": 38.920757, "fusion_lat": 0.0, "rental_uris": {"ios": "https://dc.lft.to/lastmile_qr_scan", "android": "https://dc.lft.to/lastmile_qr_scan"}, "is_disabled": 0, "type": "electric_scooter"}, {"fusion_lon": 0.0, "is_reserved": 0, "bike_id": "1c05b071b93dc997dacac4be2a4e4855", "lon": -77.35975066666667, "name": "1c05b071b93dc997dacac4be2a4e4855", "lat": 38.95705016666667, "fusion_lat": 0.0, "rental_uris": {"ios": "https://dc.lft.to/lastmile_qr_scan", "android": "https://dc.lft.to/lastmile_qr_scan"}, "is_disabled": 0, "type": "electric_bike"}, {"fusion_lon": 0.0, "is_reserved": 0, "bike_id": "ad4df8248c36296ca3eafa9989d151af", "lon": -77.04163733333333, "name": "ad4df8248c36296ca3eafa9989d151af", "lat": 38.91489516666667, "fusion_lat": 0.0, "rental_uris": {"ios": "https://dc.lft.to/lastmile_qr_scan", "android": "https://dc.lft.to/lastmile_qr_scan"}, "is_disabled": 0, "type": "electric_scooter"}, {"fusion_lon": 0.0, "is_reserved": 0, "bike_id": "298d9821676e03f251230dd96bcf931a", "lon": -77.04198816666667, "name": "298d9821676e03f251230dd96bcf931a", "lat": 38.90365166666667, "fusion_lat": 0.0, "rental_uris": {"ios": "https://dc.lft.to/lastmile_qr_scan", "android": "https://dc.lft.to/lastmile_qr_scan"}, "is_disabled": 0, "type": "electric_scooter"}, {"fusion_lon": 0.0, "is_reserved": 0, "bike_id": "ad6057de36fcc0a52c6140acf0f057cd", "lon": -77.03151316666667, "name": "ad6057de36fcc0a52c6140acf0f057cd", "lat": 38.91628816666667, "fusion_lat": 0.0, "rental_uris": {"ios": "https://dc.lft.to/lastmile_qr_scan", "android": "https://dc.lft.to/lastmile_qr_scan"}, "is_disabled": 0, "type": "electric_scooter"}, {"fusion_lon": 0.0, "is_reserved": 0, "bike_id": "8dfc516529c50e05cf9352522d32de40", "lon": -77.1133625, "name": "8dfc516529c50e05cf9352522d32de40", "lat": 38.80404083333333, "fusion_lat": 0.0, "rental_uris": {"ios": "https://dc.lft.to/lastmile_qr_scan", "android": "https://dc.lft.to/lastmile_qr_scan"}, "is_disabled": 0, "type": "electric_bike"}, {"fusion_lon": 0.0, "is_reserved": 0, "bike_id": "fc92ffe9f5a4ffecbde03ceae647c544", "lon": -77.03442683333333, "name": "fc92ffe9f5a4ffecbde03ceae647c544", "lat": 38.91711933333333, "fusion_lat": 0.0, "rental_uris": {"ios": "https://dc.lft.to/lastmile_qr_scan", "android": "https://dc.lft.to/lastmile_qr_scan"}, "is_disabled": 0, "type": "electric_scooter"}, {"fusion_lon": 0.0, "is_reserved": 0, "bike_id": "cf928dfc32187797f47e116ad27a3480", "lon": -77.04576616666667, "name": "cf928dfc32187797f47e116ad27a3480", "lat": 38.9073555, "fusion_lat": 0.0, "rental_uris": {"ios": "https://dc.lft.to/lastmile_qr_scan", "android": "https://dc.lft.to/lastmile_qr_scan"}, "is_disabled": 0, "type": "electric_scooter"}, {"fusion_lon": 0.0, "is_reserved": 0, "bike_id": "5bd19acda8581597890af60dcbb6603e", "lon": -77.04108516666666, "name": "5bd19acda8581597890af60dcbb6603e", "lat": 38.910676, "fusion_lat": 0.0, "rental_uris": {"ios": "https://dc.lft.to/lastmile_qr_scan", "android": "https://dc.lft.to/lastmile_qr_scan"}, "is_disabled": 0, "type": "electric_scooter"},