{"data": {"bikes": [{"lat": 38.92791166666667, "fusion_lat": 0.0, "type": "electric_scooter", "bike_id": "ff137cc0955baae7f2914f7f453199b6", "is_reserved": 0, "rental_uris": {"ios": "https://dc.lft.to/lastmile_qr_scan", "android": "https://dc.lft.to/lastmile_qr_scan"}, "is_disabled": 0, "lon": -77.0220505, "name": "ff137cc0955baae7f2914f7f453199b6", "fusion_lon": 0.0}, {"lat": 38.87883183333334, "fusion_lat": 0.0, "type": "electric_bike", "bike_id": "fdfa7abe2f690d99e4a87d89835c930d", "is_reserved": 0, "rental_uris": {"ios": "https://dc.lft.to/lastmile_qr_scan", "android": "https://dc.lft.to/lastmile_qr_scan"}, "is_disabled": 0, "lon": -77.09611116666666, "name": "fdfa7abe2f690d99e4a87d89835c930d", "fusion_lon": 0.0}, {"lat": 38.9111285, "fusion_lat": 0.0, "type": "electric_scooter", "bike_id": "fee3fb32daae656e6dcf94dd3687178a", "is_reserved": 0, "rental_uris": {"ios": "https://dc.lft.to/lastmile_qr_scan", "android": "https://dc.lft.to/lastmile_qr_scan"}, "is_disabled": 0, "lon": -77.03916083333333, "name": "fee3fb32daae656e6dcf94dd3687178a", "fusion_lon": 0.0}, {"lat": 38.9156255, "fusion_lat": 0.0, "type": "electric_scooter", "bike_id": "221f2625c488c8d7938d862b963d0e4b", "is_reserved": 0, "rental_uris": {"ios": "https://dc.lft.to/lastmile_qr_scan", "android": "https://dc.lft.to/lastmile_qr_scan"}, "is_disabled": 0, "lon": -77.03902733333334, "name": "221f2625c488c8d7938d862b963d0e4b", "fusion_lon": 0.0}, {"lat": 38.89194416666667, "fusion_lat": 0.0, "type": "electric_scooter", "bike_id": "7772927db37405de389bb52257cfab08", "is_reserved": 0, "rental_uris": {"ios": "https://dc.lft.to/lastmile_qr_scan", "android": "https://dc.lft.to/lastmile_qr_scan"}, "is_disabled": 0, "lon": -77.02002183333333, "name": "7772927db37405de389bb52257cfab08", "fusion_lon": 0.0}, {"lat": 38.92504783333333, "fusion_lat": 0.0, "type": "electric_scooter", "bike_id": "9bcaf7677e65bc0b562dcf0e5be9755c", "is_reserved": 0, "rental_uris": {"ios": "https://dc.lft.to/lastmile_qr_scan", "android": "https://dc.lft.to/lastmile_qr_scan"}, "is_disabled": 0, "lon": -77.02355233333333, "name": "9bcaf7677e65bc0b562dcf0e5be9755c", "fusion_lon": 0.0}, {"lat": 38.916939166666666, "fusion_lat": 0.0, "type": "electric_scooter", "bike_id": "510f50276f7bc1a9edda5b93ee0c3b15", "is_reserved": 0, "rental_uris": {"ios": "https://dc.lft.to/lastmile_qr_scan", "android": "https://dc.lft.to/lastmile_qr_scan"}, "is_disabled": 0, "lon": -77.04265116666667, "name": "510f50276f7bc1a9edda5b93ee0c3b15", "fusion_lon": 0.0}, {"lat": 38.897911666666666, "fusion_lat": 0.0, "type": "electric_scooter", "bike_id": "ec07a3f06422280f1fb055a1e4099920", "is_reserved": 0, "rental_uris": {"ios": "https://dc.lft.to/lastmile_qr_scan", "android": "https://dc.lft.to/lastmile_qr_scan"}, "is_disabled": 0, "lon": -77.00911116666667, "name": "ec07a3f06422280f1fb055a1e4099920", "fusion_lon": 0.0}, {"lat": 38.92450516666667, "fusion_lat": 0.0, "type": "electric_scooter", "bike_id": "1d69363728f736d410acaca6ca1d5cef", "is_reserved": 0, "rental_uris": {"ios": "https://dc.lft.to/lastmile_qr_scan", "android": "https://dc.lft.to/lastmile_qr_scan"}, "is_disabled": 0, "lon": -77.04111666666667, "name": "1d69363728f736d410acaca6ca1d5cef", "fusion_lon": 0.0}, {"lat": 38.91133816666667, "fusion_lat": 0.0, "type": "electric_scooter", "bike_id": "826c13ddc1852949ad943f7efd6342af", "is_reserved": 0, "rental_uris": {"ios": "https://dc.lft.to/lastmile_qr_scan", "android": "https://dc.lft.to/lastmile_qr_scan"}, "is_disabled": 0, "lon": -77.03187866666667, "name": "826c13ddc1852949ad943f7efd6342af", "fusion_lon": 0.0}, {"lat": 38.91770966666667, "fusion_lat": 0.0, "type": "electric_scooter", "bike_id": "41a2d91d82dfe07a86d9b42904810126", "is_reserved": 0, "rental_uris": {"ios": "https://dc.lft.to/lastmile_qr_scan", "android": "https://dc.lft.to/lastmile_qr_scan"}, "is_disabled": 0, "lon": -77.04054866666667, "name": "41a2d91d82dfe07a86d9b42904810126", "fusion_lon": 0.0}, {"lat": 38.95730833333333, "fusion_lat": 0.0, "type": "electric_scooter", "bike_id": "8421e80d19b2f0500172971ced761584", "is_reserved": 0, "rental_uris": {"ios": "https://dc.lft.to/lastmile_qr_scan", "android": "https://dc.lft.to/lastmile_qr_scan"}, "is_disabled": 0, "lon": -77.02401883333333, "name": "8421e80d19b2f0500172971ced761584", "fusion_lon": 0.0}, {"lat": 38.9170895, "fusion_lat": 0.0, "type": "electric_scooter", "bike_id": "e1e5061979e41e733481896531fc203f", "is_reserved": 0, "rental_uris": {"ios": "https://dc.lft.to/lastmile_qr_scan", "android": "https://dc.lft.to/lastmile_qr_scan"}, "is_disabled": 0, "lon": -77.09575566666666, "name": "e1e5061979e41e733481896531fc203f", "fusion_lon": 0.0}, {"lat": 38.90856466666666, "fusion_lat": 0.0, "type": "electric_scooter", "bike_id": "f6f5cd2df18e07fc42d6923a4816f1a9", "is_reserved": 0, "rental_uris": {"ios": "https://dc.lft.to/lastmile_qr_scan", "android": "https://dc.lft.to/lastmile_qr_scan"}, "is_disabled": 0, "lon": -77.02349033333333, "name": "f6f5cd2df18e07fc42d6923a4816f1a9", "fusion_lon": 0.0}, {"lat": 38.9515275, "fusion_lat": 0.0, "type": "electric_scooter", "bike_id": "95cffd9b8693dedd5f10adefb8f651d1", "is_reserved": 0, "rental_uris": {"ios": "https://dc.lft.to/lastmile_qr_scan", "android": "https://dc.lft.to/lastmile_qr_scan"}, "is_disabled": 0, "lon": -77.01869466666666, "name": "95cffd9b8693dedd5f10adefb8f651d1", "fusion_lon": 0.0}, {"lat": 38.91786716666667, "fusion_lat": 0.0, "type": "electric_scooter", "bike_id": "0fd1553d200512f755643de86cb4c1e2", "is_reserved": 0, "rental_uris": {"ios": "https://dc.lft.to/lastmile_qr_scan", "android": "https://dc.lft.to/lastmile_qr_scan"}, "is_disabled": 0, "lon": -77.0421135, "name": "0fd1553d200512f755643de86cb4c1e2", "fusion_lon": 0.0}, {"lat": 38.898346, "fusion_lat": 0.0, "type": "electric_scooter", "bike_id": "d3af3f74d71109dd426ecd6217dba96f", "is_reserved": 0, "rental_uris": {"ios": "https://dc.lft.to/lastmile_qr_scan", "android": "https://dc.lft.to/lastmile_qr_scan"}, "is_disabled": 0, "lon": -77.025844, "name": "d3af3f74d71109dd426ecd6217dba96f", "fusion_lon": 0.0}, {"lat": 38.904165666666664, "fusion_lat": 0.0, "type": "electric_scooter", "bike_id": "494be39de3ff212b6d7baf8a8b4c947e", "is_reserved": 0, "rental_uris": {"ios": "https://dc.lft.to/lastmile_qr_scan", "android": "https://dc.lft.to/lastmile_qr_scan"}, "is_disabled": 0, "lon": -77.0499165, "name": "494be39de3ff212b6d7baf8a8b4c947e", "fusion_lon": 0.0}, {"lat": 38.923211333333334, "fusion_lat": 0.0, "type": "electric_scooter", "bike_id": "7ae53b311c1d58dc6a57382307009be7", "is_reserved": 0, "rental_uris": {"ios": "https://dc.lft.to/lastmile_qr_scan", "android": "https://dc.lft.to/lastmile_qr_scan"}, "is_disabled": 0, "lon": -77.02121233333334, "name": "7ae53b311c1d58dc6a57382307009be7", "fusion_lon": 0.0}, {"lat": 38.904065333333335, "fusion_lat": 0.0, "type": "electric_scooter", "bike_id": "4bc5d91c121ae509d2446ddb849343c4", "is_reserved": 0, "rental_uris": {"ios": "https://dc.lft.to/lastmile_qr_scan", "android": "https://dc.lft.to/lastmile_qr_scan"}, "is_disabled": 0, "lon": -76.97331983333333, "name": "4bc5d91c121ae509d2446ddb849343c4", "fusion_lon": 0.0}, {"lat": 38.90080366666667, "fusion_lat": 0.0, "type": "electric_scooter", "bike_id": "91bb7b1cccc868d7bf34f075c591a58c", "is_reserved": 0, "rental_uris": {"ios": "https://dc.lft.to/lastmile_qr_scan", "android": "https://dc.lft.to/lastmile_qr_scan"}, "is_disabled": 0, "lon": -77.04990566666666, "name": "91bb7b1cccc868d7bf34f075c591a58c", "fusion_lon": 0.0}, {"lat": 38.919241666666665, "fusion_lat": 0.0, "type": "electric_scooter", "bike_id": "b8c7914c48488e25a942d4966e515f3e", "is_reserved": 0, "rental_uris": {"ios": "https://dc.lft.to/lastmile_qr_scan", "android": "https://dc.lft.to/lastmile_qr_scan"}, "is_disabled": 0, "lon": -77.03390416666667, "name": "b8c7914c48488e25a942d4966e515f3e", "fusion_lon": 0.0}, {"lat": 38.9066565, "fusion_lat": 0.0, "type": "electric_scooter", "bike_id": "c501e6de85f6fd1f80415f1f3f3e9653", "is_reserved": 0, "rental_uris": {"ios": "https://dc.lft.to/lastmile_qr_scan", "android": "https://dc.lft.to/lastmile_qr_scan"}, "is_disabled": 0, "lon": -77.03861166666667, "name": "c501e6de85f6fd1f80415f1f3f3e9653", "fusion_lon": 0.0}, {"lat": 38.913060333333334, "fusion_lat": 0.0, "type": "electric_scooter", "bike_id": "0949c9bf7bb5d15024f830ca05915834", "is_reserved": 0, "rental_uris": {"ios": "https://dc.lft.to/lastmile_qr_scan", "android": "https://dc.lft.to/lastmile_qr_scan"}, "is_disabled": 0, "lon": -77.06683733333334, "name": "0949c9bf7bb5d15024f830ca05915834", "fusion_lon": 0.0}, {"lat": 38.90025266666667, "fusion_lat": 0.0, "type": "electric_scooter", "bike_id": "5632f07b6f5e37a9b2bb33c7d7ac1a83", "is_reserved": 0, "rental_uris": {"ios": "https://dc.lft.to/lastmile_qr_scan", "android": "https://dc.lft.to/lastmile_qr_scan"}, "is_disabled": 0, "lon": -76.98742016666667, "name": "5632f07b6f5e37a9b2bb33c7d7ac1a83", "fusion_lon": 0.0}, {"lat": 38.921754, "fusion_lat": 0.0, "type": "electric_scooter", "bike_id": "3f0950da8e86fbb94d702feff0f5334d", "is_reserved": 0, "rental_uris": {"ios": "https://dc.lft.to/lastmile_qr_scan", "android": "https://dc.lft.to/lastmile_qr_scan"}, "is_disabled": 0, "lon": -77.0191125, "name": "3f0950da8e86fbb94d702feff0f5334d", "fusion_lon": 0.0}, {"lat": 38.846123166666665, "fusion_lat": 0.0, "type": "electric_scooter", "bike_id": "ba1ee1182dceb8af614216b5c7124631", "is_reserved": 0, "rental_uris": {"ios": "https://dc.lft.to/lastmile_qr_scan", "android": "https://dc.lft.to/lastmile_qr_scan"}, "is_disabled": 0, "lon": -76.98154533333333, "name": "ba1ee1182dceb8af614216b5c7124631", "fusion_lon": 0.0}, {"lat": 38.85692866666667, "fusion_lat": 0.0, "type": "electric_scooter", "bike_id": "98a12116bdd060e07c29a06e4538d45d", "is_reserved": 0, "rental_uris": {"ios": "https://dc.lft.to/lastmile_qr_scan", "android": "https://dc.lft.to/lastmile_qr_scan"}, "is_disabled": 0, "lon": -76.98975816666666, "name": "98a12116bdd060e07c29a06e4538d45d", "fusion_lon": 0.0}, {"lat": 38.930103833333334, "fusion_lat": 0.0, "type": "electric_scooter", "bike_id": "ef4aba67c1c392870f4014a8bd2d8ee9", "is_reserved": 0, "rental_uris": {"ios": "https://dc.lft.to/lastmile_qr_scan", "android": "https://dc.lft.to/lastmile_qr_scan"}, "is_disabled": 0, "lon": -77.0142865, "name": "ef4aba67c1c392870f4014a8bd2d8ee9", "fusion_lon": 0.0}, {"lat": 39.0579355, "fusion_lat": 0.0, "type": "electric_bike", "bike_id": "6360d1ae3fad83d4ee773ece60d0a4de", "is_reserved": 0, "rental_uris": {"ios": "https://dc.lft.to/lastmile_qr_scan", "android": "https://dc.lft.to/lastmile_qr_scan"}, "is_disabled": 0, "lon": -77.15026766666666, "name": "6360d1ae3fad83d4ee773ece60d0a4de", "fusion_lon": 0.0}, {"lat": 38.90058116666667, "fusion_lat": 0.0, "type": "electric_scooter", "bike_id": "9ced173165ced5c21cc164d349953b45", "is_reserved": 0, "rental_uris": {"ios": "https://dc.lft.to/lastmile_qr_scan", "android": "https://dc.lft.to/lastmile_qr_scan"}, "is_disabled": 0, "lon": -76.93473166666666, "name": "9ced173165ced5c21cc164d349953b45", "fusion_lon": 0.0}, {"lat": 38.922542666666665, "fusion_lat": 0.0, "type": "electric_scooter", "bike_id": "dbcb54c94e7cff250ece24d045db0aeb", "is_reserved": 0, "rental_uris": {"ios": "https://dc.lft.to/lastmile_qr_scan", "android": "https://dc.lft.to/lastmile_qr_scan"}, "is_disabled": 0, "lon": -77.01968716666667, "name": "dbcb54c94e7cff250ece24d045db0aeb", "fusion_lon": 0.0}, {"lat": 38.905821833333334, "fusion_lat": 0.0, "type": "electric_scooter", "bike_id": "704ffccbbae7cf74a05388b2abe190cf", "is_reserved": 0, "rental_uris": {"ios": "https://dc.lft.to/lastmile_qr_scan", "android": "https://dc.lft.to/lastmile_qr_scan"}, "is_disabled": 0, "lon": -77.07019366666667, "name": "704ffccbbae7cf74a05388b2abe190cf", "fusion_lon": 0.0}, {"lat": 38.924126, "fusion_lat": 0.0, "type": "electric_scooter", "bike_id": "6f96adc36f6effbe85511a36c5a4fe05", "is_reserved": 0, "rental_uris": {"ios": "https://dc.lft.to/lastmile_qr_scan", "android": "https://dc.lft.to/lastmile_qr_scan"}, "is_disabled": 0, "lon": -77.02087033333333, "name": "6f96adc36f6effbe85511a36c5a4fe05", "fusion_lon": 0.0}, {"lat": 38.90105583333333, "fusion_lat": 0.0, "type": "electric_scooter", "bike_id": "317d5ee8a5f4b25c44f6c58581623440", "is_reserved": 0, "rental_uris": {"ios": "https://dc.lft.to/lastmile_qr_scan", "android": "https://dc.lft.to/lastmile_qr_scan"}, "is_disabled": 0, "lon": -77.01997066666667, "name": "317d5ee8a5f4b25c44f6c58581623440", "fusion_lon": 0.0}, {"lat": 38.89830833333333, "fusion_lat": 0.0, "type": "electric_bike", "bike_id": "979d4872e1da042a3287cf6640d7189d", "is_reserved": 0, "rental_uris": {"ios": "https://dc.lft.to/lastmile_qr_scan", "android": "https://dc.lft.to/lastmile_qr_scan"}, "is_disabled": 0, "lon": -77.024663, "name": "979d4872e1da042a3287cf6640d7189d", "fusion_lon": 0.0}, {"lat": 38.92244183333333, "fusion_lat": 0.0, "type": "electric_scooter", "bike_id": "b14729d09c0d7a4655ef81e0fbb96156", "is_reserved": 0, "rental_uris": {"ios": "https://dc.lft.to/lastmile_qr_scan", "android": "https://dc.lft.to/lastmile_qr_scan"}, "is_disabled": 0, "lon": -77.01823766666666, "name": "b14729d09c0d7a4655ef81e0fbb96156", "fusion_lon": 0.0}, {"lat": 38.9216895, "fusion_lat": 0.0, "type": "electric_scooter", "bike_id": "3a62a9f1c34fd772fe49e10bc2b632ac", "is_reserved": 0, "rental_uris": {"ios": "https://dc.lft.to/lastmile_qr_scan", "android": "https://dc.lft.to/lastmile_qr_scan"}, "is_disabled": 0, "lon": -77.038226, "name": "3a62a9f1c34fd772fe49e10bc2b632ac", "fusion_lon": 0.0}, {"lat": 38.912747, "fusion_lat": 0.0, "type": "electric_scooter", "bike_id": "62e313ca31fc586e7e7e411f88a7d552", "is_reserved": 0, "rental_uris": {"ios": "https://dc.lft.to/lastmile_qr_scan", "android": "https://dc.lft.to/lastmile_qr_scan"}, "is_disabled": 0, "lon": -77.04472, "name": "62e313ca31fc586e7e7e411f88a7d552", "fusion_lon": 0.0}, {"lat": 38.9813675, "fusion_lat": 0.0, "type": "electric_scooter", "bike_id": "aaed408076838572c0781af48bac6658", "is_reserved": 0, "rental_uris": {"ios": "https://dc.lft.to/lastmile_qr_scan", "android": "https://dc.lft.to/lastmile_qr_scan"}, "is_disabled": 0, "lon": -77.02230016666667, "name": "aaed408076838572c0781af48bac6658", "fusion_lon": 0.0}, {"lat": 38.910584666666665, "fusion_lat": 0.0, "type": "electric_scooter", "bike_id": "b07710eb0a1caef3a672f26151794f55", "is_reserved": 0, "rental_uris": {"ios": "https://dc.lft.to/lastmile_qr_scan", "android": "https://dc.lft.to/lastmile_qr_scan"}, "is_disabled": 0, "lon": -77.03088366666667, "name": "b07710eb0a1caef3a672f26151794f55", "fusion_lon": 0.0}, {"lat": 38.909443833333334, "fusion_lat": 0.0, "type": "electric_scooter", "bike_id": "906d9c1d2bf5498954845403e8a93298", "is_reserved": 0, "rental_uris": {"ios": "https://dc.lft.to/lastmile_qr_scan", "android": "https://dc.lft.to/lastmile_qr_scan"}, "is_disabled": 0, "lon": -77.04491833333333, "name": "906d9c1d2bf5498954845403e8a93298", "fusion_lon": 0.0}, {"lat": 38.8748015, "fusion_lat": 0.0, "type": "electric_bike", "bike_id": "964f4d4fa962fa16aa3a6b25f31f4cce", "is_reserved": 0, "rental_uris": {"ios": "https://dc.lft.to/lastmile_qr_scan", "android": "https://dc.lft.to/lastmile_qr_scan"}, "is_disabled": 0, "lon": -76.965292, "name": "964f4d4fa962fa16aa3a6b25f31f4cce", "fusion_lon": 0.0}, {"lat": 38.89611283333333, "fusion_lat": 0.0, "type": "electric_scooter", "bike_id": "7d5cfaa5a74f98afa5e924b9e39e7462", "is_reserved": 0, "rental_uris": {"ios": "https://dc.lft.to/lastmile_qr_scan", "android": "https://dc.lft.to/lastmile_qr_scan"}, "is_disabled": 0, "lon": -76.981096, "name": "7d5cfaa5a74f98afa5e924b9e39e7462", "fusion_lon": 0.0}, {"lat": 38.91294116666667, "fusion_lat": 0.0, "type": "electric_scooter", "bike_id": "0234e46313d997441c1c89b3c9354fbd", "is_reserved": 0, "rental_uris": {"ios": "https://dc.lft.to/lastmile_qr_scan", "android": "https://dc.lft.to/lastmile_qr_scan"}, "is_disabled": 0, "lon": -77.0238185, "name": "0234e46313d997441c1c89b3c9354fbd", "fusion_lon": 0.0}, {"lat": 38.89624216666667, "fusion_lat": 0.0, "type": "electric_scooter", "bike_id": "bb0af531a5123e1ba4837f4179a51fdb", "is_reserved": 0, "rental_uris": {"ios": "https://dc.lft.to/lastmile_qr_scan", "android": "https://dc.lft.to/lastmile_qr_scan"}, "is_disabled": 0, "lon": -77.01604533333334, "name": "bb0af531a5123e1ba4837f4179a51fdb", "fusion_lon": 0.0}, {"lat": 38.89605916666667, "fusion_lat": 0.0, "type": "electric_scooter", "bike_id": "ea0e0f1f0e2508746ef6992db8208427", "is_reserved": 0, "rental_uris": {"ios": "https://dc.lft.to/lastmile_qr_scan", "android": "https://dc.lft.to/lastmile_qr_scan"}, "is_disabled": 0, "lon": -77.02199783333333, "name": "ea0e0f1f0e2508746ef6992db8208427", "fusion_lon": 0.0}, {"lat": 38.910155333333336, "fusion_lat": 0.0, "type": "electric_scooter", "bike_id": "9a9c781d87392b65f8ec3ddb83bca472", "is_reserved": 0, "rental_uris": {"ios": "https://dc.lft.to/lastmile_qr_scan", "android": "https://dc.lft.to/lastmile_qr_scan"}, "is_disabled": 0, "lon": -77.05264916666667, "name": "9a9c781d87392b65f8ec3ddb83bca472", "fusion_lon": 0.0}, {"lat": 38.90717433333333, "fusion_lat": 0.0, "type": "electric_scooter", "bike_id": "03c7e8e37892c64803659e0c7679e6e4", "is_reserved": 0, "rental_uris": {"ios": "https://dc.lft.to/lastmile_qr_scan", "android": "https://dc.lft.to/lastmile_qr_scan"}, "is_disabled": 0, "lon": -77.02887633333333, "name": "03c7e8e37892c64803659e0c7679e6e4", "fusion_lon": 0.0}, {"lat": 38.87351683333333, "fusion_lat": 0.0, "type": "electric_scooter", "bike_id": "1471f8e3cefb20ccbda6abc32348df93", "is_reserved": 0, "rental_uris": {"ios": "https://dc.lft.to/lastmile_qr_scan", "android": "https://dc.lft.to/lastmile_qr_scan"}, "is_disabled": 0, "lon": -77.0058215, "name": "1471f8e3cefb20ccbda6abc32348df93", "fusion_lon": 0.0}, {"lat": 38.93606833333333, "fusion_lat": 0.0, "type": "electric_scooter", "bike_id": "4d67ea5069daf8df6402330af839079a", "is_reserved": 0, "rental_uris": {"ios": "https://dc.lft.to/lastmile_qr_scan", "android": "https://dc.lft.to/lastmile_qr_scan"}, "is_disabled": 0, "lon": -77.03729833333334, "name": "4d67ea5069daf8df6402330af839079a", "fusion_lon": 0.0}, {"lat": 38.90397133333333, "fusion_lat": 0.0, "type": "electric_scooter", "bike_id": "04b2edfec99c8620246a9bfd2c899795", "is_reserved": 0, "rental_uris": {"ios": "https://dc.lft.to/lastmile_qr_scan", "android": "https://dc.lft.to/lastmile_qr_scan"}, "is_disabled": 0, "lon": -77.06515433333334, "name": "04b2edfec99c8620246a9bfd2c899795", "fusion_lon": 0.0}, {"lat": 38.90003866666667, "fusion_lat": 0.0, "type": "electric_scooter", "bike_id": "3e4f1bd09b0fe446cf41e1865815022f", "is_reserved": 0, "rental_uris": {"ios": "https://dc.lft.to/lastmile_qr_scan", "android": "https://dc.lft.to/lastmile_qr_scan"}, "is_disabled": 0, "lon": -76.996281, "name": "3e4f1bd09b0fe446cf41e1865815022f", "fusion_lon": 0.0}, {"lat": 38.95254533333333, "fusion_lat": 0.0, "type": "electric_scooter", "bike_id": "51b5246bbd13b67d8e3280407c16614e", "is_reserved": 0, "rental_uris": {"ios": "https://dc.lft.to/lastmile_qr_scan", "android": "https://dc.lft.to/lastmile_qr_scan"}, "is_disabled": 0, "lon": -77.00207716666667, "name": "51b5246bbd13b67d8e3280407c16614e", "fusion_lon": 0.0}, {"lat": 38.919098166666664, "fusion_lat": 0.0, "type": "electric_scooter", "bike_id": "3994820956c528dde09e28bdb71733f2", "is_reserved": 0, "rental_uris": {"ios": "https://dc.lft.to/lastmile_qr_scan", "android": "https://dc.lft.to/lastmile_qr_scan"}, "is_disabled": 0, "lon": -76.97091866666666, "name": "3994820956c528dde09e28bdb71733f2", "fusion_lon": 0.0}, {"lat": 38.90347416666667, "fusion_lat": 0.0, "type": "electric_scooter", "bike_id": "12c990ad49c0c50d1382edf1b66a938a", "is_reserved": 0, "rental_uris": {"ios": "https://dc.lft.to/lastmile_qr_scan", "android": "https://dc.lft.to/lastmile_qr_scan"}, "is_disabled": 0, "lon": -76.98506316666666, "name": "12c990ad49c0c50d1382edf1b66a938a", "fusion_lon": 0.0}, {"lat": 38.893632, "fusion_lat": 0.0, "type": "electric_scooter", "bike_id": "57d2de7f3d08e3387228f127a78872ca", "is_reserved": 0, "rental_uris": {"ios": "https://dc.lft.to/lastmile_qr_scan", "android": "https://dc.lft.to/lastmile_qr_scan"}, "is_disabled": 0, "lon": -76.99079683333333, "name": "57d2de7f3d08e3387228f127a78872ca", "fusion_lon": 0.0}, {"lat": 38.95133583333333, "fusion_lat": 0.0, "type": "electric_scooter", "bike_id": "0108456c2ff434909834d241ebb95067", "is_reserved": 0, "rental_uris": {"ios": "https://dc.lft.to/lastmile_qr_scan", "android": "https://dc.lft.to/lastmile_qr_scan"}, "is_disabled": 0, "lon": -77.0272225, "name": "0108456c2ff434909834d241ebb95067", "fusion_lon": 0.0}, {"lat": 38.924536833333335, "fusion_lat": 0.0, "type": "electric_scooter", "bike_id": "c3c45dbbc5e26ce0ff997ae91f65730c", "is_reserved": 0, "rental_uris": {"ios": "https://dc.lft.to/lastmile_qr_scan", "android": "https://dc.lft.to/lastmile_qr_scan"}, "is_disabled": 0, "lon": -77.02255166666667, "name": "c3c45dbbc5e26ce0ff997ae91f65730c", "fusion_lon": 0.0}, {"lat": 38.95737316666667, "fusion_lat": 0.0, "type": "electric_scooter", "bike_id": "0df8cb6c35f767d33674007fb5965b19", "is_reserved": 0, "rental_uris": {"ios": "https://dc.lft.to/lastmile_qr_scan", "android": "https://dc.lft.to/lastmile_qr_scan"}, "is_disabled": 0, "lon": -77.0242255, "name": "0df8cb6c35f767d33674007fb5965b19", "fusion_lon": 0.0}, {"lat": 38.958370333333335, "fusion_lat": 0.0, "type": "electric_scooter", "bike_id": "a68bb449d384cb200ba65e74f85c966b", "is_reserved": 0, "rental_uris": {"ios": "https://dc.lft.to/lastmile_qr_scan", "android": "https://dc.lft.to/lastmile_qr_scan"}, "is_disabled": 0, "lon": -77.01513416666667, "name": "a68bb449d384cb200ba65e74f85c966b", "fusion_lon": 0.0}, {"lat": 39.03929766666667, "fusion_lat": 0.0, "type": "electric_bike", "bike_id": "f1ca24fc06cc04a8e04fcb7ba2245a88", "is_reserved": 0, "rental_uris": {"ios": "https://dc.lft.to/lastmile_qr_scan", "android": "https://dc.lft.to/lastmile_qr_scan"}, "is_disabled": 0, "lon": -77.02850133333334, "name": "f1ca24fc06cc04a8e04fcb7ba2245a88", "fusion_lon": 0.0}, {"lat": 38.919479833333334, "fusion_lat": 0.0, "type": "electric_scooter", "bike_id": "d7cabbf1f1ce051afc24cb7e7c0d8d13", "is_reserved": 0, "rental_uris": {"ios": "https://dc.lft.to/lastmile_qr_scan", "android": "https://dc.lft.to/lastmile_qr_scan"}, "is_disabled": 0, "lon": -77.0288595, "name": "d7cabbf1f1ce051afc24cb7e7c0d8d13", "fusion_lon": 0.0}, {"lat": 38.899696666666664, "fusion_lat": 0.0, "type": "electric_scooter", "bike_id": "02ace380a62121642722bc56385d6ac8", "is_reserved": 0, "rental_uris": {"ios": "https://dc.lft.to/lastmile_qr_scan", "android": "https://dc.lft.to/lastmile_qr_scan"}, "is_disabled": 0, "lon": -77.04720883333333, "name": "02ace380a62121642722bc56385d6ac8", "fusion_lon": 0.0}, {"lat": 38.89225166666667, "fusion_lat": 0.0, "type": "electric_scooter", "bike_id": "90af6b95884f302bc58c4a5ec5b71d06", "is_reserved": 0, "rental_uris": {"ios": "https://dc.lft.to/lastmile_qr_scan", "android": "https://dc.lft.to/lastmile_qr_scan"}, "is_disabled": 0, "lon": -77.04305866666667, "name": "90af6b95884f302bc58c4a5ec5b71d06", "fusion_lon": 0.0}, {"lat": 38.96143266666667, "fusion_lat": 0.0, "type": "electric_scooter", "bike_id": "4af3b1c5cd530c444e8bc237e16fdb25", "is_reserved": 0, "rental_uris": {"ios": "https://dc.lft.to/lastmile_qr_scan", "android": "https://dc.lft.to/lastmile_qr_scan"}, "is_disabled": 0, "lon": -77.02784966666667, "name": "4af3b1c5cd530c444e8bc237e16fdb25", "fusion_lon": 0.0}, {"lat": 38.87647366666667, "fusion_lat": 0.0, "type": "electric_scooter", "bike_id": "4011475a0458b02e6c07a9a46e609a77", "is_reserved": 0, "rental_uris": {"ios": "https://dc.lft.to/lastmile_qr_scan", "android": "https://dc.lft.to/lastmile_qr_scan"}, "is_disabled": 0, "lon": -76.96505083333334, "name": "4011475a0458b02e6c07a9a46e609a77", "fusion_lon": 0.0}, {"lat": 38.955051833333336, "fusion_lat": 0.0, "type": "electric_bike", "bike_id": "2f1c6ed53c9e4d84d9e3daeaecebf7cd", "is_reserved": 0, "rental_uris": {"ios": "https://dc.lft.to/lastmile_qr_scan", "android": "https://dc.lft.to/lastmile_qr_scan"}, "is_disabled": 0, "lon": -76.9935135, "name": "2f1c6ed53c9e4d84d9e3daeaecebf7cd", "fusion_lon": 0.0}, {"lat": 38.903113166666664, "fusion_lat": 0.0, "type": "electric_scooter", "bike_id": "774059b83f0007dd5c2ba5fdd9fb73eb", "is_reserved": 0, "rental_uris": {"ios": "https://dc.lft.to/lastmile_qr_scan", "android": "https://dc.lft.to/lastmile_qr_scan"}, "is_disabled": 0, "lon": -77.02222316666666, "name": "774059b83f0007dd5c2ba5fdd9fb73eb", "fusion_lon": 0.0}, {"lat": 38.89880016666667, "fusion_lat": 0.0, "type": "electric_scooter", "bike_id": "609880f4cc59957bb25dc80e5c550d8e", "is_reserved": 0, "rental_uris": {"ios": "https://dc.lft.to/lastmile_qr_scan", "android": "https://dc.lft.to/lastmile_qr_scan"}, "is_disabled": 0, "lon": -77.02176, "name": "609880f4cc59957bb25dc80e5c550d8e", "fusion_lon": 0.0}, {"lat": 38.949957, "fusion_lat": 0.0, "type": "electric_scooter", "bike_id": "ef8a8b92d5e70baf4da9d83acc996eb0", "is_reserved": 0, "rental_uris": {"ios": "https://dc.lft.to/lastmile_qr_scan", "android": "https://dc.lft.to/lastmile_qr_scan"}, "is_disabled": 0, "lon": -77.03329033333333, "name": "ef8a8b92d5e70baf4da9d83acc996eb0", "fusion_lon": 0.0}, {"lat": 38.90595733333333, "fusion_lat": 0.0, "type": "electric_scooter", "bike_id": "e11f6b7680fd33918c4f729d99447f0e", "is_reserved": 0, "rental_uris": {"ios": "https://dc.lft.to/lastmile_qr_scan", "android": "https://dc.lft.to/lastmile_qr_scan"}, "is_disabled": 0, "lon": -77.04112316666667, "name": "e11f6b7680fd33918c4f729d99447f0e", "fusion_lon": 0.0}, {"lat": 38.9125595, "fusion_lat": 0.0, "type": "electric_scooter", "bike_id": "0a0dd52bf29324b5a1dbce8b18248b36", "is_reserved": 0, "rental_uris": {"ios": "https://dc.lft.to/lastmile_qr_scan", "android": "https://dc.lft.to/lastmile_qr_scan"}, "is_disabled": 0, "lon": -77.007706, "name": "0a0dd52bf29324b5a1dbce8b18248b36", "fusion_lon": 0.0}, {"lat": 38.866393, "fusion_lat": 0.0, "type": "electric_scooter", "bike_id": "12830423412ef3b91adbeac1f925d0c6", "is_reserved": 0, "rental_uris": {"ios": "https://dc.lft.to/lastmile_qr_scan", "android": "https://dc.lft.to/lastmile_qr_scan"}, "is_disabled": 0, "lon": -76.982598, "name": "12830423412ef3b91adbeac1f925d0c6", "fusion_lon": 0.0}, {"lat": 38.93431533333333, "fusion_lat": 0.0, "type": "electric_scooter", "bike_id": "0f269b8016955eaadaf89b0827e101b5", "is_reserved": 0, "rental_uris": {"ios": "https://dc.lft.to/lastmile_qr_scan", "android": "https://dc.lft.to/lastmile_qr_scan"}, "is_disabled": 0, "lon": -77.04537083333334, "name": "0f269b8016955eaadaf89b0827e101b5", "fusion_lon": 0.0}, {"lat": 38.9737265, "fusion_lat": 0.0, "type": "electric_scooter", "bike_id": "1543a60d3a93695bd85dba6a361f41e0", "is_reserved": 0, "rental_uris": {"ios": "https://dc.lft.to/lastmile_qr_scan", "android": "https://dc.lft.to/lastmile_qr_scan"}, "is_disabled": 0, "lon": -77.01849283333334, "name": "1543a60d3a93695bd85dba6a361f41e0", "fusion_lon": 0.0}, {"lat": 38.901847, "fusion_lat": 0.0, "type": "electric_scooter", "bike_id": "f53ad7b4c0672e6628dc49e020e31bc7", "is_reserved": 0, "rental_uris": {"ios": "https://dc.lft.to/lastmile_qr_scan", "android": "https://dc.lft.to/lastmile_qr_scan"}, "is_disabled": 0, "lon": -76.98819133333333, "name": "f53ad7b4c0672e6628dc49e020e31bc7", "fusion_lon": 0.0}, {"lat": 38.91051316666667, "fusion_lat": 0.0, "type": "electric_scooter", "bike_id": "998184c7b92fcba3163cc0359c2e9447", "is_reserved": 0, "rental_uris": {"ios": "https://dc.lft.to/lastmile_qr_scan", "android": "https://dc.lft.to/lastmile_qr_scan"}, "is_disabled": 0, "lon": -77.04347766666666, "name": "998184c7b92fcba3163cc0359c2e9447", "fusion_lon": 0.0}, {"lat": 38.925063, "fusion_lat": 0.0, "type": "electric_scooter", "bike_id": "77bfef7d285e231735ea52c90875b463", "is_reserved": 0, "rental_uris": {"ios": "https://dc.lft.to/lastmile_qr_scan", "android": "https://dc.lft.to/lastmile_qr_scan"}, "is_disabled": 0, "lon": -77.02329516666667, "name": "77bfef7d285e231735ea52c90875b463", "fusion_lon": 0.0}, {"lat": 38.8995595, "fusion_lat": 0.0, "type": "electric_scooter", "bike_id": "fc5f90add8ff3c598954f173da873056", "is_reserved": 0, "rental_uris": {"ios": "https://dc.lft.to/lastmile_qr_scan", "android": "https://dc.lft.to/lastmile_qr_scan"}, "is_disabled": 0, "lon": -77.02381116666666, "name": "fc5f90add8ff3c598954f173da873056", "fusion_lon": 0.0}, {"lat": 38.899676666666664, "fusion_lat": 0.0, "type": "electric_scooter", "bike_id": "830f70c7f3c251dd8cfaeeceb39ff44a", "is_reserved": 0, "rental_uris": {"ios": "https://dc.lft.to/lastmile_qr_scan", "android": "https://dc.lft.to/lastmile_qr_scan"}, "is_disabled": 0, "lon": -77.02293233333333, "name": "830f70c7f3c251dd8cfaeeceb39ff44a", "fusion_lon": 0.0}, {"lat": 38.87639, "fusion_lat": 0.0, "type": "electric_scooter", "bike_id": "08ba4e93eabaeb63d09b18617717a655", "is_reserved": 0, "rental_uris": {"ios": "https://dc.lft.to/lastmile_qr_scan", "android": "https://dc.lft.to/lastmile_qr_scan"}, "is_disabled": 0, "lon": -77.00453916666666, "name": "08ba4e93eabaeb63d09b18617717a655", "fusion_lon": 0.0}, {"lat": 38.920026, "fusion_lat": 0.0, "type": "electric_scooter", "bike_id": "7bc83a86b1493d7ce3332e58004d7aca", "is_reserved": 0, "rental_uris": {"ios": "https://dc.lft.to/lastmile_qr_scan", "android": "https://dc.lft.to/lastmile_qr_scan"}, "is_disabled": 0, "lon": -77.03303133333333, "name": "7bc83a86b1493d7ce3332e58004d7aca", "fusion_lon": 0.0}, {"lat": 38.909674833333334, "fusion_lat": 0.0, "type": "electric_scooter", "bike_id": "dc0a154ae0be64583c3f2060a58a9940", "is_reserved": 0, "rental_uris": {"ios": "https://dc.lft.to/lastmile_qr_scan", "android": "https://dc.lft.to/lastmile_qr_scan"}, "is_disabled": 0, "lon": -77.03993366666667, "name": "dc0a154ae0be64583c3f2060a58a9940", "fusion_lon": 0.0}, {"lat": 38.9209325, "fusion_lat": 0.0, "type": "electric_scooter", "bike_id": "f63b5aa3b4d36ea11ffbf024a9ea88bb", "is_reserved": 0, "rental_uris": {"ios": "https://dc.lft.to/lastmile_qr_scan", "android": "https://dc.lft.to/lastmile_qr_scan"}, "is_disabled": 0, "lon": -77.016712, "name": "f63b5aa3b4d36ea11ffbf024a9ea88bb", "fusion_lon": 0.0}, {"lat": 38.93266883333333, "fusion_lat": 0.0, "type": "electric_scooter", "bike_id": "9a61963ea9f9d5bd9551bd79aa38231d", "is_reserved": 0, "rental_uris": {"ios": "https://dc.lft.to/lastmile_qr_scan", "android": "https://dc.lft.to/lastmile_qr_scan"}, "is_disabled": 0, "lon": -77.0389275, "name": "9a61963ea9f9d5bd9551bd79aa38231d", "fusion_lon": 0.0}, {"lat": 38.92103983333333, "fusion_lat": 0.0, "type": "electric_scooter", "bike_id": "96ed54b2242370489942b2c5ed1d3c2f", "is_reserved": 0, "rental_uris": {"ios": "https://dc.lft.to/lastmile_qr_scan", "android": "https://dc.lft.to/lastmile_qr_scan"}, "is_disabled": 0, "lon": -77.01755316666667, "name": "96ed54b2242370489942b2c5ed1d3c2f", "fusion_lon": 0.0}, {"lat": 38.917015666666664, "fusion_lat": 0.0, "type": "electric_scooter", "bike_id": "a64f4f9715370fbfb6290161e4c0c9c5", "is_reserved": 0, "rental_uris": {"ios": "https://dc.lft.to/lastmile_qr_scan", "android": "https://dc.lft.to/lastmile_qr_scan"}, "is_disabled": 0, "lon": -77.02451716666667, "name": "a64f4f9715370fbfb6290161e4c0c9c5", "fusion_lon": 0.0}, {"lat": 38.892246166666666, "fusion_lat": 0.0, "type": "electric_scooter", "bike_id": "c5c5c182ee5763075fa5db77eff0f1b6", "is_reserved": 0, "rental_uris": {"ios": "https://dc.lft.to/lastmile_qr_scan", "android": "https://dc.lft.to/lastmile_qr_scan"}, "is_disabled": 0, "lon": -77.0334065, "name": "c5c5c182ee5763075fa5db77eff0f1b6", "fusion_lon": 0.0}, {"lat": 38.90269633333333, "fusion_lat": 0.0, "type": "electric_scooter", "bike_id": "c666282788b1d039c3259df452063d3a", "is_reserved": 0, "rental_uris": {"ios": "https://dc.lft.to/lastmile_qr_scan", "android": "https://dc.lft.to/lastmile_qr_scan"}, "is_disabled": 0, "lon": -77.03632233333333, "name": "c666282788b1d039c3259df452063d3a", "fusion_lon": 0.0}, {"lat": 38.88505083333333, "fusion_lat": 0.0, "type": "electric_scooter", "bike_id": "06269cdc51c3bdddc24c3bdeb9ac931e", "is_reserved": 0, "rental_uris": {"ios": "https://dc.lft.to/lastmile_qr_scan", "android": "https://dc.lft.to/lastmile_qr_scan"}, "is_disabled": 0, "lon": -76.97710283333333, "name": "06269cdc51c3bdddc24c3bdeb9ac931e", "fusion_lon": 0.0}, {"lat": 38.9211305, "fusion_lat": 0.0, "type": "electric_scooter", "bike_id": "737531b7ba2887083b9e02d7907daae8", "is_reserved": 0, "rental_uris": {"ios": "https://dc.lft.to/lastmile_qr_scan", "android": "https://dc.lft.to/lastmile_qr_scan"}, "is_disabled": 0, "lon": -77.039188, "name": "737531b7ba2887083b9e02d7907daae8", "fusion_lon": 0.0}, {"lat": 38.91026183333334, "fusion_lat": 0.0, "type": "electric_scooter", "bike_id": "d7f49634608ca6131f8aaa2c16dbbc23", "is_reserved": 0, "rental_uris": {"ios": "https://dc.lft.to/lastmile_qr_scan", "android": "https://dc.lft.to/lastmile_qr_scan"}, "is_disabled": 0, "lon": -77.00757633333333, "name": "d7f49634608ca6131f8aaa2c16dbbc23", "fusion_lon": 0.0}, {"lat": 38.897583, "fusion_lat": 0.0, "type": "electric_scooter", "bike_id": "1ef1bfaa91afde25529544b2f0a146bc", "is_reserved": 0, "rental_uris": {"ios": "https://dc.lft.to/lastmile_qr_scan", "android": "https://dc.lft.to/lastmile_qr_scan"}, "is_disabled": 0, "lon": -77.026843, "name": "1ef1bfaa91afde25529544b2f0a146bc", "fusion_lon": 0.0}, {"lat": 38.909683, "fusion_lat": 0.0, "type": "electric_scooter", "bike_id": "9a22ba3f7469a4b09e115c5ce7ea4feb", "is_reserved": 0, "rental_uris": {"ios": "https://dc.lft.to/lastmile_qr_scan", "android": "https://dc.lft.to/lastmile_qr_scan"}, "is_disabled": 0, "lon": -77.03445816666667, "name": "9a22ba3f7469a4b09e115c5ce7ea4feb", "fusion_lon": 0.0}, {"lat": 38.9140505, "fusion_lat": 0.0, "type": "electric_scooter", "bike_id": "4ed19e990206e64d9636146de8f4819d", "is_reserved": 0, "rental_uris": {"ios": "https://dc.lft.to/lastmile_qr_scan", "android": "https://dc.lft.to/lastmile_qr_scan"}, "is_disabled": 0, "lon": -77.04374866666667, "name": "4ed19e990206e64d9636146de8f4819d", "fusion_lon": 0.0}, {"lat": 38.90409483333333, "fusion_lat": 0.0, "type": "electric_scooter", "bike_id": "a1bc3f120ad5bb1452633734bdffda99", "is_reserved": 0, "rental_uris": {"ios": "https://dc.lft.to/lastmile_qr_scan", "android": "https://dc.lft.to/lastmile_qr_scan"}, "is_disabled": 0, "lon": -77.032631, "name": "a1bc3f120ad5bb1452633734bdffda99", "fusion_lon": 0.0}, {"lat": 38.9172875, "fusion_lat": 0.0, "type": "electric_scooter", "bike_id": "f8ec3837dcb12b67452899f449b62ba2", "is_reserved": 0, "rental_uris": {"ios": "https://dc.lft.to/lastmile_qr_scan", "android": "https://dc.lft.to/lastmile_qr_scan"}, "is_disabled": 0, "lon": -77.02504366666666, "name": "f8ec3837dcb12b67452899f449b62ba2", "fusion_lon": 0.0}, {"lat": 38.88403533333333, "fusion_lat": 0.0, "type": "electric_bike", "bike_id": "206243054c4fc0d15b12349844c66d24", "is_reserved": 0, "rental_uris": {"ios": "https://dc.lft.to/lastmile_qr_scan", "android": "https://dc.lft.to/lastmile_qr_scan"}, "is_disabled": 0, "lon": -76.960569, "name": "206243054c4fc0d15b12349844c66d24", "fusion_lon": 0.0}, {"lat": 38.8956585, "fusion_lat": 0.0, "type": "electric_bike", "bike_id": "07ed00aebdf70eb6794c865b6da1e173", "is_reserved": 0, "rental_uris": {"ios": "https://dc.lft.to/lastmile_qr_scan", "android": "https://dc.lft.to/lastmile_qr_scan"}, "is_disabled": 0, "lon": -77.12729783333333, "name": "07ed00aebdf70eb6794c865b6da1e173", "fusion_lon": 0.0}, {"lat": 38.90688216666667, "fusion_lat": 0.0, "type": "electric_scooter", "bike_id": "cf474ff6d6bebe3020aaaec7fb36fb6d", "is_reserved": 0, "rental_uris": {"ios": "https://dc.lft.to/lastmile_qr_scan", "android": "https://dc.lft.to/lastmile_qr_scan"}, "is_disabled": 0, "lon": -77.04325216666666, "name": "cf474ff6d6bebe3020aaaec7fb36fb6d", "fusion_lon": 0.0}, {"lat": 38.902212, "fusion_lat": 0.0, "type": "electric_scooter", "bike_id": "52718cefe009fd65ae6b65243597357c", "is_reserved": 0, "rental_uris": {"ios": "https://dc.lft.to/lastmile_qr_scan", "android": "https://dc.lft.to/lastmile_qr_scan"}, "is_disabled": 0, "lon": -77.02379116666667, "name": "52718cefe009fd65ae6b65243597357c", "fusion_lon": 0.0}, {"lat": 38.90059516666667, "fusion_lat": 0.0, "type": "electric_scooter", "bike_id": "dd90f855869b6dc6aa199c2e7004ab10", "is_reserved": 0, "rental_uris": {"ios": "https://dc.lft.to/lastmile_qr_scan", "android": "https://dc.lft.to/lastmile_qr_scan"}, "is_disabled": 0, "lon": -77.04837366666666, "name": "dd90f855869b6dc6aa199c2e7004ab10", "fusion_lon": 0.0}, {"lat": 38.92038016666667, "fusion_lat": 0.0, "type": "electric_scooter", "bike_id": "74e7b31352cdad9e05bd3189404c167b", "is_reserved": 0, "rental_uris": {"ios": "https://dc.lft.to/lastmile_qr_scan", "android": "https://dc.lft.to/lastmile_qr_scan"}, "is_disabled": 0, "lon": -77.01765983333334, "name": "74e7b31352cdad9e05bd3189404c167b", "fusion_lon": 0.0}, {"lat": 38.907226666666666, "fusion_lat": 0.0, "type": "electric_scooter", "bike_id": "58e80d9ba34567aa25f92b37596cf550", "is_reserved": 0, "rental_uris": {"ios": "https://dc.lft.to/lastmile_qr_scan", "android": "https://dc.lft.to/lastmile_qr_scan"}, "is_disabled": 0, "lon": -77.01483033333334, "name": "58e80d9ba34567aa25f92b37596cf550", "fusion_lon": 0.0}, {"lat": 38.92394016666667, "fusion_lat": 0.0, "type": "electric_scooter", "bike_id": "72132d0b3455c61ff3bb666d90da1ed6", "is_reserved": 0, "rental_uris": {"ios": "https://dc.lft.to/lastmile_qr_scan", "android": "https://dc.lft.to/lastmile_qr_scan"}, "is_disabled": 0, "lon": -77.02419466666667, "name": "72132d0b3455c61ff3bb666d90da1ed6", "fusion_lon": 0.0}, {"lat": 38.906895666666664, "fusion_lat": 0.0, "type": "electric_scooter", "bike_id": "72269089a7b2d6f0297836648e7e4c41", "is_reserved": 0, "rental_uris": {"ios": "https://dc.lft.to/lastmile_qr_scan", "android": "https://dc.lft.to/lastmile_qr_scan"}, "is_disabled": 0, "lon": -77.05319883333334, "name": "72269089a7b2d6f0297836648e7e4c41", "fusion_lon": 0.0}, {"lat": 38.90829216666667, "fusion_lat": 0.0, "type": "electric_bike", "bike_id": "8846f59bec55f658a39b1137e32ab379", "is_reserved": 0, "rental_uris": {"ios": "https://dc.lft.to/lastmile_qr_scan", "android": "https://dc.lft.to/lastmile_qr_scan"}, "is_disabled": 0, "lon": -76.94155966666666, "name": "8846f59bec55f658a39b1137e32ab379", "fusion_lon": 0.0}, {"lat": 38.89219416666667, "fusion_lat": 0.0, "type": "electric_scooter", "bike_id": "de1fa5ed55f4283696e1f425010cdbbe", "is_reserved": 0, "rental_uris": {"ios": "https://dc.lft.to/lastmile_qr_scan", "android": "https://dc.lft.to/lastmile_qr_scan"}, "is_disabled": 0, "lon": -77.022245, "name": "de1fa5ed55f4283696e1f425010cdbbe", "fusion_lon": 0.0}, {"lat": 38.94895416666667, "fusion_lat": 0.0, "type": "electric_bike", "bike_id": "af9514de9d9a74bb9f259e563511ed65", "is_reserved": 0, "rental_uris": {"ios": "https://dc.lft.to/lastmile_qr_scan", "android": "https://dc.lft.to/lastmile_qr_scan"}, "is_disabled": 0, "lon": -76.96375483333334, "name": "af9514de9d9a74bb9f259e563511ed65", "fusion_lon": 0.0}, {"lat": 38.92322266666667, "fusion_lat": 0.0, "type": "electric_scooter", "bike_id": "32a91315d85e06742bdd369d20d8bae6", "is_reserved": 0, "rental_uris": {"ios": "https://dc.lft.to/lastmile_qr_scan", "android": "https://dc.lft.to/lastmile_qr_scan"}, "is_disabled": 0, "lon": -77.021359, "name": "32a91315d85e06742bdd369d20d8bae6", "fusion_lon": 0.0}, {"lat": 38.90217766666667, "fusion_lat": 0.0, "type": "electric_scooter", "bike_id": "d71955b6e2578a7a14de9873c3937701", "is_reserved": 0, "rental_uris": {"ios": "https://dc.lft.to/lastmile_qr_scan", "android": "https://dc.lft.to/lastmile_qr_scan"}, "is_disabled": 0, "lon": -77.0512025, "name": "d71955b6e2578a7a14de9873c3937701", "fusion_lon": 0.0}, {"lat": 38.90078583333333, "fusion_lat": 0.0, "type": "electric_scooter", "bike_id": "a9f0101c897682a33ddcc75055f85407", "is_reserved": 0, "rental_uris": {"ios": "https://dc.lft.to/lastmile_qr_scan", "android": "https://dc.lft.to/lastmile_qr_scan"}, "is_disabled": 0, "lon": -77.04688916666667, "name": "a9f0101c897682a33ddcc75055f85407", "fusion_lon": 0.0}, {"lat": 38.919011, "fusion_lat": 0.0, "type": "electric_scooter", "bike_id": "a3aed8fb35da9395d6e2495c4b01c49f", "is_reserved": 0, "rental_uris": {"ios": "https://dc.lft.to/lastmile_qr_scan", "android": "https://dc.lft.to/lastmile_qr_scan"}, "is_disabled": 0, "lon": -76.98743166666667, "name": "a3aed8fb35da9395d6e2495c4b01c49f", "fusion_lon": 0.0}, {"lat": 38.919453833333336, "fusion_lat": 0.0, "type": "electric_scooter", "bike_id": "cef2ec6df2a021203fed57e2dcad24c5", "is_reserved": 0, "rental_uris": {"ios": "https://dc.lft.to/lastmile_qr_scan", "android": "https://dc.lft.to/lastmile_qr_scan"}, "is_disabled": 0, "lon": -77.04164616666667, "name": "cef2ec6df2a021203fed57e2dcad24c5", "fusion_lon": 0.0}, {"lat": 38.90898716666667, "fusion_lat": 0.0, "type": "electric_scooter", "bike_id": "6ec224dbe2e259367d4dbc33980018e2", "is_reserved": 0, "rental_uris": {"ios": "https://dc.lft.to/lastmile_qr_scan", "android": "https://dc.lft.to/lastmile_qr_scan"}, "is_disabled": 0, "lon": -77.030125, "name": "6ec224dbe2e259367d4dbc33980018e2", "fusion_lon": 0.0}, {"lat": 38.907702666666665, "fusion_lat": 0.0, "type": "electric_scooter", "bike_id": "fb45c971c8efd7726bd421a09b39f90e", "is_reserved": 0, "rental_uris": {"ios": "https://dc.lft.to/lastmile_qr_scan", "android": "https://dc.lft.to/lastmile_qr_scan"}, "is_disabled": 0, "lon": -76.97838166666666, "name": "fb45c971c8efd7726bd421a09b39f90e", "fusion_lon": 0.0}, {"lat": 38.89869483333333, "fusion_lat": 0.0, "type": "electric_scooter", "bike_id": "ae1369ccd45bff44348e12d604d74adb", "is_reserved": 0, "rental_uris": {"ios": "https://dc.lft.to/lastmile_qr_scan", "android": "https://dc.lft.to/lastmile_qr_scan"}, "is_disabled": 0, "lon": -76.946633, "name": "ae1369ccd45bff44348e12d604d74adb", "fusion_lon": 0.0}, {"lat": 38.9007355, "fusion_lat": 0.0, "type": "electric_scooter", "bike_id": "cb47672260951a4474ff898a7cd8ce3d", "is_reserved": 0, "rental_uris": {"ios": "https://dc.lft.to/lastmile_qr_scan", "android": "https://dc.lft.to/lastmile_qr_scan"}, "is_disabled": 0, "lon": -77.039239, "name": "cb47672260951a4474ff898a7cd8ce3d", "fusion_lon": 0.0}, {"lat": 38.89406983333333, "fusion_lat": 0.0, "type": "electric_scooter", "bike_id": "4c44beee820bb7a8b7942fe3e2dffbb8", "is_reserved": 0, "rental_uris": {"ios": "https://dc.lft.to/lastmile_qr_scan", "android": "https://dc.lft.to/lastmile_qr_scan"}, "is_disabled": 0, "lon": -77.02090133333333, "name": "4c44beee820bb7a8b7942fe3e2dffbb8", "fusion_lon": 0.0}, {"lat": 38.94633666666667, "fusion_lat": 0.0, "type": "electric_scooter", "bike_id": "431de75a0fdad0c3f4e6664e559624b7", "is_reserved": 0, "rental_uris": {"ios": "https://dc.lft.to/lastmile_qr_scan", "android": "https://dc.lft.to/lastmile_qr_scan"}, "is_disabled": 0, "lon": -77.01844883333334, "name": "431de75a0fdad0c3f4e6664e559624b7", "fusion_lon": 0.0}, {"lat": 38.935414, "fusion_lat": 0.0, "type": "electric_scooter", "bike_id": "cbe3ad57331aea594302709817c32935", "is_reserved": 0, "rental_uris": {"ios": "https://dc.lft.to/lastmile_qr_scan", "android": "https://dc.lft.to/lastmile_qr_scan"}, "is_disabled": 0, "lon": -77.05447616666666, "name": "cbe3ad57331aea594302709817c32935", "fusion_lon": 0.0}, {"lat": 38.9057705, "fusion_lat": 0.0, "type": "electric_scooter", "bike_id": "d3c08a29cf564526c72e7dd9b203347c", "is_reserved": 0, "rental_uris": {"ios": "https://dc.lft.to/lastmile_qr_scan", "android": "https://dc.lft.to/lastmile_qr_scan"}, "is_disabled": 0, "lon": -77.02492516666666, "name": "d3c08a29cf564526c72e7dd9b203347c", "fusion_lon": 0.0}, {"lat": 38.895144, "fusion_lat": 0.0, "type": "electric_scooter", "bike_id": "d3f271077a9ee5b293f0159d2fc5f59e", "is_reserved": 0, "rental_uris": {"ios": "https://dc.lft.to/lastmile_qr_scan", "android": "https://dc.lft.to/lastmile_qr_scan"}, "is_disabled": 0, "lon": -76.98825483333333, "name": "d3f271077a9ee5b293f0159d2fc5f59e", "fusion_lon": 0.0}, {"lat": 38.90962616666667, "fusion_lat": 0.0, "type": "electric_bike", "bike_id": "464b1a519307bfc5c2b38c9fe721379d", "is_reserved": 0, "rental_uris": {"ios": "https://dc.lft.to/lastmile_qr_scan", "android": "https://dc.lft.to/lastmile_qr_scan"}, "is_disabled": 0, "lon": -77.0325065, "name": "464b1a519307bfc5c2b38c9fe721379d", "fusion_lon": 0.0}, {"lat": 38.902393000000004, "fusion_lat": 0.0, "type": "electric_scooter", "bike_id": "5a69bf5903a53d9105295c5444cb7585", "is_reserved": 0, "rental_uris": {"ios": "https://dc.lft.to/lastmile_qr_scan", "android": "https://dc.lft.to/lastmile_qr_scan"}, "is_disabled": 0, "lon": -76.97409266666666, "name": "5a69bf5903a53d9105295c5444cb7585", "fusion_lon": 0.0}, {"lat": 38.8745895, "fusion_lat": 0.0, "type": "electric_scooter", "bike_id": "5b24455ec64b15bb1186f106270dddfb", "is_reserved": 0, "rental_uris": {"ios": "https://dc.lft.to/lastmile_qr_scan", "android": "https://dc.lft.to/lastmile_qr_scan"}, "is_disabled": 0, "lon": -77.0054295, "name": "5b24455ec64b15bb1186f106270dddfb", "fusion_lon": 0.0}, {"lat": 38.86213516666667, "fusion_lat": 0.0, "type": "electric_scooter", "bike_id": "1798b06f0628422f9719ce3d977b5af2", "is_reserved": 0, "rental_uris": {"ios": "https://dc.lft.to/lastmile_qr_scan", "android": "https://dc.lft.to/lastmile_qr_scan"}, "is_disabled": 0, "lon": -76.994793, "name": "1798b06f0628422f9719ce3d977b5af2", "fusion_lon": 0.0}, {"lat": 38.923588333333335, "fusion_lat": 0.0, "type": "electric_scooter", "bike_id": "5db5d82ed251d882d417dd7ffc12ef1d", "is_reserved": 0, "rental_uris": {"ios": "https://dc.lft.to/lastmile_qr_scan", "android": "https://dc.lft.to/lastmile_qr_scan"}, "is_disabled": 0, "lon": -77.0507295, "name": "5db5d82ed251d882d417dd7ffc12ef1d", "fusion_lon": 0.0}, {"lat": 38.900820333333336, "fusion_lat": 0.0, "type": "electric_scooter", "bike_id": "e098c3e1c81e9cd04719c5ebe50a110f", "is_reserved": 0, "rental_uris": {"ios": "https://dc.lft.to/lastmile_qr_scan", "android": "https://dc.lft.to/lastmile_qr_scan"}, "is_disabled": 0, "lon": -77.03215833333333, "name": "e098c3e1c81e9cd04719c5ebe50a110f", "fusion_lon": 0.0}, {"lat": 38.9250275, "fusion_lat": 0.0, "type": "electric_scooter", "bike_id": "2bf8dd343b071fd4f2acfe6e630299ca", "is_reserved": 0, "rental_uris": {"ios": "https://dc.lft.to/lastmile_qr_scan", "android": "https://dc.lft.to/lastmile_qr_scan"}, "is_disabled": 0, "lon": -77.00888216666667, "name": "2bf8dd343b071fd4f2acfe6e630299ca", "fusion_lon": 0.0}, {"lat": 38.8900285, "fusion_lat": 0.0, "type": "electric_scooter", "bike_id": "c19a32269d8b7f62a0473f72a34db22b", "is_reserved": 0, "rental_uris": {"ios": "https://dc.lft.to/lastmile_qr_scan", "android": "https://dc.lft.to/lastmile_qr_scan"}, "is_disabled": 0, "lon": -77.04898283333333, "name": "c19a32269d8b7f62a0473f72a34db22b", "fusion_lon": 0.0}, {"lat": 38.91484466666667, "fusion_lat": 0.0, "type": "electric_scooter", "bike_id": "c52efa98f84dcb71c51e5be7eeffd34a", "is_reserved": 0, "rental_uris": {"ios": "https://dc.lft.to/lastmile_qr_scan", "android": "https://dc.lft.to/lastmile_qr_scan"}, "is_disabled": 0, "lon": -76.985704, "name": "c52efa98f84dcb71c51e5be7eeffd34a", "fusion_lon": 0.0}, {"lat": 38.90782433333333, "fusion_lat": 0.0, "type": "electric_scooter", "bike_id": "4023a8cace566f5996f311de09717925", "is_reserved": 0, "rental_uris": {"ios": "https://dc.lft.to/lastmile_qr_scan", "android": "https://dc.lft.to/lastmile_qr_scan"}, "is_disabled": 0, "lon": -77.03829866666666, "name": "4023a8cace566f5996f311de09717925", "fusion_lon": 0.0}, {"lat": 38.919911, "fusion_lat": 0.0, "type": "electric_scooter", "bike_id": "251abc6cd2e76f0874293f625049e1fc", "is_reserved": 0, "rental_uris": {"ios": "https://dc.lft.to/lastmile_qr_scan", "android": "https://dc.lft.to/lastmile_qr_scan"}, "is_disabled": 0, "lon": -76.97304466666667, "name": "251abc6cd2e76f0874293f625049e1fc", "fusion_lon": 0.0}, {"lat": 38.92102416666667, "fusion_lat": 0.0, "type": "electric_scooter", "bike_id": "991f5c39bb19787bf76d20826de53f71", "is_reserved": 0, "rental_uris": {"ios": "https://dc.lft.to/lastmile_qr_scan", "android": "https://dc.lft.to/lastmile_qr_scan"}, "is_disabled": 0, "lon": -77.03337983333333, "name": "991f5c39bb19787bf76d20826de53f71", "fusion_lon": 0.0}, {"lat": 38.911492333333335, "fusion_lat": 0.0, "type": "electric_scooter", "bike_id": "64a3cc5d6546d22d96a890bd0c7d652e", "is_reserved": 0, "rental_uris": {"ios": "https://dc.lft.to/lastmile_qr_scan", "android": "https://dc.lft.to/lastmile_qr_scan"}, "is_disabled": 0, "lon": -77.03839266666667, "name": "64a3cc5d6546d22d96a890bd0c7d652e", "fusion_lon": 0.0}, {"lat": 38.908566666666665, "fusion_lat": 0.0, "type": "electric_scooter", "bike_id": "2df2845267d5d0b8b481569447ed8991", "is_reserved": 0, "rental_uris": {"ios": "https://dc.lft.to/lastmile_qr_scan", "android": "https://dc.lft.to/lastmile_qr_scan"}, "is_disabled": 0, "lon": -77.0254095, "name": "2df2845267d5d0b8b481569447ed8991", "fusion_lon": 0.0}, {"lat": 38.889156666666665, "fusion_lat": 0.0, "type": "electric_scooter", "bike_id": "bf83656005e13f23edad2026241e85f7", "is_reserved": 0, "rental_uris": {"ios": "https://dc.lft.to/lastmile_qr_scan", "android": "https://dc.lft.to/lastmile_qr_scan"}, "is_disabled": 0, "lon": -76.99173766666667, "name": "bf83656005e13f23edad2026241e85f7", "fusion_lon": 0.0}, {"lat": 38.92849783333333, "fusion_lat": 0.0, "type": "electric_scooter", "bike_id": "269d63520c8d5548b4c47cf0aced2bc6", "is_reserved": 0, "rental_uris": {"ios": "https://dc.lft.to/lastmile_qr_scan", "android": "https://dc.lft.to/lastmile_qr_scan"}, "is_disabled": 0, "lon": -77.03636583333333, "name": "269d63520c8d5548b4c47cf0aced2bc6", "fusion_lon": 0.0}, {"lat": 38.838307666666665, "fusion_lat": 0.0, "type": "electric_bike", "bike_id": "cd92cbee2fff762be067f39d0014b61b", "is_reserved": 0, "rental_uris": {"ios": "https://dc.lft.to/lastmile_qr_scan", "android": "https://dc.lft.to/lastmile_qr_scan"}, "is_disabled": 0, "lon": -77.00262066666667, "name": "cd92cbee2fff762be067f39d0014b61b", "fusion_lon": 0.0}, {"lat": 38.9098265, "fusion_lat": 0.0, "type": "electric_scooter", "bike_id": "0507395b7285dd2274229d2bbf7bb049", "is_reserved": 0, "rental_uris": {"ios": "https://dc.lft.to/lastmile_qr_scan", "android": "https://dc.lft.to/lastmile_qr_scan"}, "is_disabled": 0, "lon": -77.03438266666667, "name": "0507395b7285dd2274229d2bbf7bb049", "fusion_lon": 0.0}, {"lat": 38.9324825, "fusion_lat": 0.0, "type": "electric_scooter", "bike_id": "137a39c940d7558dabf2b8a6633613a3", "is_reserved": 0, "rental_uris": {"ios": "https://dc.lft.to/lastmile_qr_scan", "android": "https://dc.lft.to/lastmile_qr_scan"}, "is_disabled": 0, "lon": -77.03854766666667, "name": "137a39c940d7558dabf2b8a6633613a3", "fusion_lon": 0.0}, {"lat": 38.905835, "fusion_lat": 0.0, "type": "electric_scooter", "bike_id": "43b7a0774c9a06f76f14a570c997ffdb", "is_reserved": 0, "rental_uris": {"ios": "https://dc.lft.to/lastmile_qr_scan", "android": "https://dc.lft.to/lastmile_qr_scan"}, "is_disabled": 0, "lon": -77.04139133333334, "name": "43b7a0774c9a06f76f14a570c997ffdb", "fusion_lon": 0.0}, {"lat": 38.835474166666664, "fusion_lat": 0.0, "type": "electric_bike", "bike_id": "2b7c1c6b87ca2e5113c10e31db503e5b", "is_reserved": 0, "rental_uris": {"ios": "https://dc.lft.to/lastmile_qr_scan", "android": "https://dc.lft.to/lastmile_qr_scan"}, "is_disabled": 0, "lon": -76.98730916666666, "name": "2b7c1c6b87ca2e5113c10e31db503e5b", "fusion_lon": 0.0}, {"lat": 38.897179, "fusion_lat": 0.0, "type": "electric_scooter", "bike_id": "e9094d580037e3077e0d5b52ec8540ee", "is_reserved": 0, "rental_uris": {"ios": "https://dc.lft.to/lastmile_qr_scan", "android": "https://dc.lft.to/lastmile_qr_scan"}, "is_disabled": 0, "lon": -77.03186066666666, "name": "e9094d580037e3077e0d5b52ec8540ee", "fusion_lon": 0.0}, {"lat": 38.96213866666667, "fusion_lat": 0.0, "type": "electric_bike", "bike_id": "af025ddb3241c686db8f21e8428b377e", "is_reserved": 0, "rental_uris": {"ios": "https://dc.lft.to/lastmile_qr_scan", "android": "https://dc.lft.to/lastmile_qr_scan"}, "is_disabled": 0, "lon": -77.02623833333334, "name": "af025ddb3241c686db8f21e8428b377e", "fusion_lon": 0.0}, {"lat": 38.88458333333333, "fusion_lat": 0.0, "type": "electric_scooter", "bike_id": "ae7bc6ab7e78830ebcd1ef25ea4613be", "is_reserved": 0, "rental_uris": {"ios": "https://dc.lft.to/lastmile_qr_scan", "android": "https://dc.lft.to/lastmile_qr_scan"}, "is_disabled": 0, "lon": -76.92620866666667, "name": "ae7bc6ab7e78830ebcd1ef25ea4613be", "fusion_lon": 0.0}, {"lat": 38.9001675, "fusion_lat": 0.0, "type": "electric_scooter", "bike_id": "df1c5cca34504ca95dd73893bb518ad0", "is_reserved": 0, "rental_uris": {"ios": "https://dc.lft.to/lastmile_qr_scan", "android": "https://dc.lft.to/lastmile_qr_scan"}, "is_disabled": 0, "lon": -76.99351966666667, "name": "df1c5cca34504ca95dd73893bb518ad0", "fusion_lon": 0.0}, {"lat": 38.9061035, "fusion_lat": 0.0, "type": "electric_scooter", "bike_id": "f5bf5e072a81b8f70a087df3636eb85c", "is_reserved": 0, "rental_uris": {"ios": "https://dc.lft.to/lastmile_qr_scan", "android": "https://dc.lft.to/lastmile_qr_scan"}, "is_disabled": 0, "lon": -77.02109166666666, "name": "f5bf5e072a81b8f70a087df3636eb85c", "fusion_lon": 0.0}, {"lat": 38.910001333333334, "fusion_lat": 0.0, "type": "electric_scooter", "bike_id": "22d9ee32ee8ef3dbbbc025b6535a2436", "is_reserved": 0, "rental_uris": {"ios": "https://dc.lft.to/lastmile_qr_scan", "android": "https://dc.lft.to/lastmile_qr_scan"}, "is_disabled": 0, "lon": -77.04362633333334, "name": "22d9ee32ee8ef3dbbbc025b6535a2436", "fusion_lon": 0.0}, {"lat": 38.930141666666664, "fusion_lat": 0.0, "type": "electric_scooter", "bike_id": "dbd2c87961262fe5964511304644b06d", "is_reserved": 0, "rental_uris": {"ios": "https://dc.lft.to/lastmile_qr_scan", "android": "https://dc.lft.to/lastmile_qr_scan"}, "is_disabled": 0, "lon": -77.05521816666666, "name": "dbd2c87961262fe5964511304644b06d", "fusion_lon": 0.0}, {"lat": 38.91150566666666, "fusion_lat": 0.0, "type": "electric_scooter", "bike_id": "9ecaf5af9bfbf54ec17de6a7ad1c9035", "is_reserved": 0, "rental_uris": {"ios": "https://dc.lft.to/lastmile_qr_scan", "android": "https://dc.lft.to/lastmile_qr_scan"}, "is_disabled": 0, "lon": -77.038495, "name": "9ecaf5af9bfbf54ec17de6a7ad1c9035", "fusion_lon": 0.0}, {"lat": 38.9297225, "fusion_lat": 0.0, "type": "electric_scooter", "bike_id": "a2e4f37bf897c8c73df3282aee7eed66", "is_reserved": 0, "rental_uris": {"ios": "https://dc.lft.to/lastmile_qr_scan", "android": "https://dc.lft.to/lastmile_qr_scan"}, "is_disabled": 0, "lon": -77.0295195, "name": "a2e4f37bf897c8c73df3282aee7eed66", "fusion_lon": 0.0}, {"lat": 38.838135, "fusion_lat": 0.0, "type": "electric_bike", "bike_id": "a561fbcfd1982105dfc205e736a58625", "is_reserved": 0, "rental_uris": {"ios": "https://dc.lft.to/lastmile_qr_scan", "android": "https://dc.lft.to/lastmile_qr_scan"}, "is_disabled": 0, "lon": -77.095228, "name": "a561fbcfd1982105dfc205e736a58625", "fusion_lon": 0.0}, {"lat": 38.88766066666667, "fusion_lat": 0.0, "type": "electric_scooter", "bike_id": "6533a413a99e8ea318ee1e919088e627", "is_reserved": 0, "rental_uris": {"ios": "https://dc.lft.to/lastmile_qr_scan", "android": "https://dc.lft.to/lastmile_qr_scan"}, "is_disabled": 0, "lon": -76.99601983333334, "name": "6533a413a99e8ea318ee1e919088e627", "fusion_lon": 0.0}, {"lat": 38.907973166666665, "fusion_lat": 0.0, "type": "electric_scooter", "bike_id": "6db2d6b1539dd00db46b6cabb552db41", "is_reserved": 0, "rental_uris": {"ios": "https://dc.lft.to/lastmile_qr_scan", "android": "https://dc.lft.to/lastmile_qr_scan"}, "is_disabled": 0, "lon": -77.03669583333334, "name": "6db2d6b1539dd00db46b6cabb552db41", "fusion_lon": 0.0}, {"lat": 38.95532583333333, "fusion_lat": 0.0, "type": "electric_scooter", "bike_id": "3844b9b9e1e7f9dc21f089e47b490e69", "is_reserved": 0, "rental_uris": {"ios": "https://dc.lft.to/lastmile_qr_scan", "android": "https://dc.lft.to/lastmile_qr_scan"}, "is_disabled": 0, "lon": -77.02773933333333, "name": "3844b9b9e1e7f9dc21f089e47b490e69", "fusion_lon": 0.0}, {"lat": 38.85769466666667, "fusion_lat": 0.0, "type": "electric_bike", "bike_id": "9e78ad416db2723a19d5c259b5b46238", "is_reserved": 0, "rental_uris": {"ios": "https://dc.lft.to/lastmile_qr_scan", "android": "https://dc.lft.to/lastmile_qr_scan"}, "is_disabled": 0, "lon": -76.98755383333334, "name": "9e78ad416db2723a19d5c259b5b46238", "fusion_lon": 0.0}, {"lat": 38.898915833333334, "fusion_lat": 0.0, "type": "electric_scooter", "bike_id": "bbb4cd55104a5320031459dd97d56173", "is_reserved": 0, "rental_uris": {"ios": "https://dc.lft.to/lastmile_qr_scan", "android": "https://dc.lft.to/lastmile_qr_scan"}, "is_disabled": 0, "lon": -76.97706583333333, "name": "bbb4cd55104a5320031459dd97d56173", "fusion_lon": 0.0}, {"lat": 38.87470916666667, "fusion_lat": 0.0, "type": "electric_scooter", "bike_id": "f2783ecf910faa2b12933e9bd2ff1b69", "is_reserved": 0, "rental_uris": {"ios": "https://dc.lft.to/lastmile_qr_scan", "android": "https://dc.lft.to/lastmile_qr_scan"}, "is_disabled": 0, "lon": -77.00560533333334, "name": "f2783ecf910faa2b12933e9bd2ff1b69", "fusion_lon": 0.0}, {"lat": 38.88482883333333, "fusion_lat": 0.0, "type": "electric_scooter", "bike_id": "d0a9b7975a37c337740dfe85748403d4", "is_reserved": 0, "rental_uris": {"ios": "https://dc.lft.to/lastmile_qr_scan", "android": "https://dc.lft.to/lastmile_qr_scan"}, "is_disabled": 0, "lon": -77.02651933333334, "name": "d0a9b7975a37c337740dfe85748403d4", "fusion_lon": 0.0}, {"lat": 38.93476233333333, "fusion_lat": 0.0, "type": "electric_scooter", "bike_id": "cc9e1e6bc8eda73eb52ca8fa7f6d263d", "is_reserved": 0, "rental_uris": {"ios": "https://dc.lft.to/lastmile_qr_scan", "android": "https://dc.lft.to/lastmile_qr_scan"}, "is_disabled": 0, "lon": -77.036108, "name": "cc9e1e6bc8eda73eb52ca8fa7f6d263d", "fusion_lon": 0.0}, {"lat": 38.925051333333336, "fusion_lat": 0.0, "type": "electric_scooter", "bike_id": "493128ef9996eedeb91e3d014fb8789a", "is_reserved": 0, "rental_uris": {"ios": "https://dc.lft.to/lastmile_qr_scan", "android": "https://dc.lft.to/lastmile_qr_scan"}, "is_disabled": 0, "lon": -77.0235335, "name": "493128ef9996eedeb91e3d014fb8789a", "fusion_lon": 0.0}, {"lat": 38.919897666666664, "fusion_lat": 0.0, "type": "electric_scooter", "bike_id": "952750525971f10d4f5273f81f97f2d8", "is_reserved": 0, "rental_uris": {"ios": "https://dc.lft.to/lastmile_qr_scan", "android": "https://dc.lft.to/lastmile_qr_scan"}, "is_disabled": 0, "lon": -77.03244583333333, "name": "952750525971f10d4f5273f81f97f2d8", "fusion_lon": 0.0}, {"lat": 38.9026385, "fusion_lat": 0.0, "type": "electric_bike", "bike_id": "4750fe2448601c0249e5d1400b07004b", "is_reserved": 0, "rental_uris": {"ios": "https://dc.lft.to/lastmile_qr_scan", "android": "https://dc.lft.to/lastmile_qr_scan"}, "is_disabled": 0, "lon": -77.03261383333333, "name": "4750fe2448601c0249e5d1400b07004b", "fusion_lon": 0.0}, {"lat": 38.896172666666665, "fusion_lat": 0.0, "type": "electric_scooter", "bike_id": "c6f01c885baa2ca0af4e50c659cef843", "is_reserved": 0, "rental_uris": {"ios": "https://dc.lft.to/lastmile_qr_scan", "android": "https://dc.lft.to/lastmile_qr_scan"}, "is_disabled": 0, "lon": -76.98164783333333, "name": "c6f01c885baa2ca0af4e50c659cef843", "fusion_lon": 0.0}, {"lat": 38.90070266666667, "fusion_lat": 0.0, "type": "electric_scooter", "bike_id": "a5a226d618d4761c345794c5336a3863", "is_reserved": 0, "rental_uris": {"ios": "https://dc.lft.to/lastmile_qr_scan", "android": "https://dc.lft.to/lastmile_qr_scan"}, "is_disabled": 0, "lon": -77.05089183333334, "name": "a5a226d618d4761c345794c5336a3863", "fusion_lon": 0.0}, {"lat": 38.907826, "fusion_lat": 0.0, "type": "electric_scooter", "bike_id": "533acece30ffec8cdc66bd52251e468e", "is_reserved": 0, "rental_uris": {"ios": "https://dc.lft.to/lastmile_qr_scan", "android": "https://dc.lft.to/lastmile_qr_scan"}, "is_disabled": 0, "lon": -77.03828633333333, "name": "533acece30ffec8cdc66bd52251e468e", "fusion_lon": 0.0}, {"lat": 38.915957166666665, "fusion_lat": 0.0, "type": "electric_scooter", "bike_id": "2b61e855f1291806c8523378f9bcd444", "is_reserved": 0, "rental_uris": {"ios": "https://dc.lft.to/lastmile_qr_scan", "android": "https://dc.lft.to/lastmile_qr_scan"}, "is_disabled": 0, "lon": -77.03464666666666, "name": "2b61e855f1291806c8523378f9bcd444", "fusion_lon": 0.0}, {"lat": 38.900359333333334, "fusion_lat": 0.0, "type": "electric_scooter", "bike_id": "1de865703d91b55a905a0ddb1ed8f4fc", "is_reserved": 0, "rental_uris": {"ios": "https://dc.lft.to/lastmile_qr_scan", "android": "https://dc.lft.to/lastmile_qr_scan"}, "is_disabled": 0, "lon": -77.00186, "name": "1de865703d91b55a905a0ddb1ed8f4fc", "fusion_lon": 0.0}, {"lat": 38.90763583333333, "fusion_lat": 0.0, "type": "electric_scooter", "bike_id": "5ee1cd686a26516dfca1d376841aa8f0", "is_reserved": 0, "rental_uris": {"ios": "https://dc.lft.to/lastmile_qr_scan", "android": "https://dc.lft.to/lastmile_qr_scan"}, "is_disabled": 0, "lon": -77.02605833333334, "name": "5ee1cd686a26516dfca1d376841aa8f0", "fusion_lon": 0.0}, {"lat": 38.8723165, "fusion_lat": 0.0, "type": "electric_scooter", "bike_id": "da90f9f265c4edda1dfabf2afc8284eb", "is_reserved": 0, "rental_uris": {"ios": "https://dc.lft.to/lastmile_qr_scan", "android": "https://dc.lft.to/lastmile_qr_scan"}, "is_disabled": 0, "lon": -77.0116505, "name": "da90f9f265c4edda1dfabf2afc8284eb", "fusion_lon": 0.0}, {"lat": 38.90250116666667, "fusion_lat": 0.0, "type": "electric_scooter", "bike_id": "3601467daecda80690f9d49bd26a5013", "is_reserved": 0, "rental_uris": {"ios": "https://dc.lft.to/lastmile_qr_scan", "android": "https://dc.lft.to/lastmile_qr_scan"}, "is_disabled": 0, "lon": -77.04855333333333, "name": "3601467daecda80690f9d49bd26a5013", "fusion_lon": 0.0}, {"lat": 38.92034816666666, "fusion_lat": 0.0, "type": "electric_scooter", "bike_id": "c08aab33cdb3489fc83c4cb7eda2dba0", "is_reserved": 0, "rental_uris": {"ios": "https://dc.lft.to/lastmile_qr_scan", "android": "https://dc.lft.to/lastmile_qr_scan"}, "is_disabled": 0, "lon": -77.02584766666666, "name": "c08aab33cdb3489fc83c4cb7eda2dba0", "fusion_lon": 0.0}, {"lat": 38.90726333333333, "fusion_lat": 0.0, "type": "electric_scooter", "bike_id": "2c000c20b1efe863513bdf4cee44feb2", "is_reserved": 0, "rental_uris": {"ios": "https://dc.lft.to/lastmile_qr_scan", "android": "https://dc.lft.to/lastmile_qr_scan"}, "is_disabled": 0, "lon": -77.001588, "name": "2c000c20b1efe863513bdf4cee44feb2", "fusion_lon": 0.0}, {"lat": 38.8929685, "fusion_lat": 0.0, "type": "electric_scooter", "bike_id": "ece41f8ac09e22f8c6ec6968629bd70a", "is_reserved": 0, "rental_uris": {"ios": "https://dc.lft.to/lastmile_qr_scan", "android": "https://dc.lft.to/lastmile_qr_scan"}, "is_disabled": 0, "lon": -76.9392635, "name": "ece41f8ac09e22f8c6ec6968629bd70a", "fusion_lon": 0.0}, {"lat": 38.95628766666667, "fusion_lat": 0.0, "type": "electric_bike", "bike_id": "abe3f698aebbc41e13038430a9848ded", "is_reserved": 0, "rental_uris": {"ios": "https://dc.lft.to/lastmile_qr_scan", "android": "https://dc.lft.to/lastmile_qr_scan"}, "is_disabled": 0, "lon": -76.93874316666667, "name": "abe3f698aebbc41e13038430a9848ded", "fusion_lon": 0.0}, {"lat": 38.898816, "fusion_lat": 0.0, "type": "electric_scooter", "bike_id": "45e71efeb5ad7fd825d7c056ec240c58", "is_reserved": 0, "rental_uris": {"ios": "https://dc.lft.to/lastmile_qr_scan", "android": "https://dc.lft.to/lastmile_qr_scan"}, "is_disabled": 0, "lon": -77.032774, "name": "45e71efeb5ad7fd825d7c056ec240c58", "fusion_lon": 0.0}, {"lat": 38.984373833333336, "fusion_lat": 0.0, "type": "electric_scooter", "bike_id": "183cbb6d44b42f26e8db1752380976d6", "is_reserved": 0, "rental_uris": {"ios": "https://dc.lft.to/lastmile_qr_scan", "android": "https://dc.lft.to/lastmile_qr_scan"}, "is_disabled": 0, "lon": -77.02675566666667, "name": "183cbb6d44b42f26e8db1752380976d6", "fusion_lon": 0.0}, {"lat": 38.894782, "fusion_lat": 0.0, "type": "electric_scooter", "bike_id": "a92a8d35ef33f455a842f77e0d552592", "is_reserved": 0, "rental_uris": {"ios": "https://dc.lft.to/lastmile_qr_scan", "android": "https://dc.lft.to/lastmile_qr_scan"}, "is_disabled": 0, "lon": -77.046526, "name": "a92a8d35ef33f455a842f77e0d552592", "fusion_lon": 0.0}, {"lat": 38.8924375, "fusion_lat": 0.0, "type": "electric_scooter", "bike_id": "2c883bca428b82e882fbc01740acdde5", "is_reserved": 0, "rental_uris": {"ios": "https://dc.lft.to/lastmile_qr_scan", "android": "https://dc.lft.to/lastmile_qr_scan"}, "is_disabled": 0, "lon": -77.02403916666667, "name": "2c883bca428b82e882fbc01740acdde5", "fusion_lon": 0.0}, {"lat": 38.901044666666664, "fusion_lat": 0.0, "type": "electric_scooter", "bike_id": "10f90fc654e94ea31ad661ea2e66efbd", "is_reserved": 0, "rental_uris": {"ios": "https://dc.lft.to/lastmile_qr_scan", "android": "https://dc.lft.to/lastmile_qr_scan"}, "is_disabled": 0, "lon": -77.00655833333333, "name": "10f90fc654e94ea31ad661ea2e66efbd", "fusion_lon": 0.0}, {"lat": 38.92123316666667, "fusion_lat": 0.0, "type": "electric_scooter", "bike_id": "44d46795c63a4c61a4b63e751bb9e157", "is_reserved": 0, "rental_uris": {"ios": "https://dc.lft.to/lastmile_qr_scan", "android": "https://dc.lft.to/lastmile_qr_scan"}, "is_disabled": 0, "lon": -77.012083, "name": "44d46795c63a4c61a4b63e751bb9e157", "fusion_lon": 0.0}, {"lat": 38.920497833333336, "fusion_lat": 0.0, "type": "electric_scooter", "bike_id": "01b9906b4adbbcd3ad2ac99992005bf6", "is_reserved": 0, "rental_uris": {"ios": "https://dc.lft.to/lastmile_qr_scan", "android": "https://dc.lft.to/lastmile_qr_scan"}, "is_disabled": 0, "lon": -77.0241315, "name": "01b9906b4adbbcd3ad2ac99992005bf6", "fusion_lon": 0.0}, {"lat": 38.91120333333333, "fusion_lat": 0.0, "type": "electric_scooter", "bike_id": "ce318afed01adf515b75a1dd2c22a98e", "is_reserved": 0, "rental_uris": {"ios": "https://dc.lft.to/lastmile_qr_scan", "android": "https://dc.lft.to/lastmile_qr_scan"}, "is_disabled": 0, "lon": -77.0380415, "name": "ce318afed01adf515b75a1dd2c22a98e", "fusion_lon": 0.0}, {"lat": 38.918513833333336, "fusion_lat": 0.0, "type": "electric_scooter", "bike_id": "65a07d3c1fa5c484619fc2a2d7930e1c", "is_reserved": 0, "rental_uris": {"ios": "https://dc.lft.to/lastmile_qr_scan", "android": "https://dc.lft.to/lastmile_qr_scan"}, "is_disabled": 0, "lon": -77.02707833333334, "name": "65a07d3c1fa5c484619fc2a2d7930e1c", "fusion_lon": 0.0}, {"lat": 38.911970833333335, "fusion_lat": 0.0, "type": "electric_scooter", "bike_id": "80e3c58acd9ba98e7bb895a1df946977", "is_reserved": 0, "rental_uris": {"ios": "https://dc.lft.to/lastmile_qr_scan", "android": "https://dc.lft.to/lastmile_qr_scan"}, "is_disabled": 0, "lon": -77.02344066666667, "name": "80e3c58acd9ba98e7bb895a1df946977", "fusion_lon": 0.0}, {"lat": 39.014773, "fusion_lat": 0.0, "type": "electric_bike", "bike_id": "576c6b412d55821a0efb6a0618d36cb2", "is_reserved": 0, "rental_uris": {"ios": "https://dc.lft.to/lastmile_qr_scan", "android": "https://dc.lft.to/lastmile_qr_scan"}, "is_disabled": 0, "lon": -77.05494483333334, "name": "576c6b412d55821a0efb6a0618d36cb2", "fusion_lon": 0.0}, {"lat": 38.928770166666666, "fusion_lat": 0.0, "type": "electric_scooter", "bike_id": "222ceac1412dcd45c73863683ee29abe", "is_reserved": 0, "rental_uris": {"ios": "https://dc.lft.to/lastmile_qr_scan", "android": "https://dc.lft.to/lastmile_qr_scan"}, "is_disabled": 0, "lon": -77.01230183333334, "name": "222ceac1412dcd45c73863683ee29abe", "fusion_lon": 0.0}, {"lat": 38.874008333333336, "fusion_lat": 0.0, "type": "electric_scooter", "bike_id": "7358f9f5c0739cdd35a4aeca43cda96d", "is_reserved": 0, "rental_uris": {"ios": "https://dc.lft.to/lastmile_qr_scan", "android": "https://dc.lft.to/lastmile_qr_scan"}, "is_disabled": 0, "lon": -77.00029683333334, "name": "7358f9f5c0739cdd35a4aeca43cda96d", "fusion_lon": 0.0}, {"lat": 38.9034265, "fusion_lat": 0.0, "type": "electric_scooter", "bike_id": "c06869ab11400f595daa66fce8ef5d43", "is_reserved": 0, "rental_uris": {"ios": "https://dc.lft.to/lastmile_qr_scan", "android": "https://dc.lft.to/lastmile_qr_scan"}, "is_disabled": 0, "lon": -77.05315933333333, "name": "c06869ab11400f595daa66fce8ef5d43", "fusion_lon": 0.0}, {"lat": 38.9105745, "fusion_lat": 0.0, "type": "electric_scooter", "bike_id": "a8e8fb526af89805efaa19879ed294a3", "is_reserved": 0, "rental_uris": {"ios": "https://dc.lft.to/lastmile_qr_scan", "android": "https://dc.lft.to/lastmile_qr_scan"}, "is_disabled": 0, "lon": -77.03743116666666, "name": "a8e8fb526af89805efaa19879ed294a3", "fusion_lon": 0.0}, {"lat": 38.867113833333335, "fusion_lat": 0.0, "type": "electric_scooter", "bike_id": "1cafd551664bbc53a2d056bc4884881c", "is_reserved": 0, "rental_uris": {"ios": "https://dc.lft.to/lastmile_qr_scan", "android": "https://dc.lft.to/lastmile_qr_scan"}, "is_disabled": 0, "lon": -76.987245, "name": "1cafd551664bbc53a2d056bc4884881c", "fusion_lon": 0.0}, {"lat": 38.93072733333333, "fusion_lat": 0.0, "type": "electric_scooter", "bike_id": "ce408f87c36b87f05e0a72dc130101f0", "is_reserved": 0, "rental_uris": {"ios": "https://dc.lft.to/lastmile_qr_scan", "android": "https://dc.lft.to/lastmile_qr_scan"}, "is_disabled": 0, "lon": -77.02165466666666, "name": "ce408f87c36b87f05e0a72dc130101f0", "fusion_lon": 0.0}, {"lat": 38.90249683333333, "fusion_lat": 0.0, "type": "electric_scooter", "bike_id": "b54abd0bff835682cbc3bb0b6ab65b91", "is_reserved": 0, "rental_uris": {"ios": "https://dc.lft.to/lastmile_qr_scan", "android": "https://dc.lft.to/lastmile_qr_scan"}, "is_disabled": 0, "lon": -77.03346166666667, "name": "b54abd0bff835682cbc3bb0b6ab65b91", "fusion_lon": 0.0}, {"lat": 38.92019916666667, "fusion_lat": 0.0, "type": "electric_scooter", "bike_id": "a42aaafa9b0db2908321b48363f2771d", "is_reserved": 0, "rental_uris": {"ios": "https://dc.lft.to/lastmile_qr_scan", "android": "https://dc.lft.to/lastmile_qr_scan"}, "is_disabled": 0, "lon": -77.02045, "name": "a42aaafa9b0db2908321b48363f2771d", "fusion_lon": 0.0}, {"lat": 38.956882, "fusion_lat": 0.0, "type": "electric_scooter", "bike_id": "f16c82a0c0b39f084d905d7b07bbf25c", "is_reserved": 0, "rental_uris": {"ios": "https://dc.lft.to/lastmile_qr_scan", "android": "https://dc.lft.to/lastmile_qr_scan"}, "is_disabled": 0, "lon": -77.024008, "name": "f16c82a0c0b39f084d905d7b07bbf25c", "fusion_lon": 0.0}, {"lat": 38.915605166666666, "fusion_lat": 0.0, "type": "electric_scooter", "bike_id": "e933212e4b088cade20f6b8ed8422da0", "is_reserved": 0, "rental_uris": {"ios": "https://dc.lft.to/lastmile_qr_scan", "android": "https://dc.lft.to/lastmile_qr_scan"}, "is_disabled": 0, "lon": -77.03951566666667, "name": "e933212e4b088cade20f6b8ed8422da0", "fusion_lon": 0.0}, {"lat": 38.88502583333333, "fusion_lat": 0.0, "type": "electric_scooter", "bike_id": "95744d0ae7b14650a796cb472c1cd0c7", "is_reserved": 0, "rental_uris": {"ios": "https://dc.lft.to/lastmile_qr_scan", "android": "https://dc.lft.to/lastmile_qr_scan"}, "is_disabled": 0, "lon": -77.01519716666667, "name": "95744d0ae7b14650a796cb472c1cd0c7", "fusion_lon": 0.0}, {"lat": 38.9083815, "fusion_lat": 0.0, "type": "electric_scooter", "bike_id": "45a3ddbf4765649ac0862950c4237c43", "is_reserved": 0, "rental_uris": {"ios": "https://dc.lft.to/lastmile_qr_scan", "android": "https://dc.lft.to/lastmile_qr_scan"}, "is_disabled": 0, "lon": -77.0092175, "name": "45a3ddbf4765649ac0862950c4237c43", "fusion_lon": 0.0}, {"lat": 38.90215366666666, "fusion_lat": 0.0, "type": "electric_scooter", "bike_id": "70cd3d542e9feb48959ee03123f92076", "is_reserved": 0, "rental_uris": {"ios": "https://dc.lft.to/lastmile_qr_scan", "android": "https://dc.lft.to/lastmile_qr_scan"}, "is_disabled": 0, "lon": -77.02439116666666, "name": "70cd3d542e9feb48959ee03123f92076", "fusion_lon": 0.0}, {"lat": 38.9063825, "fusion_lat": 0.0, "type": "electric_scooter", "bike_id": "22223b95273a5b39d3c24a9d12c47d2c", "is_reserved": 0, "rental_uris": {"ios": "https://dc.lft.to/lastmile_qr_scan", "android": "https://dc.lft.to/lastmile_qr_scan"}, "is_disabled": 0, "lon": -77.05110816666667, "name": "22223b95273a5b39d3c24a9d12c47d2c", "fusion_lon": 0.0}, {"lat": 38.87461966666667, "fusion_lat": 0.0, "type": "electric_scooter", "bike_id": "899e11d32b0a9651ec0b2863786f6153", "is_reserved": 0, "rental_uris": {"ios": "https://dc.lft.to/lastmile_qr_scan", "android": "https://dc.lft.to/lastmile_qr_scan"}, "is_disabled": 0, "lon": -77.01892783333334, "name": "899e11d32b0a9651ec0b2863786f6153", "fusion_lon": 0.0}, {"lat": 38.917073333333335, "fusion_lat": 0.0, "type": "electric_scooter", "bike_id": "977be737bae38f2c52e7d428ec706851", "is_reserved": 0, "rental_uris": {"ios": "https://dc.lft.to/lastmile_qr_scan", "android": "https://dc.lft.to/lastmile_qr_scan"}, "is_disabled": 0, "lon": -77.02899733333334, "name": "977be737bae38f2c52e7d428ec706851", "fusion_lon": 0.0}, {"lat": 38.898583, "fusion_lat": 0.0, "type": "electric_scooter", "bike_id": "0b4803a47235239151e2b720d1348739", "is_reserved": 0, "rental_uris": {"ios": "https://dc.lft.to/lastmile_qr_scan", "android": "https://dc.lft.to/lastmile_qr_scan"}, "is_disabled": 0, "lon": -77.03331, "name": "0b4803a47235239151e2b720d1348739", "fusion_lon": 0.0}, {"lat": 38.928524, "fusion_lat": 0.0, "type": "electric_scooter", "bike_id": "5e7a46493515dbbd8063d8134ff6acc6", "is_reserved": 0, "rental_uris": {"ios": "https://dc.lft.to/lastmile_qr_scan", "android": "https://dc.lft.to/lastmile_qr_scan"}, "is_disabled": 0, "lon": -77.034021, "name": "5e7a46493515dbbd8063d8134ff6acc6", "fusion_lon": 0.0}, {"lat": 38.8973745, "fusion_lat": 0.0, "type": "electric_scooter", "bike_id": "733307e5d0b14dadf59c83b39160b566", "is_reserved": 0, "rental_uris": {"ios": "https://dc.lft.to/lastmile_qr_scan", "android": "https://dc.lft.to/lastmile_qr_scan"}, "is_disabled": 0, "lon": -76.997506, "name": "733307e5d0b14dadf59c83b39160b566", "fusion_lon": 0.0}, {"lat": 38.897345333333334, "fusion_lat": 0.0, "type": "electric_scooter", "bike_id": "e1baf651101d65f41a9458552e965d0d", "is_reserved": 0, "rental_uris": {"ios": "https://dc.lft.to/lastmile_qr_scan", "android": "https://dc.lft.to/lastmile_qr_scan"}, "is_disabled": 0, "lon": -77.00375033333333, "name": "e1baf651101d65f41a9458552e965d0d", "fusion_lon": 0.0}, {"lat": 38.923495833333334, "fusion_lat": 0.0, "type": "electric_scooter", "bike_id": "8b55429389974006da7d3b1c186e21ad", "is_reserved": 0, "rental_uris": {"ios": "https://dc.lft.to/lastmile_qr_scan", "android": "https://dc.lft.to/lastmile_qr_scan"}, "is_disabled": 0, "lon": -77.0510525, "name": "8b55429389974006da7d3b1c186e21ad", "fusion_lon": 0.0}, {"lat": 38.917558666666665, "fusion_lat": 0.0, "type": "electric_scooter", "bike_id": "895fef7f2c5ba0cddc423989b5c3bd98", "is_reserved": 0, "rental_uris": {"ios": "https://dc.lft.to/lastmile_qr_scan", "android": "https://dc.lft.to/lastmile_qr_scan"}, "is_disabled": 0, "lon": -77.0281895, "name": "895fef7f2c5ba0cddc423989b5c3bd98", "fusion_lon": 0.0}, {"lat": 38.87472283333334, "fusion_lat": 0.0, "type": "electric_scooter", "bike_id": "a4bbcd0123a12e9aa016f60e7871fa85", "is_reserved": 0, "rental_uris": {"ios": "https://dc.lft.to/lastmile_qr_scan", "android": "https://dc.lft.to/lastmile_qr_scan"}, "is_disabled": 0, "lon": -77.00554133333333, "name": "a4bbcd0123a12e9aa016f60e7871fa85", "fusion_lon": 0.0}, {"lat": 38.9075825, "fusion_lat": 0.0, "type": "electric_scooter", "bike_id": "abb46460cafca452a99e1dd0c5f1364b", "is_reserved": 0, "rental_uris": {"ios": "https://dc.lft.to/lastmile_qr_scan", "android": "https://dc.lft.to/lastmile_qr_scan"}, "is_disabled": 0, "lon": -77.03197833333333, "name": "abb46460cafca452a99e1dd0c5f1364b", "fusion_lon": 0.0}, {"lat": 38.92415616666667, "fusion_lat": 0.0, "type": "electric_scooter", "bike_id": "457b863c0b8892e487a3f9e562ce911e", "is_reserved": 0, "rental_uris": {"ios": "https://dc.lft.to/lastmile_qr_scan", "android": "https://dc.lft.to/lastmile_qr_scan"}, "is_disabled": 0, "lon": -77.050616, "name": "457b863c0b8892e487a3f9e562ce911e", "fusion_lon": 0.0}, {"lat": 38.93193616666667, "fusion_lat": 0.0, "type": "electric_scooter", "bike_id": "57ea130aedaf75a11c01d44639d8a910", "is_reserved": 0, "rental_uris": {"ios": "https://dc.lft.to/lastmile_qr_scan", "android": "https://dc.lft.to/lastmile_qr_scan"}, "is_disabled": 0, "lon": -77.04529816666667, "name": "57ea130aedaf75a11c01d44639d8a910", "fusion_lon": 0.0}, {"lat": 38.874783, "fusion_lat": 0.0, "type": "electric_bike", "bike_id": "ee332fb5cc4ed737428d3111070d6e43", "is_reserved": 0, "rental_uris": {"ios": "https://dc.lft.to/lastmile_qr_scan", "android": "https://dc.lft.to/lastmile_qr_scan"}, "is_disabled": 0, "lon": -76.96526383333334, "name": "ee332fb5cc4ed737428d3111070d6e43", "fusion_lon": 0.0}, {"lat": 38.90703833333333, "fusion_lat": 0.0, "type": "electric_scooter", "bike_id": "f44786b7dc9de951e22eac6aee057fd6", "is_reserved": 0, "rental_uris": {"ios": "https://dc.lft.to/lastmile_qr_scan", "android": "https://dc.lft.to/lastmile_qr_scan"}, "is_disabled": 0, "lon": -77.02951033333333, "name": "f44786b7dc9de951e22eac6aee057fd6", "fusion_lon": 0.0}, {"lat": 38.914153, "fusion_lat": 0.0, "type": "electric_scooter", "bike_id": "1e3ecb339a578bccc617bf7de58ea908", "is_reserved": 0, "rental_uris": {"ios": "https://dc.lft.to/lastmile_qr_scan", "android": "https://dc.lft.to/lastmile_qr_scan"}, "is_disabled": 0, "lon": -77.04912416666667, "name": "1e3ecb339a578bccc617bf7de58ea908", "fusion_lon": 0.0}, {"lat": 38.9016415, "fusion_lat": 0.0, "type": "electric_scooter", "bike_id": "7741935ad26e30756a3c37f48ba64b98", "is_reserved": 0, "rental_uris": {"ios": "https://dc.lft.to/lastmile_qr_scan", "android": "https://dc.lft.to/lastmile_qr_scan"}, "is_disabled": 0, "lon": -76.93021366666666, "name": "7741935ad26e30756a3c37f48ba64b98", "fusion_lon": 0.0}, {"lat": 38.88372866666667, "fusion_lat": 0.0, "type": "electric_scooter", "bike_id": "8b29b8de3a4c39492fbea4302a673591", "is_reserved": 0, "rental_uris": {"ios": "https://dc.lft.to/lastmile_qr_scan", "android": "https://dc.lft.to/lastmile_qr_scan"}, "is_disabled": 0, "lon": -76.99520216666667, "name": "8b29b8de3a4c39492fbea4302a673591", "fusion_lon": 0.0}, {"lat": 38.89198866666667, "fusion_lat": 0.0, "type": "electric_scooter", "bike_id": "232a2ef29fd9ed06d7588ac3d58fc3ac", "is_reserved": 0, "rental_uris": {"ios": "https://dc.lft.to/lastmile_qr_scan", "android": "https://dc.lft.to/lastmile_qr_scan"}, "is_disabled": 0, "lon": -77.002977, "name": "232a2ef29fd9ed06d7588ac3d58fc3ac", "fusion_lon": 0.0}, {"lat": 38.9084815, "fusion_lat": 0.0, "type": "electric_scooter", "bike_id": "ea5f7acf3b917d74e75995f29267c55e", "is_reserved": 0, "rental_uris": {"ios": "https://dc.lft.to/lastmile_qr_scan", "android": "https://dc.lft.to/lastmile_qr_scan"}, "is_disabled": 0, "lon": -76.99796233333333, "name": "ea5f7acf3b917d74e75995f29267c55e", "fusion_lon": 0.0}, {"lat": 38.913165, "fusion_lat": 0.0, "type": "electric_bike", "bike_id": "c093d6e00ba4c0b8f1e61ab537b68f53", "is_reserved": 0, "rental_uris": {"ios": "https://dc.lft.to/lastmile_qr_scan", "android": "https://dc.lft.to/lastmile_qr_scan"}, "is_disabled": 0, "lon": -77.22313533333333, "name": "c093d6e00ba4c0b8f1e61ab537b68f53", "fusion_lon": 0.0}, {"lat": 38.866847166666666, "fusion_lat": 0.0, "type": "electric_scooter", "bike_id": "81f5d9b59a94540f26802c76900ee018", "is_reserved": 0, "rental_uris": {"ios": "https://dc.lft.to/lastmile_qr_scan", "android": "https://dc.lft.to/lastmile_qr_scan"}, "is_disabled": 0, "lon": -76.98557833333334, "name": "81f5d9b59a94540f26802c76900ee018", "fusion_lon": 0.0}, {"lat": 38.92107583333333, "fusion_lat": 0.0, "type": "electric_scooter", "bike_id": "bdee0c67dee36984f1c7f75cf39234be", "is_reserved": 0, "rental_uris": {"ios": "https://dc.lft.to/lastmile_qr_scan", "android": "https://dc.lft.to/lastmile_qr_scan"}, "is_disabled": 0, "lon": -77.03043383333333, "name": "bdee0c67dee36984f1c7f75cf39234be", "fusion_lon": 0.0}, {"lat": 38.919243333333334, "fusion_lat": 0.0, "type": "electric_scooter", "bike_id": "034fdbee442f7f0bd4d43a9a1fdeef8b", "is_reserved": 0, "rental_uris": {"ios": "https://dc.lft.to/lastmile_qr_scan", "android": "https://dc.lft.to/lastmile_qr_scan"}, "is_disabled": 0, "lon": -77.0424295, "name": "034fdbee442f7f0bd4d43a9a1fdeef8b", "fusion_lon": 0.0}, {"lat": 38.90488833333333, "fusion_lat": 0.0, "type": "electric_scooter", "bike_id": "a0ab5e6fada5a704c6b44380e9d1ac62", "is_reserved": 0, "rental_uris": {"ios": "https://dc.lft.to/lastmile_qr_scan", "android": "https://dc.lft.to/lastmile_qr_scan"}, "is_disabled": 0, "lon": -77.05336616666666, "name": "a0ab5e6fada5a704c6b44380e9d1ac62", "fusion_lon": 0.0}, {"lat": 38.91264833333334, "fusion_lat": 0.0, "type": "electric_scooter", "bike_id": "f856a4263f6c0ccf175a17f1530281e5", "is_reserved": 0, "rental_uris": {"ios": "https://dc.lft.to/lastmile_qr_scan", "android": "https://dc.lft.to/lastmile_qr_scan"}, "is_disabled": 0, "lon": -77.02514366666666, "name": "f856a4263f6c0ccf175a17f1530281e5", "fusion_lon": 0.0}, {"lat": 38.9319165, "fusion_lat": 0.0, "type": "electric_scooter", "bike_id": "1795bad98b92dc11f69af9b818a62965", "is_reserved": 0, "rental_uris": {"ios": "https://dc.lft.to/lastmile_qr_scan", "android": "https://dc.lft.to/lastmile_qr_scan"}, "is_disabled": 0, "lon": -77.03868316666667, "name": "1795bad98b92dc11f69af9b818a62965", "fusion_lon": 0.0}, {"lat": 38.90422066666667, "fusion_lat": 0.0, "type": "electric_scooter", "bike_id": "1b6301435503525fd98f519eb521c2da", "is_reserved": 0, "rental_uris": {"ios": "https://dc.lft.to/lastmile_qr_scan", "android": "https://dc.lft.to/lastmile_qr_scan"}, "is_disabled": 0, "lon": -77.02729133333334, "name": "1b6301435503525fd98f519eb521c2da", "fusion_lon": 0.0}, {"lat": 38.90272433333333, "fusion_lat": 0.0, "type": "electric_scooter", "bike_id": "71b73b80e19daff3fb82e8a6ee5db37a", "is_reserved": 0, "rental_uris": {"ios": "https://dc.lft.to/lastmile_qr_scan", "android": "https://dc.lft.to/lastmile_qr_scan"}, "is_disabled": 0, "lon": -77.03978516666666, "name": "71b73b80e19daff3fb82e8a6ee5db37a", "fusion_lon": 0.0}, {"lat": 38.86374633333333, "fusion_lat": 0.0, "type": "electric_scooter", "bike_id": "73dd88cc26e28bd5d422d9ea7de5bd18", "is_reserved": 0, "rental_uris": {"ios": "https://dc.lft.to/lastmile_qr_scan", "android": "https://dc.lft.to/lastmile_qr_scan"}, "is_disabled": 0, "lon": -76.99060883333334, "name": "73dd88cc26e28bd5d422d9ea7de5bd18", "fusion_lon": 0.0}, {"lat": 38.89221933333334, "fusion_lat": 0.0, "type": "electric_scooter", "bike_id": "007a3f9c949cdc26961a9f6ab7d0e7d0", "is_reserved": 0, "rental_uris": {"ios": "https://dc.lft.to/lastmile_qr_scan", "android": "https://dc.lft.to/lastmile_qr_scan"}, "is_disabled": 0, "lon": -77.048025, "name": "007a3f9c949cdc26961a9f6ab7d0e7d0", "fusion_lon": 0.0}, {"lat": 38.920952666666665, "fusion_lat": 0.0, "type": "electric_scooter", "bike_id": "952248c044e065fd2e12449e69933c04", "is_reserved": 0, "rental_uris": {"ios": "https://dc.lft.to/lastmile_qr_scan", "android": "https://dc.lft.to/lastmile_qr_scan"}, "is_disabled": 0, "lon": -77.004425, "name": "952248c044e065fd2e12449e69933c04", "fusion_lon": 0.0}, {"lat": 38.908456, "fusion_lat": 0.0, "type": "electric_scooter", "bike_id": "1bc4acbd4047595c70fa572d5de9a7db", "is_reserved": 0, "rental_uris": {"ios": "https://dc.lft.to/lastmile_qr_scan", "android": "https://dc.lft.to/lastmile_qr_scan"}, "is_disabled": 0, "lon": -77.02230116666667, "name": "1bc4acbd4047595c70fa572d5de9a7db", "fusion_lon": 0.0}, {"lat": 38.9232365, "fusion_lat": 0.0, "type": "electric_scooter", "bike_id": "9b6f7c0225326e5a798f6c0ec5c8e3f9", "is_reserved": 0, "rental_uris": {"ios": "https://dc.lft.to/lastmile_qr_scan", "android": "https://dc.lft.to/lastmile_qr_scan"}, "is_disabled": 0, "lon": -77.0417355, "name": "9b6f7c0225326e5a798f6c0ec5c8e3f9", "fusion_lon": 0.0}, {"lat": 38.904907666666666, "fusion_lat": 0.0, "type": "electric_scooter", "bike_id": "3429462a30abfdd856e35b73193316ab", "is_reserved": 0, "rental_uris": {"ios": "https://dc.lft.to/lastmile_qr_scan", "android": "https://dc.lft.to/lastmile_qr_scan"}, "is_disabled": 0, "lon": -77.029613, "name": "3429462a30abfdd856e35b73193316ab", "fusion_lon": 0.0}, {"lat": 38.904989, "fusion_lat": 0.0, "type": "electric_scooter", "bike_id": "fbfb68a9f5e883b7921546ef0a62b582", "is_reserved": 0, "rental_uris": {"ios": "https://dc.lft.to/lastmile_qr_scan", "android": "https://dc.lft.to/lastmile_qr_scan"}, "is_disabled": 0, "lon": -77.02954516666667, "name": "fbfb68a9f5e883b7921546ef0a62b582", "fusion_lon": 0.0}, {"lat": 38.90589533333333, "fusion_lat": 0.0, "type": "electric_scooter", "bike_id": "a82c4b6d548aab8989f1ef0eed8080e9", "is_reserved": 0, "rental_uris": {"ios": "https://dc.lft.to/lastmile_qr_scan", "android": "https://dc.lft.to/lastmile_qr_scan"}, "is_disabled": 0, "lon": -77.03878316666666, "name": "a82c4b6d548aab8989f1ef0eed8080e9", "fusion_lon": 0.0}, {"lat": 38.91835416666667, "fusion_lat": 0.0, "type": "electric_scooter", "bike_id": "52a9d37f6ec12261f95e1ce700db88f6", "is_reserved": 0, "rental_uris": {"ios": "https://dc.lft.to/lastmile_qr_scan", "android": "https://dc.lft.to/lastmile_qr_scan"}, "is_disabled": 0, "lon": -77.01747166666667, "name": "52a9d37f6ec12261f95e1ce700db88f6", "fusion_lon": 0.0}, {"lat": 38.900792, "fusion_lat": 0.0, "type": "electric_scooter", "bike_id": "971ef8cb2706002206ee4b1865ea1b98", "is_reserved": 0, "rental_uris": {"ios": "https://dc.lft.to/lastmile_qr_scan", "android": "https://dc.lft.to/lastmile_qr_scan"}, "is_disabled": 0, "lon": -77.047546, "name": "971ef8cb2706002206ee4b1865ea1b98", "fusion_lon": 0.0}, {"lat": 38.942849333333335, "fusion_lat": 0.0, "type": "electric_bike", "bike_id": "4376b6ff2437f569982324e20d2d382b", "is_reserved": 0, "rental_uris": {"ios": "https://dc.lft.to/lastmile_qr_scan", "android": "https://dc.lft.to/lastmile_qr_scan"}, "is_disabled": 0, "lon": -76.98786316666667, "name": "4376b6ff2437f569982324e20d2d382b", "fusion_lon": 0.0}, {"lat": 39.01373683333333, "fusion_lat": 0.0, "type": "electric_bike", "bike_id": "e30184a287630553d062dd0503e751cf", "is_reserved": 0, "rental_uris": {"ios": "https://dc.lft.to/lastmile_qr_scan", "android": "https://dc.lft.to/lastmile_qr_scan"}, "is_disabled": 0, "lon": -76.92137283333334, "name": "e30184a287630553d062dd0503e751cf", "fusion_lon": 0.0}, {"lat": 38.92446316666667, "fusion_lat": 0.0, "type": "electric_scooter", "bike_id": "1007c908f82419ef5e4b01fd3701654d", "is_reserved": 0, "rental_uris": {"ios": "https://dc.lft.to/lastmile_qr_scan", "android": "https://dc.lft.to/lastmile_qr_scan"}, "is_disabled": 0, "lon": -77.0440375, "name": "1007c908f82419ef5e4b01fd3701654d", "fusion_lon": 0.0}, {"lat": 38.888750333333334, "fusion_lat": 0.0, "type": "electric_scooter", "bike_id": "82b80774130866d1c70bc5b7193a07ee", "is_reserved": 0, "rental_uris": {"ios": "https://dc.lft.to/lastmile_qr_scan", "android": "https://dc.lft.to/lastmile_qr_scan"}, "is_disabled": 0, "lon": -76.99032183333334, "name": "82b80774130866d1c70bc5b7193a07ee", "fusion_lon": 0.0}, {"lat": 38.92343533333333, "fusion_lat": 0.0, "type": "electric_scooter", "bike_id": "e69107a79e924ac5e29b0816b9f9cbfa", "is_reserved": 0, "rental_uris": {"ios": "https://dc.lft.to/lastmile_qr_scan", "android": "https://dc.lft.to/lastmile_qr_scan"}, "is_disabled": 0, "lon": -77.05081816666667, "name": "e69107a79e924ac5e29b0816b9f9cbfa", "fusion_lon": 0.0}, {"lat": 38.91962483333333, "fusion_lat": 0.0, "type": "electric_scooter", "bike_id": "58de419a40d796eda13510cf399a3e17", "is_reserved": 0, "rental_uris": {"ios": "https://dc.lft.to/lastmile_qr_scan", "android": "https://dc.lft.to/lastmile_qr_scan"}, "is_disabled": 0, "lon": -77.03849716666667, "name": "58de419a40d796eda13510cf399a3e17", "fusion_lon": 0.0}, {"lat": 38.91678983333333, "fusion_lat": 0.0, "type": "electric_scooter", "bike_id": "f83d8d7cee231629af38f3d5823475f6", "is_reserved": 0, "rental_uris": {"ios": "https://dc.lft.to/lastmile_qr_scan", "android": "https://dc.lft.to/lastmile_qr_scan"}, "is_disabled": 0, "lon": -77.02353166666667, "name": "f83d8d7cee231629af38f3d5823475f6", "fusion_lon": 0.0}, {"lat": 38.898964166666666, "fusion_lat": 0.0, "type": "electric_scooter", "bike_id": "c9ec84d2f38bfc9cc7f966de3574fa12", "is_reserved": 0, "rental_uris": {"ios": "https://dc.lft.to/lastmile_qr_scan", "android": "https://dc.lft.to/lastmile_qr_scan"}, "is_disabled": 0, "lon": -76.9761305, "name": "c9ec84d2f38bfc9cc7f966de3574fa12", "fusion_lon": 0.0}, {"lat": 38.925163166666664, "fusion_lat": 0.0, "type": "electric_scooter", "bike_id": "be32689bb47a7f3ff5a8cb7c0aadc641", "is_reserved": 0, "rental_uris": {"ios": "https://dc.lft.to/lastmile_qr_scan", "android": "https://dc.lft.to/lastmile_qr_scan"}, "is_disabled": 0, "lon": -77.05254366666666, "name": "be32689bb47a7f3ff5a8cb7c0aadc641", "fusion_lon": 0.0}, {"lat": 38.927814, "fusion_lat": 0.0, "type": "electric_scooter", "bike_id": "02c79bb11f82b83e41a7164896d2bcfa", "is_reserved": 0, "rental_uris": {"ios": "https://dc.lft.to/lastmile_qr_scan", "android": "https://dc.lft.to/lastmile_qr_scan"}, "is_disabled": 0, "lon": -77.01411583333334, "name": "02c79bb11f82b83e41a7164896d2bcfa", "fusion_lon": 0.0}, {"lat": 38.919259, "fusion_lat": 0.0, "type": "electric_scooter", "bike_id": "52763cda765c30362bdfa25215d1f50a", "is_reserved": 0, "rental_uris": {"ios": "https://dc.lft.to/lastmile_qr_scan", "android": "https://dc.lft.to/lastmile_qr_scan"}, "is_disabled": 0, "lon": -77.0250045, "name": "52763cda765c30362bdfa25215d1f50a", "fusion_lon": 0.0}, {"lat": 38.921236, "fusion_lat": 0.0, "type": "electric_scooter", "bike_id": "55d9466dddddd0cd9e34482ff3682f2c", "is_reserved": 0, "rental_uris": {"ios": "https://dc.lft.to/lastmile_qr_scan", "android": "https://dc.lft.to/lastmile_qr_scan"}, "is_disabled": 0, "lon": -77.04571216666666, "name": "55d9466dddddd0cd9e34482ff3682f2c", "fusion_lon": 0.0}, {"lat": 38.9005445, "fusion_lat": 0.0, "type": "electric_scooter", "bike_id": "f06c8c2a421d662957358fe6db7e32f6", "is_reserved": 0, "rental_uris": {"ios": "https://dc.lft.to/lastmile_qr_scan", "android": "https://dc.lft.to/lastmile_qr_scan"}, "is_disabled": 0, "lon": -77.02912333333333, "name": "f06c8c2a421d662957358fe6db7e32f6", "fusion_lon": 0.0}, {"lat": 38.92296, "fusion_lat": 0.0, "type": "electric_scooter", "bike_id": "d50825dd17f0a232b47fe9feebfc1167", "is_reserved": 0, "rental_uris": {"ios": "https://dc.lft.to/lastmile_qr_scan", "android": "https://dc.lft.to/lastmile_qr_scan"}, "is_disabled": 0, "lon": -77.04218183333333, "name": "d50825dd17f0a232b47fe9feebfc1167", "fusion_lon": 0.0}, {"lat": 38.907140166666665, "fusion_lat": 0.0, "type": "electric_scooter", "bike_id": "ed2441ffb16ea236a40f8202ba588ce1", "is_reserved": 0, "rental_uris": {"ios": "https://dc.lft.to/lastmile_qr_scan", "android": "https://dc.lft.to/lastmile_qr_scan"}, "is_disabled": 0, "lon": -77.010136, "name": "ed2441ffb16ea236a40f8202ba588ce1", "fusion_lon": 0.0}, {"lat": 38.918217166666665, "fusion_lat": 0.0, "type": "electric_scooter", "bike_id": "795fae4c63e0b937eec0ba40e406d375", "is_reserved": 0, "rental_uris": {"ios": "https://dc.lft.to/lastmile_qr_scan", "android": "https://dc.lft.to/lastmile_qr_scan"}, "is_disabled": 0, "lon": -77.02489033333333, "name": "795fae4c63e0b937eec0ba40e406d375", "fusion_lon": 0.0}, {"lat": 38.89606283333333, "fusion_lat": 0.0, "type": "electric_scooter", "bike_id": "42df56aa2e41e037a18a09a6466bd235", "is_reserved": 0, "rental_uris": {"ios": "https://dc.lft.to/lastmile_qr_scan", "android": "https://dc.lft.to/lastmile_qr_scan"}, "is_disabled": 0, "lon": -77.02152, "name": "42df56aa2e41e037a18a09a6466bd235", "fusion_lon": 0.0}, {"lat": 38.90760266666667, "fusion_lat": 0.0, "type": "electric_scooter", "bike_id": "74b6dbc39c66ff206664d4d6a8e5b4e0", "is_reserved": 0, "rental_uris": {"ios": "https://dc.lft.to/lastmile_qr_scan", "android": "https://dc.lft.to/lastmile_qr_scan"}, "is_disabled": 0, "lon": -77.03457666666667, "name": "74b6dbc39c66ff206664d4d6a8e5b4e0", "fusion_lon": 0.0}, {"lat": 38.90697, "fusion_lat": 0.0, "type": "electric_scooter", "bike_id": "dcd0f66c70f7742c2f3e3f7a28dd768a", "is_reserved": 0, "rental_uris": {"ios": "https://dc.lft.to/lastmile_qr_scan", "android": "https://dc.lft.to/lastmile_qr_scan"}, "is_disabled": 0, "lon": -77.04491266666666, "name": "dcd0f66c70f7742c2f3e3f7a28dd768a", "fusion_lon": 0.0}, {"lat": 38.91716366666667, "fusion_lat": 0.0, "type": "electric_scooter", "bike_id": "9c152ea4bd1c2373c899eefacf136671", "is_reserved": 0, "rental_uris": {"ios": "https://dc.lft.to/lastmile_qr_scan", "android": "https://dc.lft.to/lastmile_qr_scan"}, "is_disabled": 0, "lon": -77.03444783333333, "name": "9c152ea4bd1c2373c899eefacf136671", "fusion_lon": 0.0}, {"lat": 38.936429833333335, "fusion_lat": 0.0, "type": "electric_scooter", "bike_id": "c094fe93f03b54ebcf49bbae7d5f75aa", "is_reserved": 0, "rental_uris": {"ios": "https://dc.lft.to/lastmile_qr_scan", "android": "https://dc.lft.to/lastmile_qr_scan"}, "is_disabled": 0, "lon": -77.0588785, "name": "c094fe93f03b54ebcf49bbae7d5f75aa", "fusion_lon": 0.0}, {"lat": 38.91622, "fusion_lat": 0.0, "type": "electric_scooter", "bike_id": "df841cc5399cc87e87f0cff96cbc1d3a", "is_reserved": 0, "rental_uris": {"ios": "https://dc.lft.to/lastmile_qr_scan", "android": "https://dc.lft.to/lastmile_qr_scan"}, "is_disabled": 0, "lon": -77.03204333333333, "name": "df841cc5399cc87e87f0cff96cbc1d3a", "fusion_lon": 0.0}, {"lat": 38.92320433333333, "fusion_lat": 0.0, "type": "electric_scooter", "bike_id": "dc53028c87f49ca9d6a8b5551c120482", "is_reserved": 0, "rental_uris": {"ios": "https://dc.lft.to/lastmile_qr_scan", "android": "https://dc.lft.to/lastmile_qr_scan"}, "is_disabled": 0, "lon": -77.03920783333334, "name": "dc53028c87f49ca9d6a8b5551c120482", "fusion_lon": 0.0}, {"lat": 38.90506716666667, "fusion_lat": 0.0, "type": "electric_scooter", "bike_id": "4033f0f22eb4dc2ea8be65c8367369f0", "is_reserved": 0, "rental_uris": {"ios": "https://dc.lft.to/lastmile_qr_scan", "android": "https://dc.lft.to/lastmile_qr_scan"}, "is_disabled": 0, "lon": -77.03847516666667, "name": "4033f0f22eb4dc2ea8be65c8367369f0", "fusion_lon": 0.0}, {"lat": 38.905001166666665, "fusion_lat": 0.0, "type": "electric_scooter", "bike_id": "921c40ac9ae705e78155eb118257b6d1", "is_reserved": 0, "rental_uris": {"ios": "https://dc.lft.to/lastmile_qr_scan", "android": "https://dc.lft.to/lastmile_qr_scan"}, "is_disabled": 0, "lon": -77.06503533333333, "name": "921c40ac9ae705e78155eb118257b6d1", "fusion_lon": 0.0}, {"lat": 38.91630333333333, "fusion_lat": 0.0, "type": "electric_scooter", "bike_id": "403beb098f987db1c957d32316d4245d", "is_reserved": 0, "rental_uris": {"ios": "https://dc.lft.to/lastmile_qr_scan", "android": "https://dc.lft.to/lastmile_qr_scan"}, "is_disabled": 0, "lon": -77.02550833333333, "name": "403beb098f987db1c957d32316d4245d", "fusion_lon": 0.0}, {"lat": 38.910245333333336, "fusion_lat": 0.0, "type": "electric_scooter", "bike_id": "b92ffadad3714dbd5fd17ce9ea1f7e58", "is_reserved": 0, "rental_uris": {"ios": "https://dc.lft.to/lastmile_qr_scan", "android": "https://dc.lft.to/lastmile_qr_scan"}, "is_disabled": 0, "lon": -77.03661433333333, "name": "b92ffadad3714dbd5fd17ce9ea1f7e58", "fusion_lon": 0.0}, {"lat": 38.906509, "fusion_lat": 0.0, "type": "electric_scooter", "bike_id": "fda419c0efa1a71e8a7356a728efd029", "is_reserved": 0, "rental_uris": {"ios": "https://dc.lft.to/lastmile_qr_scan", "android": "https://dc.lft.to/lastmile_qr_scan"}, "is_disabled": 0, "lon": -77.00211816666666, "name": "fda419c0efa1a71e8a7356a728efd029", "fusion_lon": 0.0}, {"lat": 38.91968816666667, "fusion_lat": 0.0, "type": "electric_scooter", "bike_id": "50ec4a752968f6cdb7ec671a7697c8db", "is_reserved": 0, "rental_uris": {"ios": "https://dc.lft.to/lastmile_qr_scan", "android": "https://dc.lft.to/lastmile_qr_scan"}, "is_disabled": 0, "lon": -77.01207733333334, "name": "50ec4a752968f6cdb7ec671a7697c8db", "fusion_lon": 0.0}, {"lat": 38.90966783333333, "fusion_lat": 0.0, "type": "electric_scooter", "bike_id": "eaa96237c0a005aa67e13d4c53f60e61", "is_reserved": 0, "rental_uris": {"ios": "https://dc.lft.to/lastmile_qr_scan", "android": "https://dc.lft.to/lastmile_qr_scan"}, "is_disabled": 0, "lon": -77.03951833333333, "name": "eaa96237c0a005aa67e13d4c53f60e61", "fusion_lon": 0.0}, {"lat": 38.89966883333334, "fusion_lat": 0.0, "type": "electric_scooter", "bike_id": "30b65530ca56fe4ab884100a1d9da337", "is_reserved": 0, "rental_uris": {"ios": "https://dc.lft.to/lastmile_qr_scan", "android": "https://dc.lft.to/lastmile_qr_scan"}, "is_disabled": 0, "lon": -77.0150135, "name": "30b65530ca56fe4ab884100a1d9da337", "fusion_lon": 0.0}, {"lat": 38.93277233333333, "fusion_lat": 0.0, "type": "electric_scooter", "bike_id": "18f5a9e1f5b4d7c2d5b7355a99ba1403", "is_reserved": 0, "rental_uris": {"ios": "https://dc.lft.to/lastmile_qr_scan", "android": "https://dc.lft.to/lastmile_qr_scan"}, "is_disabled": 0, "lon": -77.04535, "name": "18f5a9e1f5b4d7c2d5b7355a99ba1403", "fusion_lon": 0.0}, {"lat": 38.863851333333336, "fusion_lat": 0.0, "type": "electric_scooter", "bike_id": "9c2d70677cd7ae9a4e9953e664c8ba3f", "is_reserved": 0, "rental_uris": {"ios": "https://dc.lft.to/lastmile_qr_scan", "android": "https://dc.lft.to/lastmile_qr_scan"}, "is_disabled": 0, "lon": -76.990433, "name": "9c2d70677cd7ae9a4e9953e664c8ba3f", "fusion_lon": 0.0}, {"lat": 38.91654533333333, "fusion_lat": 0.0, "type": "electric_scooter", "bike_id": "256d4ce82ed9d1fd91d0507512819b1b", "is_reserved": 0, "rental_uris": {"ios": "https://dc.lft.to/lastmile_qr_scan", "android": "https://dc.lft.to/lastmile_qr_scan"}, "is_disabled": 0, "lon": -77.020081, "name": "256d4ce82ed9d1fd91d0507512819b1b", "fusion_lon": 0.0}, {"lat": 38.9814135, "fusion_lat": 0.0, "type": "electric_bike", "bike_id": "284f174a934d162f588dad38649379e4", "is_reserved": 0, "rental_uris": {"ios": "https://dc.lft.to/lastmile_qr_scan", "android": "https://dc.lft.to/lastmile_qr_scan"}, "is_disabled": 0, "lon": -77.09255033333334, "name": "284f174a934d162f588dad38649379e4", "fusion_lon": 0.0}, {"lat": 38.90833033333333, "fusion_lat": 0.0, "type": "electric_scooter", "bike_id": "485acd92bd240814b7c3a3269bf11885", "is_reserved": 0, "rental_uris": {"ios": "https://dc.lft.to/lastmile_qr_scan", "android": "https://dc.lft.to/lastmile_qr_scan"}, "is_disabled": 0, "lon": -77.04327216666667, "name": "485acd92bd240814b7c3a3269bf11885", "fusion_lon": 0.0}, {"lat": 38.924938166666664, "fusion_lat": 0.0, "type": "electric_scooter", "bike_id": "b508ffbdb97cd30e2c3e72dbbc83c1ba", "is_reserved": 0, "rental_uris": {"ios": "https://dc.lft.to/lastmile_qr_scan", "android": "https://dc.lft.to/lastmile_qr_scan"}, "is_disabled": 0, "lon": -77.0525215, "name": "b508ffbdb97cd30e2c3e72dbbc83c1ba", "fusion_lon": 0.0}, {"lat": 38.900485333333336, "fusion_lat": 0.0, "type": "electric_scooter", "bike_id": "feb887e18d5802a61ae71f498bb80a51", "is_reserved": 0, "rental_uris": {"ios": "https://dc.lft.to/lastmile_qr_scan", "android": "https://dc.lft.to/lastmile_qr_scan"}, "is_disabled": 0, "lon": -76.98823883333333, "name": "feb887e18d5802a61ae71f498bb80a51", "fusion_lon": 0.0}, {"lat": 38.907266, "fusion_lat": 0.0, "type": "electric_scooter", "bike_id": "0436a859269069cddb6070be5ac6dafa", "is_reserved": 0, "rental_uris": {"ios": "https://dc.lft.to/lastmile_qr_scan", "android": "https://dc.lft.to/lastmile_qr_scan"}, "is_disabled": 0, "lon": -77.03207766666667, "name": "0436a859269069cddb6070be5ac6dafa", "fusion_lon": 0.0}, {"lat": 38.904803333333334, "fusion_lat": 0.0, "type": "electric_scooter", "bike_id": "021b9506739bb95d98173c907fcde26e", "is_reserved": 0, "rental_uris": {"ios": "https://dc.lft.to/lastmile_qr_scan", "android": "https://dc.lft.to/lastmile_qr_scan"}, "is_disabled": 0, "lon": -77.05334366666666, "name": "021b9506739bb95d98173c907fcde26e", "fusion_lon": 0.0}, {"lat": 38.905613833333334, "fusion_lat": 0.0, "type": "electric_scooter", "bike_id": "6162199079db9265bb785f6fe18417bf", "is_reserved": 0, "rental_uris": {"ios": "https://dc.lft.to/lastmile_qr_scan", "android": "https://dc.lft.to/lastmile_qr_scan"}, "is_disabled": 0, "lon": -77.04463833333334, "name": "6162199079db9265bb785f6fe18417bf", "fusion_lon": 0.0},