{"data": {"bikes": [{"lat": 38.90237316666666, "is_disabled": 0, "type": "electric_scooter", "lon": -77.0433785, "bike_id": "1e7be7c37371f38c3e419640ab72530f", "fusion_lat": 0.0, "name": "1e7be7c37371f38c3e419640ab72530f", "is_reserved": 0, "rental_uris": {"android": "https://dc.lft.to/lastmile_qr_scan", "ios": "https://dc.lft.to/lastmile_qr_scan"}, "fusion_lon": 0.0}, {"lat": 38.87323966666666, "is_disabled": 0, "type": "electric_bike", "lon": -77.10626433333333, "bike_id": "df65c77c37ea081c152319f9ddd3b187", "fusion_lat": 0.0, "name": "df65c77c37ea081c152319f9ddd3b187", "is_reserved": 0, "rental_uris": {"android": "https://dc.lft.to/lastmile_qr_scan", "ios": "https://dc.lft.to/lastmile_qr_scan"}, "fusion_lon": 0.0}, {"lat": 38.903135166666665, "is_disabled": 0, "type": "electric_scooter", "lon": -77.029094, "bike_id": "3909fb9748f4afd0dd7f31f2feffa1e0", "fusion_lat": 0.0, "name": "3909fb9748f4afd0dd7f31f2feffa1e0", "is_reserved": 0, "rental_uris": {"android": "https://dc.lft.to/lastmile_qr_scan", "ios": "https://dc.lft.to/lastmile_qr_scan"}, "fusion_lon": 0.0}, {"lat": 38.91634883333333, "is_disabled": 0, "type": "electric_scooter", "lon": -77.04624066666666, "bike_id": "2c4b180c594a816214cacb649efafc10", "fusion_lat": 0.0, "name": "2c4b180c594a816214cacb649efafc10", "is_reserved": 0, "rental_uris": {"android": "https://dc.lft.to/lastmile_qr_scan", "ios": "https://dc.lft.to/lastmile_qr_scan"}, "fusion_lon": 0.0}, {"lat": 39.088573833333335, "is_disabled": 0, "type": "electric_bike", "lon": -77.17841416666667, "bike_id": "6e57b9c4f42b15ef7d032047c95ea4f4", "fusion_lat": 0.0, "name": "6e57b9c4f42b15ef7d032047c95ea4f4", "is_reserved": 0, "rental_uris": {"android": "https://dc.lft.to/lastmile_qr_scan", "ios": "https://dc.lft.to/lastmile_qr_scan"}, "fusion_lon": 0.0}, {"lat": 38.9286265, "is_disabled": 0, "type": "electric_bike", "lon": -77.222191, "bike_id": "09cd15cbbb8672e29d6fea7eff65163e", "fusion_lat": 0.0, "name": "09cd15cbbb8672e29d6fea7eff65163e", "is_reserved": 0, "rental_uris": {"android": "https://dc.lft.to/lastmile_qr_scan", "ios": "https://dc.lft.to/lastmile_qr_scan"}, "fusion_lon": 0.0}, {"lat": 38.876400333333336, "is_disabled": 0, "type": "electric_scooter", "lon": -76.993211, "bike_id": "e9a36a798e99dfb49443e15a7ffeff7d", "fusion_lat": 0.0, "name": "e9a36a798e99dfb49443e15a7ffeff7d", "is_reserved": 0, "rental_uris": {"android": "https://dc.lft.to/lastmile_qr_scan", "ios": "https://dc.lft.to/lastmile_qr_scan"}, "fusion_lon": 0.0}, {"lat": 38.917775166666665, "is_disabled": 0, "type": "electric_scooter", "lon": -77.02877266666667, "bike_id": "19679d0796e13030cc04ce4f0e1918fa", "fusion_lat": 0.0, "name": "19679d0796e13030cc04ce4f0e1918fa", "is_reserved": 0, "rental_uris": {"android": "https://dc.lft.to/lastmile_qr_scan", "ios": "https://dc.lft.to/lastmile_qr_scan"}, "fusion_lon": 0.0}, {"lat": 38.938773833333336, "is_disabled": 0, "type": "electric_scooter", "lon": -77.03259733333333, "bike_id": "47163b6b1a0c051151bfcbfd37aa6948", "fusion_lat": 0.0, "name": "47163b6b1a0c051151bfcbfd37aa6948", "is_reserved": 0, "rental_uris": {"android": "https://dc.lft.to/lastmile_qr_scan", "ios": "https://dc.lft.to/lastmile_qr_scan"}, "fusion_lon": 0.0}, {"lat": 38.92856966666667, "is_disabled": 0, "type": "electric_scooter", "lon": -77.03088816666667, "bike_id": "59d25e75c35c7bd491509efa3a2c60da", "fusion_lat": 0.0, "name": "59d25e75c35c7bd491509efa3a2c60da", "is_reserved": 0, "rental_uris": {"android": "https://dc.lft.to/lastmile_qr_scan", "ios": "https://dc.lft.to/lastmile_qr_scan"}, "fusion_lon": 0.0}, {"lat": 38.86287516666667, "is_disabled": 0, "type": "electric_scooter", "lon": -76.9923715, "bike_id": "2ced8ab12aa4d0dc712fd00337e5d44c", "fusion_lat": 0.0, "name": "2ced8ab12aa4d0dc712fd00337e5d44c", "is_reserved": 0, "rental_uris": {"android": "https://dc.lft.to/lastmile_qr_scan", "ios": "https://dc.lft.to/lastmile_qr_scan"}, "fusion_lon": 0.0}, {"lat": 38.93518616666667, "is_disabled": 0, "type": "electric_bike", "lon": -76.98349366666666, "bike_id": "46f3a678f40ae0f52b3a213b3a1b21f0", "fusion_lat": 0.0, "name": "46f3a678f40ae0f52b3a213b3a1b21f0", "is_reserved": 0, "rental_uris": {"android": "https://dc.lft.to/lastmile_qr_scan", "ios": "https://dc.lft.to/lastmile_qr_scan"}, "fusion_lon": 0.0}, {"lat": 38.9320235, "is_disabled": 0, "type": "electric_scooter", "lon": -77.03852383333333, "bike_id": "b3b29ae43737b8e945791202c5506be8", "fusion_lat": 0.0, "name": "b3b29ae43737b8e945791202c5506be8", "is_reserved": 0, "rental_uris": {"android": "https://dc.lft.to/lastmile_qr_scan", "ios": "https://dc.lft.to/lastmile_qr_scan"}, "fusion_lon": 0.0}, {"lat": 38.893574, "is_disabled": 0, "type": "electric_scooter", "lon": -77.0415655, "bike_id": "e7ec52779538d148f859489208fd8538", "fusion_lat": 0.0, "name": "e7ec52779538d148f859489208fd8538", "is_reserved": 0, "rental_uris": {"android": "https://dc.lft.to/lastmile_qr_scan", "ios": "https://dc.lft.to/lastmile_qr_scan"}, "fusion_lon": 0.0}, {"lat": 38.88706233333333, "is_disabled": 0, "type": "electric_scooter", "lon": -77.03201483333333, "bike_id": "bc9a94ab272b65a0788d1e7a38c23a2c", "fusion_lat": 0.0, "name": "bc9a94ab272b65a0788d1e7a38c23a2c", "is_reserved": 0, "rental_uris": {"android": "https://dc.lft.to/lastmile_qr_scan", "ios": "https://dc.lft.to/lastmile_qr_scan"}, "fusion_lon": 0.0}, {"lat": 38.8984305, "is_disabled": 0, "type": "electric_scooter", "lon": -76.94464, "bike_id": "cb9ba90963d0c87f58028aeb325a548e", "fusion_lat": 0.0, "name": "cb9ba90963d0c87f58028aeb325a548e", "is_reserved": 0, "rental_uris": {"android": "https://dc.lft.to/lastmile_qr_scan", "ios": "https://dc.lft.to/lastmile_qr_scan"}, "fusion_lon": 0.0}, {"lat": 38.91045666666667, "is_disabled": 0, "type": "electric_scooter", "lon": -77.03375483333333, "bike_id": "41784e3984cfea3d09e806382470b1f6", "fusion_lat": 0.0, "name": "41784e3984cfea3d09e806382470b1f6", "is_reserved": 0, "rental_uris": {"android": "https://dc.lft.to/lastmile_qr_scan", "ios": "https://dc.lft.to/lastmile_qr_scan"}, "fusion_lon": 0.0}, {"lat": 38.9131935, "is_disabled": 0, "type": "electric_scooter", "lon": -77.04562433333334, "bike_id": "28f90843674a7c049fbb6c83ee9eda6d", "fusion_lat": 0.0, "name": "28f90843674a7c049fbb6c83ee9eda6d", "is_reserved": 0, "rental_uris": {"android": "https://dc.lft.to/lastmile_qr_scan", "ios": "https://dc.lft.to/lastmile_qr_scan"}, "fusion_lon": 0.0}, {"lat": 39.094402, "is_disabled": 0, "type": "electric_bike", "lon": -77.13456383333333, "bike_id": "2d6f6c9c563674068d59bd97153c9c8d", "fusion_lat": 0.0, "name": "2d6f6c9c563674068d59bd97153c9c8d", "is_reserved": 0, "rental_uris": {"android": "https://dc.lft.to/lastmile_qr_scan", "ios": "https://dc.lft.to/lastmile_qr_scan"}, "fusion_lon": 0.0}, {"lat": 38.94455833333333, "is_disabled": 0, "type": "electric_scooter", "lon": -77.06034383333333, "bike_id": "a55471c1eabc17b10a4245a3375cc308", "fusion_lat": 0.0, "name": "a55471c1eabc17b10a4245a3375cc308", "is_reserved": 0, "rental_uris": {"android": "https://dc.lft.to/lastmile_qr_scan", "ios": "https://dc.lft.to/lastmile_qr_scan"}, "fusion_lon": 0.0}, {"lat": 38.85808816666667, "is_disabled": 0, "type": "electric_scooter", "lon": -76.98655583333333, "bike_id": "d3e3a33bfc2ae34dd88ff66da0fb26c2", "fusion_lat": 0.0, "name": "d3e3a33bfc2ae34dd88ff66da0fb26c2", "is_reserved": 0, "rental_uris": {"android": "https://dc.lft.to/lastmile_qr_scan", "ios": "https://dc.lft.to/lastmile_qr_scan"}, "fusion_lon": 0.0}, {"lat": 38.9225045, "is_disabled": 0, "type": "electric_scooter", "lon": -76.99391216666666, "bike_id": "2a1048fb3c9fbe337d5afb53d5224d17", "fusion_lat": 0.0, "name": "2a1048fb3c9fbe337d5afb53d5224d17", "is_reserved": 0, "rental_uris": {"android": "https://dc.lft.to/lastmile_qr_scan", "ios": "https://dc.lft.to/lastmile_qr_scan"}, "fusion_lon": 0.0}, {"lat": 38.918163, "is_disabled": 0, "type": "electric_scooter", "lon": -77.0286985, "bike_id": "031fb105f93852c37d551e0b9169d4df", "fusion_lat": 0.0, "name": "031fb105f93852c37d551e0b9169d4df", "is_reserved": 0, "rental_uris": {"android": "https://dc.lft.to/lastmile_qr_scan", "ios": "https://dc.lft.to/lastmile_qr_scan"}, "fusion_lon": 0.0}, {"lat": 38.87423116666667, "is_disabled": 0, "type": "electric_bike", "lon": -77.08576133333334, "bike_id": "64d3879b8ee086d4be496a7ac68af80e", "fusion_lat": 0.0, "name": "64d3879b8ee086d4be496a7ac68af80e", "is_reserved": 0, "rental_uris": {"android": "https://dc.lft.to/lastmile_qr_scan", "ios": "https://dc.lft.to/lastmile_qr_scan"}, "fusion_lon": 0.0}, {"lat": 38.917078, "is_disabled": 0, "type": "electric_scooter", "lon": -77.02469916666666, "bike_id": "d801ba55cbb36f4085b1060f996aadce", "fusion_lat": 0.0, "name": "d801ba55cbb36f4085b1060f996aadce", "is_reserved": 0, "rental_uris": {"android": "https://dc.lft.to/lastmile_qr_scan", "ios": "https://dc.lft.to/lastmile_qr_scan"}, "fusion_lon": 0.0}, {"lat": 38.929245, "is_disabled": 0, "type": "electric_scooter", "lon": -77.0326295, "bike_id": "edf6e8a5d9408bac42b87681286d3655", "fusion_lat": 0.0, "name": "edf6e8a5d9408bac42b87681286d3655", "is_reserved": 0, "rental_uris": {"android": "https://dc.lft.to/lastmile_qr_scan", "ios": "https://dc.lft.to/lastmile_qr_scan"}, "fusion_lon": 0.0}, {"lat": 38.917069, "is_disabled": 0, "type": "electric_scooter", "lon": -77.04277483333334, "bike_id": "072d562523dd672678a6226b1429110a", "fusion_lat": 0.0, "name": "072d562523dd672678a6226b1429110a", "is_reserved": 0, "rental_uris": {"android": "https://dc.lft.to/lastmile_qr_scan", "ios": "https://dc.lft.to/lastmile_qr_scan"}, "fusion_lon": 0.0}, {"lat": 38.906497, "is_disabled": 0, "type": "electric_scooter", "lon": -77.04153883333333, "bike_id": "8808ade2bea804a4ae18fc40d35f242b", "fusion_lat": 0.0, "name": "8808ade2bea804a4ae18fc40d35f242b", "is_reserved": 0, "rental_uris": {"android": "https://dc.lft.to/lastmile_qr_scan", "ios": "https://dc.lft.to/lastmile_qr_scan"}, "fusion_lon": 0.0}, {"lat": 38.9105105, "is_disabled": 0, "type": "electric_scooter", "lon": -77.04337316666667, "bike_id": "8a1a01f050bc6bc775e440b1bb7fcafb", "fusion_lat": 0.0, "name": "8a1a01f050bc6bc775e440b1bb7fcafb", "is_reserved": 0, "rental_uris": {"android": "https://dc.lft.to/lastmile_qr_scan", "ios": "https://dc.lft.to/lastmile_qr_scan"}, "fusion_lon": 0.0}, {"lat": 38.898925166666665, "is_disabled": 0, "type": "electric_scooter", "lon": -77.039591, "bike_id": "b5ccc2125b59dc04fce12a6cef1dffa7", "fusion_lat": 0.0, "name": "b5ccc2125b59dc04fce12a6cef1dffa7", "is_reserved": 0, "rental_uris": {"android": "https://dc.lft.to/lastmile_qr_scan", "ios": "https://dc.lft.to/lastmile_qr_scan"}, "fusion_lon": 0.0}, {"lat": 38.8923155, "is_disabled": 0, "type": "electric_scooter", "lon": -77.050015, "bike_id": "6df8c0766383e4b75558bdaa1f5c35ab", "fusion_lat": 0.0, "name": "6df8c0766383e4b75558bdaa1f5c35ab", "is_reserved": 0, "rental_uris": {"android": "https://dc.lft.to/lastmile_qr_scan", "ios": "https://dc.lft.to/lastmile_qr_scan"}, "fusion_lon": 0.0}, {"lat": 38.900361833333335, "is_disabled": 0, "type": "electric_scooter", "lon": -77.00580566666666, "bike_id": "0d03fa5f1602bf514f2c8b6a56ddf734", "fusion_lat": 0.0, "name": "0d03fa5f1602bf514f2c8b6a56ddf734", "is_reserved": 0, "rental_uris": {"android": "https://dc.lft.to/lastmile_qr_scan", "ios": "https://dc.lft.to/lastmile_qr_scan"}, "fusion_lon": 0.0}, {"lat": 38.92464833333333, "is_disabled": 0, "type": "electric_bike", "lon": -77.20841233333333, "bike_id": "10ff479a683ba0c010a46604e8ff9331", "fusion_lat": 0.0, "name": "10ff479a683ba0c010a46604e8ff9331", "is_reserved": 0, "rental_uris": {"android": "https://dc.lft.to/lastmile_qr_scan", "ios": "https://dc.lft.to/lastmile_qr_scan"}, "fusion_lon": 0.0}, {"lat": 38.9527845, "is_disabled": 0, "type": "electric_scooter", "lon": -77.03653716666666, "bike_id": "63e220886cb36e003a19aec3ee29fe5a", "fusion_lat": 0.0, "name": "63e220886cb36e003a19aec3ee29fe5a", "is_reserved": 0, "rental_uris": {"android": "https://dc.lft.to/lastmile_qr_scan", "ios": "https://dc.lft.to/lastmile_qr_scan"}, "fusion_lon": 0.0}, {"lat": 38.920561666666664, "is_disabled": 0, "type": "electric_scooter", "lon": -77.03295866666667, "bike_id": "0a2117d3d092127cc568a64bb1f736fb", "fusion_lat": 0.0, "name": "0a2117d3d092127cc568a64bb1f736fb", "is_reserved": 0, "rental_uris": {"android": "https://dc.lft.to/lastmile_qr_scan", "ios": "https://dc.lft.to/lastmile_qr_scan"}, "fusion_lon": 0.0}, {"lat": 38.8892615, "is_disabled": 0, "type": "electric_scooter", "lon": -76.97374783333333, "bike_id": "3dfc44cfd8cfa48d049ed818f608f654", "fusion_lat": 0.0, "name": "3dfc44cfd8cfa48d049ed818f608f654", "is_reserved": 0, "rental_uris": {"android": "https://dc.lft.to/lastmile_qr_scan", "ios": "https://dc.lft.to/lastmile_qr_scan"}, "fusion_lon": 0.0}, {"lat": 38.9180565, "is_disabled": 0, "type": "electric_scooter", "lon": -77.03633516666666, "bike_id": "f738ea67c28290cfa4ccaf85e9b9d55c", "fusion_lat": 0.0, "name": "f738ea67c28290cfa4ccaf85e9b9d55c", "is_reserved": 0, "rental_uris": {"android": "https://dc.lft.to/lastmile_qr_scan", "ios": "https://dc.lft.to/lastmile_qr_scan"}, "fusion_lon": 0.0}, {"lat": 38.861602833333336, "is_disabled": 0, "type": "electric_bike", "lon": -77.13093916666666, "bike_id": "0ff5a910c34247d50c0820906554d190", "fusion_lat": 0.0, "name": "0ff5a910c34247d50c0820906554d190", "is_reserved": 0, "rental_uris": {"android": "https://dc.lft.to/lastmile_qr_scan", "ios": "https://dc.lft.to/lastmile_qr_scan"}, "fusion_lon": 0.0}, {"lat": 38.906291833333334, "is_disabled": 0, "type": "electric_scooter", "lon": -77.0628465, "bike_id": "53405f54fe90f7e2f00e6242749fa092", "fusion_lat": 0.0, "name": "53405f54fe90f7e2f00e6242749fa092", "is_reserved": 0, "rental_uris": {"android": "https://dc.lft.to/lastmile_qr_scan", "ios": "https://dc.lft.to/lastmile_qr_scan"}, "fusion_lon": 0.0}, {"lat": 38.89552883333333, "is_disabled": 0, "type": "electric_scooter", "lon": -77.0036295, "bike_id": "bd173e159cd51d8fcfbf60f37748615b", "fusion_lat": 0.0, "name": "bd173e159cd51d8fcfbf60f37748615b", "is_reserved": 0, "rental_uris": {"android": "https://dc.lft.to/lastmile_qr_scan", "ios": "https://dc.lft.to/lastmile_qr_scan"}, "fusion_lon": 0.0}, {"lat": 38.916233, "is_disabled": 0, "type": "electric_scooter", "lon": -77.01439266666667, "bike_id": "b570f32ab919d772e1cd635934a840b2", "fusion_lat": 0.0, "name": "b570f32ab919d772e1cd635934a840b2", "is_reserved": 0, "rental_uris": {"android": "https://dc.lft.to/lastmile_qr_scan", "ios": "https://dc.lft.to/lastmile_qr_scan"}, "fusion_lon": 0.0}, {"lat": 38.93509183333333, "is_disabled": 0, "type": "electric_scooter", "lon": -77.03674633333334, "bike_id": "4f58214472d888dcc5af7a803b6b541a", "fusion_lat": 0.0, "name": "4f58214472d888dcc5af7a803b6b541a", "is_reserved": 0, "rental_uris": {"android": "https://dc.lft.to/lastmile_qr_scan", "ios": "https://dc.lft.to/lastmile_qr_scan"}, "fusion_lon": 0.0}, {"lat": 38.92795383333333, "is_disabled": 0, "type": "electric_scooter", "lon": -77.05355383333334, "bike_id": "ece0a6bea72f4feda21d390d749f876a", "fusion_lat": 0.0, "name": "ece0a6bea72f4feda21d390d749f876a", "is_reserved": 0, "rental_uris": {"android": "https://dc.lft.to/lastmile_qr_scan", "ios": "https://dc.lft.to/lastmile_qr_scan"}, "fusion_lon": 0.0}, {"lat": 38.91781833333334, "is_disabled": 0, "type": "electric_scooter", "lon": -77.02262533333334, "bike_id": "0319a5bc90de0c0d5066eafdb099c293", "fusion_lat": 0.0, "name": "0319a5bc90de0c0d5066eafdb099c293", "is_reserved": 0, "rental_uris": {"android": "https://dc.lft.to/lastmile_qr_scan", "ios": "https://dc.lft.to/lastmile_qr_scan"}, "fusion_lon": 0.0}, {"lat": 38.90403, "is_disabled": 0, "type": "electric_scooter", "lon": -77.065128, "bike_id": "1b9eaa0127b199285148146e7d04cba0", "fusion_lat": 0.0, "name": "1b9eaa0127b199285148146e7d04cba0", "is_reserved": 0, "rental_uris": {"android": "https://dc.lft.to/lastmile_qr_scan", "ios": "https://dc.lft.to/lastmile_qr_scan"}, "fusion_lon": 0.0}, {"lat": 38.911129833333334, "is_disabled": 0, "type": "electric_scooter", "lon": -77.048194, "bike_id": "558b6dc6bb9cb0752df52b0d8afd47ea", "fusion_lat": 0.0, "name": "558b6dc6bb9cb0752df52b0d8afd47ea", "is_reserved": 0, "rental_uris": {"android": "https://dc.lft.to/lastmile_qr_scan", "ios": "https://dc.lft.to/lastmile_qr_scan"}, "fusion_lon": 0.0}, {"lat": 38.90691666666667, "is_disabled": 0, "type": "electric_scooter", "lon": -77.03519766666666, "bike_id": "cc4bd51349a5947d47d6892f869df4b9", "fusion_lat": 0.0, "name": "cc4bd51349a5947d47d6892f869df4b9", "is_reserved": 0, "rental_uris": {"android": "https://dc.lft.to/lastmile_qr_scan", "ios": "https://dc.lft.to/lastmile_qr_scan"}, "fusion_lon": 0.0}, {"lat": 38.915563, "is_disabled": 0, "type": "electric_scooter", "lon": -77.02049533333333, "bike_id": "a2a18b588b0704f4c1c5d3adbfe38b5d", "fusion_lat": 0.0, "name": "a2a18b588b0704f4c1c5d3adbfe38b5d", "is_reserved": 0, "rental_uris": {"android": "https://dc.lft.to/lastmile_qr_scan", "ios": "https://dc.lft.to/lastmile_qr_scan"}, "fusion_lon": 0.0}, {"lat": 38.925392333333335, "is_disabled": 0, "type": "electric_scooter", "lon": -77.05243966666667, "bike_id": "2bab6d4205d4ba0502821f0cd9c242d5", "fusion_lat": 0.0, "name": "2bab6d4205d4ba0502821f0cd9c242d5", "is_reserved": 0, "rental_uris": {"android": "https://dc.lft.to/lastmile_qr_scan", "ios": "https://dc.lft.to/lastmile_qr_scan"}, "fusion_lon": 0.0}, {"lat": 38.929723, "is_disabled": 0, "type": "electric_scooter", "lon": -77.027906, "bike_id": "fa1b6ef63f041f4be1d679b8f36c0b0f", "fusion_lat": 0.0, "name": "fa1b6ef63f041f4be1d679b8f36c0b0f", "is_reserved": 0, "rental_uris": {"android": "https://dc.lft.to/lastmile_qr_scan", "ios": "https://dc.lft.to/lastmile_qr_scan"}, "fusion_lon": 0.0}, {"lat": 38.939637166666664, "is_disabled": 0, "type": "electric_scooter", "lon": -77.02754816666666, "bike_id": "76f228f7f243c770a2d8bd1157e14a53", "fusion_lat": 0.0, "name": "76f228f7f243c770a2d8bd1157e14a53", "is_reserved": 0, "rental_uris": {"android": "https://dc.lft.to/lastmile_qr_scan", "ios": "https://dc.lft.to/lastmile_qr_scan"}, "fusion_lon": 0.0}, {"lat": 38.90063833333333, "is_disabled": 0, "type": "electric_scooter", "lon": -77.02586, "bike_id": "aef903275e23e1efe9ee3b6b48c80fc6", "fusion_lat": 0.0, "name": "aef903275e23e1efe9ee3b6b48c80fc6", "is_reserved": 0, "rental_uris": {"android": "https://dc.lft.to/lastmile_qr_scan", "ios": "https://dc.lft.to/lastmile_qr_scan"}, "fusion_lon": 0.0}, {"lat": 38.898116333333334, "is_disabled": 0, "type": "electric_scooter", "lon": -77.02908833333333, "bike_id": "72b49b28f81eb8ab31d29169c0279656", "fusion_lat": 0.0, "name": "72b49b28f81eb8ab31d29169c0279656", "is_reserved": 0, "rental_uris": {"android": "https://dc.lft.to/lastmile_qr_scan", "ios": "https://dc.lft.to/lastmile_qr_scan"}, "fusion_lon": 0.0}, {"lat": 38.927569166666665, "is_disabled": 0, "type": "electric_scooter", "lon": -77.00594266666667, "bike_id": "1f93ec737dd87729de14b8eda24ac88c", "fusion_lat": 0.0, "name": "1f93ec737dd87729de14b8eda24ac88c", "is_reserved": 0, "rental_uris": {"android": "https://dc.lft.to/lastmile_qr_scan", "ios": "https://dc.lft.to/lastmile_qr_scan"}, "fusion_lon": 0.0}, {"lat": 38.88492733333333, "is_disabled": 0, "type": "electric_scooter", "lon": -77.00727583333334, "bike_id": "7ddb7b4ac5c50666cf45e3822f5d774c", "fusion_lat": 0.0, "name": "7ddb7b4ac5c50666cf45e3822f5d774c", "is_reserved": 0, "rental_uris": {"android": "https://dc.lft.to/lastmile_qr_scan", "ios": "https://dc.lft.to/lastmile_qr_scan"}, "fusion_lon": 0.0}, {"lat": 38.9000765, "is_disabled": 0, "type": "electric_scooter", "lon": -76.92236116666666, "bike_id": "990b57c8556c276036a856d4f0a1afe4", "fusion_lat": 0.0, "name": "990b57c8556c276036a856d4f0a1afe4", "is_reserved": 0, "rental_uris": {"android": "https://dc.lft.to/lastmile_qr_scan", "ios": "https://dc.lft.to/lastmile_qr_scan"}, "fusion_lon": 0.0}, {"lat": 38.89946, "is_disabled": 0, "type": "electric_scooter", "lon": -77.02389733333334, "bike_id": "7fd96b2abedca1ab8bfceb758af21dee", "fusion_lat": 0.0, "name": "7fd96b2abedca1ab8bfceb758af21dee", "is_reserved": 0, "rental_uris": {"android": "https://dc.lft.to/lastmile_qr_scan", "ios": "https://dc.lft.to/lastmile_qr_scan"}, "fusion_lon": 0.0}, {"lat": 38.91730883333334, "is_disabled": 0, "type": "electric_scooter", "lon": -77.03664316666666, "bike_id": "3a050323fe171a7df3696ab7eb22bbf7", "fusion_lat": 0.0, "name": "3a050323fe171a7df3696ab7eb22bbf7", "is_reserved": 0, "rental_uris": {"android": "https://dc.lft.to/lastmile_qr_scan", "ios": "https://dc.lft.to/lastmile_qr_scan"}, "fusion_lon": 0.0}, {"lat": 38.870695, "is_disabled": 0, "type": "electric_scooter", "lon": -77.008427, "bike_id": "5978d15846f8e6e8b29c3895944adb81", "fusion_lat": 0.0, "name": "5978d15846f8e6e8b29c3895944adb81", "is_reserved": 0, "rental_uris": {"android": "https://dc.lft.to/lastmile_qr_scan", "ios": "https://dc.lft.to/lastmile_qr_scan"}, "fusion_lon": 0.0}, {"lat": 38.91971516666667, "is_disabled": 0, "type": "electric_scooter", "lon": -77.02394016666666, "bike_id": "0885a47a18e35db9f6edc00629befdda", "fusion_lat": 0.0, "name": "0885a47a18e35db9f6edc00629befdda", "is_reserved": 0, "rental_uris": {"android": "https://dc.lft.to/lastmile_qr_scan", "ios": "https://dc.lft.to/lastmile_qr_scan"}, "fusion_lon": 0.0}, {"lat": 38.884538666666664, "is_disabled": 0, "type": "electric_scooter", "lon": -77.01745, "bike_id": "996e6f7d6182cee5ada66ba454c85c03", "fusion_lat": 0.0, "name": "996e6f7d6182cee5ada66ba454c85c03", "is_reserved": 0, "rental_uris": {"android": "https://dc.lft.to/lastmile_qr_scan", "ios": "https://dc.lft.to/lastmile_qr_scan"}, "fusion_lon": 0.0}, {"lat": 38.918892166666666, "is_disabled": 0, "type": "electric_scooter", "lon": -77.04126133333334, "bike_id": "d85f690cf166bb245470a1f4704a8b29", "fusion_lat": 0.0, "name": "d85f690cf166bb245470a1f4704a8b29", "is_reserved": 0, "rental_uris": {"android": "https://dc.lft.to/lastmile_qr_scan", "ios": "https://dc.lft.to/lastmile_qr_scan"}, "fusion_lon": 0.0}, {"lat": 38.907535333333335, "is_disabled": 0, "type": "electric_scooter", "lon": -77.04149433333333, "bike_id": "15e6ee9d6e3958bf279d9f054fa0c088", "fusion_lat": 0.0, "name": "15e6ee9d6e3958bf279d9f054fa0c088", "is_reserved": 0, "rental_uris": {"android": "https://dc.lft.to/lastmile_qr_scan", "ios": "https://dc.lft.to/lastmile_qr_scan"}, "fusion_lon": 0.0}, {"lat": 38.92740516666667, "is_disabled": 0, "type": "electric_scooter", "lon": -77.0226445, "bike_id": "cd7787a1a2f41959ed3bcdf5893b7028", "fusion_lat": 0.0, "name": "cd7787a1a2f41959ed3bcdf5893b7028", "is_reserved": 0, "rental_uris": {"android": "https://dc.lft.to/lastmile_qr_scan", "ios": "https://dc.lft.to/lastmile_qr_scan"}, "fusion_lon": 0.0}, {"lat": 38.898609666666665, "is_disabled": 0, "type": "electric_scooter", "lon": -77.02265833333334, "bike_id": "ef4ae7e7871f331630fc318d530a2286", "fusion_lat": 0.0, "name": "ef4ae7e7871f331630fc318d530a2286", "is_reserved": 0, "rental_uris": {"android": "https://dc.lft.to/lastmile_qr_scan", "ios": "https://dc.lft.to/lastmile_qr_scan"}, "fusion_lon": 0.0}, {"lat": 38.90976633333333, "is_disabled": 0, "type": "electric_scooter", "lon": -77.0239655, "bike_id": "0c99619d071c5fce58e5426bfd7186c6", "fusion_lat": 0.0, "name": "0c99619d071c5fce58e5426bfd7186c6", "is_reserved": 0, "rental_uris": {"android": "https://dc.lft.to/lastmile_qr_scan", "ios": "https://dc.lft.to/lastmile_qr_scan"}, "fusion_lon": 0.0}, {"lat": 38.8873405, "is_disabled": 0, "type": "electric_scooter", "lon": -77.02836483333333, "bike_id": "8ffba54aec985d31f9143c302130e881", "fusion_lat": 0.0, "name": "8ffba54aec985d31f9143c302130e881", "is_reserved": 0, "rental_uris": {"android": "https://dc.lft.to/lastmile_qr_scan", "ios": "https://dc.lft.to/lastmile_qr_scan"}, "fusion_lon": 0.0}, {"lat": 38.922841, "is_disabled": 0, "type": "electric_scooter", "lon": -77.03203233333333, "bike_id": "644e4a588f69eb2fcce99a01fa76364e", "fusion_lat": 0.0, "name": "644e4a588f69eb2fcce99a01fa76364e", "is_reserved": 0, "rental_uris": {"android": "https://dc.lft.to/lastmile_qr_scan", "ios": "https://dc.lft.to/lastmile_qr_scan"}, "fusion_lon": 0.0}, {"lat": 38.855099833333334, "is_disabled": 0, "type": "electric_bike", "lon": -77.1203015, "bike_id": "ba81b6c7be57a594260cdc4821a58050", "fusion_lat": 0.0, "name": "ba81b6c7be57a594260cdc4821a58050", "is_reserved": 0, "rental_uris": {"android": "https://dc.lft.to/lastmile_qr_scan", "ios": "https://dc.lft.to/lastmile_qr_scan"}, "fusion_lon": 0.0}, {"lat": 38.9087095, "is_disabled": 0, "type": "electric_scooter", "lon": -77.06676083333333, "bike_id": "a138abb494e53e070123ecc30ac3afd1", "fusion_lat": 0.0, "name": "a138abb494e53e070123ecc30ac3afd1", "is_reserved": 0, "rental_uris": {"android": "https://dc.lft.to/lastmile_qr_scan", "ios": "https://dc.lft.to/lastmile_qr_scan"}, "fusion_lon": 0.0}, {"lat": 38.90106433333333, "is_disabled": 0, "type": "electric_scooter", "lon": -77.0252025, "bike_id": "cb00c17debd878c61e04b3e193364d29", "fusion_lat": 0.0, "name": "cb00c17debd878c61e04b3e193364d29", "is_reserved": 0, "rental_uris": {"android": "https://dc.lft.to/lastmile_qr_scan", "ios": "https://dc.lft.to/lastmile_qr_scan"}, "fusion_lon": 0.0}, {"lat": 38.9172775, "is_disabled": 0, "type": "electric_scooter", "lon": -77.02507, "bike_id": "cc719fa0ff357b1a37a529cecb1a2e77", "fusion_lat": 0.0, "name": "cc719fa0ff357b1a37a529cecb1a2e77", "is_reserved": 0, "rental_uris": {"android": "https://dc.lft.to/lastmile_qr_scan", "ios": "https://dc.lft.to/lastmile_qr_scan"}, "fusion_lon": 0.0}, {"lat": 38.932940333333335, "is_disabled": 0, "type": "electric_scooter", "lon": -77.045353, "bike_id": "7e1840fdde11bab936886ab10f65afa2", "fusion_lat": 0.0, "name": "7e1840fdde11bab936886ab10f65afa2", "is_reserved": 0, "rental_uris": {"android": "https://dc.lft.to/lastmile_qr_scan", "ios": "https://dc.lft.to/lastmile_qr_scan"}, "fusion_lon": 0.0}, {"lat": 38.98430283333333, "is_disabled": 0, "type": "electric_scooter", "lon": -77.02671766666667, "bike_id": "708256d311e9746026d7e0723ec0371a", "fusion_lat": 0.0, "name": "708256d311e9746026d7e0723ec0371a", "is_reserved": 0, "rental_uris": {"android": "https://dc.lft.to/lastmile_qr_scan", "ios": "https://dc.lft.to/lastmile_qr_scan"}, "fusion_lon": 0.0}, {"lat": 38.88098216666667, "is_disabled": 0, "type": "electric_scooter", "lon": -76.992519, "bike_id": "fe6d4769e0bc585ca4ab37f8596aab1e", "fusion_lat": 0.0, "name": "fe6d4769e0bc585ca4ab37f8596aab1e", "is_reserved": 0, "rental_uris": {"android": "https://dc.lft.to/lastmile_qr_scan", "ios": "https://dc.lft.to/lastmile_qr_scan"}, "fusion_lon": 0.0}, {"lat": 38.888008666666664, "is_disabled": 0, "type": "electric_scooter", "lon": -76.93365166666666, "bike_id": "b37eb3ad89378e30bf3a4bbb7364ad75", "fusion_lat": 0.0, "name": "b37eb3ad89378e30bf3a4bbb7364ad75", "is_reserved": 0, "rental_uris": {"android": "https://dc.lft.to/lastmile_qr_scan", "ios": "https://dc.lft.to/lastmile_qr_scan"}, "fusion_lon": 0.0}, {"lat": 38.90608966666667, "is_disabled": 0, "type": "electric_scooter", "lon": -77.024977, "bike_id": "79716b0f4aa711f61f606b52706bc315", "fusion_lat": 0.0, "name": "79716b0f4aa711f61f606b52706bc315", "is_reserved": 0, "rental_uris": {"android": "https://dc.lft.to/lastmile_qr_scan", "ios": "https://dc.lft.to/lastmile_qr_scan"}, "fusion_lon": 0.0}, {"lat": 38.827869166666666, "is_disabled": 0, "type": "electric_bike", "lon": -77.009175, "bike_id": "6fcb82de43d2fc36a4e433d463505da2", "fusion_lat": 0.0, "name": "6fcb82de43d2fc36a4e433d463505da2", "is_reserved": 0, "rental_uris": {"android": "https://dc.lft.to/lastmile_qr_scan", "ios": "https://dc.lft.to/lastmile_qr_scan"}, "fusion_lon": 0.0}, {"lat": 38.91558233333333, "is_disabled": 0, "type": "electric_scooter", "lon": -77.0103995, "bike_id": "7938032b73149a842b34d65d7991d9b1", "fusion_lat": 0.0, "name": "7938032b73149a842b34d65d7991d9b1", "is_reserved": 0, "rental_uris": {"android": "https://dc.lft.to/lastmile_qr_scan", "ios": "https://dc.lft.to/lastmile_qr_scan"}, "fusion_lon": 0.0}, {"lat": 38.909729, "is_disabled": 0, "type": "electric_bike", "lon": -77.088256, "bike_id": "e2d0525ed972674db9b19ad3f334961d", "fusion_lat": 0.0, "name": "e2d0525ed972674db9b19ad3f334961d", "is_reserved": 0, "rental_uris": {"android": "https://dc.lft.to/lastmile_qr_scan", "ios": "https://dc.lft.to/lastmile_qr_scan"}, "fusion_lon": 0.0}, {"lat": 38.88363316666667, "is_disabled": 0, "type": "electric_scooter", "lon": -76.9950615, "bike_id": "8fff24bacfcc79567be1ba2fea40d7c4", "fusion_lat": 0.0, "name": "8fff24bacfcc79567be1ba2fea40d7c4", "is_reserved": 0, "rental_uris": {"android": "https://dc.lft.to/lastmile_qr_scan", "ios": "https://dc.lft.to/lastmile_qr_scan"}, "fusion_lon": 0.0}, {"lat": 38.91633933333333, "is_disabled": 0, "type": "electric_scooter", "lon": -77.031947, "bike_id": "a3d707f87618daab679a739a79dc7bf1", "fusion_lat": 0.0, "name": "a3d707f87618daab679a739a79dc7bf1", "is_reserved": 0, "rental_uris": {"android": "https://dc.lft.to/lastmile_qr_scan", "ios": "https://dc.lft.to/lastmile_qr_scan"}, "fusion_lon": 0.0}, {"lat": 38.93193333333333, "is_disabled": 0, "type": "electric_scooter", "lon": -77.02564983333333, "bike_id": "fe1d4989ed7b51a38e8c53e822c9ceb1", "fusion_lat": 0.0, "name": "fe1d4989ed7b51a38e8c53e822c9ceb1", "is_reserved": 0, "rental_uris": {"android": "https://dc.lft.to/lastmile_qr_scan", "ios": "https://dc.lft.to/lastmile_qr_scan"}, "fusion_lon": 0.0}, {"lat": 38.932009666666666, "is_disabled": 0, "type": "electric_scooter", "lon": -77.02348633333334, "bike_id": "87eed97f8f37c6f93c4a08ad12b01a12", "fusion_lat": 0.0, "name": "87eed97f8f37c6f93c4a08ad12b01a12", "is_reserved": 0, "rental_uris": {"android": "https://dc.lft.to/lastmile_qr_scan", "ios": "https://dc.lft.to/lastmile_qr_scan"}, "fusion_lon": 0.0}, {"lat": 38.954015, "is_disabled": 0, "type": "electric_scooter", "lon": -77.027476, "bike_id": "97d9584ee936cb47472dda441fe98401", "fusion_lat": 0.0, "name": "97d9584ee936cb47472dda441fe98401", "is_reserved": 0, "rental_uris": {"android": "https://dc.lft.to/lastmile_qr_scan", "ios": "https://dc.lft.to/lastmile_qr_scan"}, "fusion_lon": 0.0}, {"lat": 38.90782983333333, "is_disabled": 0, "type": "electric_scooter", "lon": -77.06398466666667, "bike_id": "97f38e58f942a580503fc1c2e74dd6b9", "fusion_lat": 0.0, "name": "97f38e58f942a580503fc1c2e74dd6b9", "is_reserved": 0, "rental_uris": {"android": "https://dc.lft.to/lastmile_qr_scan", "ios": "https://dc.lft.to/lastmile_qr_scan"}, "fusion_lon": 0.0}, {"lat": 38.9170995, "is_disabled": 0, "type": "electric_scooter", "lon": -77.034926, "bike_id": "e3d81bb0d9040acc12cc5eb40dd53c72", "fusion_lat": 0.0, "name": "e3d81bb0d9040acc12cc5eb40dd53c72", "is_reserved": 0, "rental_uris": {"android": "https://dc.lft.to/lastmile_qr_scan", "ios": "https://dc.lft.to/lastmile_qr_scan"}, "fusion_lon": 0.0}, {"lat": 38.928699, "is_disabled": 0, "type": "electric_scooter", "lon": -77.03222, "bike_id": "4d82cf3c89d30df52ad971a034e76310", "fusion_lat": 0.0, "name": "4d82cf3c89d30df52ad971a034e76310", "is_reserved": 0, "rental_uris": {"android": "https://dc.lft.to/lastmile_qr_scan", "ios": "https://dc.lft.to/lastmile_qr_scan"}, "fusion_lon": 0.0}, {"lat": 38.9303645, "is_disabled": 0, "type": "electric_scooter", "lon": -77.026373, "bike_id": "a48abc31e30615a9c9da781fd28f1c30", "fusion_lat": 0.0, "name": "a48abc31e30615a9c9da781fd28f1c30", "is_reserved": 0, "rental_uris": {"android": "https://dc.lft.to/lastmile_qr_scan", "ios": "https://dc.lft.to/lastmile_qr_scan"}, "fusion_lon": 0.0}, {"lat": 38.9095235, "is_disabled": 0, "type": "electric_scooter", "lon": -77.040729, "bike_id": "c565d6f4ebfd4e1ae43f5c3757d8bc8c", "fusion_lat": 0.0, "name": "c565d6f4ebfd4e1ae43f5c3757d8bc8c", "is_reserved": 0, "rental_uris": {"android": "https://dc.lft.to/lastmile_qr_scan", "ios": "https://dc.lft.to/lastmile_qr_scan"}, "fusion_lon": 0.0}, {"lat": 38.909561333333336, "is_disabled": 0, "type": "electric_scooter", "lon": -77.03173833333334, "bike_id": "181a95094850461dfa027c9c12caf00c", "fusion_lat": 0.0, "name": "181a95094850461dfa027c9c12caf00c", "is_reserved": 0, "rental_uris": {"android": "https://dc.lft.to/lastmile_qr_scan", "ios": "https://dc.lft.to/lastmile_qr_scan"}, "fusion_lon": 0.0}, {"lat": 38.802705833333334, "is_disabled": 0, "type": "electric_bike", "lon": -77.08111866666667, "bike_id": "f6a4e176dfa1bf4b6262b774a024b85d", "fusion_lat": 0.0, "name": "f6a4e176dfa1bf4b6262b774a024b85d", "is_reserved": 0, "rental_uris": {"android": "https://dc.lft.to/lastmile_qr_scan", "ios": "https://dc.lft.to/lastmile_qr_scan"}, "fusion_lon": 0.0}, {"lat": 38.90288266666667, "is_disabled": 0, "type": "electric_scooter", "lon": -77.04693616666667, "bike_id": "8aec0e00cb95c0e071bf87bd75827051", "fusion_lat": 0.0, "name": "8aec0e00cb95c0e071bf87bd75827051", "is_reserved": 0, "rental_uris": {"android": "https://dc.lft.to/lastmile_qr_scan", "ios": "https://dc.lft.to/lastmile_qr_scan"}, "fusion_lon": 0.0}, {"lat": 38.941719666666664, "is_disabled": 0, "type": "electric_scooter", "lon": -77.03285233333334, "bike_id": "bd8a6bf88ad119fad271786321001690", "fusion_lat": 0.0, "name": "bd8a6bf88ad119fad271786321001690", "is_reserved": 0, "rental_uris": {"android": "https://dc.lft.to/lastmile_qr_scan", "ios": "https://dc.lft.to/lastmile_qr_scan"}, "fusion_lon": 0.0}, {"lat": 38.941521333333334, "is_disabled": 0, "type": "electric_scooter", "lon": -77.0328325, "bike_id": "74c2fe85fb3b3389dcc93d716b5c9855", "fusion_lat": 0.0, "name": "74c2fe85fb3b3389dcc93d716b5c9855", "is_reserved": 0, "rental_uris": {"android": "https://dc.lft.to/lastmile_qr_scan", "ios": "https://dc.lft.to/lastmile_qr_scan"}, "fusion_lon": 0.0}, {"lat": 38.9506705, "is_disabled": 0, "type": "electric_scooter", "lon": -77.06654433333334, "bike_id": "f8f8ac3b69a78003541f372308fb53b3", "fusion_lat": 0.0, "name": "f8f8ac3b69a78003541f372308fb53b3", "is_reserved": 0, "rental_uris": {"android": "https://dc.lft.to/lastmile_qr_scan", "ios": "https://dc.lft.to/lastmile_qr_scan"}, "fusion_lon": 0.0}, {"lat": 38.87339766666667, "is_disabled": 0, "type": "electric_scooter", "lon": -76.99163266666666, "bike_id": "ca634d5fcaac03093d3ea37f82375849", "fusion_lat": 0.0, "name": "ca634d5fcaac03093d3ea37f82375849", "is_reserved": 0, "rental_uris": {"android": "https://dc.lft.to/lastmile_qr_scan", "ios": "https://dc.lft.to/lastmile_qr_scan"}, "fusion_lon": 0.0}, {"lat": 38.87629883333334, "is_disabled": 0, "type": "electric_scooter", "lon": -76.96526533333333, "bike_id": "bb06ae7f258136b9f08b58a994d4983b", "fusion_lat": 0.0, "name": "bb06ae7f258136b9f08b58a994d4983b", "is_reserved": 0, "rental_uris": {"android": "https://dc.lft.to/lastmile_qr_scan", "ios": "https://dc.lft.to/lastmile_qr_scan"}, "fusion_lon": 0.0}, {"lat": 38.842947833333334, "is_disabled": 0, "type": "electric_scooter", "lon": -76.9994695, "bike_id": "367eb6d1fbe484e0ce439c76c510c921", "fusion_lat": 0.0, "name": "367eb6d1fbe484e0ce439c76c510c921", "is_reserved": 0, "rental_uris": {"android": "https://dc.lft.to/lastmile_qr_scan", "ios": "https://dc.lft.to/lastmile_qr_scan"}, "fusion_lon": 0.0}, {"lat": 38.90060183333333, "is_disabled": 0, "type": "electric_scooter", "lon": -77.04402066666667, "bike_id": "e91a4945b7e6d25c1fa20aef915a16dd", "fusion_lat": 0.0, "name": "e91a4945b7e6d25c1fa20aef915a16dd", "is_reserved": 0, "rental_uris": {"android": "https://dc.lft.to/lastmile_qr_scan", "ios": "https://dc.lft.to/lastmile_qr_scan"}, "fusion_lon": 0.0}, {"lat": 38.93027516666667, "is_disabled": 0, "type": "electric_scooter", "lon": -77.023546, "bike_id": "b1a8210ed91d6b3485ab21e2fb0b411a", "fusion_lat": 0.0, "name": "b1a8210ed91d6b3485ab21e2fb0b411a", "is_reserved": 0, "rental_uris": {"android": "https://dc.lft.to/lastmile_qr_scan", "ios": "https://dc.lft.to/lastmile_qr_scan"}, "fusion_lon": 0.0}, {"lat": 38.90019183333333, "is_disabled": 0, "type": "electric_scooter", "lon": -76.98811866666667, "bike_id": "6cb708801ce7d64eaf70bdb291092993", "fusion_lat": 0.0, "name": "6cb708801ce7d64eaf70bdb291092993", "is_reserved": 0, "rental_uris": {"android": "https://dc.lft.to/lastmile_qr_scan", "ios": "https://dc.lft.to/lastmile_qr_scan"}, "fusion_lon": 0.0}, {"lat": 38.902721666666665, "is_disabled": 0, "type": "electric_scooter", "lon": -77.03437283333334, "bike_id": "e27d900c91ebef65b6d7f352cb50c13f", "fusion_lat": 0.0, "name": "e27d900c91ebef65b6d7f352cb50c13f", "is_reserved": 0, "rental_uris": {"android": "https://dc.lft.to/lastmile_qr_scan", "ios": "https://dc.lft.to/lastmile_qr_scan"}, "fusion_lon": 0.0}, {"lat": 38.907309166666664, "is_disabled": 0, "type": "electric_scooter", "lon": -77.0478245, "bike_id": "48a1d56bcc6db01d3735327b821e0fe5", "fusion_lat": 0.0, "name": "48a1d56bcc6db01d3735327b821e0fe5", "is_reserved": 0, "rental_uris": {"android": "https://dc.lft.to/lastmile_qr_scan", "ios": "https://dc.lft.to/lastmile_qr_scan"}, "fusion_lon": 0.0}, {"lat": 38.91014466666667, "is_disabled": 0, "type": "electric_scooter", "lon": -77.0889825, "bike_id": "f1c3cbc8337bca1c0f1bc85b683dc9d8", "fusion_lat": 0.0, "name": "f1c3cbc8337bca1c0f1bc85b683dc9d8", "is_reserved": 0, "rental_uris": {"android": "https://dc.lft.to/lastmile_qr_scan", "ios": "https://dc.lft.to/lastmile_qr_scan"}, "fusion_lon": 0.0}, {"lat": 38.95098133333333, "is_disabled": 0, "type": "electric_scooter", "lon": -77.02338666666667, "bike_id": "ebd610c3b666d62e2a0ee17c0ca008b0", "fusion_lat": 0.0, "name": "ebd610c3b666d62e2a0ee17c0ca008b0", "is_reserved": 0, "rental_uris": {"android": "https://dc.lft.to/lastmile_qr_scan", "ios": "https://dc.lft.to/lastmile_qr_scan"}, "fusion_lon": 0.0}, {"lat": 38.92169483333333, "is_disabled": 0, "type": "electric_scooter", "lon": -77.03387183333334, "bike_id": "48c47015f252116f4d761ccfb7b62608", "fusion_lat": 0.0, "name": "48c47015f252116f4d761ccfb7b62608", "is_reserved": 0, "rental_uris": {"android": "https://dc.lft.to/lastmile_qr_scan", "ios": "https://dc.lft.to/lastmile_qr_scan"}, "fusion_lon": 0.0}, {"lat": 38.91789133333333, "is_disabled": 0, "type": "electric_bike", "lon": -76.97184116666666, "bike_id": "be812559207a54623550fa7d9baaf8bf", "fusion_lat": 0.0, "name": "be812559207a54623550fa7d9baaf8bf", "is_reserved": 0, "rental_uris": {"android": "https://dc.lft.to/lastmile_qr_scan", "ios": "https://dc.lft.to/lastmile_qr_scan"}, "fusion_lon": 0.0}, {"lat": 38.901016166666665, "is_disabled": 0, "type": "electric_scooter", "lon": -77.0031535, "bike_id": "2c04931a777d05c315b95e9a450fb22c", "fusion_lat": 0.0, "name": "2c04931a777d05c315b95e9a450fb22c", "is_reserved": 0, "rental_uris": {"android": "https://dc.lft.to/lastmile_qr_scan", "ios": "https://dc.lft.to/lastmile_qr_scan"}, "fusion_lon": 0.0}, {"lat": 38.92336016666667, "is_disabled": 0, "type": "electric_bike", "lon": -77.02293016666667, "bike_id": "c7dec9c4ae419ef2b5ae7165c2bab2aa", "fusion_lat": 0.0, "name": "c7dec9c4ae419ef2b5ae7165c2bab2aa", "is_reserved": 0, "rental_uris": {"android": "https://dc.lft.to/lastmile_qr_scan", "ios": "https://dc.lft.to/lastmile_qr_scan"}, "fusion_lon": 0.0}, {"lat": 38.907187, "is_disabled": 0, "type": "electric_scooter", "lon": -76.99822766666666, "bike_id": "10c4625e110025077c18bbb7524bf943", "fusion_lat": 0.0, "name": "10c4625e110025077c18bbb7524bf943", "is_reserved": 0, "rental_uris": {"android": "https://dc.lft.to/lastmile_qr_scan", "ios": "https://dc.lft.to/lastmile_qr_scan"}, "fusion_lon": 0.0}, {"lat": 38.8616875, "is_disabled": 0, "type": "electric_bike", "lon": -77.1314455, "bike_id": "9cead51f8dc839f8440e9122923742d0", "fusion_lat": 0.0, "name": "9cead51f8dc839f8440e9122923742d0", "is_reserved": 0, "rental_uris": {"android": "https://dc.lft.to/lastmile_qr_scan", "ios": "https://dc.lft.to/lastmile_qr_scan"}, "fusion_lon": 0.0}, {"lat": 38.872339, "is_disabled": 0, "type": "electric_bike", "lon": -77.0118075, "bike_id": "b2eb9348e3ac86234a51f39189dfbfc9", "fusion_lat": 0.0, "name": "b2eb9348e3ac86234a51f39189dfbfc9", "is_reserved": 0, "rental_uris": {"android": "https://dc.lft.to/lastmile_qr_scan", "ios": "https://dc.lft.to/lastmile_qr_scan"}, "fusion_lon": 0.0}, {"lat": 38.91799833333334, "is_disabled": 0, "type": "electric_scooter", "lon": -77.04435566666666, "bike_id": "13dea659b89b49f32f56704d2f59c371", "fusion_lat": 0.0, "name": "13dea659b89b49f32f56704d2f59c371", "is_reserved": 0, "rental_uris": {"android": "https://dc.lft.to/lastmile_qr_scan", "ios": "https://dc.lft.to/lastmile_qr_scan"}, "fusion_lon": 0.0}, {"lat": 38.91805933333333, "is_disabled": 0, "type": "electric_scooter", "lon": -77.03206783333333, "bike_id": "659814d825b18446320d549672b235d0", "fusion_lat": 0.0, "name": "659814d825b18446320d549672b235d0", "is_reserved": 0, "rental_uris": {"android": "https://dc.lft.to/lastmile_qr_scan", "ios": "https://dc.lft.to/lastmile_qr_scan"}, "fusion_lon": 0.0}, {"lat": 38.89007, "is_disabled": 0, "type": "electric_scooter", "lon": -77.04887833333333, "bike_id": "0a3b4cd474618fdc1979efd61564b985", "fusion_lat": 0.0, "name": "0a3b4cd474618fdc1979efd61564b985", "is_reserved": 0, "rental_uris": {"android": "https://dc.lft.to/lastmile_qr_scan", "ios": "https://dc.lft.to/lastmile_qr_scan"}, "fusion_lon": 0.0}, {"lat": 38.92114483333334, "is_disabled": 0, "type": "electric_bike", "lon": -76.98576233333333, "bike_id": "6eb954ddfd0fb107bb25a7682485a08c", "fusion_lat": 0.0, "name": "6eb954ddfd0fb107bb25a7682485a08c", "is_reserved": 0, "rental_uris": {"android": "https://dc.lft.to/lastmile_qr_scan", "ios": "https://dc.lft.to/lastmile_qr_scan"}, "fusion_lon": 0.0}, {"lat": 38.85854466666667, "is_disabled": 0, "type": "electric_bike", "lon": -77.0975275, "bike_id": "24ca31cbea6eca8995c469d270c5e788", "fusion_lat": 0.0, "name": "24ca31cbea6eca8995c469d270c5e788", "is_reserved": 0, "rental_uris": {"android": "https://dc.lft.to/lastmile_qr_scan", "ios": "https://dc.lft.to/lastmile_qr_scan"}, "fusion_lon": 0.0}, {"lat": 38.958758833333334, "is_disabled": 0, "type": "electric_bike", "lon": -76.92480316666666, "bike_id": "f2af6724425b576f5dd22707116aea93", "fusion_lat": 0.0, "name": "f2af6724425b576f5dd22707116aea93", "is_reserved": 0, "rental_uris": {"android": "https://dc.lft.to/lastmile_qr_scan", "ios": "https://dc.lft.to/lastmile_qr_scan"}, "fusion_lon": 0.0}, {"lat": 38.94043283333333, "is_disabled": 0, "type": "electric_bike", "lon": -77.05162233333333, "bike_id": "27970eee67771f3fc8a18eaafb288967", "fusion_lat": 0.0, "name": "27970eee67771f3fc8a18eaafb288967", "is_reserved": 0, "rental_uris": {"android": "https://dc.lft.to/lastmile_qr_scan", "ios": "https://dc.lft.to/lastmile_qr_scan"}, "fusion_lon": 0.0}, {"lat": 38.929229166666666, "is_disabled": 0, "type": "electric_scooter", "lon": -77.031891, "bike_id": "179b9ce1776f86722c844fb8d7fdc8c7", "fusion_lat": 0.0, "name": "179b9ce1776f86722c844fb8d7fdc8c7", "is_reserved": 0, "rental_uris": {"android": "https://dc.lft.to/lastmile_qr_scan", "ios": "https://dc.lft.to/lastmile_qr_scan"}, "fusion_lon": 0.0}, {"lat": 38.92068183333333, "is_disabled": 0, "type": "electric_scooter", "lon": -77.024976, "bike_id": "ae46aa4d3737f797315518a56b3a5c48", "fusion_lat": 0.0, "name": "ae46aa4d3737f797315518a56b3a5c48", "is_reserved": 0, "rental_uris": {"android": "https://dc.lft.to/lastmile_qr_scan", "ios": "https://dc.lft.to/lastmile_qr_scan"}, "fusion_lon": 0.0}, {"lat": 38.890429833333336, "is_disabled": 0, "type": "electric_scooter", "lon": -76.9407995, "bike_id": "417101fafe59d28996d2573e1418737f", "fusion_lat": 0.0, "name": "417101fafe59d28996d2573e1418737f", "is_reserved": 0, "rental_uris": {"android": "https://dc.lft.to/lastmile_qr_scan", "ios": "https://dc.lft.to/lastmile_qr_scan"}, "fusion_lon": 0.0}, {"lat": 38.90163616666667, "is_disabled": 0, "type": "electric_scooter", "lon": -77.0258545, "bike_id": "ae2f8e45f520d82afd0e41865ad3b807", "fusion_lat": 0.0, "name": "ae2f8e45f520d82afd0e41865ad3b807", "is_reserved": 0, "rental_uris": {"android": "https://dc.lft.to/lastmile_qr_scan", "ios": "https://dc.lft.to/lastmile_qr_scan"}, "fusion_lon": 0.0}, {"lat": 38.91771833333333, "is_disabled": 0, "type": "electric_scooter", "lon": -77.0410195, "bike_id": "e62e7fa273774546adf5cd09a4e144fb", "fusion_lat": 0.0, "name": "e62e7fa273774546adf5cd09a4e144fb", "is_reserved": 0, "rental_uris": {"android": "https://dc.lft.to/lastmile_qr_scan", "ios": "https://dc.lft.to/lastmile_qr_scan"}, "fusion_lon": 0.0}, {"lat": 38.909764, "is_disabled": 0, "type": "electric_scooter", "lon": -77.03947283333333, "bike_id": "3fc48a322cfe2c389e42719df45db854", "fusion_lat": 0.0, "name": "3fc48a322cfe2c389e42719df45db854", "is_reserved": 0, "rental_uris": {"android": "https://dc.lft.to/lastmile_qr_scan", "ios": "https://dc.lft.to/lastmile_qr_scan"}, "fusion_lon": 0.0}, {"lat": 38.8747655, "is_disabled": 0, "type": "electric_scooter", "lon": -77.010717, "bike_id": "7c9c3453b429f282b0fa400d654845fa", "fusion_lat": 0.0, "name": "7c9c3453b429f282b0fa400d654845fa", "is_reserved": 0, "rental_uris": {"android": "https://dc.lft.to/lastmile_qr_scan", "ios": "https://dc.lft.to/lastmile_qr_scan"}, "fusion_lon": 0.0}, {"lat": 38.915633166666666, "is_disabled": 0, "type": "electric_scooter", "lon": -77.0331595, "bike_id": "dc33c9fa657e65a49fa906b8fef80f4c", "fusion_lat": 0.0, "name": "dc33c9fa657e65a49fa906b8fef80f4c", "is_reserved": 0, "rental_uris": {"android": "https://dc.lft.to/lastmile_qr_scan", "ios": "https://dc.lft.to/lastmile_qr_scan"}, "fusion_lon": 0.0}, {"lat": 38.9064345, "is_disabled": 0, "type": "electric_scooter", "lon": -76.99025716666667, "bike_id": "e08bb0a54f47471efb32cf1bb3fb3a43", "fusion_lat": 0.0, "name": "e08bb0a54f47471efb32cf1bb3fb3a43", "is_reserved": 0, "rental_uris": {"android": "https://dc.lft.to/lastmile_qr_scan", "ios": "https://dc.lft.to/lastmile_qr_scan"}, "fusion_lon": 0.0}, {"lat": 38.8772995, "is_disabled": 0, "type": "electric_bike", "lon": -76.98105283333334, "bike_id": "ab7a3b140e79cebdde0bc9797b56432e", "fusion_lat": 0.0, "name": "ab7a3b140e79cebdde0bc9797b56432e", "is_reserved": 0, "rental_uris": {"android": "https://dc.lft.to/lastmile_qr_scan", "ios": "https://dc.lft.to/lastmile_qr_scan"}, "fusion_lon": 0.0}, {"lat": 38.88163516666667, "is_disabled": 0, "type": "electric_scooter", "lon": -76.994835, "bike_id": "71ab988048d908e12da4835787fc2834", "fusion_lat": 0.0, "name": "71ab988048d908e12da4835787fc2834", "is_reserved": 0, "rental_uris": {"android": "https://dc.lft.to/lastmile_qr_scan", "ios": "https://dc.lft.to/lastmile_qr_scan"}, "fusion_lon": 0.0}, {"lat": 38.910532333333336, "is_disabled": 0, "type": "electric_scooter", "lon": -77.01522983333334, "bike_id": "9f37b295c9f4d25eef9e31669f7039ac", "fusion_lat": 0.0, "name": "9f37b295c9f4d25eef9e31669f7039ac", "is_reserved": 0, "rental_uris": {"android": "https://dc.lft.to/lastmile_qr_scan", "ios": "https://dc.lft.to/lastmile_qr_scan"}, "fusion_lon": 0.0}, {"lat": 38.920717833333335, "is_disabled": 0, "type": "electric_scooter", "lon": -77.048039, "bike_id": "dbed18abef52cc0055cb7e0e55aac658", "fusion_lat": 0.0, "name": "dbed18abef52cc0055cb7e0e55aac658", "is_reserved": 0, "rental_uris": {"android": "https://dc.lft.to/lastmile_qr_scan", "ios": "https://dc.lft.to/lastmile_qr_scan"}, "fusion_lon": 0.0}, {"lat": 38.9001515, "is_disabled": 0, "type": "electric_scooter", "lon": -77.0120285, "bike_id": "7ac4542b6712e1e4f811684a607eca30", "fusion_lat": 0.0, "name": "7ac4542b6712e1e4f811684a607eca30", "is_reserved": 0, "rental_uris": {"android": "https://dc.lft.to/lastmile_qr_scan", "ios": "https://dc.lft.to/lastmile_qr_scan"}, "fusion_lon": 0.0}, {"lat": 38.92631866666667, "is_disabled": 0, "type": "electric_scooter", "lon": -77.03796966666667, "bike_id": "3da4a538508ebe32441fef15e4168d5c", "fusion_lat": 0.0, "name": "3da4a538508ebe32441fef15e4168d5c", "is_reserved": 0, "rental_uris": {"android": "https://dc.lft.to/lastmile_qr_scan", "ios": "https://dc.lft.to/lastmile_qr_scan"}, "fusion_lon": 0.0}, {"lat": 38.905291, "is_disabled": 0, "type": "electric_scooter", "lon": -77.05027233333334, "bike_id": "693053a77bcc7f74c606d3e1becfbd12", "fusion_lat": 0.0, "name": "693053a77bcc7f74c606d3e1becfbd12", "is_reserved": 0, "rental_uris": {"android": "https://dc.lft.to/lastmile_qr_scan", "ios": "https://dc.lft.to/lastmile_qr_scan"}, "fusion_lon": 0.0}, {"lat": 38.8987625, "is_disabled": 0, "type": "electric_scooter", "lon": -77.02934683333334, "bike_id": "b98bcab1c15bc2163533c1df865b2c54", "fusion_lat": 0.0, "name": "b98bcab1c15bc2163533c1df865b2c54", "is_reserved": 0, "rental_uris": {"android": "https://dc.lft.to/lastmile_qr_scan", "ios": "https://dc.lft.to/lastmile_qr_scan"}, "fusion_lon": 0.0}, {"lat": 38.882857666666666, "is_disabled": 0, "type": "electric_bike", "lon": -76.9323905, "bike_id": "558969b04f1663ab107fe1e00886f733", "fusion_lat": 0.0, "name": "558969b04f1663ab107fe1e00886f733", "is_reserved": 0, "rental_uris": {"android": "https://dc.lft.to/lastmile_qr_scan", "ios": "https://dc.lft.to/lastmile_qr_scan"}, "fusion_lon": 0.0}, {"lat": 38.90336333333333, "is_disabled": 0, "type": "electric_scooter", "lon": -76.9705675, "bike_id": "21de0b3b98b9b135d4090a3ab7e219ba", "fusion_lat": 0.0, "name": "21de0b3b98b9b135d4090a3ab7e219ba", "is_reserved": 0, "rental_uris": {"android": "https://dc.lft.to/lastmile_qr_scan", "ios": "https://dc.lft.to/lastmile_qr_scan"}, "fusion_lon": 0.0}, {"lat": 38.912048666666664, "is_disabled": 0, "type": "electric_scooter", "lon": -77.0449745, "bike_id": "2ffce90275f7c575d64773e82c982bc0", "fusion_lat": 0.0, "name": "2ffce90275f7c575d64773e82c982bc0", "is_reserved": 0, "rental_uris": {"android": "https://dc.lft.to/lastmile_qr_scan", "ios": "https://dc.lft.to/lastmile_qr_scan"}, "fusion_lon": 0.0}, {"lat": 38.95736683333333, "is_disabled": 0, "type": "electric_scooter", "lon": -77.02380783333334, "bike_id": "107b9c2eb16d75bf23a239ff4e09c37c", "fusion_lat": 0.0, "name": "107b9c2eb16d75bf23a239ff4e09c37c", "is_reserved": 0, "rental_uris": {"android": "https://dc.lft.to/lastmile_qr_scan", "ios": "https://dc.lft.to/lastmile_qr_scan"}, "fusion_lon": 0.0}, {"lat": 38.903961333333335, "is_disabled": 0, "type": "electric_scooter", "lon": -77.03327166666666, "bike_id": "ecfefc46abe90c57a92eba510a7d1781", "fusion_lat": 0.0, "name": "ecfefc46abe90c57a92eba510a7d1781", "is_reserved": 0, "rental_uris": {"android": "https://dc.lft.to/lastmile_qr_scan", "ios": "https://dc.lft.to/lastmile_qr_scan"}, "fusion_lon": 0.0}, {"lat": 38.88767133333333, "is_disabled": 0, "type": "electric_scooter", "lon": -76.98352733333333, "bike_id": "c8c84cce749f4aba8a8d6a11b544b373", "fusion_lat": 0.0, "name": "c8c84cce749f4aba8a8d6a11b544b373", "is_reserved": 0, "rental_uris": {"android": "https://dc.lft.to/lastmile_qr_scan", "ios": "https://dc.lft.to/lastmile_qr_scan"}, "fusion_lon": 0.0}, {"lat": 38.935719166666665, "is_disabled": 0, "type": "electric_scooter", "lon": -77.0373055, "bike_id": "18f206a3075e1488da5400d5830e317f", "fusion_lat": 0.0, "name": "18f206a3075e1488da5400d5830e317f", "is_reserved": 0, "rental_uris": {"android": "https://dc.lft.to/lastmile_qr_scan", "ios": "https://dc.lft.to/lastmile_qr_scan"}, "fusion_lon": 0.0}, {"lat": 38.90078716666667, "is_disabled": 0, "type": "electric_scooter", "lon": -77.05056616666667, "bike_id": "c09a25384554d791e2e1714bd979925a", "fusion_lat": 0.0, "name": "c09a25384554d791e2e1714bd979925a", "is_reserved": 0, "rental_uris": {"android": "https://dc.lft.to/lastmile_qr_scan", "ios": "https://dc.lft.to/lastmile_qr_scan"}, "fusion_lon": 0.0}, {"lat": 38.95075966666667, "is_disabled": 0, "type": "electric_bike", "lon": -77.01198083333334, "bike_id": "581926ffc628b286cefa497e6458fcaa", "fusion_lat": 0.0, "name": "581926ffc628b286cefa497e6458fcaa", "is_reserved": 0, "rental_uris": {"android": "https://dc.lft.to/lastmile_qr_scan", "ios": "https://dc.lft.to/lastmile_qr_scan"}, "fusion_lon": 0.0}, {"lat": 38.866182333333334, "is_disabled": 0, "type": "electric_scooter", "lon": -76.98661183333333, "bike_id": "a6c10cecc77455703a9b99ef6d5fefb4", "fusion_lat": 0.0, "name": "a6c10cecc77455703a9b99ef6d5fefb4", "is_reserved": 0, "rental_uris": {"android": "https://dc.lft.to/lastmile_qr_scan", "ios": "https://dc.lft.to/lastmile_qr_scan"}, "fusion_lon": 0.0}, {"lat": 38.86227083333333, "is_disabled": 0, "type": "electric_scooter", "lon": -76.983632, "bike_id": "7c0264dce0b46830be9e652fccbc05ab", "fusion_lat": 0.0, "name": "7c0264dce0b46830be9e652fccbc05ab", "is_reserved": 0, "rental_uris": {"android": "https://dc.lft.to/lastmile_qr_scan", "ios": "https://dc.lft.to/lastmile_qr_scan"}, "fusion_lon": 0.0}, {"lat": 38.915602, "is_disabled": 0, "type": "electric_scooter", "lon": -77.0097795, "bike_id": "2d9e8fff232bb33fa52a2fc1ee1df70c", "fusion_lat": 0.0, "name": "2d9e8fff232bb33fa52a2fc1ee1df70c", "is_reserved": 0, "rental_uris": {"android": "https://dc.lft.to/lastmile_qr_scan", "ios": "https://dc.lft.to/lastmile_qr_scan"}, "fusion_lon": 0.0}, {"lat": 38.914252166666664, "is_disabled": 0, "type": "electric_scooter", "lon": -77.032112, "bike_id": "cd7ff425389e1cf1f8aa65b0b4de5ed9", "fusion_lat": 0.0, "name": "cd7ff425389e1cf1f8aa65b0b4de5ed9", "is_reserved": 0, "rental_uris": {"android": "https://dc.lft.to/lastmile_qr_scan", "ios": "https://dc.lft.to/lastmile_qr_scan"}, "fusion_lon": 0.0}, {"lat": 38.914969, "is_disabled": 0, "type": "electric_scooter", "lon": -76.98372633333334, "bike_id": "404d0208cde6ccb00c1325cc8a9df998", "fusion_lat": 0.0, "name": "404d0208cde6ccb00c1325cc8a9df998", "is_reserved": 0, "rental_uris": {"android": "https://dc.lft.to/lastmile_qr_scan", "ios": "https://dc.lft.to/lastmile_qr_scan"}, "fusion_lon": 0.0}, {"lat": 38.915569, "is_disabled": 0, "type": "electric_scooter", "lon": -77.0103235, "bike_id": "c0cc5597f8602431e8b69a9f2724380f", "fusion_lat": 0.0, "name": "c0cc5597f8602431e8b69a9f2724380f", "is_reserved": 0, "rental_uris": {"android": "https://dc.lft.to/lastmile_qr_scan", "ios": "https://dc.lft.to/lastmile_qr_scan"}, "fusion_lon": 0.0}, {"lat": 38.908822666666666, "is_disabled": 0, "type": "electric_scooter", "lon": -77.036624, "bike_id": "61fa156a805ee4f46e13f806dbe0930b", "fusion_lat": 0.0, "name": "61fa156a805ee4f46e13f806dbe0930b", "is_reserved": 0, "rental_uris": {"android": "https://dc.lft.to/lastmile_qr_scan", "ios": "https://dc.lft.to/lastmile_qr_scan"}, "fusion_lon": 0.0}, {"lat": 38.898465333333334, "is_disabled": 0, "type": "electric_scooter", "lon": -77.04022183333333, "bike_id": "5d1b37eb6b27a9c5ff4fabd65a17f257", "fusion_lat": 0.0, "name": "5d1b37eb6b27a9c5ff4fabd65a17f257", "is_reserved": 0, "rental_uris": {"android": "https://dc.lft.to/lastmile_qr_scan", "ios": "https://dc.lft.to/lastmile_qr_scan"}, "fusion_lon": 0.0}, {"lat": 38.9609585, "is_disabled": 0, "type": "electric_scooter", "lon": -77.082861, "bike_id": "c5d076b7ecc4db34c6c94c355f10e427", "fusion_lat": 0.0, "name": "c5d076b7ecc4db34c6c94c355f10e427", "is_reserved": 0, "rental_uris": {"android": "https://dc.lft.to/lastmile_qr_scan", "ios": "https://dc.lft.to/lastmile_qr_scan"}, "fusion_lon": 0.0}, {"lat": 38.911935666666665, "is_disabled": 0, "type": "electric_scooter", "lon": -77.03157583333333, "bike_id": "cf20cbe03403a06af6a80cc13293a677", "fusion_lat": 0.0, "name": "cf20cbe03403a06af6a80cc13293a677", "is_reserved": 0, "rental_uris": {"android": "https://dc.lft.to/lastmile_qr_scan", "ios": "https://dc.lft.to/lastmile_qr_scan"}, "fusion_lon": 0.0}, {"lat": 38.916952, "is_disabled": 0, "type": "electric_scooter", "lon": -77.034807, "bike_id": "6de05472ab3c73e11d766a9b04074cc1", "fusion_lat": 0.0, "name": "6de05472ab3c73e11d766a9b04074cc1", "is_reserved": 0, "rental_uris": {"android": "https://dc.lft.to/lastmile_qr_scan", "ios": "https://dc.lft.to/lastmile_qr_scan"}, "fusion_lon": 0.0}, {"lat": 38.900081166666666, "is_disabled": 0, "type": "electric_scooter", "lon": -76.99853216666666, "bike_id": "8c9cd452d74ed6725f3d3b0fb1f449b1", "fusion_lat": 0.0, "name": "8c9cd452d74ed6725f3d3b0fb1f449b1", "is_reserved": 0, "rental_uris": {"android": "https://dc.lft.to/lastmile_qr_scan", "ios": "https://dc.lft.to/lastmile_qr_scan"}, "fusion_lon": 0.0}, {"lat": 38.904367, "is_disabled": 0, "type": "electric_scooter", "lon": -77.03268283333334, "bike_id": "b885a47e91f382253c76b695d84ab518", "fusion_lat": 0.0, "name": "b885a47e91f382253c76b695d84ab518", "is_reserved": 0, "rental_uris": {"android": "https://dc.lft.to/lastmile_qr_scan", "ios": "https://dc.lft.to/lastmile_qr_scan"}, "fusion_lon": 0.0}, {"lat": 39.01595566666666, "is_disabled": 0, "type": "electric_bike", "lon": -77.04427866666667, "bike_id": "9512d2cdb4496f86c0ff78d8411420e6", "fusion_lat": 0.0, "name": "9512d2cdb4496f86c0ff78d8411420e6", "is_reserved": 0, "rental_uris": {"android": "https://dc.lft.to/lastmile_qr_scan", "ios": "https://dc.lft.to/lastmile_qr_scan"}, "fusion_lon": 0.0}, {"lat": 38.891237333333336, "is_disabled": 0, "type": "electric_scooter", "lon": -76.94091983333334, "bike_id": "69aa5dd602fef7225799e90b5085ce98", "fusion_lat": 0.0, "name": "69aa5dd602fef7225799e90b5085ce98", "is_reserved": 0, "rental_uris": {"android": "https://dc.lft.to/lastmile_qr_scan", "ios": "https://dc.lft.to/lastmile_qr_scan"}, "fusion_lon": 0.0}, {"lat": 38.93554, "is_disabled": 0, "type": "electric_scooter", "lon": -77.05870233333333, "bike_id": "9ba6e1559c304a1de3fa145bb7f00328", "fusion_lat": 0.0, "name": "9ba6e1559c304a1de3fa145bb7f00328", "is_reserved": 0, "rental_uris": {"android": "https://dc.lft.to/lastmile_qr_scan", "ios": "https://dc.lft.to/lastmile_qr_scan"}, "fusion_lon": 0.0}, {"lat": 38.92367316666667, "is_disabled": 0, "type": "electric_scooter", "lon": -77.040323, "bike_id": "79c0c3422a2b7e4ea4485b2dd3e04151", "fusion_lat": 0.0, "name": "79c0c3422a2b7e4ea4485b2dd3e04151", "is_reserved": 0, "rental_uris": {"android": "https://dc.lft.to/lastmile_qr_scan", "ios": "https://dc.lft.to/lastmile_qr_scan"}, "fusion_lon": 0.0}, {"lat": 38.84934066666667, "is_disabled": 0, "type": "electric_bike", "lon": -77.10017183333333, "bike_id": "4578d26abfc4350c9135a346c653b469", "fusion_lat": 0.0, "name": "4578d26abfc4350c9135a346c653b469", "is_reserved": 0, "rental_uris": {"android": "https://dc.lft.to/lastmile_qr_scan", "ios": "https://dc.lft.to/lastmile_qr_scan"}, "fusion_lon": 0.0}, {"lat": 38.884901666666664, "is_disabled": 0, "type": "electric_scooter", "lon": -77.00708866666666, "bike_id": "bff555cb9f7bebb974e6c6f49358f559", "fusion_lat": 0.0, "name": "bff555cb9f7bebb974e6c6f49358f559", "is_reserved": 0, "rental_uris": {"android": "https://dc.lft.to/lastmile_qr_scan", "ios": "https://dc.lft.to/lastmile_qr_scan"}, "fusion_lon": 0.0}, {"lat": 38.911963666666665, "is_disabled": 0, "type": "electric_scooter", "lon": -77.0019265, "bike_id": "5c7224ec95cd713aeb511c00187333f0", "fusion_lat": 0.0, "name": "5c7224ec95cd713aeb511c00187333f0", "is_reserved": 0, "rental_uris": {"android": "https://dc.lft.to/lastmile_qr_scan", "ios": "https://dc.lft.to/lastmile_qr_scan"}, "fusion_lon": 0.0}, {"lat": 38.921381833333335, "is_disabled": 0, "type": "electric_scooter", "lon": -77.01039683333333, "bike_id": "58cc199b898a6d8c4d553f7a1b334dff", "fusion_lat": 0.0, "name": "58cc199b898a6d8c4d553f7a1b334dff", "is_reserved": 0, "rental_uris": {"android": "https://dc.lft.to/lastmile_qr_scan", "ios": "https://dc.lft.to/lastmile_qr_scan"}, "fusion_lon": 0.0}, {"lat": 38.8662375, "is_disabled": 0, "type": "electric_scooter", "lon": -76.98699066666667, "bike_id": "19095655c91b94785716e84b9b1b4793", "fusion_lat": 0.0, "name": "19095655c91b94785716e84b9b1b4793", "is_reserved": 0, "rental_uris": {"android": "https://dc.lft.to/lastmile_qr_scan", "ios": "https://dc.lft.to/lastmile_qr_scan"}, "fusion_lon": 0.0}, {"lat": 38.887669, "is_disabled": 0, "type": "electric_scooter", "lon": -76.9559695, "bike_id": "885415548bff0f8ebffd7bade5f64b0a", "fusion_lat": 0.0, "name": "885415548bff0f8ebffd7bade5f64b0a", "is_reserved": 0, "rental_uris": {"android": "https://dc.lft.to/lastmile_qr_scan", "ios": "https://dc.lft.to/lastmile_qr_scan"}, "fusion_lon": 0.0}, {"lat": 38.8428185, "is_disabled": 0, "type": "electric_bike", "lon": -76.98839916666667, "bike_id": "140b35430277bec33e4e860b3f6bad45", "fusion_lat": 0.0, "name": "140b35430277bec33e4e860b3f6bad45", "is_reserved": 0, "rental_uris": {"android": "https://dc.lft.to/lastmile_qr_scan", "ios": "https://dc.lft.to/lastmile_qr_scan"}, "fusion_lon": 0.0}, {"lat": 38.84295633333333, "is_disabled": 0, "type": "electric_scooter", "lon": -76.99949733333334, "bike_id": "2a52d8b0fe5414d60505885d3f94f3b4", "fusion_lat": 0.0, "name": "2a52d8b0fe5414d60505885d3f94f3b4", "is_reserved": 0, "rental_uris": {"android": "https://dc.lft.to/lastmile_qr_scan", "ios": "https://dc.lft.to/lastmile_qr_scan"}, "fusion_lon": 0.0}, {"lat": 38.902388333333334, "is_disabled": 0, "type": "electric_scooter", "lon": -77.00201916666667, "bike_id": "a0bfe0f57225aa3f788b88e849faa2cb", "fusion_lat": 0.0, "name": "a0bfe0f57225aa3f788b88e849faa2cb", "is_reserved": 0, "rental_uris": {"android": "https://dc.lft.to/lastmile_qr_scan", "ios": "https://dc.lft.to/lastmile_qr_scan"}, "fusion_lon": 0.0}, {"lat": 38.90655016666667, "is_disabled": 0, "type": "electric_scooter", "lon": -77.0420025, "bike_id": "329483060e6ebb85b7ee66d8fac60d3a", "fusion_lat": 0.0, "name": "329483060e6ebb85b7ee66d8fac60d3a", "is_reserved": 0, "rental_uris": {"android": "https://dc.lft.to/lastmile_qr_scan", "ios": "https://dc.lft.to/lastmile_qr_scan"}, "fusion_lon": 0.0}, {"lat": 38.92279383333333, "is_disabled": 0, "type": "electric_scooter", "lon": -77.04242583333334, "bike_id": "45b518951d62c69a971ea3de4430043f", "fusion_lat": 0.0, "name": "45b518951d62c69a971ea3de4430043f", "is_reserved": 0, "rental_uris": {"android": "https://dc.lft.to/lastmile_qr_scan", "ios": "https://dc.lft.to/lastmile_qr_scan"}, "fusion_lon": 0.0}, {"lat": 38.999986666666665, "is_disabled": 0, "type": "electric_bike", "lon": -76.924933, "bike_id": "72cb6632277d60d83d9aa2c0ac014df3", "fusion_lat": 0.0, "name": "72cb6632277d60d83d9aa2c0ac014df3", "is_reserved": 0, "rental_uris": {"android": "https://dc.lft.to/lastmile_qr_scan", "ios": "https://dc.lft.to/lastmile_qr_scan"}, "fusion_lon": 0.0}, {"lat": 38.8908615, "is_disabled": 0, "type": "electric_scooter", "lon": -76.95265933333333, "bike_id": "f32892f73acd08735d4628d95cb25353", "fusion_lat": 0.0, "name": "f32892f73acd08735d4628d95cb25353", "is_reserved": 0, "rental_uris": {"android": "https://dc.lft.to/lastmile_qr_scan", "ios": "https://dc.lft.to/lastmile_qr_scan"}, "fusion_lon": 0.0}, {"lat": 38.89670733333333, "is_disabled": 0, "type": "electric_bike", "lon": -77.04484, "bike_id": "c90dfb1fb297fee3d660be22c7da6250", "fusion_lat": 0.0, "name": "c90dfb1fb297fee3d660be22c7da6250", "is_reserved": 0, "rental_uris": {"android": "https://dc.lft.to/lastmile_qr_scan", "ios": "https://dc.lft.to/lastmile_qr_scan"}, "fusion_lon": 0.0}, {"lat": 38.9521695, "is_disabled": 0, "type": "electric_scooter", "lon": -77.08602983333333, "bike_id": "c53fc51a4d52affb0d1774a4fe8b49e8", "fusion_lat": 0.0, "name": "c53fc51a4d52affb0d1774a4fe8b49e8", "is_reserved": 0, "rental_uris": {"android": "https://dc.lft.to/lastmile_qr_scan", "ios": "https://dc.lft.to/lastmile_qr_scan"}, "fusion_lon": 0.0}, {"lat": 38.92755, "is_disabled": 0, "type": "electric_scooter", "lon": -77.03270733333333, "bike_id": "bd7a0f0baae2653adf8f4616202da850", "fusion_lat": 0.0, "name": "bd7a0f0baae2653adf8f4616202da850", "is_reserved": 0, "rental_uris": {"android": "https://dc.lft.to/lastmile_qr_scan", "ios": "https://dc.lft.to/lastmile_qr_scan"}, "fusion_lon": 0.0}, {"lat": 38.918443833333335, "is_disabled": 0, "type": "electric_scooter", "lon": -77.035366, "bike_id": "d9cd07c542ec9561909776791db2329f", "fusion_lat": 0.0, "name": "d9cd07c542ec9561909776791db2329f", "is_reserved": 0, "rental_uris": {"android": "https://dc.lft.to/lastmile_qr_scan", "ios": "https://dc.lft.to/lastmile_qr_scan"}, "fusion_lon": 0.0}, {"lat": 38.90506833333333, "is_disabled": 0, "type": "electric_scooter", "lon": -77.06770283333333, "bike_id": "24d76b1ece66df6b2094790013cbdeb2", "fusion_lat": 0.0, "name": "24d76b1ece66df6b2094790013cbdeb2", "is_reserved": 0, "rental_uris": {"android": "https://dc.lft.to/lastmile_qr_scan", "ios": "https://dc.lft.to/lastmile_qr_scan"}, "fusion_lon": 0.0}, {"lat": 38.918871, "is_disabled": 0, "type": "electric_scooter", "lon": -77.0350515, "bike_id": "3decdd81ea2844c48df050f9d8d61748", "fusion_lat": 0.0, "name": "3decdd81ea2844c48df050f9d8d61748", "is_reserved": 0, "rental_uris": {"android": "https://dc.lft.to/lastmile_qr_scan", "ios": "https://dc.lft.to/lastmile_qr_scan"}, "fusion_lon": 0.0}, {"lat": 38.909747833333334, "is_disabled": 0, "type": "electric_scooter", "lon": -77.0338785, "bike_id": "5d42506c22bd6a500728b4cb19fa56fc", "fusion_lat": 0.0, "name": "5d42506c22bd6a500728b4cb19fa56fc", "is_reserved": 0, "rental_uris": {"android": "https://dc.lft.to/lastmile_qr_scan", "ios": "https://dc.lft.to/lastmile_qr_scan"}, "fusion_lon": 0.0}, {"lat": 38.904541, "is_disabled": 0, "type": "electric_scooter", "lon": -76.99464016666667, "bike_id": "1087bfd638113e8a341df6ac4fbf4310", "fusion_lat": 0.0, "name": "1087bfd638113e8a341df6ac4fbf4310", "is_reserved": 0, "rental_uris": {"android": "https://dc.lft.to/lastmile_qr_scan", "ios": "https://dc.lft.to/lastmile_qr_scan"}, "fusion_lon": 0.0}, {"lat": 38.88765133333333, "is_disabled": 0, "type": "electric_scooter", "lon": -76.95578233333333, "bike_id": "e61c32c74a030855a32bf846274aaebf", "fusion_lat": 0.0, "name": "e61c32c74a030855a32bf846274aaebf", "is_reserved": 0, "rental_uris": {"android": "https://dc.lft.to/lastmile_qr_scan", "ios": "https://dc.lft.to/lastmile_qr_scan"}, "fusion_lon": 0.0}, {"lat": 38.923356166666665, "is_disabled": 0, "type": "electric_scooter", "lon": -77.0434695, "bike_id": "6f031703d077fe407532f50cbc3c414c", "fusion_lat": 0.0, "name": "6f031703d077fe407532f50cbc3c414c", "is_reserved": 0, "rental_uris": {"android": "https://dc.lft.to/lastmile_qr_scan", "ios": "https://dc.lft.to/lastmile_qr_scan"}, "fusion_lon": 0.0}, {"lat": 38.877895, "is_disabled": 0, "type": "electric_bike", "lon": -77.02361816666667, "bike_id": "c564534bf04f61ffa830652814086611", "fusion_lat": 0.0, "name": "c564534bf04f61ffa830652814086611", "is_reserved": 0, "rental_uris": {"android": "https://dc.lft.to/lastmile_qr_scan", "ios": "https://dc.lft.to/lastmile_qr_scan"}, "fusion_lon": 0.0}, {"lat": 38.89746316666667, "is_disabled": 0, "type": "electric_scooter", "lon": -77.02684983333333, "bike_id": "f278b699207d9b85ed11496cbda36964", "fusion_lat": 0.0, "name": "f278b699207d9b85ed11496cbda36964", "is_reserved": 0, "rental_uris": {"android": "https://dc.lft.to/lastmile_qr_scan", "ios": "https://dc.lft.to/lastmile_qr_scan"}, "fusion_lon": 0.0}, {"lat": 38.9207995, "is_disabled": 0, "type": "electric_scooter", "lon": -77.024189, "bike_id": "2a992d4b056f361ccac7f59d45b772be", "fusion_lat": 0.0, "name": "2a992d4b056f361ccac7f59d45b772be", "is_reserved": 0, "rental_uris": {"android": "https://dc.lft.to/lastmile_qr_scan", "ios": "https://dc.lft.to/lastmile_qr_scan"}, "fusion_lon": 0.0}, {"lat": 38.9111695, "is_disabled": 0, "type": "electric_scooter", "lon": -77.02219183333334, "bike_id": "b8783eee45ea8db2fcdd2f2126ec2229", "fusion_lat": 0.0, "name": "b8783eee45ea8db2fcdd2f2126ec2229", "is_reserved": 0, "rental_uris": {"android": "https://dc.lft.to/lastmile_qr_scan", "ios": "https://dc.lft.to/lastmile_qr_scan"}, "fusion_lon": 0.0}, {"lat": 38.93225266666666, "is_disabled": 0, "type": "electric_scooter", "lon": -77.04417316666667, "bike_id": "c07b4c51c9b3197fe399850783488896", "fusion_lat": 0.0, "name": "c07b4c51c9b3197fe399850783488896", "is_reserved": 0, "rental_uris": {"android": "https://dc.lft.to/lastmile_qr_scan", "ios": "https://dc.lft.to/lastmile_qr_scan"}, "fusion_lon": 0.0}, {"lat": 38.910688666666665, "is_disabled": 0, "type": "electric_scooter", "lon": -77.01640783333333, "bike_id": "e25d9d0a9d683207d3291cc3277af88f", "fusion_lat": 0.0, "name": "e25d9d0a9d683207d3291cc3277af88f", "is_reserved": 0, "rental_uris": {"android": "https://dc.lft.to/lastmile_qr_scan", "ios": "https://dc.lft.to/lastmile_qr_scan"}, "fusion_lon": 0.0}, {"lat": 38.9217135, "is_disabled": 0, "type": "electric_scooter", "lon": -77.051382, "bike_id": "366b811bc4d2977181cd6419d8e47220", "fusion_lat": 0.0, "name": "366b811bc4d2977181cd6419d8e47220", "is_reserved": 0, "rental_uris": {"android": "https://dc.lft.to/lastmile_qr_scan", "ios": "https://dc.lft.to/lastmile_qr_scan"}, "fusion_lon": 0.0}, {"lat": 38.895993, "is_disabled": 0, "type": "electric_scooter", "lon": -77.04414266666667, "bike_id": "e62ed497f2e27211eccd7d7bd68ec2c2", "fusion_lat": 0.0, "name": "e62ed497f2e27211eccd7d7bd68ec2c2", "is_reserved": 0, "rental_uris": {"android": "https://dc.lft.to/lastmile_qr_scan", "ios": "https://dc.lft.to/lastmile_qr_scan"}, "fusion_lon": 0.0}, {"lat": 38.898889, "is_disabled": 0, "type": "electric_scooter", "lon": -77.00359716666667, "bike_id": "061e7ea205835d926ed3971640c41ae5", "fusion_lat": 0.0, "name": "061e7ea205835d926ed3971640c41ae5", "is_reserved": 0, "rental_uris": {"android": "https://dc.lft.to/lastmile_qr_scan", "ios": "https://dc.lft.to/lastmile_qr_scan"}, "fusion_lon": 0.0}, {"lat": 38.900573333333334, "is_disabled": 0, "type": "electric_scooter", "lon": -77.00733766666667, "bike_id": "1fdf5d763ec36375a5642cdf65696a9b", "fusion_lat": 0.0, "name": "1fdf5d763ec36375a5642cdf65696a9b", "is_reserved": 0, "rental_uris": {"android": "https://dc.lft.to/lastmile_qr_scan", "ios": "https://dc.lft.to/lastmile_qr_scan"}, "fusion_lon": 0.0}, {"lat": 38.91688416666667, "is_disabled": 0, "type": "electric_scooter", "lon": -77.02514466666666, "bike_id": "e37bbe740c9f3ba12b0d98baabd06aeb", "fusion_lat": 0.0, "name": "e37bbe740c9f3ba12b0d98baabd06aeb", "is_reserved": 0, "rental_uris": {"android": "https://dc.lft.to/lastmile_qr_scan", "ios": "https://dc.lft.to/lastmile_qr_scan"}, "fusion_lon": 0.0}, {"lat": 38.91762266666667, "is_disabled": 0, "type": "electric_scooter", "lon": -77.00452516666667, "bike_id": "753b06b9261d7b09efb1a2c486b113e5", "fusion_lat": 0.0, "name": "753b06b9261d7b09efb1a2c486b113e5", "is_reserved": 0, "rental_uris": {"android": "https://dc.lft.to/lastmile_qr_scan", "ios": "https://dc.lft.to/lastmile_qr_scan"}, "fusion_lon": 0.0}, {"lat": 38.962179166666665, "is_disabled": 0, "type": "electric_bike", "lon": -77.02780566666667, "bike_id": "a425b0092ae5b0c81494b6725c3a8c46", "fusion_lat": 0.0, "name": "a425b0092ae5b0c81494b6725c3a8c46", "is_reserved": 0, "rental_uris": {"android": "https://dc.lft.to/lastmile_qr_scan", "ios": "https://dc.lft.to/lastmile_qr_scan"}, "fusion_lon": 0.0}, {"lat": 38.922725666666665, "is_disabled": 0, "type": "electric_scooter", "lon": -77.04234083333333, "bike_id": "d80550668759bf11f3c0605203c8d084", "fusion_lat": 0.0, "name": "d80550668759bf11f3c0605203c8d084", "is_reserved": 0, "rental_uris": {"android": "https://dc.lft.to/lastmile_qr_scan", "ios": "https://dc.lft.to/lastmile_qr_scan"}, "fusion_lon": 0.0}, {"lat": 38.91113583333333, "is_disabled": 0, "type": "electric_scooter", "lon": -77.037413, "bike_id": "9b6bda3d6f7cf81af085179566e44202", "fusion_lat": 0.0, "name": "9b6bda3d6f7cf81af085179566e44202", "is_reserved": 0, "rental_uris": {"android": "https://dc.lft.to/lastmile_qr_scan", "ios": "https://dc.lft.to/lastmile_qr_scan"}, "fusion_lon": 0.0}, {"lat": 38.927963, "is_disabled": 0, "type": "electric_scooter", "lon": -77.03152566666667, "bike_id": "b57fca149f846f5491a13eea3c06683c", "fusion_lat": 0.0, "name": "b57fca149f846f5491a13eea3c06683c", "is_reserved": 0, "rental_uris": {"android": "https://dc.lft.to/lastmile_qr_scan", "ios": "https://dc.lft.to/lastmile_qr_scan"}, "fusion_lon": 0.0}, {"lat": 38.852212, "is_disabled": 0, "type": "electric_bike", "lon": -77.12955, "bike_id": "3e67f8fae9ae07877be267e15111e5fb", "fusion_lat": 0.0, "name": "3e67f8fae9ae07877be267e15111e5fb", "is_reserved": 0, "rental_uris": {"android": "https://dc.lft.to/lastmile_qr_scan", "ios": "https://dc.lft.to/lastmile_qr_scan"}, "fusion_lon": 0.0}, {"lat": 38.865941166666666, "is_disabled": 0, "type": "electric_bike", "lon": -76.93229766666667, "bike_id": "e0f04d6b873b4dd214788185eff559a8", "fusion_lat": 0.0, "name": "e0f04d6b873b4dd214788185eff559a8", "is_reserved": 0, "rental_uris": {"android": "https://dc.lft.to/lastmile_qr_scan", "ios": "https://dc.lft.to/lastmile_qr_scan"}, "fusion_lon": 0.0}, {"lat": 38.91818, "is_disabled": 0, "type": "electric_scooter", "lon": -76.99971016666667, "bike_id": "d67a503f863d08edad9f3d7219c66dca", "fusion_lat": 0.0, "name": "d67a503f863d08edad9f3d7219c66dca", "is_reserved": 0, "rental_uris": {"android": "https://dc.lft.to/lastmile_qr_scan", "ios": "https://dc.lft.to/lastmile_qr_scan"}, "fusion_lon": 0.0}, {"lat": 38.8922405, "is_disabled": 0, "type": "electric_scooter", "lon": -77.047987, "bike_id": "29af76ff66950fafc2e10e1e9a94cdb7", "fusion_lat": 0.0, "name": "29af76ff66950fafc2e10e1e9a94cdb7", "is_reserved": 0, "rental_uris": {"android": "https://dc.lft.to/lastmile_qr_scan", "ios": "https://dc.lft.to/lastmile_qr_scan"}, "fusion_lon": 0.0}, {"lat": 38.93457266666667, "is_disabled": 0, "type": "electric_scooter", "lon": -77.03237066666667, "bike_id": "1c65d59f2622ec737213016e92784ade", "fusion_lat": 0.0, "name": "1c65d59f2622ec737213016e92784ade", "is_reserved": 0, "rental_uris": {"android": "https://dc.lft.to/lastmile_qr_scan", "ios": "https://dc.lft.to/lastmile_qr_scan"}, "fusion_lon": 0.0}, {"lat": 38.910135833333335, "is_disabled": 0, "type": "electric_scooter", "lon": -77.03850566666667, "bike_id": "6ce4e3091c9157121b361ef94cfbbfda", "fusion_lat": 0.0, "name": "6ce4e3091c9157121b361ef94cfbbfda", "is_reserved": 0, "rental_uris": {"android": "https://dc.lft.to/lastmile_qr_scan", "ios": "https://dc.lft.to/lastmile_qr_scan"}, "fusion_lon": 0.0}, {"lat": 38.921961, "is_disabled": 0, "type": "electric_scooter", "lon": -77.04128966666667, "bike_id": "fb83e2b61b35ce012f48fa7b94c02ce1", "fusion_lat": 0.0, "name": "fb83e2b61b35ce012f48fa7b94c02ce1", "is_reserved": 0, "rental_uris": {"android": "https://dc.lft.to/lastmile_qr_scan", "ios": "https://dc.lft.to/lastmile_qr_scan"}, "fusion_lon": 0.0}, {"lat": 38.904460666666665, "is_disabled": 0, "type": "electric_scooter", "lon": -77.06498566666667, "bike_id": "68d2b11b68fd8b35f5728ae7343c6cc1", "fusion_lat": 0.0, "name": "68d2b11b68fd8b35f5728ae7343c6cc1", "is_reserved": 0, "rental_uris": {"android": "https://dc.lft.to/lastmile_qr_scan", "ios": "https://dc.lft.to/lastmile_qr_scan"}, "fusion_lon": 0.0}, {"lat": 38.918765666666665, "is_disabled": 0, "type": "electric_scooter", "lon": -76.97128166666667, "bike_id": "41e6a659932a3283d11197747f9bb1b9", "fusion_lat": 0.0, "name": "41e6a659932a3283d11197747f9bb1b9", "is_reserved": 0, "rental_uris": {"android": "https://dc.lft.to/lastmile_qr_scan", "ios": "https://dc.lft.to/lastmile_qr_scan"}, "fusion_lon": 0.0}, {"lat": 38.91488416666667, "is_disabled": 0, "type": "electric_scooter", "lon": -77.032599, "bike_id": "7c14c01a2d25d2cfff5794f191cc1958", "fusion_lat": 0.0, "name": "7c14c01a2d25d2cfff5794f191cc1958", "is_reserved": 0, "rental_uris": {"android": "https://dc.lft.to/lastmile_qr_scan", "ios": "https://dc.lft.to/lastmile_qr_scan"}, "fusion_lon": 0.0}, {"lat": 38.9285315, "is_disabled": 0, "type": "electric_bike", "lon": -77.10676683333334, "bike_id": "5a35a60b7a3fc24723686c9cb04d9b6f", "fusion_lat": 0.0, "name": "5a35a60b7a3fc24723686c9cb04d9b6f", "is_reserved": 0, "rental_uris": {"android": "https://dc.lft.to/lastmile_qr_scan", "ios": "https://dc.lft.to/lastmile_qr_scan"}, "fusion_lon": 0.0}, {"lat": 38.884604333333336, "is_disabled": 0, "type": "electric_scooter", "lon": -76.9262285, "bike_id": "e93d8185ff6965da6c7ed219fe85037e", "fusion_lat": 0.0, "name": "e93d8185ff6965da6c7ed219fe85037e", "is_reserved": 0, "rental_uris": {"android": "https://dc.lft.to/lastmile_qr_scan", "ios": "https://dc.lft.to/lastmile_qr_scan"}, "fusion_lon": 0.0}, {"lat": 38.938800666666666, "is_disabled": 0, "type": "electric_scooter", "lon": -77.02443483333333, "bike_id": "36d9e01eed6bc2d9065f7823131798bd", "fusion_lat": 0.0, "name": "36d9e01eed6bc2d9065f7823131798bd", "is_reserved": 0, "rental_uris": {"android": "https://dc.lft.to/lastmile_qr_scan", "ios": "https://dc.lft.to/lastmile_qr_scan"}, "fusion_lon": 0.0}, {"lat": 38.8074715, "is_disabled": 0, "type": "electric_bike", "lon": -77.09429233333333, "bike_id": "e9ca91540d89f89b79f1deb620477bbf", "fusion_lat": 0.0, "name": "e9ca91540d89f89b79f1deb620477bbf", "is_reserved": 0, "rental_uris": {"android": "https://dc.lft.to/lastmile_qr_scan", "ios": "https://dc.lft.to/lastmile_qr_scan"}, "fusion_lon": 0.0}, {"lat": 38.90889033333333, "is_disabled": 0, "type": "electric_scooter", "lon": -77.06435866666666, "bike_id": "5a18b2e3fd8c5afbd875b5aae6cd2ba4", "fusion_lat": 0.0, "name": "5a18b2e3fd8c5afbd875b5aae6cd2ba4", "is_reserved": 0, "rental_uris": {"android": "https://dc.lft.to/lastmile_qr_scan", "ios": "https://dc.lft.to/lastmile_qr_scan"}, "fusion_lon": 0.0}, {"lat": 38.9244675, "is_disabled": 0, "type": "electric_scooter", "lon": -77.051926, "bike_id": "310919ebb4b2230166615a5f20485e43", "fusion_lat": 0.0, "name": "310919ebb4b2230166615a5f20485e43", "is_reserved": 0, "rental_uris": {"android": "https://dc.lft.to/lastmile_qr_scan", "ios": "https://dc.lft.to/lastmile_qr_scan"}, "fusion_lon": 0.0}, {"lat": 38.93768516666667, "is_disabled": 0, "type": "electric_scooter", "lon": -77.03141133333334, "bike_id": "da31a8bff19fde53fb671eab5a423f42", "fusion_lat": 0.0, "name": "da31a8bff19fde53fb671eab5a423f42", "is_reserved": 0, "rental_uris": {"android": "https://dc.lft.to/lastmile_qr_scan", "ios": "https://dc.lft.to/lastmile_qr_scan"}, "fusion_lon": 0.0}, {"lat": 38.91120883333333, "is_disabled": 0, "type": "electric_scooter", "lon": -77.0324775, "bike_id": "d630c89a833dbc12ca36a078eedc8c67", "fusion_lat": 0.0, "name": "d630c89a833dbc12ca36a078eedc8c67", "is_reserved": 0, "rental_uris": {"android": "https://dc.lft.to/lastmile_qr_scan", "ios": "https://dc.lft.to/lastmile_qr_scan"}, "fusion_lon": 0.0}, {"lat": 38.90041333333333, "is_disabled": 0, "type": "electric_scooter", "lon": -76.99383133333333, "bike_id": "e2e8706d9d3bd35d4cbcf4e4f6486bf2", "fusion_lat": 0.0, "name": "e2e8706d9d3bd35d4cbcf4e4f6486bf2", "is_reserved": 0, "rental_uris": {"android": "https://dc.lft.to/lastmile_qr_scan", "ios": "https://dc.lft.to/lastmile_qr_scan"}, "fusion_lon": 0.0}, {"lat": 38.89992766666667, "is_disabled": 0, "type": "electric_scooter", "lon": -77.02156683333334, "bike_id": "5ddb28dee4fcc27f3c6c7f0e70dfb450", "fusion_lat": 0.0, "name": "5ddb28dee4fcc27f3c6c7f0e70dfb450", "is_reserved": 0, "rental_uris": {"android": "https://dc.lft.to/lastmile_qr_scan", "ios": "https://dc.lft.to/lastmile_qr_scan"}, "fusion_lon": 0.0}, {"lat": 38.92786666666667, "is_disabled": 0, "type": "electric_bike", "lon": -76.97223283333334, "bike_id": "47494fbfebaaaeab1783b85bdbf8f354", "fusion_lat": 0.0, "name": "47494fbfebaaaeab1783b85bdbf8f354", "is_reserved": 0, "rental_uris": {"android": "https://dc.lft.to/lastmile_qr_scan", "ios": "https://dc.lft.to/lastmile_qr_scan"}, "fusion_lon": 0.0}, {"lat": 38.92449333333333, "is_disabled": 0, "type": "electric_scooter", "lon": -77.02038833333333, "bike_id": "b8691642f8a743eb6804cdd7ee223acb", "fusion_lat": 0.0, "name": "b8691642f8a743eb6804cdd7ee223acb", "is_reserved": 0, "rental_uris": {"android": "https://dc.lft.to/lastmile_qr_scan", "ios": "https://dc.lft.to/lastmile_qr_scan"}, "fusion_lon": 0.0}, {"lat": 38.978342166666664, "is_disabled": 0, "type": "electric_bike", "lon": -77.02643216666667, "bike_id": "56ff3de075bb6721d4d19cecc9d5ac7a", "fusion_lat": 0.0, "name": "56ff3de075bb6721d4d19cecc9d5ac7a", "is_reserved": 0, "rental_uris": {"android": "https://dc.lft.to/lastmile_qr_scan", "ios": "https://dc.lft.to/lastmile_qr_scan"}, "fusion_lon": 0.0}, {"lat": 38.9431385, "is_disabled": 0, "type": "electric_scooter", "lon": -77.0592625, "bike_id": "08f8a83f9a9b870bba8fbe1d83a69a8a", "fusion_lat": 0.0, "name": "08f8a83f9a9b870bba8fbe1d83a69a8a", "is_reserved": 0, "rental_uris": {"android": "https://dc.lft.to/lastmile_qr_scan", "ios": "https://dc.lft.to/lastmile_qr_scan"}, "fusion_lon": 0.0}, {"lat": 38.90130283333333, "is_disabled": 0, "type": "electric_scooter", "lon": -77.04441, "bike_id": "762bb854b7922943452fdc624f235d67", "fusion_lat": 0.0, "name": "762bb854b7922943452fdc624f235d67", "is_reserved": 0, "rental_uris": {"android": "https://dc.lft.to/lastmile_qr_scan", "ios": "https://dc.lft.to/lastmile_qr_scan"}, "fusion_lon": 0.0}, {"lat": 38.900044, "is_disabled": 0, "type": "electric_bike", "lon": -76.9974515, "bike_id": "6f2d659526c98fac4b5ff5edb3cad7a9", "fusion_lat": 0.0, "name": "6f2d659526c98fac4b5ff5edb3cad7a9", "is_reserved": 0, "rental_uris": {"android": "https://dc.lft.to/lastmile_qr_scan", "ios": "https://dc.lft.to/lastmile_qr_scan"}, "fusion_lon": 0.0}, {"lat": 38.909803, "is_disabled": 0, "type": "electric_scooter", "lon": -77.03381816666666, "bike_id": "12b5f8c11b8992eeb2f1ee7e1a1e8ef5", "fusion_lat": 0.0, "name": "12b5f8c11b8992eeb2f1ee7e1a1e8ef5", "is_reserved": 0, "rental_uris": {"android": "https://dc.lft.to/lastmile_qr_scan", "ios": "https://dc.lft.to/lastmile_qr_scan"}, "fusion_lon": 0.0}, {"lat": 38.923640666666664, "is_disabled": 0, "type": "electric_scooter", "lon": -77.04027516666666, "bike_id": "4e2093d1cfdc800a3d90af0962034381", "fusion_lat": 0.0, "name": "4e2093d1cfdc800a3d90af0962034381", "is_reserved": 0, "rental_uris": {"android": "https://dc.lft.to/lastmile_qr_scan", "ios": "https://dc.lft.to/lastmile_qr_scan"}, "fusion_lon": 0.0}, {"lat": 38.860928666666666, "is_disabled": 0, "type": "electric_scooter", "lon": -76.98375666666666, "bike_id": "89c0f9e84f5a6656faeb290d55d40a9f", "fusion_lat": 0.0, "name": "89c0f9e84f5a6656faeb290d55d40a9f", "is_reserved": 0, "rental_uris": {"android": "https://dc.lft.to/lastmile_qr_scan", "ios": "https://dc.lft.to/lastmile_qr_scan"}, "fusion_lon": 0.0}, {"lat": 38.84963416666667, "is_disabled": 0, "type": "electric_bike", "lon": -77.10030633333334, "bike_id": "c4d6e72da33bdd6a11abd2dcf7dd61c8", "fusion_lat": 0.0, "name": "c4d6e72da33bdd6a11abd2dcf7dd61c8", "is_reserved": 0, "rental_uris": {"android": "https://dc.lft.to/lastmile_qr_scan", "ios": "https://dc.lft.to/lastmile_qr_scan"}, "fusion_lon": 0.0}, {"lat": 38.86380716666667, "is_disabled": 0, "type": "electric_scooter", "lon": -76.9925205, "bike_id": "12332d76504589c8e90ad2bdb5ce9cb0", "fusion_lat": 0.0, "name": "12332d76504589c8e90ad2bdb5ce9cb0", "is_reserved": 0, "rental_uris": {"android": "https://dc.lft.to/lastmile_qr_scan", "ios": "https://dc.lft.to/lastmile_qr_scan"}, "fusion_lon": 0.0}, {"lat": 38.91265883333333, "is_disabled": 0, "type": "electric_scooter", "lon": -77.0324305, "bike_id": "2c26aaa78d147f9f66b0dab658aeb035", "fusion_lat": 0.0, "name": "2c26aaa78d147f9f66b0dab658aeb035", "is_reserved": 0, "rental_uris": {"android": "https://dc.lft.to/lastmile_qr_scan", "ios": "https://dc.lft.to/lastmile_qr_scan"}, "fusion_lon": 0.0}, {"lat": 38.898215, "is_disabled": 0, "type": "electric_scooter", "lon": -77.04327166666667, "bike_id": "9f26541e8d2694564cee7a78178f583d", "fusion_lat": 0.0, "name": "9f26541e8d2694564cee7a78178f583d", "is_reserved": 0, "rental_uris": {"android": "https://dc.lft.to/lastmile_qr_scan", "ios": "https://dc.lft.to/lastmile_qr_scan"}, "fusion_lon": 0.0}, {"lat": 38.896186666666665, "is_disabled": 0, "type": "electric_scooter", "lon": -76.9985105, "bike_id": "88d4316fe75f51f23b6c6f8145ecc3e9", "fusion_lat": 0.0, "name": "88d4316fe75f51f23b6c6f8145ecc3e9", "is_reserved": 0, "rental_uris": {"android": "https://dc.lft.to/lastmile_qr_scan", "ios": "https://dc.lft.to/lastmile_qr_scan"}, "fusion_lon": 0.0}, {"lat": 38.89911933333333, "is_disabled": 0, "type": "electric_scooter", "lon": -77.03331383333334, "bike_id": "8c6564c7f363add4c38f18aa24d7bcdd", "fusion_lat": 0.0, "name": "8c6564c7f363add4c38f18aa24d7bcdd", "is_reserved": 0, "rental_uris": {"android": "https://dc.lft.to/lastmile_qr_scan", "ios": "https://dc.lft.to/lastmile_qr_scan"}, "fusion_lon": 0.0}, {"lat": 39.034064, "is_disabled": 0, "type": "electric_bike", "lon": -77.0420595, "bike_id": "c619822bedc6cc6ef8eb612969440ae1", "fusion_lat": 0.0, "name": "c619822bedc6cc6ef8eb612969440ae1", "is_reserved": 0, "rental_uris": {"android": "https://dc.lft.to/lastmile_qr_scan", "ios": "https://dc.lft.to/lastmile_qr_scan"}, "fusion_lon": 0.0}, {"lat": 38.91691983333333, "is_disabled": 0, "type": "electric_scooter", "lon": -77.03312416666667, "bike_id": "b8b73c1ff53e014372656c3d1ea3274c", "fusion_lat": 0.0, "name": "b8b73c1ff53e014372656c3d1ea3274c", "is_reserved": 0, "rental_uris": {"android": "https://dc.lft.to/lastmile_qr_scan", "ios": "https://dc.lft.to/lastmile_qr_scan"}, "fusion_lon": 0.0}, {"lat": 38.93857033333333, "is_disabled": 0, "type": "electric_scooter", "lon": -77.026501, "bike_id": "c30e510f23e111c54b6a0cf3939ac1e2", "fusion_lat": 0.0, "name": "c30e510f23e111c54b6a0cf3939ac1e2", "is_reserved": 0, "rental_uris": {"android": "https://dc.lft.to/lastmile_qr_scan", "ios": "https://dc.lft.to/lastmile_qr_scan"}, "fusion_lon": 0.0}, {"lat": 38.89328966666667, "is_disabled": 0, "type": "electric_scooter", "lon": -76.92991, "bike_id": "03fb77fe4e97b71d47b279eb6f240cd5", "fusion_lat": 0.0, "name": "03fb77fe4e97b71d47b279eb6f240cd5", "is_reserved": 0, "rental_uris": {"android": "https://dc.lft.to/lastmile_qr_scan", "ios": "https://dc.lft.to/lastmile_qr_scan"}, "fusion_lon": 0.0}, {"lat": 38.90786416666667, "is_disabled": 0, "type": "electric_scooter", "lon": -77.003925, "bike_id": "0acabf2118bdf1ddc7039e9be9cb299e", "fusion_lat": 0.0, "name": "0acabf2118bdf1ddc7039e9be9cb299e", "is_reserved": 0, "rental_uris": {"android": "https://dc.lft.to/lastmile_qr_scan", "ios": "https://dc.lft.to/lastmile_qr_scan"}, "fusion_lon": 0.0}, {"lat": 38.91819316666667, "is_disabled": 0, "type": "electric_scooter", "lon": -77.03170183333333, "bike_id": "12759b39acfb8e2838fc6c662c3cd1eb", "fusion_lat": 0.0, "name": "12759b39acfb8e2838fc6c662c3cd1eb", "is_reserved": 0, "rental_uris": {"android": "https://dc.lft.to/lastmile_qr_scan", "ios": "https://dc.lft.to/lastmile_qr_scan"}, "fusion_lon": 0.0}, {"lat": 38.87629916666667, "is_disabled": 0, "type": "electric_scooter", "lon": -76.96526416666667, "bike_id": "aea1fe851b25c37a367271884bd3f19b", "fusion_lat": 0.0, "name": "aea1fe851b25c37a367271884bd3f19b", "is_reserved": 0, "rental_uris": {"android": "https://dc.lft.to/lastmile_qr_scan", "ios": "https://dc.lft.to/lastmile_qr_scan"}, "fusion_lon": 0.0}, {"lat": 38.92867616666667, "is_disabled": 0, "type": "electric_scooter", "lon": -77.03330666666666, "bike_id": "5012e892c114f55c3e06dbddfa51729a", "fusion_lat": 0.0, "name": "5012e892c114f55c3e06dbddfa51729a", "is_reserved": 0, "rental_uris": {"android": "https://dc.lft.to/lastmile_qr_scan", "ios": "https://dc.lft.to/lastmile_qr_scan"}, "fusion_lon": 0.0}, {"lat": 38.89740166666667, "is_disabled": 0, "type": "electric_scooter", "lon": -77.02636433333333, "bike_id": "39d546788befe3d42e04a5e621aee4cd", "fusion_lat": 0.0, "name": "39d546788befe3d42e04a5e621aee4cd", "is_reserved": 0, "rental_uris": {"android": "https://dc.lft.to/lastmile_qr_scan", "ios": "https://dc.lft.to/lastmile_qr_scan"}, "fusion_lon": 0.0}, {"lat": 38.91708533333333, "is_disabled": 0, "type": "electric_scooter", "lon": -77.03499083333334, "bike_id": "855733bf631ca085a932f6ad3ce1aa8c", "fusion_lat": 0.0, "name": "855733bf631ca085a932f6ad3ce1aa8c", "is_reserved": 0, "rental_uris": {"android": "https://dc.lft.to/lastmile_qr_scan", "ios": "https://dc.lft.to/lastmile_qr_scan"}, "fusion_lon": 0.0}, {"lat": 38.90453083333333, "is_disabled": 0, "type": "electric_scooter", "lon": -77.0322305, "bike_id": "93a180c14d1ad370c131b0f2853f1196", "fusion_lat": 0.0, "name": "93a180c14d1ad370c131b0f2853f1196", "is_reserved": 0, "rental_uris": {"android": "https://dc.lft.to/lastmile_qr_scan", "ios": "https://dc.lft.to/lastmile_qr_scan"}, "fusion_lon": 0.0}, {"lat": 38.89978216666667, "is_disabled": 0, "type": "electric_scooter", "lon": -77.0184635, "bike_id": "a5f64f707d192d6ed3dc90620f15cdff", "fusion_lat": 0.0, "name": "a5f64f707d192d6ed3dc90620f15cdff", "is_reserved": 0, "rental_uris": {"android": "https://dc.lft.to/lastmile_qr_scan", "ios": "https://dc.lft.to/lastmile_qr_scan"}, "fusion_lon": 0.0}, {"lat": 38.91176, "is_disabled": 0, "type": "electric_bike", "lon": -77.01151166666666, "bike_id": "18348260ee1d7defe2841616426b0ecc", "fusion_lat": 0.0, "name": "18348260ee1d7defe2841616426b0ecc", "is_reserved": 0, "rental_uris": {"android": "https://dc.lft.to/lastmile_qr_scan", "ios": "https://dc.lft.to/lastmile_qr_scan"}, "fusion_lon": 0.0}, {"lat": 38.86561866666667, "is_disabled": 0, "type": "electric_scooter", "lon": -76.9895265, "bike_id": "6c737f4c79c5c4fca6cf4b06cd661e96", "fusion_lat": 0.0, "name": "6c737f4c79c5c4fca6cf4b06cd661e96", "is_reserved": 0, "rental_uris": {"android": "https://dc.lft.to/lastmile_qr_scan", "ios": "https://dc.lft.to/lastmile_qr_scan"}, "fusion_lon": 0.0}, {"lat": 38.93220516666667, "is_disabled": 0, "type": "electric_scooter", "lon": -77.0273175, "bike_id": "dbe7947df1d4cb06c0ca298ee9064ace", "fusion_lat": 0.0, "name": "dbe7947df1d4cb06c0ca298ee9064ace", "is_reserved": 0, "rental_uris": {"android": "https://dc.lft.to/lastmile_qr_scan", "ios": "https://dc.lft.to/lastmile_qr_scan"}, "fusion_lon": 0.0}, {"lat": 38.8982805, "is_disabled": 0, "type": "electric_scooter", "lon": -77.02641866666667, "bike_id": "202dbe587d3797440c97a11580907003", "fusion_lat": 0.0, "name": "202dbe587d3797440c97a11580907003", "is_reserved": 0, "rental_uris": {"android": "https://dc.lft.to/lastmile_qr_scan", "ios": "https://dc.lft.to/lastmile_qr_scan"}, "fusion_lon": 0.0}, {"lat": 38.884314833333335, "is_disabled": 0, "type": "electric_scooter", "lon": -76.95760083333333, "bike_id": "531aa83e8aba6ab6bf5961c2c7d3d4ae", "fusion_lat": 0.0, "name": "531aa83e8aba6ab6bf5961c2c7d3d4ae", "is_reserved": 0, "rental_uris": {"android": "https://dc.lft.to/lastmile_qr_scan", "ios": "https://dc.lft.to/lastmile_qr_scan"}, "fusion_lon": 0.0}, {"lat": 38.86619, "is_disabled": 0, "type": "electric_bike", "lon": -76.94570616666667, "bike_id": "00f66f19d1183b0973e844ccd3ef9da8", "fusion_lat": 0.0, "name": "00f66f19d1183b0973e844ccd3ef9da8", "is_reserved": 0, "rental_uris": {"android": "https://dc.lft.to/lastmile_qr_scan", "ios": "https://dc.lft.to/lastmile_qr_scan"}, "fusion_lon": 0.0}, {"lat": 38.922517166666665, "is_disabled": 0, "type": "electric_scooter", "lon": -77.04190033333333, "bike_id": "5b079f6643710a09db30010698bcecbe", "fusion_lat": 0.0, "name": "5b079f6643710a09db30010698bcecbe", "is_reserved": 0, "rental_uris": {"android": "https://dc.lft.to/lastmile_qr_scan", "ios": "https://dc.lft.to/lastmile_qr_scan"}, "fusion_lon": 0.0}, {"lat": 38.889754833333335, "is_disabled": 0, "type": "electric_scooter", "lon": -76.93742616666667, "bike_id": "a6b5ce40805e62fec743cbb2b04da258", "fusion_lat": 0.0, "name": "a6b5ce40805e62fec743cbb2b04da258", "is_reserved": 0, "rental_uris": {"android": "https://dc.lft.to/lastmile_qr_scan", "ios": "https://dc.lft.to/lastmile_qr_scan"}, "fusion_lon": 0.0}, {"lat": 38.892228, "is_disabled": 0, "type": "electric_scooter", "lon": -76.93300233333333, "bike_id": "17adf28a7f8b3cfbf5f62d2e717d2c61", "fusion_lat": 0.0, "name": "17adf28a7f8b3cfbf5f62d2e717d2c61", "is_reserved": 0, "rental_uris": {"android": "https://dc.lft.to/lastmile_qr_scan", "ios": "https://dc.lft.to/lastmile_qr_scan"}, "fusion_lon": 0.0}, {"lat": 38.94514916666667, "is_disabled": 0, "type": "electric_scooter", "lon": -77.02174, "bike_id": "6fc8bff5a543edec6b0ef7b562905d34", "fusion_lat": 0.0, "name": "6fc8bff5a543edec6b0ef7b562905d34", "is_reserved": 0, "rental_uris": {"android": "https://dc.lft.to/lastmile_qr_scan", "ios": "https://dc.lft.to/lastmile_qr_scan"}, "fusion_lon": 0.0}, {"lat": 38.904086, "is_disabled": 0, "type": "electric_scooter", "lon": -77.02509416666666, "bike_id": "43f0bf2c4502035b89f9bc206553f212", "fusion_lat": 0.0, "name": "43f0bf2c4502035b89f9bc206553f212", "is_reserved": 0, "rental_uris": {"android": "https://dc.lft.to/lastmile_qr_scan", "ios": "https://dc.lft.to/lastmile_qr_scan"}, "fusion_lon": 0.0}, {"lat": 38.917123833333335, "is_disabled": 0, "type": "electric_scooter", "lon": -77.03872833333334, "bike_id": "caa7edc6c0644cd45c1892e8583daed4", "fusion_lat": 0.0, "name": "caa7edc6c0644cd45c1892e8583daed4", "is_reserved": 0, "rental_uris": {"android": "https://dc.lft.to/lastmile_qr_scan", "ios": "https://dc.lft.to/lastmile_qr_scan"}, "fusion_lon": 0.0}, {"lat": 38.95169333333333, "is_disabled": 0, "type": "electric_scooter", "lon": -77.06766066666667, "bike_id": "306eeabaca214235c00152dae1bb8530", "fusion_lat": 0.0, "name": "306eeabaca214235c00152dae1bb8530", "is_reserved": 0, "rental_uris": {"android": "https://dc.lft.to/lastmile_qr_scan", "ios": "https://dc.lft.to/lastmile_qr_scan"}, "fusion_lon": 0.0}, {"lat": 39.0305015, "is_disabled": 0, "type": "electric_bike", "lon": -77.0948355, "bike_id": "6a19100f5516487ec822b88e38feb91f", "fusion_lat": 0.0, "name": "6a19100f5516487ec822b88e38feb91f", "is_reserved": 0, "rental_uris": {"android": "https://dc.lft.to/lastmile_qr_scan", "ios": "https://dc.lft.to/lastmile_qr_scan"}, "fusion_lon": 0.0}, {"lat": 38.91683533333333, "is_disabled": 0, "type": "electric_scooter", "lon": -77.02956616666667, "bike_id": "462d2c1415808414a68f97b213c03d42", "fusion_lat": 0.0, "name": "462d2c1415808414a68f97b213c03d42", "is_reserved": 0, "rental_uris": {"android": "https://dc.lft.to/lastmile_qr_scan", "ios": "https://dc.lft.to/lastmile_qr_scan"}, "fusion_lon": 0.0}, {"lat": 38.92053216666667, "is_disabled": 0, "type": "electric_scooter", "lon": -77.023625, "bike_id": "69e0d23df1b63cb7a9c9ebd7b703dae0", "fusion_lat": 0.0, "name": "69e0d23df1b63cb7a9c9ebd7b703dae0", "is_reserved": 0, "rental_uris": {"android": "https://dc.lft.to/lastmile_qr_scan", "ios": "https://dc.lft.to/lastmile_qr_scan"}, "fusion_lon": 0.0}, {"lat": 38.901353, "is_disabled": 0, "type": "electric_scooter", "lon": -77.028874, "bike_id": "88e36f6343c509d89f47916b9c371586", "fusion_lat": 0.0, "name": "88e36f6343c509d89f47916b9c371586", "is_reserved": 0, "rental_uris": {"android": "https://dc.lft.to/lastmile_qr_scan", "ios": "https://dc.lft.to/lastmile_qr_scan"}, "fusion_lon": 0.0}, {"lat": 38.91607783333333, "is_disabled": 0, "type": "electric_scooter", "lon": -77.040336, "bike_id": "aab30b19d50fe381fd030ee2e0736a5b", "fusion_lat": 0.0, "name": "aab30b19d50fe381fd030ee2e0736a5b", "is_reserved": 0, "rental_uris": {"android": "https://dc.lft.to/lastmile_qr_scan", "ios": "https://dc.lft.to/lastmile_qr_scan"}, "fusion_lon": 0.0}, {"lat": 38.9982085, "is_disabled": 0, "type": "electric_bike", "lon": -76.88370533333334, "bike_id": "fb4b5e0a388a4bad4fc3373602ebc59a", "fusion_lat": 0.0, "name": "fb4b5e0a388a4bad4fc3373602ebc59a", "is_reserved": 0, "rental_uris": {"android": "https://dc.lft.to/lastmile_qr_scan", "ios": "https://dc.lft.to/lastmile_qr_scan"}, "fusion_lon": 0.0}, {"lat": 39.024304666666666, "is_disabled": 0, "type": "electric_bike", "lon": -77.13100216666666, "bike_id": "bb4a6fea2ace22ee2269918d1440408d", "fusion_lat": 0.0, "name": "bb4a6fea2ace22ee2269918d1440408d", "is_reserved": 0, "rental_uris": {"android": "https://dc.lft.to/lastmile_qr_scan", "ios": "https://dc.lft.to/lastmile_qr_scan"}, "fusion_lon": 0.0}, {"lat": 38.914133166666666, "is_disabled": 0, "type": "electric_scooter", "lon": -77.04568416666666, "bike_id": "f1ef05c03c467704cc10043142b10d40", "fusion_lat": 0.0, "name": "f1ef05c03c467704cc10043142b10d40", "is_reserved": 0, "rental_uris": {"android": "https://dc.lft.to/lastmile_qr_scan", "ios": "https://dc.lft.to/lastmile_qr_scan"}, "fusion_lon": 0.0}, {"lat": 38.964909, "is_disabled": 0, "type": "electric_scooter", "lon": -77.02788516666666, "bike_id": "bf35cb2ae0ce7fb4880aee505e7807a1", "fusion_lat": 0.0, "name": "bf35cb2ae0ce7fb4880aee505e7807a1", "is_reserved": 0, "rental_uris": {"android": "https://dc.lft.to/lastmile_qr_scan", "ios": "https://dc.lft.to/lastmile_qr_scan"}, "fusion_lon": 0.0}, {"lat": 38.920383, "is_disabled": 0, "type": "electric_scooter", "lon": -77.03045733333333, "bike_id": "257c5a67f6e8163a300409416374f789", "fusion_lat": 0.0, "name": "257c5a67f6e8163a300409416374f789", "is_reserved": 0, "rental_uris": {"android": "https://dc.lft.to/lastmile_qr_scan", "ios": "https://dc.lft.to/lastmile_qr_scan"}, "fusion_lon": 0.0}, {"lat": 38.98498216666667, "is_disabled": 0, "type": "electric_bike", "lon": -76.98197533333334, "bike_id": "f6eea9fce6d13dba1cad08b40166548b", "fusion_lat": 0.0, "name": "f6eea9fce6d13dba1cad08b40166548b", "is_reserved": 0, "rental_uris": {"android": "https://dc.lft.to/lastmile_qr_scan", "ios": "https://dc.lft.to/lastmile_qr_scan"}, "fusion_lon": 0.0}, {"lat": 38.92115783333333, "is_disabled": 0, "type": "electric_scooter", "lon": -77.0177, "bike_id": "2978be42aad95c47de93dbfc990fa24f", "fusion_lat": 0.0, "name": "2978be42aad95c47de93dbfc990fa24f", "is_reserved": 0, "rental_uris": {"android": "https://dc.lft.to/lastmile_qr_scan", "ios": "https://dc.lft.to/lastmile_qr_scan"}, "fusion_lon": 0.0}, {"lat": 38.920034666666666, "is_disabled": 0, "type": "electric_scooter", "lon": -77.03233183333333, "bike_id": "b437c32be6758e5400a5fe693f2b8056", "fusion_lat": 0.0, "name": "b437c32be6758e5400a5fe693f2b8056", "is_reserved": 0, "rental_uris": {"android": "https://dc.lft.to/lastmile_qr_scan", "ios": "https://dc.lft.to/lastmile_qr_scan"}, "fusion_lon": 0.0}, {"lat": 38.943205, "is_disabled": 0, "type": "electric_bike", "lon": -76.950086, "bike_id": "93530bda651a037cc39ee6204131e7d5", "fusion_lat": 0.0, "name": "93530bda651a037cc39ee6204131e7d5", "is_reserved": 0, "rental_uris": {"android": "https://dc.lft.to/lastmile_qr_scan", "ios": "https://dc.lft.to/lastmile_qr_scan"}, "fusion_lon": 0.0}, {"lat": 38.9282965, "is_disabled": 0, "type": "electric_scooter", "lon": -77.02191833333333, "bike_id": "f9067a17070071dd0ad9f38dccafbff9", "fusion_lat": 0.0, "name": "f9067a17070071dd0ad9f38dccafbff9", "is_reserved": 0, "rental_uris": {"android": "https://dc.lft.to/lastmile_qr_scan", "ios": "https://dc.lft.to/lastmile_qr_scan"}, "fusion_lon": 0.0}, {"lat": 38.8057755, "is_disabled": 0, "type": "electric_bike", "lon": -77.06860383333333, "bike_id": "4324decaed1dd3b711ad7e45ef3d2ac0", "fusion_lat": 0.0, "name": "4324decaed1dd3b711ad7e45ef3d2ac0", "is_reserved": 0, "rental_uris": {"android": "https://dc.lft.to/lastmile_qr_scan", "ios": "https://dc.lft.to/lastmile_qr_scan"}, "fusion_lon": 0.0}, {"lat": 38.91982983333333, "is_disabled": 0, "type": "electric_scooter", "lon": -77.0416905, "bike_id": "46379e30f0b34307a033d1e66ca0cc0c", "fusion_lat": 0.0, "name": "46379e30f0b34307a033d1e66ca0cc0c", "is_reserved": 0, "rental_uris": {"android": "https://dc.lft.to/lastmile_qr_scan", "ios": "https://dc.lft.to/lastmile_qr_scan"}, "fusion_lon": 0.0}, {"lat": 38.896082, "is_disabled": 0, "type": "electric_scooter", "lon": -77.05468116666667, "bike_id": "94da7f10521a3e02d31fd304a1db934e", "fusion_lat": 0.0, "name": "94da7f10521a3e02d31fd304a1db934e", "is_reserved": 0, "rental_uris": {"android": "https://dc.lft.to/lastmile_qr_scan", "ios": "https://dc.lft.to/lastmile_qr_scan"}, "fusion_lon": 0.0}, {"lat": 38.905523333333335, "is_disabled": 0, "type": "electric_scooter", "lon": -77.00599583333333, "bike_id": "d480deba037860b7ef0d02984ab26585", "fusion_lat": 0.0, "name": "d480deba037860b7ef0d02984ab26585", "is_reserved": 0, "rental_uris": {"android": "https://dc.lft.to/lastmile_qr_scan", "ios": "https://dc.lft.to/lastmile_qr_scan"}, "fusion_lon": 0.0}, {"lat": 38.898243666666666, "is_disabled": 0, "type": "electric_scooter", "lon": -77.03170766666666, "bike_id": "aa055080607b5d496f1cdb6071321a75", "fusion_lat": 0.0, "name": "aa055080607b5d496f1cdb6071321a75", "is_reserved": 0, "rental_uris": {"android": "https://dc.lft.to/lastmile_qr_scan", "ios": "https://dc.lft.to/lastmile_qr_scan"}, "fusion_lon": 0.0}, {"lat": 38.86985833333333, "is_disabled": 0, "type": "electric_bike", "lon": -76.95989633333333, "bike_id": "45b0f628aca3e3d0abca06b6e4378f0e", "fusion_lat": 0.0, "name": "45b0f628aca3e3d0abca06b6e4378f0e", "is_reserved": 0, "rental_uris": {"android": "https://dc.lft.to/lastmile_qr_scan", "ios": "https://dc.lft.to/lastmile_qr_scan"},