{"data": {"bikes": [{"is_disabled": 0, "fusion_lon": 0.0, "fusion_lat": 0.0, "lat": 38.90203566666667, "type": "electric_scooter", "lon": -77.02413116666666, "bike_id": "5da31465bf4f52833907d2647e4b1e07", "rental_uris": {"android": "https://dc.lft.to/lastmile_qr_scan", "ios": "https://dc.lft.to/lastmile_qr_scan"}, "name": "5da31465bf4f52833907d2647e4b1e07", "is_reserved": 0}, {"is_disabled": 0, "fusion_lon": 0.0, "fusion_lat": 0.0, "lat": 38.9267505, "type": "electric_scooter", "lon": -77.10309683333334, "bike_id": "ca3e678b93b2f5829de70ac97df886ee", "rental_uris": {"android": "https://dc.lft.to/lastmile_qr_scan", "ios": "https://dc.lft.to/lastmile_qr_scan"}, "name": "ca3e678b93b2f5829de70ac97df886ee", "is_reserved": 0}, {"is_disabled": 0, "fusion_lon": 0.0, "fusion_lat": 0.0, "lat": 38.91825633333333, "type": "electric_scooter", "lon": -77.03454783333333, "bike_id": "c737b87211583b0d397750303a155d61", "rental_uris": {"android": "https://dc.lft.to/lastmile_qr_scan", "ios": "https://dc.lft.to/lastmile_qr_scan"}, "name": "c737b87211583b0d397750303a155d61", "is_reserved": 0}, {"is_disabled": 0, "fusion_lon": 0.0, "fusion_lat": 0.0, "lat": 38.956204666666665, "type": "electric_scooter", "lon": -77.03575083333334, "bike_id": "13315489b3b147fe66d52cae3b6d3908", "rental_uris": {"android": "https://dc.lft.to/lastmile_qr_scan", "ios": "https://dc.lft.to/lastmile_qr_scan"}, "name": "13315489b3b147fe66d52cae3b6d3908", "is_reserved": 0}, {"is_disabled": 0, "fusion_lon": 0.0, "fusion_lat": 0.0, "lat": 38.9195995, "type": "electric_scooter", "lon": -77.027117, "bike_id": "74b5a0a5b56bcf3cb004c0f3fcbfc1f6", "rental_uris": {"android": "https://dc.lft.to/lastmile_qr_scan", "ios": "https://dc.lft.to/lastmile_qr_scan"}, "name": "74b5a0a5b56bcf3cb004c0f3fcbfc1f6", "is_reserved": 0}, {"is_disabled": 0, "fusion_lon": 0.0, "fusion_lat": 0.0, "lat": 38.910363, "type": "electric_scooter", "lon": -76.99335566666667, "bike_id": "d5dfc5196aac5ec1ff3880973ac75c3a", "rental_uris": {"android": "https://dc.lft.to/lastmile_qr_scan", "ios": "https://dc.lft.to/lastmile_qr_scan"}, "name": "d5dfc5196aac5ec1ff3880973ac75c3a", "is_reserved": 0}, {"is_disabled": 0, "fusion_lon": 0.0, "fusion_lat": 0.0, "lat": 38.91081616666666, "type": "electric_scooter", "lon": -77.01508366666667, "bike_id": "db7c0c675e15f6bdd96456dbbccdd32a", "rental_uris": {"android": "https://dc.lft.to/lastmile_qr_scan", "ios": "https://dc.lft.to/lastmile_qr_scan"}, "name": "db7c0c675e15f6bdd96456dbbccdd32a", "is_reserved": 0}, {"is_disabled": 0, "fusion_lon": 0.0, "fusion_lat": 0.0, "lat": 38.8847375, "type": "electric_scooter", "lon": -76.95219083333333, "bike_id": "1baa2e0a3e23fc9e8c5af20df202a31f", "rental_uris": {"android": "https://dc.lft.to/lastmile_qr_scan", "ios": "https://dc.lft.to/lastmile_qr_scan"}, "name": "1baa2e0a3e23fc9e8c5af20df202a31f", "is_reserved": 0}, {"is_disabled": 0, "fusion_lon": 0.0, "fusion_lat": 0.0, "lat": 38.9223305, "type": "electric_scooter", "lon": -76.97529433333334, "bike_id": "ed54d7245c1b7f7a775ef19424154ba7", "rental_uris": {"android": "https://dc.lft.to/lastmile_qr_scan", "ios": "https://dc.lft.to/lastmile_qr_scan"}, "name": "ed54d7245c1b7f7a775ef19424154ba7", "is_reserved": 0}, {"is_disabled": 0, "fusion_lon": 0.0, "fusion_lat": 0.0, "lat": 38.90974166666667, "type": "electric_scooter", "lon": -77.037256, "bike_id": "aa794038ae189c6a4be7b96f608d5655", "rental_uris": {"android": "https://dc.lft.to/lastmile_qr_scan", "ios": "https://dc.lft.to/lastmile_qr_scan"}, "name": "aa794038ae189c6a4be7b96f608d5655", "is_reserved": 0}, {"is_disabled": 0, "fusion_lon": 0.0, "fusion_lat": 0.0, "lat": 38.887377666666666, "type": "electric_scooter", "lon": -77.01535133333333, "bike_id": "7c30dfccff179db8065fe0ee6f3f7fe5", "rental_uris": {"android": "https://dc.lft.to/lastmile_qr_scan", "ios": "https://dc.lft.to/lastmile_qr_scan"}, "name": "7c30dfccff179db8065fe0ee6f3f7fe5", "is_reserved": 0}, {"is_disabled": 0, "fusion_lon": 0.0, "fusion_lat": 0.0, "lat": 38.89902933333333, "type": "electric_scooter", "lon": -77.03273166666666, "bike_id": "3e0ae9aa4e16062ebb9d4153662387fa", "rental_uris": {"android": "https://dc.lft.to/lastmile_qr_scan", "ios": "https://dc.lft.to/lastmile_qr_scan"}, "name": "3e0ae9aa4e16062ebb9d4153662387fa", "is_reserved": 0}, {"is_disabled": 0, "fusion_lon": 0.0, "fusion_lat": 0.0, "lat": 38.915600833333336, "type": "electric_scooter", "lon": -77.03835366666667, "bike_id": "618438978a60fa75fd187c0e2b4ad0fe", "rental_uris": {"android": "https://dc.lft.to/lastmile_qr_scan", "ios": "https://dc.lft.to/lastmile_qr_scan"}, "name": "618438978a60fa75fd187c0e2b4ad0fe", "is_reserved": 0}, {"is_disabled": 0, "fusion_lon": 0.0, "fusion_lat": 0.0, "lat": 38.893589166666665, "type": "electric_scooter", "lon": -76.98468883333334, "bike_id": "915df2eb17c424b016a0cc1960d0ab06", "rental_uris": {"android": "https://dc.lft.to/lastmile_qr_scan", "ios": "https://dc.lft.to/lastmile_qr_scan"}, "name": "915df2eb17c424b016a0cc1960d0ab06", "is_reserved": 0}, {"is_disabled": 0, "fusion_lon": 0.0, "fusion_lat": 0.0, "lat": 38.924805166666665, "type": "electric_scooter", "lon": -77.02808633333333, "bike_id": "66280d292b8e30d382e7845b18f71f1d", "rental_uris": {"android": "https://dc.lft.to/lastmile_qr_scan", "ios": "https://dc.lft.to/lastmile_qr_scan"}, "name": "66280d292b8e30d382e7845b18f71f1d", "is_reserved": 0}, {"is_disabled": 0, "fusion_lon": 0.0, "fusion_lat": 0.0, "lat": 38.88737833333333, "type": "electric_scooter", "lon": -77.01745366666667, "bike_id": "654a48cd85cc5a430a8e5555154315b5", "rental_uris": {"android": "https://dc.lft.to/lastmile_qr_scan", "ios": "https://dc.lft.to/lastmile_qr_scan"}, "name": "654a48cd85cc5a430a8e5555154315b5", "is_reserved": 0}, {"is_disabled": 0, "fusion_lon": 0.0, "fusion_lat": 0.0, "lat": 38.88021216666667, "type": "electric_scooter", "lon": -76.9823775, "bike_id": "e29ff8b483aa293b0170201d4044f236", "rental_uris": {"android": "https://dc.lft.to/lastmile_qr_scan", "ios": "https://dc.lft.to/lastmile_qr_scan"}, "name": "e29ff8b483aa293b0170201d4044f236", "is_reserved": 0}, {"is_disabled": 0, "fusion_lon": 0.0, "fusion_lat": 0.0, "lat": 38.90153466666667, "type": "electric_scooter", "lon": -77.03998133333333, "bike_id": "2da3bb23e965a7ab93d526d1d48a5e6f", "rental_uris": {"android": "https://dc.lft.to/lastmile_qr_scan", "ios": "https://dc.lft.to/lastmile_qr_scan"}, "name": "2da3bb23e965a7ab93d526d1d48a5e6f", "is_reserved": 0}, {"is_disabled": 0, "fusion_lon": 0.0, "fusion_lat": 0.0, "lat": 38.90659316666667, "type": "electric_scooter", "lon": -77.034322, "bike_id": "3262163d04321f10fe8df9ff83abb192", "rental_uris": {"android": "https://dc.lft.to/lastmile_qr_scan", "ios": "https://dc.lft.to/lastmile_qr_scan"}, "name": "3262163d04321f10fe8df9ff83abb192", "is_reserved": 0}, {"is_disabled": 0, "fusion_lon": 0.0, "fusion_lat": 0.0, "lat": 38.940911666666665, "type": "electric_scooter", "lon": -77.03815216666666, "bike_id": "12aa8381e6bb7f59aa597c61605ba3cd", "rental_uris": {"android": "https://dc.lft.to/lastmile_qr_scan", "ios": "https://dc.lft.to/lastmile_qr_scan"}, "name": "12aa8381e6bb7f59aa597c61605ba3cd", "is_reserved": 0}, {"is_disabled": 0, "fusion_lon": 0.0, "fusion_lat": 0.0, "lat": 38.907015666666666, "type": "electric_scooter", "lon": -77.0754075, "bike_id": "7dc7ad4fa173e641377f1674f82ba154", "rental_uris": {"android": "https://dc.lft.to/lastmile_qr_scan", "ios": "https://dc.lft.to/lastmile_qr_scan"}, "name": "7dc7ad4fa173e641377f1674f82ba154", "is_reserved": 0}, {"is_disabled": 0, "fusion_lon": 0.0, "fusion_lat": 0.0, "lat": 38.892386333333334, "type": "electric_scooter", "lon": -77.03173466666667, "bike_id": "f32bfee5a433b7eaec3b82995655dfa5", "rental_uris": {"android": "https://dc.lft.to/lastmile_qr_scan", "ios": "https://dc.lft.to/lastmile_qr_scan"}, "name": "f32bfee5a433b7eaec3b82995655dfa5", "is_reserved": 0}, {"is_disabled": 0, "fusion_lon": 0.0, "fusion_lat": 0.0, "lat": 38.90018166666667, "type": "electric_scooter", "lon": -77.0396355, "bike_id": "cba0b9b80e299b6f3ea19f89e6a19fd4", "rental_uris": {"android": "https://dc.lft.to/lastmile_qr_scan", "ios": "https://dc.lft.to/lastmile_qr_scan"}, "name": "cba0b9b80e299b6f3ea19f89e6a19fd4", "is_reserved": 0}, {"is_disabled": 0, "fusion_lon": 0.0, "fusion_lat": 0.0, "lat": 38.915957166666665, "type": "electric_scooter", "lon": -77.02123283333333, "bike_id": "fe383b55bac56b0044571ec834c9b6f9", "rental_uris": {"android": "https://dc.lft.to/lastmile_qr_scan", "ios": "https://dc.lft.to/lastmile_qr_scan"}, "name": "fe383b55bac56b0044571ec834c9b6f9", "is_reserved": 0}, {"is_disabled": 0, "fusion_lon": 0.0, "fusion_lat": 0.0, "lat": 38.911992, "type": "electric_scooter", "lon": -77.03860383333334, "bike_id": "7a0dc40993daecde062a51f075f0c979", "rental_uris": {"android": "https://dc.lft.to/lastmile_qr_scan", "ios": "https://dc.lft.to/lastmile_qr_scan"}, "name": "7a0dc40993daecde062a51f075f0c979", "is_reserved": 0}, {"is_disabled": 0, "fusion_lon": 0.0, "fusion_lat": 0.0, "lat": 38.9244695, "type": "electric_scooter", "lon": -77.0402655, "bike_id": "60fb0b679a0b073fa5965133ff6d454c", "rental_uris": {"android": "https://dc.lft.to/lastmile_qr_scan", "ios": "https://dc.lft.to/lastmile_qr_scan"}, "name": "60fb0b679a0b073fa5965133ff6d454c", "is_reserved": 0}, {"is_disabled": 0, "fusion_lon": 0.0, "fusion_lat": 0.0, "lat": 38.944795, "type": "electric_bike", "lon": -77.0064645, "bike_id": "8ddc728325d780a34ba5ba04e98a3cc0", "rental_uris": {"android": "https://dc.lft.to/lastmile_qr_scan", "ios": "https://dc.lft.to/lastmile_qr_scan"}, "name": "8ddc728325d780a34ba5ba04e98a3cc0", "is_reserved": 0}, {"is_disabled": 0, "fusion_lon": 0.0, "fusion_lat": 0.0, "lat": 38.88687266666667, "type": "electric_scooter", "lon": -76.95475633333334, "bike_id": "6177569a031b1ef1193b2d70f7a277ad", "rental_uris": {"android": "https://dc.lft.to/lastmile_qr_scan", "ios": "https://dc.lft.to/lastmile_qr_scan"}, "name": "6177569a031b1ef1193b2d70f7a277ad", "is_reserved": 0}, {"is_disabled": 0, "fusion_lon": 0.0, "fusion_lat": 0.0, "lat": 38.945584333333336, "type": "electric_bike", "lon": -77.05122733333333, "bike_id": "9cd982fab4a384ad142309a1225352e3", "rental_uris": {"android": "https://dc.lft.to/lastmile_qr_scan", "ios": "https://dc.lft.to/lastmile_qr_scan"}, "name": "9cd982fab4a384ad142309a1225352e3", "is_reserved": 0}, {"is_disabled": 0, "fusion_lon": 0.0, "fusion_lat": 0.0, "lat": 38.90540016666667, "type": "electric_scooter", "lon": -77.05016516666667, "bike_id": "723a7fe26133aef0501d9b76925ade26", "rental_uris": {"android": "https://dc.lft.to/lastmile_qr_scan", "ios": "https://dc.lft.to/lastmile_qr_scan"}, "name": "723a7fe26133aef0501d9b76925ade26", "is_reserved": 0}, {"is_disabled": 0, "fusion_lon": 0.0, "fusion_lat": 0.0, "lat": 38.92484833333334, "type": "electric_scooter", "lon": -77.03769733333333, "bike_id": "af6c6940415a24c8e11f1773a0f9b853", "rental_uris": {"android": "https://dc.lft.to/lastmile_qr_scan", "ios": "https://dc.lft.to/lastmile_qr_scan"}, "name": "af6c6940415a24c8e11f1773a0f9b853", "is_reserved": 0}, {"is_disabled": 0, "fusion_lon": 0.0, "fusion_lat": 0.0, "lat": 38.92088316666667, "type": "electric_scooter", "lon": -77.034866, "bike_id": "e4097ee075aa625af61a928e4ea67cbd", "rental_uris": {"android": "https://dc.lft.to/lastmile_qr_scan", "ios": "https://dc.lft.to/lastmile_qr_scan"}, "name": "e4097ee075aa625af61a928e4ea67cbd", "is_reserved": 0}, {"is_disabled": 0, "fusion_lon": 0.0, "fusion_lat": 0.0, "lat": 38.877637166666666, "type": "electric_bike", "lon": -76.97991116666667, "bike_id": "430223fee0d5b5627bf43a9050867b6b", "rental_uris": {"android": "https://dc.lft.to/lastmile_qr_scan", "ios": "https://dc.lft.to/lastmile_qr_scan"}, "name": "430223fee0d5b5627bf43a9050867b6b", "is_reserved": 0}, {"is_disabled": 0, "fusion_lon": 0.0, "fusion_lat": 0.0, "lat": 38.9257895, "type": "electric_scooter", "lon": -77.08052, "bike_id": "660479fd3395accd4fd3e36aebba92e0", "rental_uris": {"android": "https://dc.lft.to/lastmile_qr_scan", "ios": "https://dc.lft.to/lastmile_qr_scan"}, "name": "660479fd3395accd4fd3e36aebba92e0", "is_reserved": 0}, {"is_disabled": 0, "fusion_lon": 0.0, "fusion_lat": 0.0, "lat": 38.91463266666667, "type": "electric_scooter", "lon": -76.98449983333333, "bike_id": "814fee0ef0ec325036dc2fc1a0518683", "rental_uris": {"android": "https://dc.lft.to/lastmile_qr_scan", "ios": "https://dc.lft.to/lastmile_qr_scan"}, "name": "814fee0ef0ec325036dc2fc1a0518683", "is_reserved": 0}, {"is_disabled": 0, "fusion_lon": 0.0, "fusion_lat": 0.0, "lat": 38.895315833333335, "type": "electric_scooter", "lon": -77.0484785, "bike_id": "0c5cd2b47e516b4f6c36a3a09a042ab5", "rental_uris": {"android": "https://dc.lft.to/lastmile_qr_scan", "ios": "https://dc.lft.to/lastmile_qr_scan"}, "name": "0c5cd2b47e516b4f6c36a3a09a042ab5", "is_reserved": 0}, {"is_disabled": 0, "fusion_lon": 0.0, "fusion_lat": 0.0, "lat": 38.921139833333335, "type": "electric_scooter", "lon": -77.01766416666666, "bike_id": "8994d016439e13a8d285048a78c07abd", "rental_uris": {"android": "https://dc.lft.to/lastmile_qr_scan", "ios": "https://dc.lft.to/lastmile_qr_scan"}, "name": "8994d016439e13a8d285048a78c07abd", "is_reserved": 0}, {"is_disabled": 0, "fusion_lon": 0.0, "fusion_lat": 0.0, "lat": 38.93963, "type": "electric_bike", "lon": -77.36089266666667, "bike_id": "cd65dd26bca0dec98be6a8a31583bf4a", "rental_uris": {"android": "https://dc.lft.to/lastmile_qr_scan", "ios": "https://dc.lft.to/lastmile_qr_scan"}, "name": "cd65dd26bca0dec98be6a8a31583bf4a", "is_reserved": 0}, {"is_disabled": 0, "fusion_lon": 0.0, "fusion_lat": 0.0, "lat": 38.9057975, "type": "electric_scooter", "lon": -77.05589016666667, "bike_id": "b212073f5798adaf9c1fd79a901fafe4", "rental_uris": {"android": "https://dc.lft.to/lastmile_qr_scan", "ios": "https://dc.lft.to/lastmile_qr_scan"}, "name": "b212073f5798adaf9c1fd79a901fafe4", "is_reserved": 0}, {"is_disabled": 0, "fusion_lon": 0.0, "fusion_lat": 0.0, "lat": 38.92978183333334, "type": "electric_scooter", "lon": -77.027964, "bike_id": "87ed60c36edce22d177bf03535a572c5", "rental_uris": {"android": "https://dc.lft.to/lastmile_qr_scan", "ios": "https://dc.lft.to/lastmile_qr_scan"}, "name": "87ed60c36edce22d177bf03535a572c5", "is_reserved": 0}, {"is_disabled": 0, "fusion_lon": 0.0, "fusion_lat": 0.0, "lat": 38.924629833333334, "type": "electric_scooter", "lon": -77.07859716666667, "bike_id": "87128a068f862f56835930fb93055610", "rental_uris": {"android": "https://dc.lft.to/lastmile_qr_scan", "ios": "https://dc.lft.to/lastmile_qr_scan"}, "name": "87128a068f862f56835930fb93055610", "is_reserved": 0}, {"is_disabled": 0, "fusion_lon": 0.0, "fusion_lat": 0.0, "lat": 38.94079883333333, "type": "electric_scooter", "lon": -77.02906833333333, "bike_id": "0d6eeee9571e453fe56f1606076cb007", "rental_uris": {"android": "https://dc.lft.to/lastmile_qr_scan", "ios": "https://dc.lft.to/lastmile_qr_scan"}, "name": "0d6eeee9571e453fe56f1606076cb007", "is_reserved": 0}, {"is_disabled": 0, "fusion_lon": 0.0, "fusion_lat": 0.0, "lat": 38.9054665, "type": "electric_scooter", "lon": -77.05001116666666, "bike_id": "af9960a1751838467be2987983fecc0a", "rental_uris": {"android": "https://dc.lft.to/lastmile_qr_scan", "ios": "https://dc.lft.to/lastmile_qr_scan"}, "name": "af9960a1751838467be2987983fecc0a", "is_reserved": 0}, {"is_disabled": 0, "fusion_lon": 0.0, "fusion_lat": 0.0, "lat": 38.899648166666665, "type": "electric_scooter", "lon": -77.03914933333333, "bike_id": "1d3379dc73ddaf8dab604f3d4e835385", "rental_uris": {"android": "https://dc.lft.to/lastmile_qr_scan", "ios": "https://dc.lft.to/lastmile_qr_scan"}, "name": "1d3379dc73ddaf8dab604f3d4e835385", "is_reserved": 0}, {"is_disabled": 0, "fusion_lon": 0.0, "fusion_lat": 0.0, "lat": 38.9104275, "type": "electric_scooter", "lon": -77.0385195, "bike_id": "3531ca0cce2cfbf2f465a26d8836b1e6", "rental_uris": {"android": "https://dc.lft.to/lastmile_qr_scan", "ios": "https://dc.lft.to/lastmile_qr_scan"}, "name": "3531ca0cce2cfbf2f465a26d8836b1e6", "is_reserved": 0}, {"is_disabled": 0, "fusion_lon": 0.0, "fusion_lat": 0.0, "lat": 38.9101195, "type": "electric_scooter", "lon": -77.038378, "bike_id": "d3242374810d5552e2faac75051f937b", "rental_uris": {"android": "https://dc.lft.to/lastmile_qr_scan", "ios": "https://dc.lft.to/lastmile_qr_scan"}, "name": "d3242374810d5552e2faac75051f937b", "is_reserved": 0}, {"is_disabled": 0, "fusion_lon": 0.0, "fusion_lat": 0.0, "lat": 38.95632416666667, "type": "electric_scooter", "lon": -77.02456766666667, "bike_id": "d46b6173ae91042dc71712260ca7123e", "rental_uris": {"android": "https://dc.lft.to/lastmile_qr_scan", "ios": "https://dc.lft.to/lastmile_qr_scan"}, "name": "d46b6173ae91042dc71712260ca7123e", "is_reserved": 0}, {"is_disabled": 0, "fusion_lon": 0.0, "fusion_lat": 0.0, "lat": 38.86352, "type": "electric_scooter", "lon": -76.98257933333333, "bike_id": "bff5c55b8d255aa0f17c8150ff2d771b", "rental_uris": {"android": "https://dc.lft.to/lastmile_qr_scan", "ios": "https://dc.lft.to/lastmile_qr_scan"}, "name": "bff5c55b8d255aa0f17c8150ff2d771b", "is_reserved": 0}, {"is_disabled": 0, "fusion_lon": 0.0, "fusion_lat": 0.0, "lat": 38.8858335, "type": "electric_scooter", "lon": -77.01225933333333, "bike_id": "5f2b48158e0e4b1b0fb3fe7c30083356", "rental_uris": {"android": "https://dc.lft.to/lastmile_qr_scan", "ios": "https://dc.lft.to/lastmile_qr_scan"}, "name": "5f2b48158e0e4b1b0fb3fe7c30083356", "is_reserved": 0}, {"is_disabled": 0, "fusion_lon": 0.0, "fusion_lat": 0.0, "lat": 38.913155, "type": "electric_scooter", "lon": -77.03194166666667, "bike_id": "1926cba03bec5d83896d6fa48f149f38", "rental_uris": {"android": "https://dc.lft.to/lastmile_qr_scan", "ios": "https://dc.lft.to/lastmile_qr_scan"}, "name": "1926cba03bec5d83896d6fa48f149f38", "is_reserved": 0}, {"is_disabled": 0, "fusion_lon": 0.0, "fusion_lat": 0.0, "lat": 38.9285615, "type": "electric_scooter", "lon": -77.03300566666667, "bike_id": "9fa8ed3f3d9579b83e5515cf83648ea7", "rental_uris": {"android": "https://dc.lft.to/lastmile_qr_scan", "ios": "https://dc.lft.to/lastmile_qr_scan"}, "name": "9fa8ed3f3d9579b83e5515cf83648ea7", "is_reserved": 0}, {"is_disabled": 0, "fusion_lon": 0.0, "fusion_lat": 0.0, "lat": 38.92869866666667, "type": "electric_scooter", "lon": -77.03228766666666, "bike_id": "1c451847df47ca789ec6eee26825cadf", "rental_uris": {"android": "https://dc.lft.to/lastmile_qr_scan", "ios": "https://dc.lft.to/lastmile_qr_scan"}, "name": "1c451847df47ca789ec6eee26825cadf", "is_reserved": 0}, {"is_disabled": 0, "fusion_lon": 0.0, "fusion_lat": 0.0, "lat": 38.916099, "type": "electric_scooter", "lon": -77.02338916666666, "bike_id": "095d62c9ae98eaa321cc2827aa4bca77", "rental_uris": {"android": "https://dc.lft.to/lastmile_qr_scan", "ios": "https://dc.lft.to/lastmile_qr_scan"}, "name": "095d62c9ae98eaa321cc2827aa4bca77", "is_reserved": 0}, {"is_disabled": 0, "fusion_lon": 0.0, "fusion_lat": 0.0, "lat": 38.903700666666666, "type": "electric_scooter", "lon": -77.00730833333333, "bike_id": "a53eb983571d0f5406d274c61e98cf35", "rental_uris": {"android": "https://dc.lft.to/lastmile_qr_scan", "ios": "https://dc.lft.to/lastmile_qr_scan"}, "name": "a53eb983571d0f5406d274c61e98cf35", "is_reserved": 0}, {"is_disabled": 0, "fusion_lon": 0.0, "fusion_lat": 0.0, "lat": 38.916352, "type": "electric_scooter", "lon": -77.04624583333333, "bike_id": "3abc04fb4bafa77adb3a221ed7347d3d", "rental_uris": {"android": "https://dc.lft.to/lastmile_qr_scan", "ios": "https://dc.lft.to/lastmile_qr_scan"}, "name": "3abc04fb4bafa77adb3a221ed7347d3d", "is_reserved": 0}, {"is_disabled": 0, "fusion_lon": 0.0, "fusion_lat": 0.0, "lat": 38.9092605, "type": "electric_scooter", "lon": -77.032078, "bike_id": "8010f9f030b4578e7ffb32998ce13553", "rental_uris": {"android": "https://dc.lft.to/lastmile_qr_scan", "ios": "https://dc.lft.to/lastmile_qr_scan"}, "name": "8010f9f030b4578e7ffb32998ce13553", "is_reserved": 0}, {"is_disabled": 0, "fusion_lon": 0.0, "fusion_lat": 0.0, "lat": 38.91415, "type": "electric_scooter", "lon": -77.045358, "bike_id": "0b36230103211aff4c9d8f43138856e7", "rental_uris": {"android": "https://dc.lft.to/lastmile_qr_scan", "ios": "https://dc.lft.to/lastmile_qr_scan"}, "name": "0b36230103211aff4c9d8f43138856e7", "is_reserved": 0}, {"is_disabled": 0, "fusion_lon": 0.0, "fusion_lat": 0.0, "lat": 38.94985366666667, "type": "electric_scooter", "lon": -77.02699366666667, "bike_id": "76d5c8a780ac40ed56c1d0748c1d6192", "rental_uris": {"android": "https://dc.lft.to/lastmile_qr_scan", "ios": "https://dc.lft.to/lastmile_qr_scan"}, "name": "76d5c8a780ac40ed56c1d0748c1d6192", "is_reserved": 0}, {"is_disabled": 0, "fusion_lon": 0.0, "fusion_lat": 0.0, "lat": 38.9052055, "type": "electric_scooter", "lon": -77.00210033333333, "bike_id": "de66f39b5b2c7bc3b8af7ec29a11b0ab", "rental_uris": {"android": "https://dc.lft.to/lastmile_qr_scan", "ios": "https://dc.lft.to/lastmile_qr_scan"}, "name": "de66f39b5b2c7bc3b8af7ec29a11b0ab", "is_reserved": 0}, {"is_disabled": 0, "fusion_lon": 0.0, "fusion_lat": 0.0, "lat": 38.890007, "type": "electric_scooter", "lon": -77.01503316666667, "bike_id": "6dd3599ecbb4df8e26b8ff0342bc3ed7", "rental_uris": {"android": "https://dc.lft.to/lastmile_qr_scan", "ios": "https://dc.lft.to/lastmile_qr_scan"}, "name": "6dd3599ecbb4df8e26b8ff0342bc3ed7", "is_reserved": 0}, {"is_disabled": 0, "fusion_lon": 0.0, "fusion_lat": 0.0, "lat": 38.8922105, "type": "electric_scooter", "lon": -77.0225975, "bike_id": "046ff879cb6cbf29dac2b525b7a35e93", "rental_uris": {"android": "https://dc.lft.to/lastmile_qr_scan", "ios": "https://dc.lft.to/lastmile_qr_scan"}, "name": "046ff879cb6cbf29dac2b525b7a35e93", "is_reserved": 0}, {"is_disabled": 0, "fusion_lon": 0.0, "fusion_lat": 0.0, "lat": 38.91037583333333, "type": "electric_scooter", "lon": -77.01371433333334, "bike_id": "212934ac27d005dcd5a820258f488a6c", "rental_uris": {"android": "https://dc.lft.to/lastmile_qr_scan", "ios": "https://dc.lft.to/lastmile_qr_scan"}, "name": "212934ac27d005dcd5a820258f488a6c", "is_reserved": 0}, {"is_disabled": 0, "fusion_lon": 0.0, "fusion_lat": 0.0, "lat": 38.919194, "type": "electric_scooter", "lon": -77.03022566666667, "bike_id": "148b0cd594831deadd90125ba9b2e8cc", "rental_uris": {"android": "https://dc.lft.to/lastmile_qr_scan", "ios": "https://dc.lft.to/lastmile_qr_scan"}, "name": "148b0cd594831deadd90125ba9b2e8cc", "is_reserved": 0}, {"is_disabled": 0, "fusion_lon": 0.0, "fusion_lat": 0.0, "lat": 38.935092, "type": "electric_bike", "lon": -76.949509, "bike_id": "fcc4913535bf254fe3043af1a31402e5", "rental_uris": {"android": "https://dc.lft.to/lastmile_qr_scan", "ios": "https://dc.lft.to/lastmile_qr_scan"}, "name": "fcc4913535bf254fe3043af1a31402e5", "is_reserved": 0}, {"is_disabled": 0, "fusion_lon": 0.0, "fusion_lat": 0.0, "lat": 38.886322666666665, "type": "electric_scooter", "lon": -76.99850783333333, "bike_id": "e739b9e02fddc362cc87b7b162a958aa", "rental_uris": {"android": "https://dc.lft.to/lastmile_qr_scan", "ios": "https://dc.lft.to/lastmile_qr_scan"}, "name": "e739b9e02fddc362cc87b7b162a958aa", "is_reserved": 0}, {"is_disabled": 0, "fusion_lon": 0.0, "fusion_lat": 0.0, "lat": 38.90306133333333, "type": "electric_scooter", "lon": -77.02218933333333, "bike_id": "e105cc4e97677e970986a199648df63b", "rental_uris": {"android": "https://dc.lft.to/lastmile_qr_scan", "ios": "https://dc.lft.to/lastmile_qr_scan"}, "name": "e105cc4e97677e970986a199648df63b", "is_reserved": 0}, {"is_disabled": 0, "fusion_lon": 0.0, "fusion_lat": 0.0, "lat": 38.838118333333334, "type": "electric_scooter", "lon": -77.00432466666666, "bike_id": "8d28f9b1703f396d1c769081b57c14b0", "rental_uris": {"android": "https://dc.lft.to/lastmile_qr_scan", "ios": "https://dc.lft.to/lastmile_qr_scan"}, "name": "8d28f9b1703f396d1c769081b57c14b0", "is_reserved": 0}, {"is_disabled": 0, "fusion_lon": 0.0, "fusion_lat": 0.0, "lat": 38.91920283333333, "type": "electric_scooter", "lon": -77.04178583333334, "bike_id": "1988744c3a0f7de4b7fc84aa634ab2f0", "rental_uris": {"android": "https://dc.lft.to/lastmile_qr_scan", "ios": "https://dc.lft.to/lastmile_qr_scan"}, "name": "1988744c3a0f7de4b7fc84aa634ab2f0", "is_reserved": 0}, {"is_disabled": 0, "fusion_lon": 0.0, "fusion_lat": 0.0, "lat": 38.8429775, "type": "electric_scooter", "lon": -76.99945933333333, "bike_id": "57ab675bd9515bcdb5e3808f1f71b822", "rental_uris": {"android": "https://dc.lft.to/lastmile_qr_scan", "ios": "https://dc.lft.to/lastmile_qr_scan"}, "name": "57ab675bd9515bcdb5e3808f1f71b822", "is_reserved": 0}, {"is_disabled": 0, "fusion_lon": 0.0, "fusion_lat": 0.0, "lat": 38.90247083333333, "type": "electric_scooter", "lon": -77.05346433333334, "bike_id": "fd1dcf15ae6657faeafe793c4736824a", "rental_uris": {"android": "https://dc.lft.to/lastmile_qr_scan", "ios": "https://dc.lft.to/lastmile_qr_scan"}, "name": "fd1dcf15ae6657faeafe793c4736824a", "is_reserved": 0}, {"is_disabled": 0, "fusion_lon": 0.0, "fusion_lat": 0.0, "lat": 38.89752933333333, "type": "electric_scooter", "lon": -77.0282885, "bike_id": "7475c02fd3332859bc759a539b633495", "rental_uris": {"android": "https://dc.lft.to/lastmile_qr_scan", "ios": "https://dc.lft.to/lastmile_qr_scan"}, "name": "7475c02fd3332859bc759a539b633495", "is_reserved": 0}, {"is_disabled": 0, "fusion_lon": 0.0, "fusion_lat": 0.0, "lat": 38.9072355, "type": "electric_scooter", "lon": -77.02977233333333, "bike_id": "130c6720fe7aa314b560661e404eaf61", "rental_uris": {"android": "https://dc.lft.to/lastmile_qr_scan", "ios": "https://dc.lft.to/lastmile_qr_scan"}, "name": "130c6720fe7aa314b560661e404eaf61", "is_reserved": 0}, {"is_disabled": 0, "fusion_lon": 0.0, "fusion_lat": 0.0, "lat": 39.09946733333334, "type": "electric_bike", "lon": -77.18790933333334, "bike_id": "9b24c52ec142af8f029120e36eb593f4", "rental_uris": {"android": "https://dc.lft.to/lastmile_qr_scan", "ios": "https://dc.lft.to/lastmile_qr_scan"}, "name": "9b24c52ec142af8f029120e36eb593f4", "is_reserved": 0}, {"is_disabled": 0, "fusion_lon": 0.0, "fusion_lat": 0.0, "lat": 38.88618016666667, "type": "electric_scooter", "lon": -76.99502683333333, "bike_id": "8c5a86d49e1c53fd1263d4c878c2cacc", "rental_uris": {"android": "https://dc.lft.to/lastmile_qr_scan", "ios": "https://dc.lft.to/lastmile_qr_scan"}, "name": "8c5a86d49e1c53fd1263d4c878c2cacc", "is_reserved": 0}, {"is_disabled": 0, "fusion_lon": 0.0, "fusion_lat": 0.0, "lat": 38.91781816666666, "type": "electric_scooter", "lon": -77.04305216666667, "bike_id": "867f349417ddca09a5d414cf3a160124", "rental_uris": {"android": "https://dc.lft.to/lastmile_qr_scan", "ios": "https://dc.lft.to/lastmile_qr_scan"}, "name": "867f349417ddca09a5d414cf3a160124", "is_reserved": 0}, {"is_disabled": 0, "fusion_lon": 0.0, "fusion_lat": 0.0, "lat": 38.908567, "type": "electric_scooter", "lon": -77.06082533333333, "bike_id": "0190ba44726ef17fda99416e0fb0a14f", "rental_uris": {"android": "https://dc.lft.to/lastmile_qr_scan", "ios": "https://dc.lft.to/lastmile_qr_scan"}, "name": "0190ba44726ef17fda99416e0fb0a14f", "is_reserved": 0}, {"is_disabled": 0, "fusion_lon": 0.0, "fusion_lat": 0.0, "lat": 38.9030875, "type": "electric_scooter", "lon": -77.03857083333334, "bike_id": "5dd5ca58221fd8d3c83e2517e064bca3", "rental_uris": {"android": "https://dc.lft.to/lastmile_qr_scan", "ios": "https://dc.lft.to/lastmile_qr_scan"}, "name": "5dd5ca58221fd8d3c83e2517e064bca3", "is_reserved": 0}, {"is_disabled": 0, "fusion_lon": 0.0, "fusion_lat": 0.0, "lat": 38.866072333333335, "type": "electric_scooter", "lon": -77.01073016666666, "bike_id": "16658bc104297f410744e1d494c651e0", "rental_uris": {"android": "https://dc.lft.to/lastmile_qr_scan", "ios": "https://dc.lft.to/lastmile_qr_scan"}, "name": "16658bc104297f410744e1d494c651e0", "is_reserved": 0}, {"is_disabled": 0, "fusion_lon": 0.0, "fusion_lat": 0.0, "lat": 38.89658033333333, "type": "electric_scooter", "lon": -77.02731466666667, "bike_id": "f3395dd70b633749fb37757598bf29ec", "rental_uris": {"android": "https://dc.lft.to/lastmile_qr_scan", "ios": "https://dc.lft.to/lastmile_qr_scan"}, "name": "f3395dd70b633749fb37757598bf29ec", "is_reserved": 0}, {"is_disabled": 0, "fusion_lon": 0.0, "fusion_lat": 0.0, "lat": 38.93638883333333, "type": "electric_scooter", "lon": -77.026952, "bike_id": "fbe9709a3dde7af87248ed37f403f23b", "rental_uris": {"android": "https://dc.lft.to/lastmile_qr_scan", "ios": "https://dc.lft.to/lastmile_qr_scan"}, "name": "fbe9709a3dde7af87248ed37f403f23b", "is_reserved": 0}, {"is_disabled": 0, "fusion_lon": 0.0, "fusion_lat": 0.0, "lat": 38.8922655, "type": "electric_scooter", "lon": -77.03183683333333, "bike_id": "31cba46cecc59ec478fa6e7f90abef37", "rental_uris": {"android": "https://dc.lft.to/lastmile_qr_scan", "ios": "https://dc.lft.to/lastmile_qr_scan"}, "name": "31cba46cecc59ec478fa6e7f90abef37", "is_reserved": 0}, {"is_disabled": 0, "fusion_lon": 0.0, "fusion_lat": 0.0, "lat": 38.897606, "type": "electric_scooter", "lon": -77.05146233333333, "bike_id": "be9d9c74d95f857e53ee62e5e876920f", "rental_uris": {"android": "https://dc.lft.to/lastmile_qr_scan", "ios": "https://dc.lft.to/lastmile_qr_scan"}, "name": "be9d9c74d95f857e53ee62e5e876920f", "is_reserved": 0}, {"is_disabled": 0, "fusion_lon": 0.0, "fusion_lat": 0.0, "lat": 38.9353225, "type": "electric_scooter", "lon": -77.06632533333334, "bike_id": "f8605e1e34402e810684c64c821ea0ba", "rental_uris": {"android": "https://dc.lft.to/lastmile_qr_scan", "ios": "https://dc.lft.to/lastmile_qr_scan"}, "name": "f8605e1e34402e810684c64c821ea0ba", "is_reserved": 0}, {"is_disabled": 0, "fusion_lon": 0.0, "fusion_lat": 0.0, "lat": 38.930818333333335, "type": "electric_scooter", "lon": -77.0362855, "bike_id": "0272983056974c452a1aee97840eae34", "rental_uris": {"android": "https://dc.lft.to/lastmile_qr_scan", "ios": "https://dc.lft.to/lastmile_qr_scan"}, "name": "0272983056974c452a1aee97840eae34", "is_reserved": 0}, {"is_disabled": 0, "fusion_lon": 0.0, "fusion_lat": 0.0, "lat": 38.89818916666667, "type": "electric_scooter", "lon": -77.02644416666666, "bike_id": "e985a222e867dc135ef15d6b343b2715", "rental_uris": {"android": "https://dc.lft.to/lastmile_qr_scan", "ios": "https://dc.lft.to/lastmile_qr_scan"}, "name": "e985a222e867dc135ef15d6b343b2715", "is_reserved": 0}, {"is_disabled": 0, "fusion_lon": 0.0, "fusion_lat": 0.0, "lat": 38.917156, "type": "electric_scooter", "lon": -77.03673483333333, "bike_id": "7f82f6204843f3717c583bfaa4e7a10c", "rental_uris": {"android": "https://dc.lft.to/lastmile_qr_scan", "ios": "https://dc.lft.to/lastmile_qr_scan"}, "name": "7f82f6204843f3717c583bfaa4e7a10c", "is_reserved": 0}, {"is_disabled": 0, "fusion_lon": 0.0, "fusion_lat": 0.0, "lat": 38.9462155, "type": "electric_scooter", "lon": -77.0362515, "bike_id": "97c0fb3715fc1a51e347ee9e75a4340e", "rental_uris": {"android": "https://dc.lft.to/lastmile_qr_scan", "ios": "https://dc.lft.to/lastmile_qr_scan"}, "name": "97c0fb3715fc1a51e347ee9e75a4340e", "is_reserved": 0}, {"is_disabled": 0, "fusion_lon": 0.0, "fusion_lat": 0.0, "lat": 38.920225, "type": "electric_scooter", "lon": -77.031307, "bike_id": "02c4beeb48190aef48800d929d694803", "rental_uris": {"android": "https://dc.lft.to/lastmile_qr_scan", "ios": "https://dc.lft.to/lastmile_qr_scan"}, "name": "02c4beeb48190aef48800d929d694803", "is_reserved": 0}, {"is_disabled": 0, "fusion_lon": 0.0, "fusion_lat": 0.0, "lat": 38.912661, "type": "electric_scooter", "lon": -77.03366183333333, "bike_id": "4375f0d770489b31d00b19e2d17d647c", "rental_uris": {"android": "https://dc.lft.to/lastmile_qr_scan", "ios": "https://dc.lft.to/lastmile_qr_scan"}, "name": "4375f0d770489b31d00b19e2d17d647c", "is_reserved": 0}, {"is_disabled": 0, "fusion_lon": 0.0, "fusion_lat": 0.0, "lat": 38.929679, "type": "electric_scooter", "lon": -77.04197816666667, "bike_id": "007258710e38a169358421c0024d8667", "rental_uris": {"android": "https://dc.lft.to/lastmile_qr_scan", "ios": "https://dc.lft.to/lastmile_qr_scan"}, "name": "007258710e38a169358421c0024d8667", "is_reserved": 0}, {"is_disabled": 0, "fusion_lon": 0.0, "fusion_lat": 0.0, "lat": 38.95176266666667, "type": "electric_scooter", "lon": -77.03332683333333, "bike_id": "d830f9b0264c915be5123746e7bca37c", "rental_uris": {"android": "https://dc.lft.to/lastmile_qr_scan", "ios": "https://dc.lft.to/lastmile_qr_scan"}, "name": "d830f9b0264c915be5123746e7bca37c", "is_reserved": 0}, {"is_disabled": 0, "fusion_lon": 0.0, "fusion_lat": 0.0, "lat": 38.9032385, "type": "electric_scooter", "lon": -77.021283, "bike_id": "ec17d6252887736fe788cb091f619b46", "rental_uris": {"android": "https://dc.lft.to/lastmile_qr_scan", "ios": "https://dc.lft.to/lastmile_qr_scan"}, "name": "ec17d6252887736fe788cb091f619b46", "is_reserved": 0}, {"is_disabled": 0, "fusion_lon": 0.0, "fusion_lat": 0.0, "lat": 38.966295, "type": "electric_scooter", "lon": -77.03525166666667, "bike_id": "660df67434302a889d174d8bf423c942", "rental_uris": {"android": "https://dc.lft.to/lastmile_qr_scan", "ios": "https://dc.lft.to/lastmile_qr_scan"}, "name": "660df67434302a889d174d8bf423c942", "is_reserved": 0}, {"is_disabled": 0, "fusion_lon": 0.0, "fusion_lat": 0.0, "lat": 38.88015033333333, "type": "electric_bike", "lon": -76.91594833333333, "bike_id": "725f505d9ade2ed2d4579d6e7688355c", "rental_uris": {"android": "https://dc.lft.to/lastmile_qr_scan", "ios": "https://dc.lft.to/lastmile_qr_scan"}, "name": "725f505d9ade2ed2d4579d6e7688355c", "is_reserved": 0}, {"is_disabled": 0, "fusion_lon": 0.0, "fusion_lat": 0.0, "lat": 38.88594833333333, "type": "electric_scooter", "lon": -77.0058135, "bike_id": "a5b1e74ae0656c4bde8cc90a5acadae8", "rental_uris": {"android": "https://dc.lft.to/lastmile_qr_scan", "ios": "https://dc.lft.to/lastmile_qr_scan"}, "name": "a5b1e74ae0656c4bde8cc90a5acadae8", "is_reserved": 0}, {"is_disabled": 0, "fusion_lon": 0.0, "fusion_lat": 0.0, "lat": 38.923922166666664, "type": "electric_scooter", "lon": -77.04089433333333, "bike_id": "26bcb4bd0b4d4f9664f5e902b7bec636", "rental_uris": {"android": "https://dc.lft.to/lastmile_qr_scan", "ios": "https://dc.lft.to/lastmile_qr_scan"}, "name": "26bcb4bd0b4d4f9664f5e902b7bec636", "is_reserved": 0}, {"is_disabled": 0, "fusion_lon": 0.0, "fusion_lat": 0.0, "lat": 38.9123695, "type": "electric_scooter", "lon": -77.04522566666667, "bike_id": "5bd72e5190a8bc065699882a76aa5246", "rental_uris": {"android": "https://dc.lft.to/lastmile_qr_scan", "ios": "https://dc.lft.to/lastmile_qr_scan"}, "name": "5bd72e5190a8bc065699882a76aa5246", "is_reserved": 0}, {"is_disabled": 0, "fusion_lon": 0.0, "fusion_lat": 0.0, "lat": 38.86896766666667, "type": "electric_scooter", "lon": -76.98314016666667, "bike_id": "4bab576ed52c65d7afae6ae435b3c857", "rental_uris": {"android": "https://dc.lft.to/lastmile_qr_scan", "ios": "https://dc.lft.to/lastmile_qr_scan"}, "name": "4bab576ed52c65d7afae6ae435b3c857", "is_reserved": 0}, {"is_disabled": 0, "fusion_lon": 0.0, "fusion_lat": 0.0, "lat": 38.85990683333333, "type": "electric_bike", "lon": -76.97053133333333, "bike_id": "5dbe5df705e95e3e5b3ae0abd1c9c298", "rental_uris": {"android": "https://dc.lft.to/lastmile_qr_scan", "ios": "https://dc.lft.to/lastmile_qr_scan"}, "name": "5dbe5df705e95e3e5b3ae0abd1c9c298", "is_reserved": 0}, {"is_disabled": 0, "fusion_lon": 0.0, "fusion_lat": 0.0, "lat": 38.914695333333334, "type": "electric_scooter", "lon": -77.02798533333333, "bike_id": "3977c7360589800c2961e66af0a02ff4", "rental_uris": {"android": "https://dc.lft.to/lastmile_qr_scan", "ios": "https://dc.lft.to/lastmile_qr_scan"}, "name": "3977c7360589800c2961e66af0a02ff4", "is_reserved": 0}, {"is_disabled": 0, "fusion_lon": 0.0, "fusion_lat": 0.0, "lat": 38.902237166666666, "type": "electric_scooter", "lon": -77.0243825, "bike_id": "1de8f11598d7242c63c966ca6653e2e4", "rental_uris": {"android": "https://dc.lft.to/lastmile_qr_scan", "ios": "https://dc.lft.to/lastmile_qr_scan"}, "name": "1de8f11598d7242c63c966ca6653e2e4", "is_reserved": 0}, {"is_disabled": 0, "fusion_lon": 0.0, "fusion_lat": 0.0, "lat": 38.994558833333336, "type": "electric_bike", "lon": -76.90815333333333, "bike_id": "3c39bb44764b7bac574526c61eb074d7", "rental_uris": {"android": "https://dc.lft.to/lastmile_qr_scan", "ios": "https://dc.lft.to/lastmile_qr_scan"}, "name": "3c39bb44764b7bac574526c61eb074d7", "is_reserved": 0}, {"is_disabled": 0, "fusion_lon": 0.0, "fusion_lat": 0.0, "lat": 39.0581435, "type": "electric_bike", "lon": -77.12623616666667, "bike_id": "d8bc4f9406c7e31c7318063fca45af32", "rental_uris": {"android": "https://dc.lft.to/lastmile_qr_scan", "ios": "https://dc.lft.to/lastmile_qr_scan"}, "name": "d8bc4f9406c7e31c7318063fca45af32", "is_reserved": 0}, {"is_disabled": 0, "fusion_lon": 0.0, "fusion_lat": 0.0, "lat": 38.903720666666665, "type": "electric_scooter", "lon": -77.00746583333333, "bike_id": "bb77ef019b3273ee7b27a9b6ca11006c", "rental_uris": {"android": "https://dc.lft.to/lastmile_qr_scan", "ios": "https://dc.lft.to/lastmile_qr_scan"}, "name": "bb77ef019b3273ee7b27a9b6ca11006c", "is_reserved": 0}, {"is_disabled": 0, "fusion_lon": 0.0, "fusion_lat": 0.0, "lat": 38.957103833333335, "type": "electric_scooter", "lon": -77.02402166666667, "bike_id": "d8c8c143d937717521eeb43debbbf351", "rental_uris": {"android": "https://dc.lft.to/lastmile_qr_scan", "ios": "https://dc.lft.to/lastmile_qr_scan"}, "name": "d8c8c143d937717521eeb43debbbf351", "is_reserved": 0}, {"is_disabled": 0, "fusion_lon": 0.0, "fusion_lat": 0.0, "lat": 38.909773666666666, "type": "electric_scooter", "lon": -77.037416, "bike_id": "6b22097c9e0a4632d732f47f521c7c59", "rental_uris": {"android": "https://dc.lft.to/lastmile_qr_scan", "ios": "https://dc.lft.to/lastmile_qr_scan"}, "name": "6b22097c9e0a4632d732f47f521c7c59", "is_reserved": 0}, {"is_disabled": 0, "fusion_lon": 0.0, "fusion_lat": 0.0, "lat": 38.9057895, "type": "electric_scooter", "lon": -77.00281783333334, "bike_id": "fcaaa6126cd6defb0a4413d405354f86", "rental_uris": {"android": "https://dc.lft.to/lastmile_qr_scan", "ios": "https://dc.lft.to/lastmile_qr_scan"}, "name": "fcaaa6126cd6defb0a4413d405354f86", "is_reserved": 0}, {"is_disabled": 0, "fusion_lon": 0.0, "fusion_lat": 0.0, "lat": 38.929716, "type": "electric_scooter", "lon": -77.00536466666667, "bike_id": "f01d26b88e4b22dcd1624f616def35e1", "rental_uris": {"android": "https://dc.lft.to/lastmile_qr_scan", "ios": "https://dc.lft.to/lastmile_qr_scan"}, "name": "f01d26b88e4b22dcd1624f616def35e1", "is_reserved": 0}, {"is_disabled": 0, "fusion_lon": 0.0, "fusion_lat": 0.0, "lat": 38.90758916666667, "type": "electric_scooter", "lon": -77.03584666666667, "bike_id": "b89afc7c90609117c6fdcd3e502adc78", "rental_uris": {"android": "https://dc.lft.to/lastmile_qr_scan", "ios": "https://dc.lft.to/lastmile_qr_scan"}, "name": "b89afc7c90609117c6fdcd3e502adc78", "is_reserved": 0}, {"is_disabled": 0, "fusion_lon": 0.0, "fusion_lat": 0.0, "lat": 38.94152883333334, "type": "electric_bike", "lon": -77.001973, "bike_id": "9ed84d7daf882b58368947c7f86409c7", "rental_uris": {"android": "https://dc.lft.to/lastmile_qr_scan", "ios": "https://dc.lft.to/lastmile_qr_scan"}, "name": "9ed84d7daf882b58368947c7f86409c7", "is_reserved": 0}, {"is_disabled": 0, "fusion_lon": 0.0, "fusion_lat": 0.0, "lat": 38.8983385, "type": "electric_bike", "lon": -77.02494416666667, "bike_id": "f18bcb1f59e9105fdba087f4698d7582", "rental_uris": {"android": "https://dc.lft.to/lastmile_qr_scan", "ios": "https://dc.lft.to/lastmile_qr_scan"}, "name": "f18bcb1f59e9105fdba087f4698d7582", "is_reserved": 0}, {"is_disabled": 0, "fusion_lon": 0.0, "fusion_lat": 0.0, "lat": 38.90381283333333, "type": "electric_scooter", "lon": -77.04496916666666, "bike_id": "80c79dae1a6e65bfdcf8eb5e3a8a0567", "rental_uris": {"android": "https://dc.lft.to/lastmile_qr_scan", "ios": "https://dc.lft.to/lastmile_qr_scan"}, "name": "80c79dae1a6e65bfdcf8eb5e3a8a0567", "is_reserved": 0}, {"is_disabled": 0, "fusion_lon": 0.0, "fusion_lat": 0.0, "lat": 38.92299116666667, "type": "electric_scooter", "lon": -77.04030166666666, "bike_id": "fab3cede531adde47ce3ef0f8198ba41", "rental_uris": {"android": "https://dc.lft.to/lastmile_qr_scan", "ios": "https://dc.lft.to/lastmile_qr_scan"}, "name": "fab3cede531adde47ce3ef0f8198ba41", "is_reserved": 0}, {"is_disabled": 0, "fusion_lon": 0.0, "fusion_lat": 0.0, "lat": 38.876799166666665, "type": "electric_bike", "lon": -77.01450216666667, "bike_id": "9488241ccb05954fccd25b880ac9ac76", "rental_uris": {"android": "https://dc.lft.to/lastmile_qr_scan", "ios": "https://dc.lft.to/lastmile_qr_scan"}, "name": "9488241ccb05954fccd25b880ac9ac76", "is_reserved": 0}, {"is_disabled": 0, "fusion_lon": 0.0, "fusion_lat": 0.0, "lat": 38.988287666666665, "type": "electric_bike", "lon": -76.98753316666667, "bike_id": "a9d2b086c1995fa5440dadc149b294cf", "rental_uris": {"android": "https://dc.lft.to/lastmile_qr_scan", "ios": "https://dc.lft.to/lastmile_qr_scan"}, "name": "a9d2b086c1995fa5440dadc149b294cf", "is_reserved": 0}, {"is_disabled": 0, "fusion_lon": 0.0, "fusion_lat": 0.0, "lat": 38.889934333333336, "type": "electric_scooter", "lon": -76.99512966666667, "bike_id": "326e3e1629784e53a0ceb93da7e0ff8a", "rental_uris": {"android": "https://dc.lft.to/lastmile_qr_scan", "ios": "https://dc.lft.to/lastmile_qr_scan"}, "name": "326e3e1629784e53a0ceb93da7e0ff8a", "is_reserved": 0}, {"is_disabled": 0, "fusion_lon": 0.0, "fusion_lat": 0.0, "lat": 38.915472, "type": "electric_scooter", "lon": -77.03206466666667, "bike_id": "72e5e73664f6729ec12908bd77396451", "rental_uris": {"android": "https://dc.lft.to/lastmile_qr_scan", "ios": "https://dc.lft.to/lastmile_qr_scan"}, "name": "72e5e73664f6729ec12908bd77396451", "is_reserved": 0}, {"is_disabled": 0, "fusion_lon": 0.0, "fusion_lat": 0.0, "lat": 38.920364166666666, "type": "electric_scooter", "lon": -77.02586516666666, "bike_id": "75509aab25ed3cb98bf2685e598ddc45", "rental_uris": {"android": "https://dc.lft.to/lastmile_qr_scan", "ios": "https://dc.lft.to/lastmile_qr_scan"}, "name": "75509aab25ed3cb98bf2685e598ddc45", "is_reserved": 0}, {"is_disabled": 0, "fusion_lon": 0.0, "fusion_lat": 0.0, "lat": 38.9249325, "type": "electric_scooter", "lon": -77.026973, "bike_id": "b2a3b7163d14a6ffce06b49f50ac47ac", "rental_uris": {"android": "https://dc.lft.to/lastmile_qr_scan", "ios": "https://dc.lft.to/lastmile_qr_scan"}, "name": "b2a3b7163d14a6ffce06b49f50ac47ac", "is_reserved": 0}, {"is_disabled": 0, "fusion_lon": 0.0, "fusion_lat": 0.0, "lat": 38.8953465, "type": "electric_scooter", "lon": -77.02838, "bike_id": "6815caa0f0dc87d71c56ba252827c986", "rental_uris": {"android": "https://dc.lft.to/lastmile_qr_scan", "ios": "https://dc.lft.to/lastmile_qr_scan"}, "name": "6815caa0f0dc87d71c56ba252827c986", "is_reserved": 0}, {"is_disabled": 0, "fusion_lon": 0.0, "fusion_lat": 0.0, "lat": 38.952159333333334, "type": "electric_scooter", "lon": -77.03631733333333, "bike_id": "babd8e0650c8e8410e93dbc5fddc13f6", "rental_uris": {"android": "https://dc.lft.to/lastmile_qr_scan", "ios": "https://dc.lft.to/lastmile_qr_scan"}, "name": "babd8e0650c8e8410e93dbc5fddc13f6", "is_reserved": 0}, {"is_disabled": 0, "fusion_lon": 0.0, "fusion_lat": 0.0, "lat": 38.8851635, "type": "electric_scooter", "lon": -76.99852, "bike_id": "74cbdbe946be03f8c99f5651151de0b8", "rental_uris": {"android": "https://dc.lft.to/lastmile_qr_scan", "ios": "https://dc.lft.to/lastmile_qr_scan"}, "name": "74cbdbe946be03f8c99f5651151de0b8", "is_reserved": 0}, {"is_disabled": 0, "fusion_lon": 0.0, "fusion_lat": 0.0, "lat": 38.92658216666667, "type": "electric_scooter", "lon": -77.022756, "bike_id": "825266fb654903494dcf84111c1fa977", "rental_uris": {"android": "https://dc.lft.to/lastmile_qr_scan", "ios": "https://dc.lft.to/lastmile_qr_scan"}, "name": "825266fb654903494dcf84111c1fa977", "is_reserved": 0}, {"is_disabled": 0, "fusion_lon": 0.0, "fusion_lat": 0.0, "lat": 38.9336015, "type": "electric_scooter", "lon": -77.07373683333333, "bike_id": "e05e685faab1b9c1aa0288fe7a202d28", "rental_uris": {"android": "https://dc.lft.to/lastmile_qr_scan", "ios": "https://dc.lft.to/lastmile_qr_scan"}, "name": "e05e685faab1b9c1aa0288fe7a202d28", "is_reserved": 0}, {"is_disabled": 0, "fusion_lon": 0.0, "fusion_lat": 0.0, "lat": 38.9036155, "type": "electric_scooter", "lon": -77.01117533333333, "bike_id": "db276eba07a39821f836cd96124d7c96", "rental_uris": {"android": "https://dc.lft.to/lastmile_qr_scan", "ios": "https://dc.lft.to/lastmile_qr_scan"}, "name": "db276eba07a39821f836cd96124d7c96", "is_reserved": 0}, {"is_disabled": 0, "fusion_lon": 0.0, "fusion_lat": 0.0, "lat": 38.996750166666665, "type": "electric_bike", "lon": -76.99142516666667, "bike_id": "1837d6aa318ee3cd94cc13fb3f6a6d25", "rental_uris": {"android": "https://dc.lft.to/lastmile_qr_scan", "ios": "https://dc.lft.to/lastmile_qr_scan"}, "name": "1837d6aa318ee3cd94cc13fb3f6a6d25", "is_reserved": 0}, {"is_disabled": 0, "fusion_lon": 0.0, "fusion_lat": 0.0, "lat": 38.87584666666667, "type": "electric_scooter", "lon": -77.02072316666667, "bike_id": "c2b491e6cf01203110eefcb8349327a6", "rental_uris": {"android": "https://dc.lft.to/lastmile_qr_scan", "ios": "https://dc.lft.to/lastmile_qr_scan"}, "name": "c2b491e6cf01203110eefcb8349327a6", "is_reserved": 0}, {"is_disabled": 0, "fusion_lon": 0.0, "fusion_lat": 0.0, "lat": 38.94456683333333, "type": "electric_scooter", "lon": -77.06030366666667, "bike_id": "a53804b879f0b08b51dcc192771a8acc", "rental_uris": {"android": "https://dc.lft.to/lastmile_qr_scan", "ios": "https://dc.lft.to/lastmile_qr_scan"}, "name": "a53804b879f0b08b51dcc192771a8acc", "is_reserved": 0}, {"is_disabled": 0, "fusion_lon": 0.0, "fusion_lat": 0.0, "lat": 38.9262645, "type": "electric_scooter", "lon": -77.04186266666666, "bike_id": "4fed8c284d69e5869044b2bd0d03f03c", "rental_uris": {"android": "https://dc.lft.to/lastmile_qr_scan", "ios": "https://dc.lft.to/lastmile_qr_scan"}, "name": "4fed8c284d69e5869044b2bd0d03f03c", "is_reserved": 0}, {"is_disabled": 0, "fusion_lon": 0.0, "fusion_lat": 0.0, "lat": 38.927290166666666, "type": "electric_scooter", "lon": -77.01595666666667, "bike_id": "393ef6bfe447345c3e2ddcc341ac4b29", "rental_uris": {"android": "https://dc.lft.to/lastmile_qr_scan", "ios": "https://dc.lft.to/lastmile_qr_scan"}, "name": "393ef6bfe447345c3e2ddcc341ac4b29", "is_reserved": 0}, {"is_disabled": 0, "fusion_lon": 0.0, "fusion_lat": 0.0, "lat": 38.9018065, "type": "electric_scooter", "lon": -77.04776516666666, "bike_id": "2fa7f82921f4180642688dc1d6e222af", "rental_uris": {"android": "https://dc.lft.to/lastmile_qr_scan", "ios": "https://dc.lft.to/lastmile_qr_scan"}, "name": "2fa7f82921f4180642688dc1d6e222af", "is_reserved": 0}, {"is_disabled": 0, "fusion_lon": 0.0, "fusion_lat": 0.0, "lat": 38.9197825, "type": "electric_scooter", "lon": -77.04176933333333, "bike_id": "5e1cb6edbecbe6d53fe5e4a9c18f509b", "rental_uris": {"android": "https://dc.lft.to/lastmile_qr_scan", "ios": "https://dc.lft.to/lastmile_qr_scan"}, "name": "5e1cb6edbecbe6d53fe5e4a9c18f509b", "is_reserved": 0}, {"is_disabled": 0, "fusion_lon": 0.0, "fusion_lat": 0.0, "lat": 38.956134, "type": "electric_scooter", "lon": -77.027615, "bike_id": "98f85dc5520bab682530e375c313c17e", "rental_uris": {"android": "https://dc.lft.to/lastmile_qr_scan", "ios": "https://dc.lft.to/lastmile_qr_scan"}, "name": "98f85dc5520bab682530e375c313c17e", "is_reserved": 0}, {"is_disabled": 0, "fusion_lon": 0.0, "fusion_lat": 0.0, "lat": 38.918137, "type": "electric_scooter", "lon": -77.04629016666667, "bike_id": "b725304c50b50d261a29fa43746c0e2a", "rental_uris": {"android": "https://dc.lft.to/lastmile_qr_scan", "ios": "https://dc.lft.to/lastmile_qr_scan"}, "name": "b725304c50b50d261a29fa43746c0e2a", "is_reserved": 0}, {"is_disabled": 0, "fusion_lon": 0.0, "fusion_lat": 0.0, "lat": 38.900409, "type": "electric_scooter", "lon": -77.03390816666666, "bike_id": "f67f31bc0753acf73a4cfd65b13e9d06", "rental_uris": {"android": "https://dc.lft.to/lastmile_qr_scan", "ios": "https://dc.lft.to/lastmile_qr_scan"}, "name": "f67f31bc0753acf73a4cfd65b13e9d06", "is_reserved": 0}, {"is_disabled": 0, "fusion_lon": 0.0, "fusion_lat": 0.0, "lat": 38.9244265, "type": "electric_bike", "lon": -76.90753633333334, "bike_id": "d4b5480da78b84137322af42bc79aeef", "rental_uris": {"android": "https://dc.lft.to/lastmile_qr_scan", "ios": "https://dc.lft.to/lastmile_qr_scan"}, "name": "d4b5480da78b84137322af42bc79aeef", "is_reserved": 0}, {"is_disabled": 0, "fusion_lon": 0.0, "fusion_lat": 0.0, "lat": 38.889185, "type": "electric_scooter", "lon": -76.98006816666667, "bike_id": "b982a09c56bebe7c4f9c97958690d11a", "rental_uris": {"android": "https://dc.lft.to/lastmile_qr_scan", "ios": "https://dc.lft.to/lastmile_qr_scan"}, "name": "b982a09c56bebe7c4f9c97958690d11a", "is_reserved": 0}, {"is_disabled": 0, "fusion_lon": 0.0, "fusion_lat": 0.0, "lat": 38.91708533333333, "type": "electric_scooter", "lon": -77.026174, "bike_id": "c65e82df2033dc609cd1df0e6edbad22", "rental_uris": {"android": "https://dc.lft.to/lastmile_qr_scan", "ios": "https://dc.lft.to/lastmile_qr_scan"}, "name": "c65e82df2033dc609cd1df0e6edbad22", "is_reserved": 0}, {"is_disabled": 0, "fusion_lon": 0.0, "fusion_lat": 0.0, "lat": 38.908091666666664, "type": "electric_scooter", "lon": -77.00136483333333, "bike_id": "3a160fe75df7f8eee8469eb3703f62f5", "rental_uris": {"android": "https://dc.lft.to/lastmile_qr_scan", "ios": "https://dc.lft.to/lastmile_qr_scan"}, "name": "3a160fe75df7f8eee8469eb3703f62f5", "is_reserved": 0}, {"is_disabled": 0, "fusion_lon": 0.0, "fusion_lat": 0.0, "lat": 38.90705716666667, "type": "electric_scooter", "lon": -77.06319633333334, "bike_id": "70b298d1a5682636b95130a0db6b17a6", "rental_uris": {"android": "https://dc.lft.to/lastmile_qr_scan", "ios": "https://dc.lft.to/lastmile_qr_scan"}, "name": "70b298d1a5682636b95130a0db6b17a6", "is_reserved": 0}, {"is_disabled": 0, "fusion_lon": 0.0, "fusion_lat": 0.0, "lat": 38.90593633333334, "type": "electric_scooter", "lon": -77.06915, "bike_id": "91216ad9ce828b59de98d661be764a93", "rental_uris": {"android": "https://dc.lft.to/lastmile_qr_scan", "ios": "https://dc.lft.to/lastmile_qr_scan"}, "name": "91216ad9ce828b59de98d661be764a93", "is_reserved": 0}, {"is_disabled": 0, "fusion_lon": 0.0, "fusion_lat": 0.0, "lat": 38.91685066666667, "type": "electric_scooter", "lon": -77.0414095, "bike_id": "b7edd9a8990ad16b9f636d48c34e8f7a", "rental_uris": {"android": "https://dc.lft.to/lastmile_qr_scan", "ios": "https://dc.lft.to/lastmile_qr_scan"}, "name": "b7edd9a8990ad16b9f636d48c34e8f7a", "is_reserved": 0}, {"is_disabled": 0, "fusion_lon": 0.0, "fusion_lat": 0.0, "lat": 38.892358, "type": "electric_scooter", "lon": -77.0317485, "bike_id": "efc6577ceec42a5b3357a365d9889526", "rental_uris": {"android": "https://dc.lft.to/lastmile_qr_scan", "ios": "https://dc.lft.to/lastmile_qr_scan"}, "name": "efc6577ceec42a5b3357a365d9889526", "is_reserved": 0}, {"is_disabled": 0, "fusion_lon": 0.0, "fusion_lat": 0.0, "lat": 38.9307465, "type": "electric_scooter", "lon": -77.03802466666667, "bike_id": "d941ceb7ba949647896f222f168b0d87", "rental_uris": {"android": "https://dc.lft.to/lastmile_qr_scan", "ios": "https://dc.lft.to/lastmile_qr_scan"}, "name": "d941ceb7ba949647896f222f168b0d87", "is_reserved": 0}, {"is_disabled": 0, "fusion_lon": 0.0, "fusion_lat": 0.0, "lat": 38.8922745, "type": "electric_scooter", "lon": -77.02254, "bike_id": "5d7355a4e473bfdbe6ac9e7a77a18e30", "rental_uris": {"android": "https://dc.lft.to/lastmile_qr_scan", "ios": "https://dc.lft.to/lastmile_qr_scan"}, "name": "5d7355a4e473bfdbe6ac9e7a77a18e30", "is_reserved": 0}, {"is_disabled": 0, "fusion_lon": 0.0, "fusion_lat": 0.0, "lat": 38.88887366666667, "type": "electric_scooter", "lon": -77.015054, "bike_id": "5eaa8388bfb2956ef1a3bbb6d2b887f1", "rental_uris": {"android": "https://dc.lft.to/lastmile_qr_scan", "ios": "https://dc.lft.to/lastmile_qr_scan"}, "name": "5eaa8388bfb2956ef1a3bbb6d2b887f1", "is_reserved": 0}, {"is_disabled": 0, "fusion_lon": 0.0, "fusion_lat": 0.0, "lat": 38.88582666666667, "type": "electric_scooter", "lon": -77.01223916666666, "bike_id": "7bfcc23e7b39fb61602b0e0ee02c151e", "rental_uris": {"android": "https://dc.lft.to/lastmile_qr_scan", "ios": "https://dc.lft.to/lastmile_qr_scan"}, "name": "7bfcc23e7b39fb61602b0e0ee02c151e", "is_reserved": 0}, {"is_disabled": 0, "fusion_lon": 0.0, "fusion_lat": 0.0, "lat": 38.86470033333333, "type": "electric_scooter", "lon": -76.99600266666667, "bike_id": "b6c9ce9ee090a5a61deb8a865b56fb52", "rental_uris": {"android": "https://dc.lft.to/lastmile_qr_scan", "ios": "https://dc.lft.to/lastmile_qr_scan"}, "name": "b6c9ce9ee090a5a61deb8a865b56fb52", "is_reserved": 0}, {"is_disabled": 0, "fusion_lon": 0.0, "fusion_lat": 0.0, "lat": 38.94082783333333, "type": "electric_scooter", "lon": -77.06139516666667, "bike_id": "604da38243d66d1987c3d4b0781b2318", "rental_uris": {"android": "https://dc.lft.to/lastmile_qr_scan", "ios": "https://dc.lft.to/lastmile_qr_scan"}, "name": "604da38243d66d1987c3d4b0781b2318", "is_reserved": 0}, {"is_disabled": 0, "fusion_lon": 0.0, "fusion_lat": 0.0, "lat": 38.952150833333334, "type": "electric_scooter", "lon": -77.03631, "bike_id": "7c6f230b114f2ce70abb72d63bfb349c", "rental_uris": {"android": "https://dc.lft.to/lastmile_qr_scan", "ios": "https://dc.lft.to/lastmile_qr_scan"}, "name": "7c6f230b114f2ce70abb72d63bfb349c", "is_reserved": 0}, {"is_disabled": 0, "fusion_lon": 0.0, "fusion_lat": 0.0, "lat": 38.896897, "type": "electric_scooter", "lon": -77.004914, "bike_id": "96aac79f3990d19772eeaeefeb877132", "rental_uris": {"android": "https://dc.lft.to/lastmile_qr_scan", "ios": "https://dc.lft.to/lastmile_qr_scan"}, "name": "96aac79f3990d19772eeaeefeb877132", "is_reserved": 0}, {"is_disabled": 0, "fusion_lon": 0.0, "fusion_lat": 0.0, "lat": 38.918337333333334, "type": "electric_scooter", "lon": -77.03660366666666, "bike_id": "87f425ce90d8251c8ae7ba873df8514e", "rental_uris": {"android": "https://dc.lft.to/lastmile_qr_scan", "ios": "https://dc.lft.to/lastmile_qr_scan"}, "name": "87f425ce90d8251c8ae7ba873df8514e", "is_reserved": 0}, {"is_disabled": 0, "fusion_lon": 0.0, "fusion_lat": 0.0, "lat": 38.901806, "type": "electric_scooter", "lon": -77.02196716666667, "bike_id": "1fec36e40969d55e1e5ba5f459d1f8f6", "rental_uris": {"android": "https://dc.lft.to/lastmile_qr_scan", "ios": "https://dc.lft.to/lastmile_qr_scan"}, "name": "1fec36e40969d55e1e5ba5f459d1f8f6", "is_reserved": 0}, {"is_disabled": 0, "fusion_lon": 0.0, "fusion_lat": 0.0, "lat": 38.90728933333333, "type": "electric_scooter", "lon": -77.02415716666667, "bike_id": "8132df9fdde4478485c36d461bdef2d6", "rental_uris": {"android": "https://dc.lft.to/lastmile_qr_scan", "ios": "https://dc.lft.to/lastmile_qr_scan"}, "name": "8132df9fdde4478485c36d461bdef2d6", "is_reserved": 0}, {"is_disabled": 0, "fusion_lon": 0.0, "fusion_lat": 0.0, "lat": 38.9152195, "type": "electric_scooter", "lon": -77.01983583333333, "bike_id": "a5127036f85f9f2462bda7daf9b8f044", "rental_uris": {"android": "https://dc.lft.to/lastmile_qr_scan", "ios": "https://dc.lft.to/lastmile_qr_scan"}, "name": "a5127036f85f9f2462bda7daf9b8f044", "is_reserved": 0}, {"is_disabled": 0, "fusion_lon": 0.0, "fusion_lat": 0.0, "lat": 38.93150683333333, "type": "electric_scooter", "lon": -77.078585, "bike_id": "b07a4618ce209a495d2951c81f54902f", "rental_uris": {"android": "https://dc.lft.to/lastmile_qr_scan", "ios": "https://dc.lft.to/lastmile_qr_scan"}, "name": "b07a4618ce209a495d2951c81f54902f", "is_reserved": 0}, {"is_disabled": 0, "fusion_lon": 0.0, "fusion_lat": 0.0, "lat": 38.91644816666667, "type": "electric_scooter", "lon": -77.020805, "bike_id": "806981a61671248cac2ecc8562ee0fc1", "rental_uris": {"android": "https://dc.lft.to/lastmile_qr_scan", "ios": "https://dc.lft.to/lastmile_qr_scan"}, "name": "806981a61671248cac2ecc8562ee0fc1", "is_reserved": 0}, {"is_disabled": 0, "fusion_lon": 0.0, "fusion_lat": 0.0, "lat": 38.909307166666665, "type": "electric_scooter", "lon": -77.05718016666667, "bike_id": "3e23bbf815cb67a48a058995971d609a", "rental_uris": {"android": "https://dc.lft.to/lastmile_qr_scan", "ios": "https://dc.lft.to/lastmile_qr_scan"}, "name": "3e23bbf815cb67a48a058995971d609a", "is_reserved": 0}, {"is_disabled": 0, "fusion_lon": 0.0, "fusion_lat": 0.0, "lat": 38.9452195, "type": "electric_bike", "lon": -77.00678083333334, "bike_id": "fd4a16615c903054ebd78a3606ea56bf", "rental_uris": {"android": "https://dc.lft.to/lastmile_qr_scan", "ios": "https://dc.lft.to/lastmile_qr_scan"}, "name": "fd4a16615c903054ebd78a3606ea56bf", "is_reserved": 0}, {"is_disabled": 0, "fusion_lon": 0.0, "fusion_lat": 0.0, "lat": 38.93558183333333, "type": "electric_scooter", "lon": -77.03446016666666, "bike_id": "ae36a75b0ab58f9a666ae5765caa64a1", "rental_uris": {"android": "https://dc.lft.to/lastmile_qr_scan", "ios": "https://dc.lft.to/lastmile_qr_scan"}, "name": "ae36a75b0ab58f9a666ae5765caa64a1", "is_reserved": 0}, {"is_disabled": 0, "fusion_lon": 0.0, "fusion_lat": 0.0, "lat": 38.913854666666666, "type": "electric_scooter", "lon": -77.01704833333334, "bike_id": "3408bdb35b6ee2a1e9ffdfaeae315872", "rental_uris": {"android": "https://dc.lft.to/lastmile_qr_scan", "ios": "https://dc.lft.to/lastmile_qr_scan"}, "name": "3408bdb35b6ee2a1e9ffdfaeae315872", "is_reserved": 0}, {"is_disabled": 0, "fusion_lon": 0.0, "fusion_lat": 0.0, "lat": 38.89737066666667, "type": "electric_scooter", "lon": -77.021737, "bike_id": "26afe923fb534c9ae7ed8c2810b7fa27", "rental_uris": {"android": "https://dc.lft.to/lastmile_qr_scan", "ios": "https://dc.lft.to/lastmile_qr_scan"}, "name": "26afe923fb534c9ae7ed8c2810b7fa27", "is_reserved": 0}, {"is_disabled": 0, "fusion_lon": 0.0, "fusion_lat": 0.0, "lat": 38.90034, "type": "electric_scooter", "lon": -77.03320233333334, "bike_id": "ae291c351986cf43c165f347fde7292b", "rental_uris": {"android": "https://dc.lft.to/lastmile_qr_scan", "ios": "https://dc.lft.to/lastmile_qr_scan"}, "name": "ae291c351986cf43c165f347fde7292b", "is_reserved": 0}, {"is_disabled": 0, "fusion_lon": 0.0, "fusion_lat": 0.0, "lat": 38.8754315, "type": "electric_scooter", "lon": -77.00068466666667, "bike_id": "63ec646357ab8daef822afb1a46a2c5d", "rental_uris": {"android": "https://dc.lft.to/lastmile_qr_scan", "ios": "https://dc.lft.to/lastmile_qr_scan"}, "name": "63ec646357ab8daef822afb1a46a2c5d", "is_reserved": 0}, {"is_disabled": 0, "fusion_lon": 0.0, "fusion_lat": 0.0, "lat": 38.9024475, "type": "electric_scooter", "lon": -77.034226, "bike_id": "3721c9c5f5530f569379a639daee656c", "rental_uris": {"android": "https://dc.lft.to/lastmile_qr_scan", "ios": "https://dc.lft.to/lastmile_qr_scan"}, "name": "3721c9c5f5530f569379a639daee656c", "is_reserved": 0}, {"is_disabled": 0, "fusion_lon": 0.0, "fusion_lat": 0.0, "lat": 38.9246235, "type": "electric_scooter", "lon": -77.0296415, "bike_id": "4ceb435d8e0218c2cdee5feb55e417fd", "rental_uris": {"android": "https://dc.lft.to/lastmile_qr_scan", "ios": "https://dc.lft.to/lastmile_qr_scan"}, "name": "4ceb435d8e0218c2cdee5feb55e417fd", "is_reserved": 0}, {"is_disabled": 0, "fusion_lon": 0.0, "fusion_lat": 0.0, "lat": 38.97538816666667, "type": "electric_bike", "lon": -76.99528083333334, "bike_id": "1da539b93a2485532b23187bc43190ff", "rental_uris": {"android": "https://dc.lft.to/lastmile_qr_scan", "ios": "https://dc.lft.to/lastmile_qr_scan"}, "name": "1da539b93a2485532b23187bc43190ff", "is_reserved": 0}, {"is_disabled": 0, "fusion_lon": 0.0, "fusion_lat": 0.0, "lat": 38.90834866666667, "type": "electric_scooter", "lon": -76.99699533333333, "bike_id": "b8d9f8f7856abadca613360b6283eee3", "rental_uris": {"android": "https://dc.lft.to/lastmile_qr_scan", "ios": "https://dc.lft.to/lastmile_qr_scan"}, "name": "b8d9f8f7856abadca613360b6283eee3", "is_reserved": 0}, {"is_disabled": 0, "fusion_lon": 0.0, "fusion_lat": 0.0, "lat": 38.935845666666665, "type": "electric_bike", "lon": -77.08256616666667, "bike_id": "41290ca0798574595123d3646463e063", "rental_uris": {"android": "https://dc.lft.to/lastmile_qr_scan", "ios": "https://dc.lft.to/lastmile_qr_scan"}, "name": "41290ca0798574595123d3646463e063", "is_reserved": 0}, {"is_disabled": 0, "fusion_lon": 0.0, "fusion_lat": 0.0, "lat": 38.86909433333334, "type": "electric_bike", "lon": -77.1318045, "bike_id": "e69eaa3fc72da38cfdfec7204816471c", "rental_uris": {"android": "https://dc.lft.to/lastmile_qr_scan", "ios": "https://dc.lft.to/lastmile_qr_scan"}, "name": "e69eaa3fc72da38cfdfec7204816471c", "is_reserved": 0}, {"is_disabled": 0, "fusion_lon": 0.0, "fusion_lat": 0.0, "lat": 38.90878883333333, "type": "electric_scooter", "lon": -77.03193133333333, "bike_id": "4c8e47e77730ea8e38b043f8bef623ba", "rental_uris": {"android": "https://dc.lft.to/lastmile_qr_scan", "ios": "https://dc.lft.to/lastmile_qr_scan"}, "name": "4c8e47e77730ea8e38b043f8bef623ba", "is_reserved": 0}, {"is_disabled": 0, "fusion_lon": 0.0, "fusion_lat": 0.0, "lat": 38.9199385, "type": "electric_bike", "lon": -76.97313266666667, "bike_id": "98b92b879f513b36c8fcd7b3284bd8e5", "rental_uris": {"android": "https://dc.lft.to/lastmile_qr_scan", "ios": "https://dc.lft.to/lastmile_qr_scan"}, "name": "98b92b879f513b36c8fcd7b3284bd8e5", "is_reserved": 0}, {"is_disabled": 0, "fusion_lon": 0.0, "fusion_lat": 0.0, "lat": 38.92996733333333, "type": "electric_scooter", "lon": -77.03230683333334, "bike_id": "d4a7efcd3bd30191e7dcdfb36a7e8a3e", "rental_uris": {"android": "https://dc.lft.to/lastmile_qr_scan", "ios": "https://dc.lft.to/lastmile_qr_scan"}, "name": "d4a7efcd3bd30191e7dcdfb36a7e8a3e", "is_reserved": 0}, {"is_disabled": 0, "fusion_lon": 0.0, "fusion_lat": 0.0, "lat": 38.918648, "type": "electric_scooter", "lon": -77.0321395, "bike_id": "5a12f9929949129f23241e2a3b78831a", "rental_uris": {"android": "https://dc.lft.to/lastmile_qr_scan", "ios": "https://dc.lft.to/lastmile_qr_scan"}, "name": "5a12f9929949129f23241e2a3b78831a", "is_reserved": 0}, {"is_disabled": 0, "fusion_lon": 0.0, "fusion_lat": 0.0, "lat": 38.9102615, "type": "electric_scooter", "lon": -77.00758733333333, "bike_id": "1d9ec502d0017444371b0234d1bf4b16", "rental_uris": {"android": "https://dc.lft.to/lastmile_qr_scan", "ios": "https://dc.lft.to/lastmile_qr_scan"}, "name": "1d9ec502d0017444371b0234d1bf4b16", "is_reserved": 0}, {"is_disabled": 0, "fusion_lon": 0.0, "fusion_lat": 0.0, "lat": 38.8816285, "type": "electric_scooter", "lon": -77.0130085, "bike_id": "e800538ba3fb4f3307d01bd4fb9f40ae", "rental_uris": {"android": "https://dc.lft.to/lastmile_qr_scan", "ios": "https://dc.lft.to/lastmile_qr_scan"}, "name": "e800538ba3fb4f3307d01bd4fb9f40ae", "is_reserved": 0}, {"is_disabled": 0, "fusion_lon": 0.0, "fusion_lat": 0.0, "lat": 38.930074166666664, "type": "electric_scooter", "lon": -77.02208816666666, "bike_id": "c9bf044c153c230e021cb31f5e8c87e2", "rental_uris": {"android": "https://dc.lft.to/lastmile_qr_scan", "ios": "https://dc.lft.to/lastmile_qr_scan"}, "name": "c9bf044c153c230e021cb31f5e8c87e2", "is_reserved": 0}, {"is_disabled": 0, "fusion_lon": 0.0, "fusion_lat": 0.0, "lat": 38.91592433333334, "type": "electric_bike", "lon": -76.97147783333334, "bike_id": "ed1d6dcd00836b3a28e77145031583c1", "rental_uris": {"android": "https://dc.lft.to/lastmile_qr_scan", "ios": "https://dc.lft.to/lastmile_qr_scan"}, "name": "ed1d6dcd00836b3a28e77145031583c1", "is_reserved": 0}, {"is_disabled": 0, "fusion_lon": 0.0, "fusion_lat": 0.0, "lat": 38.89950733333333, "type": "electric_scooter", "lon": -77.029506, "bike_id": "bdd0962858c36227f70777fa1621ed2a", "rental_uris": {"android": "https://dc.lft.to/lastmile_qr_scan", "ios": "https://dc.lft.to/lastmile_qr_scan"}, "name": "bdd0962858c36227f70777fa1621ed2a", "is_reserved": 0}, {"is_disabled": 0, "fusion_lon": 0.0, "fusion_lat": 0.0, "lat": 38.89572066666667, "type": "electric_scooter", "lon": -77.02302933333333, "bike_id": "69aa965441389e9201ddf736fbc4e8e2", "rental_uris": {"android": "https://dc.lft.to/lastmile_qr_scan", "ios": "https://dc.lft.to/lastmile_qr_scan"}, "name": "69aa965441389e9201ddf736fbc4e8e2", "is_reserved": 0}, {"is_disabled": 0, "fusion_lon": 0.0, "fusion_lat": 0.0, "lat": 38.9029625, "type": "electric_scooter", "lon": -77.03356166666667, "bike_id": "0f3bd0bb1437a7a95cc3b3050707ae74", "rental_uris": {"android": "https://dc.lft.to/lastmile_qr_scan", "ios": "https://dc.lft.to/lastmile_qr_scan"}, "name": "0f3bd0bb1437a7a95cc3b3050707ae74", "is_reserved": 0}, {"is_disabled": 0, "fusion_lon": 0.0, "fusion_lat": 0.0, "lat": 38.900001333333336, "type": "electric_scooter", "lon": -77.02925466666667, "bike_id": "710fdf7053a4aeee6337a6fd6b665b92", "rental_uris": {"android": "https://dc.lft.to/lastmile_qr_scan", "ios": "https://dc.lft.to/lastmile_qr_scan"}, "name": "710fdf7053a4aeee6337a6fd6b665b92", "is_reserved": 0}, {"is_disabled": 0, "fusion_lon": 0.0, "fusion_lat": 0.0, "lat": 38.917322166666665, "type": "electric_scooter", "lon": -77.04173816666666, "bike_id": "3ee45b2bedd8bf66dd22a757251a2bb1", "rental_uris": {"android": "https://dc.lft.to/lastmile_qr_scan", "ios": "https://dc.lft.to/lastmile_qr_scan"}, "name": "3ee45b2bedd8bf66dd22a757251a2bb1", "is_reserved": 0}, {"is_disabled": 0, "fusion_lon": 0.0, "fusion_lat": 0.0, "lat": 38.875788166666666, "type": "electric_scooter", "lon": -77.0198745, "bike_id": "073cb1743f28ea27fcc638a17f8c7b9e", "rental_uris": {"android": "https://dc.lft.to/lastmile_qr_scan", "ios": "https://dc.lft.to/lastmile_qr_scan"}, "name": "073cb1743f28ea27fcc638a17f8c7b9e", "is_reserved": 0}, {"is_disabled": 0, "fusion_lon": 0.0, "fusion_lat": 0.0, "lat": 38.934026, "type": "electric_scooter", "lon": -77.0273755, "bike_id": "c1028cce8513103ab5399bf6f9c7d9f5", "rental_uris": {"android": "https://dc.lft.to/lastmile_qr_scan", "ios": "https://dc.lft.to/lastmile_qr_scan"}, "name": "c1028cce8513103ab5399bf6f9c7d9f5", "is_reserved": 0}, {"is_disabled": 0, "fusion_lon": 0.0, "fusion_lat": 0.0, "lat": 38.89534, "type": "electric_scooter", "lon": -77.0279285, "bike_id": "7e758e52adca5662e01ae7fb976eab6c", "rental_uris": {"android": "https://dc.lft.to/lastmile_qr_scan", "ios": "https://dc.lft.to/lastmile_qr_scan"}, "name": "7e758e52adca5662e01ae7fb976eab6c", "is_reserved": 0}, {"is_disabled": 0, "fusion_lon": 0.0, "fusion_lat": 0.0, "lat": 38.848501, "type": "electric_bike", "lon": -77.08047716666667, "bike_id": "2b35331300e075568ca8da51ee7faaad", "rental_uris": {"android": "https://dc.lft.to/lastmile_qr_scan", "ios": "https://dc.lft.to/lastmile_qr_scan"}, "name": "2b35331300e075568ca8da51ee7faaad", "is_reserved": 0}, {"is_disabled": 0, "fusion_lon": 0.0, "fusion_lat": 0.0, "lat": 38.90078583333333, "type": "electric_scooter", "lon": -77.0349815, "bike_id": "83910d35b200820a1dbd907743b09ab3", "rental_uris": {"android": "https://dc.lft.to/lastmile_qr_scan", "ios": "https://dc.lft.to/lastmile_qr_scan"}, "name": "83910d35b200820a1dbd907743b09ab3", "is_reserved": 0}, {"is_disabled": 0, "fusion_lon": 0.0, "fusion_lat": 0.0, "lat": 38.896703333333335, "type": "electric_scooter", "lon": -76.9472215, "bike_id": "75a3c4346949815f6d4db5c570622ccb", "rental_uris": {"android": "https://dc.lft.to/lastmile_qr_scan", "ios": "https://dc.lft.to/lastmile_qr_scan"}, "name": "75a3c4346949815f6d4db5c570622ccb", "is_reserved": 0}, {"is_disabled": 0, "fusion_lon": 0.0, "fusion_lat": 0.0, "lat": 38.93564766666667, "type": "electric_scooter", "lon": -77.07348133333333, "bike_id": "918ab75750b0b7271e25fcaa60b51476", "rental_uris": {"android": "https://dc.lft.to/lastmile_qr_scan", "ios": "https://dc.lft.to/lastmile_qr_scan"}, "name": "918ab75750b0b7271e25fcaa60b51476", "is_reserved": 0}, {"is_disabled": 0, "fusion_lon": 0.0, "fusion_lat": 0.0, "lat": 38.913426, "type": "electric_scooter", "lon": -77.02527016666667, "bike_id": "725dcf9e41556dea04b22322f61d875b", "rental_uris": {"android": "https://dc.lft.to/lastmile_qr_scan", "ios": "https://dc.lft.to/lastmile_qr_scan"}, "name": "725dcf9e41556dea04b22322f61d875b", "is_reserved": 0}, {"is_disabled": 0, "fusion_lon": 0.0, "fusion_lat": 0.0, "lat": 38.901968333333336, "type": "electric_scooter", "lon": -77.0209435, "bike_id": "16c6d2b120110e61b4bbe2c31d497877", "rental_uris": {"android": "https://dc.lft.to/lastmile_qr_scan", "ios": "https://dc.lft.to/lastmile_qr_scan"}, "name": "16c6d2b120110e61b4bbe2c31d497877", "is_reserved": 0}, {"is_disabled": 0, "fusion_lon": 0.0, "fusion_lat": 0.0, "lat": 38.91542716666667, "type": "electric_scooter", "lon": -77.01976466666666, "bike_id": "0b3446bea660e6ff80098e13e6ddd5a2", "rental_uris": {"android": "https://dc.lft.to/lastmile_qr_scan", "ios": "https://dc.lft.to/lastmile_qr_scan"}, "name": "0b3446bea660e6ff80098e13e6ddd5a2", "is_reserved": 0}, {"is_disabled": 0, "fusion_lon": 0.0, "fusion_lat": 0.0, "lat": 38.892723333333336, "type": "electric_scooter", "lon": -77.03202033333334, "bike_id": "53f930d72cc242ddeec55157cea471a7", "rental_uris": {"android": "https://dc.lft.to/lastmile_qr_scan", "ios": "https://dc.lft.to/lastmile_qr_scan"}, "name": "53f930d72cc242ddeec55157cea471a7", "is_reserved": 0}, {"is_disabled": 0, "fusion_lon": 0.0, "fusion_lat": 0.0, "lat": 38.90400066666667, "type": "electric_scooter", "lon": -77.0174, "bike_id": "af43621838110656a40eb8289136e7a8", "rental_uris": {"android": "https://dc.lft.to/lastmile_qr_scan", "ios": "https://dc.lft.to/lastmile_qr_scan"}, "name": "af43621838110656a40eb8289136e7a8", "is_reserved": 0}, {"is_disabled": 0, "fusion_lon": 0.0, "fusion_lat": 0.0, "lat": 38.9299415, "type": "electric_scooter", "lon": -77.021833, "bike_id": "34c2666efea6ea2b1b5321528415f021", "rental_uris": {"android": "https://dc.lft.to/lastmile_qr_scan", "ios": "https://dc.lft.to/lastmile_qr_scan"}, "name": "34c2666efea6ea2b1b5321528415f021", "is_reserved": 0}, {"is_disabled": 0, "fusion_lon": 0.0, "fusion_lat": 0.0, "lat": 38.9066785, "type": "electric_scooter", "lon": -77.06299933333334, "bike_id": "be97a86b1893e147726389153692e91b", "rental_uris": {"android": "https://dc.lft.to/lastmile_qr_scan", "ios": "https://dc.lft.to/lastmile_qr_scan"}, "name": "be97a86b1893e147726389153692e91b", "is_reserved": 0}, {"is_disabled": 0, "fusion_lon": 0.0, "fusion_lat": 0.0, "lat": 38.928808, "type": "electric_scooter", "lon": -77.0333045, "bike_id": "cbf8994e21bf0ae69b2ce2b40121d226", "rental_uris": {"android": "https://dc.lft.to/lastmile_qr_scan", "ios": "https://dc.lft.to/lastmile_qr_scan"}, "name": "cbf8994e21bf0ae69b2ce2b40121d226", "is_reserved": 0}, {"is_disabled": 0, "fusion_lon": 0.0, "fusion_lat": 0.0, "lat": 38.917093, "type": "electric_bike", "lon": -77.09562766666667, "bike_id": "110d7318fffd30c4dce06f082c97b9cc", "rental_uris": {"android": "https://dc.lft.to/lastmile_qr_scan", "ios": "https://dc.lft.to/lastmile_qr_scan"}, "name": "110d7318fffd30c4dce06f082c97b9cc", "is_reserved": 0}, {"is_disabled": 0, "fusion_lon": 0.0, "fusion_lat": 0.0, "lat": 38.92326083333333, "type": "electric_scooter", "lon": -77.03817583333333, "bike_id": "74d4ef243622395a3c1ccf4f0d0e3646", "rental_uris": {"android": "https://dc.lft.to/lastmile_qr_scan", "ios": "https://dc.lft.to/lastmile_qr_scan"}, "name": "74d4ef243622395a3c1ccf4f0d0e3646", "is_reserved": 0}, {"is_disabled": 0, "fusion_lon": 0.0, "fusion_lat": 0.0, "lat": 38.916345666666665, "type": "electric_scooter", "lon": -77.023023, "bike_id": "ddfed024a71b8a3009336c77e8b753ba", "rental_uris": {"android": "https://dc.lft.to/lastmile_qr_scan", "ios": "https://dc.lft.to/lastmile_qr_scan"}, "name": "ddfed024a71b8a3009336c77e8b753ba", "is_reserved": 0}, {"is_disabled": 0, "fusion_lon": 0.0, "fusion_lat": 0.0, "lat": 39.0527015, "type": "electric_bike", "lon": -77.043859, "bike_id": "7ab286a7b455ccb065883ae0b320d303", "rental_uris": {"android": "https://dc.lft.to/lastmile_qr_scan", "ios": "https://dc.lft.to/lastmile_qr_scan"}, "name": "7ab286a7b455ccb065883ae0b320d303", "is_reserved": 0}, {"is_disabled": 0, "fusion_lon": 0.0, "fusion_lat": 0.0, "lat": 38.9489395, "type": "electric_bike", "lon": -76.96372883333333, "bike_id": "e74a9e0cba631899ec658ecf9a16a92b", "rental_uris": {"android": "https://dc.lft.to/lastmile_qr_scan", "ios": "https://dc.lft.to/lastmile_qr_scan"}, "name": "e74a9e0cba631899ec658ecf9a16a92b", "is_reserved": 0}, {"is_disabled": 0, "fusion_lon": 0.0, "fusion_lat": 0.0, "lat": 38.915974166666665, "type": "electric_scooter", "lon": -77.0727655, "bike_id": "fe42ed8d22885a2c3011688b8ad20c2e", "rental_uris": {"android": "https://dc.lft.to/lastmile_qr_scan", "ios": "https://dc.lft.to/lastmile_qr_scan"}, "name": "fe42ed8d22885a2c3011688b8ad20c2e", "is_reserved": 0}, {"is_disabled": 0, "fusion_lon": 0.0, "fusion_lat": 0.0, "lat": 38.90961516666667, "type": "electric_scooter", "lon": -77.03954216666666, "bike_id": "e1443bd4e9fe16e93be848410be5bfa3", "rental_uris": {"android": "https://dc.lft.to/lastmile_qr_scan", "ios": "https://dc.lft.to/lastmile_qr_scan"}, "name": "e1443bd4e9fe16e93be848410be5bfa3", "is_reserved": 0}, {"is_disabled": 0, "fusion_lon": 0.0, "fusion_lat": 0.0, "lat": 38.91706116666667, "type": "electric_scooter", "lon": -77.00119, "bike_id": "99df07b098caff568a06d24542dd5c6c", "rental_uris": {"android": "https://dc.lft.to/lastmile_qr_scan", "ios": "https://dc.lft.to/lastmile_qr_scan"}, "name": "99df07b098caff568a06d24542dd5c6c", "is_reserved": 0}, {"is_disabled": 0, "fusion_lon": 0.0, "fusion_lat": 0.0, "lat": 38.9257715, "type": "electric_scooter", "lon": -77.02564566666666, "bike_id": "f03926f2801475a62757393bdadfb271", "rental_uris": {"android": "https://dc.lft.to/lastmile_qr_scan", "ios": "https://dc.lft.to/lastmile_qr_scan"}, "name": "f03926f2801475a62757393bdadfb271", "is_reserved": 0}, {"is_disabled": 0, "fusion_lon": 0.0, "fusion_lat": 0.0, "lat": 38.898860166666665, "type": "electric_scooter", "lon": -77.03994483333334, "bike_id": "b8a79d191f13b9166841f737b8ddafc5", "rental_uris": {"android": "https://dc.lft.to/lastmile_qr_scan", "ios": "https://dc.lft.to/lastmile_qr_scan"}, "name": "b8a79d191f13b9166841f737b8ddafc5", "is_reserved": 0}, {"is_disabled": 0, "fusion_lon": 0.0, "fusion_lat": 0.0, "lat": 38.89728983333333, "type": "electric_scooter", "lon": -77.048075, "bike_id": "c0554f4e16861d0a1b13acfde6807caa", "rental_uris": {"android": "https://dc.lft.to/lastmile_qr_scan", "ios": "https://dc.lft.to/lastmile_qr_scan"}, "name": "c0554f4e16861d0a1b13acfde6807caa", "is_reserved": 0}, {"is_disabled": 0, "fusion_lon": 0.0, "fusion_lat": 0.0, "lat": 38.9013525, "type": "electric_scooter", "lon": -77.04185716666667, "bike_id": "30946e766ceabc3295b53a794ab64199", "rental_uris": {"android": "https://dc.lft.to/lastmile_qr_scan", "ios": "https://dc.lft.to/lastmile_qr_scan"}, "name": "30946e766ceabc3295b53a794ab64199", "is_reserved": 0}, {"is_disabled": 0, "fusion_lon": 0.0, "fusion_lat": 0.0, "lat": 38.90684983333333, "type": "electric_scooter", "lon": -77.03110166666667, "bike_id": "02e37b209db947c5dcedd750c2a35af6", "rental_uris": {"android": "https://dc.lft.to/lastmile_qr_scan", "ios": "https://dc.lft.to/lastmile_qr_scan"}, "name": "02e37b209db947c5dcedd750c2a35af6", "is_reserved": 0}, {"is_disabled": 0, "fusion_lon": 0.0, "fusion_lat": 0.0, "lat": 38.9452225, "type": "electric_scooter", "lon": -77.02980816666667, "bike_id": "e07a8ef35dd40e60de5d0310672f8328", "rental_uris": {"android": "https://dc.lft.to/lastmile_qr_scan", "ios": "https://dc.lft.to/lastmile_qr_scan"}, "name": "e07a8ef35dd40e60de5d0310672f8328", "is_reserved": 0}, {"is_disabled": 0, "fusion_lon": 0.0, "fusion_lat": 0.0, "lat": 38.903189833333336, "type": "electric_scooter", "lon": -77.02249766666667, "bike_id": "e543b60ed2ca9afb7a8efb013f1712c3", "rental_uris": {"android": "https://dc.lft.to/lastmile_qr_scan", "ios": "https://dc.lft.to/lastmile_qr_scan"}, "name": "e543b60ed2ca9afb7a8efb013f1712c3", "is_reserved": 0}, {"is_disabled": 0, "fusion_lon": 0.0, "fusion_lat": 0.0, "lat": 38.88379416666667, "type": "electric_scooter", "lon": -76.92375416666667, "bike_id": "56869695933309b8e796a7db496ef98a", "rental_uris": {"android": "https://dc.lft.to/lastmile_qr_scan", "ios": "https://dc.lft.to/lastmile_qr_scan"}, "name": "56869695933309b8e796a7db496ef98a", "is_reserved": 0}, {"is_disabled": 0, "fusion_lon": 0.0, "fusion_lat": 0.0, "lat": 38.90597966666667, "type": "electric_scooter", "lon": -77.06371916666667, "bike_id": "ce75d07c244e64fd9ba776a7c241c172", "rental_uris": {"android": "https://dc.lft.to/lastmile_qr_scan", "ios": "https://dc.lft.to/lastmile_qr_scan"}, "name": "ce75d07c244e64fd9ba776a7c241c172", "is_reserved": 0}, {"is_disabled": 0, "fusion_lon": 0.0, "fusion_lat": 0.0, "lat": 38.91808066666667, "type": "electric_scooter", "lon": -77.03433566666666, "bike_id": "bdd996c45ae4f61d1e038a0e4dde6d64", "rental_uris": {"android": "https://dc.lft.to/lastmile_qr_scan", "ios": "https://dc.lft.to/lastmile_qr_scan"}, "name": "bdd996c45ae4f61d1e038a0e4dde6d64", "is_reserved": 0}, {"is_disabled": 0, "fusion_lon": 0.0, "fusion_lat": 0.0, "lat": 38.9197725, "type": "electric_scooter", "lon": -77.04176833333334, "bike_id": "257aa0303c1b345bf0dc3eb1c1856a2c", "rental_uris": {"android": "https://dc.lft.to/lastmile_qr_scan", "ios": "https://dc.lft.to/lastmile_qr_scan"}, "name": "257aa0303c1b345bf0dc3eb1c1856a2c", "is_reserved": 0}, {"is_disabled": 0, "fusion_lon": 0.0, "fusion_lat": 0.0, "lat": 38.90629166666667, "type": "electric_scooter", "lon": -77.02827183333333, "bike_id": "96816b50408f2050e0d54eab076018ba", "rental_uris": {"android": "https://dc.lft.to/lastmile_qr_scan", "ios": "https://dc.lft.to/lastmile_qr_scan"}, "name": "96816b50408f2050e0d54eab076018ba", "is_reserved": 0}, {"is_disabled": 0, "fusion_lon": 0.0, "fusion_lat": 0.0, "lat": 38.90720183333333, "type": "electric_scooter", "lon": -77.03065283333333, "bike_id": "c5bd28b4ecd7969853d7b501227a8897", "rental_uris": {"android": "https://dc.lft.to/lastmile_qr_scan", "ios": "https://dc.lft.to/lastmile_qr_scan"}, "name": "c5bd28b4ecd7969853d7b501227a8897", "is_reserved": 0}, {"is_disabled": 0, "fusion_lon": 0.0, "fusion_lat": 0.0, "lat": 38.887396833333334, "type": "electric_scooter", "lon": -77.03209316666667, "bike_id": "65bdc34ec5b71143d3a5eff2ea26f65f", "rental_uris": {"android": "https://dc.lft.to/lastmile_qr_scan", "ios": "https://dc.lft.to/lastmile_qr_scan"}, "name": "65bdc34ec5b71143d3a5eff2ea26f65f", "is_reserved": 0}, {"is_disabled": 0, "fusion_lon": 0.0, "fusion_lat": 0.0, "lat": 38.90156783333333, "type": "electric_scooter", "lon": -77.0418515, "bike_id": "ec82c0219f9c0d61d77ae1c738d58ef4", "rental_uris": {"android": "https://dc.lft.to/lastmile_qr_scan", "ios": "https://dc.lft.to/lastmile_qr_scan"}, "name": "ec82c0219f9c0d61d77ae1c738d58ef4", "is_reserved": 0}, {"is_disabled": 0, "fusion_lon": 0.0, "fusion_lat": 0.0, "lat": 38.8965785, "type": "electric_scooter", "lon": -77.04358983333333, "bike_id": "f890f7a73832412556751a6edb199046", "rental_uris": {"android": "https://dc.lft.to/lastmile_qr_scan", "ios": "https://dc.lft.to/lastmile_qr_scan"}, "name": "f890f7a73832412556751a6edb199046", "is_reserved": 0}, {"is_disabled": 0, "fusion_lon": 0.0, "fusion_lat": 0.0, "lat": 38.901577833333334, "type": "electric_scooter", "lon": -77.041427, "bike_id": "a71152223e81e8d319e17921d80b3b4e", "rental_uris": {"android": "https://dc.lft.to/lastmile_qr_scan", "ios": "https://dc.lft.to/lastmile_qr_scan"}, "name": "a71152223e81e8d319e17921d80b3b4e", "is_reserved": 0}, {"is_disabled": 0, "fusion_lon": 0.0, "fusion_lat": 0.0, "lat": 38.9057715, "type": "electric_scooter", "lon": -77.03356433333333, "bike_id": "83bbe6ab275b04d57345f72bd5e52373", "rental_uris": {"android": "https://dc.lft.to/lastmile_qr_scan", "ios": "https://dc.lft.to/lastmile_qr_scan"}, "name": "83bbe6ab275b04d57345f72bd5e52373", "is_reserved": 0}, {"is_disabled": 0, "fusion_lon": 0.0, "fusion_lat": 0.0, "lat": 38.888648333333336, "type": "electric_scooter", "lon": -76.97736983333333, "bike_id": "7766a27f70c9f46af4babc90e4815da1", "rental_uris": {"android": "https://dc.lft.to/lastmile_qr_scan", "ios": "https://dc.lft.to/lastmile_qr_scan"}, "name": "7766a27f70c9f46af4babc90e4815da1", "is_reserved": 0}, {"is_disabled": 0, "fusion_lon": 0.0, "fusion_lat": 0.0, "lat": 38.8977035, "type": "electric_scooter", "lon": -77.02194233333333, "bike_id": "d27286ffe2ee87dfb9345bdaf097325d", "rental_uris": {"android": "https://dc.lft.to/lastmile_qr_scan", "ios": "https://dc.lft.to/lastmile_qr_scan"}, "name": "d27286ffe2ee87dfb9345bdaf097325d", "is_reserved": 0}, {"is_disabled": 0, "fusion_lon": 0.0, "fusion_lat": 0.0, "lat": 38.89842466666666, "type": "electric_scooter", "lon": -77.03349116666666, "bike_id": "b73123690b3303e2720aae171a174b80", "rental_uris": {"android": "https://dc.lft.to/lastmile_qr_scan", "ios": "https://dc.lft.to/lastmile_qr_scan"}, "name": "b73123690b3303e2720aae171a174b80", "is_reserved": 0}, {"is_disabled": 0, "fusion_lon": 0.0, "fusion_lat": 0.0, "lat": 38.8951825, "type": "electric_scooter", "lon": -77.02193816666667, "bike_id": "4822ac1ab4185ba4a0a4030d743698ea", "rental_uris": {"android": "https://dc.lft.to/lastmile_qr_scan", "ios": "https://dc.lft.to/lastmile_qr_scan"}, "name": "4822ac1ab4185ba4a0a4030d743698ea", "is_reserved": 0}, {"is_disabled": 0, "fusion_lon": 0.0, "fusion_lat": 0.0, "lat": 38.8273125, "type": "electric_bike", "lon": -77.00861733333333, "bike_id": "0415db4394fe129a0ede9cad1f0cd89c", "rental_uris": {"android": "https://dc.lft.to/lastmile_qr_scan", "ios": "https://dc.lft.to/lastmile_qr_scan"}, "name": "0415db4394fe129a0ede9cad1f0cd89c", "is_reserved": 0}, {"is_disabled": 0, "fusion_lon": 0.0, "fusion_lat": 0.0, "lat": 38.92268133333334, "type": "electric_scooter", "lon": -77.034068, "bike_id": "fe596ff507254c810886cfbda6bdd863", "rental_uris": {"android": "https://dc.lft.to/lastmile_qr_scan", "ios": "https://dc.lft.to/lastmile_qr_scan"}, "name": "fe596ff507254c810886cfbda6bdd863", "is_reserved": 0}, {"is_disabled": 0, "fusion_lon": 0.0, "fusion_lat": 0.0, "lat": 38.9195685, "type": "electric_scooter", "lon": -77.01399733333334, "bike_id": "de1ae8d55b118cf95af9ec0158342be4", "rental_uris": {"android": "https://dc.lft.to/lastmile_qr_scan", "ios": "https://dc.lft.to/lastmile_qr_scan"}, "name": "de1ae8d55b118cf95af9ec0158342be4", "is_reserved": 0}, {"is_disabled": 0, "fusion_lon": 0.0, "fusion_lat": 0.0, "lat": 38.887417, "type": "electric_scooter", "lon": -77.01534416666667, "bike_id": "7c3b469da087d66ef355956d3bbe5493", "rental_uris": {"android": "https://dc.lft.to/lastmile_qr_scan", "ios": "https://dc.lft.to/lastmile_qr_scan"}, "name": "7c3b469da087d66ef355956d3bbe5493", "is_reserved": 0}, {"is_disabled": 0, "fusion_lon": 0.0, "fusion_lat": 0.0, "lat": 38.91222333333333, "type": "electric_scooter", "lon": -77.031929, "bike_id": "396524f0bfc68a362318a10ab732207a", "rental_uris": {"android": "https://dc.lft.to/lastmile_qr_scan", "ios": "https://dc.lft.to/lastmile_qr_scan"}, "name": "396524f0bfc68a362318a10ab732207a", "is_reserved": 0}, {"is_disabled": 0, "fusion_lon": 0.0, "fusion_lat": 0.0, "lat": 38.9171335, "type": "electric_scooter", "lon": -77.02877383333333, "bike_id": "c974aaea839f0c95d739396fe8204d63", "rental_uris": {"android": "https://dc.lft.to/lastmile_qr_scan", "ios": "https://dc.lft.to/lastmile_qr_scan"}, "name": "c974aaea839f0c95d739396fe8204d63", "is_reserved": 0}, {"is_disabled": 0, "fusion_lon": 0.0, "fusion_lat": 0.0, "lat": 38.93606316666666, "type": "electric_scooter", "lon": -77.05585583333334, "bike_id": "faafbac85c4f205bfd245423f9330ec0", "rental_uris": {"android": "https://dc.lft.to/lastmile_qr_scan", "ios": "https://dc.lft.to/lastmile_qr_scan"}, "name": "faafbac85c4f205bfd245423f9330ec0", "is_reserved": 0}, {"is_disabled": 0, "fusion_lon": 0.0, "fusion_lat": 0.0, "lat": 38.9203375, "type": "electric_scooter", "lon": -77.0190815, "bike_id": "1216e5a82b5a00e887f8c7a25043db91", "rental_uris": {"android": "https://dc.lft.to/lastmile_qr_scan", "ios": "https://dc.lft.to/lastmile_qr_scan"}, "name": "1216e5a82b5a00e887f8c7a25043db91", "is_reserved": 0}, {"is_disabled": 0, "fusion_lon": 0.0, "fusion_lat": 0.0, "lat": 38.934893833333334, "type": "electric_scooter", "lon": -77.02420383333333, "bike_id": "0d238cec41dda8e66ba514611b933876", "rental_uris": {"android": "https://dc.lft.to/lastmile_qr_scan", "ios": "https://dc.lft.to/lastmile_qr_scan"}, "name": "0d238cec41dda8e66ba514611b933876", "is_reserved": 0}, {"is_disabled": 0, "fusion_lon": 0.0, "fusion_lat": 0.0, "lat": 38.803002166666666, "type": "electric_bike", "lon": -77.039862, "bike_id": "96d940d27334a9399d023fb02fb9290f", "rental_uris": {"android": "https://dc.lft.to/lastmile_qr_scan", "ios": "https://dc.lft.to/lastmile_qr_scan"}, "name": "96d940d27334a9399d023fb02fb9290f", "is_reserved": 0}, {"is_disabled": 0, "fusion_lon": 0.0, "fusion_lat": 0.0, "lat": 38.89195516666667, "type": "electric_scooter", "lon": -76.988346, "bike_id": "9630adc6efa06dac36a6b0cce0564650", "rental_uris": {"android": "https://dc.lft.to/lastmile_qr_scan", "ios": "https://dc.lft.to/lastmile_qr_scan"}, "name": "9630adc6efa06dac36a6b0cce0564650", "is_reserved": 0}, {"is_disabled": 0, "fusion_lon": 0.0, "fusion_lat": 0.0, "lat": 38.902017, "type": "electric_scooter", "lon": -77.02376966666667, "bike_id": "ffb51a6a851e93fbe682e5ba5027abd0", "rental_uris": {"android": "https://dc.lft.to/lastmile_qr_scan", "ios": "https://dc.lft.to/lastmile_qr_scan"}, "name": "ffb51a6a851e93fbe682e5ba5027abd0", "is_reserved": 0}, {"is_disabled": 0, "fusion_lon": 0.0, "fusion_lat": 0.0, "lat": 38.905423666666664, "type": "electric_scooter", "lon": -77.04755483333334, "bike_id": "49d82ed666ce1ca1436425c8f074419d", "rental_uris": {"android": "https://dc.lft.to/lastmile_qr_scan", "ios": "https://dc.lft.to/lastmile_qr_scan"}, "name": "49d82ed666ce1ca1436425c8f074419d", "is_reserved": 0}, {"is_disabled": 0, "fusion_lon": 0.0, "fusion_lat": 0.0, "lat": 38.905699166666665, "type": "electric_scooter", "lon": -77.033346, "bike_id": "9ee6a2f984af4646d77728a866d05ad7", "rental_uris": {"android": "https://dc.lft.to/lastmile_qr_scan", "ios": "https://dc.lft.to/lastmile_qr_scan"}, "name": "9ee6a2f984af4646d77728a866d05ad7", "is_reserved": 0}, {"is_disabled": 0, "fusion_lon": 0.0, "fusion_lat": 0.0, "lat": 38.913410999999996, "type": "electric_scooter", "lon": -77.03236683333333, "bike_id": "e100244c143e40d6a73a0e676ff43dcd", "rental_uris": {"android": "https://dc.lft.to/lastmile_qr_scan", "ios": "https://dc.lft.to/lastmile_qr_scan"}, "name": "e100244c143e40d6a73a0e676ff43dcd", "is_reserved": 0}, {"is_disabled": 0, "fusion_lon": 0.0, "fusion_lat": 0.0, "lat": 38.93498183333333, "type": "electric_scooter", "lon": -77.02415616666667, "bike_id": "352890b7580dcdd8d1ffe9db0e31ffdd", "rental_uris": {"android": "https://dc.lft.to/lastmile_qr_scan", "ios": "https://dc.lft.to/lastmile_qr_scan"}, "name": "352890b7580dcdd8d1ffe9db0e31ffdd", "is_reserved": 0}, {"is_disabled": 0, "fusion_lon": 0.0, "fusion_lat": 0.0, "lat": 38.96219966666666, "type": "electric_scooter", "lon": -77.02803433333334, "bike_id": "d37fce718cead2b288ecea20fe8198c7", "rental_uris": {"android": "https://dc.lft.to/lastmile_qr_scan", "ios": "https://dc.lft.to/lastmile_qr_scan"}, "name": "d37fce718cead2b288ecea20fe8198c7", "is_reserved": 0}, {"is_disabled": 0, "fusion_lon": 0.0, "fusion_lat": 0.0, "lat": 38.863638, "type": "electric_scooter", "lon": -76.9906745, "bike_id": "b15a7c20a8a042452d5184c93afcecbf", "rental_uris": {"android": "https://dc.lft.to/lastmile_qr_scan", "ios": "https://dc.lft.to/lastmile_qr_scan"}, "name": "b15a7c20a8a042452d5184c93afcecbf", "is_reserved": 0}, {"is_disabled": 0, "fusion_lon": 0.0, "fusion_lat": 0.0, "lat": 38.92859816666667, "type": "electric_scooter", "lon": -77.01406716666666, "bike_id": "38297de8c9781aab8fba56c86ceb6c04", "rental_uris": {"android": "https://dc.lft.to/lastmile_qr_scan", "ios": "https://dc.lft.to/lastmile_qr_scan"}, "name": "38297de8c9781aab8fba56c86ceb6c04", "is_reserved": 0}, {"is_disabled": 0, "fusion_lon": 0.0, "fusion_lat": 0.0, "lat": 38.89953833333333, "type": "electric_scooter", "lon": -77.051385, "bike_id": "87b7efd9d969dbeecdeb934539cd4081", "rental_uris": {"android": "https://dc.lft.to/lastmile_qr_scan", "ios": "https://dc.lft.to/lastmile_qr_scan"}, "name": "87b7efd9d969dbeecdeb934539cd4081", "is_reserved": 0}, {"is_disabled": 0, "fusion_lon": 0.0, "fusion_lat": 0.0, "lat": 38.93781583333333, "type": "electric_scooter", "lon": -77.023043, "bike_id": "af0078c5f2a8daaaf7a43fe9d3e7a5a9", "rental_uris": {"android": "https://dc.lft.to/lastmile_qr_scan", "ios": "https://dc.lft.to/lastmile_qr_scan"}, "name": "af0078c5f2a8daaaf7a43fe9d3e7a5a9", "is_reserved": 0}, {"is_disabled": 0, "fusion_lon": 0.0, "fusion_lat": 0.0, "lat": 38.99066583333333, "type": "electric_bike", "lon": -77.10029483333334, "bike_id": "b493b4501078326daf0c61e1d7e9f5d6", "rental_uris": {"android": "https://dc.lft.to/lastmile_qr_scan", "ios": "https://dc.lft.to/lastmile_qr_scan"}, "name": "b493b4501078326daf0c61e1d7e9f5d6", "is_reserved": 0}, {"is_disabled": 0, "fusion_lon": 0.0, "fusion_lat": 0.0, "lat": 38.990903833333334, "type": "electric_bike", "lon": -76.87493366666666, "bike_id": "94e20d594c3152da3fffaa813e8de66f", "rental_uris": {"android": "https://dc.lft.to/lastmile_qr_scan", "ios": "https://dc.lft.to/lastmile_qr_scan"}, "name": "94e20d594c3152da3fffaa813e8de66f", "is_reserved": 0}, {"is_disabled": 0, "fusion_lon": 0.0, "fusion_lat": 0.0, "lat": 38.90723166666667, "type": "electric_scooter", "lon": -77.04077016666666, "bike_id": "b0deed0d9fc8ec32c7ed64d21ed4de87", "rental_uris": {"android": "https://dc.lft.to/lastmile_qr_scan", "ios": "https://dc.lft.to/lastmile_qr_scan"}, "name": "b0deed0d9fc8ec32c7ed64d21ed4de87", "is_reserved": 0}, {"is_disabled": 0, "fusion_lon": 0.0, "fusion_lat": 0.0, "lat": 38.905418166666664, "type": "electric_scooter", "lon": -77.06522366666667, "bike_id": "8a22db149886903ef838e92d89413d63", "rental_uris": {"android": "https://dc.lft.to/lastmile_qr_scan", "ios": "https://dc.lft.to/lastmile_qr_scan"}, "name": "8a22db149886903ef838e92d89413d63", "is_reserved": 0}, {"is_disabled": 0, "fusion_lon": 0.0, "fusion_lat": 0.0, "lat": 38.874945, "type": "electric_bike", "lon": -77.0490115, "bike_id": "4c39da078a4e200738e4397cd7bb612a", "rental_uris": {"android": "https://dc.lft.to/lastmile_qr_scan", "ios": "https://dc.lft.to/lastmile_qr_scan"}, "name": "4c39da078a4e200738e4397cd7bb612a", "is_reserved": 0}, {"is_disabled": 0, "fusion_lon": 0.0, "fusion_lat": 0.0, "lat": 38.933046833333336, "type": "electric_scooter", "lon": -77.021387, "bike_id": "c679c337c105d1e0e7512af75daa658a", "rental_uris": {"android": "https://dc.lft.to/lastmile_qr_scan", "ios": "https://dc.lft.to/lastmile_qr_scan"}, "name": "c679c337c105d1e0e7512af75daa658a", "is_reserved": 0}, {"is_disabled": 0, "fusion_lon": 0.0, "fusion_lat": 0.0, "lat": 38.99256783333333, "type": "electric_bike", "lon": -77.04994316666667, "bike_id": "bd7e5a96d94991148680df0b6aa82d91", "rental_uris": {"android": "https://dc.lft.to/lastmile_qr_scan", "ios": "https://dc.lft.to/lastmile_qr_scan"}, "name": "bd7e5a96d94991148680df0b6aa82d91", "is_reserved": 0}, {"is_disabled": 0, "fusion_lon": 0.0, "fusion_lat": 0.0, "lat": 38.94308866666667, "type": "electric_scooter", "lon": -77.02352233333333, "bike_id": "5a74436a60fac5e74d8ec9fe0f167a66", "rental_uris": {"android": "https://dc.lft.to/lastmile_qr_scan", "ios": "https://dc.lft.to/lastmile_qr_scan"}, "name": "5a74436a60fac5e74d8ec9fe0f167a66", "is_reserved": 0}, {"is_disabled": 0, "fusion_lon": 0.0, "fusion_lat": 0.0, "lat": 38.93884283333333, "type": "electric_scooter", "lon": -77.0332675, "bike_id": "6ac6c3d5508d97760512fee77935481d", "rental_uris": {"android": "https://dc.lft.to/lastmile_qr_scan", "ios": "https://dc.lft.to/lastmile_qr_scan"}, "name": "6ac6c3d5508d97760512fee77935481d", "is_reserved": 0}, {"is_disabled": 0, "fusion_lon": 0.0, "fusion_lat": 0.0, "lat": 39.11511983333333, "type": "electric_bike", "lon": -77.19544316666666, "bike_id": "460811ad8a350ea2653892400c188a68", "rental_uris": {"android": "https://dc.lft.to/lastmile_qr_scan", "ios": "https://dc.lft.to/lastmile_qr_scan"}, "name": "460811ad8a350ea2653892400c188a68", "is_reserved": 0}, {"is_disabled": 0, "fusion_lon": 0.0, "fusion_lat": 0.0, "lat": 38.9304985, "type": "electric_scooter", "lon": -77.0041455, "bike_id": "8bc8c0899e203dda380083ea71036be0", "rental_uris": {"android": "https://dc.lft.to/lastmile_qr_scan", "ios": "https://dc.lft.to/lastmile_qr_scan"}, "name": "8bc8c0899e203dda380083ea71036be0", "is_reserved": 0}, {"is_disabled": 0, "fusion_lon": 0.0, "fusion_lat": 0.0, "lat": 38.838134833333335, "type": "electric_scooter", "lon": -77.004359, "bike_id": "3eba965b40d5a4fa1fbca52e8d6efc50", "rental_uris": {"android": "https://dc.lft.to/lastmile_qr_scan", "ios": "https://dc.lft.to/lastmile_qr_scan"}, "name": "3eba965b40d5a4fa1fbca52e8d6efc50", "is_reserved": 0}, {"is_disabled": 0, "fusion_lon": 0.0, "fusion_lat": 0.0, "lat": 38.85718416666667, "type": "electric_bike", "lon": -76.98109016666666, "bike_id": "64d66159f0000aed6974cad879219161", "rental_uris": {"android": "https://dc.lft.to/lastmile_qr_scan", "ios": "https://dc.lft.to/lastmile_qr_scan"}, "name": "64d66159f0000aed6974cad879219161", "is_reserved": 0}, {"is_disabled": 0, "fusion_lon": 0.0, "fusion_lat": 0.0, "lat": 38.932291666666664, "type": "electric_scooter", "lon": -76.99487266666667, "bike_id": "1a608efc72d35d28efa92a01d2c38c74", "rental_uris": {"android": "https://dc.lft.to/lastmile_qr_scan", "ios": "https://dc.lft.to/lastmile_qr_scan"}, "name": "1a608efc72d35d28efa92a01d2c38c74", "is_reserved": 0}, {"is_disabled": 0, "fusion_lon": 0.0, "fusion_lat": 0.0, "lat": 38.91804716666667, "type": "electric_scooter", "lon": -77.03444333333333, "bike_id": "b0fe3756e9d0f57282eb499d319c622a", "rental_uris": {"android": "https://dc.lft.to/lastmile_qr_scan", "ios": "https://dc.lft.to/lastmile_qr_scan"}, "name": "b0fe3756e9d0f57282eb499d319c622a", "is_reserved": 0}, {"is_disabled": 0, "fusion_lon": 0.0, "fusion_lat": 0.0, "lat": 38.9176805, "type": "electric_scooter", "lon": -77.02813283333333, "bike_id": "927c4dbea4e7b3b84d40d879a6962e17", "rental_uris": {"android": "https://dc.lft.to/lastmile_qr_scan", "ios": "https://dc.lft.to/lastmile_qr_scan"}, "name": "927c4dbea4e7b3b84d40d879a6962e17", "is_reserved": 0}, {"is_disabled": 0, "fusion_lon": 0.0, "fusion_lat": 0.0, "lat": 38.83939066666667, "type": "electric_bike", "lon": -77.07897216666667, "bike_id": "37ec2bd8d6841a6e237852edb20b0d96", "rental_uris": {"android": "https://dc.lft.to/lastmile_qr_scan", "ios": "https://dc.lft.to/lastmile_qr_scan"}, "name": "37ec2bd8d6841a6e237852edb20b0d96", "is_reserved": 0}, {"is_disabled": 0, "fusion_lon": 0.0, "fusion_lat": 0.0, "lat": 38.90556733333333, "type": "electric_scooter", "lon": -77.04559133333333, "bike_id": "5afb01b9e1223d8ffbab032e6dd9631c", "rental_uris": {"android": "https://dc.lft.to/lastmile_qr_scan", "ios": "https://dc.lft.to/lastmile_qr_scan"}, "name": "5afb01b9e1223d8ffbab032e6dd9631c", "is_reserved": 0}, {"is_disabled": 0, "fusion_lon": 0.0, "fusion_lat": 0.0, "lat": 38.812729833333336, "type": "electric_bike", "lon": -77.06173333333334, "bike_id": "01b9a443d3046556d657a13dda750c1c", "rental_uris": {"android": "https://dc.lft.to/lastmile_qr_scan", "ios": "https://dc.lft.to/lastmile_qr_scan"}, "name": "01b9a443d3046556d657a13dda750c1c", "is_reserved": 0}, {"is_disabled": 0, "fusion_lon": 0.0, "fusion_lat": 0.0, "lat": 38.897482833333335, "type": "electric_scooter", "lon": -77.00994116666666, "bike_id": "3ea53404b19fc79de02baa7c877d23dc", "rental_uris": {"android": "https://dc.lft.to/lastmile_qr_scan", "ios": "https://dc.lft.to/lastmile_qr_scan"}, "name": "3ea53404b19fc79de02baa7c877d23dc", "is_reserved": 0}, {"is_disabled": 0, "fusion_lon": 0.0, "fusion_lat": 0.0, "lat": 38.93472633333333, "type": "electric_scooter", "lon": -77.06876316666667, "bike_id": "49d2b783de9f4967e74d33a82b8f7f20", "rental_uris": {"android": "https://dc.lft.to/lastmile_qr_scan", "ios": "https://dc.lft.to/lastmile_qr_scan"}, "name": "49d2b783de9f4967e74d33a82b8f7f20", "is_reserved": 0}, {"is_disabled": 0, "fusion_lon": 0.0, "fusion_lat": 0.0, "lat": 38.97262716666667, "type": "electric_bike", "lon": -76.9916715, "bike_id": "083dcc84663d111d5d6a9822ccf66927", "rental_uris": {"android": "https://dc.lft.to/lastmile_qr_scan", "ios": "https://dc.lft.to/lastmile_qr_scan"}, "name": "083dcc84663d111d5d6a9822ccf66927", "is_reserved": 0}, {"is_disabled": 0, "fusion_lon": 0.0, "fusion_lat": 0.0, "lat": 38.9024255, "type": "electric_scooter", "lon": -77.05990666666666, "bike_id": "fc5863f8a7664eeba98832bb03047cbf", "rental_uris": {"android": "https://dc.lft.to/lastmile_qr_scan", "ios": "https://dc.lft.to/lastmile_qr_scan"}, "name": "fc5863f8a7664eeba98832bb03047cbf", "is_reserved": 0}, {"is_disabled": 0, "fusion_lon": 0.0, "fusion_lat": 0.0, "lat": 38.90605083333333, "type": "electric_scooter", "lon": -77.05708916666667, "bike_id": "8fde729c8496b79442e83f7986843ada", "rental_uris": {"android": "https://dc.lft.to/lastmile_qr_scan", "ios": "https://dc.lft.to/lastmile_qr_scan"}, "name": "8fde729c8496b79442e83f7986843ada", "is_reserved": 0}, {"is_disabled": 0, "fusion_lon": 0.0, "fusion_lat": 0.0, "lat": 38.91277683333333, "type": "electric_scooter", "lon": -77.02246383333333, "bike_id": "e0d3f788944f656b1637f8ab50b83426", "rental_uris": {"android": "https://dc.lft.to/lastmile_qr_scan", "ios": "https://dc.lft.to/lastmile_qr_scan"}, "name": "e0d3f788944f656b1637f8ab50b83426", "is_reserved": 0}, {"is_disabled": 0, "fusion_lon": 0.0, "fusion_lat": 0.0, "lat": 38.8996295, "type": "electric_scooter", "lon": -77.047868, "bike_id": "8318f4b20016a34a0aaa2a9115801fff", "rental_uris": {"android": "https://dc.lft.to/lastmile_qr_scan", "ios": "https://dc.lft.to/lastmile_qr_scan"}, "name": "8318f4b20016a34a0aaa2a9115801fff", "is_reserved": 0}, {"is_disabled": 0, "fusion_lon": 0.0, "fusion_lat": 0.0, "lat": 38.89479266666667, "type": "electric_scooter", "lon": -76.99416483333333, "bike_id": "f42156bb1d3c1ff11ffc434386df5433", "rental_uris": {"android": "https://dc.lft.to/lastmile_qr_scan", "ios": "https://dc.lft.to/lastmile_qr_scan"}, "name": "f42156bb1d3c1ff11ffc434386df5433", "is_reserved": 0}, {"is_disabled": 0, "fusion_lon": 0.0, "fusion_lat": 0.0, "lat": 38.930775, "type": "electric_scooter", "lon": -77.03798516666667, "bike_id": "faecfa216193c39392ebbbdca200e494", "rental_uris": {"android": "https://dc.lft.to/lastmile_qr_scan", "ios": "https://dc.lft.to/lastmile_qr_scan"}, "name": "faecfa216193c39392ebbbdca200e494", "is_reserved": 0}, {"is_disabled": 0, "fusion_lon": 0.0, "fusion_lat": 0.0, "lat": 38.90705533333333, "type": "electric_scooter", "lon": -76.98690366666666, "bike_id": "0b98ff5525893ff04728ff35dc246e7a", "rental_uris": {"android": "https://dc.lft.to/lastmile_qr_scan", "ios": "https://dc.lft.to/lastmile_qr_scan"}, "name": "0b98ff5525893ff04728ff35dc246e7a", "is_reserved": 0}, {"is_disabled": 0, "fusion_lon": 0.0, "fusion_lat": 0.0, "lat": 38.928491666666666, "type": "electric_scooter", "lon": -77.0142395, "bike_id": "9e4d4d31c6579f3acf858d647cefaf52", "rental_uris": {"android": "https://dc.lft.to/lastmile_qr_scan", "ios": "https://dc.lft.to/lastmile_qr_scan"}, "name": "9e4d4d31c6579f3acf858d647cefaf52", "is_reserved": 0}, {"is_disabled": 0, "fusion_lon": 0.0, "fusion_lat": 0.0, "lat": 38.925352333333336, "type": "electric_scooter", "lon": -77.07655283333334, "bike_id": "c31d302da7ebb586fe2acf28506e553a", "rental_uris": {"android": "https://dc.lft.to/lastmile_qr_scan", "ios": "https://dc.lft.to/lastmile_qr_scan"}, "name": "c31d302da7ebb586fe2acf28506e553a", "is_reserved": 0}, {"is_disabled": 0, "fusion_lon": 0.0, "fusion_lat": 0.0, "lat": 38.92535433333333, "type": "electric_scooter", "lon": -77.044171, "bike_id": "c0e968b73fa09a9efb245db79ba45e2d", "rental_uris": {"android": "https://dc.lft.to/lastmile_qr_scan", "ios": "https://dc.lft.to/lastmile_qr_scan"}, "name": "c0e968b73fa09a9efb245db79ba45e2d", "is_reserved": 0}, {"is_disabled": 0, "fusion_lon": 0.0, "fusion_lat": 0.0, "lat": 38.91919583333333, "type": "electric_scooter", "lon": -77.04175616666667, "bike_id": "d5eb52c293f71fb75810899224afc8ec", "rental_uris": {"android": "https://dc.lft.to/lastmile_qr_scan", "ios": "https://dc.lft.to/lastmile_qr_scan"}, "name": "d5eb52c293f71fb75810899224afc8ec", "is_reserved": 0},