{"data": {"bikes": [{"rental_uris": {"android": "https://dc.lft.to/lastmile_qr_scan", "ios": "https://dc.lft.to/lastmile_qr_scan"}, "type": "electric_scooter", "lon": -77.02810016666666, "name": "7d24300dc270ea4b12838355d3880041", "bike_id": "7d24300dc270ea4b12838355d3880041", "fusion_lat": 0.0, "is_reserved": 0, "lat": 38.961358, "fusion_lon": 0.0, "is_disabled": 0}, {"rental_uris": {"android": "https://dc.lft.to/lastmile_qr_scan", "ios": "https://dc.lft.to/lastmile_qr_scan"}, "type": "electric_scooter", "lon": -77.037025, "name": "50fae7b22735a6b25116f0a40f7a63db", "bike_id": "50fae7b22735a6b25116f0a40f7a63db", "fusion_lat": 0.0, "is_reserved": 0, "lat": 38.92643866666667, "fusion_lon": 0.0, "is_disabled": 0}, {"rental_uris": {"android": "https://dc.lft.to/lastmile_qr_scan", "ios": "https://dc.lft.to/lastmile_qr_scan"}, "type": "electric_scooter", "lon": -77.06780366666666, "name": "761da2674353cb3608fc98f4ab68a91a", "bike_id": "761da2674353cb3608fc98f4ab68a91a", "fusion_lat": 0.0, "is_reserved": 0, "lat": 38.95214166666667, "fusion_lon": 0.0, "is_disabled": 0}, {"rental_uris": {"android": "https://dc.lft.to/lastmile_qr_scan", "ios": "https://dc.lft.to/lastmile_qr_scan"}, "type": "electric_scooter", "lon": -77.00741116666667, "name": "8096a8506344146a163996caebc7b894", "bike_id": "8096a8506344146a163996caebc7b894", "fusion_lat": 0.0, "is_reserved": 0, "lat": 38.955214833333336, "fusion_lon": 0.0, "is_disabled": 0}, {"rental_uris": {"android": "https://dc.lft.to/lastmile_qr_scan", "ios": "https://dc.lft.to/lastmile_qr_scan"}, "type": "electric_scooter", "lon": -77.02005983333333, "name": "c0dcc71616460d14207105b15105af11", "bike_id": "c0dcc71616460d14207105b15105af11", "fusion_lat": 0.0, "is_reserved": 0, "lat": 38.92418466666667, "fusion_lon": 0.0, "is_disabled": 0}, {"rental_uris": {"android": "https://dc.lft.to/lastmile_qr_scan", "ios": "https://dc.lft.to/lastmile_qr_scan"}, "type": "electric_scooter", "lon": -77.00966333333334, "name": "23d9a57aa186b8220fb29016c436daf0", "bike_id": "23d9a57aa186b8220fb29016c436daf0", "fusion_lat": 0.0, "is_reserved": 0, "lat": 38.8812715, "fusion_lon": 0.0, "is_disabled": 0}, {"rental_uris": {"android": "https://dc.lft.to/lastmile_qr_scan", "ios": "https://dc.lft.to/lastmile_qr_scan"}, "type": "electric_scooter", "lon": -77.03348433333333, "name": "458ffeb3942c25b3f9ca9339dba10e04", "bike_id": "458ffeb3942c25b3f9ca9339dba10e04", "fusion_lat": 0.0, "is_reserved": 0, "lat": 38.90247083333333, "fusion_lon": 0.0, "is_disabled": 0}, {"rental_uris": {"android": "https://dc.lft.to/lastmile_qr_scan", "ios": "https://dc.lft.to/lastmile_qr_scan"}, "type": "electric_scooter", "lon": -77.0250335, "name": "36c4b77368bcba3bc714ddb9db1012ba", "bike_id": "36c4b77368bcba3bc714ddb9db1012ba", "fusion_lat": 0.0, "is_reserved": 0, "lat": 38.94201983333333, "fusion_lon": 0.0, "is_disabled": 0}, {"rental_uris": {"android": "https://dc.lft.to/lastmile_qr_scan", "ios": "https://dc.lft.to/lastmile_qr_scan"}, "type": "electric_scooter", "lon": -77.0326175, "name": "497f5eb47af9ecbdedbda5ad36452067", "bike_id": "497f5eb47af9ecbdedbda5ad36452067", "fusion_lat": 0.0, "is_reserved": 0, "lat": 38.935263, "fusion_lon": 0.0, "is_disabled": 0}, {"rental_uris": {"android": "https://dc.lft.to/lastmile_qr_scan", "ios": "https://dc.lft.to/lastmile_qr_scan"}, "type": "electric_scooter", "lon": -77.04371433333333, "name": "9444a3fde284b2060690cae7670aee34", "bike_id": "9444a3fde284b2060690cae7670aee34", "fusion_lat": 0.0, "is_reserved": 0, "lat": 38.9026785, "fusion_lon": 0.0, "is_disabled": 0}, {"rental_uris": {"android": "https://dc.lft.to/lastmile_qr_scan", "ios": "https://dc.lft.to/lastmile_qr_scan"}, "type": "electric_scooter", "lon": -76.99067033333333, "name": "5007bb770cb305c37d353bb701fa2e87", "bike_id": "5007bb770cb305c37d353bb701fa2e87", "fusion_lat": 0.0, "is_reserved": 0, "lat": 38.929472833333335, "fusion_lon": 0.0, "is_disabled": 0}, {"rental_uris": {"android": "https://dc.lft.to/lastmile_qr_scan", "ios": "https://dc.lft.to/lastmile_qr_scan"}, "type": "electric_scooter", "lon": -77.04871833333333, "name": "f185313e7af1b084ff4897d4e8384649", "bike_id": "f185313e7af1b084ff4897d4e8384649", "fusion_lat": 0.0, "is_reserved": 0, "lat": 38.909782166666666, "fusion_lon": 0.0, "is_disabled": 0}, {"rental_uris": {"android": "https://dc.lft.to/lastmile_qr_scan", "ios": "https://dc.lft.to/lastmile_qr_scan"}, "type": "electric_scooter", "lon": -77.025601, "name": "39e3773b5719cbba567bf38a4f7e87be", "bike_id": "39e3773b5719cbba567bf38a4f7e87be", "fusion_lat": 0.0, "is_reserved": 0, "lat": 38.94164716666667, "fusion_lon": 0.0, "is_disabled": 0}, {"rental_uris": {"android": "https://dc.lft.to/lastmile_qr_scan", "ios": "https://dc.lft.to/lastmile_qr_scan"}, "type": "electric_scooter", "lon": -77.04653633333334, "name": "20bd85d76b7e85e18f7c18875b3ab39d", "bike_id": "20bd85d76b7e85e18f7c18875b3ab39d", "fusion_lat": 0.0, "is_reserved": 0, "lat": 38.893461, "fusion_lon": 0.0, "is_disabled": 0}, {"rental_uris": {"android": "https://dc.lft.to/lastmile_qr_scan", "ios": "https://dc.lft.to/lastmile_qr_scan"}, "type": "electric_scooter", "lon": -77.03217, "name": "4fe16df18440685ec1397d0bd345bf0c", "bike_id": "4fe16df18440685ec1397d0bd345bf0c", "fusion_lat": 0.0, "is_reserved": 0, "lat": 38.88621583333333, "fusion_lon": 0.0, "is_disabled": 0}, {"rental_uris": {"android": "https://dc.lft.to/lastmile_qr_scan", "ios": "https://dc.lft.to/lastmile_qr_scan"}, "type": "electric_scooter", "lon": -77.03149616666667, "name": "cf5fd5412a4c265ebdffd2b9a867e7a0", "bike_id": "cf5fd5412a4c265ebdffd2b9a867e7a0", "fusion_lat": 0.0, "is_reserved": 0, "lat": 38.897263833333334, "fusion_lon": 0.0, "is_disabled": 0}, {"rental_uris": {"android": "https://dc.lft.to/lastmile_qr_scan", "ios": "https://dc.lft.to/lastmile_qr_scan"}, "type": "electric_scooter", "lon": -77.00335566666666, "name": "0055ecbb390c99de8cf886fba1b98889", "bike_id": "0055ecbb390c99de8cf886fba1b98889", "fusion_lat": 0.0, "is_reserved": 0, "lat": 38.89359916666667, "fusion_lon": 0.0, "is_disabled": 0}, {"rental_uris": {"android": "https://dc.lft.to/lastmile_qr_scan", "ios": "https://dc.lft.to/lastmile_qr_scan"}, "type": "electric_scooter", "lon": -77.03502133333333, "name": "925f12262130cb69dedbe99e92d1606b", "bike_id": "925f12262130cb69dedbe99e92d1606b", "fusion_lat": 0.0, "is_reserved": 0, "lat": 38.90370083333333, "fusion_lon": 0.0, "is_disabled": 0}, {"rental_uris": {"android": "https://dc.lft.to/lastmile_qr_scan", "ios": "https://dc.lft.to/lastmile_qr_scan"}, "type": "electric_scooter", "lon": -77.03392133333334, "name": "6f3c3858aed7d97698554104d485d85a", "bike_id": "6f3c3858aed7d97698554104d485d85a", "fusion_lat": 0.0, "is_reserved": 0, "lat": 38.9204375, "fusion_lon": 0.0, "is_disabled": 0}, {"rental_uris": {"android": "https://dc.lft.to/lastmile_qr_scan", "ios": "https://dc.lft.to/lastmile_qr_scan"}, "type": "electric_bike", "lon": -77.10129733333333, "name": "607bfa2bbe1729afd1af5e12aaee7c44", "bike_id": "607bfa2bbe1729afd1af5e12aaee7c44", "fusion_lat": 0.0, "is_reserved": 0, "lat": 38.852087166666664, "fusion_lon": 0.0, "is_disabled": 0}, {"rental_uris": {"android": "https://dc.lft.to/lastmile_qr_scan", "ios": "https://dc.lft.to/lastmile_qr_scan"}, "type": "electric_scooter", "lon": -77.029766, "name": "c86fef4de4a9c48a375b542d5e3f9da5", "bike_id": "c86fef4de4a9c48a375b542d5e3f9da5", "fusion_lat": 0.0, "is_reserved": 0, "lat": 38.962315833333335, "fusion_lon": 0.0, "is_disabled": 0}, {"rental_uris": {"android": "https://dc.lft.to/lastmile_qr_scan", "ios": "https://dc.lft.to/lastmile_qr_scan"}, "type": "electric_scooter", "lon": -76.99494166666666, "name": "8d2a65ea21385330a949ad472eb2fbb9", "bike_id": "8d2a65ea21385330a949ad472eb2fbb9", "fusion_lat": 0.0, "is_reserved": 0, "lat": 38.86220516666667, "fusion_lon": 0.0, "is_disabled": 0}, {"rental_uris": {"android": "https://dc.lft.to/lastmile_qr_scan", "ios": "https://dc.lft.to/lastmile_qr_scan"}, "type": "electric_scooter", "lon": -77.04386666666667, "name": "b6c6a3bf32980da30457515907a266de", "bike_id": "b6c6a3bf32980da30457515907a266de", "fusion_lat": 0.0, "is_reserved": 0, "lat": 38.92362683333333, "fusion_lon": 0.0, "is_disabled": 0}, {"rental_uris": {"android": "https://dc.lft.to/lastmile_qr_scan", "ios": "https://dc.lft.to/lastmile_qr_scan"}, "type": "electric_bike", "lon": -77.05170816666667, "name": "e3cfd7952b548538a5282ece27370642", "bike_id": "e3cfd7952b548538a5282ece27370642", "fusion_lat": 0.0, "is_reserved": 0, "lat": 38.90317183333333, "fusion_lon": 0.0, "is_disabled": 0}, {"rental_uris": {"android": "https://dc.lft.to/lastmile_qr_scan", "ios": "https://dc.lft.to/lastmile_qr_scan"}, "type": "electric_bike", "lon": -76.87776166666667, "name": "a1c0797696dc48d242650bf00a504925", "bike_id": "a1c0797696dc48d242650bf00a504925", "fusion_lat": 0.0, "is_reserved": 0, "lat": 38.99224933333333, "fusion_lon": 0.0, "is_disabled": 0}, {"rental_uris": {"android": "https://dc.lft.to/lastmile_qr_scan", "ios": "https://dc.lft.to/lastmile_qr_scan"}, "type": "electric_scooter", "lon": -77.03791216666667, "name": "543ee9ce211ab75268d75bb2f52fb9b7", "bike_id": "543ee9ce211ab75268d75bb2f52fb9b7", "fusion_lat": 0.0, "is_reserved": 0, "lat": 38.926312833333334, "fusion_lon": 0.0, "is_disabled": 0}, {"rental_uris": {"android": "https://dc.lft.to/lastmile_qr_scan", "ios": "https://dc.lft.to/lastmile_qr_scan"}, "type": "electric_scooter", "lon": -77.03290416666667, "name": "b38a3ea4358ef9d47dfbbad183a7cc0f", "bike_id": "b38a3ea4358ef9d47dfbbad183a7cc0f", "fusion_lat": 0.0, "is_reserved": 0, "lat": 38.899005333333335, "fusion_lon": 0.0, "is_disabled": 0}, {"rental_uris": {"android": "https://dc.lft.to/lastmile_qr_scan", "ios": "https://dc.lft.to/lastmile_qr_scan"}, "type": "electric_scooter", "lon": -77.03543466666666, "name": "9ed2ce8d010debe28f87fd2e13f68b6f", "bike_id": "9ed2ce8d010debe28f87fd2e13f68b6f", "fusion_lat": 0.0, "is_reserved": 0, "lat": 38.92362, "fusion_lon": 0.0, "is_disabled": 0}, {"rental_uris": {"android": "https://dc.lft.to/lastmile_qr_scan", "ios": "https://dc.lft.to/lastmile_qr_scan"}, "type": "electric_bike", "lon": -76.94871733333333, "name": "937ccacf4159d395979be556d43d1559", "bike_id": "937ccacf4159d395979be556d43d1559", "fusion_lat": 0.0, "is_reserved": 0, "lat": 38.88969083333333, "fusion_lon": 0.0, "is_disabled": 0}, {"rental_uris": {"android": "https://dc.lft.to/lastmile_qr_scan", "ios": "https://dc.lft.to/lastmile_qr_scan"}, "type": "electric_bike", "lon": -77.107566, "name": "4d3165858ab67d1ab10f24b0e5cd6c94", "bike_id": "4d3165858ab67d1ab10f24b0e5cd6c94", "fusion_lat": 0.0, "is_reserved": 0, "lat": 38.8551375, "fusion_lon": 0.0, "is_disabled": 0}, {"rental_uris": {"android": "https://dc.lft.to/lastmile_qr_scan", "ios": "https://dc.lft.to/lastmile_qr_scan"}, "type": "electric_scooter", "lon": -77.00333866666666, "name": "cdc74547e6b068da914f0e6e6c82f77d", "bike_id": "cdc74547e6b068da914f0e6e6c82f77d", "fusion_lat": 0.0, "is_reserved": 0, "lat": 38.89355366666667, "fusion_lon": 0.0, "is_disabled": 0}, {"rental_uris": {"android": "https://dc.lft.to/lastmile_qr_scan", "ios": "https://dc.lft.to/lastmile_qr_scan"}, "type": "electric_bike", "lon": -76.963879, "name": "4c27bc5d08afaf85601344677d4f4573", "bike_id": "4c27bc5d08afaf85601344677d4f4573", "fusion_lat": 0.0, "is_reserved": 0, "lat": 38.975764833333336, "fusion_lon": 0.0, "is_disabled": 0}, {"rental_uris": {"android": "https://dc.lft.to/lastmile_qr_scan", "ios": "https://dc.lft.to/lastmile_qr_scan"}, "type": "electric_scooter", "lon": -77.02789216666666, "name": "bf207effa5fa4eba2932635a056bfef5", "bike_id": "bf207effa5fa4eba2932635a056bfef5", "fusion_lat": 0.0, "is_reserved": 0, "lat": 38.89817716666667, "fusion_lon": 0.0, "is_disabled": 0}, {"rental_uris": {"android": "https://dc.lft.to/lastmile_qr_scan", "ios": "https://dc.lft.to/lastmile_qr_scan"}, "type": "electric_bike", "lon": -76.98529333333333, "name": "7dd84a072fa0a94e72457416c2e3f930", "bike_id": "7dd84a072fa0a94e72457416c2e3f930", "fusion_lat": 0.0, "is_reserved": 0, "lat": 38.91996533333333, "fusion_lon": 0.0, "is_disabled": 0}, {"rental_uris": {"android": "https://dc.lft.to/lastmile_qr_scan", "ios": "https://dc.lft.to/lastmile_qr_scan"}, "type": "electric_scooter", "lon": -76.98778633333333, "name": "ccb523b5710e8cdfa47d8051d191ca9f", "bike_id": "ccb523b5710e8cdfa47d8051d191ca9f", "fusion_lat": 0.0, "is_reserved": 0, "lat": 38.900271000000004, "fusion_lon": 0.0, "is_disabled": 0}, {"rental_uris": {"android": "https://dc.lft.to/lastmile_qr_scan", "ios": "https://dc.lft.to/lastmile_qr_scan"}, "type": "electric_scooter", "lon": -77.03612866666667, "name": "a39a549ca0f4a3c52ed7c68f0086e041", "bike_id": "a39a549ca0f4a3c52ed7c68f0086e041", "fusion_lat": 0.0, "is_reserved": 0, "lat": 38.911055, "fusion_lon": 0.0, "is_disabled": 0}, {"rental_uris": {"android": "https://dc.lft.to/lastmile_qr_scan", "ios": "https://dc.lft.to/lastmile_qr_scan"}, "type": "electric_scooter", "lon": -76.98777916666667, "name": "8caf1081e8b0161ab07acf18df0c151a", "bike_id": "8caf1081e8b0161ab07acf18df0c151a", "fusion_lat": 0.0, "is_reserved": 0, "lat": 38.90026316666667, "fusion_lon": 0.0, "is_disabled": 0}, {"rental_uris": {"android": "https://dc.lft.to/lastmile_qr_scan", "ios": "https://dc.lft.to/lastmile_qr_scan"}, "type": "electric_scooter", "lon": -77.03036116666667, "name": "885ab5086ea4184f5efd8b399315bb07", "bike_id": "885ab5086ea4184f5efd8b399315bb07", "fusion_lat": 0.0, "is_reserved": 0, "lat": 38.939760166666666, "fusion_lon": 0.0, "is_disabled": 0}, {"rental_uris": {"android": "https://dc.lft.to/lastmile_qr_scan", "ios": "https://dc.lft.to/lastmile_qr_scan"}, "type": "electric_scooter", "lon": -77.01852916666667, "name": "aab7d42bd11ae0b57488053e1145b1f0", "bike_id": "aab7d42bd11ae0b57488053e1145b1f0", "fusion_lat": 0.0, "is_reserved": 0, "lat": 38.91970583333333, "fusion_lon": 0.0, "is_disabled": 0}, {"rental_uris": {"android": "https://dc.lft.to/lastmile_qr_scan", "ios": "https://dc.lft.to/lastmile_qr_scan"}, "type": "electric_scooter", "lon": -77.03200933333333, "name": "0557b6f926fe8c80065bdf9d8bc15e22", "bike_id": "0557b6f926fe8c80065bdf9d8bc15e22", "fusion_lat": 0.0, "is_reserved": 0, "lat": 38.902641833333334, "fusion_lon": 0.0, "is_disabled": 0}, {"rental_uris": {"android": "https://dc.lft.to/lastmile_qr_scan", "ios": "https://dc.lft.to/lastmile_qr_scan"}, "type": "electric_bike", "lon": -77.00786333333333, "name": "5062e14e9e19d485b10a22e561c6311c", "bike_id": "5062e14e9e19d485b10a22e561c6311c", "fusion_lat": 0.0, "is_reserved": 0, "lat": 38.878596, "fusion_lon": 0.0, "is_disabled": 0}, {"rental_uris": {"android": "https://dc.lft.to/lastmile_qr_scan", "ios": "https://dc.lft.to/lastmile_qr_scan"}, "type": "electric_scooter", "lon": -77.06754983333333, "name": "2d644ba76cf9bac23172fed2d4742b86", "bike_id": "2d644ba76cf9bac23172fed2d4742b86", "fusion_lat": 0.0, "is_reserved": 0, "lat": 38.94979133333333, "fusion_lon": 0.0, "is_disabled": 0}, {"rental_uris": {"android": "https://dc.lft.to/lastmile_qr_scan", "ios": "https://dc.lft.to/lastmile_qr_scan"}, "type": "electric_scooter", "lon": -77.020061, "name": "e98f08c7dc12029b83f7a61163fb0830", "bike_id": "e98f08c7dc12029b83f7a61163fb0830", "fusion_lat": 0.0, "is_reserved": 0, "lat": 38.9241395, "fusion_lon": 0.0, "is_disabled": 0}, {"rental_uris": {"android": "https://dc.lft.to/lastmile_qr_scan", "ios": "https://dc.lft.to/lastmile_qr_scan"}, "type": "electric_scooter", "lon": -77.03183033333333, "name": "d11c76a014485f7a940f783b4c8b9858", "bike_id": "d11c76a014485f7a940f783b4c8b9858", "fusion_lat": 0.0, "is_reserved": 0, "lat": 38.90011833333333, "fusion_lon": 0.0, "is_disabled": 0}, {"rental_uris": {"android": "https://dc.lft.to/lastmile_qr_scan", "ios": "https://dc.lft.to/lastmile_qr_scan"}, "type": "electric_scooter", "lon": -77.03273616666667, "name": "e9420cff862391d528d275b4b0f769d2", "bike_id": "e9420cff862391d528d275b4b0f769d2", "fusion_lat": 0.0, "is_reserved": 0, "lat": 38.912550333333336, "fusion_lon": 0.0, "is_disabled": 0}, {"rental_uris": {"android": "https://dc.lft.to/lastmile_qr_scan", "ios": "https://dc.lft.to/lastmile_qr_scan"}, "type": "electric_scooter", "lon": -77.04540616666667, "name": "83a6440414bd4e6444e79391d183cda4", "bike_id": "83a6440414bd4e6444e79391d183cda4", "fusion_lat": 0.0, "is_reserved": 0, "lat": 38.9204855, "fusion_lon": 0.0, "is_disabled": 0}, {"rental_uris": {"android": "https://dc.lft.to/lastmile_qr_scan", "ios": "https://dc.lft.to/lastmile_qr_scan"}, "type": "electric_bike", "lon": -76.9721915, "name": "24f91905a8d9d18c0c64ba461e5b680f", "bike_id": "24f91905a8d9d18c0c64ba461e5b680f", "fusion_lat": 0.0, "is_reserved": 0, "lat": 38.844801333333336, "fusion_lon": 0.0, "is_disabled": 0}, {"rental_uris": {"android": "https://dc.lft.to/lastmile_qr_scan", "ios": "https://dc.lft.to/lastmile_qr_scan"}, "type": "electric_scooter", "lon": -77.0260065, "name": "7ae2f1f932a047c5861ccc7540322b98", "bike_id": "7ae2f1f932a047c5861ccc7540322b98", "fusion_lat": 0.0, "is_reserved": 0, "lat": 38.908468166666665, "fusion_lon": 0.0, "is_disabled": 0}, {"rental_uris": {"android": "https://dc.lft.to/lastmile_qr_scan", "ios": "https://dc.lft.to/lastmile_qr_scan"}, "type": "electric_scooter", "lon": -77.03208266666667, "name": "9ff1524b72053b6448ddfe91def4f056", "bike_id": "9ff1524b72053b6448ddfe91def4f056", "fusion_lat": 0.0, "is_reserved": 0, "lat": 38.939721166666665, "fusion_lon": 0.0, "is_disabled": 0}, {"rental_uris": {"android": "https://dc.lft.to/lastmile_qr_scan", "ios": "https://dc.lft.to/lastmile_qr_scan"}, "type": "electric_scooter", "lon": -77.01573916666666, "name": "ece4d0d347174a2c4bc5930da841892e", "bike_id": "ece4d0d347174a2c4bc5930da841892e", "fusion_lat": 0.0, "is_reserved": 0, "lat": 38.9657725, "fusion_lon": 0.0, "is_disabled": 0}, {"rental_uris": {"android": "https://dc.lft.to/lastmile_qr_scan", "ios": "https://dc.lft.to/lastmile_qr_scan"}, "type": "electric_scooter", "lon": -77.01462583333333, "name": "3b7fda73c8e0fb45e80cf10e9244053b", "bike_id": "3b7fda73c8e0fb45e80cf10e9244053b", "fusion_lat": 0.0, "is_reserved": 0, "lat": 38.926792666666664, "fusion_lon": 0.0, "is_disabled": 0}, {"rental_uris": {"android": "https://dc.lft.to/lastmile_qr_scan", "ios": "https://dc.lft.to/lastmile_qr_scan"}, "type": "electric_scooter", "lon": -77.03856816666666, "name": "a25f67fb65261219a7dbfb0e80ebc5de", "bike_id": "a25f67fb65261219a7dbfb0e80ebc5de", "fusion_lat": 0.0, "is_reserved": 0, "lat": 38.902758166666665, "fusion_lon": 0.0, "is_disabled": 0}, {"rental_uris": {"android": "https://dc.lft.to/lastmile_qr_scan", "ios": "https://dc.lft.to/lastmile_qr_scan"}, "type": "electric_scooter", "lon": -77.03416183333333, "name": "11abcfc6e37b67591887bbbe9a10ea1b", "bike_id": "11abcfc6e37b67591887bbbe9a10ea1b", "fusion_lat": 0.0, "is_reserved": 0, "lat": 38.924381, "fusion_lon": 0.0, "is_disabled": 0}, {"rental_uris": {"android": "https://dc.lft.to/lastmile_qr_scan", "ios": "https://dc.lft.to/lastmile_qr_scan"}, "type": "electric_scooter", "lon": -77.040435, "name": "87a9f80c5358a4d09c523137d58c03c9", "bike_id": "87a9f80c5358a4d09c523137d58c03c9", "fusion_lat": 0.0, "is_reserved": 0, "lat": 38.90546333333333, "fusion_lon": 0.0, "is_disabled": 0}, {"rental_uris": {"android": "https://dc.lft.to/lastmile_qr_scan", "ios": "https://dc.lft.to/lastmile_qr_scan"}, "type": "electric_scooter", "lon": -77.0211075, "name": "e269da2a6c21cb6d35ea9f78581c5ea5", "bike_id": "e269da2a6c21cb6d35ea9f78581c5ea5", "fusion_lat": 0.0, "is_reserved": 0, "lat": 38.94097333333333, "fusion_lon": 0.0, "is_disabled": 0}, {"rental_uris": {"android": "https://dc.lft.to/lastmile_qr_scan", "ios": "https://dc.lft.to/lastmile_qr_scan"}, "type": "electric_scooter", "lon": -76.9994865, "name": "4d636678a3413779cbbf5e7f9b814e66", "bike_id": "4d636678a3413779cbbf5e7f9b814e66", "fusion_lat": 0.0, "is_reserved": 0, "lat": 38.8429145, "fusion_lon": 0.0, "is_disabled": 0}, {"rental_uris": {"android": "https://dc.lft.to/lastmile_qr_scan", "ios": "https://dc.lft.to/lastmile_qr_scan"}, "type": "electric_scooter", "lon": -77.00071866666667, "name": "a8b71df85175ad727947646a6e136c63", "bike_id": "a8b71df85175ad727947646a6e136c63", "fusion_lat": 0.0, "is_reserved": 0, "lat": 38.919125333333334, "fusion_lon": 0.0, "is_disabled": 0}, {"rental_uris": {"android": "https://dc.lft.to/lastmile_qr_scan", "ios": "https://dc.lft.to/lastmile_qr_scan"}, "type": "electric_scooter", "lon": -77.02094, "name": "eb27beb8a301e2966885569b479d4d40", "bike_id": "eb27beb8a301e2966885569b479d4d40", "fusion_lat": 0.0, "is_reserved": 0, "lat": 38.929173666666664, "fusion_lon": 0.0, "is_disabled": 0}, {"rental_uris": {"android": "https://dc.lft.to/lastmile_qr_scan", "ios": "https://dc.lft.to/lastmile_qr_scan"}, "type": "electric_scooter", "lon": -77.02694483333333, "name": "e6efb680981687581debd09d2cbd770f", "bike_id": "e6efb680981687581debd09d2cbd770f", "fusion_lat": 0.0, "is_reserved": 0, "lat": 38.90848233333333, "fusion_lon": 0.0, "is_disabled": 0}, {"rental_uris": {"android": "https://dc.lft.to/lastmile_qr_scan", "ios": "https://dc.lft.to/lastmile_qr_scan"}, "type": "electric_scooter", "lon": -77.065213, "name": "42168819637cc4a8fbec756d8499c53f", "bike_id": "42168819637cc4a8fbec756d8499c53f", "fusion_lat": 0.0, "is_reserved": 0, "lat": 38.90520166666667, "fusion_lon": 0.0, "is_disabled": 0}, {"rental_uris": {"android": "https://dc.lft.to/lastmile_qr_scan", "ios": "https://dc.lft.to/lastmile_qr_scan"}, "type": "electric_scooter", "lon": -77.01840833333333, "name": "63c01f3e2145434cb7188cbe13b119d4", "bike_id": "63c01f3e2145434cb7188cbe13b119d4", "fusion_lat": 0.0, "is_reserved": 0, "lat": 38.87698316666667, "fusion_lon": 0.0, "is_disabled": 0}, {"rental_uris": {"android": "https://dc.lft.to/lastmile_qr_scan", "ios": "https://dc.lft.to/lastmile_qr_scan"}, "type": "electric_scooter", "lon": -77.01797216666667, "name": "e6ffb27b11ebe56b913e44a97da5bfc8", "bike_id": "e6ffb27b11ebe56b913e44a97da5bfc8", "fusion_lat": 0.0, "is_reserved": 0, "lat": 38.921100333333335, "fusion_lon": 0.0, "is_disabled": 0}, {"rental_uris": {"android": "https://dc.lft.to/lastmile_qr_scan", "ios": "https://dc.lft.to/lastmile_qr_scan"}, "type": "electric_scooter", "lon": -77.01203133333334, "name": "cde3c1f10016c79d4b340ecdeb8a3f00", "bike_id": "cde3c1f10016c79d4b340ecdeb8a3f00", "fusion_lat": 0.0, "is_reserved": 0, "lat": 38.870938833333334, "fusion_lon": 0.0, "is_disabled": 0}, {"rental_uris": {"android": "https://dc.lft.to/lastmile_qr_scan", "ios": "https://dc.lft.to/lastmile_qr_scan"}, "type": "electric_scooter", "lon": -77.00642666666667, "name": "022bcda43aed26e608ae403a79606e40", "bike_id": "022bcda43aed26e608ae403a79606e40", "fusion_lat": 0.0, "is_reserved": 0, "lat": 38.88337466666667, "fusion_lon": 0.0, "is_disabled": 0}, {"rental_uris": {"android": "https://dc.lft.to/lastmile_qr_scan", "ios": "https://dc.lft.to/lastmile_qr_scan"}, "type": "electric_scooter", "lon": -77.03187483333333, "name": "a819af23adacede1c6852ebdd6e5d50e", "bike_id": "a819af23adacede1c6852ebdd6e5d50e", "fusion_lat": 0.0, "is_reserved": 0, "lat": 38.92978866666667, "fusion_lon": 0.0, "is_disabled": 0}, {"rental_uris": {"android": "https://dc.lft.to/lastmile_qr_scan", "ios": "https://dc.lft.to/lastmile_qr_scan"}, "type": "electric_bike", "lon": -77.07797333333333, "name": "c601e1f5ad0095da6df850e916167c36", "bike_id": "c601e1f5ad0095da6df850e916167c36", "fusion_lat": 0.0, "is_reserved": 0, "lat": 38.845148, "fusion_lon": 0.0, "is_disabled": 0}, {"rental_uris": {"android": "https://dc.lft.to/lastmile_qr_scan", "ios": "https://dc.lft.to/lastmile_qr_scan"}, "type": "electric_scooter", "lon": -77.032839, "name": "59ad5e88c243139ba98985f75f92d605", "bike_id": "59ad5e88c243139ba98985f75f92d605", "fusion_lat": 0.0, "is_reserved": 0, "lat": 38.93690183333333, "fusion_lon": 0.0, "is_disabled": 0}, {"rental_uris": {"android": "https://dc.lft.to/lastmile_qr_scan", "ios": "https://dc.lft.to/lastmile_qr_scan"}, "type": "electric_scooter", "lon": -76.98758383333333, "name": "eafd948cc31a031710ff115f1b6b64a5", "bike_id": "eafd948cc31a031710ff115f1b6b64a5", "fusion_lat": 0.0, "is_reserved": 0, "lat": 38.9080625, "fusion_lon": 0.0, "is_disabled": 0}, {"rental_uris": {"android": "https://dc.lft.to/lastmile_qr_scan", "ios": "https://dc.lft.to/lastmile_qr_scan"}, "type": "electric_scooter", "lon": -76.9833945, "name": "043bc3e752c50bc23e38d994dc3f0e2d", "bike_id": "043bc3e752c50bc23e38d994dc3f0e2d", "fusion_lat": 0.0, "is_reserved": 0, "lat": 38.8625105, "fusion_lon": 0.0, "is_disabled": 0}, {"rental_uris": {"android": "https://dc.lft.to/lastmile_qr_scan", "ios": "https://dc.lft.to/lastmile_qr_scan"}, "type": "electric_scooter", "lon": -77.0240395, "name": "3142d038561a643e821c3f3ce8b43bc1", "bike_id": "3142d038561a643e821c3f3ce8b43bc1", "fusion_lat": 0.0, "is_reserved": 0, "lat": 38.9573365, "fusion_lon": 0.0, "is_disabled": 0}, {"rental_uris": {"android": "https://dc.lft.to/lastmile_qr_scan", "ios": "https://dc.lft.to/lastmile_qr_scan"}, "type": "electric_scooter", "lon": -77.03760633333333, "name": "3173e4b2fcdeef06976cc4e4d45e3e97", "bike_id": "3173e4b2fcdeef06976cc4e4d45e3e97", "fusion_lat": 0.0, "is_reserved": 0, "lat": 38.906751166666666, "fusion_lon": 0.0, "is_disabled": 0}, {"rental_uris": {"android": "https://dc.lft.to/lastmile_qr_scan", "ios": "https://dc.lft.to/lastmile_qr_scan"}, "type": "electric_scooter", "lon": -76.999509, "name": "73b69a5193f6dec28349df4f1ad02d98", "bike_id": "73b69a5193f6dec28349df4f1ad02d98", "fusion_lat": 0.0, "is_reserved": 0, "lat": 38.8429535, "fusion_lon": 0.0, "is_disabled": 0}, {"rental_uris": {"android": "https://dc.lft.to/lastmile_qr_scan", "ios": "https://dc.lft.to/lastmile_qr_scan"}, "type": "electric_scooter", "lon": -76.98754666666666, "name": "a59a887108d2ed130d3405c5d56e2447", "bike_id": "a59a887108d2ed130d3405c5d56e2447", "fusion_lat": 0.0, "is_reserved": 0, "lat": 38.84503816666667, "fusion_lon": 0.0, "is_disabled": 0}, {"rental_uris": {"android": "https://dc.lft.to/lastmile_qr_scan", "ios": "https://dc.lft.to/lastmile_qr_scan"}, "type": "electric_bike", "lon": -77.1432595, "name": "67de393fc7fbd7d509d17362bfe6cf3c", "bike_id": "67de393fc7fbd7d509d17362bfe6cf3c", "fusion_lat": 0.0, "is_reserved": 0, "lat": 39.054577, "fusion_lon": 0.0, "is_disabled": 0}, {"rental_uris": {"android": "https://dc.lft.to/lastmile_qr_scan", "ios": "https://dc.lft.to/lastmile_qr_scan"}, "type": "electric_bike", "lon": -76.97950283333333, "name": "ee712090fc32323a230bb4444bd31523", "bike_id": "ee712090fc32323a230bb4444bd31523", "fusion_lat": 0.0, "is_reserved": 0, "lat": 38.898019166666664, "fusion_lon": 0.0, "is_disabled": 0}, {"rental_uris": {"android": "https://dc.lft.to/lastmile_qr_scan", "ios": "https://dc.lft.to/lastmile_qr_scan"}, "type": "electric_scooter", "lon": -77.0144345, "name": "c243463b5082f85728cc81228d63d3cf", "bike_id": "c243463b5082f85728cc81228d63d3cf", "fusion_lat": 0.0, "is_reserved": 0, "lat": 38.87777883333333, "fusion_lon": 0.0, "is_disabled": 0}, {"rental_uris": {"android": "https://dc.lft.to/lastmile_qr_scan", "ios": "https://dc.lft.to/lastmile_qr_scan"}, "type": "electric_scooter", "lon": -76.99027616666666, "name": "09990373623d9efda0f731207922efdd", "bike_id": "09990373623d9efda0f731207922efdd", "fusion_lat": 0.0, "is_reserved": 0, "lat": 38.860767833333334, "fusion_lon": 0.0, "is_disabled": 0}, {"rental_uris": {"android": "https://dc.lft.to/lastmile_qr_scan", "ios": "https://dc.lft.to/lastmile_qr_scan"}, "type": "electric_scooter", "lon": -77.034845, "name": "04e39628930eb7926b7078b9d5966949", "bike_id": "04e39628930eb7926b7078b9d5966949", "fusion_lat": 0.0, "is_reserved": 0, "lat": 38.92866133333333, "fusion_lon": 0.0, "is_disabled": 0}, {"rental_uris": {"android": "https://dc.lft.to/lastmile_qr_scan", "ios": "https://dc.lft.to/lastmile_qr_scan"}, "type": "electric_scooter", "lon": -77.02964883333334, "name": "d4c285b44069879bc2f47ec8177eddf5", "bike_id": "d4c285b44069879bc2f47ec8177eddf5", "fusion_lat": 0.0, "is_reserved": 0, "lat": 38.9171695, "fusion_lon": 0.0, "is_disabled": 0}, {"rental_uris": {"android": "https://dc.lft.to/lastmile_qr_scan", "ios": "https://dc.lft.to/lastmile_qr_scan"}, "type": "electric_scooter", "lon": -76.948577, "name": "45f9f57a76b6d75679292f41fe3db6e9", "bike_id": "45f9f57a76b6d75679292f41fe3db6e9", "fusion_lat": 0.0, "is_reserved": 0, "lat": 38.883073, "fusion_lon": 0.0, "is_disabled": 0}, {"rental_uris": {"android": "https://dc.lft.to/lastmile_qr_scan", "ios": "https://dc.lft.to/lastmile_qr_scan"}, "type": "electric_scooter", "lon": -77.03157183333333, "name": "431ed2b97e7c66867ffc5dc32fcff229", "bike_id": "431ed2b97e7c66867ffc5dc32fcff229", "fusion_lat": 0.0, "is_reserved": 0, "lat": 38.92792516666667, "fusion_lon": 0.0, "is_disabled": 0}, {"rental_uris": {"android": "https://dc.lft.to/lastmile_qr_scan", "ios": "https://dc.lft.to/lastmile_qr_scan"}, "type": "electric_scooter", "lon": -77.03449666666667, "name": "6c0966486c217a69824b25a85b5c0152", "bike_id": "6c0966486c217a69824b25a85b5c0152", "fusion_lat": 0.0, "is_reserved": 0, "lat": 38.9053485, "fusion_lon": 0.0, "is_disabled": 0}, {"rental_uris": {"android": "https://dc.lft.to/lastmile_qr_scan", "ios": "https://dc.lft.to/lastmile_qr_scan"}, "type": "electric_scooter", "lon": -77.06188583333333, "name": "97df9680e3f29c8f607959a67dffb777", "bike_id": "97df9680e3f29c8f607959a67dffb777", "fusion_lat": 0.0, "is_reserved": 0, "lat": 38.9301335, "fusion_lon": 0.0, "is_disabled": 0}, {"rental_uris": {"android": "https://dc.lft.to/lastmile_qr_scan", "ios": "https://dc.lft.to/lastmile_qr_scan"}, "type": "electric_scooter", "lon": -77.03441033333333, "name": "c56c3edcd86d1e5803033d283a844672", "bike_id": "c56c3edcd86d1e5803033d283a844672", "fusion_lat": 0.0, "is_reserved": 0, "lat": 38.9041305, "fusion_lon": 0.0, "is_disabled": 0}, {"rental_uris": {"android": "https://dc.lft.to/lastmile_qr_scan", "ios": "https://dc.lft.to/lastmile_qr_scan"}, "type": "electric_scooter", "lon": -77.01166433333333, "name": "2920fc522869f5e7b2f50207ea969bb8", "bike_id": "2920fc522869f5e7b2f50207ea969bb8", "fusion_lat": 0.0, "is_reserved": 0, "lat": 38.903173333333335, "fusion_lon": 0.0, "is_disabled": 0}, {"rental_uris": {"android": "https://dc.lft.to/lastmile_qr_scan", "ios": "https://dc.lft.to/lastmile_qr_scan"}, "type": "electric_scooter", "lon": -76.97713816666666, "name": "80bb1c4666abdce1bde36f056019ff50", "bike_id": "80bb1c4666abdce1bde36f056019ff50", "fusion_lat": 0.0, "is_reserved": 0, "lat": 38.90026233333333, "fusion_lon": 0.0, "is_disabled": 0}, {"rental_uris": {"android": "https://dc.lft.to/lastmile_qr_scan", "ios": "https://dc.lft.to/lastmile_qr_scan"}, "type": "electric_scooter", "lon": -76.97911083333334, "name": "6052c35cb93b4d8619aedcd9561af85d", "bike_id": "6052c35cb93b4d8619aedcd9561af85d", "fusion_lat": 0.0, "is_reserved": 0, "lat": 38.894345, "fusion_lon": 0.0, "is_disabled": 0}, {"rental_uris": {"android": "https://dc.lft.to/lastmile_qr_scan", "ios": "https://dc.lft.to/lastmile_qr_scan"}, "type": "electric_scooter", "lon": -77.02647616666667, "name": "c49a9518a08f9a49edc1af6cc1a6dbd4", "bike_id": "c49a9518a08f9a49edc1af6cc1a6dbd4", "fusion_lat": 0.0, "is_reserved": 0, "lat": 38.90265816666667, "fusion_lon": 0.0, "is_disabled": 0}, {"rental_uris": {"android": "https://dc.lft.to/lastmile_qr_scan", "ios": "https://dc.lft.to/lastmile_qr_scan"}, "type": "electric_scooter", "lon": -77.0466785, "name": "48e9e835b0311ff5fa53e5c324e07e77", "bike_id": "48e9e835b0311ff5fa53e5c324e07e77", "fusion_lat": 0.0, "is_reserved": 0, "lat": 38.89332433333333, "fusion_lon": 0.0, "is_disabled": 0}, {"rental_uris": {"android": "https://dc.lft.to/lastmile_qr_scan", "ios": "https://dc.lft.to/lastmile_qr_scan"}, "type": "electric_scooter", "lon": -77.02968583333333, "name": "9f7fa4266a3e27fac27dfeab2d9b8b55", "bike_id": "9f7fa4266a3e27fac27dfeab2d9b8b55", "fusion_lat": 0.0, "is_reserved": 0, "lat": 38.89643683333333, "fusion_lon": 0.0, "is_disabled": 0}, {"rental_uris": {"android": "https://dc.lft.to/lastmile_qr_scan", "ios": "https://dc.lft.to/lastmile_qr_scan"}, "type": "electric_scooter", "lon": -77.01397983333334, "name": "ed4824cfac6011506a482a83b3cbb597", "bike_id": "ed4824cfac6011506a482a83b3cbb597", "fusion_lat": 0.0, "is_reserved": 0, "lat": 38.880309, "fusion_lon": 0.0, "is_disabled": 0}, {"rental_uris": {"android": "https://dc.lft.to/lastmile_qr_scan", "ios": "https://dc.lft.to/lastmile_qr_scan"}, "type": "electric_scooter", "lon": -77.0422585, "name": "83d4920cafc5add35941036b41627c15", "bike_id": "83d4920cafc5add35941036b41627c15", "fusion_lat": 0.0, "is_reserved": 0, "lat": 38.916990166666665, "fusion_lon": 0.0, "is_disabled": 0}, {"rental_uris": {"android": "https://dc.lft.to/lastmile_qr_scan", "ios": "https://dc.lft.to/lastmile_qr_scan"}, "type": "electric_scooter", "lon": -77.03324616666667, "name": "65bf6d5b639fd292ddf10ea119b1e2f3", "bike_id": "65bf6d5b639fd292ddf10ea119b1e2f3", "fusion_lat": 0.0, "is_reserved": 0, "lat": 38.89885366666667, "fusion_lon": 0.0, "is_disabled": 0}, {"rental_uris": {"android": "https://dc.lft.to/lastmile_qr_scan", "ios": "https://dc.lft.to/lastmile_qr_scan"}, "type": "electric_scooter", "lon": -76.98537633333333, "name": "d6fc03da68d7f334b7f4b5e3f045f103", "bike_id": "d6fc03da68d7f334b7f4b5e3f045f103", "fusion_lat": 0.0, "is_reserved": 0, "lat": 38.85851783333333, "fusion_lon": 0.0, "is_disabled": 0}, {"rental_uris": {"android": "https://dc.lft.to/lastmile_qr_scan", "ios": "https://dc.lft.to/lastmile_qr_scan"}, "type": "electric_bike", "lon": -77.10686933333334, "name": "982e2ee917c00eb9f21579acd5b37f37", "bike_id": "982e2ee917c00eb9f21579acd5b37f37", "fusion_lat": 0.0, "is_reserved": 0, "lat": 38.93582283333333, "fusion_lon": 0.0, "is_disabled": 0}, {"rental_uris": {"android": "https://dc.lft.to/lastmile_qr_scan", "ios": "https://dc.lft.to/lastmile_qr_scan"}, "type": "electric_scooter", "lon": -77.048742, "name": "c9fc02e98933e3419d12560654555956", "bike_id": "c9fc02e98933e3419d12560654555956", "fusion_lat": 0.0, "is_reserved": 0, "lat": 38.892944666666665, "fusion_lon": 0.0, "is_disabled": 0}, {"rental_uris": {"android": "https://dc.lft.to/lastmile_qr_scan", "ios": "https://dc.lft.to/lastmile_qr_scan"}, "type": "electric_scooter", "lon": -77.07106966666667, "name": "bfd405ea3fdb70cf828f2577fef81f5e", "bike_id": "bfd405ea3fdb70cf828f2577fef81f5e", "fusion_lat": 0.0, "is_reserved": 0, "lat": 38.914143333333335, "fusion_lon": 0.0, "is_disabled": 0}, {"rental_uris": {"android": "https://dc.lft.to/lastmile_qr_scan", "ios": "https://dc.lft.to/lastmile_qr_scan"}, "type": "electric_scooter", "lon": -77.04494216666667, "name": "dc5ae9c9920be7978953fe75272ac87b", "bike_id": "dc5ae9c9920be7978953fe75272ac87b", "fusion_lat": 0.0, "is_reserved": 0, "lat": 38.903767, "fusion_lon": 0.0, "is_disabled": 0}, {"rental_uris": {"android": "https://dc.lft.to/lastmile_qr_scan", "ios": "https://dc.lft.to/lastmile_qr_scan"}, "type": "electric_scooter", "lon": -77.00196116666666, "name": "7bffae145bdd10d7e637ec26512651a6", "bike_id": "7bffae145bdd10d7e637ec26512651a6", "fusion_lat": 0.0, "is_reserved": 0, "lat": 38.878273666666665, "fusion_lon": 0.0, "is_disabled": 0}, {"rental_uris": {"android": "https://dc.lft.to/lastmile_qr_scan", "ios": "https://dc.lft.to/lastmile_qr_scan"}, "type": "electric_bike", "lon": -77.06478283333334, "name": "4005bb8a186001541f209b27b33065a9", "bike_id": "4005bb8a186001541f209b27b33065a9", "fusion_lat": 0.0, "is_reserved": 0, "lat": 38.9738695, "fusion_lon": 0.0, "is_disabled": 0}, {"rental_uris": {"android": "https://dc.lft.to/lastmile_qr_scan", "ios": "https://dc.lft.to/lastmile_qr_scan"}, "type": "electric_scooter", "lon": -77.012094, "name": "974462fbbe2cce0bbd5fb8ede9a8b2e2", "bike_id": "974462fbbe2cce0bbd5fb8ede9a8b2e2", "fusion_lat": 0.0, "is_reserved": 0, "lat": 38.90669066666667, "fusion_lon": 0.0, "is_disabled": 0}, {"rental_uris": {"android": "https://dc.lft.to/lastmile_qr_scan", "ios": "https://dc.lft.to/lastmile_qr_scan"}, "type": "electric_scooter", "lon": -76.99139066666666, "name": "c9022e496c027610de23271f7bce87b6", "bike_id": "c9022e496c027610de23271f7bce87b6", "fusion_lat": 0.0, "is_reserved": 0, "lat": 38.88226916666667, "fusion_lon": 0.0, "is_disabled": 0}, {"rental_uris": {"android": "https://dc.lft.to/lastmile_qr_scan", "ios": "https://dc.lft.to/lastmile_qr_scan"}, "type": "electric_scooter", "lon": -77.0105515, "name": "fa958e1c38617399500c2980d2b89865", "bike_id": "fa958e1c38617399500c2980d2b89865", "fusion_lat": 0.0, "is_reserved": 0, "lat": 38.929886333333336, "fusion_lon": 0.0, "is_disabled": 0}, {"rental_uris": {"android": "https://dc.lft.to/lastmile_qr_scan", "ios": "https://dc.lft.to/lastmile_qr_scan"}, "type": "electric_scooter", "lon": -77.04321366666667, "name": "710b7dfe3daf5af84c94ae37c8cb7338", "bike_id": "710b7dfe3daf5af84c94ae37c8cb7338", "fusion_lat": 0.0, "is_reserved": 0, "lat": 38.892263, "fusion_lon": 0.0, "is_disabled": 0}, {"rental_uris": {"android": "https://dc.lft.to/lastmile_qr_scan", "ios": "https://dc.lft.to/lastmile_qr_scan"}, "type": "electric_scooter", "lon": -77.043234, "name": "d3afebcb8ad75ea96cbedfdc751ff8fe", "bike_id": "d3afebcb8ad75ea96cbedfdc751ff8fe", "fusion_lat": 0.0, "is_reserved": 0, "lat": 38.90894433333333, "fusion_lon": 0.0, "is_disabled": 0}, {"rental_uris": {"android": "https://dc.lft.to/lastmile_qr_scan", "ios": "https://dc.lft.to/lastmile_qr_scan"}, "type": "electric_scooter", "lon": -77.0328355, "name": "fb8c5310259b6cfb71f36d2ad411db57", "bike_id": "fb8c5310259b6cfb71f36d2ad411db57", "fusion_lat": 0.0, "is_reserved": 0, "lat": 38.898896, "fusion_lon": 0.0, "is_disabled": 0}, {"rental_uris": {"android": "https://dc.lft.to/lastmile_qr_scan", "ios": "https://dc.lft.to/lastmile_qr_scan"}, "type": "electric_bike", "lon": -77.016889, "name": "70585ceb6c088e5b737f408e815c3e15", "bike_id": "70585ceb6c088e5b737f408e815c3e15", "fusion_lat": 0.0, "is_reserved": 0, "lat": 38.975272333333336, "fusion_lon": 0.0, "is_disabled": 0}, {"rental_uris": {"android": "https://dc.lft.to/lastmile_qr_scan", "ios": "https://dc.lft.to/lastmile_qr_scan"}, "type": "electric_scooter", "lon": -77.033424, "name": "c0e581a27ddb57cc92ff26a904694cfa", "bike_id": "c0e581a27ddb57cc92ff26a904694cfa", "fusion_lat": 0.0, "is_reserved": 0, "lat": 38.9038725, "fusion_lon": 0.0, "is_disabled": 0}, {"rental_uris": {"android": "https://dc.lft.to/lastmile_qr_scan", "ios": "https://dc.lft.to/lastmile_qr_scan"}, "type": "electric_scooter", "lon": -77.03445983333333, "name": "1320156f28fc20d8b3dc2d687be93d44", "bike_id": "1320156f28fc20d8b3dc2d687be93d44", "fusion_lat": 0.0, "is_reserved": 0, "lat": 38.906703, "fusion_lon": 0.0, "is_disabled": 0}, {"rental_uris": {"android": "https://dc.lft.to/lastmile_qr_scan", "ios": "https://dc.lft.to/lastmile_qr_scan"}, "type": "electric_scooter", "lon": -77.04230966666667, "name": "000082405d7e2244e136c45603d3779a", "bike_id": "000082405d7e2244e136c45603d3779a", "fusion_lat": 0.0, "is_reserved": 0, "lat": 38.911069499999996, "fusion_lon": 0.0, "is_disabled": 0}, {"rental_uris": {"android": "https://dc.lft.to/lastmile_qr_scan", "ios": "https://dc.lft.to/lastmile_qr_scan"}, "type": "electric_scooter", "lon": -76.991716, "name": "4d7b8c5b87769b40715a9f8cdb6d5956", "bike_id": "4d7b8c5b87769b40715a9f8cdb6d5956", "fusion_lat": 0.0, "is_reserved": 0, "lat": 38.879242166666664, "fusion_lon": 0.0, "is_disabled": 0}, {"rental_uris": {"android": "https://dc.lft.to/lastmile_qr_scan", "ios": "https://dc.lft.to/lastmile_qr_scan"}, "type": "electric_scooter", "lon": -76.9950665, "name": "22549d757e5c7774ef8a1fab59b5a654", "bike_id": "22549d757e5c7774ef8a1fab59b5a654", "fusion_lat": 0.0, "is_reserved": 0, "lat": 38.926665666666665, "fusion_lon": 0.0, "is_disabled": 0}, {"rental_uris": {"android": "https://dc.lft.to/lastmile_qr_scan", "ios": "https://dc.lft.to/lastmile_qr_scan"}, "type": "electric_scooter", "lon": -77.03841566666667, "name": "323aa74581f7cf9911938ee85d6075da", "bike_id": "323aa74581f7cf9911938ee85d6075da", "fusion_lat": 0.0, "is_reserved": 0, "lat": 38.91218166666667, "fusion_lon": 0.0, "is_disabled": 0}, {"rental_uris": {"android": "https://dc.lft.to/lastmile_qr_scan", "ios": "https://dc.lft.to/lastmile_qr_scan"}, "type": "electric_scooter", "lon": -76.9788445, "name": "48838f0c270e462e399a5518b5793a5e", "bike_id": "48838f0c270e462e399a5518b5793a5e", "fusion_lat": 0.0, "is_reserved": 0, "lat": 38.920157833333334, "fusion_lon": 0.0, "is_disabled": 0}, {"rental_uris": {"android": "https://dc.lft.to/lastmile_qr_scan", "ios": "https://dc.lft.to/lastmile_qr_scan"}, "type": "electric_scooter", "lon": -77.00928766666667, "name": "b3e0293bf0f3b9a1a385147a89ab1fb7", "bike_id": "b3e0293bf0f3b9a1a385147a89ab1fb7", "fusion_lat": 0.0, "is_reserved": 0, "lat": 38.87452116666667, "fusion_lon": 0.0, "is_disabled": 0}, {"rental_uris": {"android": "https://dc.lft.to/lastmile_qr_scan", "ios": "https://dc.lft.to/lastmile_qr_scan"}, "type": "electric_scooter", "lon": -77.057313, "name": "221269965b0adb6f80642a948ea20cc8", "bike_id": "221269965b0adb6f80642a948ea20cc8", "fusion_lat": 0.0, "is_reserved": 0, "lat": 38.9337165, "fusion_lon": 0.0, "is_disabled": 0}, {"rental_uris": {"android": "https://dc.lft.to/lastmile_qr_scan", "ios": "https://dc.lft.to/lastmile_qr_scan"}, "type": "electric_scooter", "lon": -77.03439633333333, "name": "7852467639a96545b04dbca805855915", "bike_id": "7852467639a96545b04dbca805855915", "fusion_lat": 0.0, "is_reserved": 0, "lat": 38.907241666666664, "fusion_lon": 0.0, "is_disabled": 0}, {"rental_uris": {"android": "https://dc.lft.to/lastmile_qr_scan", "ios": "https://dc.lft.to/lastmile_qr_scan"}, "type": "electric_scooter", "lon": -77.00200633333333, "name": "855362ab43630d57f92a422bc14b88d4", "bike_id": "855362ab43630d57f92a422bc14b88d4", "fusion_lat": 0.0, "is_reserved": 0, "lat": 38.90239316666667, "fusion_lon": 0.0, "is_disabled": 0}, {"rental_uris": {"android": "https://dc.lft.to/lastmile_qr_scan", "ios": "https://dc.lft.to/lastmile_qr_scan"}, "type": "electric_scooter", "lon": -77.03883883333333, "name": "9c88fe487762d3ede2617bee48180402", "bike_id": "9c88fe487762d3ede2617bee48180402", "fusion_lat": 0.0, "is_reserved": 0, "lat": 38.92246266666667, "fusion_lon": 0.0, "is_disabled": 0}, {"rental_uris": {"android": "https://dc.lft.to/lastmile_qr_scan", "ios": "https://dc.lft.to/lastmile_qr_scan"}, "type": "electric_scooter", "lon": -76.98731783333334, "name": "9d844cb989b7ab0452f7216756a56bbf", "bike_id": "9d844cb989b7ab0452f7216756a56bbf", "fusion_lat": 0.0, "is_reserved": 0, "lat": 38.86711066666667, "fusion_lon": 0.0, "is_disabled": 0}, {"rental_uris": {"android": "https://dc.lft.to/lastmile_qr_scan", "ios": "https://dc.lft.to/lastmile_qr_scan"}, "type": "electric_scooter", "lon": -77.03672016666667, "name": "ef2a988a92f59b56473585f18f5a130f", "bike_id": "ef2a988a92f59b56473585f18f5a130f", "fusion_lat": 0.0, "is_reserved": 0, "lat": 38.9026805, "fusion_lon": 0.0, "is_disabled": 0}, {"rental_uris": {"android": "https://dc.lft.to/lastmile_qr_scan", "ios": "https://dc.lft.to/lastmile_qr_scan"}, "type": "electric_scooter", "lon": -77.04992366666667, "name": "d431fa0f26077bc2918f7969180484e1", "bike_id": "d431fa0f26077bc2918f7969180484e1", "fusion_lat": 0.0, "is_reserved": 0, "lat": 38.905174, "fusion_lon": 0.0, "is_disabled": 0}, {"rental_uris": {"android": "https://dc.lft.to/lastmile_qr_scan", "ios": "https://dc.lft.to/lastmile_qr_scan"}, "type": "electric_scooter", "lon": -76.94985216666667, "name": "bf9212c0c1bd263e40226f6d5477c3c0", "bike_id": "bf9212c0c1bd263e40226f6d5477c3c0", "fusion_lat": 0.0, "is_reserved": 0, "lat": 38.89432933333333, "fusion_lon": 0.0, "is_disabled": 0}, {"rental_uris": {"android": "https://dc.lft.to/lastmile_qr_scan", "ios": "https://dc.lft.to/lastmile_qr_scan"}, "type": "electric_scooter", "lon": -77.04751183333333, "name": "35a5d0465da3d5ddb5779fb61a3e145f", "bike_id": "35a5d0465da3d5ddb5779fb61a3e145f", "fusion_lat": 0.0, "is_reserved": 0, "lat": 38.9054045, "fusion_lon": 0.0, "is_disabled": 0}, {"rental_uris": {"android": "https://dc.lft.to/lastmile_qr_scan", "ios": "https://dc.lft.to/lastmile_qr_scan"}, "type": "electric_scooter", "lon": -77.04344216666667, "name": "6d80f5c2a2df4c9e2d081fe673cfab6f", "bike_id": "6d80f5c2a2df4c9e2d081fe673cfab6f", "fusion_lat": 0.0, "is_reserved": 0, "lat": 38.92190083333333, "fusion_lon": 0.0, "is_disabled": 0}, {"rental_uris": {"android": "https://dc.lft.to/lastmile_qr_scan", "ios": "https://dc.lft.to/lastmile_qr_scan"}, "type": "electric_scooter", "lon": -77.007104, "name": "a885b51f02f24071889451fa9b63bca6", "bike_id": "a885b51f02f24071889451fa9b63bca6", "fusion_lat": 0.0, "is_reserved": 0, "lat": 38.8849445, "fusion_lon": 0.0, "is_disabled": 0}, {"rental_uris": {"android": "https://dc.lft.to/lastmile_qr_scan", "ios": "https://dc.lft.to/lastmile_qr_scan"}, "type": "electric_scooter", "lon": -77.022564, "name": "9f3da636b08f8820afff0dbba7db696b", "bike_id": "9f3da636b08f8820afff0dbba7db696b", "fusion_lat": 0.0, "is_reserved": 0, "lat": 38.92825366666667, "fusion_lon": 0.0, "is_disabled": 0}, {"rental_uris": {"android": "https://dc.lft.to/lastmile_qr_scan", "ios": "https://dc.lft.to/lastmile_qr_scan"}, "type": "electric_bike", "lon": -77.1051085, "name": "531a508fa9d84758a0524cf3595d57f1", "bike_id": "531a508fa9d84758a0524cf3595d57f1", "fusion_lat": 0.0, "is_reserved": 0, "lat": 38.92847966666667, "fusion_lon": 0.0, "is_disabled": 0}, {"rental_uris": {"android": "https://dc.lft.to/lastmile_qr_scan", "ios": "https://dc.lft.to/lastmile_qr_scan"}, "type": "electric_bike", "lon": -77.07255533333333, "name": "7e8cff8ab2d8668c3891f34a506f0701", "bike_id": "7e8cff8ab2d8668c3891f34a506f0701", "fusion_lat": 0.0, "is_reserved": 0, "lat": 38.959171, "fusion_lon": 0.0, "is_disabled": 0}, {"rental_uris": {"android": "https://dc.lft.to/lastmile_qr_scan", "ios": "https://dc.lft.to/lastmile_qr_scan"}, "type": "electric_scooter", "lon": -77.03229583333334, "name": "5654bc6b0d7700e470ac953e3e1c6270", "bike_id": "5654bc6b0d7700e470ac953e3e1c6270", "fusion_lat": 0.0, "is_reserved": 0, "lat": 38.92160283333333, "fusion_lon": 0.0, "is_disabled": 0}, {"rental_uris": {"android": "https://dc.lft.to/lastmile_qr_scan", "ios": "https://dc.lft.to/lastmile_qr_scan"}, "type": "electric_bike", "lon": -77.10099883333334, "name": "370c187a3abfb02aff1764ee20f48f98", "bike_id": "370c187a3abfb02aff1764ee20f48f98", "fusion_lat": 0.0, "is_reserved": 0, "lat": 38.85865533333333, "fusion_lon": 0.0, "is_disabled": 0}, {"rental_uris": {"android": "https://dc.lft.to/lastmile_qr_scan", "ios": "https://dc.lft.to/lastmile_qr_scan"}, "type": "electric_bike", "lon": -77.09551583333334, "name": "61ca78dd9526ef2a3c986cd9d8ade061", "bike_id": "61ca78dd9526ef2a3c986cd9d8ade061", "fusion_lat": 0.0, "is_reserved": 0, "lat": 38.83807066666667, "fusion_lon": 0.0, "is_disabled": 0}, {"rental_uris": {"android": "https://dc.lft.to/lastmile_qr_scan", "ios": "https://dc.lft.to/lastmile_qr_scan"}, "type": "electric_scooter", "lon": -76.98420066666667, "name": "caac64a7166defd6829ad358b7493295", "bike_id": "caac64a7166defd6829ad358b7493295", "fusion_lat": 0.0, "is_reserved": 0, "lat": 38.859762833333335, "fusion_lon": 0.0, "is_disabled": 0}, {"rental_uris": {"android": "https://dc.lft.to/lastmile_qr_scan", "ios": "https://dc.lft.to/lastmile_qr_scan"}, "type": "electric_scooter", "lon": -77.02761483333333, "name": "44fc776a412be458eb7f900c2c73f73a", "bike_id": "44fc776a412be458eb7f900c2c73f73a", "fusion_lat": 0.0, "is_reserved": 0, "lat": 38.9428945, "fusion_lon": 0.0, "is_disabled": 0}, {"rental_uris": {"android": "https://dc.lft.to/lastmile_qr_scan", "ios": "https://dc.lft.to/lastmile_qr_scan"}, "type": "electric_scooter", "lon": -77.02950533333333, "name": "b066a5316d897be655e96da5e2aabf39", "bike_id": "b066a5316d897be655e96da5e2aabf39", "fusion_lat": 0.0, "is_reserved": 0, "lat": 38.907897, "fusion_lon": 0.0, "is_disabled": 0}, {"rental_uris": {"android": "https://dc.lft.to/lastmile_qr_scan", "ios": "https://dc.lft.to/lastmile_qr_scan"}, "type": "electric_scooter", "lon": -77.04249383333334, "name": "8995df577b732d9d4901ecedc3ff2278", "bike_id": "8995df577b732d9d4901ecedc3ff2278", "fusion_lat": 0.0, "is_reserved": 0, "lat": 38.9178335, "fusion_lon": 0.0, "is_disabled": 0}, {"rental_uris": {"android": "https://dc.lft.to/lastmile_qr_scan", "ios": "https://dc.lft.to/lastmile_qr_scan"}, "type": "electric_scooter", "lon": -77.032675, "name": "6ee607b984c547e1de676bae5cd99fc3", "bike_id": "6ee607b984c547e1de676bae5cd99fc3", "fusion_lat": 0.0, "is_reserved": 0, "lat": 38.9325525, "fusion_lon": 0.0, "is_disabled": 0}, {"rental_uris": {"android": "https://dc.lft.to/lastmile_qr_scan", "ios": "https://dc.lft.to/lastmile_qr_scan"}, "type": "electric_scooter", "lon": -77.02759733333333, "name": "ddf5c3d8efd6fbfc33a2e679191c1b9e", "bike_id": "ddf5c3d8efd6fbfc33a2e679191c1b9e", "fusion_lat": 0.0, "is_reserved": 0, "lat": 38.9539815, "fusion_lon": 0.0, "is_disabled": 0}, {"rental_uris": {"android": "https://dc.lft.to/lastmile_qr_scan", "ios": "https://dc.lft.to/lastmile_qr_scan"}, "type": "electric_scooter", "lon": -77.02346566666667, "name": "d0a1e4dc2bbff90c3e07996fef1898a8", "bike_id": "d0a1e4dc2bbff90c3e07996fef1898a8", "fusion_lat": 0.0, "is_reserved": 0, "lat": 38.92266983333333, "fusion_lon": 0.0, "is_disabled": 0}, {"rental_uris": {"android": "https://dc.lft.to/lastmile_qr_scan", "ios": "https://dc.lft.to/lastmile_qr_scan"}, "type": "electric_bike", "lon": -76.9520475, "name": "1cde81310daee365dc761fe433cd5005", "bike_id": "1cde81310daee365dc761fe433cd5005", "fusion_lat": 0.0, "is_reserved": 0, "lat": 38.936656166666666, "fusion_lon": 0.0, "is_disabled": 0}, {"rental_uris": {"android": "https://dc.lft.to/lastmile_qr_scan", "ios": "https://dc.lft.to/lastmile_qr_scan"}, "type": "electric_scooter", "lon": -77.02307783333333, "name": "322e2b4e538cc12d367077ec7a7d64c9", "bike_id": "322e2b4e538cc12d367077ec7a7d64c9", "fusion_lat": 0.0, "is_reserved": 0, "lat": 38.916142666666666, "fusion_lon": 0.0, "is_disabled": 0}, {"rental_uris": {"android": "https://dc.lft.to/lastmile_qr_scan", "ios": "https://dc.lft.to/lastmile_qr_scan"}, "type": "electric_scooter", "lon": -77.0402965, "name": "b220cfcb7db9879d92b9e0f7c8fb12b4", "bike_id": "b220cfcb7db9879d92b9e0f7c8fb12b4", "fusion_lat": 0.0, "is_reserved": 0, "lat": 38.90369116666667, "fusion_lon": 0.0, "is_disabled": 0}, {"rental_uris": {"android": "https://dc.lft.to/lastmile_qr_scan", "ios": "https://dc.lft.to/lastmile_qr_scan"}, "type": "electric_scooter", "lon": -76.99092566666667, "name": "ca9623209d9b32701110916b318edba6", "bike_id": "ca9623209d9b32701110916b318edba6", "fusion_lat": 0.0, "is_reserved": 0, "lat": 38.863553333333336, "fusion_lon": 0.0, "is_disabled": 0}, {"rental_uris": {"android": "https://dc.lft.to/lastmile_qr_scan", "ios": "https://dc.lft.to/lastmile_qr_scan"}, "type": "electric_scooter", "lon": -77.03624383333333, "name": "b01de6180ae361c3cdb59356f6bea914", "bike_id": "b01de6180ae361c3cdb59356f6bea914", "fusion_lat": 0.0, "is_reserved": 0, "lat": 38.931560166666664, "fusion_lon": 0.0, "is_disabled": 0}, {"rental_uris": {"android": "https://dc.lft.to/lastmile_qr_scan", "ios": "https://dc.lft.to/lastmile_qr_scan"}, "type": "electric_scooter", "lon": -77.035509, "name": "35135570600eafa1049c7da00301f4aa", "bike_id": "35135570600eafa1049c7da00301f4aa", "fusion_lat": 0.0, "is_reserved": 0, "lat": 38.904889833333336, "fusion_lon": 0.0, "is_disabled": 0}, {"rental_uris": {"android": "https://dc.lft.to/lastmile_qr_scan", "ios": "https://dc.lft.to/lastmile_qr_scan"}, "type": "electric_scooter", "lon": -76.987281, "name": "4888a63b94a3f7606d002dbe7454f040", "bike_id": "4888a63b94a3f7606d002dbe7454f040", "fusion_lat": 0.0, "is_reserved": 0, "lat": 38.8671365, "fusion_lon": 0.0, "is_disabled": 0}, {"rental_uris": {"android": "https://dc.lft.to/lastmile_qr_scan", "ios": "https://dc.lft.to/lastmile_qr_scan"}, "type": "electric_scooter", "lon": -77.049932, "name": "251a465d36da7c61f54217f239345e7e", "bike_id": "251a465d36da7c61f54217f239345e7e", "fusion_lat": 0.0, "is_reserved": 0, "lat": 38.90520033333333, "fusion_lon": 0.0, "is_disabled": 0}, {"rental_uris": {"android": "https://dc.lft.to/lastmile_qr_scan", "ios": "https://dc.lft.to/lastmile_qr_scan"}, "type": "electric_scooter", "lon": -77.04964083333333, "name": "43fdcca474691f6912b9f1da2a365a1a", "bike_id": "43fdcca474691f6912b9f1da2a365a1a", "fusion_lat": 0.0, "is_reserved": 0, "lat": 38.90095066666667, "fusion_lon": 0.0, "is_disabled": 0}, {"rental_uris": {"android": "https://dc.lft.to/lastmile_qr_scan", "ios": "https://dc.lft.to/lastmile_qr_scan"}, "type": "electric_scooter", "lon": -76.9650895, "name": "bcc0c95b2744d63513a45d585573c330", "bike_id": "bcc0c95b2744d63513a45d585573c330", "fusion_lat": 0.0, "is_reserved": 0, "lat": 38.8764825, "fusion_lon": 0.0, "is_disabled": 0}, {"rental_uris": {"android": "https://dc.lft.to/lastmile_qr_scan", "ios": "https://dc.lft.to/lastmile_qr_scan"}, "type": "electric_scooter", "lon": -77.0320975, "name": "39cf02f099219c84a89df5d148b36f84", "bike_id": "39cf02f099219c84a89df5d148b36f84", "fusion_lat": 0.0, "is_reserved": 0, "lat": 38.90750633333333, "fusion_lon": 0.0, "is_disabled": 0}, {"rental_uris": {"android": "https://dc.lft.to/lastmile_qr_scan", "ios": "https://dc.lft.to/lastmile_qr_scan"}, "type": "electric_scooter", "lon": -76.99630833333333, "name": "657bdeb1a2c2c1a18390c7280f319dea", "bike_id": "657bdeb1a2c2c1a18390c7280f319dea", "fusion_lat": 0.0, "is_reserved": 0, "lat": 38.84624016666667, "fusion_lon": 0.0, "is_disabled": 0}, {"rental_uris": {"android": "https://dc.lft.to/lastmile_qr_scan", "ios": "https://dc.lft.to/lastmile_qr_scan"}, "type": "electric_scooter", "lon": -77.04427866666667, "name": "bd05ea5ae3a0e89444be57d72c4f1098", "bike_id": "bd05ea5ae3a0e89444be57d72c4f1098", "fusion_lat": 0.0, "is_reserved": 0, "lat": 38.90585183333334, "fusion_lon": 0.0, "is_disabled": 0}, {"rental_uris": {"android": "https://dc.lft.to/lastmile_qr_scan", "ios": "https://dc.lft.to/lastmile_qr_scan"}, "type": "electric_scooter", "lon": -77.02115933333333, "name": "004f62b8398ab84ec3a1e3c51c5f35f8", "bike_id": "004f62b8398ab84ec3a1e3c51c5f35f8", "fusion_lat": 0.0, "is_reserved": 0, "lat": 38.917368333333336, "fusion_lon": 0.0, "is_disabled": 0}, {"rental_uris": {"android": "https://dc.lft.to/lastmile_qr_scan", "ios": "https://dc.lft.to/lastmile_qr_scan"}, "type": "electric_bike", "lon": -77.12401683333333, "name": "ce4e86ef530c4661cbe04e71a84f7023", "bike_id": "ce4e86ef530c4661cbe04e71a84f7023", "fusion_lat": 0.0, "is_reserved": 0, "lat": 38.89335533333333, "fusion_lon": 0.0, "is_disabled": 0}, {"rental_uris": {"android": "https://dc.lft.to/lastmile_qr_scan", "ios": "https://dc.lft.to/lastmile_qr_scan"}, "type": "electric_scooter", "lon": -77.0005125, "name": "b1327eb6d3eaee2f7f065129206604f4", "bike_id": "b1327eb6d3eaee2f7f065129206604f4", "fusion_lat": 0.0, "is_reserved": 0, "lat": 38.8974505, "fusion_lon": 0.0, "is_disabled": 0}, {"rental_uris": {"android": "https://dc.lft.to/lastmile_qr_scan", "ios": "https://dc.lft.to/lastmile_qr_scan"}, "type": "electric_scooter", "lon": -77.058866, "name": "55171293c82afd52e8ee02e548e33050", "bike_id": "55171293c82afd52e8ee02e548e33050", "fusion_lat": 0.0, "is_reserved": 0, "lat": 38.936366, "fusion_lon": 0.0, "is_disabled": 0}, {"rental_uris": {"android": "https://dc.lft.to/lastmile_qr_scan", "ios": "https://dc.lft.to/lastmile_qr_scan"}, "type": "electric_scooter", "lon": -77.03625216666667, "name": "e9b74fdb8461ee4da9f905ff56bfb4ee", "bike_id": "e9b74fdb8461ee4da9f905ff56bfb4ee", "fusion_lat": 0.0, "is_reserved": 0, "lat": 38.931582666666664, "fusion_lon": 0.0, "is_disabled": 0}, {"rental_uris": {"android": "https://dc.lft.to/lastmile_qr_scan", "ios": "https://dc.lft.to/lastmile_qr_scan"}, "type": "electric_scooter", "lon": -76.9367495, "name": "8f49d5934296ad3111b4510d4fb9d0f4", "bike_id": "8f49d5934296ad3111b4510d4fb9d0f4", "fusion_lat": 0.0, "is_reserved": 0, "lat": 38.887520333333335, "fusion_lon": 0.0, "is_disabled": 0}, {"rental_uris": {"android": "https://dc.lft.to/lastmile_qr_scan", "ios": "https://dc.lft.to/lastmile_qr_scan"}, "type": "electric_bike", "lon": -77.03181383333333, "name": "0f4f2f5af7039eb56d1ca9f6748bf100", "bike_id": "0f4f2f5af7039eb56d1ca9f6748bf100", "fusion_lat": 0.0, "is_reserved": 0, "lat": 38.90460483333333, "fusion_lon": 0.0, "is_disabled": 0}, {"rental_uris": {"android": "https://dc.lft.to/lastmile_qr_scan", "ios": "https://dc.lft.to/lastmile_qr_scan"}, "type": "electric_scooter", "lon": -77.03426933333333, "name": "2a9d152353276082f9a2f9281b011b03", "bike_id": "2a9d152353276082f9a2f9281b011b03", "fusion_lat": 0.0, "is_reserved": 0, "lat": 38.91926183333333, "fusion_lon": 0.0, "is_disabled": 0}, {"rental_uris": {"android": "https://dc.lft.to/lastmile_qr_scan", "ios": "https://dc.lft.to/lastmile_qr_scan"}, "type": "electric_bike", "lon": -76.93189233333334, "name": "294e4300ac35bbd960a168ce84b95a56", "bike_id": "294e4300ac35bbd960a168ce84b95a56", "fusion_lat": 0.0, "is_reserved": 0, "lat": 38.8985355, "fusion_lon": 0.0, "is_disabled": 0}, {"rental_uris": {"android": "https://dc.lft.to/lastmile_qr_scan", "ios": "https://dc.lft.to/lastmile_qr_scan"}, "type": "electric_scooter", "lon": -77.03837983333334, "name": "79c7ebcf4145c762d8dfd83510cf855c", "bike_id": "79c7ebcf4145c762d8dfd83510cf855c", "fusion_lat": 0.0, "is_reserved": 0, "lat": 38.90337916666667, "fusion_lon": 0.0, "is_disabled": 0}, {"rental_uris": {"android": "https://dc.lft.to/lastmile_qr_scan", "ios": "https://dc.lft.to/lastmile_qr_scan"}, "type": "electric_scooter", "lon": -76.98318566666667, "name": "b921acc1e1ee16d5caf85b06979bf1ac", "bike_id": "b921acc1e1ee16d5caf85b06979bf1ac", "fusion_lat": 0.0, "is_reserved": 0, "lat": 38.8881265, "fusion_lon": 0.0, "is_disabled": 0}, {"rental_uris": {"android": "https://dc.lft.to/lastmile_qr_scan", "ios": "https://dc.lft.to/lastmile_qr_scan"}, "type": "electric_scooter", "lon": -77.04673716666667, "name": "6ed7e18192b4e8c8ee40bd297f9942ac", "bike_id": "6ed7e18192b4e8c8ee40bd297f9942ac", "fusion_lat": 0.0, "is_reserved": 0, "lat": 38.895604166666665, "fusion_lon": 0.0, "is_disabled": 0}, {"rental_uris": {"android": "https://dc.lft.to/lastmile_qr_scan", "ios": "https://dc.lft.to/lastmile_qr_scan"}, "type": "electric_scooter", "lon": -76.937866, "name": "a7ad5cd3ca7e449cc9e5b9c1313a33f0", "bike_id": "a7ad5cd3ca7e449cc9e5b9c1313a33f0", "fusion_lat": 0.0, "is_reserved": 0, "lat": 38.899678, "fusion_lon": 0.0, "is_disabled": 0}, {"rental_uris": {"android": "https://dc.lft.to/lastmile_qr_scan", "ios": "https://dc.lft.to/lastmile_qr_scan"}, "type": "electric_bike", "lon": -77.0695505, "name": "564a2864167fa1e259c4306bb0ef114d", "bike_id": "564a2864167fa1e259c4306bb0ef114d", "fusion_lat": 0.0, "is_reserved": 0, "lat": 38.99044933333333, "fusion_lon": 0.0, "is_disabled": 0}, {"rental_uris": {"android": "https://dc.lft.to/lastmile_qr_scan", "ios": "https://dc.lft.to/lastmile_qr_scan"}, "type": "electric_scooter", "lon": -77.03441666666667, "name": "d69a795cea5de143c6b3aa57c8e58206", "bike_id": "d69a795cea5de143c6b3aa57c8e58206", "fusion_lat": 0.0, "is_reserved": 0, "lat": 38.928676, "fusion_lon": 0.0, "is_disabled": 0}, {"rental_uris": {"android": "https://dc.lft.to/lastmile_qr_scan", "ios": "https://dc.lft.to/lastmile_qr_scan"}, "type": "electric_scooter", "lon": -77.0251765, "name": "cb02ae83bc7ad35ee7d9ab10bedfec82", "bike_id": "cb02ae83bc7ad35ee7d9ab10bedfec82", "fusion_lat": 0.0, "is_reserved": 0, "lat": 38.926448, "fusion_lon": 0.0, "is_disabled": 0}, {"rental_uris": {"android": "https://dc.lft.to/lastmile_qr_scan", "ios": "https://dc.lft.to/lastmile_qr_scan"}, "type": "electric_scooter", "lon": -77.0189585, "name": "b0c919128af99fbe57741791c7cc47f8", "bike_id": "b0c919128af99fbe57741791c7cc47f8", "fusion_lat": 0.0, "is_reserved": 0, "lat": 38.8766575, "fusion_lon": 0.0, "is_disabled": 0}, {"rental_uris": {"android": "https://dc.lft.to/lastmile_qr_scan", "ios": "https://dc.lft.to/lastmile_qr_scan"}, "type": "electric_scooter", "lon": -77.0168005, "name": "cc7d299595018a93af86fbc79a209361", "bike_id": "cc7d299595018a93af86fbc79a209361", "fusion_lat": 0.0, "is_reserved": 0, "lat": 38.88318616666667, "fusion_lon": 0.0, "is_disabled": 0}, {"rental_uris": {"android": "https://dc.lft.to/lastmile_qr_scan", "ios": "https://dc.lft.to/lastmile_qr_scan"}, "type": "electric_scooter", "lon": -77.045033, "name": "af9fb6e71776b085b180197340419f0e", "bike_id": "af9fb6e71776b085b180197340419f0e", "fusion_lat": 0.0, "is_reserved": 0, "lat": 38.900098, "fusion_lon": 0.0, "is_disabled": 0}, {"rental_uris": {"android": "https://dc.lft.to/lastmile_qr_scan", "ios": "https://dc.lft.to/lastmile_qr_scan"}, "type": "electric_scooter", "lon": -76.990276, "name": "015ae7686e79ba17758d327dcd51c4ba", "bike_id": "015ae7686e79ba17758d327dcd51c4ba", "fusion_lat": 0.0, "is_reserved": 0, "lat": 38.864108333333334, "fusion_lon": 0.0, "is_disabled": 0}, {"rental_uris": {"android": "https://dc.lft.to/lastmile_qr_scan", "ios": "https://dc.lft.to/lastmile_qr_scan"}, "type": "electric_scooter", "lon": -76.98247783333333, "name": "3d56bbadadcca87d661a3ef804adf0e2", "bike_id": "3d56bbadadcca87d661a3ef804adf0e2", "fusion_lat": 0.0, "is_reserved": 0, "lat": 38.903113166666664, "fusion_lon": 0.0, "is_disabled": 0}, {"rental_uris": {"android": "https://dc.lft.to/lastmile_qr_scan", "ios": "https://dc.lft.to/lastmile_qr_scan"}, "type": "electric_scooter", "lon": -77.02705166666667, "name": "e8d923ed62e90a70491ba5aa6d1f4c15", "bike_id": "e8d923ed62e90a70491ba5aa6d1f4c15", "fusion_lat": 0.0, "is_reserved": 0, "lat": 38.91724083333333, "fusion_lon": 0.0, "is_disabled": 0}, {"rental_uris": {"android": "https://dc.lft.to/lastmile_qr_scan", "ios": "https://dc.lft.to/lastmile_qr_scan"}, "type": "electric_scooter", "lon": -77.00341016666667, "name": "0dba38691a4690bd2ea10ed24f99fdae", "bike_id": "0dba38691a4690bd2ea10ed24f99fdae", "fusion_lat": 0.0, "is_reserved": 0, "lat": 38.89356166666666, "fusion_lon": 0.0, "is_disabled": 0}, {"rental_uris": {"android": "https://dc.lft.to/lastmile_qr_scan", "ios": "https://dc.lft.to/lastmile_qr_scan"}, "type": "electric_scooter", "lon": -77.00902616666667, "name": "1e8fcbcaea90b067b48709858f865cef", "bike_id": "1e8fcbcaea90b067b48709858f865cef", "fusion_lat": 0.0, "is_reserved": 0, "lat": 38.900224333333334, "fusion_lon": 0.0, "is_disabled": 0}, {"rental_uris": {"android": "https://dc.lft.to/lastmile_qr_scan", "ios": "https://dc.lft.to/lastmile_qr_scan"}, "type": "electric_scooter", "lon": -76.99503083333333, "name": "dccfc813469a85ff35c767c3694dd507", "bike_id": "dccfc813469a85ff35c767c3694dd507", "fusion_lat": 0.0, "is_reserved": 0, "lat": 38.862496, "fusion_lon": 0.0, "is_disabled": 0}, {"rental_uris": {"android": "https://dc.lft.to/lastmile_qr_scan", "ios": "https://dc.lft.to/lastmile_qr_scan"}, "type": "electric_bike", "lon": -76.9983915, "name": "139f00ed45e23bc325edbd6a66cf4393", "bike_id": "139f00ed45e23bc325edbd6a66cf4393", "fusion_lat": 0.0, "is_reserved": 0, "lat": 38.83917133333333, "fusion_lon": 0.0, "is_disabled": 0}, {"rental_uris": {"android": "https://dc.lft.to/lastmile_qr_scan", "ios": "https://dc.lft.to/lastmile_qr_scan"}, "type": "electric_scooter", "lon": -76.9952935, "name": "0a3469655f8b9790935f81cf5f77b862", "bike_id": "0a3469655f8b9790935f81cf5f77b862", "fusion_lat": 0.0, "is_reserved": 0, "lat": 38.88405733333333, "fusion_lon": 0.0, "is_disabled": 0}, {"rental_uris": {"android": "https://dc.lft.to/lastmile_qr_scan", "ios": "https://dc.lft.to/lastmile_qr_scan"}, "type": "electric_bike", "lon": -77.0107655, "name": "c416b03ab4a3967e98e431e8e68c5a79", "bike_id": "c416b03ab4a3967e98e431e8e68c5a79", "fusion_lat": 0.0, "is_reserved": 0, "lat": 38.962610833333336, "fusion_lon": 0.0, "is_disabled": 0}, {"rental_uris": {"android": "https://dc.lft.to/lastmile_qr_scan", "ios": "https://dc.lft.to/lastmile_qr_scan"}, "type": "electric_scooter", "lon": -77.01889733333333, "name": "9b9ae2044fa972654d7a29617923b169", "bike_id": "9b9ae2044fa972654d7a29617923b169", "fusion_lat": 0.0, "is_reserved": 0, "lat": 38.92945433333333, "fusion_lon": 0.0, "is_disabled": 0}, {"rental_uris": {"android": "https://dc.lft.to/lastmile_qr_scan", "ios": "https://dc.lft.to/lastmile_qr_scan"}, "type": "electric_scooter", "lon": -77.00198066666667, "name": "5387549dd224c674782af33ec51dbc9c", "bike_id": "5387549dd224c674782af33ec51dbc9c", "fusion_lat": 0.0, "is_reserved": 0, "lat": 38.902379833333335, "fusion_lon": 0.0, "is_disabled": 0}, {"rental_uris": {"android": "https://dc.lft.to/lastmile_qr_scan", "ios": "https://dc.lft.to/lastmile_qr_scan"}, "type": "electric_scooter", "lon": -77.02318266666667, "name": "7e6112e9ccdd2d9c69ca2e788057f81e", "bike_id": "7e6112e9ccdd2d9c69ca2e788057f81e", "fusion_lat": 0.0, "is_reserved": 0, "lat": 38.9176805, "fusion_lon": 0.0, "is_disabled": 0}, {"rental_uris": {"android": "https://dc.lft.to/lastmile_qr_scan", "ios": "https://dc.lft.to/lastmile_qr_scan"}, "type": "electric_scooter", "lon": -77.03485733333333, "name": "96c692282a7b1cc9d4863e442dac9533", "bike_id": "96c692282a7b1cc9d4863e442dac9533", "fusion_lat": 0.0, "is_reserved": 0, "lat": 38.90252433333333, "fusion_lon": 0.0, "is_disabled": 0}, {"rental_uris": {"android": "https://dc.lft.to/lastmile_qr_scan", "ios": "https://dc.lft.to/lastmile_qr_scan"}, "type": "electric_scooter", "lon": -77.012604, "name": "49a64b986a3b55ee279f08b30d7e1561", "bike_id": "49a64b986a3b55ee279f08b30d7e1561", "fusion_lat": 0.0, "is_reserved": 0, "lat": 38.908514333333336, "fusion_lon": 0.0, "is_disabled": 0}, {"rental_uris": {"android": "https://dc.lft.to/lastmile_qr_scan", "ios": "https://dc.lft.to/lastmile_qr_scan"}, "type": "electric_bike", "lon": -77.076359, "name": "c1a9f9b111091e7bf19ff3103d24ef81", "bike_id": "c1a9f9b111091e7bf19ff3103d24ef81", "fusion_lat": 0.0, "is_reserved": 0, "lat": 38.90613616666667, "fusion_lon": 0.0, "is_disabled": 0}, {"rental_uris": {"android": "https://dc.lft.to/lastmile_qr_scan", "ios": "https://dc.lft.to/lastmile_qr_scan"}, "type": "electric_scooter", "lon": -77.0055395, "name": "78724be314361b67e8131e8c962a6129", "bike_id": "78724be314361b67e8131e8c962a6129", "fusion_lat": 0.0, "is_reserved": 0, "lat": 38.90577016666667, "fusion_lon": 0.0, "is_disabled": 0}, {"rental_uris": {"android": "https://dc.lft.to/lastmile_qr_scan", "ios": "https://dc.lft.to/lastmile_qr_scan"}, "type": "electric_scooter", "lon": -77.02424116666667, "name": "97cb55cb59d6dd239d69da29ddbee3ed", "bike_id": "97cb55cb59d6dd239d69da29ddbee3ed", "fusion_lat": 0.0, "is_reserved": 0, "lat": 38.8922715, "fusion_lon": 0.0, "is_disabled": 0}, {"rental_uris": {"android": "https://dc.lft.to/lastmile_qr_scan", "ios": "https://dc.lft.to/lastmile_qr_scan"}, "type": "electric_scooter", "lon": -77.02809916666666, "name": "a2448ac805fb033e070e039ad3039f13", "bike_id": "a2448ac805fb033e070e039ad3039f13", "fusion_lat": 0.0, "is_reserved": 0, "lat": 38.96130316666667, "fusion_lon": 0.0, "is_disabled": 0}, {"rental_uris": {"android": "https://dc.lft.to/lastmile_qr_scan", "ios": "https://dc.lft.to/lastmile_qr_scan"}, "type": "electric_scooter", "lon": -77.0376095, "name": "3206988a057360ed2832688d784f4aba", "bike_id": "3206988a057360ed2832688d784f4aba", "fusion_lat": 0.0, "is_reserved": 0, "lat": 38.892987, "fusion_lon": 0.0, "is_disabled": 0}, {"rental_uris": {"android": "https://dc.lft.to/lastmile_qr_scan", "ios": "https://dc.lft.to/lastmile_qr_scan"}, "type": "electric_bike", "lon": -77.08539516666667, "name": "0dec721717e6dc3ef5a36f7a2b9a824f", "bike_id": "0dec721717e6dc3ef5a36f7a2b9a824f", "fusion_lat": 0.0, "is_reserved": 0, "lat": 38.85619116666667, "fusion_lon": 0.0, "is_disabled": 0}, {"rental_uris": {"android": "https://dc.lft.to/lastmile_qr_scan", "ios": "https://dc.lft.to/lastmile_qr_scan"}, "type": "electric_scooter", "lon": -77.06537383333334, "name": "61a0f948787696a2c3fb5e19a601d97b", "bike_id": "61a0f948787696a2c3fb5e19a601d97b", "fusion_lat": 0.0, "is_reserved": 0, "lat": 38.950664333333336, "fusion_lon": 0.0, "is_disabled": 0}, {"rental_uris": {"android": "https://dc.lft.to/lastmile_qr_scan", "ios": "https://dc.lft.to/lastmile_qr_scan"}, "type": "electric_scooter", "lon": -77.03742666666666, "name": "f58562d09b753c9524a93e2620fdf4ec", "bike_id": "f58562d09b753c9524a93e2620fdf4ec", "fusion_lat": 0.0, "is_reserved": 0, "lat": 38.916981, "fusion_lon": 0.0, "is_disabled": 0}, {"rental_uris": {"android": "https://dc.lft.to/lastmile_qr_scan", "ios": "https://dc.lft.to/lastmile_qr_scan"}, "type": "electric_scooter", "lon": -77.020388, "name": "1a21927830d6844ae95634c284a9281d", "bike_id": "1a21927830d6844ae95634c284a9281d", "fusion_lat": 0.0, "is_reserved": 0, "lat": 38.8926925, "fusion_lon": 0.0, "is_disabled": 0}, {"rental_uris": {"android": "https://dc.lft.to/lastmile_qr_scan", "ios": "https://dc.lft.to/lastmile_qr_scan"}, "type": "electric_scooter", "lon": -77.0183195, "name": "fd8067d08dd1f75b31fb41270bd57a30", "bike_id": "fd8067d08dd1f75b31fb41270bd57a30", "fusion_lat": 0.0, "is_reserved": 0, "lat": 38.920032, "fusion_lon": 0.0, "is_disabled": 0}, {"rental_uris": {"android": "https://dc.lft.to/lastmile_qr_scan", "ios": "https://dc.lft.to/lastmile_qr_scan"}, "type": "electric_scooter", "lon": -77.03648333333334, "name": "f0146053caf239b4caca97a7462742b4", "bike_id": "f0146053caf239b4caca97a7462742b4", "fusion_lat": 0.0, "is_reserved": 0, "lat": 38.91314083333333, "fusion_lon": 0.0, "is_disabled": 0}, {"rental_uris": {"android": "https://dc.lft.to/lastmile_qr_scan", "ios": "https://dc.lft.to/lastmile_qr_scan"}, "type": "electric_scooter", "lon": -76.98701433333333, "name": "f1bc594db753597e918a7fb8a44fb7e5", "bike_id": "f1bc594db753597e918a7fb8a44fb7e5", "fusion_lat": 0.0, "is_reserved": 0, "lat": 38.902044333333336, "fusion_lon": 0.0, "is_disabled": 0}, {"rental_uris": {"android": "https://dc.lft.to/lastmile_qr_scan", "ios": "https://dc.lft.to/lastmile_qr_scan"}, "type": "electric_scooter", "lon": -76.98511833333333, "name": "4a0ba31b4976599523296fc91654fe6f", "bike_id": "4a0ba31b4976599523296fc91654fe6f", "fusion_lat": 0.0, "is_reserved": 0, "lat": 38.880859666666666, "fusion_lon": 0.0, "is_disabled": 0}, {"rental_uris": {"android": "https://dc.lft.to/lastmile_qr_scan", "ios": "https://dc.lft.to/lastmile_qr_scan"}, "type": "electric_bike", "lon": -77.1779975, "name": "6cc3e452ae2f35d3646e53ca81f5383c", "bike_id": "6cc3e452ae2f35d3646e53ca81f5383c", "fusion_lat": 0.0, "is_reserved": 0, "lat": 39.0884345, "fusion_lon": 0.0, "is_disabled": 0}, {"rental_uris": {"android": "https://dc.lft.to/lastmile_qr_scan", "ios": "https://dc.lft.to/lastmile_qr_scan"}, "type": "electric_scooter", "lon": -76.99455733333333, "name": "56768be975e9709427b8345e87b83af8", "bike_id": "56768be975e9709427b8345e87b83af8", "fusion_lat": 0.0, "is_reserved": 0, "lat": 38.886006, "fusion_lon": 0.0, "is_disabled": 0}, {"rental_uris": {"android": "https://dc.lft.to/lastmile_qr_scan", "ios": "https://dc.lft.to/lastmile_qr_scan"}, "type": "electric_scooter", "lon": -77.02559683333334, "name": "2d7114ad3ea32fd115a27d4328e9d9aa", "bike_id": "2d7114ad3ea32fd115a27d4328e9d9aa", "fusion_lat": 0.0, "is_reserved": 0, "lat": 38.941619333333335, "fusion_lon": 0.0, "is_disabled": 0}, {"rental_uris": {"android": "https://dc.lft.to/lastmile_qr_scan", "ios": "https://dc.lft.to/lastmile_qr_scan"}, "type": "electric_scooter", "lon": -76.9888185, "name": "0cbfe691ed015907b80f67c78f5d6e64", "bike_id": "0cbfe691ed015907b80f67c78f5d6e64", "fusion_lat": 0.0, "is_reserved": 0, "lat": 38.8667785, "fusion_lon": 0.0, "is_disabled": 0}, {"rental_uris": {"android": "https://dc.lft.to/lastmile_qr_scan", "ios": "https://dc.lft.to/lastmile_qr_scan"}, "type": "electric_bike", "lon": -77.02631416666667, "name": "377ade578bbbaf2c122f4eb52fb51f72", "bike_id": "377ade578bbbaf2c122f4eb52fb51f72", "fusion_lat": 0.0, "is_reserved": 0, "lat": 38.962189, "fusion_lon": 0.0, "is_disabled": 0}, {"rental_uris": {"android": "https://dc.lft.to/lastmile_qr_scan", "ios": "https://dc.lft.to/lastmile_qr_scan"}, "type": "electric_scooter", "lon": -76.9875385, "name": "07579789f3e6b13df2353a23f5070bd3", "bike_id": "07579789f3e6b13df2353a23f5070bd3", "fusion_lat": 0.0, "is_reserved": 0, "lat": 38.84461433333333, "fusion_lon": 0.0, "is_disabled": 0}, {"rental_uris": {"android": "https://dc.lft.to/lastmile_qr_scan", "ios": "https://dc.lft.to/lastmile_qr_scan"}, "type": "electric_bike", "lon": -76.97557333333333, "name": "1775fc260b57a9795fd56046aa329604", "bike_id": "1775fc260b57a9795fd56046aa329604", "fusion_lat": 0.0, "is_reserved": 0, "lat": 38.90323933333333, "fusion_lon": 0.0, "is_disabled": 0}, {"rental_uris": {"android": "https://dc.lft.to/lastmile_qr_scan", "ios": "https://dc.lft.to/lastmile_qr_scan"}, "type": "electric_scooter", "lon": -77.01366033333333, "name": "308ffbfac2ed128de348ca8bf203a35b", "bike_id": "308ffbfac2ed128de348ca8bf203a35b", "fusion_lat": 0.0, "is_reserved": 0, "lat": 38.90063333333333, "fusion_lon": 0.0, "is_disabled": 0}, {"rental_uris": {"android": "https://dc.lft.to/lastmile_qr_scan", "ios": "https://dc.lft.to/lastmile_qr_scan"}, "type": "electric_scooter", "lon": -77.05186266666666, "name": "3965b664787bba3c085d7cce3be2be53", "bike_id": "3965b664787bba3c085d7cce3be2be53", "fusion_lat": 0.0, "is_reserved": 0, "lat": 38.9242385, "fusion_lon": 0.0, "is_disabled": 0}, {"rental_uris": {"android": "https://dc.lft.to/lastmile_qr_scan", "ios": "https://dc.lft.to/lastmile_qr_scan"}, "type": "electric_scooter", "lon": -77.02571283333333, "name": "9291c965411c61c5133c2fa2102bb4f1", "bike_id": "9291c965411c61c5133c2fa2102bb4f1", "fusion_lat": 0.0, "is_reserved": 0, "lat": 38.885909166666664, "fusion_lon": 0.0, "is_disabled": 0}, {"rental_uris": {"android": "https://dc.lft.to/lastmile_qr_scan", "ios": "https://dc.lft.to/lastmile_qr_scan"}, "type": "electric_scooter", "lon": -77.02903166666667, "name": "9a4089e16572963aade8e4be428e0e12", "bike_id": "9a4089e16572963aade8e4be428e0e12", "fusion_lat": 0.0, "is_reserved": 0, "lat": 38.9585125, "fusion_lon": 0.0, "is_disabled": 0}, {"rental_uris": {"android": "https://dc.lft.to/lastmile_qr_scan", "ios": "https://dc.lft.to/lastmile_qr_scan"}, "type": "electric_scooter", "lon": -77.03813066666666, "name": "15de558eb70d38ffaf5ac4eadbbd20eb", "bike_id": "15de558eb70d38ffaf5ac4eadbbd20eb", "fusion_lat": 0.0, "is_reserved": 0, "lat": 38.914204, "fusion_lon": 0.0, "is_disabled": 0}, {"rental_uris": {"android": "https://dc.lft.to/lastmile_qr_scan", "ios": "https://dc.lft.to/lastmile_qr_scan"}, "type": "electric_scooter", "lon": -77.02344483333333, "name": "c9b2ffdc1ad8f6d4c3706e0e74409758", "bike_id": "c9b2ffdc1ad8f6d4c3706e0e74409758", "fusion_lat": 0.0, "is_reserved": 0, "lat": 38.884909666666665, "fusion_lon": 0.0, "is_disabled": 0}, {"rental_uris": {"android": "https://dc.lft.to/lastmile_qr_scan", "ios": "https://dc.lft.to/lastmile_qr_scan"}, "type": "electric_scooter", "lon": -77.03870783333333, "name": "2fffff1d8e5838c638ad7d26a020afa8", "bike_id": "2fffff1d8e5838c638ad7d26a020afa8", "fusion_lat": 0.0, "is_reserved": 0, "lat": 38.912654333333336, "fusion_lon": 0.0, "is_disabled": 0}, {"rental_uris": {"android": "https://dc.lft.to/lastmile_qr_scan", "ios": "https://dc.lft.to/lastmile_qr_scan"}, "type": "electric_bike", "lon": -77.08822666666667, "name": "3dbc52fac97c946a87ccf9623a3e55c0", "bike_id": "3dbc52fac97c946a87ccf9623a3e55c0", "fusion_lat": 0.0, "is_reserved": 0, "lat": 38.90979766666667, "fusion_lon": 0.0, "is_disabled": 0}, {"rental_uris": {"android": "https://dc.lft.to/lastmile_qr_scan", "ios": "https://dc.lft.to/lastmile_qr_scan"}, "type": "electric_scooter", "lon": -76.94156583333333, "name": "10af7aacce9f21d62049dac7ddd29c64", "bike_id": "10af7aacce9f21d62049dac7ddd29c64", "fusion_lat": 0.0, "is_reserved": 0, "lat": 38.883634666666666, "fusion_lon": 0.0, "is_disabled": 0}, {"rental_uris": {"android": "https://dc.lft.to/lastmile_qr_scan", "ios": "https://dc.lft.to/lastmile_qr_scan"}, "type": "electric_scooter", "lon": -77.03623383333333, "name": "ea4e2356c5c23f7ca31ddfbc77b33b2a", "bike_id": "ea4e2356c5c23f7ca31ddfbc77b33b2a", "fusion_lat": 0.0, "is_reserved": 0, "lat": 38.936795000000004, "fusion_lon": 0.0, "is_disabled": 0}, {"rental_uris": {"android": "https://dc.lft.to/lastmile_qr_scan", "ios": "https://dc.lft.to/lastmile_qr_scan"}, "type": "electric_scooter", "lon": -77.029795, "name": "06135c6eafd4182dc83ae2515d60aa3f", "bike_id": "06135c6eafd4182dc83ae2515d60aa3f", "fusion_lat": 0.0, "is_reserved": 0, "lat": 38.947027166666665, "fusion_lon": 0.0, "is_disabled": 0}, {"rental_uris": {"android": "https://dc.lft.to/lastmile_qr_scan", "ios": "https://dc.lft.to/lastmile_qr_scan"}, "type": "electric_scooter", "lon": -77.04078816666667, "name": "b45ffe85fed1978d61d160f63a7d5e21", "bike_id": "b45ffe85fed1978d61d160f63a7d5e21", "fusion_lat": 0.0, "is_reserved": 0, "lat": 38.90701266666667, "fusion_lon": 0.0, "is_disabled": 0}, {"rental_uris": {"android": "https://dc.lft.to/lastmile_qr_scan", "ios": "https://dc.lft.to/lastmile_qr_scan"}, "type": "electric_scooter", "lon": -76.98733633333333, "name": "d18d876d654cc871889a3afc69f89d71", "bike_id": "d18d876d654cc871889a3afc69f89d71", "fusion_lat": 0.0, "is_reserved": 0, "lat": 38.86712933333333, "fusion_lon": 0.0, "is_disabled": 0}, {"rental_uris": {"android": "https://dc.lft.to/lastmile_qr_scan", "ios": "https://dc.lft.to/lastmile_qr_scan"}, "type": "electric_scooter", "lon": -76.9973175, "name": "dd828cacc5f342100204e9fda79c872a", "bike_id": "dd828cacc5f342100204e9fda79c872a", "fusion_lat": 0.0, "is_reserved": 0, "lat": 38.898922, "fusion_lon": 0.0, "is_disabled": 0}, {"rental_uris": {"android": "https://dc.lft.to/lastmile_qr_scan", "ios": "https://dc.lft.to/lastmile_qr_scan"}, "type": "electric_scooter", "lon": -77.03051783333333, "name": "174ab122ce3b19102ebb98d7c6c2784c", "bike_id": "174ab122ce3b19102ebb98d7c6c2784c", "fusion_lat": 0.0, "is_reserved": 0, "lat": 38.88411883333333, "fusion_lon": 0.0, "is_disabled": 0}, {"rental_uris": {"android": "https://dc.lft.to/lastmile_qr_scan", "ios": "https://dc.lft.to/lastmile_qr_scan"}, "type": "electric_scooter", "lon": -77.05226833333333, "name": "71bdc8a70452007077bcda590ec0d8da", "bike_id": "71bdc8a70452007077bcda590ec0d8da", "fusion_lat": 0.0, "is_reserved": 0, "lat": 38.924419, "fusion_lon": 0.0, "is_disabled": 0}, {"rental_uris": {"android": "https://dc.lft.to/lastmile_qr_scan", "ios": "https://dc.lft.to/lastmile_qr_scan"}, "type": "electric_scooter", "lon": -77.005995, "name": "d5f11cd29be7f0be9971a2e7a2d77a07", "bike_id": "d5f11cd29be7f0be9971a2e7a2d77a07", "fusion_lat": 0.0, "is_reserved": 0, "lat": 38.908230333333336, "fusion_lon": 0.0, "is_disabled": 0}, {"rental_uris": {"android": "https://dc.lft.to/lastmile_qr_scan", "ios": "https://dc.lft.to/lastmile_qr_scan"}, "type": "electric_scooter", "lon": -77.06767066666667, "name": "9c192887c93a83d773a06e284ad56f72", "bike_id": "9c192887c93a83d773a06e284ad56f72", "fusion_lat": 0.0, "is_reserved": 0, "lat": 38.903720166666666, "fusion_lon": 0.0, "is_disabled": 0}, {"rental_uris": {"android": "https://dc.lft.to/lastmile_qr_scan", "ios": "https://dc.lft.to/lastmile_qr_scan"}, "type": "electric_scooter", "lon": -77.048713, "name": "eeabce116f223a4b048b7ff494e7ae9d", "bike_id": "eeabce116f223a4b048b7ff494e7ae9d", "fusion_lat": 0.0, "is_reserved": 0, "lat": 38.9009745, "fusion_lon": 0.0, "is_disabled": 0}, {"rental_uris": {"android": "https://dc.lft.to/lastmile_qr_scan", "ios": "https://dc.lft.to/lastmile_qr_scan"}, "type": "electric_scooter", "lon": -77.03673033333334, "name": "a0044ee40b8f35c62b317a008237bac8", "bike_id": "a0044ee40b8f35c62b317a008237bac8", "fusion_lat": 0.0, "is_reserved": 0, "lat": 38.9026785, "fusion_lon": 0.0, "is_disabled": 0}, {"rental_uris": {"android": "https://dc.lft.to/lastmile_qr_scan", "ios": "https://dc.lft.to/lastmile_qr_scan"}, "type": "electric_scooter", "lon": -76.990273, "name": "a8f9e323bcc578d2b1804ca17090c007", "bike_id": "a8f9e323bcc578d2b1804ca17090c007", "fusion_lat": 0.0, "is_reserved": 0, "lat": 38.864054333333335, "fusion_lon": 0.0, "is_disabled": 0}, {"rental_uris": {"android": "https://dc.lft.to/lastmile_qr_scan", "ios": "https://dc.lft.to/lastmile_qr_scan"}, "type": "electric_scooter", "lon": -77.0142445, "name": "68d7e8790a368b88b8296321125c8153", "bike_id": "68d7e8790a368b88b8296321125c8153", "fusion_lat": 0.0, "is_reserved": 0, "lat": 38.928579666666664, "fusion_lon": 0.0, "is_disabled": 0}, {"rental_uris": {"android": "https://dc.lft.to/lastmile_qr_scan", "ios": "https://dc.lft.to/lastmile_qr_scan"}, "type": "electric_scooter", "lon": -77.06105783333334, "name": "aa237577d97742046dda1fd57ee76c87", "bike_id": "aa237577d97742046dda1fd57ee76c87", "fusion_lat": 0.0, "is_reserved": 0, "lat": 38.9437005, "fusion_lon": 0.0, "is_disabled": 0}, {"rental_uris": {"android": "https://dc.lft.to/lastmile_qr_scan", "ios": "https://dc.lft.to/lastmile_qr_scan"}, "type": "electric_scooter", "lon": -77.02029066666667, "name": "1dc7bf0eb8f0d7308ddab9bf7d8e1828", "bike_id": "1dc7bf0eb8f0d7308ddab9bf7d8e1828", "fusion_lat": 0.0, "is_reserved": 0, "lat": 38.92430316666667, "fusion_lon": 0.0, "is_disabled": 0}, {"rental_uris": {"android": "https://dc.lft.to/lastmile_qr_scan", "ios": "https://dc.lft.to/lastmile_qr_scan"}, "type": "electric_scooter", "lon": -77.04019733333334, "name": "f75050108c93e178311f9260ea8c7c7a", "bike_id": "f75050108c93e178311f9260ea8c7c7a", "fusion_lat": 0.0, "is_reserved": 0, "lat": 38.90357, "fusion_lon": 0.0, "is_disabled": 0}, {"rental_uris": {"android": "https://dc.lft.to/lastmile_qr_scan", "ios": "https://dc.lft.to/lastmile_qr_scan"}, "type": "electric_scooter", "lon": -77.0441225, "name": "08aa76f8f91ff22944f68b1cdd5deb03", "bike_id": "08aa76f8f91ff22944f68b1cdd5deb03", "fusion_lat": 0.0, "is_reserved": 0, "lat": 38.92539933333333, "fusion_lon": 0.0, "is_disabled": 0}, {"rental_uris": {"android": "https://dc.lft.to/lastmile_qr_scan", "ios": "https://dc.lft.to/lastmile_qr_scan"}, "type": "electric_scooter", "lon": -77.01383283333334, "name": "2d4937f51a069377e7f563cad9dd86bd", "bike_id": "2d4937f51a069377e7f563cad9dd86bd", "fusion_lat": 0.0, "is_reserved": 0, "lat": 38.9287035, "fusion_lon": 0.0, "is_disabled": 0}, {"rental_uris": {"android": "https://dc.lft.to/lastmile_qr_scan", "ios": "https://dc.lft.to/lastmile_qr_scan"}, "type": "electric_scooter", "lon": -77.02724733333334, "name": "426bd178873d84e283502dba771866c2", "bike_id": "426bd178873d84e283502dba771866c2", "fusion_lat": 0.0, "is_reserved": 0, "lat": 38.951307666666665, "fusion_lon": 0.0, "is_disabled": 0}, {"rental_uris": {"android": "https://dc.lft.to/lastmile_qr_scan", "ios": "https://dc.lft.to/lastmile_qr_scan"}, "type": "electric_scooter", "lon": -77.03444216666666, "name": "d5546c3bb49919885440fd8e23f05453", "bike_id": "d5546c3bb49919885440fd8e23f05453", "fusion_lat": 0.0, "is_reserved": 0, "lat": 38.90724866666667, "fusion_lon": 0.0, "is_disabled": 0}, {"rental_uris": {"android": "https://dc.lft.to/lastmile_qr_scan", "ios": "https://dc.lft.to/lastmile_qr_scan"}, "type": "electric_scooter", "lon": -77.02578283333334, "name": "ae05bd13ad25d0026c489c85d534254b", "bike_id": "ae05bd13ad25d0026c489c85d534254b", "fusion_lat": 0.0, "is_reserved": 0, "lat": 38.92506316666667, "fusion_lon": 0.0, "is_disabled": 0}, {"rental_uris": {"android": "https://dc.lft.to/lastmile_qr_scan", "ios": "https://dc.lft.to/lastmile_qr_scan"}, "type": "electric_scooter", "lon": -77.0467785, "name": "1ffcf14040840b9114dd2b3890046788", "bike_id": "1ffcf14040840b9114dd2b3890046788", "fusion_lat": 0.0, "is_reserved": 0, "lat": 38.89506766666667, "fusion_lon": 0.0, "is_disabled": 0}, {"rental_uris": {"android": "https://dc.lft.to/lastmile_qr_scan", "ios": "https://dc.lft.to/lastmile_qr_scan"}, "type": "electric_scooter", "lon": -77.03786083333334, "name": "70002927e953835722321cdfe4a9e699", "bike_id": "70002927e953835722321cdfe4a9e699", "fusion_lat": 0.0, "is_reserved": 0, "lat": 38.933279, "fusion_lon": 0.0, "is_disabled": 0}, {"rental_uris": {"android": "https://dc.lft.to/lastmile_qr_scan", "ios": "https://dc.lft.to/lastmile_qr_scan"}, "type": "electric_bike", "lon": -76.94622866666667, "name": "8f128c77663208a15fefec8875330381", "bike_id": "8f128c77663208a15fefec8875330381", "fusion_lat": 0.0, "is_reserved": 0, "lat": 38.832391333333334, "fusion_lon": 0.0, "is_disabled": 0}, {"rental_uris": {"android": "https://dc.lft.to/lastmile_qr_scan", "ios": "https://dc.lft.to/lastmile_qr_scan"}, "type": "electric_scooter", "lon": -76.9876895, "name": "20c7e5e49ac378d17231482a3f3d0a17", "bike_id": "20c7e5e49ac378d17231482a3f3d0a17", "fusion_lat": 0.0, "is_reserved": 0, "lat": 38.88313683333333, "fusion_lon": 0.0, "is_disabled": 0}, {"rental_uris": {"android": "https://dc.lft.to/lastmile_qr_scan", "ios": "https://dc.lft.to/lastmile_qr_scan"}, "type": "electric_scooter", "lon": -77.0328, "name": "fa8b58e7322d10764c7b7c3466eef842", "bike_id": "fa8b58e7322d10764c7b7c3466eef842", "fusion_lat": 0.0, "is_reserved": 0, "lat": 38.92843966666667, "fusion_lon": 0.0, "is_disabled": 0}, {"rental_uris": {"android": "https://dc.lft.to/lastmile_qr_scan", "ios": "https://dc.lft.to/lastmile_qr_scan"}, "type": "electric_scooter", "lon": -77.04876483333334, "name": "0f888cdf264228a711fe6083c5c4a359", "bike_id": "0f888cdf264228a711fe6083c5c4a359", "fusion_lat": 0.0, "is_reserved": 0, "lat": 38.90300883333333, "fusion_lon": 0.0, "is_disabled": 0}, {"rental_uris": {"android": "https://dc.lft.to/lastmile_qr_scan", "ios": "https://dc.lft.to/lastmile_qr_scan"}, "type": "electric_scooter", "lon": -77.047113, "name": "92d035a57535bd19cb2906086555a92a", "bike_id": "92d035a57535bd19cb2906086555a92a", "fusion_lat": 0.0, "is_reserved": 0, "lat": 38.91254416666666, "fusion_lon": 0.0, "is_disabled": 0}, {"rental_uris": {"android": "https://dc.lft.to/lastmile_qr_scan", "ios": "https://dc.lft.to/lastmile_qr_scan"}, "type": "electric_scooter", "lon": -77.03947366666667, "name": "eb2016bf997d8c00a30d93266ba2f8ba", "bike_id": "eb2016bf997d8c00a30d93266ba2f8ba", "fusion_lat": 0.0, "is_reserved": 0, "lat": 38.90436533333333, "fusion_lon": 0.0, "is_disabled": 0}, {"rental_uris": {"android": "https://dc.lft.to/lastmile_qr_scan", "ios": "https://dc.lft.to/lastmile_qr_scan"}, "type": "electric_scooter", "lon": -77.03454616666667, "name": "fbc6deaafe4777ccd6f9a57dd39838fe", "bike_id": "fbc6deaafe4777ccd6f9a57dd39838fe", "fusion_lat": 0.0, "is_reserved": 0, "lat": 38.9033505, "fusion_lon": 0.0, "is_disabled": 0}, {"rental_uris": {"android": "https://dc.lft.to/lastmile_qr_scan", "ios": "https://dc.lft.to/lastmile_qr_scan"}, "type": "electric_scooter", "lon": -77.04657783333333, "name": "f05ec509e4ed69a1ade6c6f8c38455f6", "bike_id": "f05ec509e4ed69a1ade6c6f8c38455f6", "fusion_lat": 0.0, "is_reserved": 0, "lat": 38.90508483333333, "fusion_lon": 0.0, "is_disabled": 0}, {"rental_uris": {"android": "https://dc.lft.to/lastmile_qr_scan", "ios": "https://dc.lft.to/lastmile_qr_scan"}, "type": "electric_scooter", "lon": -77.03215516666667, "name": "ad290fffa4b07f7569ace12711300176", "bike_id": "ad290fffa4b07f7569ace12711300176", "fusion_lat": 0.0, "is_reserved": 0, "lat": 38.92261116666667, "fusion_lon": 0.0, "is_disabled": 0}, {"rental_uris": {"android": "https://dc.lft.to/lastmile_qr_scan", "ios": "https://dc.lft.to/lastmile_qr_scan"}, "type": "electric_scooter", "lon": -77.04982233333334, "name": "99dbcc1104824fc370284886b3903eba", "bike_id": "99dbcc1104824fc370284886b3903eba", "fusion_lat": 0.0, "is_reserved": 0, "lat": 38.900898833333336, "fusion_lon": 0.0, "is_disabled": 0}, {"rental_uris": {"android": "https://dc.lft.to/lastmile_qr_scan", "ios": "https://dc.lft.to/lastmile_qr_scan"}, "type": "electric_scooter", "lon": -77.00916166666667, "name": "92b91478ef31adf82f07354430cb4b3b", "bike_id": "92b91478ef31adf82f07354430cb4b3b", "fusion_lat": 0.0, "is_reserved": 0, "lat": 38.89549316666667, "fusion_lon": 0.0, "is_disabled": 0}, {"rental_uris": {"android": "https://dc.lft.to/lastmile_qr_scan", "ios": "https://dc.lft.to/lastmile_qr_scan"}, "type": "electric_scooter", "lon": -77.03984483333333, "name": "82c7fa07469027c5519f9a4150baf7c0", "bike_id": "82c7fa07469027c5519f9a4150baf7c0", "fusion_lat": 0.0, "is_reserved": 0, "lat": 38.925805833333335, "fusion_lon": 0.0, "is_disabled": 0}, {"rental_uris": {"android": "https://dc.lft.to/lastmile_qr_scan", "ios": "https://dc.lft.to/lastmile_qr_scan"}, "type": "electric_scooter", "lon": -77.03208966666666, "name": "2bca3178247bc2f870f1d46d992d0a40", "bike_id": "2bca3178247bc2f870f1d46d992d0a40", "fusion_lat": 0.0, "is_reserved": 0, "lat": 38.909083833333334, "fusion_lon": 0.0, "is_disabled": 0}, {"rental_uris": {"android": "https://dc.lft.to/lastmile_qr_scan", "ios": "https://dc.lft.to/lastmile_qr_scan"}, "type": "electric_scooter", "lon": -77.0273165, "name": "40b0b360513b469fb65bb52e993feaf1", "bike_id": "40b0b360513b469fb65bb52e993feaf1", "fusion_lat": 0.0, "is_reserved": 0, "lat": 38.93403883333333, "fusion_lon": 0.0, "is_disabled": 0}, {"rental_uris": {"android": "https://dc.lft.to/lastmile_qr_scan", "ios": "https://dc.lft.to/lastmile_qr_scan"}, "type": "electric_scooter", "lon": -77.05634566666667, "name": "10cc7df25687674cc6cb272930985631", "bike_id": "10cc7df25687674cc6cb272930985631", "fusion_lat": 0.0, "is_reserved": 0, "lat": 38.92420883333333, "fusion_lon": 0.0, "is_disabled": 0}, {"rental_uris": {"android": "https://dc.lft.to/lastmile_qr_scan", "ios": "https://dc.lft.to/lastmile_qr_scan"}, "type": "electric_scooter", "lon": -77.09207366666666, "name": "58edbcd59dbdff9edae9d08960ea2fe8", "bike_id": "58edbcd59dbdff9edae9d08960ea2fe8", "fusion_lat": 0.0, "is_reserved": 0, "lat": 38.917174833333334, "fusion_lon": 0.0, "is_disabled": 0}, {"rental_uris": {"android": "https://dc.lft.to/lastmile_qr_scan", "ios": "https://dc.lft.to/lastmile_qr_scan"}, "type": "electric_scooter", "lon": -77.0275515, "name": "b78e2a1dbd24ef0e00dcf05f14bac525", "bike_id": "b78e2a1dbd24ef0e00dcf05f14bac525", "fusion_lat": 0.0, "is_reserved": 0, "lat": 38.9238425, "fusion_lon": 0.0, "is_disabled": 0}, {"rental_uris": {"android": "https://dc.lft.to/lastmile_qr_scan", "ios": "https://dc.lft.to/lastmile_qr_scan"}, "type": "electric_scooter", "lon": -77.02937916666667, "name": "868c785dd04a0bcb53d2f32fe452a53c", "bike_id": "868c785dd04a0bcb53d2f32fe452a53c", "fusion_lat": 0.0, "is_reserved": 0, "lat": 38.904855833333336, "fusion_lon": 0.0, "is_disabled": 0}, {"rental_uris": {"android": "https://dc.lft.to/lastmile_qr_scan", "ios": "https://dc.lft.to/lastmile_qr_scan"}, "type": "electric_scooter", "lon": -77.0328255, "name": "5b01654685aaef97290a5aa9c254c80c", "bike_id": "5b01654685aaef97290a5aa9c254c80c", "fusion_lat": 0.0, "is_reserved": 0, "lat": 38.9398515, "fusion_lon": 0.0, "is_disabled": 0}, {"rental_uris": {"android": "https://dc.lft.to/lastmile_qr_scan", "ios": "https://dc.lft.to/lastmile_qr_scan"}, "type": "electric_scooter", "lon": -77.02239833333333, "name": "c833251d955446574c40e886cf929d96", "bike_id": "c833251d955446574c40e886cf929d96", "fusion_lat": 0.0, "is_reserved": 0, "lat": 38.913556666666665, "fusion_lon": 0.0, "is_disabled": 0}, {"rental_uris": {"android": "https://dc.lft.to/lastmile_qr_scan", "ios": "https://dc.lft.to/lastmile_qr_scan"}, "type": "electric_scooter", "lon": -77.0045385, "name": "870ee74079f627becae1af4116a747a7", "bike_id": "870ee74079f627becae1af4116a747a7", "fusion_lat": 0.0, "is_reserved": 0, "lat": 38.92899533333333, "fusion_lon": 0.0, "is_disabled": 0}, {"rental_uris": {"android": "https://dc.lft.to/lastmile_qr_scan", "ios": "https://dc.lft.to/lastmile_qr_scan"}, "type": "electric_scooter", "lon": -77.025447, "name": "b3a6a59468e63f9ecb38b4fe4d8fa7a1", "bike_id": "b3a6a59468e63f9ecb38b4fe4d8fa7a1", "fusion_lat": 0.0, "is_reserved": 0, "lat": 38.89231083333333, "fusion_lon": 0.0, "is_disabled": 0}, {"rental_uris": {"android": "https://dc.lft.to/lastmile_qr_scan", "ios": "https://dc.lft.to/lastmile_qr_scan"}, "type": "electric_bike", "lon": -77.18297233333334, "name": "0826fbed88f4ba136e2eef654a2819e0", "bike_id": "0826fbed88f4ba136e2eef654a2819e0", "fusion_lat": 0.0, "is_reserved": 0, "lat": 38.88344683333333, "fusion_lon": 0.0, "is_disabled": 0}, {"rental_uris": {"android": "https://dc.lft.to/lastmile_qr_scan", "ios": "https://dc.lft.to/lastmile_qr_scan"}, "type": "electric_scooter", "lon": -77.0469175, "name": "b1d5d8294327eb0d92640e16882bc297", "bike_id": "b1d5d8294327eb0d92640e16882bc297", "fusion_lat": 0.0, "is_reserved": 0, "lat": 38.90237466666667, "fusion_lon": 0.0, "is_disabled": 0}, {"rental_uris": {"android": "https://dc.lft.to/lastmile_qr_scan", "ios": "https://dc.lft.to/lastmile_qr_scan"}, "type": "electric_scooter", "lon": -76.93754033333333, "name": "e0e472bcbe809803a4e6900fc2a776da", "bike_id": "e0e472bcbe809803a4e6900fc2a776da", "fusion_lat": 0.0, "is_reserved": 0, "lat": 38.890453, "fusion_lon": 0.0, "is_disabled": 0}, {"rental_uris": {"android": "https://dc.lft.to/lastmile_qr_scan", "ios": "https://dc.lft.to/lastmile_qr_scan"}, "type": "electric_scooter", "lon": -77.04348466666667, "name": "afebf89a3850fad6172cfe4b81b2c3a7", "bike_id": "afebf89a3850fad6172cfe4b81b2c3a7", "fusion_lat": 0.0, "is_reserved": 0, "lat": 38.903577, "fusion_lon": 0.0, "is_disabled": 0}, {"rental_uris": {"android": "https://dc.lft.to/lastmile_qr_scan", "ios": "https://dc.lft.to/lastmile_qr_scan"}, "type": "electric_scooter", "lon": -77.02133566666667, "name": "541aa790fc41b836be9e7122189fba52", "bike_id": "541aa790fc41b836be9e7122189fba52", "fusion_lat": 0.0, "is_reserved": 0, "lat": 38.91112016666666, "fusion_lon": 0.0, "is_disabled": 0}, {"rental_uris": {"android": "https://dc.lft.to/lastmile_qr_scan", "ios": "https://dc.lft.to/lastmile_qr_scan"}, "type": "electric_scooter", "lon": -77.0247785, "name": "3b04c3cca10db2d02be7e8de1d6b5b29", "bike_id": "3b04c3cca10db2d02be7e8de1d6b5b29", "fusion_lat": 0.0, "is_reserved": 0, "lat": 38.93903733333333, "fusion_lon": 0.0, "is_disabled": 0}, {"rental_uris": {"android": "https://dc.lft.to/lastmile_qr_scan", "ios": "https://dc.lft.to/lastmile_qr_scan"}, "type": "electric_scooter", "lon": -77.02689316666667, "name": "8c4a16917a016a414200f8011bab3901", "bike_id": "8c4a16917a016a414200f8011bab3901", "fusion_lat": 0.0, "is_reserved": 0, "lat": 38.89744816666666, "fusion_lon": 0.0, "is_disabled": 0}, {"rental_uris": {"android": "https://dc.lft.to/lastmile_qr_scan", "ios": "https://dc.lft.to/lastmile_qr_scan"}, "type": "electric_scooter", "lon": -77.06739783333333, "name": "3270ac1a0e1729b38e5112f6ed6abb72", "bike_id": "3270ac1a0e1729b38e5112f6ed6abb72", "fusion_lat": 0.0, "is_reserved": 0, "lat": 38.95004, "fusion_lon": 0.0, "is_disabled": 0}, {"rental_uris": {"android": "https://dc.lft.to/lastmile_qr_scan", "ios": "https://dc.lft.to/lastmile_qr_scan"}, "type": "electric_scooter", "lon": -77.00281716666667, "name": "a23e1e9865df295fb761b6f992e200d0", "bike_id": "a23e1e9865df295fb761b6f992e200d0", "fusion_lat": 0.0, "is_reserved": 0, "lat": 38.914813, "fusion_lon": 0.0, "is_disabled": 0}, {"rental_uris": {"android": "https://dc.lft.to/lastmile_qr_scan", "ios": "https://dc.lft.to/lastmile_qr_scan"}, "type": "electric_scooter", "lon": -77.03187183333333, "name": "7ef74840d7903455d987928d0f8084ed", "bike_id": "7ef74840d7903455d987928d0f8084ed", "fusion_lat": 0.0, "is_reserved": 0, "lat": 38.901353, "fusion_lon": 0.0, "is_disabled": 0}, {"rental_uris": {"android": "https://dc.lft.to/lastmile_qr_scan", "ios": "https://dc.lft.to/lastmile_qr_scan"}, "type": "electric_scooter", "lon": -76.9849575, "name": "4fa8d4a0b894e1e5bba01704070fa04e", "bike_id": "4fa8d4a0b894e1e5bba01704070fa04e", "fusion_lat": 0.0, "is_reserved": 0, "lat": 38.860458666666666, "fusion_lon": 0.0, "is_disabled": 0}, {"rental_uris": {"android": "https://dc.lft.to/lastmile_qr_scan", "ios": "https://dc.lft.to/lastmile_qr_scan"}, "type": "electric_scooter", "lon": -76.990215, "name": "fde5a47f6103451303804313568cdfc2", "bike_id": "fde5a47f6103451303804313568cdfc2", "fusion_lat": 0.0, "is_reserved": 0, "lat": 38.85865166666667, "fusion_lon": 0.0, "is_disabled": 0}, {"rental_uris": {"android": "https://dc.lft.to/lastmile_qr_scan", "ios": "https://dc.lft.to/lastmile_qr_scan"}, "type": "electric_scooter", "lon": -76.93160033333334, "name": "72dee2feaa63d6259983d9f26b984d7a", "bike_id": "72dee2feaa63d6259983d9f26b984d7a", "fusion_lat": 0.0, "is_reserved": 0, "lat": 38.89884966666666, "fusion_lon": 0.0, "is_disabled": 0}, {"rental_uris": {"android": "https://dc.lft.to/lastmile_qr_scan", "ios": "https://dc.lft.to/lastmile_qr_scan"}, "type": "electric_bike", "lon": -77.112235, "name": "63f3a94acc62d85fdbe37da3a23c6872", "bike_id": "63f3a94acc62d85fdbe37da3a23c6872", "fusion_lat": 0.0, "is_reserved": 0, "lat": 38.8287435, "fusion_lon": 0.0, "is_disabled": 0}, {"rental_uris": {"android": "https://dc.lft.to/lastmile_qr_scan", "ios": "https://dc.lft.to/lastmile_qr_scan"}, "type": "electric_scooter", "lon": -77.01575616666666, "name": "c570d623fa4f13b509a532b422a5e0fd", "bike_id": "c570d623fa4f13b509a532b422a5e0fd", "fusion_lat": 0.0, "is_reserved": 0, "lat": 38.87647666666667, "fusion_lon": 0.0, "is_disabled": 0}, {"rental_uris": {"android": "https://dc.lft.to/lastmile_qr_scan", "ios": "https://dc.lft.to/lastmile_qr_scan"}, "type": "electric_scooter", "lon": -77.01978133333333, "name": "b3b2b71e371e8001d22837f8d8bcefbd", "bike_id": "b3b2b71e371e8001d22837f8d8bcefbd", "fusion_lat": 0.0, "is_reserved": 0, "lat": 38.9020015, "fusion_lon": 0.0, "is_disabled": 0}, {"rental_uris": {"android": "https://dc.lft.to/lastmile_qr_scan", "ios": "https://dc.lft.to/lastmile_qr_scan"}, "type": "electric_scooter", "lon": -76.94215433333333, "name": "713a12530c39fee1c839e0f3cbff042c", "bike_id": "713a12530c39fee1c839e0f3cbff042c", "fusion_lat": 0.0, "is_reserved": 0, "lat": 38.8967275, "fusion_lon": 0.0, "is_disabled": 0}, {"rental_uris": {"android": "https://dc.lft.to/lastmile_qr_scan", "ios": "https://dc.lft.to/lastmile_qr_scan"}, "type": "electric_scooter", "lon": -77.0384915, "name": "61921fa4206e20fdcc5248be9e7e74bb", "bike_id": "61921fa4206e20fdcc5248be9e7e74bb", "fusion_lat": 0.0, "is_reserved": 0, "lat": 38.912128, "fusion_lon": 0.0, "is_disabled": 0}, {"rental_uris": {"android": "https://dc.lft.to/lastmile_qr_scan", "ios": "https://dc.lft.to/lastmile_qr_scan"}, "type": "electric_scooter", "lon": -77.0095875, "name": "127735a63a64aabdca1dbda7b4140f05", "bike_id": "127735a63a64aabdca1dbda7b4140f05", "fusion_lat": 0.0, "is_reserved": 0, "lat": 38.92138083333333, "fusion_lon": 0.0, "is_disabled": 0}, {"rental_uris": {"android": "https://dc.lft.to/lastmile_qr_scan", "ios": "https://dc.lft.to/lastmile_qr_scan"}, "type": "electric_scooter", "lon": -77.000709, "name": "ea89ab80202a4791086e1f2b89366446", "bike_id": "ea89ab80202a4791086e1f2b89366446", "fusion_lat": 0.0, "is_reserved": 0, "lat": 38.897435333333334, "fusion_lon": 0.0, "is_disabled": 0}, {"rental_uris": {"android": "https://dc.lft.to/lastmile_qr_scan", "ios": "https://dc.lft.to/lastmile_qr_scan"}, "type": "electric_bike", "lon": -76.87496583333333, "name": "d8da27fc67a9fde5d60a98803cd9aa00", "bike_id": "d8da27fc67a9fde5d60a98803cd9aa00", "fusion_lat": 0.0, "is_reserved": 0, "lat": 38.990897333333336, "fusion_lon": 0.0, "is_disabled": 0}, {"rental_uris": {"android": "https://dc.lft.to/lastmile_qr_scan", "ios": "https://dc.lft.to/lastmile_qr_scan"}, "type": "electric_scooter", "lon": -77.06802533333334, "name": "ed7618e51df4062cba9905cc8678782b", "bike_id": "ed7618e51df4062cba9905cc8678782b", "fusion_lat": 0.0, "is_reserved": 0, "lat": 38.905155666666666, "fusion_lon": 0.0, "is_disabled": 0}, {"rental_uris": {"android": "https://dc.lft.to/lastmile_qr_scan", "ios": "https://dc.lft.to/lastmile_qr_scan"}, "type": "electric_scooter", "lon": -77.00919183333333, "name": "b681befaab43e82be49b7802fc22af67", "bike_id": "b681befaab43e82be49b7802fc22af67", "fusion_lat": 0.0, "is_reserved": 0, "lat": 38.91046733333334, "fusion_lon": 0.0, "is_disabled": 0}, {"rental_uris": {"android": "https://dc.lft.to/lastmile_qr_scan", "ios": "https://dc.lft.to/lastmile_qr_scan"},