{"data": {"bikes": [{"lat": 38.957773833333334, "is_disabled": 0, "type": "electric_scooter", "lon": -77.02464183333333, "bike_id": "f4ea329b0d9b1d5c7ed9ddaf5464980b", "fusion_lat": 0.0, "name": "f4ea329b0d9b1d5c7ed9ddaf5464980b", "is_reserved": 0, "rental_uris": {"android": "https://dc.lft.to/lastmile_qr_scan", "ios": "https://dc.lft.to/lastmile_qr_scan"}, "fusion_lon": 0.0}, {"lat": 38.926819333333334, "is_disabled": 0, "type": "electric_scooter", "lon": -77.0511145, "bike_id": "87fcf2f695aba906738bdfc118810d05", "fusion_lat": 0.0, "name": "87fcf2f695aba906738bdfc118810d05", "is_reserved": 0, "rental_uris": {"android": "https://dc.lft.to/lastmile_qr_scan", "ios": "https://dc.lft.to/lastmile_qr_scan"}, "fusion_lon": 0.0}, {"lat": 38.90594183333333, "is_disabled": 0, "type": "electric_scooter", "lon": -77.058079, "bike_id": "84243fd43e278d4941f433a76c7daa4b", "fusion_lat": 0.0, "name": "84243fd43e278d4941f433a76c7daa4b", "is_reserved": 0, "rental_uris": {"android": "https://dc.lft.to/lastmile_qr_scan", "ios": "https://dc.lft.to/lastmile_qr_scan"}, "fusion_lon": 0.0}, {"lat": 38.89918383333333, "is_disabled": 0, "type": "electric_scooter", "lon": -76.93380216666667, "bike_id": "68dda5687d1ce2042341bbe32868c5a6", "fusion_lat": 0.0, "name": "68dda5687d1ce2042341bbe32868c5a6", "is_reserved": 0, "rental_uris": {"android": "https://dc.lft.to/lastmile_qr_scan", "ios": "https://dc.lft.to/lastmile_qr_scan"}, "fusion_lon": 0.0}, {"lat": 38.90272683333333, "is_disabled": 0, "type": "electric_scooter", "lon": -77.016172, "bike_id": "ba657bcb9a0cd4884eee0112ac89202f", "fusion_lat": 0.0, "name": "ba657bcb9a0cd4884eee0112ac89202f", "is_reserved": 0, "rental_uris": {"android": "https://dc.lft.to/lastmile_qr_scan", "ios": "https://dc.lft.to/lastmile_qr_scan"}, "fusion_lon": 0.0}, {"lat": 38.842922333333334, "is_disabled": 0, "type": "electric_scooter", "lon": -76.9995005, "bike_id": "c05f853812568a1e12a3b57be984f7a7", "fusion_lat": 0.0, "name": "c05f853812568a1e12a3b57be984f7a7", "is_reserved": 0, "rental_uris": {"android": "https://dc.lft.to/lastmile_qr_scan", "ios": "https://dc.lft.to/lastmile_qr_scan"}, "fusion_lon": 0.0}, {"lat": 38.8964685, "is_disabled": 0, "type": "electric_scooter", "lon": -77.01977066666667, "bike_id": "4b2ea4c42e8960090c5abea7b66135b7", "fusion_lat": 0.0, "name": "4b2ea4c42e8960090c5abea7b66135b7", "is_reserved": 0, "rental_uris": {"android": "https://dc.lft.to/lastmile_qr_scan", "ios": "https://dc.lft.to/lastmile_qr_scan"}, "fusion_lon": 0.0}, {"lat": 38.912659, "is_disabled": 0, "type": "electric_scooter", "lon": -77.01305716666667, "bike_id": "b0410966a2e27a4d6a461bc86829d9cf", "fusion_lat": 0.0, "name": "b0410966a2e27a4d6a461bc86829d9cf", "is_reserved": 0, "rental_uris": {"android": "https://dc.lft.to/lastmile_qr_scan", "ios": "https://dc.lft.to/lastmile_qr_scan"}, "fusion_lon": 0.0}, {"lat": 38.92986583333333, "is_disabled": 0, "type": "electric_bike", "lon": -77.034744, "bike_id": "55042f1a13afff876b0fa88de7bc1d57", "fusion_lat": 0.0, "name": "55042f1a13afff876b0fa88de7bc1d57", "is_reserved": 0, "rental_uris": {"android": "https://dc.lft.to/lastmile_qr_scan", "ios": "https://dc.lft.to/lastmile_qr_scan"}, "fusion_lon": 0.0}, {"lat": 38.904422, "is_disabled": 0, "type": "electric_scooter", "lon": -77.061271, "bike_id": "5741e0ebf97c287abf97342a5bbc6baf", "fusion_lat": 0.0, "name": "5741e0ebf97c287abf97342a5bbc6baf", "is_reserved": 0, "rental_uris": {"android": "https://dc.lft.to/lastmile_qr_scan", "ios": "https://dc.lft.to/lastmile_qr_scan"}, "fusion_lon": 0.0}, {"lat": 38.955476, "is_disabled": 0, "type": "electric_bike", "lon": -76.93533933333333, "bike_id": "17a46491d343b17efa313f10b132df88", "fusion_lat": 0.0, "name": "17a46491d343b17efa313f10b132df88", "is_reserved": 0, "rental_uris": {"android": "https://dc.lft.to/lastmile_qr_scan", "ios": "https://dc.lft.to/lastmile_qr_scan"}, "fusion_lon": 0.0}, {"lat": 38.863457, "is_disabled": 0, "type": "electric_scooter", "lon": -76.990031, "bike_id": "80b9d70f0d631efa2bc084622972eb49", "fusion_lat": 0.0, "name": "80b9d70f0d631efa2bc084622972eb49", "is_reserved": 0, "rental_uris": {"android": "https://dc.lft.to/lastmile_qr_scan", "ios": "https://dc.lft.to/lastmile_qr_scan"}, "fusion_lon": 0.0}, {"lat": 38.905074166666665, "is_disabled": 0, "type": "electric_scooter", "lon": -77.06203483333333, "bike_id": "1ab3644b9fb774d9e98911b955464f6a", "fusion_lat": 0.0, "name": "1ab3644b9fb774d9e98911b955464f6a", "is_reserved": 0, "rental_uris": {"android": "https://dc.lft.to/lastmile_qr_scan", "ios": "https://dc.lft.to/lastmile_qr_scan"}, "fusion_lon": 0.0}, {"lat": 38.9122655, "is_disabled": 0, "type": "electric_scooter", "lon": -77.03206216666666, "bike_id": "ca1a3255fa60b6d69a4faf4861d9c0d5", "fusion_lat": 0.0, "name": "ca1a3255fa60b6d69a4faf4861d9c0d5", "is_reserved": 0, "rental_uris": {"android": "https://dc.lft.to/lastmile_qr_scan", "ios": "https://dc.lft.to/lastmile_qr_scan"}, "fusion_lon": 0.0}, {"lat": 38.89740233333333, "is_disabled": 0, "type": "electric_scooter", "lon": -77.047611, "bike_id": "184fbddb003dbb0a3077d555573f754f", "fusion_lat": 0.0, "name": "184fbddb003dbb0a3077d555573f754f", "is_reserved": 0, "rental_uris": {"android": "https://dc.lft.to/lastmile_qr_scan", "ios": "https://dc.lft.to/lastmile_qr_scan"}, "fusion_lon": 0.0}, {"lat": 38.89250066666666, "is_disabled": 0, "type": "electric_scooter", "lon": -77.04658583333334, "bike_id": "ba6c73f58c9400a9cb4991c51d23df91", "fusion_lat": 0.0, "name": "ba6c73f58c9400a9cb4991c51d23df91", "is_reserved": 0, "rental_uris": {"android": "https://dc.lft.to/lastmile_qr_scan", "ios": "https://dc.lft.to/lastmile_qr_scan"}, "fusion_lon": 0.0}, {"lat": 38.90078283333333, "is_disabled": 0, "type": "electric_scooter", "lon": -77.05058166666667, "bike_id": "13b427db9c2d262ff3b59e7702157e03", "fusion_lat": 0.0, "name": "13b427db9c2d262ff3b59e7702157e03", "is_reserved": 0, "rental_uris": {"android": "https://dc.lft.to/lastmile_qr_scan", "ios": "https://dc.lft.to/lastmile_qr_scan"}, "fusion_lon": 0.0}, {"lat": 38.8996805, "is_disabled": 0, "type": "electric_scooter", "lon": -77.057015, "bike_id": "3bf1b0fc66cf04f464e9dde9eee10948", "fusion_lat": 0.0, "name": "3bf1b0fc66cf04f464e9dde9eee10948", "is_reserved": 0, "rental_uris": {"android": "https://dc.lft.to/lastmile_qr_scan", "ios": "https://dc.lft.to/lastmile_qr_scan"}, "fusion_lon": 0.0}, {"lat": 38.922372, "is_disabled": 0, "type": "electric_scooter", "lon": -77.04571066666666, "bike_id": "f64efb92da8973d49b86eff7dea6e831", "fusion_lat": 0.0, "name": "f64efb92da8973d49b86eff7dea6e831", "is_reserved": 0, "rental_uris": {"android": "https://dc.lft.to/lastmile_qr_scan", "ios": "https://dc.lft.to/lastmile_qr_scan"}, "fusion_lon": 0.0}, {"lat": 38.8972335, "is_disabled": 0, "type": "electric_scooter", "lon": -77.02973483333334, "bike_id": "f73bc3a9dd64d0200479c035e5a2065f", "fusion_lat": 0.0, "name": "f73bc3a9dd64d0200479c035e5a2065f", "is_reserved": 0, "rental_uris": {"android": "https://dc.lft.to/lastmile_qr_scan", "ios": "https://dc.lft.to/lastmile_qr_scan"}, "fusion_lon": 0.0}, {"lat": 38.9142085, "is_disabled": 0, "type": "electric_scooter", "lon": -77.03173833333334, "bike_id": "d3ec0202cb5e580458d747da4e1aa12d", "fusion_lat": 0.0, "name": "d3ec0202cb5e580458d747da4e1aa12d", "is_reserved": 0, "rental_uris": {"android": "https://dc.lft.to/lastmile_qr_scan", "ios": "https://dc.lft.to/lastmile_qr_scan"}, "fusion_lon": 0.0}, {"lat": 38.9185695, "is_disabled": 0, "type": "electric_scooter", "lon": -77.0410405, "bike_id": "0fe4586e496f9994ee55ed1d27c779e8", "fusion_lat": 0.0, "name": "0fe4586e496f9994ee55ed1d27c779e8", "is_reserved": 0, "rental_uris": {"android": "https://dc.lft.to/lastmile_qr_scan", "ios": "https://dc.lft.to/lastmile_qr_scan"}, "fusion_lon": 0.0}, {"lat": 38.93986666666667, "is_disabled": 0, "type": "electric_scooter", "lon": -77.07175383333333, "bike_id": "ee375e357c4fab2adfcdbbf1d688de47", "fusion_lat": 0.0, "name": "ee375e357c4fab2adfcdbbf1d688de47", "is_reserved": 0, "rental_uris": {"android": "https://dc.lft.to/lastmile_qr_scan", "ios": "https://dc.lft.to/lastmile_qr_scan"}, "fusion_lon": 0.0}, {"lat": 38.898857666666665, "is_disabled": 0, "type": "electric_scooter", "lon": -76.93178966666666, "bike_id": "441a9bf7989002b3ad9c1f033e2d6531", "fusion_lat": 0.0, "name": "441a9bf7989002b3ad9c1f033e2d6531", "is_reserved": 0, "rental_uris": {"android": "https://dc.lft.to/lastmile_qr_scan", "ios": "https://dc.lft.to/lastmile_qr_scan"}, "fusion_lon": 0.0}, {"lat": 38.924741, "is_disabled": 0, "type": "electric_scooter", "lon": -77.03939783333334, "bike_id": "59a8f560c4cc62e739ea6f5dbfbf4ef5", "fusion_lat": 0.0, "name": "59a8f560c4cc62e739ea6f5dbfbf4ef5", "is_reserved": 0, "rental_uris": {"android": "https://dc.lft.to/lastmile_qr_scan", "ios": "https://dc.lft.to/lastmile_qr_scan"}, "fusion_lon": 0.0}, {"lat": 38.850543, "is_disabled": 0, "type": "electric_bike", "lon": -76.97318916666667, "bike_id": "539fbfcd8958691e1514ece1e063b589", "fusion_lat": 0.0, "name": "539fbfcd8958691e1514ece1e063b589", "is_reserved": 0, "rental_uris": {"android": "https://dc.lft.to/lastmile_qr_scan", "ios": "https://dc.lft.to/lastmile_qr_scan"}, "fusion_lon": 0.0}, {"lat": 38.932968833333334, "is_disabled": 0, "type": "electric_scooter", "lon": -77.04535933333334, "bike_id": "bdf9e8663f7eed94de3a7f44d6adbc54", "fusion_lat": 0.0, "name": "bdf9e8663f7eed94de3a7f44d6adbc54", "is_reserved": 0, "rental_uris": {"android": "https://dc.lft.to/lastmile_qr_scan", "ios": "https://dc.lft.to/lastmile_qr_scan"}, "fusion_lon": 0.0}, {"lat": 38.9388685, "is_disabled": 0, "type": "electric_scooter", "lon": -77.033255, "bike_id": "68b93c20ade28ac5378e78223ae5f22a", "fusion_lat": 0.0, "name": "68b93c20ade28ac5378e78223ae5f22a", "is_reserved": 0, "rental_uris": {"android": "https://dc.lft.to/lastmile_qr_scan", "ios": "https://dc.lft.to/lastmile_qr_scan"}, "fusion_lon": 0.0}, {"lat": 38.88798666666667, "is_disabled": 0, "type": "electric_scooter", "lon": -76.933621, "bike_id": "fed8fcaa3c73f4945307a1f202c7f18d", "fusion_lat": 0.0, "name": "fed8fcaa3c73f4945307a1f202c7f18d", "is_reserved": 0, "rental_uris": {"android": "https://dc.lft.to/lastmile_qr_scan", "ios": "https://dc.lft.to/lastmile_qr_scan"}, "fusion_lon": 0.0}, {"lat": 38.880937333333335, "is_disabled": 0, "type": "electric_scooter", "lon": -76.99258533333334, "bike_id": "303f9be213c9b84756d32e4ba144f37f", "fusion_lat": 0.0, "name": "303f9be213c9b84756d32e4ba144f37f", "is_reserved": 0, "rental_uris": {"android": "https://dc.lft.to/lastmile_qr_scan", "ios": "https://dc.lft.to/lastmile_qr_scan"}, "fusion_lon": 0.0}, {"lat": 38.922530333333334, "is_disabled": 0, "type": "electric_scooter", "lon": -77.01974983333334, "bike_id": "ac1be9b8029106cae3cacd1675acb9b9", "fusion_lat": 0.0, "name": "ac1be9b8029106cae3cacd1675acb9b9", "is_reserved": 0, "rental_uris": {"android": "https://dc.lft.to/lastmile_qr_scan", "ios": "https://dc.lft.to/lastmile_qr_scan"}, "fusion_lon": 0.0}, {"lat": 38.895307833333334, "is_disabled": 0, "type": "electric_scooter", "lon": -77.03350633333334, "bike_id": "0f21db3415487d0d59d2ef6b435076e2", "fusion_lat": 0.0, "name": "0f21db3415487d0d59d2ef6b435076e2", "is_reserved": 0, "rental_uris": {"android": "https://dc.lft.to/lastmile_qr_scan", "ios": "https://dc.lft.to/lastmile_qr_scan"}, "fusion_lon": 0.0}, {"lat": 38.98435283333333, "is_disabled": 0, "type": "electric_scooter", "lon": -77.0267745, "bike_id": "d5faf7ec7a25edd3a9771fe9b5598059", "fusion_lat": 0.0, "name": "d5faf7ec7a25edd3a9771fe9b5598059", "is_reserved": 0, "rental_uris": {"android": "https://dc.lft.to/lastmile_qr_scan", "ios": "https://dc.lft.to/lastmile_qr_scan"}, "fusion_lon": 0.0}, {"lat": 38.96618316666667, "is_disabled": 0, "type": "electric_scooter", "lon": -77.0232705, "bike_id": "f6bb0eef91579411778d5f7cc355aca7", "fusion_lat": 0.0, "name": "f6bb0eef91579411778d5f7cc355aca7", "is_reserved": 0, "rental_uris": {"android": "https://dc.lft.to/lastmile_qr_scan", "ios": "https://dc.lft.to/lastmile_qr_scan"}, "fusion_lon": 0.0}, {"lat": 38.931905, "is_disabled": 0, "type": "electric_scooter", "lon": -77.025612, "bike_id": "0ba907fd30bfff96444463491a6fc804", "fusion_lat": 0.0, "name": "0ba907fd30bfff96444463491a6fc804", "is_reserved": 0, "rental_uris": {"android": "https://dc.lft.to/lastmile_qr_scan", "ios": "https://dc.lft.to/lastmile_qr_scan"}, "fusion_lon": 0.0}, {"lat": 38.9005595, "is_disabled": 0, "type": "electric_scooter", "lon": -77.00757733333333, "bike_id": "0a5c8e83065e59fdc84c5a9dbec13cfa", "fusion_lat": 0.0, "name": "0a5c8e83065e59fdc84c5a9dbec13cfa", "is_reserved": 0, "rental_uris": {"android": "https://dc.lft.to/lastmile_qr_scan", "ios": "https://dc.lft.to/lastmile_qr_scan"}, "fusion_lon": 0.0}, {"lat": 38.8836025, "is_disabled": 0, "type": "electric_scooter", "lon": -76.99511, "bike_id": "b877f963f6ec3717872c71181dff126c", "fusion_lat": 0.0, "name": "b877f963f6ec3717872c71181dff126c", "is_reserved": 0, "rental_uris": {"android": "https://dc.lft.to/lastmile_qr_scan", "ios": "https://dc.lft.to/lastmile_qr_scan"}, "fusion_lon": 0.0}, {"lat": 38.897077, "is_disabled": 0, "type": "electric_scooter", "lon": -77.02811616666666, "bike_id": "a8ea508979a73a90da1970e557505b11", "fusion_lat": 0.0, "name": "a8ea508979a73a90da1970e557505b11", "is_reserved": 0, "rental_uris": {"android": "https://dc.lft.to/lastmile_qr_scan", "ios": "https://dc.lft.to/lastmile_qr_scan"}, "fusion_lon": 0.0}, {"lat": 38.909715, "is_disabled": 0, "type": "electric_scooter", "lon": -77.0386235, "bike_id": "93e7ba704ae502a669b3c22f76d1088d", "fusion_lat": 0.0, "name": "93e7ba704ae502a669b3c22f76d1088d", "is_reserved": 0, "rental_uris": {"android": "https://dc.lft.to/lastmile_qr_scan", "ios": "https://dc.lft.to/lastmile_qr_scan"}, "fusion_lon": 0.0}, {"lat": 38.827794, "is_disabled": 0, "type": "electric_bike", "lon": -77.0090975, "bike_id": "263635ab3bfd62d747c9674bc21db0aa", "fusion_lat": 0.0, "name": "263635ab3bfd62d747c9674bc21db0aa", "is_reserved": 0, "rental_uris": {"android": "https://dc.lft.to/lastmile_qr_scan", "ios": "https://dc.lft.to/lastmile_qr_scan"}, "fusion_lon": 0.0}, {"lat": 38.906367333333336, "is_disabled": 0, "type": "electric_scooter", "lon": -77.0137595, "bike_id": "0530bdf47d9ca387048ecb8de422999f", "fusion_lat": 0.0, "name": "0530bdf47d9ca387048ecb8de422999f", "is_reserved": 0, "rental_uris": {"android": "https://dc.lft.to/lastmile_qr_scan", "ios": "https://dc.lft.to/lastmile_qr_scan"}, "fusion_lon": 0.0}, {"lat": 38.885162666666666, "is_disabled": 0, "type": "electric_scooter", "lon": -77.01068816666667, "bike_id": "a071da0dafa6d57811a2d150b8f4fc74", "fusion_lat": 0.0, "name": "a071da0dafa6d57811a2d150b8f4fc74", "is_reserved": 0, "rental_uris": {"android": "https://dc.lft.to/lastmile_qr_scan", "ios": "https://dc.lft.to/lastmile_qr_scan"}, "fusion_lon": 0.0}, {"lat": 38.814331833333334, "is_disabled": 0, "type": "electric_bike", "lon": -77.11893383333333, "bike_id": "b99b0fd672f4a185fe7d3f7e4c277f94", "fusion_lat": 0.0, "name": "b99b0fd672f4a185fe7d3f7e4c277f94", "is_reserved": 0, "rental_uris": {"android": "https://dc.lft.to/lastmile_qr_scan", "ios": "https://dc.lft.to/lastmile_qr_scan"}, "fusion_lon": 0.0}, {"lat": 38.89253883333333, "is_disabled": 0, "type": "electric_scooter", "lon": -77.02206283333334, "bike_id": "b2a370ab3a6fe4cc7c0e02f6cbc2ecf0", "fusion_lat": 0.0, "name": "b2a370ab3a6fe4cc7c0e02f6cbc2ecf0", "is_reserved": 0, "rental_uris": {"android": "https://dc.lft.to/lastmile_qr_scan", "ios": "https://dc.lft.to/lastmile_qr_scan"}, "fusion_lon": 0.0}, {"lat": 38.90581866666667, "is_disabled": 0, "type": "electric_scooter", "lon": -77.046945, "bike_id": "e7e16ac1a20bbd5399ef09da13374ba7", "fusion_lat": 0.0, "name": "e7e16ac1a20bbd5399ef09da13374ba7", "is_reserved": 0, "rental_uris": {"android": "https://dc.lft.to/lastmile_qr_scan", "ios": "https://dc.lft.to/lastmile_qr_scan"}, "fusion_lon": 0.0}, {"lat": 38.8766105, "is_disabled": 0, "type": "electric_scooter", "lon": -77.004233, "bike_id": "378388438a56bcb25ed86df7f974f5b3", "fusion_lat": 0.0, "name": "378388438a56bcb25ed86df7f974f5b3", "is_reserved": 0, "rental_uris": {"android": "https://dc.lft.to/lastmile_qr_scan", "ios": "https://dc.lft.to/lastmile_qr_scan"}, "fusion_lon": 0.0}, {"lat": 38.84594033333333, "is_disabled": 0, "type": "electric_bike", "lon": -77.076841, "bike_id": "8049c14b70985c30b5a2441a82aa5b42", "fusion_lat": 0.0, "name": "8049c14b70985c30b5a2441a82aa5b42", "is_reserved": 0, "rental_uris": {"android": "https://dc.lft.to/lastmile_qr_scan", "ios": "https://dc.lft.to/lastmile_qr_scan"}, "fusion_lon": 0.0}, {"lat": 38.86622083333334, "is_disabled": 0, "type": "electric_scooter", "lon": -76.98667833333333, "bike_id": "3bab510f9f679091b7186f8116924772", "fusion_lat": 0.0, "name": "3bab510f9f679091b7186f8116924772", "is_reserved": 0, "rental_uris": {"android": "https://dc.lft.to/lastmile_qr_scan", "ios": "https://dc.lft.to/lastmile_qr_scan"}, "fusion_lon": 0.0}, {"lat": 38.9096625, "is_disabled": 0, "type": "electric_scooter", "lon": -77.048201, "bike_id": "3924ddac937a6cd8dada07cfa7e8a26c", "fusion_lat": 0.0, "name": "3924ddac937a6cd8dada07cfa7e8a26c", "is_reserved": 0, "rental_uris": {"android": "https://dc.lft.to/lastmile_qr_scan", "ios": "https://dc.lft.to/lastmile_qr_scan"}, "fusion_lon": 0.0}, {"lat": 38.921674, "is_disabled": 0, "type": "electric_scooter", "lon": -77.040167, "bike_id": "e6a942147a9a197cac950750b318a512", "fusion_lat": 0.0, "name": "e6a942147a9a197cac950750b318a512", "is_reserved": 0, "rental_uris": {"android": "https://dc.lft.to/lastmile_qr_scan", "ios": "https://dc.lft.to/lastmile_qr_scan"}, "fusion_lon": 0.0}, {"lat": 38.8372, "is_disabled": 0, "type": "electric_bike", "lon": -76.9978335, "bike_id": "062690e1a7672bdb8950a1f446f8ff1f", "fusion_lat": 0.0, "name": "062690e1a7672bdb8950a1f446f8ff1f", "is_reserved": 0, "rental_uris": {"android": "https://dc.lft.to/lastmile_qr_scan", "ios": "https://dc.lft.to/lastmile_qr_scan"}, "fusion_lon": 0.0}, {"lat": 38.85685816666667, "is_disabled": 0, "type": "electric_scooter", "lon": -76.98165766666666, "bike_id": "9ddc11e5e35378b0dae3598dc2de1f01", "fusion_lat": 0.0, "name": "9ddc11e5e35378b0dae3598dc2de1f01", "is_reserved": 0, "rental_uris": {"android": "https://dc.lft.to/lastmile_qr_scan", "ios": "https://dc.lft.to/lastmile_qr_scan"}, "fusion_lon": 0.0}, {"lat": 38.938388333333336, "is_disabled": 0, "type": "electric_scooter", "lon": -77.0259335, "bike_id": "0bf757826a90a0a697cd93fdce140699", "fusion_lat": 0.0, "name": "0bf757826a90a0a697cd93fdce140699", "is_reserved": 0, "rental_uris": {"android": "https://dc.lft.to/lastmile_qr_scan", "ios": "https://dc.lft.to/lastmile_qr_scan"}, "fusion_lon": 0.0}, {"lat": 38.899038166666664, "is_disabled": 0, "type": "electric_scooter", "lon": -76.98204816666667, "bike_id": "de73419eb8abc04e09d04d9e67c87d3d", "fusion_lat": 0.0, "name": "de73419eb8abc04e09d04d9e67c87d3d", "is_reserved": 0, "rental_uris": {"android": "https://dc.lft.to/lastmile_qr_scan", "ios": "https://dc.lft.to/lastmile_qr_scan"}, "fusion_lon": 0.0}, {"lat": 38.88997416666667, "is_disabled": 0, "type": "electric_scooter", "lon": -76.95568883333334, "bike_id": "d8cf6fe255a0c23c6da6d2688b5f0ebd", "fusion_lat": 0.0, "name": "d8cf6fe255a0c23c6da6d2688b5f0ebd", "is_reserved": 0, "rental_uris": {"android": "https://dc.lft.to/lastmile_qr_scan", "ios": "https://dc.lft.to/lastmile_qr_scan"}, "fusion_lon": 0.0}, {"lat": 38.934188166666665, "is_disabled": 0, "type": "electric_scooter", "lon": -77.04144466666666, "bike_id": "d077648be7dc456d848069412895e9d8", "fusion_lat": 0.0, "name": "d077648be7dc456d848069412895e9d8", "is_reserved": 0, "rental_uris": {"android": "https://dc.lft.to/lastmile_qr_scan", "ios": "https://dc.lft.to/lastmile_qr_scan"}, "fusion_lon": 0.0}, {"lat": 38.90574466666666, "is_disabled": 0, "type": "electric_scooter", "lon": -77.0626415, "bike_id": "0ee82d1d009e2e15584b2620d7b7c5d5", "fusion_lat": 0.0, "name": "0ee82d1d009e2e15584b2620d7b7c5d5", "is_reserved": 0, "rental_uris": {"android": "https://dc.lft.to/lastmile_qr_scan", "ios": "https://dc.lft.to/lastmile_qr_scan"}, "fusion_lon": 0.0}, {"lat": 38.85505083333334, "is_disabled": 0, "type": "electric_bike", "lon": -76.9842185, "bike_id": "7d54bdd1b03cbe4b2dab74c92f99ab20", "fusion_lat": 0.0, "name": "7d54bdd1b03cbe4b2dab74c92f99ab20", "is_reserved": 0, "rental_uris": {"android": "https://dc.lft.to/lastmile_qr_scan", "ios": "https://dc.lft.to/lastmile_qr_scan"}, "fusion_lon": 0.0}, {"lat": 38.91614416666667, "is_disabled": 0, "type": "electric_scooter", "lon": -77.0255, "bike_id": "753b579d35188d53aaaf3fd5eec56e82", "fusion_lat": 0.0, "name": "753b579d35188d53aaaf3fd5eec56e82", "is_reserved": 0, "rental_uris": {"android": "https://dc.lft.to/lastmile_qr_scan", "ios": "https://dc.lft.to/lastmile_qr_scan"}, "fusion_lon": 0.0}, {"lat": 38.938245, "is_disabled": 0, "type": "electric_bike", "lon": -77.026558, "bike_id": "43403b399d9d8503c6c3127f064125bb", "fusion_lat": 0.0, "name": "43403b399d9d8503c6c3127f064125bb", "is_reserved": 0, "rental_uris": {"android": "https://dc.lft.to/lastmile_qr_scan", "ios": "https://dc.lft.to/lastmile_qr_scan"}, "fusion_lon": 0.0}, {"lat": 38.906760166666665, "is_disabled": 0, "type": "electric_scooter", "lon": -77.07180483333333, "bike_id": "f0a9ce463af5606b04622f18298e33af", "fusion_lat": 0.0, "name": "f0a9ce463af5606b04622f18298e33af", "is_reserved": 0, "rental_uris": {"android": "https://dc.lft.to/lastmile_qr_scan", "ios": "https://dc.lft.to/lastmile_qr_scan"}, "fusion_lon": 0.0}, {"lat": 38.8860255, "is_disabled": 0, "type": "electric_scooter", "lon": -77.0036885, "bike_id": "5ecfde7b13fc76d5d27cfc18e998fcc0", "fusion_lat": 0.0, "name": "5ecfde7b13fc76d5d27cfc18e998fcc0", "is_reserved": 0, "rental_uris": {"android": "https://dc.lft.to/lastmile_qr_scan", "ios": "https://dc.lft.to/lastmile_qr_scan"}, "fusion_lon": 0.0}, {"lat": 38.89735666666667, "is_disabled": 0, "type": "electric_scooter", "lon": -77.00752116666666, "bike_id": "5d07e9c3410c82060faac07426133ee0", "fusion_lat": 0.0, "name": "5d07e9c3410c82060faac07426133ee0", "is_reserved": 0, "rental_uris": {"android": "https://dc.lft.to/lastmile_qr_scan", "ios": "https://dc.lft.to/lastmile_qr_scan"}, "fusion_lon": 0.0}, {"lat": 38.902593833333334, "is_disabled": 0, "type": "electric_scooter", "lon": -77.04349783333333, "bike_id": "3c5a09926f68aa50b3a4b9a6d4ce4547", "fusion_lat": 0.0, "name": "3c5a09926f68aa50b3a4b9a6d4ce4547", "is_reserved": 0, "rental_uris": {"android": "https://dc.lft.to/lastmile_qr_scan", "ios": "https://dc.lft.to/lastmile_qr_scan"}, "fusion_lon": 0.0}, {"lat": 38.900585666666665, "is_disabled": 0, "type": "electric_scooter", "lon": -76.93386566666666, "bike_id": "4fa637d25adeac40e3827b7c316c34e6", "fusion_lat": 0.0, "name": "4fa637d25adeac40e3827b7c316c34e6", "is_reserved": 0, "rental_uris": {"android": "https://dc.lft.to/lastmile_qr_scan", "ios": "https://dc.lft.to/lastmile_qr_scan"}, "fusion_lon": 0.0}, {"lat": 38.99998733333334, "is_disabled": 0, "type": "electric_bike", "lon": -76.92495133333334, "bike_id": "1ab7c2a4117ea376bbdfa91333a92e5a", "fusion_lat": 0.0, "name": "1ab7c2a4117ea376bbdfa91333a92e5a", "is_reserved": 0, "rental_uris": {"android": "https://dc.lft.to/lastmile_qr_scan", "ios": "https://dc.lft.to/lastmile_qr_scan"}, "fusion_lon": 0.0}, {"lat": 38.89228133333334, "is_disabled": 0, "type": "electric_scooter", "lon": -77.03183433333334, "bike_id": "a5e37956f45adc993b50d2b0d1a6de56", "fusion_lat": 0.0, "name": "a5e37956f45adc993b50d2b0d1a6de56", "is_reserved": 0, "rental_uris": {"android": "https://dc.lft.to/lastmile_qr_scan", "ios": "https://dc.lft.to/lastmile_qr_scan"}, "fusion_lon": 0.0}, {"lat": 38.916911666666664, "is_disabled": 0, "type": "electric_scooter", "lon": -77.02976716666667, "bike_id": "dfcd14de82e68ae5280b6af4fed31eb0", "fusion_lat": 0.0, "name": "dfcd14de82e68ae5280b6af4fed31eb0", "is_reserved": 0, "rental_uris": {"android": "https://dc.lft.to/lastmile_qr_scan", "ios": "https://dc.lft.to/lastmile_qr_scan"}, "fusion_lon": 0.0}, {"lat": 38.93189433333333, "is_disabled": 0, "type": "electric_scooter", "lon": -77.02832916666667, "bike_id": "8a4263d3ac19fa7dbbeb9e0f031e845f", "fusion_lat": 0.0, "name": "8a4263d3ac19fa7dbbeb9e0f031e845f", "is_reserved": 0, "rental_uris": {"android": "https://dc.lft.to/lastmile_qr_scan", "ios": "https://dc.lft.to/lastmile_qr_scan"}, "fusion_lon": 0.0}, {"lat": 38.9365435, "is_disabled": 0, "type": "electric_scooter", "lon": -77.02393083333334, "bike_id": "70d6d119412a942196e12b185e839355", "fusion_lat": 0.0, "name": "70d6d119412a942196e12b185e839355", "is_reserved": 0, "rental_uris": {"android": "https://dc.lft.to/lastmile_qr_scan", "ios": "https://dc.lft.to/lastmile_qr_scan"}, "fusion_lon": 0.0}, {"lat": 38.899634166666665, "is_disabled": 0, "type": "electric_scooter", "lon": -77.05129633333334, "bike_id": "b3dd8077140ca7b2958fb6cbb4791764", "fusion_lat": 0.0, "name": "b3dd8077140ca7b2958fb6cbb4791764", "is_reserved": 0, "rental_uris": {"android": "https://dc.lft.to/lastmile_qr_scan", "ios": "https://dc.lft.to/lastmile_qr_scan"}, "fusion_lon": 0.0}, {"lat": 38.89096416666667, "is_disabled": 0, "type": "electric_scooter", "lon": -76.952527, "bike_id": "96345573d3a77a239ad9bcd21736930a", "fusion_lat": 0.0, "name": "96345573d3a77a239ad9bcd21736930a", "is_reserved": 0, "rental_uris": {"android": "https://dc.lft.to/lastmile_qr_scan", "ios": "https://dc.lft.to/lastmile_qr_scan"}, "fusion_lon": 0.0}, {"lat": 38.901122666666666, "is_disabled": 0, "type": "electric_scooter", "lon": -77.04995766666667, "bike_id": "071b956c8a2e3d8f9eb6d7a0df56b2f2", "fusion_lat": 0.0, "name": "071b956c8a2e3d8f9eb6d7a0df56b2f2", "is_reserved": 0, "rental_uris": {"android": "https://dc.lft.to/lastmile_qr_scan", "ios": "https://dc.lft.to/lastmile_qr_scan"}, "fusion_lon": 0.0}, {"lat": 38.942967833333334, "is_disabled": 0, "type": "electric_scooter", "lon": -77.07709066666666, "bike_id": "47ccd0b44a1ad008760822042825bf8f", "fusion_lat": 0.0, "name": "47ccd0b44a1ad008760822042825bf8f", "is_reserved": 0, "rental_uris": {"android": "https://dc.lft.to/lastmile_qr_scan", "ios": "https://dc.lft.to/lastmile_qr_scan"}, "fusion_lon": 0.0}, {"lat": 38.905176166666664, "is_disabled": 0, "type": "electric_scooter", "lon": -77.06772833333333, "bike_id": "5cd3cc212fc34a03ea86b59cfc467e1c", "fusion_lat": 0.0, "name": "5cd3cc212fc34a03ea86b59cfc467e1c", "is_reserved": 0, "rental_uris": {"android": "https://dc.lft.to/lastmile_qr_scan", "ios": "https://dc.lft.to/lastmile_qr_scan"}, "fusion_lon": 0.0}, {"lat": 38.924763666666664, "is_disabled": 0, "type": "electric_scooter", "lon": -77.03939816666667, "bike_id": "1e5929f06f85086c4fac7e3f6ab3794d", "fusion_lat": 0.0, "name": "1e5929f06f85086c4fac7e3f6ab3794d", "is_reserved": 0, "rental_uris": {"android": "https://dc.lft.to/lastmile_qr_scan", "ios": "https://dc.lft.to/lastmile_qr_scan"}, "fusion_lon": 0.0}, {"lat": 38.8966045, "is_disabled": 0, "type": "electric_scooter", "lon": -77.00901816666666, "bike_id": "1d7d10c553b8bd451bdd4421eab14d70", "fusion_lat": 0.0, "name": "1d7d10c553b8bd451bdd4421eab14d70", "is_reserved": 0, "rental_uris": {"android": "https://dc.lft.to/lastmile_qr_scan", "ios": "https://dc.lft.to/lastmile_qr_scan"}, "fusion_lon": 0.0}, {"lat": 38.920526, "is_disabled": 0, "type": "electric_scooter", "lon": -77.03341616666667, "bike_id": "8acefca8818a97b84158f3865910565c", "fusion_lat": 0.0, "name": "8acefca8818a97b84158f3865910565c", "is_reserved": 0, "rental_uris": {"android": "https://dc.lft.to/lastmile_qr_scan", "ios": "https://dc.lft.to/lastmile_qr_scan"}, "fusion_lon": 0.0}, {"lat": 38.926584166666665, "is_disabled": 0, "type": "electric_scooter", "lon": -77.05590966666666, "bike_id": "d3eb1f582e8ff934840686bd4faa77d5", "fusion_lat": 0.0, "name": "d3eb1f582e8ff934840686bd4faa77d5", "is_reserved": 0, "rental_uris": {"android": "https://dc.lft.to/lastmile_qr_scan", "ios": "https://dc.lft.to/lastmile_qr_scan"}, "fusion_lon": 0.0}, {"lat": 38.8955375, "is_disabled": 0, "type": "electric_scooter", "lon": -76.93380483333334, "bike_id": "8141f1b6f7cb720f08ba1aa945cbdbf6", "fusion_lat": 0.0, "name": "8141f1b6f7cb720f08ba1aa945cbdbf6", "is_reserved": 0, "rental_uris": {"android": "https://dc.lft.to/lastmile_qr_scan", "ios": "https://dc.lft.to/lastmile_qr_scan"}, "fusion_lon": 0.0}, {"lat": 38.91964083333333, "is_disabled": 0, "type": "electric_scooter", "lon": -77.0395915, "bike_id": "9cb0af5fc34d027c0ff96431cf4caf5b", "fusion_lat": 0.0, "name": "9cb0af5fc34d027c0ff96431cf4caf5b", "is_reserved": 0, "rental_uris": {"android": "https://dc.lft.to/lastmile_qr_scan", "ios": "https://dc.lft.to/lastmile_qr_scan"}, "fusion_lon": 0.0}, {"lat": 38.90272683333333, "is_disabled": 0, "type": "electric_scooter", "lon": -77.03449933333333, "bike_id": "1c36acde9f1856c1823b00063311dea2", "fusion_lat": 0.0, "name": "1c36acde9f1856c1823b00063311dea2", "is_reserved": 0, "rental_uris": {"android": "https://dc.lft.to/lastmile_qr_scan", "ios": "https://dc.lft.to/lastmile_qr_scan"}, "fusion_lon": 0.0}, {"lat": 38.793071166666664, "is_disabled": 0, "type": "electric_bike", "lon": -77.04928866666667, "bike_id": "3c5bfd6a50994c1a3046077ad473894f", "fusion_lat": 0.0, "name": "3c5bfd6a50994c1a3046077ad473894f", "is_reserved": 0, "rental_uris": {"android": "https://dc.lft.to/lastmile_qr_scan", "ios": "https://dc.lft.to/lastmile_qr_scan"}, "fusion_lon": 0.0}, {"lat": 38.92466733333333, "is_disabled": 0, "type": "electric_scooter", "lon": -77.03963883333333, "bike_id": "8749b3894ecfbada09f1006a61d32873", "fusion_lat": 0.0, "name": "8749b3894ecfbada09f1006a61d32873", "is_reserved": 0, "rental_uris": {"android": "https://dc.lft.to/lastmile_qr_scan", "ios": "https://dc.lft.to/lastmile_qr_scan"}, "fusion_lon": 0.0}, {"lat": 38.9036035, "is_disabled": 0, "type": "electric_scooter", "lon": -76.97654866666667, "bike_id": "8c0984b7ef6119cb53e36d50b57b2d14", "fusion_lat": 0.0, "name": "8c0984b7ef6119cb53e36d50b57b2d14", "is_reserved": 0, "rental_uris": {"android": "https://dc.lft.to/lastmile_qr_scan", "ios": "https://dc.lft.to/lastmile_qr_scan"}, "fusion_lon": 0.0}, {"lat": 38.895907, "is_disabled": 0, "type": "electric_scooter", "lon": -77.04362083333334, "bike_id": "5850d9db6c62795b1ba6eb415e629f87", "fusion_lat": 0.0, "name": "5850d9db6c62795b1ba6eb415e629f87", "is_reserved": 0, "rental_uris": {"android": "https://dc.lft.to/lastmile_qr_scan", "ios": "https://dc.lft.to/lastmile_qr_scan"}, "fusion_lon": 0.0}, {"lat": 38.9021195, "is_disabled": 0, "type": "electric_scooter", "lon": -76.9884735, "bike_id": "0d0d994480ab7012d0eeacaefda5d19f", "fusion_lat": 0.0, "name": "0d0d994480ab7012d0eeacaefda5d19f", "is_reserved": 0, "rental_uris": {"android": "https://dc.lft.to/lastmile_qr_scan", "ios": "https://dc.lft.to/lastmile_qr_scan"}, "fusion_lon": 0.0}, {"lat": 38.946541, "is_disabled": 0, "type": "electric_scooter", "lon": -77.064933, "bike_id": "52453ab54bfb460f47f8efb2dff4d0e0", "fusion_lat": 0.0, "name": "52453ab54bfb460f47f8efb2dff4d0e0", "is_reserved": 0, "rental_uris": {"android": "https://dc.lft.to/lastmile_qr_scan", "ios": "https://dc.lft.to/lastmile_qr_scan"}, "fusion_lon": 0.0}, {"lat": 38.880157833333335, "is_disabled": 0, "type": "electric_scooter", "lon": -76.93126033333333, "bike_id": "46ba2da9a397ad29c9dcd3f0f66df4d5", "fusion_lat": 0.0, "name": "46ba2da9a397ad29c9dcd3f0f66df4d5", "is_reserved": 0, "rental_uris": {"android": "https://dc.lft.to/lastmile_qr_scan", "ios": "https://dc.lft.to/lastmile_qr_scan"}, "fusion_lon": 0.0}, {"lat": 38.930959333333334, "is_disabled": 0, "type": "electric_scooter", "lon": -77.02506666666666, "bike_id": "ad88101fe6c8535ce944d173933c392c", "fusion_lat": 0.0, "name": "ad88101fe6c8535ce944d173933c392c", "is_reserved": 0, "rental_uris": {"android": "https://dc.lft.to/lastmile_qr_scan", "ios": "https://dc.lft.to/lastmile_qr_scan"}, "fusion_lon": 0.0}, {"lat": 38.93105933333333, "is_disabled": 0, "type": "electric_scooter", "lon": -77.0347495, "bike_id": "47f1f75120b15a1638723493844a45d6", "fusion_lat": 0.0, "name": "47f1f75120b15a1638723493844a45d6", "is_reserved": 0, "rental_uris": {"android": "https://dc.lft.to/lastmile_qr_scan", "ios": "https://dc.lft.to/lastmile_qr_scan"}, "fusion_lon": 0.0}, {"lat": 38.91407016666667, "is_disabled": 0, "type": "electric_scooter", "lon": -77.03228366666667, "bike_id": "2f72cbb8db295c0a66d58510cd0c7689", "fusion_lat": 0.0, "name": "2f72cbb8db295c0a66d58510cd0c7689", "is_reserved": 0, "rental_uris": {"android": "https://dc.lft.to/lastmile_qr_scan", "ios": "https://dc.lft.to/lastmile_qr_scan"}, "fusion_lon": 0.0}, {"lat": 38.911757, "is_disabled": 0, "type": "electric_bike", "lon": -77.0028005, "bike_id": "75939e5e12e6358150cac84b0454cc8d", "fusion_lat": 0.0, "name": "75939e5e12e6358150cac84b0454cc8d", "is_reserved": 0, "rental_uris": {"android": "https://dc.lft.to/lastmile_qr_scan", "ios": "https://dc.lft.to/lastmile_qr_scan"}, "fusion_lon": 0.0}, {"lat": 38.899572166666665, "is_disabled": 0, "type": "electric_scooter", "lon": -77.01509466666667, "bike_id": "9ae9dff1ae899634c1c7df0fac274307", "fusion_lat": 0.0, "name": "9ae9dff1ae899634c1c7df0fac274307", "is_reserved": 0, "rental_uris": {"android": "https://dc.lft.to/lastmile_qr_scan", "ios": "https://dc.lft.to/lastmile_qr_scan"}, "fusion_lon": 0.0}, {"lat": 38.871433833333334, "is_disabled": 0, "type": "electric_bike", "lon": -76.93707533333334, "bike_id": "fff7cc4703924218ebc984871640d9ed", "fusion_lat": 0.0, "name": "fff7cc4703924218ebc984871640d9ed", "is_reserved": 0, "rental_uris": {"android": "https://dc.lft.to/lastmile_qr_scan", "ios": "https://dc.lft.to/lastmile_qr_scan"}, "fusion_lon": 0.0}, {"lat": 38.90031783333333, "is_disabled": 0, "type": "electric_scooter", "lon": -76.98806766666667, "bike_id": "877e7b1363e76028447bdc43d36e4118", "fusion_lat": 0.0, "name": "877e7b1363e76028447bdc43d36e4118", "is_reserved": 0, "rental_uris": {"android": "https://dc.lft.to/lastmile_qr_scan", "ios": "https://dc.lft.to/lastmile_qr_scan"}, "fusion_lon": 0.0}, {"lat": 38.90269966666666, "is_disabled": 0, "type": "electric_scooter", "lon": -77.0397235, "bike_id": "cf3feb9fce18ed03215600e6d70b14ea", "fusion_lat": 0.0, "name": "cf3feb9fce18ed03215600e6d70b14ea", "is_reserved": 0, "rental_uris": {"android": "https://dc.lft.to/lastmile_qr_scan", "ios": "https://dc.lft.to/lastmile_qr_scan"}, "fusion_lon": 0.0}, {"lat": 38.86715933333333, "is_disabled": 0, "type": "electric_scooter", "lon": -76.98722916666667, "bike_id": "879162fdf1a0697e65fd1d5f1c911b6b", "fusion_lat": 0.0, "name": "879162fdf1a0697e65fd1d5f1c911b6b", "is_reserved": 0, "rental_uris": {"android": "https://dc.lft.to/lastmile_qr_scan", "ios": "https://dc.lft.to/lastmile_qr_scan"}, "fusion_lon": 0.0}, {"lat": 38.90220333333333, "is_disabled": 0, "type": "electric_scooter", "lon": -77.05334266666667, "bike_id": "aec4ac03f38e5e03354387ca1b240cf9", "fusion_lat": 0.0, "name": "aec4ac03f38e5e03354387ca1b240cf9", "is_reserved": 0, "rental_uris": {"android": "https://dc.lft.to/lastmile_qr_scan", "ios": "https://dc.lft.to/lastmile_qr_scan"}, "fusion_lon": 0.0}, {"lat": 38.90589766666667, "is_disabled": 0, "type": "electric_scooter", "lon": -77.04706516666667, "bike_id": "3edd618b32b1ddac7cca5c989873f783", "fusion_lat": 0.0, "name": "3edd618b32b1ddac7cca5c989873f783", "is_reserved": 0, "rental_uris": {"android": "https://dc.lft.to/lastmile_qr_scan", "ios": "https://dc.lft.to/lastmile_qr_scan"}, "fusion_lon": 0.0}, {"lat": 38.84573533333333, "is_disabled": 0, "type": "electric_bike", "lon": -77.09622266666666, "bike_id": "56c271c4977abf3f6af5ad524d39d153", "fusion_lat": 0.0, "name": "56c271c4977abf3f6af5ad524d39d153", "is_reserved": 0, "rental_uris": {"android": "https://dc.lft.to/lastmile_qr_scan", "ios": "https://dc.lft.to/lastmile_qr_scan"}, "fusion_lon": 0.0}, {"lat": 38.930517333333334, "is_disabled": 0, "type": "electric_scooter", "lon": -77.0329395, "bike_id": "68f2daa18a46b3cfc9920570b4d1b872", "fusion_lat": 0.0, "name": "68f2daa18a46b3cfc9920570b4d1b872", "is_reserved": 0, "rental_uris": {"android": "https://dc.lft.to/lastmile_qr_scan", "ios": "https://dc.lft.to/lastmile_qr_scan"}, "fusion_lon": 0.0}, {"lat": 38.91624316666667, "is_disabled": 0, "type": "electric_scooter", "lon": -77.03284233333333, "bike_id": "2c2164294e2afe986a608d7d43e67970", "fusion_lat": 0.0, "name": "2c2164294e2afe986a608d7d43e67970", "is_reserved": 0, "rental_uris": {"android": "https://dc.lft.to/lastmile_qr_scan", "ios": "https://dc.lft.to/lastmile_qr_scan"}, "fusion_lon": 0.0}, {"lat": 38.91109016666667, "is_disabled": 0, "type": "electric_scooter", "lon": -77.02158083333333, "bike_id": "495ab1689f0666f6ef772a46b176da43", "fusion_lat": 0.0, "name": "495ab1689f0666f6ef772a46b176da43", "is_reserved": 0, "rental_uris": {"android": "https://dc.lft.to/lastmile_qr_scan", "ios": "https://dc.lft.to/lastmile_qr_scan"}, "fusion_lon": 0.0}, {"lat": 38.90682483333333, "is_disabled": 0, "type": "electric_scooter", "lon": -77.06268233333333, "bike_id": "963420a21c571f3421f0d512175982fa", "fusion_lat": 0.0, "name": "963420a21c571f3421f0d512175982fa", "is_reserved": 0, "rental_uris": {"android": "https://dc.lft.to/lastmile_qr_scan", "ios": "https://dc.lft.to/lastmile_qr_scan"}, "fusion_lon": 0.0}, {"lat": 38.86647766666667, "is_disabled": 0, "type": "electric_scooter", "lon": -76.98889883333334, "bike_id": "d5e92bb54c8f57aef0a634e8201e1214", "fusion_lat": 0.0, "name": "d5e92bb54c8f57aef0a634e8201e1214", "is_reserved": 0, "rental_uris": {"android": "https://dc.lft.to/lastmile_qr_scan", "ios": "https://dc.lft.to/lastmile_qr_scan"}, "fusion_lon": 0.0}, {"lat": 38.9649435, "is_disabled": 0, "type": "electric_scooter", "lon": -77.02785033333333, "bike_id": "ea93324053823af9c490b2b5082870c3", "fusion_lat": 0.0, "name": "ea93324053823af9c490b2b5082870c3", "is_reserved": 0, "rental_uris": {"android": "https://dc.lft.to/lastmile_qr_scan", "ios": "https://dc.lft.to/lastmile_qr_scan"}, "fusion_lon": 0.0}, {"lat": 38.900456, "is_disabled": 0, "type": "electric_scooter", "lon": -77.00199416666666, "bike_id": "11b31980964b95a6b68a6fdb0fc4307a", "fusion_lat": 0.0, "name": "11b31980964b95a6b68a6fdb0fc4307a", "is_reserved": 0, "rental_uris": {"android": "https://dc.lft.to/lastmile_qr_scan", "ios": "https://dc.lft.to/lastmile_qr_scan"}, "fusion_lon": 0.0}, {"lat": 38.9217815, "is_disabled": 0, "type": "electric_scooter", "lon": -77.047143, "bike_id": "d7edea555f46846fc52329c9ca099bde", "fusion_lat": 0.0, "name": "d7edea555f46846fc52329c9ca099bde", "is_reserved": 0, "rental_uris": {"android": "https://dc.lft.to/lastmile_qr_scan", "ios": "https://dc.lft.to/lastmile_qr_scan"}, "fusion_lon": 0.0}, {"lat": 38.9229895, "is_disabled": 0, "type": "electric_scooter", "lon": -77.041448, "bike_id": "42de2aeba3e9b1726c1f0c032e5553c3", "fusion_lat": 0.0, "name": "42de2aeba3e9b1726c1f0c032e5553c3", "is_reserved": 0, "rental_uris": {"android": "https://dc.lft.to/lastmile_qr_scan", "ios": "https://dc.lft.to/lastmile_qr_scan"}, "fusion_lon": 0.0}, {"lat": 38.932421, "is_disabled": 0, "type": "electric_scooter", "lon": -77.03263866666667, "bike_id": "3fb0cab274a6fb64896a5c123e541b19", "fusion_lat": 0.0, "name": "3fb0cab274a6fb64896a5c123e541b19", "is_reserved": 0, "rental_uris": {"android": "https://dc.lft.to/lastmile_qr_scan", "ios": "https://dc.lft.to/lastmile_qr_scan"}, "fusion_lon": 0.0}, {"lat": 38.921563, "is_disabled": 0, "type": "electric_scooter", "lon": -77.03379983333333, "bike_id": "358d79247938917117b249087b033ce2", "fusion_lat": 0.0, "name": "358d79247938917117b249087b033ce2", "is_reserved": 0, "rental_uris": {"android": "https://dc.lft.to/lastmile_qr_scan", "ios": "https://dc.lft.to/lastmile_qr_scan"}, "fusion_lon": 0.0}, {"lat": 38.903786333333336, "is_disabled": 0, "type": "electric_scooter", "lon": -77.0027165, "bike_id": "6a4d12504676b1e563ab9193bc65c037", "fusion_lat": 0.0, "name": "6a4d12504676b1e563ab9193bc65c037", "is_reserved": 0, "rental_uris": {"android": "https://dc.lft.to/lastmile_qr_scan", "ios": "https://dc.lft.to/lastmile_qr_scan"}, "fusion_lon": 0.0}, {"lat": 38.9052635, "is_disabled": 0, "type": "electric_scooter", "lon": -76.98622866666666, "bike_id": "bccbcac808024b365ace7cd2d74ac79c", "fusion_lat": 0.0, "name": "bccbcac808024b365ace7cd2d74ac79c", "is_reserved": 0, "rental_uris": {"android": "https://dc.lft.to/lastmile_qr_scan", "ios": "https://dc.lft.to/lastmile_qr_scan"}, "fusion_lon": 0.0}, {"lat": 38.86792283333333, "is_disabled": 0, "type": "electric_scooter", "lon": -76.9657305, "bike_id": "defac9335cf60bed2ed9deb3b63d062c", "fusion_lat": 0.0, "name": "defac9335cf60bed2ed9deb3b63d062c", "is_reserved": 0, "rental_uris": {"android": "https://dc.lft.to/lastmile_qr_scan", "ios": "https://dc.lft.to/lastmile_qr_scan"}, "fusion_lon": 0.0}, {"lat": 38.897555833333335, "is_disabled": 0, "type": "electric_scooter", "lon": -77.01862683333333, "bike_id": "86e396c69d05e1417cfd2c6dbf05f382", "fusion_lat": 0.0, "name": "86e396c69d05e1417cfd2c6dbf05f382", "is_reserved": 0, "rental_uris": {"android": "https://dc.lft.to/lastmile_qr_scan", "ios": "https://dc.lft.to/lastmile_qr_scan"}, "fusion_lon": 0.0}, {"lat": 38.932648666666665, "is_disabled": 0, "type": "electric_scooter", "lon": -77.032804, "bike_id": "48bd4bbe472f30efe45361db43cdec0e", "fusion_lat": 0.0, "name": "48bd4bbe472f30efe45361db43cdec0e", "is_reserved": 0, "rental_uris": {"android": "https://dc.lft.to/lastmile_qr_scan", "ios": "https://dc.lft.to/lastmile_qr_scan"}, "fusion_lon": 0.0}, {"lat": 38.92027616666667, "is_disabled": 0, "type": "electric_scooter", "lon": -77.03854866666667, "bike_id": "5fc11981f034d3193014e32bb8308276", "fusion_lat": 0.0, "name": "5fc11981f034d3193014e32bb8308276", "is_reserved": 0, "rental_uris": {"android": "https://dc.lft.to/lastmile_qr_scan", "ios": "https://dc.lft.to/lastmile_qr_scan"}, "fusion_lon": 0.0}, {"lat": 38.9303535, "is_disabled": 0, "type": "electric_scooter", "lon": -77.03631633333333, "bike_id": "634ace8da27c318fbfafc3376c360b84", "fusion_lat": 0.0, "name": "634ace8da27c318fbfafc3376c360b84", "is_reserved": 0, "rental_uris": {"android": "https://dc.lft.to/lastmile_qr_scan", "ios": "https://dc.lft.to/lastmile_qr_scan"}, "fusion_lon": 0.0}, {"lat": 38.8857225, "is_disabled": 0, "type": "electric_scooter", "lon": -77.02014233333334, "bike_id": "dfd7fe7963343804f34933c3a2df9e8e", "fusion_lat": 0.0, "name": "dfd7fe7963343804f34933c3a2df9e8e", "is_reserved": 0, "rental_uris": {"android": "https://dc.lft.to/lastmile_qr_scan", "ios": "https://dc.lft.to/lastmile_qr_scan"}, "fusion_lon": 0.0}, {"lat": 38.9334935, "is_disabled": 0, "type": "electric_scooter", "lon": -77.05706216666667, "bike_id": "bdab60684405025d8aca14f47bdc6609", "fusion_lat": 0.0, "name": "bdab60684405025d8aca14f47bdc6609", "is_reserved": 0, "rental_uris": {"android": "https://dc.lft.to/lastmile_qr_scan", "ios": "https://dc.lft.to/lastmile_qr_scan"}, "fusion_lon": 0.0}, {"lat": 38.901735, "is_disabled": 0, "type": "electric_scooter", "lon": -77.03989166666666, "bike_id": "4b5d6ee67d6b1e92e666e153a17b98e4", "fusion_lat": 0.0, "name": "4b5d6ee67d6b1e92e666e153a17b98e4", "is_reserved": 0, "rental_uris": {"android": "https://dc.lft.to/lastmile_qr_scan", "ios": "https://dc.lft.to/lastmile_qr_scan"}, "fusion_lon": 0.0}, {"lat": 38.918140333333334, "is_disabled": 0, "type": "electric_scooter", "lon": -77.027777, "bike_id": "3c3d7b1c363acb36c1643c8626f676fb", "fusion_lat": 0.0, "name": "3c3d7b1c363acb36c1643c8626f676fb", "is_reserved": 0, "rental_uris": {"android": "https://dc.lft.to/lastmile_qr_scan", "ios": "https://dc.lft.to/lastmile_qr_scan"}, "fusion_lon": 0.0}, {"lat": 38.836698166666665, "is_disabled": 0, "type": "electric_scooter", "lon": -77.00562983333333, "bike_id": "2ff9fa4da27e7934ca44e404e23c4f50", "fusion_lat": 0.0, "name": "2ff9fa4da27e7934ca44e404e23c4f50", "is_reserved": 0, "rental_uris": {"android": "https://dc.lft.to/lastmile_qr_scan", "ios": "https://dc.lft.to/lastmile_qr_scan"}, "fusion_lon": 0.0}, {"lat": 38.9085885, "is_disabled": 0, "type": "electric_scooter", "lon": -77.04593733333333, "bike_id": "0fd63d06998882bb0acff050fb8731a7", "fusion_lat": 0.0, "name": "0fd63d06998882bb0acff050fb8731a7", "is_reserved": 0, "rental_uris": {"android": "https://dc.lft.to/lastmile_qr_scan", "ios": "https://dc.lft.to/lastmile_qr_scan"}, "fusion_lon": 0.0}, {"lat": 38.91916166666667, "is_disabled": 0, "type": "electric_scooter", "lon": -77.013426, "bike_id": "62b9551056713c6aa3efa7a05dc55ab8", "fusion_lat": 0.0, "name": "62b9551056713c6aa3efa7a05dc55ab8", "is_reserved": 0, "rental_uris": {"android": "https://dc.lft.to/lastmile_qr_scan", "ios": "https://dc.lft.to/lastmile_qr_scan"}, "fusion_lon": 0.0}, {"lat": 38.870148666666665, "is_disabled": 0, "type": "electric_bike", "lon": -76.960248, "bike_id": "d16e881ff0e2a0b4c8c46886c9757a64", "fusion_lat": 0.0, "name": "d16e881ff0e2a0b4c8c46886c9757a64", "is_reserved": 0, "rental_uris": {"android": "https://dc.lft.to/lastmile_qr_scan", "ios": "https://dc.lft.to/lastmile_qr_scan"}, "fusion_lon": 0.0}, {"lat": 38.90616266666667, "is_disabled": 0, "type": "electric_scooter", "lon": -77.06293133333334, "bike_id": "bb269ed220ae650fc3f791f7314475c7", "fusion_lat": 0.0, "name": "bb269ed220ae650fc3f791f7314475c7", "is_reserved": 0, "rental_uris": {"android": "https://dc.lft.to/lastmile_qr_scan", "ios": "https://dc.lft.to/lastmile_qr_scan"}, "fusion_lon": 0.0}, {"lat": 38.90044833333333, "is_disabled": 0, "type": "electric_scooter", "lon": -76.990233, "bike_id": "c4a241e6ea7f78e2e522a9b5089cf1d8", "fusion_lat": 0.0, "name": "c4a241e6ea7f78e2e522a9b5089cf1d8", "is_reserved": 0, "rental_uris": {"android": "https://dc.lft.to/lastmile_qr_scan", "ios": "https://dc.lft.to/lastmile_qr_scan"}, "fusion_lon": 0.0}, {"lat": 38.9349715, "is_disabled": 0, "type": "electric_scooter", "lon": -77.0580015, "bike_id": "5f8466415c4c1406ebaa98b9d712f6d3", "fusion_lat": 0.0, "name": "5f8466415c4c1406ebaa98b9d712f6d3", "is_reserved": 0, "rental_uris": {"android": "https://dc.lft.to/lastmile_qr_scan", "ios": "https://dc.lft.to/lastmile_qr_scan"}, "fusion_lon": 0.0}, {"lat": 38.91529, "is_disabled": 0, "type": "electric_scooter", "lon": -77.03837866666667, "bike_id": "850735b69adda84053c8c2238fa7d63c", "fusion_lat": 0.0, "name": "850735b69adda84053c8c2238fa7d63c", "is_reserved": 0, "rental_uris": {"android": "https://dc.lft.to/lastmile_qr_scan", "ios": "https://dc.lft.to/lastmile_qr_scan"}, "fusion_lon": 0.0}, {"lat": 38.9197815, "is_disabled": 0, "type": "electric_scooter", "lon": -77.02387766666666, "bike_id": "e6eb0ebe894d27848df82d30d485bbe3", "fusion_lat": 0.0, "name": "e6eb0ebe894d27848df82d30d485bbe3", "is_reserved": 0, "rental_uris": {"android": "https://dc.lft.to/lastmile_qr_scan", "ios": "https://dc.lft.to/lastmile_qr_scan"}, "fusion_lon": 0.0}, {"lat": 38.946016666666665, "is_disabled": 0, "type": "electric_scooter", "lon": -77.0703445, "bike_id": "9776e3ec687cab4434de756755ec00c3", "fusion_lat": 0.0, "name": "9776e3ec687cab4434de756755ec00c3", "is_reserved": 0, "rental_uris": {"android": "https://dc.lft.to/lastmile_qr_scan", "ios": "https://dc.lft.to/lastmile_qr_scan"}, "fusion_lon": 0.0}, {"lat": 38.9077505, "is_disabled": 0, "type": "electric_scooter", "lon": -77.03861166666667, "bike_id": "eacfa0cee808f4a24135627efd5c40eb", "fusion_lat": 0.0, "name": "eacfa0cee808f4a24135627efd5c40eb", "is_reserved": 0, "rental_uris": {"android": "https://dc.lft.to/lastmile_qr_scan", "ios": "https://dc.lft.to/lastmile_qr_scan"}, "fusion_lon": 0.0}, {"lat": 38.921057833333336, "is_disabled": 0, "type": "electric_scooter", "lon": -77.04216333333333, "bike_id": "72398c3c74aee560b17d2d969b6aced6", "fusion_lat": 0.0, "name": "72398c3c74aee560b17d2d969b6aced6", "is_reserved": 0, "rental_uris": {"android": "https://dc.lft.to/lastmile_qr_scan", "ios": "https://dc.lft.to/lastmile_qr_scan"}, "fusion_lon": 0.0}, {"lat": 38.90188666666667, "is_disabled": 0, "type": "electric_scooter", "lon": -77.05003416666666, "bike_id": "ded231773facc4118e2cbfead167cb8c", "fusion_lat": 0.0, "name": "ded231773facc4118e2cbfead167cb8c", "is_reserved": 0, "rental_uris": {"android": "https://dc.lft.to/lastmile_qr_scan", "ios": "https://dc.lft.to/lastmile_qr_scan"}, "fusion_lon": 0.0}, {"lat": 38.893753, "is_disabled": 0, "type": "electric_scooter", "lon": -76.991115, "bike_id": "aca734e6ade8425df722ce9162fb7c0f", "fusion_lat": 0.0, "name": "aca734e6ade8425df722ce9162fb7c0f", "is_reserved": 0, "rental_uris": {"android": "https://dc.lft.to/lastmile_qr_scan", "ios": "https://dc.lft.to/lastmile_qr_scan"}, "fusion_lon": 0.0}, {"lat": 38.9260735, "is_disabled": 0, "type": "electric_scooter", "lon": -77.056958, "bike_id": "d969432d2ac242ea2b9652e2c2009b4f", "fusion_lat": 0.0, "name": "d969432d2ac242ea2b9652e2c2009b4f", "is_reserved": 0, "rental_uris": {"android": "https://dc.lft.to/lastmile_qr_scan", "ios": "https://dc.lft.to/lastmile_qr_scan"}, "fusion_lon": 0.0}, {"lat": 38.91554383333333, "is_disabled": 0, "type": "electric_scooter", "lon": -77.00977366666666, "bike_id": "ba32f7032fb492c58154bc16eb1f1e81", "fusion_lat": 0.0, "name": "ba32f7032fb492c58154bc16eb1f1e81", "is_reserved": 0, "rental_uris": {"android": "https://dc.lft.to/lastmile_qr_scan", "ios": "https://dc.lft.to/lastmile_qr_scan"}, "fusion_lon": 0.0}, {"lat": 38.923788, "is_disabled": 0, "type": "electric_scooter", "lon": -77.027598, "bike_id": "c5d7d6069a3b0e3a865685a0de4c05b2", "fusion_lat": 0.0, "name": "c5d7d6069a3b0e3a865685a0de4c05b2", "is_reserved": 0, "rental_uris": {"android": "https://dc.lft.to/lastmile_qr_scan", "ios": "https://dc.lft.to/lastmile_qr_scan"}, "fusion_lon": 0.0}, {"lat": 38.84423483333333, "is_disabled": 0, "type": "electric_scooter", "lon": -76.997784, "bike_id": "6ac6a7c8c4be68a09dc7f46365c6ae82", "fusion_lat": 0.0, "name": "6ac6a7c8c4be68a09dc7f46365c6ae82", "is_reserved": 0, "rental_uris": {"android": "https://dc.lft.to/lastmile_qr_scan", "ios": "https://dc.lft.to/lastmile_qr_scan"}, "fusion_lon": 0.0}, {"lat": 38.854308, "is_disabled": 0, "type": "electric_bike", "lon": -76.90970933333334, "bike_id": "f6ff8e36f7b9e22f78ef5e5a067266fd", "fusion_lat": 0.0, "name": "f6ff8e36f7b9e22f78ef5e5a067266fd", "is_reserved": 0, "rental_uris": {"android": "https://dc.lft.to/lastmile_qr_scan", "ios": "https://dc.lft.to/lastmile_qr_scan"}, "fusion_lon": 0.0}, {"lat": 38.81051016666667, "is_disabled": 0, "type": "electric_bike", "lon": -77.08509416666666, "bike_id": "10e02a8cc1582e74c2c97d43f72b5bd2", "fusion_lat": 0.0, "name": "10e02a8cc1582e74c2c97d43f72b5bd2", "is_reserved": 0, "rental_uris": {"android": "https://dc.lft.to/lastmile_qr_scan", "ios": "https://dc.lft.to/lastmile_qr_scan"}, "fusion_lon": 0.0}, {"lat": 38.90494133333333, "is_disabled": 0, "type": "electric_scooter", "lon": -76.99539516666667, "bike_id": "c21de9dac4aa72defd3dd0bc75ad5a35", "fusion_lat": 0.0, "name": "c21de9dac4aa72defd3dd0bc75ad5a35", "is_reserved": 0, "rental_uris": {"android": "https://dc.lft.to/lastmile_qr_scan", "ios": "https://dc.lft.to/lastmile_qr_scan"}, "fusion_lon": 0.0}, {"lat": 38.95330116666667, "is_disabled": 0, "type": "electric_bike", "lon": -76.98822566666666, "bike_id": "e17173304a1ccafdb132892a16a6a95a", "fusion_lat": 0.0, "name": "e17173304a1ccafdb132892a16a6a95a", "is_reserved": 0, "rental_uris": {"android": "https://dc.lft.to/lastmile_qr_scan", "ios": "https://dc.lft.to/lastmile_qr_scan"}, "fusion_lon": 0.0}, {"lat": 38.91702883333333, "is_disabled": 0, "type": "electric_scooter", "lon": -77.01102766666666, "bike_id": "ce5da937b8ca9c55934e9805a61333a1", "fusion_lat": 0.0, "name": "ce5da937b8ca9c55934e9805a61333a1", "is_reserved": 0, "rental_uris": {"android": "https://dc.lft.to/lastmile_qr_scan", "ios": "https://dc.lft.to/lastmile_qr_scan"}, "fusion_lon": 0.0}, {"lat": 38.844249166666664, "is_disabled": 0, "type": "electric_scooter", "lon": -76.99779316666667, "bike_id": "956ac97ac4cca01f33213e03c7e27629", "fusion_lat": 0.0, "name": "956ac97ac4cca01f33213e03c7e27629", "is_reserved": 0, "rental_uris": {"android": "https://dc.lft.to/lastmile_qr_scan", "ios": "https://dc.lft.to/lastmile_qr_scan"}, "fusion_lon": 0.0}, {"lat": 38.916843166666666, "is_disabled": 0, "type": "electric_scooter", "lon": -77.02968066666666, "bike_id": "94c13d1cd08d4cc5f557531740a4ff1c", "fusion_lat": 0.0, "name": "94c13d1cd08d4cc5f557531740a4ff1c", "is_reserved": 0, "rental_uris": {"android": "https://dc.lft.to/lastmile_qr_scan", "ios": "https://dc.lft.to/lastmile_qr_scan"}, "fusion_lon": 0.0}, {"lat": 38.907301, "is_disabled": 0, "type": "electric_scooter", "lon": -77.03176683333334, "bike_id": "13f74cac88f04b0372b709ec4d353c92", "fusion_lat": 0.0, "name": "13f74cac88f04b0372b709ec4d353c92", "is_reserved": 0, "rental_uris": {"android": "https://dc.lft.to/lastmile_qr_scan", "ios": "https://dc.lft.to/lastmile_qr_scan"}, "fusion_lon": 0.0}, {"lat": 38.922607, "is_disabled": 0, "type": "electric_scooter", "lon": -77.03897383333333, "bike_id": "8e9c1abd371509694fbb4a5584ed871d", "fusion_lat": 0.0, "name": "8e9c1abd371509694fbb4a5584ed871d", "is_reserved": 0, "rental_uris": {"android": "https://dc.lft.to/lastmile_qr_scan", "ios": "https://dc.lft.to/lastmile_qr_scan"}, "fusion_lon": 0.0}, {"lat": 38.9155375, "is_disabled": 0, "type": "electric_scooter", "lon": -77.03243983333333, "bike_id": "70ed07dc3e43dc17e1f069e7b376c9b9", "fusion_lat": 0.0, "name": "70ed07dc3e43dc17e1f069e7b376c9b9", "is_reserved": 0, "rental_uris": {"android": "https://dc.lft.to/lastmile_qr_scan", "ios": "https://dc.lft.to/lastmile_qr_scan"}, "fusion_lon": 0.0}, {"lat": 38.86618983333334, "is_disabled": 0, "type": "electric_scooter", "lon": -76.986447, "bike_id": "0d30536b103263dc7ec4dcf360d0d7ac", "fusion_lat": 0.0, "name": "0d30536b103263dc7ec4dcf360d0d7ac", "is_reserved": 0, "rental_uris": {"android": "https://dc.lft.to/lastmile_qr_scan", "ios": "https://dc.lft.to/lastmile_qr_scan"}, "fusion_lon": 0.0}, {"lat": 38.90783666666667, "is_disabled": 0, "type": "electric_scooter", "lon": -77.003829, "bike_id": "de89a3d84dd72f5020427f7024bbe5c2", "fusion_lat": 0.0, "name": "de89a3d84dd72f5020427f7024bbe5c2", "is_reserved": 0, "rental_uris": {"android": "https://dc.lft.to/lastmile_qr_scan", "ios": "https://dc.lft.to/lastmile_qr_scan"}, "fusion_lon": 0.0}, {"lat": 38.9142435, "is_disabled": 0, "type": "electric_scooter", "lon": -77.03210083333333, "bike_id": "907ddcdbd44bc07dab404b545390dfa3", "fusion_lat": 0.0, "name": "907ddcdbd44bc07dab404b545390dfa3", "is_reserved": 0, "rental_uris": {"android": "https://dc.lft.to/lastmile_qr_scan", "ios": "https://dc.lft.to/lastmile_qr_scan"}, "fusion_lon": 0.0}, {"lat": 38.89092683333333, "is_disabled": 0, "type": "electric_scooter", "lon": -76.98684433333334, "bike_id": "563aee250ec37e733e29985417f4637a", "fusion_lat": 0.0, "name": "563aee250ec37e733e29985417f4637a", "is_reserved": 0, "rental_uris": {"android": "https://dc.lft.to/lastmile_qr_scan", "ios": "https://dc.lft.to/lastmile_qr_scan"}, "fusion_lon": 0.0}, {"lat": 38.909424666666666, "is_disabled": 0, "type": "electric_scooter", "lon": -77.0442865, "bike_id": "40ef4ad6c231b85d31841c5dbc8c71e7", "fusion_lat": 0.0, "name": "40ef4ad6c231b85d31841c5dbc8c71e7", "is_reserved": 0, "rental_uris": {"android": "https://dc.lft.to/lastmile_qr_scan", "ios": "https://dc.lft.to/lastmile_qr_scan"}, "fusion_lon": 0.0}, {"lat": 38.80502383333334, "is_disabled": 0, "type": "electric_bike", "lon": -77.041339, "bike_id": "02c70ccc70a53c3eaf543a095c80da7d", "fusion_lat": 0.0, "name": "02c70ccc70a53c3eaf543a095c80da7d", "is_reserved": 0, "rental_uris": {"android": "https://dc.lft.to/lastmile_qr_scan", "ios": "https://dc.lft.to/lastmile_qr_scan"}, "fusion_lon": 0.0}, {"lat": 38.9149745, "is_disabled": 0, "type": "electric_scooter", "lon": -77.02001616666666, "bike_id": "a5467402f361161722f0477d8db4c8c2", "fusion_lat": 0.0, "name": "a5467402f361161722f0477d8db4c8c2", "is_reserved": 0, "rental_uris": {"android": "https://dc.lft.to/lastmile_qr_scan", "ios": "https://dc.lft.to/lastmile_qr_scan"}, "fusion_lon": 0.0}, {"lat": 38.900669666666666, "is_disabled": 0, "type": "electric_scooter", "lon": -77.04991466666667, "bike_id": "d2554061b107df9b019eea9809ab2fca", "fusion_lat": 0.0, "name": "d2554061b107df9b019eea9809ab2fca", "is_reserved": 0, "rental_uris": {"android": "https://dc.lft.to/lastmile_qr_scan", "ios": "https://dc.lft.to/lastmile_qr_scan"}, "fusion_lon": 0.0}, {"lat": 38.913431333333335, "is_disabled": 0, "type": "electric_scooter", "lon": -77.0022765, "bike_id": "ba1f6fa46830e4204197414c970802cb", "fusion_lat": 0.0, "name": "ba1f6fa46830e4204197414c970802cb", "is_reserved": 0, "rental_uris": {"android": "https://dc.lft.to/lastmile_qr_scan", "ios": "https://dc.lft.to/lastmile_qr_scan"}, "fusion_lon": 0.0}, {"lat": 38.9238705, "is_disabled": 0, "type": "electric_scooter", "lon": -77.000624, "bike_id": "1033f94680b6ab00ed9045b935f4c245", "fusion_lat": 0.0, "name": "1033f94680b6ab00ed9045b935f4c245", "is_reserved": 0, "rental_uris": {"android": "https://dc.lft.to/lastmile_qr_scan", "ios": "https://dc.lft.to/lastmile_qr_scan"}, "fusion_lon": 0.0}, {"lat": 38.900288, "is_disabled": 0, "type": "electric_scooter", "lon": -76.98743983333334, "bike_id": "76af63764dfa529e577081210748549a", "fusion_lat": 0.0, "name": "76af63764dfa529e577081210748549a", "is_reserved": 0, "rental_uris": {"android": "https://dc.lft.to/lastmile_qr_scan", "ios": "https://dc.lft.to/lastmile_qr_scan"}, "fusion_lon": 0.0}, {"lat": 38.91013733333333, "is_disabled": 0, "type": "electric_scooter", "lon": -76.993896, "bike_id": "9e3024b04a987a793993c44dd5480ea9", "fusion_lat": 0.0, "name": "9e3024b04a987a793993c44dd5480ea9", "is_reserved": 0, "rental_uris": {"android": "https://dc.lft.to/lastmile_qr_scan", "ios": "https://dc.lft.to/lastmile_qr_scan"}, "fusion_lon": 0.0}, {"lat": 38.9234235, "is_disabled": 0, "type": "electric_scooter", "lon": -77.018999, "bike_id": "4eea43536ee04e71cadfdaaa744e18cb", "fusion_lat": 0.0, "name": "4eea43536ee04e71cadfdaaa744e18cb", "is_reserved": 0, "rental_uris": {"android": "https://dc.lft.to/lastmile_qr_scan", "ios": "https://dc.lft.to/lastmile_qr_scan"}, "fusion_lon": 0.0}, {"lat": 38.904030666666664, "is_disabled": 0, "type": "electric_scooter", "lon": -77.025113, "bike_id": "d568cfeb78089c0f89b98bd3aa2862bf", "fusion_lat": 0.0, "name": "d568cfeb78089c0f89b98bd3aa2862bf", "is_reserved": 0, "rental_uris": {"android": "https://dc.lft.to/lastmile_qr_scan", "ios": "https://dc.lft.to/lastmile_qr_scan"}, "fusion_lon": 0.0}, {"lat": 38.898427166666664, "is_disabled": 0, "type": "electric_scooter", "lon": -77.0303315, "bike_id": "4fc7b256ee8f748408035cfac4ab334c", "fusion_lat": 0.0, "name": "4fc7b256ee8f748408035cfac4ab334c", "is_reserved": 0, "rental_uris": {"android": "https://dc.lft.to/lastmile_qr_scan", "ios": "https://dc.lft.to/lastmile_qr_scan"}, "fusion_lon": 0.0}, {"lat": 38.88336233333333, "is_disabled": 0, "type": "electric_scooter", "lon": -77.03142033333333, "bike_id": "3fbaf6883e7420c9c819da9406138766", "fusion_lat": 0.0, "name": "3fbaf6883e7420c9c819da9406138766", "is_reserved": 0, "rental_uris": {"android": "https://dc.lft.to/lastmile_qr_scan", "ios": "https://dc.lft.to/lastmile_qr_scan"}, "fusion_lon": 0.0}, {"lat": 38.9155315, "is_disabled": 0, "type": "electric_scooter", "lon": -77.03831733333334, "bike_id": "1301d2e84d03de274c67996e7f163c93", "fusion_lat": 0.0, "name": "1301d2e84d03de274c67996e7f163c93", "is_reserved": 0, "rental_uris": {"android": "https://dc.lft.to/lastmile_qr_scan", "ios": "https://dc.lft.to/lastmile_qr_scan"}, "fusion_lon": 0.0}, {"lat": 38.861049333333334, "is_disabled": 0, "type": "electric_scooter", "lon": -76.98358133333333, "bike_id": "7a3a9f6054af883675381b457e154505", "fusion_lat": 0.0, "name": "7a3a9f6054af883675381b457e154505", "is_reserved": 0, "rental_uris": {"android": "https://dc.lft.to/lastmile_qr_scan", "ios": "https://dc.lft.to/lastmile_qr_scan"}, "fusion_lon": 0.0}, {"lat": 38.8973455, "is_disabled": 0, "type": "electric_scooter", "lon": -77.05526983333333, "bike_id": "90acc31dbe8b8ad59987756a70ac5589", "fusion_lat": 0.0, "name": "90acc31dbe8b8ad59987756a70ac5589", "is_reserved": 0, "rental_uris": {"android": "https://dc.lft.to/lastmile_qr_scan", "ios": "https://dc.lft.to/lastmile_qr_scan"}, "fusion_lon": 0.0}, {"lat": 38.9095795, "is_disabled": 0, "type": "electric_scooter", "lon": -77.02274316666667, "bike_id": "b5b9b88fc1a3bb548b6a9db1eb4e6fbb", "fusion_lat": 0.0, "name": "b5b9b88fc1a3bb548b6a9db1eb4e6fbb", "is_reserved": 0, "rental_uris": {"android": "https://dc.lft.to/lastmile_qr_scan", "ios": "https://dc.lft.to/lastmile_qr_scan"}, "fusion_lon": 0.0}, {"lat": 38.923607, "is_disabled": 0, "type": "electric_scooter", "lon": -77.04022416666666, "bike_id": "5886651a922993d6291b872587d9f2bb", "fusion_lat": 0.0, "name": "5886651a922993d6291b872587d9f2bb", "is_reserved": 0, "rental_uris": {"android": "https://dc.lft.to/lastmile_qr_scan", "ios": "https://dc.lft.to/lastmile_qr_scan"}, "fusion_lon": 0.0}, {"lat": 38.93113433333333, "is_disabled": 0, "type": "electric_scooter", "lon": -77.0380955, "bike_id": "9223a89661fbf5ed9a0e1f9affa8866c", "fusion_lat": 0.0, "name": "9223a89661fbf5ed9a0e1f9affa8866c", "is_reserved": 0, "rental_uris": {"android": "https://dc.lft.to/lastmile_qr_scan", "ios": "https://dc.lft.to/lastmile_qr_scan"}, "fusion_lon": 0.0}, {"lat": 38.89372433333333, "is_disabled": 0, "type": "electric_scooter", "lon": -76.9499555, "bike_id": "1d2a2bd659fb13c04a78158d318825c6", "fusion_lat": 0.0, "name": "1d2a2bd659fb13c04a78158d318825c6", "is_reserved": 0, "rental_uris": {"android": "https://dc.lft.to/lastmile_qr_scan", "ios": "https://dc.lft.to/lastmile_qr_scan"}, "fusion_lon": 0.0}, {"lat": 38.84933516666667, "is_disabled": 0, "type": "electric_bike", "lon": -77.10018633333334, "bike_id": "6f98b0a7bbaf8fdb50e4c0403d3555d1", "fusion_lat": 0.0, "name": "6f98b0a7bbaf8fdb50e4c0403d3555d1", "is_reserved": 0, "rental_uris": {"android": "https://dc.lft.to/lastmile_qr_scan", "ios": "https://dc.lft.to/lastmile_qr_scan"}, "fusion_lon": 0.0}, {"lat": 38.921421, "is_disabled": 0, "type": "electric_scooter", "lon": -77.01046466666666, "bike_id": "312288d179fc8200288f53c98827f5be", "fusion_lat": 0.0, "name": "312288d179fc8200288f53c98827f5be", "is_reserved": 0, "rental_uris": {"android": "https://dc.lft.to/lastmile_qr_scan", "ios": "https://dc.lft.to/lastmile_qr_scan"}, "fusion_lon": 0.0}, {"lat": 38.909636166666665, "is_disabled": 0, "type": "electric_scooter", "lon": -77.04804183333333, "bike_id": "62f4d85031d764e96bc2e3f095c056c1", "fusion_lat": 0.0, "name": "62f4d85031d764e96bc2e3f095c056c1", "is_reserved": 0, "rental_uris": {"android": "https://dc.lft.to/lastmile_qr_scan", "ios": "https://dc.lft.to/lastmile_qr_scan"}, "fusion_lon": 0.0}, {"lat": 38.86625016666667, "is_disabled": 0, "type": "electric_scooter", "lon": -76.98704733333334, "bike_id": "d50ee230c5939a87135503e080d27343", "fusion_lat": 0.0, "name": "d50ee230c5939a87135503e080d27343", "is_reserved": 0, "rental_uris": {"android": "https://dc.lft.to/lastmile_qr_scan", "ios": "https://dc.lft.to/lastmile_qr_scan"}, "fusion_lon": 0.0}, {"lat": 38.84294516666667, "is_disabled": 0, "type": "electric_scooter", "lon": -76.9994955, "bike_id": "995955ddb3688b15852fbe7a3781532c", "fusion_lat": 0.0, "name": "995955ddb3688b15852fbe7a3781532c", "is_reserved": 0, "rental_uris": {"android": "https://dc.lft.to/lastmile_qr_scan", "ios": "https://dc.lft.to/lastmile_qr_scan"}, "fusion_lon": 0.0}, {"lat": 38.88488133333333, "is_disabled": 0, "type": "electric_scooter", "lon": -77.00712516666667, "bike_id": "0ed092d965a7bfe86e0efde9a9fb4ceb", "fusion_lat": 0.0, "name": "0ed092d965a7bfe86e0efde9a9fb4ceb", "is_reserved": 0, "rental_uris": {"android": "https://dc.lft.to/lastmile_qr_scan", "ios": "https://dc.lft.to/lastmile_qr_scan"}, "fusion_lon": 0.0}, {"lat": 38.842826, "is_disabled": 0, "type": "electric_bike", "lon": -76.9884, "bike_id": "6272ddf395918988e1ff492034560406", "fusion_lat": 0.0, "name": "6272ddf395918988e1ff492034560406", "is_reserved": 0, "rental_uris": {"android": "https://dc.lft.to/lastmile_qr_scan", "ios": "https://dc.lft.to/lastmile_qr_scan"}, "fusion_lon": 0.0}, {"lat": 38.892808, "is_disabled": 0, "type": "electric_scooter", "lon": -77.0503805, "bike_id": "0633b154f864b42912ebb7ef019d685f", "fusion_lat": 0.0, "name": "0633b154f864b42912ebb7ef019d685f", "is_reserved": 0, "rental_uris": {"android": "https://dc.lft.to/lastmile_qr_scan", "ios": "https://dc.lft.to/lastmile_qr_scan"}, "fusion_lon": 0.0}, {"lat": 38.958735833333336, "is_disabled": 0, "type": "electric_bike", "lon": -76.924928, "bike_id": "6385f4850c5c13c1248036a30ee30788", "fusion_lat": 0.0, "name": "6385f4850c5c13c1248036a30ee30788", "is_reserved": 0, "rental_uris": {"android": "https://dc.lft.to/lastmile_qr_scan", "ios": "https://dc.lft.to/lastmile_qr_scan"}, "fusion_lon": 0.0}, {"lat": 38.9142265, "is_disabled": 0, "type": "electric_scooter", "lon": -77.03175383333334, "bike_id": "6f70d69929532cc3009cfd5e05e82d3e", "fusion_lat": 0.0, "name": "6f70d69929532cc3009cfd5e05e82d3e", "is_reserved": 0, "rental_uris": {"android": "https://dc.lft.to/lastmile_qr_scan", "ios": "https://dc.lft.to/lastmile_qr_scan"}, "fusion_lon": 0.0}, {"lat": 38.924426, "is_disabled": 0, "type": "electric_scooter", "lon": -77.04028383333333, "bike_id": "7c424cb43c0e24c58c0e068081e7804d", "fusion_lat": 0.0, "name": "7c424cb43c0e24c58c0e068081e7804d", "is_reserved": 0, "rental_uris": {"android": "https://dc.lft.to/lastmile_qr_scan", "ios": "https://dc.lft.to/lastmile_qr_scan"}, "fusion_lon": 0.0}, {"lat": 38.92909, "is_disabled": 0, "type": "electric_scooter", "lon": -77.03176066666667, "bike_id": "3c50909ec78ad7d0ff51765261ba07d3", "fusion_lat": 0.0, "name": "3c50909ec78ad7d0ff51765261ba07d3", "is_reserved": 0, "rental_uris": {"android": "https://dc.lft.to/lastmile_qr_scan", "ios": "https://dc.lft.to/lastmile_qr_scan"}, "fusion_lon": 0.0}, {"lat": 38.93082783333333, "is_disabled": 0, "type": "electric_scooter", "lon": -77.03769033333333, "bike_id": "257a6fb67a07379f273e6a8489373cfa", "fusion_lat": 0.0, "name": "257a6fb67a07379f273e6a8489373cfa", "is_reserved": 0, "rental_uris": {"android": "https://dc.lft.to/lastmile_qr_scan", "ios": "https://dc.lft.to/lastmile_qr_scan"}, "fusion_lon": 0.0}, {"lat": 38.90840166666667, "is_disabled": 0, "type": "electric_scooter", "lon": -77.06353633333333, "bike_id": "7aed929f3b12ed14187bc1897f197af2", "fusion_lat": 0.0, "name": "7aed929f3b12ed14187bc1897f197af2", "is_reserved": 0, "rental_uris": {"android": "https://dc.lft.to/lastmile_qr_scan", "ios": "https://dc.lft.to/lastmile_qr_scan"}, "fusion_lon": 0.0}, {"lat": 38.91414866666667, "is_disabled": 0, "type": "electric_scooter", "lon": -77.02235466666667, "bike_id": "e274108f24066493c3506a1fbf300ae9", "fusion_lat": 0.0, "name": "e274108f24066493c3506a1fbf300ae9", "is_reserved": 0, "rental_uris": {"android": "https://dc.lft.to/lastmile_qr_scan", "ios": "https://dc.lft.to/lastmile_qr_scan"}, "fusion_lon": 0.0}, {"lat": 38.890452, "is_disabled": 0, "type": "electric_scooter", "lon": -76.94074783333333, "bike_id": "3fbf833dcb0f15a7614d052d11891b62", "fusion_lat": 0.0, "name": "3fbf833dcb0f15a7614d052d11891b62", "is_reserved": 0, "rental_uris": {"android": "https://dc.lft.to/lastmile_qr_scan", "ios": "https://dc.lft.to/lastmile_qr_scan"}, "fusion_lon": 0.0}, {"lat": 38.89741633333333, "is_disabled": 0, "type": "electric_scooter", "lon": -77.03186033333333, "bike_id": "11d042de5521de11dbda8d7240ab5f20", "fusion_lat": 0.0, "name": "11d042de5521de11dbda8d7240ab5f20", "is_reserved": 0, "rental_uris": {"android": "https://dc.lft.to/lastmile_qr_scan", "ios": "https://dc.lft.to/lastmile_qr_scan"}, "fusion_lon": 0.0}, {"lat": 38.8585225, "is_disabled": 0, "type": "electric_bike", "lon": -77.09756, "bike_id": "47455bdd98480cbf9a7b124f6d059c02", "fusion_lat": 0.0, "name": "47455bdd98480cbf9a7b124f6d059c02", "is_reserved": 0, "rental_uris": {"android": "https://dc.lft.to/lastmile_qr_scan", "ios": "https://dc.lft.to/lastmile_qr_scan"}, "fusion_lon": 0.0}, {"lat": 38.920586, "is_disabled": 0, "type": "electric_scooter", "lon": -77.03292883333333, "bike_id": "bbec375028f3613e4a53612448df3d40", "fusion_lat": 0.0, "name": "bbec375028f3613e4a53612448df3d40", "is_reserved": 0, "rental_uris": {"android": "https://dc.lft.to/lastmile_qr_scan", "ios": "https://dc.lft.to/lastmile_qr_scan"}, "fusion_lon": 0.0}, {"lat": 38.910497666666664, "is_disabled": 0, "type": "electric_scooter", "lon": -77.02684083333334, "bike_id": "015156f9eedc5aeb01751e38492b0095", "fusion_lat": 0.0, "name": "015156f9eedc5aeb01751e38492b0095", "is_reserved": 0, "rental_uris": {"android": "https://dc.lft.to/lastmile_qr_scan", "ios": "https://dc.lft.to/lastmile_qr_scan"}, "fusion_lon": 0.0}, {"lat": 38.905470333333334, "is_disabled": 0, "type": "electric_scooter", "lon": -77.02228733333334, "bike_id": "6ad16ce2c6a88d650d6e7bae3d017596", "fusion_lat": 0.0, "name": "6ad16ce2c6a88d650d6e7bae3d017596", "is_reserved": 0, "rental_uris": {"android": "https://dc.lft.to/lastmile_qr_scan", "ios": "https://dc.lft.to/lastmile_qr_scan"}, "fusion_lon": 0.0}, {"lat": 38.88744116666667, "is_disabled": 0, "type": "electric_scooter", "lon": -77.0149115, "bike_id": "c8dc7d4471cdf05fc39215fd1de542de", "fusion_lat": 0.0, "name": "c8dc7d4471cdf05fc39215fd1de542de", "is_reserved": 0, "rental_uris": {"android": "https://dc.lft.to/lastmile_qr_scan", "ios": "https://dc.lft.to/lastmile_qr_scan"}, "fusion_lon": 0.0}, {"lat": 38.88927116666667, "is_disabled": 0, "type": "electric_scooter", "lon": -76.97376983333334, "bike_id": "ddf8fa1d26b4b568d42895ed29ec4021", "fusion_lat": 0.0, "name": "ddf8fa1d26b4b568d42895ed29ec4021", "is_reserved": 0, "rental_uris": {"android": "https://dc.lft.to/lastmile_qr_scan", "ios": "https://dc.lft.to/lastmile_qr_scan"}, "fusion_lon": 0.0}, {"lat": 38.94204283333333, "is_disabled": 0, "type": "electric_scooter", "lon": -77.01835, "bike_id": "5c6730037a8f482e2e21be2adc0fa60a", "fusion_lat": 0.0, "name": "5c6730037a8f482e2e21be2adc0fa60a", "is_reserved": 0, "rental_uris": {"android": "https://dc.lft.to/lastmile_qr_scan", "ios": "https://dc.lft.to/lastmile_qr_scan"}, "fusion_lon": 0.0}, {"lat": 38.91781566666667, "is_disabled": 0, "type": "electric_scooter", "lon": -77.02261216666666, "bike_id": "b65b83a746fc03ca0f21ca7f63f207da", "fusion_lat": 0.0, "name": "b65b83a746fc03ca0f21ca7f63f207da", "is_reserved": 0, "rental_uris": {"android": "https://dc.lft.to/lastmile_qr_scan", "ios": "https://dc.lft.to/lastmile_qr_scan"}, "fusion_lon": 0.0}, {"lat": 38.90631466666667, "is_disabled": 0, "type": "electric_scooter", "lon": -77.06273933333334, "bike_id": "f3549a78288a28f389201d7acc2ed7d7", "fusion_lat": 0.0, "name": "f3549a78288a28f389201d7acc2ed7d7", "is_reserved": 0, "rental_uris": {"android": "https://dc.lft.to/lastmile_qr_scan", "ios": "https://dc.lft.to/lastmile_qr_scan"}, "fusion_lon": 0.0}, {"lat": 38.910635166666665, "is_disabled": 0, "type": "electric_scooter", "lon": -77.04243183333334, "bike_id": "29dc30571cf5e79f8d8e10878cae1aca", "fusion_lat": 0.0, "name": "29dc30571cf5e79f8d8e10878cae1aca", "is_reserved": 0, "rental_uris": {"android": "https://dc.lft.to/lastmile_qr_scan", "ios": "https://dc.lft.to/lastmile_qr_scan"}, "fusion_lon": 0.0}, {"lat": 38.91416816666667, "is_disabled": 0, "type": "electric_scooter", "lon": -77.022337, "bike_id": "440c8c9df51462e19e9c2ca51c4e884d", "fusion_lat": 0.0, "name": "440c8c9df51462e19e9c2ca51c4e884d", "is_reserved": 0, "rental_uris": {"android": "https://dc.lft.to/lastmile_qr_scan", "ios": "https://dc.lft.to/lastmile_qr_scan"}, "fusion_lon": 0.0}, {"lat": 38.9669985, "is_disabled": 0, "type": "electric_bike", "lon": -77.10223433333333, "bike_id": "854ea0842a9806953896d148f429e611", "fusion_lat": 0.0, "name": "854ea0842a9806953896d148f429e611", "is_reserved": 0, "rental_uris": {"android": "https://dc.lft.to/lastmile_qr_scan", "ios": "https://dc.lft.to/lastmile_qr_scan"}, "fusion_lon": 0.0}, {"lat": 38.8616055, "is_disabled": 0, "type": "electric_bike", "lon": -77.13093633333334, "bike_id": "0fe1c7bb70b6e6063aaefd97aa649d29", "fusion_lat": 0.0, "name": "0fe1c7bb70b6e6063aaefd97aa649d29", "is_reserved": 0, "rental_uris": {"android": "https://dc.lft.to/lastmile_qr_scan", "ios": "https://dc.lft.to/lastmile_qr_scan"}, "fusion_lon": 0.0}, {"lat": 38.908786, "is_disabled": 0, "type": "electric_scooter", "lon": -77.04329383333334, "bike_id": "db1be3bc7476383ca0d09145d4155b71", "fusion_lat": 0.0, "name": "db1be3bc7476383ca0d09145d4155b71", "is_reserved": 0, "rental_uris": {"android": "https://dc.lft.to/lastmile_qr_scan", "ios": "https://dc.lft.to/lastmile_qr_scan"}, "fusion_lon": 0.0}, {"lat": 38.918902, "is_disabled": 0, "type": "electric_scooter", "lon": -77.0412425, "bike_id": "268cccd61842e33470e6107df32fab9b", "fusion_lat": 0.0, "name": "268cccd61842e33470e6107df32fab9b", "is_reserved": 0, "rental_uris": {"android": "https://dc.lft.to/lastmile_qr_scan", "ios": "https://dc.lft.to/lastmile_qr_scan"}, "fusion_lon": 0.0}, {"lat": 38.917295833333334, "is_disabled": 0, "type": "electric_scooter", "lon": -77.03655183333333, "bike_id": "7c80022ba2344a47ba2abaaf2593c5cf", "fusion_lat": 0.0, "name": "7c80022ba2344a47ba2abaaf2593c5cf", "is_reserved": 0, "rental_uris": {"android": "https://dc.lft.to/lastmile_qr_scan", "ios": "https://dc.lft.to/lastmile_qr_scan"}, "fusion_lon": 0.0}, {"lat": 38.8706625, "is_disabled": 0, "type": "electric_scooter", "lon": -77.00842533333334, "bike_id": "9700e1daadb79625b9a42f48c82b1f54", "fusion_lat": 0.0, "name": "9700e1daadb79625b9a42f48c82b1f54", "is_reserved": 0, "rental_uris": {"android": "https://dc.lft.to/lastmile_qr_scan", "ios": "https://dc.lft.to/lastmile_qr_scan"}, "fusion_lon": 0.0}, {"lat": 38.91416433333333, "is_disabled": 0, "type": "electric_scooter", "lon": -77.03175633333333, "bike_id": "3294ba661a55cdcd6f5b78170076fe1f", "fusion_lat": 0.0, "name": "3294ba661a55cdcd6f5b78170076fe1f", "is_reserved": 0, "rental_uris": {"android": "https://dc.lft.to/lastmile_qr_scan", "ios": "https://dc.lft.to/lastmile_qr_scan"}, "fusion_lon": 0.0}, {"lat": 38.9197625, "is_disabled": 0, "type": "electric_scooter", "lon": -77.02395666666666, "bike_id": "36837b57d19f28c09d106ea4feb6b2ad", "fusion_lat": 0.0, "name": "36837b57d19f28c09d106ea4feb6b2ad", "is_reserved": 0, "rental_uris": {"android": "https://dc.lft.to/lastmile_qr_scan", "ios": "https://dc.lft.to/lastmile_qr_scan"}, "fusion_lon": 0.0}, {"lat": 38.902745, "is_disabled": 0, "type": "electric_scooter", "lon": -76.97410166666667, "bike_id": "5157b6e7f962c8dc6af579adfc2bc4d9", "fusion_lat": 0.0, "name": "5157b6e7f962c8dc6af579adfc2bc4d9", "is_reserved": 0, "rental_uris": {"android": "https://dc.lft.to/lastmile_qr_scan", "ios": "https://dc.lft.to/lastmile_qr_scan"}, "fusion_lon": 0.0}, {"lat": 38.9178285, "is_disabled": 0, "type": "electric_scooter", "lon": -77.02263866666667, "bike_id": "346a82317693d2dfd51885fd20348a08", "fusion_lat": 0.0, "name": "346a82317693d2dfd51885fd20348a08", "is_reserved": 0, "rental_uris": {"android": "https://dc.lft.to/lastmile_qr_scan", "ios": "https://dc.lft.to/lastmile_qr_scan"}, "fusion_lon": 0.0}, {"lat": 38.903823, "is_disabled": 0, "type": "electric_scooter", "lon": -77.04462683333334, "bike_id": "f750c658e121a08256717ae4c37df23e", "fusion_lat": 0.0, "name": "f750c658e121a08256717ae4c37df23e", "is_reserved": 0, "rental_uris": {"android": "https://dc.lft.to/lastmile_qr_scan", "ios": "https://dc.lft.to/lastmile_qr_scan"}, "fusion_lon": 0.0}, {"lat": 38.914088666666665, "is_disabled": 0, "type": "electric_scooter", "lon": -77.03258483333333, "bike_id": "cda32e96d44c3c25479c035c99e711e6", "fusion_lat": 0.0, "name": "cda32e96d44c3c25479c035c99e711e6", "is_reserved": 0, "rental_uris": {"android": "https://dc.lft.to/lastmile_qr_scan", "ios": "https://dc.lft.to/lastmile_qr_scan"}, "fusion_lon": 0.0}, {"lat": 38.90984233333333, "is_disabled": 0, "type": "electric_scooter", "lon": -77.02265683333333, "bike_id": "93d2c1e823f23bbade03befe78517ec2", "fusion_lat": 0.0, "name": "93d2c1e823f23bbade03befe78517ec2", "is_reserved": 0, "rental_uris": {"android": "https://dc.lft.to/lastmile_qr_scan", "ios": "https://dc.lft.to/lastmile_qr_scan"}, "fusion_lon": 0.0}, {"lat": 38.917169666666666, "is_disabled": 0, "type": "electric_scooter", "lon": -77.031116, "bike_id": "0a7bd298672c84ffc136a51ae9996086", "fusion_lat": 0.0, "name": "0a7bd298672c84ffc136a51ae9996086", "is_reserved": 0, "rental_uris": {"android": "https://dc.lft.to/lastmile_qr_scan", "ios": "https://dc.lft.to/lastmile_qr_scan"}, "fusion_lon": 0.0}, {"lat": 38.874712333333335, "is_disabled": 0, "type": "electric_scooter", "lon": -77.009398, "bike_id": "efd0f626ed0245fb0373d6791962c5f8", "fusion_lat": 0.0, "name": "efd0f626ed0245fb0373d6791962c5f8", "is_reserved": 0, "rental_uris": {"android": "https://dc.lft.to/lastmile_qr_scan", "ios": "https://dc.lft.to/lastmile_qr_scan"}, "fusion_lon": 0.0}, {"lat": 38.9036435, "is_disabled": 0, "type": "electric_scooter", "lon": -77.0628185, "bike_id": "b25a9f5cae028122d6aac2600dda30b6", "fusion_lat": 0.0, "name": "b25a9f5cae028122d6aac2600dda30b6", "is_reserved": 0, "rental_uris": {"android": "https://dc.lft.to/lastmile_qr_scan", "ios": "https://dc.lft.to/lastmile_qr_scan"}, "fusion_lon": 0.0}, {"lat": 38.90852483333333, "is_disabled": 0, "type": "electric_scooter", "lon": -76.99959816666667, "bike_id": "acdcf696664e81b65155c2a144890924", "fusion_lat": 0.0, "name": "acdcf696664e81b65155c2a144890924", "is_reserved": 0, "rental_uris": {"android": "https://dc.lft.to/lastmile_qr_scan", "ios": "https://dc.lft.to/lastmile_qr_scan"}, "fusion_lon": 0.0}, {"lat": 38.9178195, "is_disabled": 0, "type": "electric_scooter", "lon": -77.02311266666666, "bike_id": "d361a31b8ef499f332f56726c35de196", "fusion_lat": 0.0, "name": "d361a31b8ef499f332f56726c35de196", "is_reserved": 0, "rental_uris": {"android": "https://dc.lft.to/lastmile_qr_scan", "ios": "https://dc.lft.to/lastmile_qr_scan"}, "fusion_lon": 0.0}, {"lat": 38.916918333333335, "is_disabled": 0, "type": "electric_scooter", "lon": -77.03496383333334, "bike_id": "b4ac1e53c0fa33d651d717b2327dd6e0", "fusion_lat": 0.0, "name": "b4ac1e53c0fa33d651d717b2327dd6e0", "is_reserved": 0, "rental_uris": {"android": "https://dc.lft.to/lastmile_qr_scan", "ios": "https://dc.lft.to/lastmile_qr_scan"}, "fusion_lon": 0.0}, {"lat": 38.84613083333333, "is_disabled": 0, "type": "electric_bike", "lon": -76.969077, "bike_id": "3ec87e59c5940a0157181b207bfe26bd", "fusion_lat": 0.0, "name": "3ec87e59c5940a0157181b207bfe26bd", "is_reserved": 0, "rental_uris": {"android": "https://dc.lft.to/lastmile_qr_scan", "ios": "https://dc.lft.to/lastmile_qr_scan"}, "fusion_lon": 0.0}, {"lat": 38.890073666666666, "is_disabled": 0, "type": "electric_scooter", "lon": -76.93744183333334, "bike_id": "0587e1787773d4654ce8675aba44de03", "fusion_lat": 0.0, "name": "0587e1787773d4654ce8675aba44de03", "is_reserved": 0, "rental_uris": {"android": "https://dc.lft.to/lastmile_qr_scan", "ios": "https://dc.lft.to/lastmile_qr_scan"}, "fusion_lon": 0.0}, {"lat": 38.909649, "is_disabled": 0, "type": "electric_scooter", "lon": -77.02685333333334, "bike_id": "8fd2adf0058e8a900f6d19f3f00c3a85", "fusion_lat": 0.0, "name": "8fd2adf0058e8a900f6d19f3f00c3a85", "is_reserved": 0, "rental_uris": {"android": "https://dc.lft.to/lastmile_qr_scan", "ios": "https://dc.lft.to/lastmile_qr_scan"}, "fusion_lon": 0.0}, {"lat": 38.90139533333333, "is_disabled": 0, "type": "electric_scooter", "lon": -76.98054183333333, "bike_id": "e62f50f9ee530dfc970b3d0668e8c9f3", "fusion_lat": 0.0, "name": "e62f50f9ee530dfc970b3d0668e8c9f3", "is_reserved": 0, "rental_uris": {"android": "https://dc.lft.to/lastmile_qr_scan", "ios": "https://dc.lft.to/lastmile_qr_scan"}, "fusion_lon": 0.0}, {"lat": 38.93114716666667, "is_disabled": 0, "type": "electric_scooter", "lon": -77.0303155, "bike_id": "cddd3b727911d2653f4b14a47abecfdd", "fusion_lat": 0.0, "name": "cddd3b727911d2653f4b14a47abecfdd", "is_reserved": 0, "rental_uris": {"android": "https://dc.lft.to/lastmile_qr_scan", "ios": "https://dc.lft.to/lastmile_qr_scan"}, "fusion_lon": 0.0}, {"lat": 38.90411733333333, "is_disabled": 0, "type": "electric_scooter", "lon": -77.04366466666667, "bike_id": "fe5b58c49f1b637543f0e9ca489dce93", "fusion_lat": 0.0, "name": "fe5b58c49f1b637543f0e9ca489dce93", "is_reserved": 0, "rental_uris": {"android": "https://dc.lft.to/lastmile_qr_scan", "ios": "https://dc.lft.to/lastmile_qr_scan"}, "fusion_lon": 0.0}, {"lat": 38.87965466666667, "is_disabled": 0, "type": "electric_scooter", "lon": -77.00574733333333, "bike_id": "6efe94c463524a4ac0a4eb7b424b4005", "fusion_lat": 0.0, "name": "6efe94c463524a4ac0a4eb7b424b4005", "is_reserved": 0, "rental_uris": {"android": "https://dc.lft.to/lastmile_qr_scan", "ios": "https://dc.lft.to/lastmile_qr_scan"}, "fusion_lon": 0.0}, {"lat": 38.9076965, "is_disabled": 0, "type": "electric_scooter", "lon": -77.00088766666667, "bike_id": "d599100c69642b3be7852509d32eeeb6", "fusion_lat": 0.0, "name": "d599100c69642b3be7852509d32eeeb6", "is_reserved": 0, "rental_uris": {"android": "https://dc.lft.to/lastmile_qr_scan", "ios": "https://dc.lft.to/lastmile_qr_scan"}, "fusion_lon": 0.0}, {"lat": 38.91978916666667, "is_disabled": 0, "type": "electric_scooter", "lon": -77.00016083333334, "bike_id": "f29b4647166b9ed757306660744b0759", "fusion_lat": 0.0, "name": "f29b4647166b9ed757306660744b0759", "is_reserved": 0, "rental_uris": {"android": "https://dc.lft.to/lastmile_qr_scan", "ios": "https://dc.lft.to/lastmile_qr_scan"}, "fusion_lon": 0.0}, {"lat": 38.90418116666667, "is_disabled": 0, "type": "electric_scooter", "lon": -76.99074216666666, "bike_id": "3ebb2a0d99a9a89f2f66eeaa57e05114", "fusion_lat": 0.0, "name": "3ebb2a0d99a9a89f2f66eeaa57e05114", "is_reserved": 0, "rental_uris": {"android": "https://dc.lft.to/lastmile_qr_scan", "ios": "https://dc.lft.to/lastmile_qr_scan"}, "fusion_lon": 0.0}, {"lat": 38.920717, "is_disabled": 0, "type": "electric_scooter", "lon": -77.0315785, "bike_id": "ecc15c7b074f082220e19ab23b48877c", "fusion_lat": 0.0, "name": "ecc15c7b074f082220e19ab23b48877c", "is_reserved": 0, "rental_uris": {"android": "https://dc.lft.to/lastmile_qr_scan", "ios": "https://dc.lft.to/lastmile_qr_scan"}, "fusion_lon": 0.0}, {"lat": 38.93115266666667, "is_disabled": 0, "type": "electric_scooter", "lon": -77.03805666666666, "bike_id": "cc6cf18ff637df24eddf93c3f97041f3", "fusion_lat": 0.0, "name": "cc6cf18ff637df24eddf93c3f97041f3", "is_reserved": 0, "rental_uris": {"android": "https://dc.lft.to/lastmile_qr_scan", "ios": "https://dc.lft.to/lastmile_qr_scan"}, "fusion_lon": 0.0}, {"lat": 38.900616666666664, "is_disabled": 0, "type": "electric_scooter", "lon": -77.01374033333333, "bike_id": "c7b3ab96420ee1f8a06f1cc1d5fc42c0", "fusion_lat": 0.0, "name": "c7b3ab96420ee1f8a06f1cc1d5fc42c0", "is_reserved": 0, "rental_uris": {"android": "https://dc.lft.to/lastmile_qr_scan", "ios": "https://dc.lft.to/lastmile_qr_scan"}, "fusion_lon": 0.0}, {"lat": 38.90098233333333, "is_disabled": 0, "type": "electric_scooter", "lon": -77.049978, "bike_id": "8df8a3cabc1628df67b24e86105724cb", "fusion_lat": 0.0, "name": "8df8a3cabc1628df67b24e86105724cb", "is_reserved": 0, "rental_uris": {"android": "https://dc.lft.to/lastmile_qr_scan", "ios": "https://dc.lft.to/lastmile_qr_scan"}, "fusion_lon": 0.0}, {"lat": 38.90977266666667, "is_disabled": 0, "type": "electric_scooter", "lon": -77.03362333333334, "bike_id": "037138ce8cbeb7468190b183db981b2d", "fusion_lat": 0.0, "name": "037138ce8cbeb7468190b183db981b2d", "is_reserved": 0, "rental_uris": {"android": "https://dc.lft.to/lastmile_qr_scan", "ios": "https://dc.lft.to/lastmile_qr_scan"}, "fusion_lon": 0.0}, {"lat": 38.92791866666666, "is_disabled": 0, "type": "electric_scooter", "lon": -76.984906, "bike_id": "225596cde3865cb0c38cae82e06e1231", "fusion_lat": 0.0, "name": "225596cde3865cb0c38cae82e06e1231", "is_reserved": 0, "rental_uris": {"android": "https://dc.lft.to/lastmile_qr_scan", "ios": "https://dc.lft.to/lastmile_qr_scan"}, "fusion_lon": 0.0}, {"lat": 38.88464316666666, "is_disabled": 0, "type": "electric_scooter", "lon": -77.02397366666666, "bike_id": "ede0744b8d365fba76892443675e5189", "fusion_lat": 0.0, "name": "ede0744b8d365fba76892443675e5189", "is_reserved": 0, "rental_uris": {"android": "https://dc.lft.to/lastmile_qr_scan", "ios": "https://dc.lft.to/lastmile_qr_scan"}, "fusion_lon": 0.0}, {"lat": 38.913272666666664, "is_disabled": 0, "type": "electric_scooter", "lon": -77.03199983333333, "bike_id": "b3bc698d498f64a717049460e32a84bd", "fusion_lat": 0.0, "name": "b3bc698d498f64a717049460e32a84bd", "is_reserved": 0, "rental_uris": {"android": "https://dc.lft.to/lastmile_qr_scan", "ios": "https://dc.lft.to/lastmile_qr_scan"}, "fusion_lon": 0.0}, {"lat": 38.89223233333333, "is_disabled": 0, "type": "electric_scooter", "lon": -77.039766, "bike_id": "ff64ed303c2d64d52d6154eefafeca97", "fusion_lat": 0.0, "name": "ff64ed303c2d64d52d6154eefafeca97", "is_reserved": 0, "rental_uris": {"android": "https://dc.lft.to/lastmile_qr_scan", "ios": "https://dc.lft.to/lastmile_qr_scan"}, "fusion_lon": 0.0}, {"lat": 38.907205166666664, "is_disabled": 0, "type": "electric_scooter", "lon": -77.013437, "bike_id": "0d3049cccf1f6d2fc96cc5c8f69e0366", "fusion_lat": 0.0, "name": "0d3049cccf1f6d2fc96cc5c8f69e0366", "is_reserved": 0, "rental_uris": {"android": "https://dc.lft.to/lastmile_qr_scan", "ios": "https://dc.lft.to/lastmile_qr_scan"}, "fusion_lon": 0.0}, {"lat": 38.88742533333333, "is_disabled": 0, "type": "electric_scooter", "lon": -77.02073433333334, "bike_id": "e3444af16cd77f3bff3b2b2d180a4a0f", "fusion_lat": 0.0, "name": "e3444af16cd77f3bff3b2b2d180a4a0f", "is_reserved": 0, "rental_uris": {"android": "https://dc.lft.to/lastmile_qr_scan", "ios": "https://dc.lft.to/lastmile_qr_scan"}, "fusion_lon": 0.0}, {"lat": 38.94444216666667, "is_disabled": 0, "type": "electric_scooter", "lon": -77.06415666666666, "bike_id": "9d0eb229e6f1167c0ab894b3aca72f01", "fusion_lat": 0.0, "name": "9d0eb229e6f1167c0ab894b3aca72f01", "is_reserved": 0, "rental_uris": {"android": "https://dc.lft.to/lastmile_qr_scan", "ios": "https://dc.lft.to/lastmile_qr_scan"}, "fusion_lon": 0.0}, {"lat": 38.86710083333333, "is_disabled": 0, "type": "electric_scooter", "lon": -76.987241, "bike_id": "1f565597523b1afd4fd7ce16685b4f9a", "fusion_lat": 0.0, "name": "1f565597523b1afd4fd7ce16685b4f9a", "is_reserved": 0, "rental_uris": {"android": "https://dc.lft.to/lastmile_qr_scan", "ios": "https://dc.lft.to/lastmile_qr_scan"}, "fusion_lon": 0.0}, {"lat": 38.92034116666667, "is_disabled": 0, "type": "electric_scooter", "lon": -76.97803366666666, "bike_id": "9b5ceb530b2f2dda2eac29e6c7b6bc0a", "fusion_lat": 0.0, "name": "9b5ceb530b2f2dda2eac29e6c7b6bc0a", "is_reserved": 0, "rental_uris": {"android": "https://dc.lft.to/lastmile_qr_scan", "ios": "https://dc.lft.to/lastmile_qr_scan"}, "fusion_lon": 0.0}, {"lat": 38.88752483333333, "is_disabled": 0, "type": "electric_scooter", "lon": -77.03154616666667, "bike_id": "6a588fcb4ecbd7167b0f5c0e1c4191e3", "fusion_lat": 0.0, "name": "6a588fcb4ecbd7167b0f5c0e1c4191e3", "is_reserved": 0, "rental_uris": {"android": "https://dc.lft.to/lastmile_qr_scan", "ios": "https://dc.lft.to/lastmile_qr_scan"}, "fusion_lon": 0.0}, {"lat": 38.90143466666667, "is_disabled": 0, "type": "electric_scooter", "lon": -77.003276, "bike_id": "a958c97d0c5afd6fc4aa59f4ed171d55", "fusion_lat": 0.0, "name": "a958c97d0c5afd6fc4aa59f4ed171d55", "is_reserved": 0, "rental_uris": {"android": "https://dc.lft.to/lastmile_qr_scan", "ios": "https://dc.lft.to/lastmile_qr_scan"}, "fusion_lon": 0.0}, {"lat": 38.907415, "is_disabled": 0, "type": "electric_scooter", "lon": -77.04199283333334, "bike_id": "6bcef740a3302bb12b1ace2e669d6141", "fusion_lat": 0.0, "name": "6bcef740a3302bb12b1ace2e669d6141", "is_reserved": 0, "rental_uris": {"android": "https://dc.lft.to/lastmile_qr_scan", "ios": "https://dc.lft.to/lastmile_qr_scan"}, "fusion_lon": 0.0}, {"lat": 38.928801166666666, "is_disabled": 0, "type": "electric_scooter", "lon": -77.03870533333334, "bike_id": "bf27da430e3296737adba0371a4fe6bd", "fusion_lat": 0.0, "name": "bf27da430e3296737adba0371a4fe6bd", "is_reserved": 0, "rental_uris": {"android": "https://dc.lft.to/lastmile_qr_scan", "ios": "https://dc.lft.to/lastmile_qr_scan"}, "fusion_lon": 0.0}, {"lat": 38.93479, "is_disabled": 0, "type": "electric_scooter", "lon": -77.034026, "bike_id": "fb89c3296af6dce9814951c64f8d5546", "fusion_lat": 0.0, "name": "fb89c3296af6dce9814951c64f8d5546", "is_reserved": 0, "rental_uris": {"android": "https://dc.lft.to/lastmile_qr_scan", "ios": "https://dc.lft.to/lastmile_qr_scan"}, "fusion_lon": 0.0}, {"lat": 38.853185, "is_disabled": 0, "type": "electric_scooter", "lon": -76.98021983333334, "bike_id": "62674195a96fc39ce0bbc12b2b7e02e9", "fusion_lat": 0.0, "name": "62674195a96fc39ce0bbc12b2b7e02e9", "is_reserved": 0, "rental_uris": {"android": "https://dc.lft.to/lastmile_qr_scan", "ios": "https://dc.lft.to/lastmile_qr_scan"}, "fusion_lon": 0.0}, {"lat": 38.927507166666665, "is_disabled": 0, "type": "electric_scooter", "lon": -76.99624683333333, "bike_id": "a1668cc4bb76e8c9100ffd5632b141d1", "fusion_lat": 0.0, "name": "a1668cc4bb76e8c9100ffd5632b141d1", "is_reserved": 0, "rental_uris": {"android": "https://dc.lft.to/lastmile_qr_scan", "ios": "https://dc.lft.to/lastmile_qr_scan"}, "fusion_lon": 0.0}, {"lat": 38.87403783333333, "is_disabled": 0, "type": "electric_scooter", "lon": -77.01454733333334, "bike_id": "6acec542e196782e66bfc18bc3bfa228", "fusion_lat": 0.0, "name": "6acec542e196782e66bfc18bc3bfa228", "is_reserved": 0, "rental_uris": {"android": "https://dc.lft.to/lastmile_qr_scan", "ios": "https://dc.lft.to/lastmile_qr_scan"}, "fusion_lon": 0.0}, {"lat": 38.90728983333333, "is_disabled": 0, "type": "electric_scooter", "lon": -77.02983183333333, "bike_id": "b8717a03eb78e8b29e193112608cd61c", "fusion_lat": 0.0, "name": "b8717a03eb78e8b29e193112608cd61c", "is_reserved": 0, "rental_uris": {"android": "https://dc.lft.to/lastmile_qr_scan", "ios": "https://dc.lft.to/lastmile_qr_scan"}, "fusion_lon": 0.0}, {"lat": 38.927665833333336, "is_disabled": 0, "type": "electric_scooter", "lon": -77.03263833333334, "bike_id": "b40c0b1e824784febdfd8a3b7fcc3752", "fusion_lat": 0.0, "name": "b40c0b1e824784febdfd8a3b7fcc3752", "is_reserved": 0, "rental_uris": {"android": "https://dc.lft.to/lastmile_qr_scan", "ios": "https://dc.lft.to/lastmile_qr_scan"}, "fusion_lon": 0.0}, {"lat": 38.87231666666667, "is_disabled": 0, "type": "electric_scooter", "lon": -77.01189966666666, "bike_id": "3291ee5100a0815d1fa60ce60e9bbcdd", "fusion_lat": 0.0, "name": "3291ee5100a0815d1fa60ce60e9bbcdd", "is_reserved": 0, "rental_uris": {"android": "https://dc.lft.to/lastmile_qr_scan", "ios": "https://dc.lft.to/lastmile_qr_scan"}, "fusion_lon": 0.0}, {"lat": 38.9202685, "is_disabled": 0, "type": "electric_scooter", "lon": -77.02406216666667, "bike_id": "57fc529246ba47f6198c2aa55d1eaf2a", "fusion_lat": 0.0, "name": "57fc529246ba47f6198c2aa55d1eaf2a", "is_reserved": 0, "rental_uris": {"android": "https://dc.lft.to/lastmile_qr_scan", "ios": "https://dc.lft.to/lastmile_qr_scan"}, "fusion_lon": 0.0}, {"lat": 38.93746816666667, "is_disabled": 0, "type": "electric_scooter", "lon": -77.03503683333334, "bike_id": "b7850a6df4ab8ad15035421f0533785b", "fusion_lat": 0.0, "name": "b7850a6df4ab8ad15035421f0533785b", "is_reserved": 0, "rental_uris": {"android": "https://dc.lft.to/lastmile_qr_scan", "ios": "https://dc.lft.to/lastmile_qr_scan"}, "fusion_lon": 0.0}, {"lat": 38.8811895, "is_disabled": 0, "type": "electric_scooter", "lon": -77.019762, "bike_id": "a7cf9364ae4c5aef68f21942215b6b5f", "fusion_lat": 0.0, "name": "a7cf9364ae4c5aef68f21942215b6b5f", "is_reserved": 0, "rental_uris": {"android": "https://dc.lft.to/lastmile_qr_scan", "ios": "https://dc.lft.to/lastmile_qr_scan"}, "fusion_lon": 0.0}, {"lat": 38.92623066666667, "is_disabled": 0, "type": "electric_scooter", "lon": -77.04414716666666, "bike_id": "f1c76cd20f144ecf72781e608b9d995f", "fusion_lat": 0.0, "name": "f1c76cd20f144ecf72781e608b9d995f", "is_reserved": 0, "rental_uris": {"android": "https://dc.lft.to/lastmile_qr_scan", "ios": "https://dc.lft.to/lastmile_qr_scan"}, "fusion_lon": 0.0}, {"lat": 38.909764, "is_disabled": 0, "type": "electric_scooter", "lon": -77.03865433333333, "bike_id": "b7013b2909906781a0a870fa53efd2a0", "fusion_lat": 0.0, "name": "b7013b2909906781a0a870fa53efd2a0", "is_reserved": 0, "rental_uris": {"android": "https://dc.lft.to/lastmile_qr_scan", "ios": "https://dc.lft.to/lastmile_qr_scan"}, "fusion_lon": 0.0}, {"lat": 38.89612833333333, "is_disabled": 0, "type": "electric_scooter", "lon": -76.95658466666667, "bike_id": "380a6c306b476601ee3c72afe87d934c", "fusion_lat": 0.0, "name": "380a6c306b476601ee3c72afe87d934c", "is_reserved": 0, "rental_uris": {"android": "https://dc.lft.to/lastmile_qr_scan", "ios": "https://dc.lft.to/lastmile_qr_scan"}, "fusion_lon": 0.0}, {"lat": 38.909699833333335, "is_disabled": 0, "type": "electric_scooter", "lon": -77.0321345, "bike_id": "a6cbfea246d73a3cd8a7b48c9089bcb0", "fusion_lat": 0.0, "name": "a6cbfea246d73a3cd8a7b48c9089bcb0", "is_reserved": 0, "rental_uris": {"android": "https://dc.lft.to/lastmile_qr_scan", "ios": "https://dc.lft.to/lastmile_qr_scan"}, "fusion_lon": 0.0}, {"lat": 38.899860333333336, "is_disabled": 0, "type": "electric_scooter", "lon": -77.02285666666667, "bike_id": "112111724bbfb2214070e5002de9e25c", "fusion_lat": 0.0, "name": "112111724bbfb2214070e5002de9e25c", "is_reserved": 0, "rental_uris": {"android": "https://dc.lft.to/lastmile_qr_scan", "ios": "https://dc.lft.to/lastmile_qr_scan"}, "fusion_lon": 0.0}, {"lat": 39.02932, "is_disabled": 0, "type": "electric_bike", "lon": -77.04925483333334, "bike_id": "86a56aaa17fc6a729d7470e0e846b9cd", "fusion_lat": 0.0, "name": "86a56aaa17fc6a729d7470e0e846b9cd", "is_reserved": 0, "rental_uris": {"android": "https://dc.lft.to/lastmile_qr_scan", "ios": "https://dc.lft.to/lastmile_qr_scan"}, "fusion_lon": 0.0}, {"lat": 38.917192666666665, "is_disabled": 0, "type": "electric_scooter", "lon": -77.041043, "bike_id": "0c39e6696d242911f1baf1d93bdeba7d", "fusion_lat": 0.0, "name": "0c39e6696d242911f1baf1d93bdeba7d", "is_reserved": 0, "rental_uris": {"android": "https://dc.lft.to/lastmile_qr_scan", "ios": "https://dc.lft.to/lastmile_qr_scan"}, "fusion_lon": 0.0}, {"lat": 38.959294, "is_disabled": 0, "type": "electric_bike", "lon": -77.0312455, "bike_id": "f5acb8ca331201db70facb2c18e760cc", "fusion_lat": 0.0, "name": "f5acb8ca331201db70facb2c18e760cc", "is_reserved": 0, "rental_uris": {"android": "https://dc.lft.to/lastmile_qr_scan", "ios": "https://dc.lft.to/lastmile_qr_scan"}, "fusion_lon": 0.0}, {"lat": 38.91986166666667, "is_disabled": 0, "type": "electric_scooter", "lon": -76.973084, "bike_id": "a470a0f9f57a4c979108846ff5f400b1", "fusion_lat": 0.0, "name": "a470a0f9f57a4c979108846ff5f400b1", "is_reserved": 0, "rental_uris": {"android": "https://dc.lft.to/lastmile_qr_scan", "ios": "https://dc.lft.to/lastmile_qr_scan"}, "fusion_lon": 0.0}, {"lat": 38.884662166666665, "is_disabled": 0, "type": "electric_scooter", "lon": -76.99264216666667, "bike_id": "f511049a17e6eff10806e1b71113e9b8", "fusion_lat": 0.0, "name": "f511049a17e6eff10806e1b71113e9b8", "is_reserved": 0, "rental_uris": {"android": "https://dc.lft.to/lastmile_qr_scan", "ios": "https://dc.lft.to/lastmile_qr_scan"}, "fusion_lon": 0.0}, {"lat": 38.88081833333333, "is_disabled": 0, "type": "electric_scooter", "lon": -76.98536366666667, "bike_id": "b5d1c90a03a43fb7c24c2d9f4fdeea2e", "fusion_lat": 0.0, "name": "b5d1c90a03a43fb7c24c2d9f4fdeea2e", "is_reserved": 0, "rental_uris": {"android": "https://dc.lft.to/lastmile_qr_scan", "ios": "https://dc.lft.to/lastmile_qr_scan"}, "fusion_lon": 0.0}, {"lat": 38.908624, "is_disabled": 0, "type": "electric_bike", "lon": -77.0808445, "bike_id": "d5ca4b9d54dc88fade43b2d317d75b1f", "fusion_lat": 0.0, "name": "d5ca4b9d54dc88fade43b2d317d75b1f", "is_reserved": 0, "rental_uris": {"android": "https://dc.lft.to/lastmile_qr_scan", "ios": "https://dc.lft.to/lastmile_qr_scan"}, "fusion_lon": 0.0}, {"lat": 38.87669616666667, "is_disabled": 0, "type": "electric_scooter", "lon": -77.00408233333333, "bike_id": "9d4f7c8af387db9473a7f73061a38b4f", "fusion_lat": 0.0, "name": "9d4f7c8af387db9473a7f73061a38b4f", "is_reserved": 0, "rental_uris": {"android": "https://dc.lft.to/lastmile_qr_scan", "ios": "https://dc.lft.to/lastmile_qr_scan"}, "fusion_lon": 0.0}, {"lat": 38.90394466666667, "is_disabled": 0, "type": "electric_scooter", "lon": -77.06300983333334, "bike_id": "6cb1c74854403ba75dba9cb9ddd020e4", "fusion_lat": 0.0, "name": "6cb1c74854403ba75dba9cb9ddd020e4", "is_reserved": 0, "rental_uris": {"android": "https://dc.lft.to/lastmile_qr_scan", "ios": "https://dc.lft.to/lastmile_qr_scan"}, "fusion_lon": 0.0}, {"lat": 38.960179333333336, "is_disabled": 0, "type": "electric_bike", "lon": -77.017299, "bike_id": "94fcf8b9af8aa9a7d89d6592c6085c90", "fusion_lat": 0.0, "name": "94fcf8b9af8aa9a7d89d6592c6085c90", "is_reserved": 0, "rental_uris": {"android": "https://dc.lft.to/lastmile_qr_scan", "ios": "https://dc.lft.to/lastmile_qr_scan"}, "fusion_lon": 0.0}, {"lat": 38.9540535, "is_disabled": 0, "type": "electric_scooter", "lon": -77.02752033333333, "bike_id": "cf796ad102415b97804af535a98ec93f", "fusion_lat": 0.0, "name": "cf796ad102415b97804af535a98ec93f", "is_reserved": 0, "rental_uris": {"android": "https://dc.lft.to/lastmile_qr_scan", "ios": "https://dc.lft.to/lastmile_qr_scan"}, "fusion_lon": 0.0}, {"lat": 38.93199166666667, "is_disabled": 0, "type": "electric_scooter", "lon": -77.03855433333334, "bike_id": "30bd70b35f63f26fbb26428b932750c5", "fusion_lat": 0.0, "name": "30bd70b35f63f26fbb26428b932750c5", "is_reserved": 0, "rental_uris": {"android": "https://dc.lft.to/lastmile_qr_scan", "ios": "https://dc.lft.to/lastmile_qr_scan"}, "fusion_lon": 0.0}, {"lat": 38.898386333333335, "is_disabled": 0, "type": "electric_scooter", "lon": -77.02530233333333, "bike_id": "dadb239e2aa02e2135c7936efe3eed24", "fusion_lat": 0.0, "name": "dadb239e2aa02e2135c7936efe3eed24", "is_reserved": 0, "rental_uris": {"android": "https://dc.lft.to/lastmile_qr_scan", "ios": "https://dc.lft.to/lastmile_qr_scan"}, "fusion_lon": 0.0}, {"lat": 38.922365166666665, "is_disabled": 0, "type": "electric_scooter", "lon": -77.03891483333334, "bike_id": "8e7a81e0aa38352e0dc9d082e949fc5c", "fusion_lat": 0.0, "name": "8e7a81e0aa38352e0dc9d082e949fc5c", "is_reserved": 0, "rental_uris": {"android": "https://dc.lft.to/lastmile_qr_scan", "ios": "https://dc.lft.to/lastmile_qr_scan"}, "fusion_lon": 0.0}, {"lat": 38.905151000000004, "is_disabled": 0, "type": "electric_scooter", "lon": -77.00213866666667, "bike_id": "1ad78f4766dae35726f04caba283936d", "fusion_lat": 0.0, "name": "1ad78f4766dae35726f04caba283936d", "is_reserved": 0, "rental_uris": {"android": "https://dc.lft.to/lastmile_qr_scan", "ios": "https://dc.lft.to/lastmile_qr_scan"}, "fusion_lon": 0.0}, {"lat": 38.903647, "is_disabled": 0, "type": "electric_scooter", "lon": -77.04443016666667, "bike_id": "c153cc2022909005da2e2a8e54a8e358", "fusion_lat": 0.0, "name": "c153cc2022909005da2e2a8e54a8e358", "is_reserved": 0, "rental_uris": {"android": "https://dc.lft.to/lastmile_qr_scan", "ios": "https://dc.lft.to/lastmile_qr_scan"}, "fusion_lon": 0.0}, {"lat": 38.904645333333335, "is_disabled": 0, "type": "electric_scooter", "lon": -77.0145595, "bike_id": "c9e7230ba3e928a49721039ac126703e", "fusion_lat": 0.0, "name": "c9e7230ba3e928a49721039ac126703e", "is_reserved": 0, "rental_uris": {"android": "https://dc.lft.to/lastmile_qr_scan", "ios": "https://dc.lft.to/lastmile_qr_scan"}, "fusion_lon": 0.0}, {"lat": 38.90974083333333, "is_disabled": 0, "type": "electric_scooter", "lon": -77.0338285, "bike_id": "bb66c1fbf9e3d6cd8ac55341a8898a48", "fusion_lat": 0.0, "name": "bb66c1fbf9e3d6cd8ac55341a8898a48", "is_reserved": 0, "rental_uris": {"android": "https://dc.lft.to/lastmile_qr_scan", "ios": "https://dc.lft.to/lastmile_qr_scan"}, "fusion_lon": 0.0},