{"data": {"bikes": [{"is_reserved": 0, "fusion_lon": 0.0, "fusion_lat": 0.0, "name": "5110093f324e58715d7326e7d0338342", "type": "electric_scooter", "is_disabled": 0, "lat": 38.900416166666666, "rental_uris": {"android": "https://dc.lft.to/lastmile_qr_scan", "ios": "https://dc.lft.to/lastmile_qr_scan"}, "bike_id": "5110093f324e58715d7326e7d0338342", "lon": -77.00172933333333}, {"is_reserved": 0, "fusion_lon": 0.0, "fusion_lat": 0.0, "name": "b33bcdd677e844c297b2e38e2fbe1b3a", "type": "electric_scooter", "is_disabled": 0, "lat": 38.93171566666667, "rental_uris": {"android": "https://dc.lft.to/lastmile_qr_scan", "ios": "https://dc.lft.to/lastmile_qr_scan"}, "bike_id": "b33bcdd677e844c297b2e38e2fbe1b3a", "lon": -77.028143}, {"is_reserved": 0, "fusion_lon": 0.0, "fusion_lat": 0.0, "name": "5588d6a5b9ad356207a012071bfa4946", "type": "electric_scooter", "is_disabled": 0, "lat": 38.91078866666667, "rental_uris": {"android": "https://dc.lft.to/lastmile_qr_scan", "ios": "https://dc.lft.to/lastmile_qr_scan"}, "bike_id": "5588d6a5b9ad356207a012071bfa4946", "lon": -76.99268333333333}, {"is_reserved": 0, "fusion_lon": 0.0, "fusion_lat": 0.0, "name": "f3e65cf06e065908f5feb564f857b7c8", "type": "electric_scooter", "is_disabled": 0, "lat": 38.915747833333334, "rental_uris": {"android": "https://dc.lft.to/lastmile_qr_scan", "ios": "https://dc.lft.to/lastmile_qr_scan"}, "bike_id": "f3e65cf06e065908f5feb564f857b7c8", "lon": -77.03186833333334}, {"is_reserved": 0, "fusion_lon": 0.0, "fusion_lat": 0.0, "name": "ccd620caa01bfacb73ce155433654533", "type": "electric_scooter", "is_disabled": 0, "lat": 38.9353395, "rental_uris": {"android": "https://dc.lft.to/lastmile_qr_scan", "ios": "https://dc.lft.to/lastmile_qr_scan"}, "bike_id": "ccd620caa01bfacb73ce155433654533", "lon": -77.034721}, {"is_reserved": 0, "fusion_lon": 0.0, "fusion_lat": 0.0, "name": "765294919d0f51a65998d477044294bd", "type": "electric_scooter", "is_disabled": 0, "lat": 38.92767666666667, "rental_uris": {"android": "https://dc.lft.to/lastmile_qr_scan", "ios": "https://dc.lft.to/lastmile_qr_scan"}, "bike_id": "765294919d0f51a65998d477044294bd", "lon": -77.020656}, {"is_reserved": 0, "fusion_lon": 0.0, "fusion_lat": 0.0, "name": "a70357cd5bd2c40773fe22f2672c5e17", "type": "electric_scooter", "is_disabled": 0, "lat": 38.906281666666665, "rental_uris": {"android": "https://dc.lft.to/lastmile_qr_scan", "ios": "https://dc.lft.to/lastmile_qr_scan"}, "bike_id": "a70357cd5bd2c40773fe22f2672c5e17", "lon": -77.00381066666667}, {"is_reserved": 0, "fusion_lon": 0.0, "fusion_lat": 0.0, "name": "622459a0e8edacb12126628174423980", "type": "electric_bike", "is_disabled": 0, "lat": 38.897813666666664, "rental_uris": {"android": "https://dc.lft.to/lastmile_qr_scan", "ios": "https://dc.lft.to/lastmile_qr_scan"}, "bike_id": "622459a0e8edacb12126628174423980", "lon": -77.00733116666666}, {"is_reserved": 0, "fusion_lon": 0.0, "fusion_lat": 0.0, "name": "c126473e05c1395ffc40c61e0849e645", "type": "electric_scooter", "is_disabled": 0, "lat": 38.91108883333333, "rental_uris": {"android": "https://dc.lft.to/lastmile_qr_scan", "ios": "https://dc.lft.to/lastmile_qr_scan"}, "bike_id": "c126473e05c1395ffc40c61e0849e645", "lon": -77.02421866666667}, {"is_reserved": 0, "fusion_lon": 0.0, "fusion_lat": 0.0, "name": "e24c09ed8c4c519aadc375fcc1385b0d", "type": "electric_scooter", "is_disabled": 0, "lat": 38.89014916666667, "rental_uris": {"android": "https://dc.lft.to/lastmile_qr_scan", "ios": "https://dc.lft.to/lastmile_qr_scan"}, "bike_id": "e24c09ed8c4c519aadc375fcc1385b0d", "lon": -76.93731116666666}, {"is_reserved": 0, "fusion_lon": 0.0, "fusion_lat": 0.0, "name": "acb92fb8fbb9258d8db483a566c06034", "type": "electric_scooter", "is_disabled": 0, "lat": 38.97116666666667, "rental_uris": {"android": "https://dc.lft.to/lastmile_qr_scan", "ios": "https://dc.lft.to/lastmile_qr_scan"}, "bike_id": "acb92fb8fbb9258d8db483a566c06034", "lon": -77.016859}, {"is_reserved": 0, "fusion_lon": 0.0, "fusion_lat": 0.0, "name": "0e53dc503f73239170e4e6fed9e2f6dd", "type": "electric_bike", "is_disabled": 0, "lat": 38.85761333333333, "rental_uris": {"android": "https://dc.lft.to/lastmile_qr_scan", "ios": "https://dc.lft.to/lastmile_qr_scan"}, "bike_id": "0e53dc503f73239170e4e6fed9e2f6dd", "lon": -76.98765283333333}, {"is_reserved": 0, "fusion_lon": 0.0, "fusion_lat": 0.0, "name": "79e6a0885b1fea0ec16e4d5f223e056c", "type": "electric_bike", "is_disabled": 0, "lat": 38.838102, "rental_uris": {"android": "https://dc.lft.to/lastmile_qr_scan", "ios": "https://dc.lft.to/lastmile_qr_scan"}, "bike_id": "79e6a0885b1fea0ec16e4d5f223e056c", "lon": -77.09526283333334}, {"is_reserved": 0, "fusion_lon": 0.0, "fusion_lat": 0.0, "name": "2714adf549bbfd78bbae2f0757970cc2", "type": "electric_scooter", "is_disabled": 0, "lat": 38.9301365, "rental_uris": {"android": "https://dc.lft.to/lastmile_qr_scan", "ios": "https://dc.lft.to/lastmile_qr_scan"}, "bike_id": "2714adf549bbfd78bbae2f0757970cc2", "lon": -77.060898}, {"is_reserved": 0, "fusion_lon": 0.0, "fusion_lat": 0.0, "name": "8d65b8d508a34900e2bef3494a4366c3", "type": "electric_scooter", "is_disabled": 0, "lat": 38.866620833333336, "rental_uris": {"android": "https://dc.lft.to/lastmile_qr_scan", "ios": "https://dc.lft.to/lastmile_qr_scan"}, "bike_id": "8d65b8d508a34900e2bef3494a4366c3", "lon": -76.9849955}, {"is_reserved": 0, "fusion_lon": 0.0, "fusion_lat": 0.0, "name": "03b5254159106a17aabf6c11c7405777", "type": "electric_scooter", "is_disabled": 0, "lat": 38.89904816666667, "rental_uris": {"android": "https://dc.lft.to/lastmile_qr_scan", "ios": "https://dc.lft.to/lastmile_qr_scan"}, "bike_id": "03b5254159106a17aabf6c11c7405777", "lon": -76.97720933333333}, {"is_reserved": 0, "fusion_lon": 0.0, "fusion_lat": 0.0, "name": "d5c36590d76181c6367d73430f4df538", "type": "electric_scooter", "is_disabled": 0, "lat": 38.955305833333334, "rental_uris": {"android": "https://dc.lft.to/lastmile_qr_scan", "ios": "https://dc.lft.to/lastmile_qr_scan"}, "bike_id": "d5c36590d76181c6367d73430f4df538", "lon": -77.027785}, {"is_reserved": 0, "fusion_lon": 0.0, "fusion_lat": 0.0, "name": "de78e8dae0db06c09f096e5373de6ba2", "type": "electric_scooter", "is_disabled": 0, "lat": 38.9498765, "rental_uris": {"android": "https://dc.lft.to/lastmile_qr_scan", "ios": "https://dc.lft.to/lastmile_qr_scan"}, "bike_id": "de78e8dae0db06c09f096e5373de6ba2", "lon": -77.0270245}, {"is_reserved": 0, "fusion_lon": 0.0, "fusion_lat": 0.0, "name": "e094d60957dbfd84d3c4b180259bbf23", "type": "electric_scooter", "is_disabled": 0, "lat": 38.956636333333336, "rental_uris": {"android": "https://dc.lft.to/lastmile_qr_scan", "ios": "https://dc.lft.to/lastmile_qr_scan"}, "bike_id": "e094d60957dbfd84d3c4b180259bbf23", "lon": -77.010396}, {"is_reserved": 0, "fusion_lon": 0.0, "fusion_lat": 0.0, "name": "a8f155c92bf614bb61d1a4c7feeb1587", "type": "electric_bike", "is_disabled": 0, "lat": 38.913866666666664, "rental_uris": {"android": "https://dc.lft.to/lastmile_qr_scan", "ios": "https://dc.lft.to/lastmile_qr_scan"}, "bike_id": "a8f155c92bf614bb61d1a4c7feeb1587", "lon": -77.08930316666667}, {"is_reserved": 0, "fusion_lon": 0.0, "fusion_lat": 0.0, "name": "f1be27418c4b74bd490915bafefb7522", "type": "electric_scooter", "is_disabled": 0, "lat": 38.923692333333335, "rental_uris": {"android": "https://dc.lft.to/lastmile_qr_scan", "ios": "https://dc.lft.to/lastmile_qr_scan"}, "bike_id": "f1be27418c4b74bd490915bafefb7522", "lon": -77.0312475}, {"is_reserved": 0, "fusion_lon": 0.0, "fusion_lat": 0.0, "name": "0c2297ad48da1316e1df8d98f7a972ba", "type": "electric_scooter", "is_disabled": 0, "lat": 38.89819716666667, "rental_uris": {"android": "https://dc.lft.to/lastmile_qr_scan", "ios": "https://dc.lft.to/lastmile_qr_scan"}, "bike_id": "0c2297ad48da1316e1df8d98f7a972ba", "lon": -77.02874433333334}, {"is_reserved": 0, "fusion_lon": 0.0, "fusion_lat": 0.0, "name": "89d9fd50a9931be5b50af7dbeec04511", "type": "electric_scooter", "is_disabled": 0, "lat": 38.938836333333334, "rental_uris": {"android": "https://dc.lft.to/lastmile_qr_scan", "ios": "https://dc.lft.to/lastmile_qr_scan"}, "bike_id": "89d9fd50a9931be5b50af7dbeec04511", "lon": -77.03313883333334}, {"is_reserved": 0, "fusion_lon": 0.0, "fusion_lat": 0.0, "name": "c8f84b81f10f317a80ee0ac908b0dec7", "type": "electric_scooter", "is_disabled": 0, "lat": 38.902651166666665, "rental_uris": {"android": "https://dc.lft.to/lastmile_qr_scan", "ios": "https://dc.lft.to/lastmile_qr_scan"}, "bike_id": "c8f84b81f10f317a80ee0ac908b0dec7", "lon": -77.06127}, {"is_reserved": 0, "fusion_lon": 0.0, "fusion_lat": 0.0, "name": "2402739b03a2e177dd3bd373e6578b76", "type": "electric_scooter", "is_disabled": 0, "lat": 38.91356483333333, "rental_uris": {"android": "https://dc.lft.to/lastmile_qr_scan", "ios": "https://dc.lft.to/lastmile_qr_scan"}, "bike_id": "2402739b03a2e177dd3bd373e6578b76", "lon": -77.02951216666666}, {"is_reserved": 0, "fusion_lon": 0.0, "fusion_lat": 0.0, "name": "637064eb608e48cf256da339ae660132", "type": "electric_scooter", "is_disabled": 0, "lat": 38.9483355, "rental_uris": {"android": "https://dc.lft.to/lastmile_qr_scan", "ios": "https://dc.lft.to/lastmile_qr_scan"}, "bike_id": "637064eb608e48cf256da339ae660132", "lon": -77.02542866666667}, {"is_reserved": 0, "fusion_lon": 0.0, "fusion_lat": 0.0, "name": "721c69341d10cd5379b94aa188766d0f", "type": "electric_scooter", "is_disabled": 0, "lat": 38.9286585, "rental_uris": {"android": "https://dc.lft.to/lastmile_qr_scan", "ios": "https://dc.lft.to/lastmile_qr_scan"}, "bike_id": "721c69341d10cd5379b94aa188766d0f", "lon": -77.014037}, {"is_reserved": 0, "fusion_lon": 0.0, "fusion_lat": 0.0, "name": "f04b165b7a37be8d326e7fa780ef4bb5", "type": "electric_scooter", "is_disabled": 0, "lat": 38.9495845, "rental_uris": {"android": "https://dc.lft.to/lastmile_qr_scan", "ios": "https://dc.lft.to/lastmile_qr_scan"}, "bike_id": "f04b165b7a37be8d326e7fa780ef4bb5", "lon": -77.02723683333333}, {"is_reserved": 0, "fusion_lon": 0.0, "fusion_lat": 0.0, "name": "b85597cdebecc68aec400b5cf71eb23a", "type": "electric_bike", "is_disabled": 0, "lat": 38.834328, "rental_uris": {"android": "https://dc.lft.to/lastmile_qr_scan", "ios": "https://dc.lft.to/lastmile_qr_scan"}, "bike_id": "b85597cdebecc68aec400b5cf71eb23a", "lon": -77.10358183333334}, {"is_reserved": 0, "fusion_lon": 0.0, "fusion_lat": 0.0, "name": "ebfa3abcbf4f50387ab1ff3d8728a35c", "type": "electric_scooter", "is_disabled": 0, "lat": 38.8442825, "rental_uris": {"android": "https://dc.lft.to/lastmile_qr_scan", "ios": "https://dc.lft.to/lastmile_qr_scan"}, "bike_id": "ebfa3abcbf4f50387ab1ff3d8728a35c", "lon": -76.99815266666667}, {"is_reserved": 0, "fusion_lon": 0.0, "fusion_lat": 0.0, "name": "cc7a088d38e761fd8da08d40b2f306ed", "type": "electric_scooter", "is_disabled": 0, "lat": 38.90807733333333, "rental_uris": {"android": "https://dc.lft.to/lastmile_qr_scan", "ios": "https://dc.lft.to/lastmile_qr_scan"}, "bike_id": "cc7a088d38e761fd8da08d40b2f306ed", "lon": -77.0433335}, {"is_reserved": 0, "fusion_lon": 0.0, "fusion_lat": 0.0, "name": "f2594074de60fba562a2469b47713b56", "type": "electric_scooter", "is_disabled": 0, "lat": 38.908770833333335, "rental_uris": {"android": "https://dc.lft.to/lastmile_qr_scan", "ios": "https://dc.lft.to/lastmile_qr_scan"}, "bike_id": "f2594074de60fba562a2469b47713b56", "lon": -77.07170933333333}, {"is_reserved": 0, "fusion_lon": 0.0, "fusion_lat": 0.0, "name": "0c80302f3f77fc5af1f2f3b8437021bb", "type": "electric_scooter", "is_disabled": 0, "lat": 38.900790666666666, "rental_uris": {"android": "https://dc.lft.to/lastmile_qr_scan", "ios": "https://dc.lft.to/lastmile_qr_scan"}, "bike_id": "0c80302f3f77fc5af1f2f3b8437021bb", "lon": -77.0476225}, {"is_reserved": 0, "fusion_lon": 0.0, "fusion_lat": 0.0, "name": "a4664474555df212c0abc2d8f45fc98f", "type": "electric_scooter", "is_disabled": 0, "lat": 38.940313333333336, "rental_uris": {"android": "https://dc.lft.to/lastmile_qr_scan", "ios": "https://dc.lft.to/lastmile_qr_scan"}, "bike_id": "a4664474555df212c0abc2d8f45fc98f", "lon": -77.02904733333334}, {"is_reserved": 0, "fusion_lon": 0.0, "fusion_lat": 0.0, "name": "ce0aedf25978efdebcba7a2b442afb49", "type": "electric_scooter", "is_disabled": 0, "lat": 38.9118885, "rental_uris": {"android": "https://dc.lft.to/lastmile_qr_scan", "ios": "https://dc.lft.to/lastmile_qr_scan"}, "bike_id": "ce0aedf25978efdebcba7a2b442afb49", "lon": -77.060871}, {"is_reserved": 0, "fusion_lon": 0.0, "fusion_lat": 0.0, "name": "1e5d43cb6205797c696f02a0dfad952d", "type": "electric_bike", "is_disabled": 0, "lat": 38.903151666666666, "rental_uris": {"android": "https://dc.lft.to/lastmile_qr_scan", "ios": "https://dc.lft.to/lastmile_qr_scan"}, "bike_id": "1e5d43cb6205797c696f02a0dfad952d", "lon": -76.91213483333334}, {"is_reserved": 0, "fusion_lon": 0.0, "fusion_lat": 0.0, "name": "ddef7239fc4d0c3059392cf2044ef9b9", "type": "electric_scooter", "is_disabled": 0, "lat": 38.90071, "rental_uris": {"android": "https://dc.lft.to/lastmile_qr_scan", "ios": "https://dc.lft.to/lastmile_qr_scan"}, "bike_id": "ddef7239fc4d0c3059392cf2044ef9b9", "lon": -77.00198633333333}, {"is_reserved": 0, "fusion_lon": 0.0, "fusion_lat": 0.0, "name": "d07cdf4aa306fd40c197f5d49b908127", "type": "electric_scooter", "is_disabled": 0, "lat": 38.864579166666665, "rental_uris": {"android": "https://dc.lft.to/lastmile_qr_scan", "ios": "https://dc.lft.to/lastmile_qr_scan"}, "bike_id": "d07cdf4aa306fd40c197f5d49b908127", "lon": -76.97729766666667}, {"is_reserved": 0, "fusion_lon": 0.0, "fusion_lat": 0.0, "name": "0ead441737d45c388be7eab102332ab6", "type": "electric_scooter", "is_disabled": 0, "lat": 38.937068, "rental_uris": {"android": "https://dc.lft.to/lastmile_qr_scan", "ios": "https://dc.lft.to/lastmile_qr_scan"}, "bike_id": "0ead441737d45c388be7eab102332ab6", "lon": -77.02469866666667}, {"is_reserved": 0, "fusion_lon": 0.0, "fusion_lat": 0.0, "name": "5c29de279106d3457e87a1f482dcde1e", "type": "electric_scooter", "is_disabled": 0, "lat": 38.9243395, "rental_uris": {"android": "https://dc.lft.to/lastmile_qr_scan", "ios": "https://dc.lft.to/lastmile_qr_scan"}, "bike_id": "5c29de279106d3457e87a1f482dcde1e", "lon": -77.00068233333333}, {"is_reserved": 0, "fusion_lon": 0.0, "fusion_lat": 0.0, "name": "9803ae7a41e20d900933346b18536939", "type": "electric_bike", "is_disabled": 0, "lat": 38.90033583333334, "rental_uris": {"android": "https://dc.lft.to/lastmile_qr_scan", "ios": "https://dc.lft.to/lastmile_qr_scan"}, "bike_id": "9803ae7a41e20d900933346b18536939", "lon": -77.01220316666667}, {"is_reserved": 0, "fusion_lon": 0.0, "fusion_lat": 0.0, "name": "33c74f36c09ebd4276f90d46eb012ac5", "type": "electric_scooter", "is_disabled": 0, "lat": 38.8841265, "rental_uris": {"android": "https://dc.lft.to/lastmile_qr_scan", "ios": "https://dc.lft.to/lastmile_qr_scan"}, "bike_id": "33c74f36c09ebd4276f90d46eb012ac5", "lon": -76.95378333333333}, {"is_reserved": 0, "fusion_lon": 0.0, "fusion_lat": 0.0, "name": "3802620b57a9122ca8273d9fe4057ba1", "type": "electric_bike", "is_disabled": 0, "lat": 38.90833383333333, "rental_uris": {"android": "https://dc.lft.to/lastmile_qr_scan", "ios": "https://dc.lft.to/lastmile_qr_scan"}, "bike_id": "3802620b57a9122ca8273d9fe4057ba1", "lon": -76.93312283333333}, {"is_reserved": 0, "fusion_lon": 0.0, "fusion_lat": 0.0, "name": "702b929f03790f6674ab9bf2f5fa2d4f", "type": "electric_scooter", "is_disabled": 0, "lat": 38.885162, "rental_uris": {"android": "https://dc.lft.to/lastmile_qr_scan", "ios": "https://dc.lft.to/lastmile_qr_scan"}, "bike_id": "702b929f03790f6674ab9bf2f5fa2d4f", "lon": -76.99757616666666}, {"is_reserved": 0, "fusion_lon": 0.0, "fusion_lat": 0.0, "name": "7f0d0c8c1be9ce74758f1b88e0b359ff", "type": "electric_scooter", "is_disabled": 0, "lat": 38.92287783333333, "rental_uris": {"android": "https://dc.lft.to/lastmile_qr_scan", "ios": "https://dc.lft.to/lastmile_qr_scan"}, "bike_id": "7f0d0c8c1be9ce74758f1b88e0b359ff", "lon": -77.04029166666666}, {"is_reserved": 0, "fusion_lon": 0.0, "fusion_lat": 0.0, "name": "99e6a0c6099fdf3005b98c1e36852e61", "type": "electric_scooter", "is_disabled": 0, "lat": 38.8625035, "rental_uris": {"android": "https://dc.lft.to/lastmile_qr_scan", "ios": "https://dc.lft.to/lastmile_qr_scan"}, "bike_id": "99e6a0c6099fdf3005b98c1e36852e61", "lon": -76.99535733333333}, {"is_reserved": 0, "fusion_lon": 0.0, "fusion_lat": 0.0, "name": "031801e277c985d7d3a633f42f61701f", "type": "electric_bike", "is_disabled": 0, "lat": 38.839345, "rental_uris": {"android": "https://dc.lft.to/lastmile_qr_scan", "ios": "https://dc.lft.to/lastmile_qr_scan"}, "bike_id": "031801e277c985d7d3a633f42f61701f", "lon": -77.07901383333333}, {"is_reserved": 0, "fusion_lon": 0.0, "fusion_lat": 0.0, "name": "60580f6a546759bd6db7b0d6092cb1f4", "type": "electric_scooter", "is_disabled": 0, "lat": 38.910433833333336, "rental_uris": {"android": "https://dc.lft.to/lastmile_qr_scan", "ios": "https://dc.lft.to/lastmile_qr_scan"}, "bike_id": "60580f6a546759bd6db7b0d6092cb1f4", "lon": -77.04248516666667}, {"is_reserved": 0, "fusion_lon": 0.0, "fusion_lat": 0.0, "name": "20193a156a3d6d6b316a3695bb2cc8e5", "type": "electric_scooter", "is_disabled": 0, "lat": 38.9313425, "rental_uris": {"android": "https://dc.lft.to/lastmile_qr_scan", "ios": "https://dc.lft.to/lastmile_qr_scan"}, "bike_id": "20193a156a3d6d6b316a3695bb2cc8e5", "lon": -77.04394116666667}, {"is_reserved": 0, "fusion_lon": 0.0, "fusion_lat": 0.0, "name": "2d5ee5bcd6a8c3c88e691094dfc72342", "type": "electric_scooter", "is_disabled": 0, "lat": 38.900626, "rental_uris": {"android": "https://dc.lft.to/lastmile_qr_scan", "ios": "https://dc.lft.to/lastmile_qr_scan"}, "bike_id": "2d5ee5bcd6a8c3c88e691094dfc72342", "lon": -77.00205316666667}, {"is_reserved": 0, "fusion_lon": 0.0, "fusion_lat": 0.0, "name": "5fedd586431f27f1a5e71999181cb558", "type": "electric_scooter", "is_disabled": 0, "lat": 38.892189, "rental_uris": {"android": "https://dc.lft.to/lastmile_qr_scan", "ios": "https://dc.lft.to/lastmile_qr_scan"}, "bike_id": "5fedd586431f27f1a5e71999181cb558", "lon": -77.026333}, {"is_reserved": 0, "fusion_lon": 0.0, "fusion_lat": 0.0, "name": "c6d360ea2610161ece2f5d81e38bac88", "type": "electric_bike", "is_disabled": 0, "lat": 38.962732833333334, "rental_uris": {"android": "https://dc.lft.to/lastmile_qr_scan", "ios": "https://dc.lft.to/lastmile_qr_scan"}, "bike_id": "c6d360ea2610161ece2f5d81e38bac88", "lon": -77.01454083333333}, {"is_reserved": 0, "fusion_lon": 0.0, "fusion_lat": 0.0, "name": "6ef399c0553864d4a27bdff595a57537", "type": "electric_bike", "is_disabled": 0, "lat": 38.93090483333334, "rental_uris": {"android": "https://dc.lft.to/lastmile_qr_scan", "ios": "https://dc.lft.to/lastmile_qr_scan"}, "bike_id": "6ef399c0553864d4a27bdff595a57537", "lon": -77.02599966666666}, {"is_reserved": 0, "fusion_lon": 0.0, "fusion_lat": 0.0, "name": "70de4f7b3da915061b8bdfb691636770", "type": "electric_scooter", "is_disabled": 0, "lat": 38.9344195, "rental_uris": {"android": "https://dc.lft.to/lastmile_qr_scan", "ios": "https://dc.lft.to/lastmile_qr_scan"}, "bike_id": "70de4f7b3da915061b8bdfb691636770", "lon": -76.99881616666667}, {"is_reserved": 0, "fusion_lon": 0.0, "fusion_lat": 0.0, "name": "0987fffe5b2e4a30e138e873053339d4", "type": "electric_scooter", "is_disabled": 0, "lat": 38.92173616666667, "rental_uris": {"android": "https://dc.lft.to/lastmile_qr_scan", "ios": "https://dc.lft.to/lastmile_qr_scan"}, "bike_id": "0987fffe5b2e4a30e138e873053339d4", "lon": -77.04015433333333}, {"is_reserved": 0, "fusion_lon": 0.0, "fusion_lat": 0.0, "name": "cf0b92b46028134652a6f2d3df409621", "type": "electric_scooter", "is_disabled": 0, "lat": 38.900642, "rental_uris": {"android": "https://dc.lft.to/lastmile_qr_scan", "ios": "https://dc.lft.to/lastmile_qr_scan"}, "bike_id": "cf0b92b46028134652a6f2d3df409621", "lon": -76.9469015}, {"is_reserved": 0, "fusion_lon": 0.0, "fusion_lat": 0.0, "name": "830d9543fa994a87b0b112df43578b88", "type": "electric_scooter", "is_disabled": 0, "lat": 38.902402, "rental_uris": {"android": "https://dc.lft.to/lastmile_qr_scan", "ios": "https://dc.lft.to/lastmile_qr_scan"}, "bike_id": "830d9543fa994a87b0b112df43578b88", "lon": -76.98969116666666}, {"is_reserved": 0, "fusion_lon": 0.0, "fusion_lat": 0.0, "name": "e9f8e2f294f8efaae1b6429c98d11760", "type": "electric_scooter", "is_disabled": 0, "lat": 38.910333333333334, "rental_uris": {"android": "https://dc.lft.to/lastmile_qr_scan", "ios": "https://dc.lft.to/lastmile_qr_scan"}, "bike_id": "e9f8e2f294f8efaae1b6429c98d11760", "lon": -76.993453}, {"is_reserved": 0, "fusion_lon": 0.0, "fusion_lat": 0.0, "name": "fad2ad849fedab5ed92a43068e8990f6", "type": "electric_scooter", "is_disabled": 0, "lat": 38.866973, "rental_uris": {"android": "https://dc.lft.to/lastmile_qr_scan", "ios": "https://dc.lft.to/lastmile_qr_scan"}, "bike_id": "fad2ad849fedab5ed92a43068e8990f6", "lon": -76.98606183333334}, {"is_reserved": 0, "fusion_lon": 0.0, "fusion_lat": 0.0, "name": "f4c1def7359aa26a3cbc8753ede85866", "type": "electric_scooter", "is_disabled": 0, "lat": 38.89461216666667, "rental_uris": {"android": "https://dc.lft.to/lastmile_qr_scan", "ios": "https://dc.lft.to/lastmile_qr_scan"}, "bike_id": "f4c1def7359aa26a3cbc8753ede85866", "lon": -77.02313033333333}, {"is_reserved": 0, "fusion_lon": 0.0, "fusion_lat": 0.0, "name": "0c887a51063bf8be209695e44970f14f", "type": "electric_scooter", "is_disabled": 0, "lat": 38.91553566666666, "rental_uris": {"android": "https://dc.lft.to/lastmile_qr_scan", "ios": "https://dc.lft.to/lastmile_qr_scan"}, "bike_id": "0c887a51063bf8be209695e44970f14f", "lon": -77.02371466666666}, {"is_reserved": 0, "fusion_lon": 0.0, "fusion_lat": 0.0, "name": "0d230e7a7b9e50bdec5bb4d338e9c21b", "type": "electric_scooter", "is_disabled": 0, "lat": 38.8987475, "rental_uris": {"android": "https://dc.lft.to/lastmile_qr_scan", "ios": "https://dc.lft.to/lastmile_qr_scan"}, "bike_id": "0d230e7a7b9e50bdec5bb4d338e9c21b", "lon": -76.93187533333334}, {"is_reserved": 0, "fusion_lon": 0.0, "fusion_lat": 0.0, "name": "91afd712a8de39d262206343424dc65f", "type": "electric_bike", "is_disabled": 0, "lat": 38.8427575, "rental_uris": {"android": "https://dc.lft.to/lastmile_qr_scan", "ios": "https://dc.lft.to/lastmile_qr_scan"}, "bike_id": "91afd712a8de39d262206343424dc65f", "lon": -76.98840133333333}, {"is_reserved": 0, "fusion_lon": 0.0, "fusion_lat": 0.0, "name": "7e7c1aed233811e81f24d594439353d2", "type": "electric_scooter", "is_disabled": 0, "lat": 38.9013835, "rental_uris": {"android": "https://dc.lft.to/lastmile_qr_scan", "ios": "https://dc.lft.to/lastmile_qr_scan"}, "bike_id": "7e7c1aed233811e81f24d594439353d2", "lon": -77.04012116666667}, {"is_reserved": 0, "fusion_lon": 0.0, "fusion_lat": 0.0, "name": "3d5877e74d170fd7dbd7e7e5f64b694c", "type": "electric_scooter", "is_disabled": 0, "lat": 38.887384, "rental_uris": {"android": "https://dc.lft.to/lastmile_qr_scan", "ios": "https://dc.lft.to/lastmile_qr_scan"}, "bike_id": "3d5877e74d170fd7dbd7e7e5f64b694c", "lon": -77.01744983333333}, {"is_reserved": 0, "fusion_lon": 0.0, "fusion_lat": 0.0, "name": "e656faf4ac9f0becf926880c3e9f6217", "type": "electric_scooter", "is_disabled": 0, "lat": 38.900006833333336, "rental_uris": {"android": "https://dc.lft.to/lastmile_qr_scan", "ios": "https://dc.lft.to/lastmile_qr_scan"}, "bike_id": "e656faf4ac9f0becf926880c3e9f6217", "lon": -76.99835583333333}, {"is_reserved": 0, "fusion_lon": 0.0, "fusion_lat": 0.0, "name": "f71edfa8a5e33b955ac998114ab8b2d1", "type": "electric_scooter", "is_disabled": 0, "lat": 38.910562166666665, "rental_uris": {"android": "https://dc.lft.to/lastmile_qr_scan", "ios": "https://dc.lft.to/lastmile_qr_scan"}, "bike_id": "f71edfa8a5e33b955ac998114ab8b2d1", "lon": -77.02966033333334}, {"is_reserved": 0, "fusion_lon": 0.0, "fusion_lat": 0.0, "name": "5805298b56d23fa05a5e6c8e5324c66f", "type": "electric_scooter", "is_disabled": 0, "lat": 38.905643833333336, "rental_uris": {"android": "https://dc.lft.to/lastmile_qr_scan", "ios": "https://dc.lft.to/lastmile_qr_scan"}, "bike_id": "5805298b56d23fa05a5e6c8e5324c66f", "lon": -77.00594266666667}, {"is_reserved": 0, "fusion_lon": 0.0, "fusion_lat": 0.0, "name": "6141156cabb82ec7073427a6b9319f90", "type": "electric_scooter", "is_disabled": 0, "lat": 38.9134765, "rental_uris": {"android": "https://dc.lft.to/lastmile_qr_scan", "ios": "https://dc.lft.to/lastmile_qr_scan"}, "bike_id": "6141156cabb82ec7073427a6b9319f90", "lon": -77.039593}, {"is_reserved": 0, "fusion_lon": 0.0, "fusion_lat": 0.0, "name": "d2f9f06fd80b1d33357970f5ec17899f", "type": "electric_scooter", "is_disabled": 0, "lat": 38.90366616666667, "rental_uris": {"android": "https://dc.lft.to/lastmile_qr_scan", "ios": "https://dc.lft.to/lastmile_qr_scan"}, "bike_id": "d2f9f06fd80b1d33357970f5ec17899f", "lon": -77.00986366666666}, {"is_reserved": 0, "fusion_lon": 0.0, "fusion_lat": 0.0, "name": "e84458f4e45859ae13079c9cb871bce1", "type": "electric_scooter", "is_disabled": 0, "lat": 38.9003785, "rental_uris": {"android": "https://dc.lft.to/lastmile_qr_scan", "ios": "https://dc.lft.to/lastmile_qr_scan"}, "bike_id": "e84458f4e45859ae13079c9cb871bce1", "lon": -76.99621}, {"is_reserved": 0, "fusion_lon": 0.0, "fusion_lat": 0.0, "name": "21189709f9507c255582b8532d1587c4", "type": "electric_scooter", "is_disabled": 0, "lat": 38.9013455, "rental_uris": {"android": "https://dc.lft.to/lastmile_qr_scan", "ios": "https://dc.lft.to/lastmile_qr_scan"}, "bike_id": "21189709f9507c255582b8532d1587c4", "lon": -77.0500085}, {"is_reserved": 0, "fusion_lon": 0.0, "fusion_lat": 0.0, "name": "0796d01c0d941a18aa04a32d7c8f0690", "type": "electric_scooter", "is_disabled": 0, "lat": 38.92070566666666, "rental_uris": {"android": "https://dc.lft.to/lastmile_qr_scan", "ios": "https://dc.lft.to/lastmile_qr_scan"}, "bike_id": "0796d01c0d941a18aa04a32d7c8f0690", "lon": -77.04105883333334}, {"is_reserved": 0, "fusion_lon": 0.0, "fusion_lat": 0.0, "name": "34c974550f1683abb227bf2ae9117984", "type": "electric_scooter", "is_disabled": 0, "lat": 38.90977516666667, "rental_uris": {"android": "https://dc.lft.to/lastmile_qr_scan", "ios": "https://dc.lft.to/lastmile_qr_scan"}, "bike_id": "34c974550f1683abb227bf2ae9117984", "lon": -77.04576216666666}, {"is_reserved": 0, "fusion_lon": 0.0, "fusion_lat": 0.0, "name": "bd522850f754140e783865c7c2418c33", "type": "electric_bike", "is_disabled": 0, "lat": 38.8278075, "rental_uris": {"android": "https://dc.lft.to/lastmile_qr_scan", "ios": "https://dc.lft.to/lastmile_qr_scan"}, "bike_id": "bd522850f754140e783865c7c2418c33", "lon": -77.00919533333334}, {"is_reserved": 0, "fusion_lon": 0.0, "fusion_lat": 0.0, "name": "e339e5b5960c5a59eb384dd019a53c96", "type": "electric_scooter", "is_disabled": 0, "lat": 38.90504466666667, "rental_uris": {"android": "https://dc.lft.to/lastmile_qr_scan", "ios": "https://dc.lft.to/lastmile_qr_scan"}, "bike_id": "e339e5b5960c5a59eb384dd019a53c96", "lon": -76.98484133333334}, {"is_reserved": 0, "fusion_lon": 0.0, "fusion_lat": 0.0, "name": "e03560b8411a7a0b80b54bf086137cff", "type": "electric_scooter", "is_disabled": 0, "lat": 38.90268866666667, "rental_uris": {"android": "https://dc.lft.to/lastmile_qr_scan", "ios": "https://dc.lft.to/lastmile_qr_scan"}, "bike_id": "e03560b8411a7a0b80b54bf086137cff", "lon": -76.989959}, {"is_reserved": 0, "fusion_lon": 0.0, "fusion_lat": 0.0, "name": "2966045bbf112ae1d6cdd725437e0c3b", "type": "electric_scooter", "is_disabled": 0, "lat": 38.90738233333333, "rental_uris": {"android": "https://dc.lft.to/lastmile_qr_scan", "ios": "https://dc.lft.to/lastmile_qr_scan"}, "bike_id": "2966045bbf112ae1d6cdd725437e0c3b", "lon": -77.04238266666667}, {"is_reserved": 0, "fusion_lon": 0.0, "fusion_lat": 0.0, "name": "8d7558f8f808d7bc5fd16db22cbf936f", "type": "electric_scooter", "is_disabled": 0, "lat": 38.91874133333334, "rental_uris": {"android": "https://dc.lft.to/lastmile_qr_scan", "ios": "https://dc.lft.to/lastmile_qr_scan"}, "bike_id": "8d7558f8f808d7bc5fd16db22cbf936f", "lon": -77.0350335}, {"is_reserved": 0, "fusion_lon": 0.0, "fusion_lat": 0.0, "name": "e5e7643a87a2fd33ec7061427ef127be", "type": "electric_scooter", "is_disabled": 0, "lat": 38.91188616666667, "rental_uris": {"android": "https://dc.lft.to/lastmile_qr_scan", "ios": "https://dc.lft.to/lastmile_qr_scan"}, "bike_id": "e5e7643a87a2fd33ec7061427ef127be", "lon": -77.03833316666666}, {"is_reserved": 0, "fusion_lon": 0.0, "fusion_lat": 0.0, "name": "3a2fb885983e0a4623d8f3bb84701158", "type": "electric_scooter", "is_disabled": 0, "lat": 38.911006, "rental_uris": {"android": "https://dc.lft.to/lastmile_qr_scan", "ios": "https://dc.lft.to/lastmile_qr_scan"}, "bike_id": "3a2fb885983e0a4623d8f3bb84701158", "lon": -77.02508816666666}, {"is_reserved": 0, "fusion_lon": 0.0, "fusion_lat": 0.0, "name": "ec91acb4c6e11fd50ecc680d6afe4589", "type": "electric_scooter", "is_disabled": 0, "lat": 38.91412866666667, "rental_uris": {"android": "https://dc.lft.to/lastmile_qr_scan", "ios": "https://dc.lft.to/lastmile_qr_scan"}, "bike_id": "ec91acb4c6e11fd50ecc680d6afe4589", "lon": -77.02160666666667}, {"is_reserved": 0, "fusion_lon": 0.0, "fusion_lat": 0.0, "name": "6b2601f6cfc231d5af0712aa6a71bce6", "type": "electric_scooter", "is_disabled": 0, "lat": 38.892233, "rental_uris": {"android": "https://dc.lft.to/lastmile_qr_scan", "ios": "https://dc.lft.to/lastmile_qr_scan"}, "bike_id": "6b2601f6cfc231d5af0712aa6a71bce6", "lon": -77.04335183333333}, {"is_reserved": 0, "fusion_lon": 0.0, "fusion_lat": 0.0, "name": "505bf5fed32af3ecbfcf1234fe910059", "type": "electric_scooter", "is_disabled": 0, "lat": 38.91596966666667, "rental_uris": {"android": "https://dc.lft.to/lastmile_qr_scan", "ios": "https://dc.lft.to/lastmile_qr_scan"}, "bike_id": "505bf5fed32af3ecbfcf1234fe910059", "lon": -77.02391666666666}, {"is_reserved": 0, "fusion_lon": 0.0, "fusion_lat": 0.0, "name": "e14258764bb82cfe068b4e1b518ea7f7", "type": "electric_scooter", "is_disabled": 0, "lat": 38.939491333333336, "rental_uris": {"android": "https://dc.lft.to/lastmile_qr_scan", "ios": "https://dc.lft.to/lastmile_qr_scan"}, "bike_id": "e14258764bb82cfe068b4e1b518ea7f7", "lon": -77.03665}, {"is_reserved": 0, "fusion_lon": 0.0, "fusion_lat": 0.0, "name": "76c37befa629ba164d8d827493833739", "type": "electric_scooter", "is_disabled": 0, "lat": 38.9334475, "rental_uris": {"android": "https://dc.lft.to/lastmile_qr_scan", "ios": "https://dc.lft.to/lastmile_qr_scan"}, "bike_id": "76c37befa629ba164d8d827493833739", "lon": -77.02625866666666}, {"is_reserved": 0, "fusion_lon": 0.0, "fusion_lat": 0.0, "name": "dc617683cfe8d6f9e4d2c5608866d0b8", "type": "electric_scooter", "is_disabled": 0, "lat": 38.919603333333335, "rental_uris": {"android": "https://dc.lft.to/lastmile_qr_scan", "ios": "https://dc.lft.to/lastmile_qr_scan"}, "bike_id": "dc617683cfe8d6f9e4d2c5608866d0b8", "lon": -77.02390533333333}, {"is_reserved": 0, "fusion_lon": 0.0, "fusion_lat": 0.0, "name": "b98b95176948b8fbde79503fc8dd05b7", "type": "electric_scooter", "is_disabled": 0, "lat": 38.8859785, "rental_uris": {"android": "https://dc.lft.to/lastmile_qr_scan", "ios": "https://dc.lft.to/lastmile_qr_scan"}, "bike_id": "b98b95176948b8fbde79503fc8dd05b7", "lon": -77.01245566666667}, {"is_reserved": 0, "fusion_lon": 0.0, "fusion_lat": 0.0, "name": "f573be9a89b0ab0445b95f0ed6f2509e", "type": "electric_scooter", "is_disabled": 0, "lat": 38.8430885, "rental_uris": {"android": "https://dc.lft.to/lastmile_qr_scan", "ios": "https://dc.lft.to/lastmile_qr_scan"}, "bike_id": "f573be9a89b0ab0445b95f0ed6f2509e", "lon": -76.99933883333334}, {"is_reserved": 0, "fusion_lon": 0.0, "fusion_lat": 0.0, "name": "ac773acf1a53401f9fc7f8e67036d139", "type": "electric_scooter", "is_disabled": 0, "lat": 38.88775916666667, "rental_uris": {"android": "https://dc.lft.to/lastmile_qr_scan", "ios": "https://dc.lft.to/lastmile_qr_scan"}, "bike_id": "ac773acf1a53401f9fc7f8e67036d139", "lon": -76.95531983333333}, {"is_reserved": 0, "fusion_lon": 0.0, "fusion_lat": 0.0, "name": "4f9932841bc097f7e7644fb3146f0d49", "type": "electric_scooter", "is_disabled": 0, "lat": 38.937002166666666, "rental_uris": {"android": "https://dc.lft.to/lastmile_qr_scan", "ios": "https://dc.lft.to/lastmile_qr_scan"}, "bike_id": "4f9932841bc097f7e7644fb3146f0d49", "lon": -77.0241165}, {"is_reserved": 0, "fusion_lon": 0.0, "fusion_lat": 0.0, "name": "63e46dfdbed32c00218accd97869bc65", "type": "electric_scooter", "is_disabled": 0, "lat": 38.8614755, "rental_uris": {"android": "https://dc.lft.to/lastmile_qr_scan", "ios": "https://dc.lft.to/lastmile_qr_scan"}, "bike_id": "63e46dfdbed32c00218accd97869bc65", "lon": -76.9836905}, {"is_reserved": 0, "fusion_lon": 0.0, "fusion_lat": 0.0, "name": "ddc2a71593dfc94b7dcf172d7affcb2e", "type": "electric_scooter", "is_disabled": 0, "lat": 38.90000633333333, "rental_uris": {"android": "https://dc.lft.to/lastmile_qr_scan", "ios": "https://dc.lft.to/lastmile_qr_scan"}, "bike_id": "ddc2a71593dfc94b7dcf172d7affcb2e", "lon": -76.99837816666667}, {"is_reserved": 0, "fusion_lon": 0.0, "fusion_lat": 0.0, "name": "aec898f325748d896c53e914d511f96f", "type": "electric_bike", "is_disabled": 0, "lat": 39.013688333333334, "rental_uris": {"android": "https://dc.lft.to/lastmile_qr_scan", "ios": "https://dc.lft.to/lastmile_qr_scan"}, "bike_id": "aec898f325748d896c53e914d511f96f", "lon": -76.92135083333334}, {"is_reserved": 0, "fusion_lon": 0.0, "fusion_lat": 0.0, "name": "3202209ef8eaa11856f2f4362f89c21a", "type": "electric_scooter", "is_disabled": 0, "lat": 38.908908, "rental_uris": {"android": "https://dc.lft.to/lastmile_qr_scan", "ios": "https://dc.lft.to/lastmile_qr_scan"}, "bike_id": "3202209ef8eaa11856f2f4362f89c21a", "lon": -76.98237566666667}, {"is_reserved": 0, "fusion_lon": 0.0, "fusion_lat": 0.0, "name": "b603965f8a82f39763a19d84be92c650", "type": "electric_bike", "is_disabled": 0, "lat": 38.8955895, "rental_uris": {"android": "https://dc.lft.to/lastmile_qr_scan", "ios": "https://dc.lft.to/lastmile_qr_scan"}, "bike_id": "b603965f8a82f39763a19d84be92c650", "lon": -77.12733083333333}, {"is_reserved": 0, "fusion_lon": 0.0, "fusion_lat": 0.0, "name": "dcf707dff15c53df68ada952ebb40f95", "type": "electric_scooter", "is_disabled": 0, "lat": 38.889593833333336, "rental_uris": {"android": "https://dc.lft.to/lastmile_qr_scan", "ios": "https://dc.lft.to/lastmile_qr_scan"}, "bike_id": "dcf707dff15c53df68ada952ebb40f95", "lon": -76.93708}, {"is_reserved": 0, "fusion_lon": 0.0, "fusion_lat": 0.0, "name": "9f937b0b72867c0f5a6e01d6556c5ba5", "type": "electric_scooter", "is_disabled": 0, "lat": 38.923243, "rental_uris": {"android": "https://dc.lft.to/lastmile_qr_scan", "ios": "https://dc.lft.to/lastmile_qr_scan"}, "bike_id": "9f937b0b72867c0f5a6e01d6556c5ba5", "lon": -77.03543483333333}, {"is_reserved": 0, "fusion_lon": 0.0, "fusion_lat": 0.0, "name": "07cd76c4e8c1e03deb1fc6e80739d104", "type": "electric_bike", "is_disabled": 0, "lat": 38.88244983333333, "rental_uris": {"android": "https://dc.lft.to/lastmile_qr_scan", "ios": "https://dc.lft.to/lastmile_qr_scan"}, "bike_id": "07cd76c4e8c1e03deb1fc6e80739d104", "lon": -76.96260533333333}, {"is_reserved": 0, "fusion_lon": 0.0, "fusion_lat": 0.0, "name": "eaaf58f6849ad7ee2e0e1643ee08d2f1", "type": "electric_scooter", "is_disabled": 0, "lat": 38.8946935, "rental_uris": {"android": "https://dc.lft.to/lastmile_qr_scan", "ios": "https://dc.lft.to/lastmile_qr_scan"}, "bike_id": "eaaf58f6849ad7ee2e0e1643ee08d2f1", "lon": -77.02302666666667}, {"is_reserved": 0, "fusion_lon": 0.0, "fusion_lat": 0.0, "name": "832adafb9e9906be993700b9b831b82d", "type": "electric_scooter", "is_disabled": 0, "lat": 38.904108666666666, "rental_uris": {"android": "https://dc.lft.to/lastmile_qr_scan", "ios": "https://dc.lft.to/lastmile_qr_scan"}, "bike_id": "832adafb9e9906be993700b9b831b82d", "lon": -76.9733185}, {"is_reserved": 0, "fusion_lon": 0.0, "fusion_lat": 0.0, "name": "db32e62ef3c83d3e2bfa0c2fbe926f7d", "type": "electric_bike", "is_disabled": 0, "lat": 38.959610833333336, "rental_uris": {"android": "https://dc.lft.to/lastmile_qr_scan", "ios": "https://dc.lft.to/lastmile_qr_scan"}, "bike_id": "db32e62ef3c83d3e2bfa0c2fbe926f7d", "lon": -77.0305925}, {"is_reserved": 0, "fusion_lon": 0.0, "fusion_lat": 0.0, "name": "9e749b3d49dd015e6895018ed0f7a1b2", "type": "electric_scooter", "is_disabled": 0, "lat": 38.91510516666666, "rental_uris": {"android": "https://dc.lft.to/lastmile_qr_scan", "ios": "https://dc.lft.to/lastmile_qr_scan"}, "bike_id": "9e749b3d49dd015e6895018ed0f7a1b2", "lon": -77.04458}, {"is_reserved": 0, "fusion_lon": 0.0, "fusion_lat": 0.0, "name": "298f1b61a930318e5af01df9d84e3eee", "type": "electric_scooter", "is_disabled": 0, "lat": 38.884055333333336, "rental_uris": {"android": "https://dc.lft.to/lastmile_qr_scan", "ios": "https://dc.lft.to/lastmile_qr_scan"}, "bike_id": "298f1b61a930318e5af01df9d84e3eee", "lon": -77.02571133333333}, {"is_reserved": 0, "fusion_lon": 0.0, "fusion_lat": 0.0, "name": "d6f7f4ae7216865db25de04a5865f822", "type": "electric_scooter", "is_disabled": 0, "lat": 38.91289233333333, "rental_uris": {"android": "https://dc.lft.to/lastmile_qr_scan", "ios": "https://dc.lft.to/lastmile_qr_scan"}, "bike_id": "d6f7f4ae7216865db25de04a5865f822", "lon": -77.0318955}, {"is_reserved": 0, "fusion_lon": 0.0, "fusion_lat": 0.0, "name": "d3fb298a42e3d5326b8ca038b7b26d4f", "type": "electric_scooter", "is_disabled": 0, "lat": 38.892192, "rental_uris": {"android": "https://dc.lft.to/lastmile_qr_scan", "ios": "https://dc.lft.to/lastmile_qr_scan"}, "bike_id": "d3fb298a42e3d5326b8ca038b7b26d4f", "lon": -77.03163}, {"is_reserved": 0, "fusion_lon": 0.0, "fusion_lat": 0.0, "name": "79b48311a4bfbd1e596be62a5dffce89", "type": "electric_scooter", "is_disabled": 0, "lat": 38.90792366666667, "rental_uris": {"android": "https://dc.lft.to/lastmile_qr_scan", "ios": "https://dc.lft.to/lastmile_qr_scan"}, "bike_id": "79b48311a4bfbd1e596be62a5dffce89", "lon": -77.01110366666667}, {"is_reserved": 0, "fusion_lon": 0.0, "fusion_lat": 0.0, "name": "94676196e373e187e5ce25854be5112b", "type": "electric_scooter", "is_disabled": 0, "lat": 38.91838333333333, "rental_uris": {"android": "https://dc.lft.to/lastmile_qr_scan", "ios": "https://dc.lft.to/lastmile_qr_scan"}, "bike_id": "94676196e373e187e5ce25854be5112b", "lon": -77.05950166666666}, {"is_reserved": 0, "fusion_lon": 0.0, "fusion_lat": 0.0, "name": "e9c49690d9d9feffb1b5091cdb58ce70", "type": "electric_scooter", "is_disabled": 0, "lat": 38.90483316666667, "rental_uris": {"android": "https://dc.lft.to/lastmile_qr_scan", "ios": "https://dc.lft.to/lastmile_qr_scan"}, "bike_id": "e9c49690d9d9feffb1b5091cdb58ce70", "lon": -77.05158183333333}, {"is_reserved": 0, "fusion_lon": 0.0, "fusion_lat": 0.0, "name": "0e1729fc9ffcb748ffe99ef23023c861", "type": "electric_scooter", "is_disabled": 0, "lat": 38.900424, "rental_uris": {"android": "https://dc.lft.to/lastmile_qr_scan", "ios": "https://dc.lft.to/lastmile_qr_scan"}, "bike_id": "0e1729fc9ffcb748ffe99ef23023c861", "lon": -77.03919083333334}, {"is_reserved": 0, "fusion_lon": 0.0, "fusion_lat": 0.0, "name": "b18697b6a4b61c64a00024fc8923b200", "type": "electric_scooter", "is_disabled": 0, "lat": 38.92746783333333, "rental_uris": {"android": "https://dc.lft.to/lastmile_qr_scan", "ios": "https://dc.lft.to/lastmile_qr_scan"}, "bike_id": "b18697b6a4b61c64a00024fc8923b200", "lon": -77.02147716666667}, {"is_reserved": 0, "fusion_lon": 0.0, "fusion_lat": 0.0, "name": "1c31d0631b28fb73964f9c28f2c0b3f8", "type": "electric_scooter", "is_disabled": 0, "lat": 38.920893, "rental_uris": {"android": "https://dc.lft.to/lastmile_qr_scan", "ios": "https://dc.lft.to/lastmile_qr_scan"}, "bike_id": "1c31d0631b28fb73964f9c28f2c0b3f8", "lon": -77.02193033333333}, {"is_reserved": 0, "fusion_lon": 0.0, "fusion_lat": 0.0, "name": "78fc67789591799be7f0526d4398689d", "type": "electric_scooter", "is_disabled": 0, "lat": 38.92048833333333, "rental_uris": {"android": "https://dc.lft.to/lastmile_qr_scan", "ios": "https://dc.lft.to/lastmile_qr_scan"}, "bike_id": "78fc67789591799be7f0526d4398689d", "lon": -76.98939316666667}, {"is_reserved": 0, "fusion_lon": 0.0, "fusion_lat": 0.0, "name": "1eaf5d9a46aa27a50941993c023502b1", "type": "electric_bike", "is_disabled": 0, "lat": 38.9455625, "rental_uris": {"android": "https://dc.lft.to/lastmile_qr_scan", "ios": "https://dc.lft.to/lastmile_qr_scan"}, "bike_id": "1eaf5d9a46aa27a50941993c023502b1", "lon": -76.966856}, {"is_reserved": 0, "fusion_lon": 0.0, "fusion_lat": 0.0, "name": "62f417535d0cf838789919da22743d3f", "type": "electric_scooter", "is_disabled": 0, "lat": 38.926466, "rental_uris": {"android": "https://dc.lft.to/lastmile_qr_scan", "ios": "https://dc.lft.to/lastmile_qr_scan"}, "bike_id": "62f417535d0cf838789919da22743d3f", "lon": -77.02501933333333}, {"is_reserved": 0, "fusion_lon": 0.0, "fusion_lat": 0.0, "name": "8f29dc275d9d25c099cdcd50b896c34b", "type": "electric_scooter", "is_disabled": 0, "lat": 38.9168515, "rental_uris": {"android": "https://dc.lft.to/lastmile_qr_scan", "ios": "https://dc.lft.to/lastmile_qr_scan"}, "bike_id": "8f29dc275d9d25c099cdcd50b896c34b", "lon": -77.03207733333333}, {"is_reserved": 0, "fusion_lon": 0.0, "fusion_lat": 0.0, "name": "07ce91e7a5633831569404a6e74ec13c", "type": "electric_scooter", "is_disabled": 0, "lat": 38.88044, "rental_uris": {"android": "https://dc.lft.to/lastmile_qr_scan", "ios": "https://dc.lft.to/lastmile_qr_scan"}, "bike_id": "07ce91e7a5633831569404a6e74ec13c", "lon": -76.9863235}, {"is_reserved": 0, "fusion_lon": 0.0, "fusion_lat": 0.0, "name": "45b792ffdba850c9b2caeabe7558fb1b", "type": "electric_bike", "is_disabled": 0, "lat": 38.829458833333334, "rental_uris": {"android": "https://dc.lft.to/lastmile_qr_scan", "ios": "https://dc.lft.to/lastmile_qr_scan"}, "bike_id": "45b792ffdba850c9b2caeabe7558fb1b", "lon": -77.12356733333333}, {"is_reserved": 0, "fusion_lon": 0.0, "fusion_lat": 0.0, "name": "ab76b2096659048a6064f765543c4c43", "type": "electric_scooter", "is_disabled": 0, "lat": 38.91806833333333, "rental_uris": {"android": "https://dc.lft.to/lastmile_qr_scan", "ios": "https://dc.lft.to/lastmile_qr_scan"}, "bike_id": "ab76b2096659048a6064f765543c4c43", "lon": -77.03454366666666}, {"is_reserved": 0, "fusion_lon": 0.0, "fusion_lat": 0.0, "name": "ab745c077a7cc44001e18da2ec5f0ce9", "type": "electric_scooter", "is_disabled": 0, "lat": 38.9206365, "rental_uris": {"android": "https://dc.lft.to/lastmile_qr_scan", "ios": "https://dc.lft.to/lastmile_qr_scan"}, "bike_id": "ab745c077a7cc44001e18da2ec5f0ce9", "lon": -77.04378816666667}, {"is_reserved": 0, "fusion_lon": 0.0, "fusion_lat": 0.0, "name": "989e900279bd7eebaff3bcec7b19e094", "type": "electric_scooter", "is_disabled": 0, "lat": 38.85177566666667, "rental_uris": {"android": "https://dc.lft.to/lastmile_qr_scan", "ios": "https://dc.lft.to/lastmile_qr_scan"}, "bike_id": "989e900279bd7eebaff3bcec7b19e094", "lon": -76.9958075}, {"is_reserved": 0, "fusion_lon": 0.0, "fusion_lat": 0.0, "name": "baf5a1c25b9a34a536e2d47756e67b79", "type": "electric_scooter", "is_disabled": 0, "lat": 38.936111, "rental_uris": {"android": "https://dc.lft.to/lastmile_qr_scan", "ios": "https://dc.lft.to/lastmile_qr_scan"}, "bike_id": "baf5a1c25b9a34a536e2d47756e67b79", "lon": -77.03801233333333}, {"is_reserved": 0, "fusion_lon": 0.0, "fusion_lat": 0.0, "name": "da92aa546827a9b3759675f7c98a940b", "type": "electric_scooter", "is_disabled": 0, "lat": 38.92702883333333, "rental_uris": {"android": "https://dc.lft.to/lastmile_qr_scan", "ios": "https://dc.lft.to/lastmile_qr_scan"}, "bike_id": "da92aa546827a9b3759675f7c98a940b", "lon": -77.0148525}, {"is_reserved": 0, "fusion_lon": 0.0, "fusion_lat": 0.0, "name": "7db9def999b60371ea0530e020e29a03", "type": "electric_scooter", "is_disabled": 0, "lat": 38.90974466666667, "rental_uris": {"android": "https://dc.lft.to/lastmile_qr_scan", "ios": "https://dc.lft.to/lastmile_qr_scan"}, "bike_id": "7db9def999b60371ea0530e020e29a03", "lon": -77.02690866666667}, {"is_reserved": 0, "fusion_lon": 0.0, "fusion_lat": 0.0, "name": "f15ac70445175d1b874dced61dd05084", "type": "electric_scooter", "is_disabled": 0, "lat": 38.9352935, "rental_uris": {"android": "https://dc.lft.to/lastmile_qr_scan", "ios": "https://dc.lft.to/lastmile_qr_scan"}, "bike_id": "f15ac70445175d1b874dced61dd05084", "lon": -77.0234575}, {"is_reserved": 0, "fusion_lon": 0.0, "fusion_lat": 0.0, "name": "34525e4c8122af82390c2969d3160e85", "type": "electric_scooter", "is_disabled": 0, "lat": 38.9184895, "rental_uris": {"android": "https://dc.lft.to/lastmile_qr_scan", "ios": "https://dc.lft.to/lastmile_qr_scan"}, "bike_id": "34525e4c8122af82390c2969d3160e85", "lon": -77.04443533333334}, {"is_reserved": 0, "fusion_lon": 0.0, "fusion_lat": 0.0, "name": "36df320e3ace50069fefe761acf47fb5", "type": "electric_scooter", "is_disabled": 0, "lat": 38.87618766666667, "rental_uris": {"android": "https://dc.lft.to/lastmile_qr_scan", "ios": "https://dc.lft.to/lastmile_qr_scan"}, "bike_id": "36df320e3ace50069fefe761acf47fb5", "lon": -77.000428}, {"is_reserved": 0, "fusion_lon": 0.0, "fusion_lat": 0.0, "name": "d186e8d52979cacd2e2e2078fd0ea0da", "type": "electric_scooter", "is_disabled": 0, "lat": 38.90729433333333, "rental_uris": {"android": "https://dc.lft.to/lastmile_qr_scan", "ios": "https://dc.lft.to/lastmile_qr_scan"}, "bike_id": "d186e8d52979cacd2e2e2078fd0ea0da", "lon": -77.02961116666667}, {"is_reserved": 0, "fusion_lon": 0.0, "fusion_lat": 0.0, "name": "630f4296dede725a75c9121d4264adb1", "type": "electric_scooter", "is_disabled": 0, "lat": 38.9101965, "rental_uris": {"android": "https://dc.lft.to/lastmile_qr_scan", "ios": "https://dc.lft.to/lastmile_qr_scan"}, "bike_id": "630f4296dede725a75c9121d4264adb1", "lon": -77.034342}, {"is_reserved": 0, "fusion_lon": 0.0, "fusion_lat": 0.0, "name": "00c6082bb205bb0813d932ba0375bd07", "type": "electric_scooter", "is_disabled": 0, "lat": 38.9183205, "rental_uris": {"android": "https://dc.lft.to/lastmile_qr_scan", "ios": "https://dc.lft.to/lastmile_qr_scan"}, "bike_id": "00c6082bb205bb0813d932ba0375bd07", "lon": -77.0246175}, {"is_reserved": 0, "fusion_lon": 0.0, "fusion_lat": 0.0, "name": "5147fad75713f20336ebb22c84393e77", "type": "electric_scooter", "is_disabled": 0, "lat": 38.93774616666666, "rental_uris": {"android": "https://dc.lft.to/lastmile_qr_scan", "ios": "https://dc.lft.to/lastmile_qr_scan"}, "bike_id": "5147fad75713f20336ebb22c84393e77", "lon": -77.01970733333333}, {"is_reserved": 0, "fusion_lon": 0.0, "fusion_lat": 0.0, "name": "5e039d8738b3233e0d3d047bd87b18e5", "type": "electric_bike", "is_disabled": 0, "lat": 38.85439983333333, "rental_uris": {"android": "https://dc.lft.to/lastmile_qr_scan", "ios": "https://dc.lft.to/lastmile_qr_scan"}, "bike_id": "5e039d8738b3233e0d3d047bd87b18e5", "lon": -77.08328383333334}, {"is_reserved": 0, "fusion_lon": 0.0, "fusion_lat": 0.0, "name": "d434d6e10b6d00e20cd820b40a51498b", "type": "electric_scooter", "is_disabled": 0, "lat": 38.88491283333333, "rental_uris": {"android": "https://dc.lft.to/lastmile_qr_scan", "ios": "https://dc.lft.to/lastmile_qr_scan"}, "bike_id": "d434d6e10b6d00e20cd820b40a51498b", "lon": -77.00595716666666}, {"is_reserved": 0, "fusion_lon": 0.0, "fusion_lat": 0.0, "name": "6e518860fc237b74caf24339a71698c1", "type": "electric_scooter", "is_disabled": 0, "lat": 38.9305835, "rental_uris": {"android": "https://dc.lft.to/lastmile_qr_scan", "ios": "https://dc.lft.to/lastmile_qr_scan"}, "bike_id": "6e518860fc237b74caf24339a71698c1", "lon": -77.03944833333334}, {"is_reserved": 0, "fusion_lon": 0.0, "fusion_lat": 0.0, "name": "7668efb47d3aa64b2cd1dfec26f5ea86", "type": "electric_scooter", "is_disabled": 0, "lat": 38.9169955, "rental_uris": {"android": "https://dc.lft.to/lastmile_qr_scan", "ios": "https://dc.lft.to/lastmile_qr_scan"}, "bike_id": "7668efb47d3aa64b2cd1dfec26f5ea86", "lon": -77.031144}, {"is_reserved": 0, "fusion_lon": 0.0, "fusion_lat": 0.0, "name": "c1187511892a4fcbff63de936e7f3938", "type": "electric_scooter", "is_disabled": 0, "lat": 38.887449333333336, "rental_uris": {"android": "https://dc.lft.to/lastmile_qr_scan", "ios": "https://dc.lft.to/lastmile_qr_scan"}, "bike_id": "c1187511892a4fcbff63de936e7f3938", "lon": -77.02390766666667}, {"is_reserved": 0, "fusion_lon": 0.0, "fusion_lat": 0.0, "name": "bdf304eaaee8520c84baf4652d1d4c71", "type": "electric_bike", "is_disabled": 0, "lat": 38.968005, "rental_uris": {"android": "https://dc.lft.to/lastmile_qr_scan", "ios": "https://dc.lft.to/lastmile_qr_scan"}, "bike_id": "bdf304eaaee8520c84baf4652d1d4c71", "lon": -77.000389}, {"is_reserved": 0, "fusion_lon": 0.0, "fusion_lat": 0.0, "name": "b99d7ad39e58607a151acb7e462f6249", "type": "electric_scooter", "is_disabled": 0, "lat": 38.89232116666667, "rental_uris": {"android": "https://dc.lft.to/lastmile_qr_scan", "ios": "https://dc.lft.to/lastmile_qr_scan"}, "bike_id": "b99d7ad39e58607a151acb7e462f6249", "lon": -77.03207016666667}, {"is_reserved": 0, "fusion_lon": 0.0, "fusion_lat": 0.0, "name": "11eccdd70cbe61251ed741514883d666", "type": "electric_scooter", "is_disabled": 0, "lat": 38.901688, "rental_uris": {"android": "https://dc.lft.to/lastmile_qr_scan", "ios": "https://dc.lft.to/lastmile_qr_scan"}, "bike_id": "11eccdd70cbe61251ed741514883d666", "lon": -76.98019516666666}, {"is_reserved": 0, "fusion_lon": 0.0, "fusion_lat": 0.0, "name": "9e3e252d920fefd864e595658d6fbbee", "type": "electric_scooter", "is_disabled": 0, "lat": 38.9352785, "rental_uris": {"android": "https://dc.lft.to/lastmile_qr_scan", "ios": "https://dc.lft.to/lastmile_qr_scan"}, "bike_id": "9e3e252d920fefd864e595658d6fbbee", "lon": -77.02344766666667}, {"is_reserved": 0, "fusion_lon": 0.0, "fusion_lat": 0.0, "name": "5f562a1a1ca26fa3cba2f2c52e13349a", "type": "electric_scooter", "is_disabled": 0, "lat": 38.928854, "rental_uris": {"android": "https://dc.lft.to/lastmile_qr_scan", "ios": "https://dc.lft.to/lastmile_qr_scan"}, "bike_id": "5f562a1a1ca26fa3cba2f2c52e13349a", "lon": -77.01358166666667}, {"is_reserved": 0, "fusion_lon": 0.0, "fusion_lat": 0.0, "name": "ec1416194c1fc4e3b152eea32b14eb39", "type": "electric_scooter", "is_disabled": 0, "lat": 38.9176455, "rental_uris": {"android": "https://dc.lft.to/lastmile_qr_scan", "ios": "https://dc.lft.to/lastmile_qr_scan"}, "bike_id": "ec1416194c1fc4e3b152eea32b14eb39", "lon": -77.04062583333334}, {"is_reserved": 0, "fusion_lon": 0.0, "fusion_lat": 0.0, "name": "7814aea5d99ded9d3c4ee907c30984a0", "type": "electric_scooter", "is_disabled": 0, "lat": 38.8974415, "rental_uris": {"android": "https://dc.lft.to/lastmile_qr_scan", "ios": "https://dc.lft.to/lastmile_qr_scan"}, "bike_id": "7814aea5d99ded9d3c4ee907c30984a0", "lon": -77.03368333333333}, {"is_reserved": 0, "fusion_lon": 0.0, "fusion_lat": 0.0, "name": "0d55a602e9a06663a5a7584e409bdd73", "type": "electric_scooter", "is_disabled": 0, "lat": 38.96119216666666, "rental_uris": {"android": "https://dc.lft.to/lastmile_qr_scan", "ios": "https://dc.lft.to/lastmile_qr_scan"}, "bike_id": "0d55a602e9a06663a5a7584e409bdd73", "lon": -77.02790233333333}, {"is_reserved": 0, "fusion_lon": 0.0, "fusion_lat": 0.0, "name": "cb62b64caeaf64a8aa161d76f9c0eab9", "type": "electric_scooter", "is_disabled": 0, "lat": 38.923309333333336, "rental_uris": {"android": "https://dc.lft.to/lastmile_qr_scan", "ios": "https://dc.lft.to/lastmile_qr_scan"}, "bike_id": "cb62b64caeaf64a8aa161d76f9c0eab9", "lon": -77.036189}, {"is_reserved": 0, "fusion_lon": 0.0, "fusion_lat": 0.0, "name": "a72967ba4c94b2f318d9d8bf9ca18ec7", "type": "electric_scooter", "is_disabled": 0, "lat": 38.8847605, "rental_uris": {"android": "https://dc.lft.to/lastmile_qr_scan", "ios": "https://dc.lft.to/lastmile_qr_scan"}, "bike_id": "a72967ba4c94b2f318d9d8bf9ca18ec7", "lon": -77.02583816666667}, {"is_reserved": 0, "fusion_lon": 0.0, "fusion_lat": 0.0, "name": "3c3dc16f1e23a1fa6056f5d696cade72", "type": "electric_scooter", "is_disabled": 0, "lat": 38.942595, "rental_uris": {"android": "https://dc.lft.to/lastmile_qr_scan", "ios": "https://dc.lft.to/lastmile_qr_scan"}, "bike_id": "3c3dc16f1e23a1fa6056f5d696cade72", "lon": -77.0284285}, {"is_reserved": 0, "fusion_lon": 0.0, "fusion_lat": 0.0, "name": "6b9d922230fb221d65a0cc79eef24cda", "type": "electric_scooter", "is_disabled": 0, "lat": 38.9515035, "rental_uris": {"android": "https://dc.lft.to/lastmile_qr_scan", "ios": "https://dc.lft.to/lastmile_qr_scan"}, "bike_id": "6b9d922230fb221d65a0cc79eef24cda", "lon": -77.01865783333334}, {"is_reserved": 0, "fusion_lon": 0.0, "fusion_lat": 0.0, "name": "6f7db681d49b0fc0f3717f523fadc14b", "type": "electric_scooter", "is_disabled": 0, "lat": 38.922208833333336, "rental_uris": {"android": "https://dc.lft.to/lastmile_qr_scan", "ios": "https://dc.lft.to/lastmile_qr_scan"}, "bike_id": "6f7db681d49b0fc0f3717f523fadc14b", "lon": -77.0372845}, {"is_reserved": 0, "fusion_lon": 0.0, "fusion_lat": 0.0, "name": "88c32a124db47a50faac14b8d7e79891", "type": "electric_scooter", "is_disabled": 0, "lat": 38.886135, "rental_uris": {"android": "https://dc.lft.to/lastmile_qr_scan", "ios": "https://dc.lft.to/lastmile_qr_scan"}, "bike_id": "88c32a124db47a50faac14b8d7e79891", "lon": -76.99656183333333}, {"is_reserved": 0, "fusion_lon": 0.0, "fusion_lat": 0.0, "name": "48c39520bde57aa9518743d997e78682", "type": "electric_scooter", "is_disabled": 0, "lat": 38.9134005, "rental_uris": {"android": "https://dc.lft.to/lastmile_qr_scan", "ios": "https://dc.lft.to/lastmile_qr_scan"}, "bike_id": "48c39520bde57aa9518743d997e78682", "lon": -77.01033916666667}, {"is_reserved": 0, "fusion_lon": 0.0, "fusion_lat": 0.0, "name": "08a127a34a7921d6040e68d7622bfa21", "type": "electric_scooter", "is_disabled": 0, "lat": 38.905781166666664, "rental_uris": {"android": "https://dc.lft.to/lastmile_qr_scan", "ios": "https://dc.lft.to/lastmile_qr_scan"}, "bike_id": "08a127a34a7921d6040e68d7622bfa21", "lon": -77.02389266666667}, {"is_reserved": 0, "fusion_lon": 0.0, "fusion_lat": 0.0, "name": "90691dfbd6d05739fab7bace0800b289", "type": "electric_scooter", "is_disabled": 0, "lat": 38.906773, "rental_uris": {"android": "https://dc.lft.to/lastmile_qr_scan", "ios": "https://dc.lft.to/lastmile_qr_scan"}, "bike_id": "90691dfbd6d05739fab7bace0800b289", "lon": -76.98666783333333}, {"is_reserved": 0, "fusion_lon": 0.0, "fusion_lat": 0.0, "name": "1454572e101b10e7e0f0f227cbc6d4c5", "type": "electric_scooter", "is_disabled": 0, "lat": 38.9168165, "rental_uris": {"android": "https://dc.lft.to/lastmile_qr_scan", "ios": "https://dc.lft.to/lastmile_qr_scan"}, "bike_id": "1454572e101b10e7e0f0f227cbc6d4c5", "lon": -77.02951533333334}, {"is_reserved": 0, "fusion_lon": 0.0, "fusion_lat": 0.0, "name": "bcaa05d673a195e4862cf0516d6dbff3", "type": "electric_scooter", "is_disabled": 0, "lat": 38.92142033333333, "rental_uris": {"android": "https://dc.lft.to/lastmile_qr_scan", "ios": "https://dc.lft.to/lastmile_qr_scan"}, "bike_id": "bcaa05d673a195e4862cf0516d6dbff3", "lon": -77.02069066666667}, {"is_reserved": 0, "fusion_lon": 0.0, "fusion_lat": 0.0, "name": "3078d1a6d36830695af5de03ec956cbb", "type": "electric_scooter", "is_disabled": 0, "lat": 38.91869833333333, "rental_uris": {"android": "https://dc.lft.to/lastmile_qr_scan", "ios": "https://dc.lft.to/lastmile_qr_scan"}, "bike_id": "3078d1a6d36830695af5de03ec956cbb", "lon": -77.0256535}, {"is_reserved": 0, "fusion_lon": 0.0, "fusion_lat": 0.0, "name": "d86f4834f6faf3f94adf9d188c5db245", "type": "electric_scooter", "is_disabled": 0, "lat": 38.934907333333335, "rental_uris": {"android": "https://dc.lft.to/lastmile_qr_scan", "ios": "https://dc.lft.to/lastmile_qr_scan"}, "bike_id": "d86f4834f6faf3f94adf9d188c5db245", "lon": -77.03653916666667}, {"is_reserved": 0, "fusion_lon": 0.0, "fusion_lat": 0.0, "name": "d78c2c38518ad4f7d305928b3c711d87", "type": "electric_scooter", "is_disabled": 0, "lat": 38.923157, "rental_uris": {"android": "https://dc.lft.to/lastmile_qr_scan", "ios": "https://dc.lft.to/lastmile_qr_scan"}, "bike_id": "d78c2c38518ad4f7d305928b3c711d87", "lon": -77.04345066666667}, {"is_reserved": 0, "fusion_lon": 0.0, "fusion_lat": 0.0, "name": "d4876f50e760643c3db3ea3f264d8ce2", "type": "electric_scooter", "is_disabled": 0, "lat": 38.91774816666667, "rental_uris": {"android": "https://dc.lft.to/lastmile_qr_scan", "ios": "https://dc.lft.to/lastmile_qr_scan"}, "bike_id": "d4876f50e760643c3db3ea3f264d8ce2", "lon": -77.0231605}, {"is_reserved": 0, "fusion_lon": 0.0, "fusion_lat": 0.0, "name": "16844b813d15a382378852b4c2ca8a8a", "type": "electric_scooter", "is_disabled": 0, "lat": 38.88279766666667, "rental_uris": {"android": "https://dc.lft.to/lastmile_qr_scan", "ios": "https://dc.lft.to/lastmile_qr_scan"}, "bike_id": "16844b813d15a382378852b4c2ca8a8a", "lon": -76.987805}, {"is_reserved": 0, "fusion_lon": 0.0, "fusion_lat": 0.0, "name": "de3338d8f3e990baef7c7c031e2e3c5f", "type": "electric_scooter", "is_disabled": 0, "lat": 38.9058325, "rental_uris": {"android": "https://dc.lft.to/lastmile_qr_scan", "ios": "https://dc.lft.to/lastmile_qr_scan"}, "bike_id": "de3338d8f3e990baef7c7c031e2e3c5f", "lon": -77.023836}, {"is_reserved": 0, "fusion_lon": 0.0, "fusion_lat": 0.0, "name": "061451001f0f1357fc4fedcb29711cc2", "type": "electric_bike", "is_disabled": 0, "lat": 38.94550783333333, "rental_uris": {"android": "https://dc.lft.to/lastmile_qr_scan", "ios": "https://dc.lft.to/lastmile_qr_scan"}, "bike_id": "061451001f0f1357fc4fedcb29711cc2", "lon": -76.89536583333333}, {"is_reserved": 0, "fusion_lon": 0.0, "fusion_lat": 0.0, "name": "c5aafbf357b56b8d427f82fc17a8d2bf", "type": "electric_bike", "is_disabled": 0, "lat": 38.905598, "rental_uris": {"android": "https://dc.lft.to/lastmile_qr_scan", "ios": "https://dc.lft.to/lastmile_qr_scan"}, "bike_id": "c5aafbf357b56b8d427f82fc17a8d2bf", "lon": -77.06270466666666}, {"is_reserved": 0, "fusion_lon": 0.0, "fusion_lat": 0.0, "name": "43b593319b48688af74d105b7b03f70b", "type": "electric_scooter", "is_disabled": 0, "lat": 38.93534783333333, "rental_uris": {"android": "https://dc.lft.to/lastmile_qr_scan", "ios": "https://dc.lft.to/lastmile_qr_scan"}, "bike_id": "43b593319b48688af74d105b7b03f70b", "lon": -77.02350716666666}, {"is_reserved": 0, "fusion_lon": 0.0, "fusion_lat": 0.0, "name": "5ce63b26028d843aa4ba902a87701708", "type": "electric_scooter", "is_disabled": 0, "lat": 38.92068033333334, "rental_uris": {"android": "https://dc.lft.to/lastmile_qr_scan", "ios": "https://dc.lft.to/lastmile_qr_scan"}, "bike_id": "5ce63b26028d843aa4ba902a87701708", "lon": -77.0381275}, {"is_reserved": 0, "fusion_lon": 0.0, "fusion_lat": 0.0, "name": "37c1075822a2d4e45ef9401e4a961a28", "type": "electric_scooter", "is_disabled": 0, "lat": 38.900704166666664, "rental_uris": {"android": "https://dc.lft.to/lastmile_qr_scan", "ios": "https://dc.lft.to/lastmile_qr_scan"}, "bike_id": "37c1075822a2d4e45ef9401e4a961a28", "lon": -77.04763116666666}, {"is_reserved": 0, "fusion_lon": 0.0, "fusion_lat": 0.0, "name": "991f22470a20827f631f1f3e1cfb7917", "type": "electric_scooter", "is_disabled": 0, "lat": 38.926437, "rental_uris": {"android": "https://dc.lft.to/lastmile_qr_scan", "ios": "https://dc.lft.to/lastmile_qr_scan"}, "bike_id": "991f22470a20827f631f1f3e1cfb7917", "lon": -77.04296133333334}, {"is_reserved": 0, "fusion_lon": 0.0, "fusion_lat": 0.0, "name": "389a520b70eb3302e493846e42e2038a", "type": "electric_scooter", "is_disabled": 0, "lat": 38.88160383333334, "rental_uris": {"android": "https://dc.lft.to/lastmile_qr_scan", "ios": "https://dc.lft.to/lastmile_qr_scan"}, "bike_id": "389a520b70eb3302e493846e42e2038a", "lon": -76.9297485}, {"is_reserved": 0, "fusion_lon": 0.0, "fusion_lat": 0.0, "name": "316f0e3e47900d772bcf116175d3131c", "type": "electric_scooter", "is_disabled": 0, "lat": 38.907227166666665, "rental_uris": {"android": "https://dc.lft.to/lastmile_qr_scan", "ios": "https://dc.lft.to/lastmile_qr_scan"}, "bike_id": "316f0e3e47900d772bcf116175d3131c", "lon": -77.02552866666667}, {"is_reserved": 0, "fusion_lon": 0.0, "fusion_lat": 0.0, "name": "bb1b3b3b955deed6a1575576c0529e0d", "type": "electric_scooter", "is_disabled": 0, "lat": 38.923996333333335, "rental_uris": {"android": "https://dc.lft.to/lastmile_qr_scan", "ios": "https://dc.lft.to/lastmile_qr_scan"}, "bike_id": "bb1b3b3b955deed6a1575576c0529e0d", "lon": -77.024412}, {"is_reserved": 0, "fusion_lon": 0.0, "fusion_lat": 0.0, "name": "25249251a5dedf7d9e52b55fc5a38e84", "type": "electric_scooter", "is_disabled": 0, "lat": 38.89675733333333, "rental_uris": {"android": "https://dc.lft.to/lastmile_qr_scan", "ios": "https://dc.lft.to/lastmile_qr_scan"}, "bike_id": "25249251a5dedf7d9e52b55fc5a38e84", "lon": -77.0317505}, {"is_reserved": 0, "fusion_lon": 0.0, "fusion_lat": 0.0, "name": "364e50f20abe9fbcd1da0f7d936639b1", "type": "electric_scooter", "is_disabled": 0, "lat": 38.922894166666666, "rental_uris": {"android": "https://dc.lft.to/lastmile_qr_scan", "ios": "https://dc.lft.to/lastmile_qr_scan"}, "bike_id": "364e50f20abe9fbcd1da0f7d936639b1", "lon": -77.04268683333333}, {"is_reserved": 0, "fusion_lon": 0.0, "fusion_lat": 0.0, "name": "58f05dbb3d10be9c5defecb55d2279a9", "type": "electric_scooter", "is_disabled": 0, "lat": 38.91548, "rental_uris": {"android": "https://dc.lft.to/lastmile_qr_scan", "ios": "https://dc.lft.to/lastmile_qr_scan"}, "bike_id": "58f05dbb3d10be9c5defecb55d2279a9", "lon": -77.02556533333333}, {"is_reserved": 0, "fusion_lon": 0.0, "fusion_lat": 0.0, "name": "11f148f397f94f5a6eb7de496beb37fc", "type": "electric_scooter", "is_disabled": 0, "lat": 38.89979916666667, "rental_uris": {"android": "https://dc.lft.to/lastmile_qr_scan", "ios": "https://dc.lft.to/lastmile_qr_scan"}, "bike_id": "11f148f397f94f5a6eb7de496beb37fc", "lon": -77.048184}, {"is_reserved": 0, "fusion_lon": 0.0, "fusion_lat": 0.0, "name": "ae34e089013e24c22cd85c8a2c9469b5", "type": "electric_scooter", "is_disabled": 0, "lat": 38.90062666666667, "rental_uris": {"android": "https://dc.lft.to/lastmile_qr_scan", "ios": "https://dc.lft.to/lastmile_qr_scan"}, "bike_id": "ae34e089013e24c22cd85c8a2c9469b5", "lon": -77.04890483333334}, {"is_reserved": 0, "fusion_lon": 0.0, "fusion_lat": 0.0, "name": "3d808277f0d45b642edbe19a9bf5332b", "type": "electric_scooter", "is_disabled": 0, "lat": 38.88871483333333, "rental_uris": {"android": "https://dc.lft.to/lastmile_qr_scan", "ios": "https://dc.lft.to/lastmile_qr_scan"}, "bike_id": "3d808277f0d45b642edbe19a9bf5332b", "lon": -76.98211966666666}, {"is_reserved": 0, "fusion_lon": 0.0, "fusion_lat": 0.0, "name": "6d15edd7b2b1928e0026a1fba6a67f17", "type": "electric_scooter", "is_disabled": 0, "lat": 38.937818166666666, "rental_uris": {"android": "https://dc.lft.to/lastmile_qr_scan", "ios": "https://dc.lft.to/lastmile_qr_scan"}, "bike_id": "6d15edd7b2b1928e0026a1fba6a67f17", "lon": -77.03295066666666}, {"is_reserved": 0, "fusion_lon": 0.0, "fusion_lat": 0.0, "name": "d016df8b67c040b3b44520e79691d3e7", "type": "electric_scooter", "is_disabled": 0, "lat": 38.8357555, "rental_uris": {"android": "https://dc.lft.to/lastmile_qr_scan", "ios": "https://dc.lft.to/lastmile_qr_scan"}, "bike_id": "d016df8b67c040b3b44520e79691d3e7", "lon": -76.99490216666666}, {"is_reserved": 0, "fusion_lon": 0.0, "fusion_lat": 0.0, "name": "fda5406a72cc9383d9d8ec9cba8fe1f1", "type": "electric_bike", "is_disabled": 0, "lat": 39.042337, "rental_uris": {"android": "https://dc.lft.to/lastmile_qr_scan", "ios": "https://dc.lft.to/lastmile_qr_scan"}, "bike_id": "fda5406a72cc9383d9d8ec9cba8fe1f1", "lon": -76.997404}, {"is_reserved": 0, "fusion_lon": 0.0, "fusion_lat": 0.0, "name": "0ab1af7c4d1a65ea735b50e45d657475", "type": "electric_scooter", "is_disabled": 0, "lat": 38.90737433333334, "rental_uris": {"android": "https://dc.lft.to/lastmile_qr_scan", "ios": "https://dc.lft.to/lastmile_qr_scan"}, "bike_id": "0ab1af7c4d1a65ea735b50e45d657475", "lon": -77.02693416666666}, {"is_reserved": 0, "fusion_lon": 0.0, "fusion_lat": 0.0, "name": "12c83e0ed402285ec5adf2285c3a1b07", "type": "electric_scooter", "is_disabled": 0, "lat": 38.910981, "rental_uris": {"android": "https://dc.lft.to/lastmile_qr_scan", "ios": "https://dc.lft.to/lastmile_qr_scan"}, "bike_id": "12c83e0ed402285ec5adf2285c3a1b07", "lon": -77.0297155}, {"is_reserved": 0, "fusion_lon": 0.0, "fusion_lat": 0.0, "name": "5b09d1503c091901ababbc6c25034c44", "type": "electric_scooter", "is_disabled": 0, "lat": 38.89596933333333, "rental_uris": {"android": "https://dc.lft.to/lastmile_qr_scan", "ios": "https://dc.lft.to/lastmile_qr_scan"}, "bike_id": "5b09d1503c091901ababbc6c25034c44", "lon": -77.0076645}, {"is_reserved": 0, "fusion_lon": 0.0, "fusion_lat": 0.0, "name": "ad4f8cf21f33b7ca70787f38fe340e64", "type": "electric_scooter", "is_disabled": 0, "lat": 38.9518115, "rental_uris": {"android": "https://dc.lft.to/lastmile_qr_scan", "ios": "https://dc.lft.to/lastmile_qr_scan"}, "bike_id": "ad4f8cf21f33b7ca70787f38fe340e64", "lon": -77.02727216666666}, {"is_reserved": 0, "fusion_lon": 0.0, "fusion_lat": 0.0, "name": "0f5e1987b95f20c09f23d9914ba3a930", "type": "electric_scooter", "is_disabled": 0, "lat": 38.89427466666667, "rental_uris": {"android": "https://dc.lft.to/lastmile_qr_scan", "ios": "https://dc.lft.to/lastmile_qr_scan"}, "bike_id": "0f5e1987b95f20c09f23d9914ba3a930", "lon": -76.91116133333334}, {"is_reserved": 0, "fusion_lon": 0.0, "fusion_lat": 0.0, "name": "f7dfa5c6211e53b0fbb70946969b481f", "type": "electric_scooter", "is_disabled": 0, "lat": 38.90742633333333, "rental_uris": {"android": "https://dc.lft.to/lastmile_qr_scan", "ios": "https://dc.lft.to/lastmile_qr_scan"}, "bike_id": "f7dfa5c6211e53b0fbb70946969b481f", "lon": -77.0022925}, {"is_reserved": 0, "fusion_lon": 0.0, "fusion_lat": 0.0, "name": "73b1a27e93fba73c98b7093c33697575", "type": "electric_bike", "is_disabled": 0, "lat": 38.90270783333333, "rental_uris": {"android": "https://dc.lft.to/lastmile_qr_scan", "ios": "https://dc.lft.to/lastmile_qr_scan"}, "bike_id": "73b1a27e93fba73c98b7093c33697575", "lon": -76.9292925}, {"is_reserved": 0, "fusion_lon": 0.0, "fusion_lat": 0.0, "name": "25603fb252acd08bf14ecca526d2b6be", "type": "electric_scooter", "is_disabled": 0, "lat": 38.9224335, "rental_uris": {"android": "https://dc.lft.to/lastmile_qr_scan", "ios": "https://dc.lft.to/lastmile_qr_scan"}, "bike_id": "25603fb252acd08bf14ecca526d2b6be", "lon": -77.03082466666666}, {"is_reserved": 0, "fusion_lon": 0.0, "fusion_lat": 0.0, "name": "86960a75819f739541b145058d752412", "type": "electric_scooter", "is_disabled": 0, "lat": 38.972238833333336, "rental_uris": {"android": "https://dc.lft.to/lastmile_qr_scan", "ios": "https://dc.lft.to/lastmile_qr_scan"}, "bike_id": "86960a75819f739541b145058d752412", "lon": -77.02652266666666}, {"is_reserved": 0, "fusion_lon": 0.0, "fusion_lat": 0.0, "name": "abf428064b0cfd08e78ec8ee03e6065f", "type": "electric_scooter", "is_disabled": 0, "lat": 38.876800333333335, "rental_uris": {"android": "https://dc.lft.to/lastmile_qr_scan", "ios": "https://dc.lft.to/lastmile_qr_scan"}, "bike_id": "abf428064b0cfd08e78ec8ee03e6065f", "lon": -76.99829083333333}, {"is_reserved": 0, "fusion_lon": 0.0, "fusion_lat": 0.0, "name": "6ac4a2944a07e7334948f42c9c6945c1", "type": "electric_scooter", "is_disabled": 0, "lat": 38.89223483333333, "rental_uris": {"android": "https://dc.lft.to/lastmile_qr_scan", "ios": "https://dc.lft.to/lastmile_qr_scan"}, "bike_id": "6ac4a2944a07e7334948f42c9c6945c1", "lon": -77.0437455}, {"is_reserved": 0, "fusion_lon": 0.0, "fusion_lat": 0.0, "name": "b0d280a40fca9931afc0bfc632c8f63f", "type": "electric_scooter", "is_disabled": 0, "lat": 38.90646783333333, "rental_uris": {"android": "https://dc.lft.to/lastmile_qr_scan", "ios": "https://dc.lft.to/lastmile_qr_scan"}, "bike_id": "b0d280a40fca9931afc0bfc632c8f63f", "lon": -77.05016416666666}, {"is_reserved": 0, "fusion_lon": 0.0, "fusion_lat": 0.0, "name": "afa2d47eab42705551b6d0b7beca74bf", "type": "electric_scooter", "is_disabled": 0, "lat": 38.90571166666667, "rental_uris": {"android": "https://dc.lft.to/lastmile_qr_scan", "ios": "https://dc.lft.to/lastmile_qr_scan"}, "bike_id": "afa2d47eab42705551b6d0b7beca74bf", "lon": -77.04105716666666}, {"is_reserved": 0, "fusion_lon": 0.0, "fusion_lat": 0.0, "name": "cb4f6b4d3d598c12a602d47ebf8baeaf", "type": "electric_scooter", "is_disabled": 0, "lat": 38.9051005, "rental_uris": {"android": "https://dc.lft.to/lastmile_qr_scan", "ios": "https://dc.lft.to/lastmile_qr_scan"}, "bike_id": "cb4f6b4d3d598c12a602d47ebf8baeaf", "lon": -77.00137166666667}, {"is_reserved": 0, "fusion_lon": 0.0, "fusion_lat": 0.0, "name": "60a855e3c5b19e282f6f3344c7e94fae", "type": "electric_scooter", "is_disabled": 0, "lat": 38.916984666666664, "rental_uris": {"android": "https://dc.lft.to/lastmile_qr_scan", "ios": "https://dc.lft.to/lastmile_qr_scan"}, "bike_id": "60a855e3c5b19e282f6f3344c7e94fae", "lon": -77.03124783333334}, {"is_reserved": 0, "fusion_lon": 0.0, "fusion_lat": 0.0, "name": "58df29716f0d9d0fa09c43e74a39309c", "type": "electric_scooter", "is_disabled": 0, "lat": 38.900773, "rental_uris": {"android": "https://dc.lft.to/lastmile_qr_scan", "ios": "https://dc.lft.to/lastmile_qr_scan"}, "bike_id": "58df29716f0d9d0fa09c43e74a39309c", "lon": -77.017795}, {"is_reserved": 0, "fusion_lon": 0.0, "fusion_lat": 0.0, "name": "e04b7bff27c4c3fb356683f6cab49f60", "type": "electric_bike", "is_disabled": 0, "lat": 38.86581416666667, "rental_uris": {"android": "https://dc.lft.to/lastmile_qr_scan", "ios": "https://dc.lft.to/lastmile_qr_scan"}, "bike_id": "e04b7bff27c4c3fb356683f6cab49f60", "lon": -77.04760583333334}, {"is_reserved": 0, "fusion_lon": 0.0, "fusion_lat": 0.0, "name": "ae11ec7f8afb31c5e07b3808d38d6a9a", "type": "electric_scooter", "is_disabled": 0, "lat": 38.909593, "rental_uris": {"android": "https://dc.lft.to/lastmile_qr_scan", "ios": "https://dc.lft.to/lastmile_qr_scan"}, "bike_id": "ae11ec7f8afb31c5e07b3808d38d6a9a", "lon": -77.04010416666667}, {"is_reserved": 0, "fusion_lon": 0.0, "fusion_lat": 0.0, "name": "c558db866bb60d4250d0952adf0cb252", "type": "electric_scooter", "is_disabled": 0, "lat": 38.91119966666667, "rental_uris": {"android": "https://dc.lft.to/lastmile_qr_scan", "ios": "https://dc.lft.to/lastmile_qr_scan"}, "bike_id": "c558db866bb60d4250d0952adf0cb252", "lon": -77.02379416666666}, {"is_reserved": 0, "fusion_lon": 0.0, "fusion_lat": 0.0, "name": "84d1b4a0e7a66bcfc274f9f1af65d2f2", "type": "electric_scooter", "is_disabled": 0, "lat": 38.86384, "rental_uris": {"android": "https://dc.lft.to/lastmile_qr_scan", "ios": "https://dc.lft.to/lastmile_qr_scan"}, "bike_id": "84d1b4a0e7a66bcfc274f9f1af65d2f2", "lon": -76.98909216666667}, {"is_reserved": 0, "fusion_lon": 0.0, "fusion_lat": 0.0, "name": "9873e94deb954e382440edda12c1d4e0", "type": "electric_scooter", "is_disabled": 0, "lat": 38.93529, "rental_uris": {"android": "https://dc.lft.to/lastmile_qr_scan", "ios": "https://dc.lft.to/lastmile_qr_scan"}, "bike_id": "9873e94deb954e382440edda12c1d4e0", "lon": -77.02364883333334}, {"is_reserved": 0, "fusion_lon": 0.0, "fusion_lat": 0.0, "name": "5b818824b9c005818d0f67dfd55e9a91", "type": "electric_bike", "is_disabled": 0, "lat": 38.86519666666667, "rental_uris": {"android": "https://dc.lft.to/lastmile_qr_scan", "ios": "https://dc.lft.to/lastmile_qr_scan"}, "bike_id": "5b818824b9c005818d0f67dfd55e9a91", "lon": -76.97336933333334}, {"is_reserved": 0, "fusion_lon": 0.0, "fusion_lat": 0.0, "name": "f8257b015a208d94a3f0a2cb5f26ec9d", "type": "electric_scooter", "is_disabled": 0, "lat": 38.887471833333336, "rental_uris": {"android": "https://dc.lft.to/lastmile_qr_scan", "ios": "https://dc.lft.to/lastmile_qr_scan"}, "bike_id": "f8257b015a208d94a3f0a2cb5f26ec9d", "lon": -77.02738683333334}, {"is_reserved": 0, "fusion_lon": 0.0, "fusion_lat": 0.0, "name": "cfa16b73cb0b804c943e7a3a2942160d", "type": "electric_scooter", "is_disabled": 0, "lat": 38.93861233333333, "rental_uris": {"android": "https://dc.lft.to/lastmile_qr_scan", "ios": "https://dc.lft.to/lastmile_qr_scan"}, "bike_id": "cfa16b73cb0b804c943e7a3a2942160d", "lon": -77.026485}, {"is_reserved": 0, "fusion_lon": 0.0, "fusion_lat": 0.0, "name": "d4e861433d8ef4a76b0d25c388a5e39d", "type": "electric_scooter", "is_disabled": 0, "lat": 38.91676366666667, "rental_uris": {"android": "https://dc.lft.to/lastmile_qr_scan", "ios": "https://dc.lft.to/lastmile_qr_scan"}, "bike_id": "d4e861433d8ef4a76b0d25c388a5e39d", "lon": -77.02980516666666}, {"is_reserved": 0, "fusion_lon": 0.0, "fusion_lat": 0.0, "name": "0704253cde8f84d61ae0d64fe181dca9", "type": "electric_scooter", "is_disabled": 0, "lat": 38.90984783333333, "rental_uris": {"android": "https://dc.lft.to/lastmile_qr_scan", "ios": "https://dc.lft.to/lastmile_qr_scan"}, "bike_id": "0704253cde8f84d61ae0d64fe181dca9", "lon": -77.0425885}, {"is_reserved": 0, "fusion_lon": 0.0, "fusion_lat": 0.0, "name": "468781547c5418513b454a88e1c8d580", "type": "electric_scooter", "is_disabled": 0, "lat": 38.926618, "rental_uris": {"android": "https://dc.lft.to/lastmile_qr_scan", "ios": "https://dc.lft.to/lastmile_qr_scan"}, "bike_id": "468781547c5418513b454a88e1c8d580", "lon": -76.9953855}, {"is_reserved": 0, "fusion_lon": 0.0, "fusion_lat": 0.0, "name": "7b77d5389be93d0107bd84ac6a3836a1", "type": "electric_scooter", "is_disabled": 0, "lat": 38.94198733333333, "rental_uris": {"android": "https://dc.lft.to/lastmile_qr_scan", "ios": "https://dc.lft.to/lastmile_qr_scan"}, "bike_id": "7b77d5389be93d0107bd84ac6a3836a1", "lon": -77.0250535}, {"is_reserved": 0, "fusion_lon": 0.0, "fusion_lat": 0.0, "name": "8480193588b2f8d962ac878d2014e7f5", "type": "electric_scooter", "is_disabled": 0, "lat": 38.91246833333334, "rental_uris": {"android": "https://dc.lft.to/lastmile_qr_scan", "ios": "https://dc.lft.to/lastmile_qr_scan"}, "bike_id": "8480193588b2f8d962ac878d2014e7f5", "lon": -77.03121866666666}, {"is_reserved": 0, "fusion_lon": 0.0, "fusion_lat": 0.0, "name": "5a0ccc3ca1c719fc76ebdf2d23f29ce1", "type": "electric_scooter", "is_disabled": 0, "lat": 38.9208685, "rental_uris": {"android": "https://dc.lft.to/lastmile_qr_scan", "ios": "https://dc.lft.to/lastmile_qr_scan"}, "bike_id": "5a0ccc3ca1c719fc76ebdf2d23f29ce1", "lon": -77.03169066666666}, {"is_reserved": 0, "fusion_lon": 0.0, "fusion_lat": 0.0, "name": "678bd4c7658e7b81bf0a8bf850d6fcf8", "type": "electric_scooter", "is_disabled": 0, "lat": 38.9001845, "rental_uris": {"android": "https://dc.lft.to/lastmile_qr_scan", "ios": "https://dc.lft.to/lastmile_qr_scan"}, "bike_id": "678bd4c7658e7b81bf0a8bf850d6fcf8", "lon": -77.01176333333333}, {"is_reserved": 0, "fusion_lon": 0.0, "fusion_lat": 0.0, "name": "0dc75d3f9b89a1624348c5550deb498e", "type": "electric_scooter", "is_disabled": 0, "lat": 38.917699, "rental_uris": {"android": "https://dc.lft.to/lastmile_qr_scan", "ios": "https://dc.lft.to/lastmile_qr_scan"}, "bike_id": "0dc75d3f9b89a1624348c5550deb498e", "lon": -77.04768216666666}, {"is_reserved": 0, "fusion_lon": 0.0, "fusion_lat": 0.0, "name": "c89b65bfdb40109dcd8ea2b672bb799d", "type": "electric_scooter", "is_disabled": 0, "lat": 38.900221, "rental_uris": {"android": "https://dc.lft.to/lastmile_qr_scan", "ios": "https://dc.lft.to/lastmile_qr_scan"}, "bike_id": "c89b65bfdb40109dcd8ea2b672bb799d", "lon": -77.01182166666666}, {"is_reserved": 0, "fusion_lon": 0.0, "fusion_lat": 0.0, "name": "484793102840e4f51681077db5d7b7b0", "type": "electric_scooter", "is_disabled": 0, "lat": 38.897971166666665, "rental_uris": {"android": "https://dc.lft.to/lastmile_qr_scan", "ios": "https://dc.lft.to/lastmile_qr_scan"}, "bike_id": "484793102840e4f51681077db5d7b7b0", "lon": -77.04000416666666}, {"is_reserved": 0, "fusion_lon": 0.0, "fusion_lat": 0.0, "name": "ea3e18b1b0fccb307a1277984e65c357", "type": "electric_scooter", "is_disabled": 0, "lat": 38.9348165, "rental_uris": {"android": "https://dc.lft.to/lastmile_qr_scan", "ios": "https://dc.lft.to/lastmile_qr_scan"}, "bike_id": "ea3e18b1b0fccb307a1277984e65c357", "lon": -77.06481366666667}, {"is_reserved": 0, "fusion_lon": 0.0, "fusion_lat": 0.0, "name": "1831ec6aaf8c5c0969adcff6a847f3e9", "type": "electric_scooter", "is_disabled": 0, "lat": 38.90796266666667, "rental_uris": {"android": "https://dc.lft.to/lastmile_qr_scan", "ios": "https://dc.lft.to/lastmile_qr_scan"}, "bike_id": "1831ec6aaf8c5c0969adcff6a847f3e9", "lon": -77.038229}, {"is_reserved": 0, "fusion_lon": 0.0, "fusion_lat": 0.0, "name": "04800042bbd08e44c0f334608cf7bb69", "type": "electric_scooter", "is_disabled": 0, "lat": 38.952005166666666, "rental_uris": {"android": "https://dc.lft.to/lastmile_qr_scan", "ios": "https://dc.lft.to/lastmile_qr_scan"}, "bike_id": "04800042bbd08e44c0f334608cf7bb69", "lon": -77.0273215}, {"is_reserved": 0, "fusion_lon": 0.0, "fusion_lat": 0.0, "name": "af668c28cb4c03e8c42b24462b0aac3b", "type": "electric_scooter", "is_disabled": 0, "lat": 38.875417166666665, "rental_uris": {"android": "https://dc.lft.to/lastmile_qr_scan", "ios": "https://dc.lft.to/lastmile_qr_scan"}, "bike_id": "af668c28cb4c03e8c42b24462b0aac3b", "lon": -77.0062265}, {"is_reserved": 0, "fusion_lon": 0.0, "fusion_lat": 0.0, "name": "6172a4ed2170c5911acc6287ddebd396", "type": "electric_scooter", "is_disabled": 0, "lat": 38.907155833333334, "rental_uris": {"android": "https://dc.lft.to/lastmile_qr_scan", "ios": "https://dc.lft.to/lastmile_qr_scan"}, "bike_id": "6172a4ed2170c5911acc6287ddebd396", "lon": -77.0481105}, {"is_reserved": 0, "fusion_lon": 0.0, "fusion_lat": 0.0, "name": "607a46f5f726168c8bcb77830c1bd6d2", "type": "electric_scooter", "is_disabled": 0, "lat": 38.91799683333333, "rental_uris": {"android": "https://dc.lft.to/lastmile_qr_scan", "ios": "https://dc.lft.to/lastmile_qr_scan"}, "bike_id": "607a46f5f726168c8bcb77830c1bd6d2", "lon": -77.03186183333334}, {"is_reserved": 0, "fusion_lon": 0.0, "fusion_lat": 0.0, "name": "0aeb2fc19a8ba1fb23d7523d1ee57995", "type": "electric_scooter", "is_disabled": 0, "lat": 38.901179, "rental_uris": {"android": "https://dc.lft.to/lastmile_qr_scan", "ios": "https://dc.lft.to/lastmile_qr_scan"}, "bike_id": "0aeb2fc19a8ba1fb23d7523d1ee57995", "lon": -77.04026866666666}, {"is_reserved": 0, "fusion_lon": 0.0, "fusion_lat": 0.0, "name": "d0aa2e876985873c91bdf45c607e2a63", "type": "electric_scooter", "is_disabled": 0, "lat": 38.903288, "rental_uris": {"android": "https://dc.lft.to/lastmile_qr_scan", "ios": "https://dc.lft.to/lastmile_qr_scan"}, "bike_id": "d0aa2e876985873c91bdf45c607e2a63", "lon": -77.00578633333333}, {"is_reserved": 0, "fusion_lon": 0.0, "fusion_lat": 0.0, "name": "1f73c57d71b1644c296fd421f5ba91ef", "type": "electric_scooter", "is_disabled": 0, "lat": 38.9097465, "rental_uris": {"android": "https://dc.lft.to/lastmile_qr_scan", "ios": "https://dc.lft.to/lastmile_qr_scan"}, "bike_id": "1f73c57d71b1644c296fd421f5ba91ef", "lon": -77.03856}, {"is_reserved": 0, "fusion_lon": 0.0, "fusion_lat": 0.0, "name": "5391ed0062ba07f9c8af2ef9538a58dc", "type": "electric_scooter", "is_disabled": 0, "lat": 38.89014816666667, "rental_uris": {"android": "https://dc.lft.to/lastmile_qr_scan", "ios": "https://dc.lft.to/lastmile_qr_scan"}, "bike_id": "5391ed0062ba07f9c8af2ef9538a58dc", "lon": -76.93732166666666}, {"is_reserved": 0, "fusion_lon": 0.0, "fusion_lat": 0.0, "name": "782fcd2b1e3f7d9feb0fe4c9bd824473", "type": "electric_scooter", "is_disabled": 0, "lat": 38.91858783333333, "rental_uris": {"android": "https://dc.lft.to/lastmile_qr_scan", "ios": "https://dc.lft.to/lastmile_qr_scan"}, "bike_id": "782fcd2b1e3f7d9feb0fe4c9bd824473", "lon": -77.0445625}, {"is_reserved": 0, "fusion_lon": 0.0, "fusion_lat": 0.0, "name": "84a371edbe82fd1f5c541fc6e43647a7", "type": "electric_scooter", "is_disabled": 0, "lat": 38.913753, "rental_uris": {"android": "https://dc.lft.to/lastmile_qr_scan", "ios": "https://dc.lft.to/lastmile_qr_scan"}, "bike_id": "84a371edbe82fd1f5c541fc6e43647a7", "lon": -77.04134966666666}, {"is_reserved": 0, "fusion_lon": 0.0, "fusion_lat": 0.0, "name": "ae9e91cffb735ae229954718194c2a5e", "type": "electric_scooter", "is_disabled": 0, "lat": 38.907172333333335, "rental_uris": {"android": "https://dc.lft.to/lastmile_qr_scan", "ios": "https://dc.lft.to/lastmile_qr_scan"}, "bike_id": "ae9e91cffb735ae229954718194c2a5e", "lon": -77.08210383333333}, {"is_reserved": 0, "fusion_lon": 0.0, "fusion_lat": 0.0, "name": "b7ff1f31178ad791a9d724cd966e4991", "type": "electric_scooter", "is_disabled": 0, "lat": 38.9294645, "rental_uris": {"android": "https://dc.lft.to/lastmile_qr_scan", "ios": "https://dc.lft.to/lastmile_qr_scan"}, "bike_id": "b7ff1f31178ad791a9d724cd966e4991", "lon": -77.02784883333334}, {"is_reserved": 0, "fusion_lon": 0.0, "fusion_lat": 0.0, "name": "bea329d820d52c67ad454830ecf26354", "type": "electric_scooter", "is_disabled": 0, "lat": 38.917920333333335, "rental_uris": {"android": "https://dc.lft.to/lastmile_qr_scan", "ios": "https://dc.lft.to/lastmile_qr_scan"}, "bike_id": "bea329d820d52c67ad454830ecf26354", "lon": -77.032049}, {"is_reserved": 0, "fusion_lon": 0.0, "fusion_lat": 0.0, "name": "e80f427d2770de2183e7b9699beae5c9", "type": "electric_scooter", "is_disabled": 0, "lat": 38.91694583333334, "rental_uris": {"android": "https://dc.lft.to/lastmile_qr_scan", "ios": "https://dc.lft.to/lastmile_qr_scan"}, "bike_id": "e80f427d2770de2183e7b9699beae5c9", "lon": -77.025974}, {"is_reserved": 0, "fusion_lon": 0.0, "fusion_lat": 0.0, "name": "dc1ac7cde36b66085aed90b75281a371", "type": "electric_scooter", "is_disabled": 0, "lat": 38.92717283333333, "rental_uris": {"android": "https://dc.lft.to/lastmile_qr_scan", "ios": "https://dc.lft.to/lastmile_qr_scan"}, "bike_id": "dc1ac7cde36b66085aed90b75281a371", "lon": -77.03992766666667}, {"is_reserved": 0, "fusion_lon": 0.0, "fusion_lat": 0.0, "name": "c72ba4a82ba004b98d76ccb9a18dc2fa", "type": "electric_scooter", "is_disabled": 0, "lat": 38.9063095, "rental_uris": {"android": "https://dc.lft.to/lastmile_qr_scan", "ios": "https://dc.lft.to/lastmile_qr_scan"}, "bike_id": "c72ba4a82ba004b98d76ccb9a18dc2fa", "lon": -77.06917616666667}, {"is_reserved": 0, "fusion_lon": 0.0, "fusion_lat": 0.0, "name": "3e39b8c77ad0476afa24cde5adfd8f6a", "type": "electric_bike", "is_disabled": 0, "lat": 38.872767833333334, "rental_uris": {"android": "https://dc.lft.to/lastmile_qr_scan", "ios": "https://dc.lft.to/lastmile_qr_scan"}, "bike_id": "3e39b8c77ad0476afa24cde5adfd8f6a", "lon": -77.233273}, {"is_reserved": 0, "fusion_lon": 0.0, "fusion_lat": 0.0, "name": "5e986b09ef2b824d96bec9ebe5500a1c", "type": "electric_scooter", "is_disabled": 0, "lat": 38.901208833333335, "rental_uris": {"android": "https://dc.lft.to/lastmile_qr_scan", "ios": "https://dc.lft.to/lastmile_qr_scan"}, "bike_id": "5e986b09ef2b824d96bec9ebe5500a1c", "lon": -77.0401645}, {"is_reserved": 0, "fusion_lon": 0.0, "fusion_lat": 0.0, "name": "b30eba9c7d616d62aeb21ee488871582", "type": "electric_scooter", "is_disabled": 0, "lat": 38.908208, "rental_uris": {"android": "https://dc.lft.to/lastmile_qr_scan", "ios": "https://dc.lft.to/lastmile_qr_scan"}, "bike_id": "b30eba9c7d616d62aeb21ee488871582", "lon": -76.9415695}, {"is_reserved": 0, "fusion_lon": 0.0, "fusion_lat": 0.0, "name": "099c750a034c600521ee255886b7eb7c", "type": "electric_scooter", "is_disabled": 0, "lat": 38.90586033333334, "rental_uris": {"android": "https://dc.lft.to/lastmile_qr_scan", "ios": "https://dc.lft.to/lastmile_qr_scan"}, "bike_id": "099c750a034c600521ee255886b7eb7c", "lon": -76.9930455}, {"is_reserved": 0, "fusion_lon": 0.0, "fusion_lat": 0.0, "name": "741a52076f97cbeb6b85d701ce252ce1", "type": "electric_scooter", "is_disabled": 0, "lat": 38.90545316666667, "rental_uris": {"android": "https://dc.lft.to/lastmile_qr_scan", "ios": "https://dc.lft.to/lastmile_qr_scan"}, "bike_id": "741a52076f97cbeb6b85d701ce252ce1", "lon": -77.00302433333333}, {"is_reserved": 0, "fusion_lon": 0.0, "fusion_lat": 0.0, "name": "cf8ffce4522f705a0b8f5e07bd27d0e9", "type": "electric_scooter", "is_disabled": 0, "lat": 38.92501133333333, "rental_uris": {"android": "https://dc.lft.to/lastmile_qr_scan", "ios": "https://dc.lft.to/lastmile_qr_scan"}, "bike_id": "cf8ffce4522f705a0b8f5e07bd27d0e9", "lon": -77.02357516666666}, {"is_reserved": 0, "fusion_lon": 0.0, "fusion_lat": 0.0, "name": "17ceafad6fabd882bf105d31aa1a3758", "type": "electric_scooter", "is_disabled": 0, "lat": 38.90776616666667, "rental_uris": {"android": "https://dc.lft.to/lastmile_qr_scan", "ios": "https://dc.lft.to/lastmile_qr_scan"}, "bike_id": "17ceafad6fabd882bf105d31aa1a3758", "lon": -77.0725675}, {"is_reserved": 0, "fusion_lon": 0.0, "fusion_lat": 0.0, "name": "d8fe094ff732dc84dde51fd31ca2afbd", "type": "electric_scooter", "is_disabled": 0, "lat": 38.901614333333335, "rental_uris": {"android": "https://dc.lft.to/lastmile_qr_scan", "ios": "https://dc.lft.to/lastmile_qr_scan"}, "bike_id": "d8fe094ff732dc84dde51fd31ca2afbd", "lon": -77.06010433333333}, {"is_reserved": 0, "fusion_lon": 0.0, "fusion_lat": 0.0, "name": "e58b08be7d2071d36df6f0948b057112", "type": "electric_scooter", "is_disabled": 0, "lat": 38.909806833333334, "rental_uris": {"android": "https://dc.lft.to/lastmile_qr_scan", "ios": "https://dc.lft.to/lastmile_qr_scan"}, "bike_id": "e58b08be7d2071d36df6f0948b057112", "lon": -77.03863216666667}, {"is_reserved": 0, "fusion_lon": 0.0, "fusion_lat": 0.0, "name": "ae7a1da40fc5c9adffd076110fb84789", "type": "electric_scooter", "is_disabled": 0, "lat": 38.905050833333334, "rental_uris": {"android": "https://dc.lft.to/lastmile_qr_scan", "ios": "https://dc.lft.to/lastmile_qr_scan"}, "bike_id": "ae7a1da40fc5c9adffd076110fb84789", "lon": -77.04841783333333}, {"is_reserved": 0, "fusion_lon": 0.0, "fusion_lat": 0.0, "name": "501ff7e062cbc9702ad3bb2d6109bf48", "type": "electric_scooter", "is_disabled": 0, "lat": 38.89546633333333, "rental_uris": {"android": "https://dc.lft.to/lastmile_qr_scan", "ios": "https://dc.lft.to/lastmile_qr_scan"}, "bike_id": "501ff7e062cbc9702ad3bb2d6109bf48", "lon": -76.94872383333333}, {"is_reserved": 0, "fusion_lon": 0.0, "fusion_lat": 0.0, "name": "8d8714397a97a363e9b31263ed91e7c1", "type": "electric_scooter", "is_disabled": 0, "lat": 38.923291, "rental_uris": {"android": "https://dc.lft.to/lastmile_qr_scan", "ios": "https://dc.lft.to/lastmile_qr_scan"}, "bike_id": "8d8714397a97a363e9b31263ed91e7c1", "lon": -77.041804}, {"is_reserved": 0, "fusion_lon": 0.0, "fusion_lat": 0.0, "name": "11289540a4d569202093864b7a2beeb3", "type": "electric_scooter", "is_disabled": 0, "lat": 38.98455083333333, "rental_uris": {"android": "https://dc.lft.to/lastmile_qr_scan", "ios": "https://dc.lft.to/lastmile_qr_scan"}, "bike_id": "11289540a4d569202093864b7a2beeb3", "lon": -77.02642983333334}, {"is_reserved": 0, "fusion_lon": 0.0, "fusion_lat": 0.0, "name": "39ac6fe30540f87b5f52db1155a92327", "type": "electric_scooter", "is_disabled": 0, "lat": 38.93229683333333, "rental_uris": {"android": "https://dc.lft.to/lastmile_qr_scan", "ios": "https://dc.lft.to/lastmile_qr_scan"}, "bike_id": "39ac6fe30540f87b5f52db1155a92327", "lon": -77.038668}, {"is_reserved": 0, "fusion_lon": 0.0, "fusion_lat": 0.0, "name": "4d48b44a38be611ab8e314de8dfa9609", "type": "electric_scooter", "is_disabled": 0, "lat": 38.921049833333335, "rental_uris": {"android": "https://dc.lft.to/lastmile_qr_scan", "ios": "https://dc.lft.to/lastmile_qr_scan"}, "bike_id": "4d48b44a38be611ab8e314de8dfa9609", "lon": -77.04115933333334}, {"is_reserved": 0, "fusion_lon": 0.0, "fusion_lat": 0.0, "name": "9eb7681a72f98dffee8d4030eed957e8", "type": "electric_scooter", "is_disabled": 0, "lat": 38.8872385, "rental_uris": {"android": "https://dc.lft.to/lastmile_qr_scan", "ios": "https://dc.lft.to/lastmile_qr_scan"}, "bike_id": "9eb7681a72f98dffee8d4030eed957e8", "lon": -77.02817916666666}, {"is_reserved": 0, "fusion_lon": 0.0, "fusion_lat": 0.0, "name": "a84e8967cc096f5ed9429cb339b7810c", "type": "electric_bike", "is_disabled": 0, "lat": 39.05282366666667, "rental_uris": {"android": "https://dc.lft.to/lastmile_qr_scan", "ios": "https://dc.lft.to/lastmile_qr_scan"}, "bike_id": "a84e8967cc096f5ed9429cb339b7810c", "lon": -77.08071983333333}, {"is_reserved": 0, "fusion_lon": 0.0, "fusion_lat": 0.0, "name": "42b15299c7b60bfa51bcabd0ed8ce4b5", "type": "electric_scooter", "is_disabled": 0, "lat": 38.916210166666666, "rental_uris": {"android": "https://dc.lft.to/lastmile_qr_scan", "ios": "https://dc.lft.to/lastmile_qr_scan"}, "bike_id": "42b15299c7b60bfa51bcabd0ed8ce4b5", "lon": -77.03155733333334}, {"is_reserved": 0, "fusion_lon": 0.0, "fusion_lat": 0.0, "name": "15d246268fe74fb8e34defc42f0a7836", "type": "electric_scooter", "is_disabled": 0, "lat": 38.878307666666664, "rental_uris": {"android": "https://dc.lft.to/lastmile_qr_scan", "ios": "https://dc.lft.to/lastmile_qr_scan"}, "bike_id": "15d246268fe74fb8e34defc42f0a7836", "lon": -76.96306216666666}, {"is_reserved": 0, "fusion_lon": 0.0, "fusion_lat": 0.0, "name": "ae63ca503bd165be1c29cd8cc51b7864", "type": "electric_scooter", "is_disabled": 0, "lat": 38.866611166666665, "rental_uris": {"android": "https://dc.lft.to/lastmile_qr_scan", "ios": "https://dc.lft.to/lastmile_qr_scan"}, "bike_id": "ae63ca503bd165be1c29cd8cc51b7864", "lon": -76.98882783333333}, {"is_reserved": 0, "fusion_lon": 0.0, "fusion_lat": 0.0, "name": "ccbf90fbaeaa8ae142b9854e5f7a4cbd", "type": "electric_scooter", "is_disabled": 0, "lat": 38.9024145, "rental_uris": {"android": "https://dc.lft.to/lastmile_qr_scan", "ios": "https://dc.lft.to/lastmile_qr_scan"}, "bike_id": "ccbf90fbaeaa8ae142b9854e5f7a4cbd", "lon": -76.99556683333333}, {"is_reserved": 0, "fusion_lon": 0.0, "fusion_lat": 0.0, "name": "a9069501c6d3c02eba002f98d362f140", "type": "electric_scooter", "is_disabled": 0, "lat": 38.86999516666667, "rental_uris": {"android": "https://dc.lft.to/lastmile_qr_scan", "ios": "https://dc.lft.to/lastmile_qr_scan"}, "bike_id": "a9069501c6d3c02eba002f98d362f140", "lon": -76.97587216666666}, {"is_reserved": 0, "fusion_lon": 0.0, "fusion_lat": 0.0, "name": "f69008d0a2f5801640b8f2c77926c63e", "type": "electric_scooter", "is_disabled": 0, "lat": 38.9053855, "rental_uris": {"android": "https://dc.lft.to/lastmile_qr_scan", "ios": "https://dc.lft.to/lastmile_qr_scan"}, "bike_id": "f69008d0a2f5801640b8f2c77926c63e", "lon": -77.00605566666667}, {"is_reserved": 0, "fusion_lon": 0.0, "fusion_lat": 0.0, "name": "600ca39dfa4c6a4ccca7a970b6f30223", "type": "electric_scooter", "is_disabled": 0, "lat": 38.89841416666667, "rental_uris": {"android": "https://dc.lft.to/lastmile_qr_scan", "ios": "https://dc.lft.to/lastmile_qr_scan"}, "bike_id": "600ca39dfa4c6a4ccca7a970b6f30223", "lon": -77.0243085}, {"is_reserved": 0, "fusion_lon": 0.0, "fusion_lat": 0.0, "name": "a85eb41e1ca450e0d96cd0d7df02a76e", "type": "electric_scooter", "is_disabled": 0, "lat": 38.89615083333333, "rental_uris": {"android": "https://dc.lft.to/lastmile_qr_scan", "ios": "https://dc.lft.to/lastmile_qr_scan"}, "bike_id": "a85eb41e1ca450e0d96cd0d7df02a76e", "lon": -77.029918}, {"is_reserved": 0, "fusion_lon": 0.0, "fusion_lat": 0.0, "name": "bee39a711a9136db1642faefc81878cf", "type": "electric_scooter", "is_disabled": 0, "lat": 38.871809666666664, "rental_uris": {"android": "https://dc.lft.to/lastmile_qr_scan", "ios": "https://dc.lft.to/lastmile_qr_scan"}, "bike_id": "bee39a711a9136db1642faefc81878cf", "lon": -77.00598183333334}, {"is_reserved": 0, "fusion_lon": 0.0, "fusion_lat": 0.0, "name": "bb0ae175902f4d644f328ebb4229ce99", "type": "electric_scooter", "is_disabled": 0, "lat": 38.951824333333334, "rental_uris": {"android": "https://dc.lft.to/lastmile_qr_scan", "ios": "https://dc.lft.to/lastmile_qr_scan"}, "bike_id": "bb0ae175902f4d644f328ebb4229ce99", "lon": -77.0272955}, {"is_reserved": 0, "fusion_lon": 0.0, "fusion_lat": 0.0, "name": "044a253d40a47cc2f57045fdc139290a", "type": "electric_bike", "is_disabled": 0, "lat": 38.968075166666665, "rental_uris": {"android": "https://dc.lft.to/lastmile_qr_scan", "ios": "https://dc.lft.to/lastmile_qr_scan"}, "bike_id": "044a253d40a47cc2f57045fdc139290a", "lon": -77.07224983333333}, {"is_reserved": 0, "fusion_lon": 0.0, "fusion_lat": 0.0, "name": "07e66221672f95df5913f23ec045767c", "type": "electric_scooter", "is_disabled": 0, "lat": 38.92339416666667, "rental_uris": {"android": "https://dc.lft.to/lastmile_qr_scan", "ios": "https://dc.lft.to/lastmile_qr_scan"}, "bike_id": "07e66221672f95df5913f23ec045767c", "lon": -77.05089366666667}, {"is_reserved": 0, "fusion_lon": 0.0, "fusion_lat": 0.0, "name": "cff83fce6cbbc302f1c0ffb3176c9a19", "type": "electric_scooter", "is_disabled": 0, "lat": 38.9003335, "rental_uris": {"android": "https://dc.lft.to/lastmile_qr_scan", "ios": "https://dc.lft.to/lastmile_qr_scan"}, "bike_id": "cff83fce6cbbc302f1c0ffb3176c9a19", "lon": -76.9960985}, {"is_reserved": 0, "fusion_lon": 0.0, "fusion_lat": 0.0, "name": "a889cd5e39a708ab064ed9165bc406e8", "type": "electric_scooter", "is_disabled": 0, "lat": 38.9155265, "rental_uris": {"android": "https://dc.lft.to/lastmile_qr_scan", "ios": "https://dc.lft.to/lastmile_qr_scan"}, "bike_id": "a889cd5e39a708ab064ed9165bc406e8", "lon": -77.02210833333334}, {"is_reserved": 0, "fusion_lon": 0.0, "fusion_lat": 0.0, "name": "53fa679e1ef858496c04fe8380d3a2fe", "type": "electric_scooter", "is_disabled": 0, "lat": 38.923701333333334, "rental_uris": {"android": "https://dc.lft.to/lastmile_qr_scan", "ios": "https://dc.lft.to/lastmile_qr_scan"}, "bike_id": "53fa679e1ef858496c04fe8380d3a2fe", "lon": -77.0303045}, {"is_reserved": 0, "fusion_lon": 0.0, "fusion_lat": 0.0, "name": "30de3921332d56aeedffe104905f6127", "type": "electric_scooter", "is_disabled": 0, "lat": 38.93151316666667, "rental_uris": {"android": "https://dc.lft.to/lastmile_qr_scan", "ios": "https://dc.lft.to/lastmile_qr_scan"}, "bike_id": "30de3921332d56aeedffe104905f6127", "lon": -77.0784605}, {"is_reserved": 0, "fusion_lon": 0.0, "fusion_lat": 0.0, "name": "52c0bb00b953b81c54d5829b8e3f6718", "type": "electric_scooter", "is_disabled": 0, "lat": 38.917165833333335, "rental_uris": {"android": "https://dc.lft.to/lastmile_qr_scan", "ios": "https://dc.lft.to/lastmile_qr_scan"}, "bike_id": "52c0bb00b953b81c54d5829b8e3f6718", "lon": -77.03857783333333}, {"is_reserved": 0, "fusion_lon": 0.0, "fusion_lat": 0.0, "name": "17aadb4537cddaecfcb3b9717d659989", "type": "electric_scooter", "is_disabled": 0, "lat": 38.93314216666667, "rental_uris": {"android": "https://dc.lft.to/lastmile_qr_scan", "ios": "https://dc.lft.to/lastmile_qr_scan"}, "bike_id": "17aadb4537cddaecfcb3b9717d659989", "lon": -77.0296395}, {"is_reserved": 0, "fusion_lon": 0.0, "fusion_lat": 0.0, "name": "e7a976907153b12687a18276dec3c514", "type": "electric_bike", "is_disabled": 0, "lat": 38.9450275, "rental_uris": {"android": "https://dc.lft.to/lastmile_qr_scan", "ios": "https://dc.lft.to/lastmile_qr_scan"}, "bike_id": "e7a976907153b12687a18276dec3c514", "lon": -77.0067445}, {"is_reserved": 0, "fusion_lon": 0.0, "fusion_lat": 0.0, "name": "ca1698a07bb377792c547b63adb601ca", "type": "electric_scooter", "is_disabled": 0, "lat": 38.904391333333336, "rental_uris": {"android": "https://dc.lft.to/lastmile_qr_scan", "ios": "https://dc.lft.to/lastmile_qr_scan"}, "bike_id": "ca1698a07bb377792c547b63adb601ca", "lon": -76.98491966666667}, {"is_reserved": 0, "fusion_lon": 0.0, "fusion_lat": 0.0, "name": "fb21b4f119bba004bd0c1af8518128f7", "type": "electric_scooter", "is_disabled": 0, "lat": 38.921370833333334, "rental_uris": {"android": "https://dc.lft.to/lastmile_qr_scan", "ios": "https://dc.lft.to/lastmile_qr_scan"}, "bike_id": "fb21b4f119bba004bd0c1af8518128f7", "lon": -77.04523266666666}, {"is_reserved": 0, "fusion_lon": 0.0, "fusion_lat": 0.0, "name": "35bd364cca0514a787508cbe1e15b25c", "type": "electric_scooter", "is_disabled": 0, "lat": 38.93023683333333, "rental_uris": {"android": "https://dc.lft.to/lastmile_qr_scan", "ios": "https://dc.lft.to/lastmile_qr_scan"}, "bike_id": "35bd364cca0514a787508cbe1e15b25c", "lon": -77.063089}, {"is_reserved": 0, "fusion_lon": 0.0, "fusion_lat": 0.0, "name": "e8565d2e77e03d0c5f91d85bdf4355a5", "type": "electric_scooter", "is_disabled": 0, "lat": 38.90218383333333, "rental_uris": {"android": "https://dc.lft.to/lastmile_qr_scan", "ios": "https://dc.lft.to/lastmile_qr_scan"}, "bike_id": "e8565d2e77e03d0c5f91d85bdf4355a5", "lon": -77.0483125}, {"is_reserved": 0, "fusion_lon": 0.0, "fusion_lat": 0.0, "name": "340425453e3b0859ce6bba66275e6c2d", "type": "electric_scooter", "is_disabled": 0, "lat": 38.92179733333333, "rental_uris": {"android": "https://dc.lft.to/lastmile_qr_scan", "ios": "https://dc.lft.to/lastmile_qr_scan"}, "bike_id": "340425453e3b0859ce6bba66275e6c2d", "lon": -77.0434525}, {"is_reserved": 0, "fusion_lon": 0.0, "fusion_lat": 0.0, "name": "f069ebfb367b3aad30bea121d93eaeed", "type": "electric_scooter", "is_disabled": 0, "lat": 38.91714983333333, "rental_uris": {"android": "https://dc.lft.to/lastmile_qr_scan", "ios": "https://dc.lft.to/lastmile_qr_scan"}, "bike_id": "f069ebfb367b3aad30bea121d93eaeed", "lon": -77.0386175}, {"is_reserved": 0, "fusion_lon": 0.0, "fusion_lat": 0.0, "name": "896cc4a81355a837eaf81458374f09e1", "type": "electric_scooter", "is_disabled": 0, "lat": 38.91099766666667, "rental_uris": {"android": "https://dc.lft.to/lastmile_qr_scan", "ios": "https://dc.lft.to/lastmile_qr_scan"}, "bike_id": "896cc4a81355a837eaf81458374f09e1", "lon": -77.02801966666667}, {"is_reserved": 0, "fusion_lon": 0.0, "fusion_lat": 0.0, "name": "e157a8cb7257dad9f0469301fe83a67d", "type": "electric_scooter", "is_disabled": 0, "lat": 38.922881333333336, "rental_uris": {"android": "https://dc.lft.to/lastmile_qr_scan", "ios": "https://dc.lft.to/lastmile_qr_scan"}, "bike_id": "e157a8cb7257dad9f0469301fe83a67d", "lon": -77.03657416666667}, {"is_reserved": 0, "fusion_lon": 0.0, "fusion_lat": 0.0, "name": "fe3756ef79d03c265795d2ff394626ad", "type": "electric_scooter", "is_disabled": 0, "lat": 38.87785316666667, "rental_uris": {"android": "https://dc.lft.to/lastmile_qr_scan", "ios": "https://dc.lft.to/lastmile_qr_scan"}, "bike_id": "fe3756ef79d03c265795d2ff394626ad", "lon": -76.99410816666666}, {"is_reserved": 0, "fusion_lon": 0.0, "fusion_lat": 0.0, "name": "9f998157eedd4e537a42c5dd010d4e46", "type": "electric_scooter", "is_disabled": 0, "lat": 38.8855745, "rental_uris": {"android": "https://dc.lft.to/lastmile_qr_scan", "ios": "https://dc.lft.to/lastmile_qr_scan"}, "bike_id": "9f998157eedd4e537a42c5dd010d4e46", "lon": -76.997937}, {"is_reserved": 0, "fusion_lon": 0.0, "fusion_lat": 0.0, "name": "cd9bf27bce3b915887a737af08a96f28", "type": "electric_scooter", "is_disabled": 0, "lat": 38.93406, "rental_uris": {"android": "https://dc.lft.to/lastmile_qr_scan", "ios": "https://dc.lft.to/lastmile_qr_scan"}, "bike_id": "cd9bf27bce3b915887a737af08a96f28", "lon": -77.03259516666667}, {"is_reserved": 0, "fusion_lon": 0.0, "fusion_lat": 0.0, "name": "4f10e051aba74b26805473b5c5ae4863", "type": "electric_bike", "is_disabled": 0, "lat": 39.05047733333333, "rental_uris": {"android": "https://dc.lft.to/lastmile_qr_scan", "ios": "https://dc.lft.to/lastmile_qr_scan"}, "bike_id": "4f10e051aba74b26805473b5c5ae4863", "lon": -77.05151033333334}, {"is_reserved": 0, "fusion_lon": 0.0, "fusion_lat": 0.0, "name": "16856413474a13bd630ef3537464ecef", "type": "electric_bike", "is_disabled": 0, "lat": 38.832341666666665, "rental_uris": {"android": "https://dc.lft.to/lastmile_qr_scan", "ios": "https://dc.lft.to/lastmile_qr_scan"}, "bike_id": "16856413474a13bd630ef3537464ecef", "lon": -76.94619666666667}, {"is_reserved": 0, "fusion_lon": 0.0, "fusion_lat": 0.0, "name": "ab6285605031d05eb6d94471b596619f", "type": "electric_scooter", "is_disabled": 0, "lat": 38.897513000000004, "rental_uris": {"android": "https://dc.lft.to/lastmile_qr_scan", "ios": "https://dc.lft.to/lastmile_qr_scan"}, "bike_id": "ab6285605031d05eb6d94471b596619f", "lon": -77.04662216666667}, {"is_reserved": 0, "fusion_lon": 0.0, "fusion_lat": 0.0, "name": "6df8231c8784146f85b94e5e95507153", "type": "electric_scooter", "is_disabled": 0, "lat": 38.90204033333333, "rental_uris": {"android": "https://dc.lft.to/lastmile_qr_scan", "ios": "https://dc.lft.to/lastmile_qr_scan"}, "bike_id": "6df8231c8784146f85b94e5e95507153", "lon": -76.97607616666667},