{"data": {"bikes": [{"fusion_lat": 0.0, "name": "177e69c863021e0d4ddfb084073e209b", "is_disabled": 0, "rental_uris": {"android": "https://dc.lft.to/lastmile_qr_scan", "ios": "https://dc.lft.to/lastmile_qr_scan"}, "fusion_lon": 0.0, "lat": 38.895859, "bike_id": "177e69c863021e0d4ddfb084073e209b", "type": "electric_scooter", "is_reserved": 0, "lon": -77.0250995}, {"fusion_lat": 0.0, "name": "a8474ffcf42fcc188b90b8a76852a65c", "is_disabled": 0, "rental_uris": {"android": "https://dc.lft.to/lastmile_qr_scan", "ios": "https://dc.lft.to/lastmile_qr_scan"}, "fusion_lon": 0.0, "lat": 38.90453383333333, "bike_id": "a8474ffcf42fcc188b90b8a76852a65c", "type": "electric_scooter", "is_reserved": 0, "lon": -77.00173266666667}, {"fusion_lat": 0.0, "name": "69187a0557a78b77d57c5a515db729eb", "is_disabled": 0, "rental_uris": {"android": "https://dc.lft.to/lastmile_qr_scan", "ios": "https://dc.lft.to/lastmile_qr_scan"}, "fusion_lon": 0.0, "lat": 38.89680333333333, "bike_id": "69187a0557a78b77d57c5a515db729eb", "type": "electric_scooter", "is_reserved": 0, "lon": -77.00793266666666}, {"fusion_lat": 0.0, "name": "df82ae0e3652be33094d8d1c2ae4d795", "is_disabled": 0, "rental_uris": {"android": "https://dc.lft.to/lastmile_qr_scan", "ios": "https://dc.lft.to/lastmile_qr_scan"}, "fusion_lon": 0.0, "lat": 38.9115315, "bike_id": "df82ae0e3652be33094d8d1c2ae4d795", "type": "electric_scooter", "is_reserved": 0, "lon": -77.0200265}, {"fusion_lat": 0.0, "name": "d42d897e9ef52aa9a64d5245453594eb", "is_disabled": 0, "rental_uris": {"android": "https://dc.lft.to/lastmile_qr_scan", "ios": "https://dc.lft.to/lastmile_qr_scan"}, "fusion_lon": 0.0, "lat": 38.90001133333333, "bike_id": "d42d897e9ef52aa9a64d5245453594eb", "type": "electric_scooter", "is_reserved": 0, "lon": -77.00699966666667}, {"fusion_lat": 0.0, "name": "fae45a89dca637eef332b7d65b063bbb", "is_disabled": 0, "rental_uris": {"android": "https://dc.lft.to/lastmile_qr_scan", "ios": "https://dc.lft.to/lastmile_qr_scan"}, "fusion_lon": 0.0, "lat": 38.88524533333333, "bike_id": "fae45a89dca637eef332b7d65b063bbb", "type": "electric_scooter", "is_reserved": 0, "lon": -77.01519916666666}, {"fusion_lat": 0.0, "name": "51db48ec0736bc6b7d462cc75e7bee5a", "is_disabled": 0, "rental_uris": {"android": "https://dc.lft.to/lastmile_qr_scan", "ios": "https://dc.lft.to/lastmile_qr_scan"}, "fusion_lon": 0.0, "lat": 38.90422933333333, "bike_id": "51db48ec0736bc6b7d462cc75e7bee5a", "type": "electric_scooter", "is_reserved": 0, "lon": -76.94972533333333}, {"fusion_lat": 0.0, "name": "a2d15b978e53508f7cb2160db1a287c9", "is_disabled": 0, "rental_uris": {"android": "https://dc.lft.to/lastmile_qr_scan", "ios": "https://dc.lft.to/lastmile_qr_scan"}, "fusion_lon": 0.0, "lat": 38.9407295, "bike_id": "a2d15b978e53508f7cb2160db1a287c9", "type": "electric_scooter", "is_reserved": 0, "lon": -77.02397616666667}, {"fusion_lat": 0.0, "name": "b771871bc5a3b9c5ef022733fab0f5e0", "is_disabled": 0, "rental_uris": {"android": "https://dc.lft.to/lastmile_qr_scan", "ios": "https://dc.lft.to/lastmile_qr_scan"}, "fusion_lon": 0.0, "lat": 38.90956533333333, "bike_id": "b771871bc5a3b9c5ef022733fab0f5e0", "type": "electric_scooter", "is_reserved": 0, "lon": -77.010344}, {"fusion_lat": 0.0, "name": "421852632924bfc6cdaabef03cafbb7f", "is_disabled": 0, "rental_uris": {"android": "https://dc.lft.to/lastmile_qr_scan", "ios": "https://dc.lft.to/lastmile_qr_scan"}, "fusion_lon": 0.0, "lat": 38.88737483333333, "bike_id": "421852632924bfc6cdaabef03cafbb7f", "type": "electric_scooter", "is_reserved": 0, "lon": -77.015352}, {"fusion_lat": 0.0, "name": "1545e8c8bd58e91f01a91247493a1f29", "is_disabled": 0, "rental_uris": {"android": "https://dc.lft.to/lastmile_qr_scan", "ios": "https://dc.lft.to/lastmile_qr_scan"}, "fusion_lon": 0.0, "lat": 38.932503, "bike_id": "1545e8c8bd58e91f01a91247493a1f29", "type": "electric_scooter", "is_reserved": 0, "lon": -77.04010833333334}, {"fusion_lat": 0.0, "name": "9b026791fc0d8da733c811e7f6be978c", "is_disabled": 0, "rental_uris": {"android": "https://dc.lft.to/lastmile_qr_scan", "ios": "https://dc.lft.to/lastmile_qr_scan"}, "fusion_lon": 0.0, "lat": 38.9282575, "bike_id": "9b026791fc0d8da733c811e7f6be978c", "type": "electric_scooter", "is_reserved": 0, "lon": -77.02256283333334}, {"fusion_lat": 0.0, "name": "db9b4104503024ea507ec73ef2e32a29", "is_disabled": 0, "rental_uris": {"android": "https://dc.lft.to/lastmile_qr_scan", "ios": "https://dc.lft.to/lastmile_qr_scan"}, "fusion_lon": 0.0, "lat": 38.92490083333333, "bike_id": "db9b4104503024ea507ec73ef2e32a29", "type": "electric_scooter", "is_reserved": 0, "lon": -77.05754}, {"fusion_lat": 0.0, "name": "ce7a3306385ea9d9db561f1102983dd1", "is_disabled": 0, "rental_uris": {"android": "https://dc.lft.to/lastmile_qr_scan", "ios": "https://dc.lft.to/lastmile_qr_scan"}, "fusion_lon": 0.0, "lat": 38.930527, "bike_id": "ce7a3306385ea9d9db561f1102983dd1", "type": "electric_scooter", "is_reserved": 0, "lon": -77.03180766666667}, {"fusion_lat": 0.0, "name": "11dc5e64a4b1b2dcec7c648b13a3e3d6", "is_disabled": 0, "rental_uris": {"android": "https://dc.lft.to/lastmile_qr_scan", "ios": "https://dc.lft.to/lastmile_qr_scan"}, "fusion_lon": 0.0, "lat": 38.922558333333335, "bike_id": "11dc5e64a4b1b2dcec7c648b13a3e3d6", "type": "electric_scooter", "is_reserved": 0, "lon": -77.03521883333333}, {"fusion_lat": 0.0, "name": "7fb72e7d091e06d4e8b1d2ebec7fdb42", "is_disabled": 0, "rental_uris": {"android": "https://dc.lft.to/lastmile_qr_scan", "ios": "https://dc.lft.to/lastmile_qr_scan"}, "fusion_lon": 0.0, "lat": 38.8844465, "bike_id": "7fb72e7d091e06d4e8b1d2ebec7fdb42", "type": "electric_scooter", "is_reserved": 0, "lon": -76.98587516666667}, {"fusion_lat": 0.0, "name": "455f43fae718e27b9a8f226f68ca923d", "is_disabled": 0, "rental_uris": {"android": "https://dc.lft.to/lastmile_qr_scan", "ios": "https://dc.lft.to/lastmile_qr_scan"}, "fusion_lon": 0.0, "lat": 38.93361016666667, "bike_id": "455f43fae718e27b9a8f226f68ca923d", "type": "electric_scooter", "is_reserved": 0, "lon": -77.02439033333333}, {"fusion_lat": 0.0, "name": "07b9c38820efcc0456aad0e08b1c9b52", "is_disabled": 0, "rental_uris": {"android": "https://dc.lft.to/lastmile_qr_scan", "ios": "https://dc.lft.to/lastmile_qr_scan"}, "fusion_lon": 0.0, "lat": 38.898785833333335, "bike_id": "07b9c38820efcc0456aad0e08b1c9b52", "type": "electric_scooter", "is_reserved": 0, "lon": -76.93181766666666}, {"fusion_lat": 0.0, "name": "53e7d49ecb8a16389ecd122501c74675", "is_disabled": 0, "rental_uris": {"android": "https://dc.lft.to/lastmile_qr_scan", "ios": "https://dc.lft.to/lastmile_qr_scan"}, "fusion_lon": 0.0, "lat": 38.96226016666667, "bike_id": "53e7d49ecb8a16389ecd122501c74675", "type": "electric_bike", "is_reserved": 0, "lon": -77.026252}, {"fusion_lat": 0.0, "name": "a2445e7b0b521fb3a6cc85b2aa6c0b78", "is_disabled": 0, "rental_uris": {"android": "https://dc.lft.to/lastmile_qr_scan", "ios": "https://dc.lft.to/lastmile_qr_scan"}, "fusion_lon": 0.0, "lat": 38.93290783333333, "bike_id": "a2445e7b0b521fb3a6cc85b2aa6c0b78", "type": "electric_scooter", "is_reserved": 0, "lon": -77.0279505}, {"fusion_lat": 0.0, "name": "7472d70c9b86289e19d45dc7f30e04da", "is_disabled": 0, "rental_uris": {"android": "https://dc.lft.to/lastmile_qr_scan", "ios": "https://dc.lft.to/lastmile_qr_scan"}, "fusion_lon": 0.0, "lat": 38.928007666666666, "bike_id": "7472d70c9b86289e19d45dc7f30e04da", "type": "electric_scooter", "is_reserved": 0, "lon": -77.043005}, {"fusion_lat": 0.0, "name": "a10d0e4b7f419cc2f739bef46185cd40", "is_disabled": 0, "rental_uris": {"android": "https://dc.lft.to/lastmile_qr_scan", "ios": "https://dc.lft.to/lastmile_qr_scan"}, "fusion_lon": 0.0, "lat": 38.91704133333333, "bike_id": "a10d0e4b7f419cc2f739bef46185cd40", "type": "electric_scooter", "is_reserved": 0, "lon": -77.0386515}, {"fusion_lat": 0.0, "name": "1577cc9f6673cbca6ed9b6cf65439aad", "is_disabled": 0, "rental_uris": {"android": "https://dc.lft.to/lastmile_qr_scan", "ios": "https://dc.lft.to/lastmile_qr_scan"}, "fusion_lon": 0.0, "lat": 38.88229283333333, "bike_id": "1577cc9f6673cbca6ed9b6cf65439aad", "type": "electric_scooter", "is_reserved": 0, "lon": -77.02617466666666}, {"fusion_lat": 0.0, "name": "8338d1ba8a8051b6c9080ffd9130b1e2", "is_disabled": 0, "rental_uris": {"android": "https://dc.lft.to/lastmile_qr_scan", "ios": "https://dc.lft.to/lastmile_qr_scan"}, "fusion_lon": 0.0, "lat": 38.92033266666667, "bike_id": "8338d1ba8a8051b6c9080ffd9130b1e2", "type": "electric_scooter", "is_reserved": 0, "lon": -77.0176335}, {"fusion_lat": 0.0, "name": "7364074debe5ebf17b5ed5f04884862b", "is_disabled": 0, "rental_uris": {"android": "https://dc.lft.to/lastmile_qr_scan", "ios": "https://dc.lft.to/lastmile_qr_scan"}, "fusion_lon": 0.0, "lat": 38.926111166666665, "bike_id": "7364074debe5ebf17b5ed5f04884862b", "type": "electric_scooter", "is_reserved": 0, "lon": -77.0216525}, {"fusion_lat": 0.0, "name": "505ae20fbfbb770e6497a6baa053d1d0", "is_disabled": 0, "rental_uris": {"android": "https://dc.lft.to/lastmile_qr_scan", "ios": "https://dc.lft.to/lastmile_qr_scan"}, "fusion_lon": 0.0, "lat": 38.87811466666667, "bike_id": "505ae20fbfbb770e6497a6baa053d1d0", "type": "electric_scooter", "is_reserved": 0, "lon": -77.01322016666667}, {"fusion_lat": 0.0, "name": "2366c223ad77bfa5cb6391576ae19129", "is_disabled": 0, "rental_uris": {"android": "https://dc.lft.to/lastmile_qr_scan", "ios": "https://dc.lft.to/lastmile_qr_scan"}, "fusion_lon": 0.0, "lat": 38.92579516666667, "bike_id": "2366c223ad77bfa5cb6391576ae19129", "type": "electric_scooter", "is_reserved": 0, "lon": -77.02762183333333}, {"fusion_lat": 0.0, "name": "4fe87f1fa3b002c3c1227a38aeee2584", "is_disabled": 0, "rental_uris": {"android": "https://dc.lft.to/lastmile_qr_scan", "ios": "https://dc.lft.to/lastmile_qr_scan"}, "fusion_lon": 0.0, "lat": 38.89993166666667, "bike_id": "4fe87f1fa3b002c3c1227a38aeee2584", "type": "electric_scooter", "is_reserved": 0, "lon": -76.99008616666667}, {"fusion_lat": 0.0, "name": "04f153bfdf39f32ca2ec9ae0b06dbb10", "is_disabled": 0, "rental_uris": {"android": "https://dc.lft.to/lastmile_qr_scan", "ios": "https://dc.lft.to/lastmile_qr_scan"}, "fusion_lon": 0.0, "lat": 38.906814, "bike_id": "04f153bfdf39f32ca2ec9ae0b06dbb10", "type": "electric_bike", "is_reserved": 0, "lon": -76.94496133333334}, {"fusion_lat": 0.0, "name": "e53464fbbd53e77a11266d432e6a1869", "is_disabled": 0, "rental_uris": {"android": "https://dc.lft.to/lastmile_qr_scan", "ios": "https://dc.lft.to/lastmile_qr_scan"}, "fusion_lon": 0.0, "lat": 38.90567433333333, "bike_id": "e53464fbbd53e77a11266d432e6a1869", "type": "electric_scooter", "is_reserved": 0, "lon": -77.02923183333333}, {"fusion_lat": 0.0, "name": "a3efc87a84d996d6c8cbfe60ba173dcc", "is_disabled": 0, "rental_uris": {"android": "https://dc.lft.to/lastmile_qr_scan", "ios": "https://dc.lft.to/lastmile_qr_scan"}, "fusion_lon": 0.0, "lat": 38.8876545, "bike_id": "a3efc87a84d996d6c8cbfe60ba173dcc", "type": "electric_scooter", "is_reserved": 0, "lon": -76.97744233333333}, {"fusion_lat": 0.0, "name": "9b50de05931c9b46f2bf92abff40073e", "is_disabled": 0, "rental_uris": {"android": "https://dc.lft.to/lastmile_qr_scan", "ios": "https://dc.lft.to/lastmile_qr_scan"}, "fusion_lon": 0.0, "lat": 38.897165333333334, "bike_id": "9b50de05931c9b46f2bf92abff40073e", "type": "electric_scooter", "is_reserved": 0, "lon": -77.02503016666667}, {"fusion_lat": 0.0, "name": "c51bd9da5f28d010d5cb871f8fb21501", "is_disabled": 0, "rental_uris": {"android": "https://dc.lft.to/lastmile_qr_scan", "ios": "https://dc.lft.to/lastmile_qr_scan"}, "fusion_lon": 0.0, "lat": 38.86913116666667, "bike_id": "c51bd9da5f28d010d5cb871f8fb21501", "type": "electric_bike", "is_reserved": 0, "lon": -76.975057}, {"fusion_lat": 0.0, "name": "892da7ecb9dc84bd10d8c02be6e741dc", "is_disabled": 0, "rental_uris": {"android": "https://dc.lft.to/lastmile_qr_scan", "ios": "https://dc.lft.to/lastmile_qr_scan"}, "fusion_lon": 0.0, "lat": 38.91841466666666, "bike_id": "892da7ecb9dc84bd10d8c02be6e741dc", "type": "electric_scooter", "is_reserved": 0, "lon": -77.0318345}, {"fusion_lat": 0.0, "name": "ee16ae49b604412097775f055201dc8c", "is_disabled": 0, "rental_uris": {"android": "https://dc.lft.to/lastmile_qr_scan", "ios": "https://dc.lft.to/lastmile_qr_scan"}, "fusion_lon": 0.0, "lat": 38.928706166666665, "bike_id": "ee16ae49b604412097775f055201dc8c", "type": "electric_scooter", "is_reserved": 0, "lon": -77.03038733333334}, {"fusion_lat": 0.0, "name": "36ac1f057eeefe5ec20bbf1c310d4931", "is_disabled": 0, "rental_uris": {"android": "https://dc.lft.to/lastmile_qr_scan", "ios": "https://dc.lft.to/lastmile_qr_scan"}, "fusion_lon": 0.0, "lat": 38.9170315, "bike_id": "36ac1f057eeefe5ec20bbf1c310d4931", "type": "electric_scooter", "is_reserved": 0, "lon": -77.02487083333334}, {"fusion_lat": 0.0, "name": "eb0539a2e0535a4d038be8519bee83a6", "is_disabled": 0, "rental_uris": {"android": "https://dc.lft.to/lastmile_qr_scan", "ios": "https://dc.lft.to/lastmile_qr_scan"}, "fusion_lon": 0.0, "lat": 38.90149666666667, "bike_id": "eb0539a2e0535a4d038be8519bee83a6", "type": "electric_scooter", "is_reserved": 0, "lon": -76.93070316666666}, {"fusion_lat": 0.0, "name": "5cda7a429c05b4ae862d46df14ff1182", "is_disabled": 0, "rental_uris": {"android": "https://dc.lft.to/lastmile_qr_scan", "ios": "https://dc.lft.to/lastmile_qr_scan"}, "fusion_lon": 0.0, "lat": 38.887435333333336, "bike_id": "5cda7a429c05b4ae862d46df14ff1182", "type": "electric_scooter", "is_reserved": 0, "lon": -77.03156683333333}, {"fusion_lat": 0.0, "name": "a279b5196c7358502a1f448da2b7dfae", "is_disabled": 0, "rental_uris": {"android": "https://dc.lft.to/lastmile_qr_scan", "ios": "https://dc.lft.to/lastmile_qr_scan"}, "fusion_lon": 0.0, "lat": 38.912441, "bike_id": "a279b5196c7358502a1f448da2b7dfae", "type": "electric_scooter", "is_reserved": 0, "lon": -77.006498}, {"fusion_lat": 0.0, "name": "48b36c7c0bdf554a265466bce3af4ddd", "is_disabled": 0, "rental_uris": {"android": "https://dc.lft.to/lastmile_qr_scan", "ios": "https://dc.lft.to/lastmile_qr_scan"}, "fusion_lon": 0.0, "lat": 38.905698, "bike_id": "48b36c7c0bdf554a265466bce3af4ddd", "type": "electric_scooter", "is_reserved": 0, "lon": -77.02102266666667}, {"fusion_lat": 0.0, "name": "9bf27faf38473232d0ba1b31c6d6558e", "is_disabled": 0, "rental_uris": {"android": "https://dc.lft.to/lastmile_qr_scan", "ios": "https://dc.lft.to/lastmile_qr_scan"}, "fusion_lon": 0.0, "lat": 38.90934816666667, "bike_id": "9bf27faf38473232d0ba1b31c6d6558e", "type": "electric_scooter", "is_reserved": 0, "lon": -77.01850783333333}, {"fusion_lat": 0.0, "name": "c5d1d3f68b127a30f83783e8c10e005a", "is_disabled": 0, "rental_uris": {"android": "https://dc.lft.to/lastmile_qr_scan", "ios": "https://dc.lft.to/lastmile_qr_scan"}, "fusion_lon": 0.0, "lat": 38.922755333333335, "bike_id": "c5d1d3f68b127a30f83783e8c10e005a", "type": "electric_bike", "is_reserved": 0, "lon": -77.0224545}, {"fusion_lat": 0.0, "name": "0b9c0a054890e46a18c61266b7a6e437", "is_disabled": 0, "rental_uris": {"android": "https://dc.lft.to/lastmile_qr_scan", "ios": "https://dc.lft.to/lastmile_qr_scan"}, "fusion_lon": 0.0, "lat": 38.9047405, "bike_id": "0b9c0a054890e46a18c61266b7a6e437", "type": "electric_scooter", "is_reserved": 0, "lon": -76.95199566666666}, {"fusion_lat": 0.0, "name": "7d6d59fbdd1dc80791cbc74ec7de2933", "is_disabled": 0, "rental_uris": {"android": "https://dc.lft.to/lastmile_qr_scan", "ios": "https://dc.lft.to/lastmile_qr_scan"}, "fusion_lon": 0.0, "lat": 38.949122, "bike_id": "7d6d59fbdd1dc80791cbc74ec7de2933", "type": "electric_bike", "is_reserved": 0, "lon": -77.03806333333333}, {"fusion_lat": 0.0, "name": "a4e32debc556a4944463abaa3225306e", "is_disabled": 0, "rental_uris": {"android": "https://dc.lft.to/lastmile_qr_scan", "ios": "https://dc.lft.to/lastmile_qr_scan"}, "fusion_lon": 0.0, "lat": 38.90648366666667, "bike_id": "a4e32debc556a4944463abaa3225306e", "type": "electric_scooter", "is_reserved": 0, "lon": -77.042698}, {"fusion_lat": 0.0, "name": "c2c19b133027ae98bc90577ae9f8aa7e", "is_disabled": 0, "rental_uris": {"android": "https://dc.lft.to/lastmile_qr_scan", "ios": "https://dc.lft.to/lastmile_qr_scan"}, "fusion_lon": 0.0, "lat": 38.90957133333333, "bike_id": "c2c19b133027ae98bc90577ae9f8aa7e", "type": "electric_scooter", "is_reserved": 0, "lon": -77.03174516666667}, {"fusion_lat": 0.0, "name": "bfea39260fd126856a8f18d2fa145445", "is_disabled": 0, "rental_uris": {"android": "https://dc.lft.to/lastmile_qr_scan", "ios": "https://dc.lft.to/lastmile_qr_scan"}, "fusion_lon": 0.0, "lat": 38.952861, "bike_id": "bfea39260fd126856a8f18d2fa145445", "type": "electric_bike", "is_reserved": 0, "lon": -77.06870233333333}, {"fusion_lat": 0.0, "name": "ce1f545306656c40337e5044c6e66b38", "is_disabled": 0, "rental_uris": {"android": "https://dc.lft.to/lastmile_qr_scan", "ios": "https://dc.lft.to/lastmile_qr_scan"}, "fusion_lon": 0.0, "lat": 38.886353166666666, "bike_id": "ce1f545306656c40337e5044c6e66b38", "type": "electric_scooter", "is_reserved": 0, "lon": -77.01529266666667}, {"fusion_lat": 0.0, "name": "902a44d812003a35a14e3f4449721f87", "is_disabled": 0, "rental_uris": {"android": "https://dc.lft.to/lastmile_qr_scan", "ios": "https://dc.lft.to/lastmile_qr_scan"}, "fusion_lon": 0.0, "lat": 38.92083483333333, "bike_id": "902a44d812003a35a14e3f4449721f87", "type": "electric_scooter", "is_reserved": 0, "lon": -77.02405383333334}, {"fusion_lat": 0.0, "name": "08ce437a095cdc62ac740031b7dcff40", "is_disabled": 0, "rental_uris": {"android": "https://dc.lft.to/lastmile_qr_scan", "ios": "https://dc.lft.to/lastmile_qr_scan"}, "fusion_lon": 0.0, "lat": 38.91054666666667, "bike_id": "08ce437a095cdc62ac740031b7dcff40", "type": "electric_scooter", "is_reserved": 0, "lon": -77.02190366666666}, {"fusion_lat": 0.0, "name": "6ff26b98c1962f9418062487663f9701", "is_disabled": 0, "rental_uris": {"android": "https://dc.lft.to/lastmile_qr_scan", "ios": "https://dc.lft.to/lastmile_qr_scan"}, "fusion_lon": 0.0, "lat": 38.89330483333333, "bike_id": "6ff26b98c1962f9418062487663f9701", "type": "electric_scooter", "is_reserved": 0, "lon": -76.93925966666667}, {"fusion_lat": 0.0, "name": "a66b5bd0ee972376c4b8bbb772dcca90", "is_disabled": 0, "rental_uris": {"android": "https://dc.lft.to/lastmile_qr_scan", "ios": "https://dc.lft.to/lastmile_qr_scan"}, "fusion_lon": 0.0, "lat": 38.90697133333333, "bike_id": "a66b5bd0ee972376c4b8bbb772dcca90", "type": "electric_scooter", "is_reserved": 0, "lon": -77.06527416666667}, {"fusion_lat": 0.0, "name": "e66199794b01141b542eae72dbc44f8a", "is_disabled": 0, "rental_uris": {"android": "https://dc.lft.to/lastmile_qr_scan", "ios": "https://dc.lft.to/lastmile_qr_scan"}, "fusion_lon": 0.0, "lat": 38.918183, "bike_id": "e66199794b01141b542eae72dbc44f8a", "type": "electric_scooter", "is_reserved": 0, "lon": -77.02613383333333}, {"fusion_lat": 0.0, "name": "983d33a280bb75494e660a6027563f85", "is_disabled": 0, "rental_uris": {"android": "https://dc.lft.to/lastmile_qr_scan", "ios": "https://dc.lft.to/lastmile_qr_scan"}, "fusion_lon": 0.0, "lat": 38.919935, "bike_id": "983d33a280bb75494e660a6027563f85", "type": "electric_scooter", "is_reserved": 0, "lon": -77.03277583333333}, {"fusion_lat": 0.0, "name": "ea594aed1deb4102cc05f9e44960f20b", "is_disabled": 0, "rental_uris": {"android": "https://dc.lft.to/lastmile_qr_scan", "ios": "https://dc.lft.to/lastmile_qr_scan"}, "fusion_lon": 0.0, "lat": 38.9095565, "bike_id": "ea594aed1deb4102cc05f9e44960f20b", "type": "electric_scooter", "is_reserved": 0, "lon": -77.0486935}, {"fusion_lat": 0.0, "name": "cdb3426c24d47c844ca3c1d171b66240", "is_disabled": 0, "rental_uris": {"android": "https://dc.lft.to/lastmile_qr_scan", "ios": "https://dc.lft.to/lastmile_qr_scan"}, "fusion_lon": 0.0, "lat": 38.8044495, "bike_id": "cdb3426c24d47c844ca3c1d171b66240", "type": "electric_bike", "is_reserved": 0, "lon": -77.1322745}, {"fusion_lat": 0.0, "name": "dbaa1ae98bdd332495458c8123934953", "is_disabled": 0, "rental_uris": {"android": "https://dc.lft.to/lastmile_qr_scan", "ios": "https://dc.lft.to/lastmile_qr_scan"}, "fusion_lon": 0.0, "lat": 38.92386583333333, "bike_id": "dbaa1ae98bdd332495458c8123934953", "type": "electric_scooter", "is_reserved": 0, "lon": -77.040213}, {"fusion_lat": 0.0, "name": "011f69220182cdcaf26b69f0dc8fa0a7", "is_disabled": 0, "rental_uris": {"android": "https://dc.lft.to/lastmile_qr_scan", "ios": "https://dc.lft.to/lastmile_qr_scan"}, "fusion_lon": 0.0, "lat": 38.8872845, "bike_id": "011f69220182cdcaf26b69f0dc8fa0a7", "type": "electric_scooter", "is_reserved": 0, "lon": -77.01744983333333}, {"fusion_lat": 0.0, "name": "fa5fc410c8dc57929ff9a18d8f7958c7", "is_disabled": 0, "rental_uris": {"android": "https://dc.lft.to/lastmile_qr_scan", "ios": "https://dc.lft.to/lastmile_qr_scan"}, "fusion_lon": 0.0, "lat": 38.91315516666667, "bike_id": "fa5fc410c8dc57929ff9a18d8f7958c7", "type": "electric_scooter", "is_reserved": 0, "lon": -77.0470235}, {"fusion_lat": 0.0, "name": "125b6bedf891ddf1783f86718282f952", "is_disabled": 0, "rental_uris": {"android": "https://dc.lft.to/lastmile_qr_scan", "ios": "https://dc.lft.to/lastmile_qr_scan"}, "fusion_lon": 0.0, "lat": 38.88753783333333, "bike_id": "125b6bedf891ddf1783f86718282f952", "type": "electric_scooter", "is_reserved": 0, "lon": -77.00171516666667}, {"fusion_lat": 0.0, "name": "55d284fb183f34f74f455b7ea5557ce4", "is_disabled": 0, "rental_uris": {"android": "https://dc.lft.to/lastmile_qr_scan", "ios": "https://dc.lft.to/lastmile_qr_scan"}, "fusion_lon": 0.0, "lat": 38.91118783333334, "bike_id": "55d284fb183f34f74f455b7ea5557ce4", "type": "electric_scooter", "is_reserved": 0, "lon": -77.03439933333334}, {"fusion_lat": 0.0, "name": "b7c2ce2ffa809d9794d6da98a13b88e1", "is_disabled": 0, "rental_uris": {"android": "https://dc.lft.to/lastmile_qr_scan", "ios": "https://dc.lft.to/lastmile_qr_scan"}, "fusion_lon": 0.0, "lat": 38.920774, "bike_id": "b7c2ce2ffa809d9794d6da98a13b88e1", "type": "electric_scooter", "is_reserved": 0, "lon": -77.02305266666667}, {"fusion_lat": 0.0, "name": "eb2c60f4c2fd3a7de2857a33007ae73a", "is_disabled": 0, "rental_uris": {"android": "https://dc.lft.to/lastmile_qr_scan", "ios": "https://dc.lft.to/lastmile_qr_scan"}, "fusion_lon": 0.0, "lat": 38.91717033333333, "bike_id": "eb2c60f4c2fd3a7de2857a33007ae73a", "type": "electric_scooter", "is_reserved": 0, "lon": -76.9686855}, {"fusion_lat": 0.0, "name": "692a68d3c986c12bbd70f8d6a0e3cc2e", "is_disabled": 0, "rental_uris": {"android": "https://dc.lft.to/lastmile_qr_scan", "ios": "https://dc.lft.to/lastmile_qr_scan"}, "fusion_lon": 0.0, "lat": 38.94022533333333, "bike_id": "692a68d3c986c12bbd70f8d6a0e3cc2e", "type": "electric_scooter", "is_reserved": 0, "lon": -77.02773066666667}, {"fusion_lat": 0.0, "name": "9514456069633cdc58001a2beb1a2b4b", "is_disabled": 0, "rental_uris": {"android": "https://dc.lft.to/lastmile_qr_scan", "ios": "https://dc.lft.to/lastmile_qr_scan"}, "fusion_lon": 0.0, "lat": 38.910315, "bike_id": "9514456069633cdc58001a2beb1a2b4b", "type": "electric_scooter", "is_reserved": 0, "lon": -77.00761566666667}, {"fusion_lat": 0.0, "name": "4c14922d44f0bbeebee08b65b98a36cc", "is_disabled": 0, "rental_uris": {"android": "https://dc.lft.to/lastmile_qr_scan", "ios": "https://dc.lft.to/lastmile_qr_scan"}, "fusion_lon": 0.0, "lat": 38.9094905, "bike_id": "4c14922d44f0bbeebee08b65b98a36cc", "type": "electric_scooter", "is_reserved": 0, "lon": -77.04457533333333}, {"fusion_lat": 0.0, "name": "89b4a38ff28bdf270a18eda92fc01165", "is_disabled": 0, "rental_uris": {"android": "https://dc.lft.to/lastmile_qr_scan", "ios": "https://dc.lft.to/lastmile_qr_scan"}, "fusion_lon": 0.0, "lat": 38.87634366666666, "bike_id": "89b4a38ff28bdf270a18eda92fc01165", "type": "electric_scooter", "is_reserved": 0, "lon": -77.016424}, {"fusion_lat": 0.0, "name": "fb6425e645225311021ebf2145086af2", "is_disabled": 0, "rental_uris": {"android": "https://dc.lft.to/lastmile_qr_scan", "ios": "https://dc.lft.to/lastmile_qr_scan"}, "fusion_lon": 0.0, "lat": 38.89219816666667, "bike_id": "fb6425e645225311021ebf2145086af2", "type": "electric_scooter", "is_reserved": 0, "lon": -77.0437695}, {"fusion_lat": 0.0, "name": "4d26844db726cc76ec863047ee967104", "is_disabled": 0, "rental_uris": {"android": "https://dc.lft.to/lastmile_qr_scan", "ios": "https://dc.lft.to/lastmile_qr_scan"}, "fusion_lon": 0.0, "lat": 38.922335333333336, "bike_id": "4d26844db726cc76ec863047ee967104", "type": "electric_scooter", "is_reserved": 0, "lon": -77.03514116666666}, {"fusion_lat": 0.0, "name": "1f626e972bcba16a34a7040560c007de", "is_disabled": 0, "rental_uris": {"android": "https://dc.lft.to/lastmile_qr_scan", "ios": "https://dc.lft.to/lastmile_qr_scan"}, "fusion_lon": 0.0, "lat": 38.92607, "bike_id": "1f626e972bcba16a34a7040560c007de", "type": "electric_scooter", "is_reserved": 0, "lon": -77.022102}, {"fusion_lat": 0.0, "name": "868ad689490c3c5b042ce1c1ee88da05", "is_disabled": 0, "rental_uris": {"android": "https://dc.lft.to/lastmile_qr_scan", "ios": "https://dc.lft.to/lastmile_qr_scan"}, "fusion_lon": 0.0, "lat": 38.914947833333336, "bike_id": "868ad689490c3c5b042ce1c1ee88da05", "type": "electric_scooter", "is_reserved": 0, "lon": -76.98364283333333}, {"fusion_lat": 0.0, "name": "b68208486920f3ecfc5593f8b27e1a55", "is_disabled": 0, "rental_uris": {"android": "https://dc.lft.to/lastmile_qr_scan", "ios": "https://dc.lft.to/lastmile_qr_scan"}, "fusion_lon": 0.0, "lat": 38.9056165, "bike_id": "b68208486920f3ecfc5593f8b27e1a55", "type": "electric_scooter", "is_reserved": 0, "lon": -76.99797016666666}, {"fusion_lat": 0.0, "name": "bf091bce8af3c34e402c072578d482f6", "is_disabled": 0, "rental_uris": {"android": "https://dc.lft.to/lastmile_qr_scan", "ios": "https://dc.lft.to/lastmile_qr_scan"}, "fusion_lon": 0.0, "lat": 38.905587, "bike_id": "bf091bce8af3c34e402c072578d482f6", "type": "electric_scooter", "is_reserved": 0, "lon": -76.98198533333333}, {"fusion_lat": 0.0, "name": "39c7a1716cfc8fcebe70bd21be419294", "is_disabled": 0, "rental_uris": {"android": "https://dc.lft.to/lastmile_qr_scan", "ios": "https://dc.lft.to/lastmile_qr_scan"}, "fusion_lon": 0.0, "lat": 38.888222166666665, "bike_id": "39c7a1716cfc8fcebe70bd21be419294", "type": "electric_scooter", "is_reserved": 0, "lon": -76.98663533333334}, {"fusion_lat": 0.0, "name": "07f6dffdfcede46ec7d725bfeba1e6ae", "is_disabled": 0, "rental_uris": {"android": "https://dc.lft.to/lastmile_qr_scan", "ios": "https://dc.lft.to/lastmile_qr_scan"}, "fusion_lon": 0.0, "lat": 38.90788383333334, "bike_id": "07f6dffdfcede46ec7d725bfeba1e6ae", "type": "electric_scooter", "is_reserved": 0, "lon": -76.9942095}, {"fusion_lat": 0.0, "name": "0b9eb206a17782f7820a7f3cee5760e1", "is_disabled": 0, "rental_uris": {"android": "https://dc.lft.to/lastmile_qr_scan", "ios": "https://dc.lft.to/lastmile_qr_scan"}, "fusion_lon": 0.0, "lat": 38.905501, "bike_id": "0b9eb206a17782f7820a7f3cee5760e1", "type": "electric_scooter", "is_reserved": 0, "lon": -77.0651735}, {"fusion_lat": 0.0, "name": "9a1e97f95c9d3bd720877a57b7a8fd8f", "is_disabled": 0, "rental_uris": {"android": "https://dc.lft.to/lastmile_qr_scan", "ios": "https://dc.lft.to/lastmile_qr_scan"}, "fusion_lon": 0.0, "lat": 38.92252383333334, "bike_id": "9a1e97f95c9d3bd720877a57b7a8fd8f", "type": "electric_scooter", "is_reserved": 0, "lon": -77.0745205}, {"fusion_lat": 0.0, "name": "52e66bd8aaea273bbe3def509f5b7355", "is_disabled": 0, "rental_uris": {"android": "https://dc.lft.to/lastmile_qr_scan", "ios": "https://dc.lft.to/lastmile_qr_scan"}, "fusion_lon": 0.0, "lat": 38.898836, "bike_id": "52e66bd8aaea273bbe3def509f5b7355", "type": "electric_bike", "is_reserved": 0, "lon": -76.99035066666667}, {"fusion_lat": 0.0, "name": "a218b61b9f34c192df8797d6cdba0267", "is_disabled": 0, "rental_uris": {"android": "https://dc.lft.to/lastmile_qr_scan", "ios": "https://dc.lft.to/lastmile_qr_scan"}, "fusion_lon": 0.0, "lat": 38.929020666666666, "bike_id": "a218b61b9f34c192df8797d6cdba0267", "type": "electric_scooter", "is_reserved": 0, "lon": -77.05458433333334}, {"fusion_lat": 0.0, "name": "5bc66dc9bdda4c4609164c83ebd840d6", "is_disabled": 0, "rental_uris": {"android": "https://dc.lft.to/lastmile_qr_scan", "ios": "https://dc.lft.to/lastmile_qr_scan"}, "fusion_lon": 0.0, "lat": 38.91709683333333, "bike_id": "5bc66dc9bdda4c4609164c83ebd840d6", "type": "electric_scooter", "is_reserved": 0, "lon": -77.0288025}, {"fusion_lat": 0.0, "name": "0e19680df33092dabb5fd030471fad2d", "is_disabled": 0, "rental_uris": {"android": "https://dc.lft.to/lastmile_qr_scan", "ios": "https://dc.lft.to/lastmile_qr_scan"}, "fusion_lon": 0.0, "lat": 38.9040715, "bike_id": "0e19680df33092dabb5fd030471fad2d", "type": "electric_scooter", "is_reserved": 0, "lon": -76.9733255}, {"fusion_lat": 0.0, "name": "afd933baaa5e0c06b91eb49dc5eac2ef", "is_disabled": 0, "rental_uris": {"android": "https://dc.lft.to/lastmile_qr_scan", "ios": "https://dc.lft.to/lastmile_qr_scan"}, "fusion_lon": 0.0, "lat": 38.8763035, "bike_id": "afd933baaa5e0c06b91eb49dc5eac2ef", "type": "electric_scooter", "is_reserved": 0, "lon": -77.01650666666667}, {"fusion_lat": 0.0, "name": "294ef51a5dd5b45c983c2f178ba83c02", "is_disabled": 0, "rental_uris": {"android": "https://dc.lft.to/lastmile_qr_scan", "ios": "https://dc.lft.to/lastmile_qr_scan"}, "fusion_lon": 0.0, "lat": 38.88752683333333, "bike_id": "294ef51a5dd5b45c983c2f178ba83c02", "type": "electric_scooter", "is_reserved": 0, "lon": -77.00258883333333}, {"fusion_lat": 0.0, "name": "0d0a4e2c5949854d0a60b81af837d8f4", "is_disabled": 0, "rental_uris": {"android": "https://dc.lft.to/lastmile_qr_scan", "ios": "https://dc.lft.to/lastmile_qr_scan"}, "fusion_lon": 0.0, "lat": 38.931941333333334, "bike_id": "0d0a4e2c5949854d0a60b81af837d8f4", "type": "electric_scooter", "is_reserved": 0, "lon": -77.04298833333333}, {"fusion_lat": 0.0, "name": "4014e5f0b2539055ad4eefa21e439fcb", "is_disabled": 0, "rental_uris": {"android": "https://dc.lft.to/lastmile_qr_scan", "ios": "https://dc.lft.to/lastmile_qr_scan"}, "fusion_lon": 0.0, "lat": 38.905554, "bike_id": "4014e5f0b2539055ad4eefa21e439fcb", "type": "electric_scooter", "is_reserved": 0, "lon": -77.04661583333333}, {"fusion_lat": 0.0, "name": "f6c1b4c69fad40eea4ccf13e4f9ebc34", "is_disabled": 0, "rental_uris": {"android": "https://dc.lft.to/lastmile_qr_scan", "ios": "https://dc.lft.to/lastmile_qr_scan"}, "fusion_lon": 0.0, "lat": 38.884192666666664, "bike_id": "f6c1b4c69fad40eea4ccf13e4f9ebc34", "type": "electric_scooter", "is_reserved": 0, "lon": -77.025265}, {"fusion_lat": 0.0, "name": "6b867c925f4818b9f726ffc89947296f", "is_disabled": 0, "rental_uris": {"android": "https://dc.lft.to/lastmile_qr_scan", "ios": "https://dc.lft.to/lastmile_qr_scan"}, "fusion_lon": 0.0, "lat": 38.88724116666667, "bike_id": "6b867c925f4818b9f726ffc89947296f", "type": "electric_scooter", "is_reserved": 0, "lon": -76.9835575}, {"fusion_lat": 0.0, "name": "cfcc8d88bc7883b7edcf4e8060379704", "is_disabled": 0, "rental_uris": {"android": "https://dc.lft.to/lastmile_qr_scan", "ios": "https://dc.lft.to/lastmile_qr_scan"}, "fusion_lon": 0.0, "lat": 38.84134816666667, "bike_id": "cfcc8d88bc7883b7edcf4e8060379704", "type": "electric_bike", "is_reserved": 0, "lon": -76.94762083333333}, {"fusion_lat": 0.0, "name": "18ba0990d33633079ccbc9f3d0f0f918", "is_disabled": 0, "rental_uris": {"android": "https://dc.lft.to/lastmile_qr_scan", "ios": "https://dc.lft.to/lastmile_qr_scan"}, "fusion_lon": 0.0, "lat": 38.905622, "bike_id": "18ba0990d33633079ccbc9f3d0f0f918", "type": "electric_scooter", "is_reserved": 0, "lon": -77.06255933333334}, {"fusion_lat": 0.0, "name": "32b697ba40fdb027890fd1fefaf9f5ea", "is_disabled": 0, "rental_uris": {"android": "https://dc.lft.to/lastmile_qr_scan", "ios": "https://dc.lft.to/lastmile_qr_scan"}, "fusion_lon": 0.0, "lat": 38.923278333333336, "bike_id": "32b697ba40fdb027890fd1fefaf9f5ea", "type": "electric_scooter", "is_reserved": 0, "lon": -77.051225}, {"fusion_lat": 0.0, "name": "ded5ef7fa25f9da7202da15b4e2027e0", "is_disabled": 0, "rental_uris": {"android": "https://dc.lft.to/lastmile_qr_scan", "ios": "https://dc.lft.to/lastmile_qr_scan"}, "fusion_lon": 0.0, "lat": 38.8873795, "bike_id": "ded5ef7fa25f9da7202da15b4e2027e0", "type": "electric_scooter", "is_reserved": 0, "lon": -77.02566216666666}, {"fusion_lat": 0.0, "name": "768ff1f913f769d4fff5d79afbe68a2d", "is_disabled": 0, "rental_uris": {"android": "https://dc.lft.to/lastmile_qr_scan", "ios": "https://dc.lft.to/lastmile_qr_scan"}, "fusion_lon": 0.0, "lat": 38.908033, "bike_id": "768ff1f913f769d4fff5d79afbe68a2d", "type": "electric_scooter", "is_reserved": 0, "lon": -77.0432855}, {"fusion_lat": 0.0, "name": "6241edb33604f42e1fcd6b3fb0ee40a6", "is_disabled": 0, "rental_uris": {"android": "https://dc.lft.to/lastmile_qr_scan", "ios": "https://dc.lft.to/lastmile_qr_scan"}, "fusion_lon": 0.0, "lat": 38.9195775, "bike_id": "6241edb33604f42e1fcd6b3fb0ee40a6", "type": "electric_bike", "is_reserved": 0, "lon": -77.10107916666666}, {"fusion_lat": 0.0, "name": "5beceb5d0e93488cde8052de6d5c64e5", "is_disabled": 0, "rental_uris": {"android": "https://dc.lft.to/lastmile_qr_scan", "ios": "https://dc.lft.to/lastmile_qr_scan"}, "fusion_lon": 0.0, "lat": 38.93585183333333, "bike_id": "5beceb5d0e93488cde8052de6d5c64e5", "type": "electric_scooter", "is_reserved": 0, "lon": -77.02845716666667}, {"fusion_lat": 0.0, "name": "bddaadcf661e4142ff74fd90f3f84515", "is_disabled": 0, "rental_uris": {"android": "https://dc.lft.to/lastmile_qr_scan", "ios": "https://dc.lft.to/lastmile_qr_scan"}, "fusion_lon": 0.0, "lat": 38.887416, "bike_id": "bddaadcf661e4142ff74fd90f3f84515", "type": "electric_scooter", "is_reserved": 0, "lon": -77.01464983333334}, {"fusion_lat": 0.0, "name": "13e9a143bcd275ab203df8e05b7a66d6", "is_disabled": 0, "rental_uris": {"android": "https://dc.lft.to/lastmile_qr_scan", "ios": "https://dc.lft.to/lastmile_qr_scan"}, "fusion_lon": 0.0, "lat": 38.91696066666667, "bike_id": "13e9a143bcd275ab203df8e05b7a66d6", "type": "electric_scooter", "is_reserved": 0, "lon": -77.03102283333334}, {"fusion_lat": 0.0, "name": "574451862787731349aef550d8201c37", "is_disabled": 0, "rental_uris": {"android": "https://dc.lft.to/lastmile_qr_scan", "ios": "https://dc.lft.to/lastmile_qr_scan"}, "fusion_lon": 0.0, "lat": 38.9213495, "bike_id": "574451862787731349aef550d8201c37", "type": "electric_scooter", "is_reserved": 0, "lon": -77.01791733333333}, {"fusion_lat": 0.0, "name": "08e7dd21272f40817e0b296809cd9bf0", "is_disabled": 0, "rental_uris": {"android": "https://dc.lft.to/lastmile_qr_scan", "ios": "https://dc.lft.to/lastmile_qr_scan"}, "fusion_lon": 0.0, "lat": 38.908692, "bike_id": "08e7dd21272f40817e0b296809cd9bf0", "type": "electric_scooter", "is_reserved": 0, "lon": -77.00903183333334}, {"fusion_lat": 0.0, "name": "f204b19d517b0c47151ad2a048dc5eea", "is_disabled": 0, "rental_uris": {"android": "https://dc.lft.to/lastmile_qr_scan", "ios": "https://dc.lft.to/lastmile_qr_scan"}, "fusion_lon": 0.0, "lat": 38.90877716666667, "bike_id": "f204b19d517b0c47151ad2a048dc5eea", "type": "electric_scooter", "is_reserved": 0, "lon": -77.02123316666666}, {"fusion_lat": 0.0, "name": "880b79a67dcb9b4596e9c295e0c16147", "is_disabled": 0, "rental_uris": {"android": "https://dc.lft.to/lastmile_qr_scan", "ios": "https://dc.lft.to/lastmile_qr_scan"}, "fusion_lon": 0.0, "lat": 38.90949116666667, "bike_id": "880b79a67dcb9b4596e9c295e0c16147", "type": "electric_scooter", "is_reserved": 0, "lon": -77.02713966666667}, {"fusion_lat": 0.0, "name": "5461890bd7413c78df6818f8f8bcb63e", "is_disabled": 0, "rental_uris": {"android": "https://dc.lft.to/lastmile_qr_scan", "ios": "https://dc.lft.to/lastmile_qr_scan"}, "fusion_lon": 0.0, "lat": 38.9115655, "bike_id": "5461890bd7413c78df6818f8f8bcb63e", "type": "electric_bike", "is_reserved": 0, "lon": -77.029595}, {"fusion_lat": 0.0, "name": "6888e939b5ea503d055c98df82c8a8a3", "is_disabled": 0, "rental_uris": {"android": "https://dc.lft.to/lastmile_qr_scan", "ios": "https://dc.lft.to/lastmile_qr_scan"}, "fusion_lon": 0.0, "lat": 38.876672166666665, "bike_id": "6888e939b5ea503d055c98df82c8a8a3", "type": "electric_scooter", "is_reserved": 0, "lon": -77.00117683333333}, {"fusion_lat": 0.0, "name": "0704360389a90956d5918eed242b0922", "is_disabled": 0, "rental_uris": {"android": "https://dc.lft.to/lastmile_qr_scan", "ios": "https://dc.lft.to/lastmile_qr_scan"}, "fusion_lon": 0.0, "lat": 38.895111666666665, "bike_id": "0704360389a90956d5918eed242b0922", "type": "electric_scooter", "is_reserved": 0, "lon": -77.02725316666667}, {"fusion_lat": 0.0, "name": "834e26e0671266ccd94d62f5e740733c", "is_disabled": 0, "rental_uris": {"android": "https://dc.lft.to/lastmile_qr_scan", "ios": "https://dc.lft.to/lastmile_qr_scan"}, "fusion_lon": 0.0, "lat": 38.9145455, "bike_id": "834e26e0671266ccd94d62f5e740733c", "type": "electric_scooter", "is_reserved": 0, "lon": -77.01275566666666}, {"fusion_lat": 0.0, "name": "b8e1972c17e8c3d3b64f3d0b3b07a2da", "is_disabled": 0, "rental_uris": {"android": "https://dc.lft.to/lastmile_qr_scan", "ios": "https://dc.lft.to/lastmile_qr_scan"}, "fusion_lon": 0.0, "lat": 38.93519966666667, "bike_id": "b8e1972c17e8c3d3b64f3d0b3b07a2da", "type": "electric_scooter", "is_reserved": 0, "lon": -77.030828}, {"fusion_lat": 0.0, "name": "fe6a24e2128f81d4636353d06fcf7524", "is_disabled": 0, "rental_uris": {"android": "https://dc.lft.to/lastmile_qr_scan", "ios": "https://dc.lft.to/lastmile_qr_scan"}, "fusion_lon": 0.0, "lat": 38.935753, "bike_id": "fe6a24e2128f81d4636353d06fcf7524", "type": "electric_scooter", "is_reserved": 0, "lon": -77.01922616666667}, {"fusion_lat": 0.0, "name": "d8fd630c1de7fc9dfc6c255e21073a6a", "is_disabled": 0, "rental_uris": {"android": "https://dc.lft.to/lastmile_qr_scan", "ios": "https://dc.lft.to/lastmile_qr_scan"}, "fusion_lon": 0.0, "lat": 38.893007833333336, "bike_id": "d8fd630c1de7fc9dfc6c255e21073a6a", "type": "electric_scooter", "is_reserved": 0, "lon": -77.04656633333333}, {"fusion_lat": 0.0, "name": "59d2a4bf7b360efffed081f9e90f62ae", "is_disabled": 0, "rental_uris": {"android": "https://dc.lft.to/lastmile_qr_scan", "ios": "https://dc.lft.to/lastmile_qr_scan"}, "fusion_lon": 0.0, "lat": 38.9290085, "bike_id": "59d2a4bf7b360efffed081f9e90f62ae", "type": "electric_scooter", "is_reserved": 0, "lon": -77.03744233333333}, {"fusion_lat": 0.0, "name": "bfad85f72ef8900906ce3b665bfc1888", "is_disabled": 0, "rental_uris": {"android": "https://dc.lft.to/lastmile_qr_scan", "ios": "https://dc.lft.to/lastmile_qr_scan"}, "fusion_lon": 0.0, "lat": 38.8946755, "bike_id": "bfad85f72ef8900906ce3b665bfc1888", "type": "electric_scooter", "is_reserved": 0, "lon": -77.01033033333333}, {"fusion_lat": 0.0, "name": "6c44ca8f6556803496a702ba7d143ee1", "is_disabled": 0, "rental_uris": {"android": "https://dc.lft.to/lastmile_qr_scan", "ios": "https://dc.lft.to/lastmile_qr_scan"}, "fusion_lon": 0.0, "lat": 38.919132, "bike_id": "6c44ca8f6556803496a702ba7d143ee1", "type": "electric_scooter", "is_reserved": 0, "lon": -77.03253966666666}, {"fusion_lat": 0.0, "name": "36db009c2481ca01828002a0638477f4", "is_disabled": 0, "rental_uris": {"android": "https://dc.lft.to/lastmile_qr_scan", "ios": "https://dc.lft.to/lastmile_qr_scan"}, "fusion_lon": 0.0, "lat": 38.91689083333333, "bike_id": "36db009c2481ca01828002a0638477f4", "type": "electric_scooter", "is_reserved": 0, "lon": -77.04035833333333}, {"fusion_lat": 0.0, "name": "abbbfdc2249e78e226bde5c656baadf7", "is_disabled": 0, "rental_uris": {"android": "https://dc.lft.to/lastmile_qr_scan", "ios": "https://dc.lft.to/lastmile_qr_scan"}, "fusion_lon": 0.0, "lat": 38.931195, "bike_id": "abbbfdc2249e78e226bde5c656baadf7", "type": "electric_scooter", "is_reserved": 0, "lon": -77.03635233333334}, {"fusion_lat": 0.0, "name": "e107385536d80a81b9998f63cb506896", "is_disabled": 0, "rental_uris": {"android": "https://dc.lft.to/lastmile_qr_scan", "ios": "https://dc.lft.to/lastmile_qr_scan"}, "fusion_lon": 0.0, "lat": 38.900935833333335, "bike_id": "e107385536d80a81b9998f63cb506896", "type": "electric_scooter", "is_reserved": 0, "lon": -77.0194215}, {"fusion_lat": 0.0, "name": "e6ff3484a9b7a234b3ff71cbb8826ba0", "is_disabled": 0, "rental_uris": {"android": "https://dc.lft.to/lastmile_qr_scan", "ios": "https://dc.lft.to/lastmile_qr_scan"}, "fusion_lon": 0.0, "lat": 38.857950333333335, "bike_id": "e6ff3484a9b7a234b3ff71cbb8826ba0", "type": "electric_bike", "is_reserved": 0, "lon": -76.98729716666666}, {"fusion_lat": 0.0, "name": "6965cfe5f9e9083e30283ad6ba0d7e20", "is_disabled": 0, "rental_uris": {"android": "https://dc.lft.to/lastmile_qr_scan", "ios": "https://dc.lft.to/lastmile_qr_scan"}, "fusion_lon": 0.0, "lat": 38.91027066666667, "bike_id": "6965cfe5f9e9083e30283ad6ba0d7e20", "type": "electric_scooter", "is_reserved": 0, "lon": -77.00756516666667}, {"fusion_lat": 0.0, "name": "dcef8cb2c96858ab4af8e752da6e1da0", "is_disabled": 0, "rental_uris": {"android": "https://dc.lft.to/lastmile_qr_scan", "ios": "https://dc.lft.to/lastmile_qr_scan"}, "fusion_lon": 0.0, "lat": 38.89474166666667, "bike_id": "dcef8cb2c96858ab4af8e752da6e1da0", "type": "electric_scooter", "is_reserved": 0, "lon": -77.021817}, {"fusion_lat": 0.0, "name": "245b2fdbc3e91e3cdbacabd7f3714734", "is_disabled": 0, "rental_uris": {"android": "https://dc.lft.to/lastmile_qr_scan", "ios": "https://dc.lft.to/lastmile_qr_scan"}, "fusion_lon": 0.0, "lat": 38.927821333333334, "bike_id": "245b2fdbc3e91e3cdbacabd7f3714734", "type": "electric_scooter", "is_reserved": 0, "lon": -76.97970533333333}, {"fusion_lat": 0.0, "name": "d254dfe51f7d7f50db04197fd9701b65", "is_disabled": 0, "rental_uris": {"android": "https://dc.lft.to/lastmile_qr_scan", "ios": "https://dc.lft.to/lastmile_qr_scan"}, "fusion_lon": 0.0, "lat": 38.897438333333334, "bike_id": "d254dfe51f7d7f50db04197fd9701b65", "type": "electric_bike", "is_reserved": 0, "lon": -77.00749883333333}, {"fusion_lat": 0.0, "name": "11430beb294445fdfd2eadbd2aae7a2d", "is_disabled": 0, "rental_uris": {"android": "https://dc.lft.to/lastmile_qr_scan", "ios": "https://dc.lft.to/lastmile_qr_scan"}, "fusion_lon": 0.0, "lat": 38.92068366666667, "bike_id": "11430beb294445fdfd2eadbd2aae7a2d", "type": "electric_scooter", "is_reserved": 0, "lon": -76.99866733333333}, {"fusion_lat": 0.0, "name": "523068336f5bde4ae5156cd3c1823292", "is_disabled": 0, "rental_uris": {"android": "https://dc.lft.to/lastmile_qr_scan", "ios": "https://dc.lft.to/lastmile_qr_scan"}, "fusion_lon": 0.0, "lat": 38.92364533333333, "bike_id": "523068336f5bde4ae5156cd3c1823292", "type": "electric_scooter", "is_reserved": 0, "lon": -77.0424805}, {"fusion_lat": 0.0, "name": "da537a143edab17df98fff5aa2c0e7ed", "is_disabled": 0, "rental_uris": {"android": "https://dc.lft.to/lastmile_qr_scan", "ios": "https://dc.lft.to/lastmile_qr_scan"}, "fusion_lon": 0.0, "lat": 38.92053883333333, "bike_id": "da537a143edab17df98fff5aa2c0e7ed", "type": "electric_scooter", "is_reserved": 0, "lon": -77.04193883333333}, {"fusion_lat": 0.0, "name": "4cb38ae780cce577cd05fab44bfb5f78", "is_disabled": 0, "rental_uris": {"android": "https://dc.lft.to/lastmile_qr_scan", "ios": "https://dc.lft.to/lastmile_qr_scan"}, "fusion_lon": 0.0, "lat": 38.90956333333333, "bike_id": "4cb38ae780cce577cd05fab44bfb5f78", "type": "electric_scooter", "is_reserved": 0, "lon": -77.04871116666666}, {"fusion_lat": 0.0, "name": "7ae500fee68f0a8f787bd5773d8892bc", "is_disabled": 0, "rental_uris": {"android": "https://dc.lft.to/lastmile_qr_scan", "ios": "https://dc.lft.to/lastmile_qr_scan"}, "fusion_lon": 0.0, "lat": 38.862633333333335, "bike_id": "7ae500fee68f0a8f787bd5773d8892bc", "type": "electric_bike", "is_reserved": 0, "lon": -76.983485}, {"fusion_lat": 0.0, "name": "57376e7d53b159f74262a087d0a86d49", "is_disabled": 0, "rental_uris": {"android": "https://dc.lft.to/lastmile_qr_scan", "ios": "https://dc.lft.to/lastmile_qr_scan"}, "fusion_lon": 0.0, "lat": 38.88741916666667, "bike_id": "57376e7d53b159f74262a087d0a86d49", "type": "electric_scooter", "is_reserved": 0, "lon": -77.02177366666666}, {"fusion_lat": 0.0, "name": "8a0cd50f2e56a87b185f974262593109", "is_disabled": 0, "rental_uris": {"android": "https://dc.lft.to/lastmile_qr_scan", "ios": "https://dc.lft.to/lastmile_qr_scan"}, "fusion_lon": 0.0, "lat": 38.9171905, "bike_id": "8a0cd50f2e56a87b185f974262593109", "type": "electric_scooter", "is_reserved": 0, "lon": -77.00814633333333}, {"fusion_lat": 0.0, "name": "f6e29f6572eb66f335a05c0ffbeba925", "is_disabled": 0, "rental_uris": {"android": "https://dc.lft.to/lastmile_qr_scan", "ios": "https://dc.lft.to/lastmile_qr_scan"}, "fusion_lon": 0.0, "lat": 38.924593333333334, "bike_id": "f6e29f6572eb66f335a05c0ffbeba925", "type": "electric_scooter", "is_reserved": 0, "lon": -76.99334366666666}, {"fusion_lat": 0.0, "name": "02f74549b801568bd9fa83825cd7b1b8", "is_disabled": 0, "rental_uris": {"android": "https://dc.lft.to/lastmile_qr_scan", "ios": "https://dc.lft.to/lastmile_qr_scan"}, "fusion_lon": 0.0, "lat": 38.903499833333335, "bike_id": "02f74549b801568bd9fa83825cd7b1b8", "type": "electric_scooter", "is_reserved": 0, "lon": -77.04667033333334}, {"fusion_lat": 0.0, "name": "3b696703973cc2e7a658906c4d2afe73", "is_disabled": 0, "rental_uris": {"android": "https://dc.lft.to/lastmile_qr_scan", "ios": "https://dc.lft.to/lastmile_qr_scan"}, "fusion_lon": 0.0, "lat": 38.91922483333333, "bike_id": "3b696703973cc2e7a658906c4d2afe73", "type": "electric_bike", "is_reserved": 0, "lon": -77.03139316666666}, {"fusion_lat": 0.0, "name": "3a8172b4daf0ca7ee886aae95b31ef46", "is_disabled": 0, "rental_uris": {"android": "https://dc.lft.to/lastmile_qr_scan", "ios": "https://dc.lft.to/lastmile_qr_scan"}, "fusion_lon": 0.0, "lat": 38.9172155, "bike_id": "3a8172b4daf0ca7ee886aae95b31ef46", "type": "electric_scooter", "is_reserved": 0, "lon": -77.02802566666666}, {"fusion_lat": 0.0, "name": "abe9d2c94b40aa10cdc9de5a846412a5", "is_disabled": 0, "rental_uris": {"android": "https://dc.lft.to/lastmile_qr_scan", "ios": "https://dc.lft.to/lastmile_qr_scan"}, "fusion_lon": 0.0, "lat": 38.885015333333335, "bike_id": "abe9d2c94b40aa10cdc9de5a846412a5", "type": "electric_scooter", "is_reserved": 0, "lon": -76.99752883333333}, {"fusion_lat": 0.0, "name": "bd4c9ad50e189e25e2c9adbaf6416a29", "is_disabled": 0, "rental_uris": {"android": "https://dc.lft.to/lastmile_qr_scan", "ios": "https://dc.lft.to/lastmile_qr_scan"}, "fusion_lon": 0.0, "lat": 38.921565, "bike_id": "bd4c9ad50e189e25e2c9adbaf6416a29", "type": "electric_scooter", "is_reserved": 0, "lon": -77.02084116666667}, {"fusion_lat": 0.0, "name": "34c9f4a42ae2b26aed370740bef6a9a6", "is_disabled": 0, "rental_uris": {"android": "https://dc.lft.to/lastmile_qr_scan", "ios": "https://dc.lft.to/lastmile_qr_scan"}, "fusion_lon": 0.0, "lat": 38.895601666666664, "bike_id": "34c9f4a42ae2b26aed370740bef6a9a6", "type": "electric_scooter", "is_reserved": 0, "lon": -76.99430833333334}, {"fusion_lat": 0.0, "name": "02672582a3888411751d58d7a88d22cc", "is_disabled": 0, "rental_uris": {"android": "https://dc.lft.to/lastmile_qr_scan", "ios": "https://dc.lft.to/lastmile_qr_scan"}, "fusion_lon": 0.0, "lat": 38.8969365, "bike_id": "02672582a3888411751d58d7a88d22cc", "type": "electric_scooter", "is_reserved": 0, "lon": -77.02392816666666}, {"fusion_lat": 0.0, "name": "94ffbda42bb19323f040fa744cadeb27", "is_disabled": 0, "rental_uris": {"android": "https://dc.lft.to/lastmile_qr_scan", "ios": "https://dc.lft.to/lastmile_qr_scan"}, "fusion_lon": 0.0, "lat": 39.014159, "bike_id": "94ffbda42bb19323f040fa744cadeb27", "type": "electric_bike", "is_reserved": 0, "lon": -77.0449685}, {"fusion_lat": 0.0, "name": "b5bc00f1640d98623d6069d9c1c5afc9", "is_disabled": 0, "rental_uris": {"android": "https://dc.lft.to/lastmile_qr_scan", "ios": "https://dc.lft.to/lastmile_qr_scan"}, "fusion_lon": 0.0, "lat": 38.9080235, "bike_id": "b5bc00f1640d98623d6069d9c1c5afc9", "type": "electric_scooter", "is_reserved": 0, "lon": -77.0433615}, {"fusion_lat": 0.0, "name": "e6c8a13cf117ab71e9952e3d303ff60a", "is_disabled": 0, "rental_uris": {"android": "https://dc.lft.to/lastmile_qr_scan", "ios": "https://dc.lft.to/lastmile_qr_scan"}, "fusion_lon": 0.0, "lat": 38.9103445, "bike_id": "e6c8a13cf117ab71e9952e3d303ff60a", "type": "electric_scooter", "is_reserved": 0, "lon": -77.00829366666666}, {"fusion_lat": 0.0, "name": "698add60a531d8fe7367516b7818df8e", "is_disabled": 0, "rental_uris": {"android": "https://dc.lft.to/lastmile_qr_scan", "ios": "https://dc.lft.to/lastmile_qr_scan"}, "fusion_lon": 0.0, "lat": 38.900699, "bike_id": "698add60a531d8fe7367516b7818df8e", "type": "electric_scooter", "is_reserved": 0, "lon": -76.98340883333333}, {"fusion_lat": 0.0, "name": "f4144ae2be9a4f4e60035754e0c55479", "is_disabled": 0, "rental_uris": {"android": "https://dc.lft.to/lastmile_qr_scan", "ios": "https://dc.lft.to/lastmile_qr_scan"}, "fusion_lon": 0.0, "lat": 38.9528335, "bike_id": "f4144ae2be9a4f4e60035754e0c55479", "type": "electric_scooter", "is_reserved": 0, "lon": -77.06867366666667}, {"fusion_lat": 0.0, "name": "97f25695533a2ecd28d9ce36dc38e2d4", "is_disabled": 0, "rental_uris": {"android": "https://dc.lft.to/lastmile_qr_scan", "ios": "https://dc.lft.to/lastmile_qr_scan"}, "fusion_lon": 0.0, "lat": 38.925422, "bike_id": "97f25695533a2ecd28d9ce36dc38e2d4", "type": "electric_scooter", "is_reserved": 0, "lon": -77.03828466666667}, {"fusion_lat": 0.0, "name": "ca21cfd8c800aafb36a874ded972eb3d", "is_disabled": 0, "rental_uris": {"android": "https://dc.lft.to/lastmile_qr_scan", "ios": "https://dc.lft.to/lastmile_qr_scan"}, "fusion_lon": 0.0, "lat": 38.892209333333334, "bike_id": "ca21cfd8c800aafb36a874ded972eb3d", "type": "electric_scooter", "is_reserved": 0, "lon": -77.03141866666667}, {"fusion_lat": 0.0, "name": "b9eb5fbb243364dc72505bc9fe1d9243", "is_disabled": 0, "rental_uris": {"android": "https://dc.lft.to/lastmile_qr_scan", "ios": "https://dc.lft.to/lastmile_qr_scan"}, "fusion_lon": 0.0, "lat": 38.928928, "bike_id": "b9eb5fbb243364dc72505bc9fe1d9243", "type": "electric_bike", "is_reserved": 0, "lon": -77.23179683333333}, {"fusion_lat": 0.0, "name": "fb23f2e4020ec6923977c8a5167f4390", "is_disabled": 0, "rental_uris": {"android": "https://dc.lft.to/lastmile_qr_scan", "ios": "https://dc.lft.to/lastmile_qr_scan"}, "fusion_lon": 0.0, "lat": 38.8989325, "bike_id": "fb23f2e4020ec6923977c8a5167f4390", "type": "electric_scooter", "is_reserved": 0, "lon": -77.01511533333333}, {"fusion_lat": 0.0, "name": "64dd64f9cc6ef357aa29809d7ead5db2", "is_disabled": 0, "rental_uris": {"android": "https://dc.lft.to/lastmile_qr_scan", "ios": "https://dc.lft.to/lastmile_qr_scan"}, "fusion_lon": 0.0, "lat": 38.93875666666667, "bike_id": "64dd64f9cc6ef357aa29809d7ead5db2", "type": "electric_scooter", "is_reserved": 0, "lon": -77.02464833333333}, {"fusion_lat": 0.0, "name": "319e88843125b47a8d503c6cf677639f", "is_disabled": 0, "rental_uris": {"android": "https://dc.lft.to/lastmile_qr_scan", "ios": "https://dc.lft.to/lastmile_qr_scan"}, "fusion_lon": 0.0, "lat": 38.89218533333333, "bike_id": "319e88843125b47a8d503c6cf677639f", "type": "electric_scooter", "is_reserved": 0, "lon": -77.024161}, {"fusion_lat": 0.0, "name": "a42d6c46af27c8b1331843b39678264c", "is_disabled": 0, "rental_uris": {"android": "https://dc.lft.to/lastmile_qr_scan", "ios": "https://dc.lft.to/lastmile_qr_scan"}, "fusion_lon": 0.0, "lat": 38.9125435, "bike_id": "a42d6c46af27c8b1331843b39678264c", "type": "electric_scooter", "is_reserved": 0, "lon": -77.03214466666667}, {"fusion_lat": 0.0, "name": "fdf569a65064471ad82c5561702627f3", "is_disabled": 0, "rental_uris": {"android": "https://dc.lft.to/lastmile_qr_scan", "ios": "https://dc.lft.to/lastmile_qr_scan"}, "fusion_lon": 0.0, "lat": 38.89222733333333, "bike_id": "fdf569a65064471ad82c5561702627f3", "type": "electric_scooter", "is_reserved": 0, "lon": -77.0419665}, {"fusion_lat": 0.0, "name": "602fdb229dd67c397b04e51cec3ce6b4", "is_disabled": 0, "rental_uris": {"android": "https://dc.lft.to/lastmile_qr_scan", "ios": "https://dc.lft.to/lastmile_qr_scan"}, "fusion_lon": 0.0, "lat": 38.9446015, "bike_id": "602fdb229dd67c397b04e51cec3ce6b4", "type": "electric_scooter", "is_reserved": 0, "lon": -77.00662016666666}, {"fusion_lat": 0.0, "name": "cb4dfa372295ea2951aa30836e49aba2", "is_disabled": 0, "rental_uris": {"android": "https://dc.lft.to/lastmile_qr_scan", "ios": "https://dc.lft.to/lastmile_qr_scan"}, "fusion_lon": 0.0, "lat": 38.92354916666667, "bike_id": "cb4dfa372295ea2951aa30836e49aba2", "type": "electric_scooter", "is_reserved": 0, "lon": -77.043812}, {"fusion_lat": 0.0, "name": "30192208cfb3b2d916e90c7ba8f815aa", "is_disabled": 0, "rental_uris": {"android": "https://dc.lft.to/lastmile_qr_scan", "ios": "https://dc.lft.to/lastmile_qr_scan"}, "fusion_lon": 0.0, "lat": 38.89223633333334, "bike_id": "30192208cfb3b2d916e90c7ba8f815aa", "type": "electric_scooter", "is_reserved": 0, "lon": -77.04507166666667}, {"fusion_lat": 0.0, "name": "ae979398c5f08803274670944bf6244b", "is_disabled": 0, "rental_uris": {"android": "https://dc.lft.to/lastmile_qr_scan", "ios": "https://dc.lft.to/lastmile_qr_scan"}, "fusion_lon": 0.0, "lat": 38.8746455, "bike_id": "ae979398c5f08803274670944bf6244b", "type": "electric_scooter", "is_reserved": 0, "lon": -77.018987}, {"fusion_lat": 0.0, "name": "1174c8a22f79d5a5be66cc799096ad52", "is_disabled": 0, "rental_uris": {"android": "https://dc.lft.to/lastmile_qr_scan", "ios": "https://dc.lft.to/lastmile_qr_scan"}, "fusion_lon": 0.0, "lat": 38.89909733333333, "bike_id": "1174c8a22f79d5a5be66cc799096ad52", "type": "electric_scooter", "is_reserved": 0, "lon": -76.9454985}, {"fusion_lat": 0.0, "name": "316ffce43612665dfd16649de0b4ba22", "is_disabled": 0, "rental_uris": {"android": "https://dc.lft.to/lastmile_qr_scan", "ios": "https://dc.lft.to/lastmile_qr_scan"}, "fusion_lon": 0.0, "lat": 38.88767633333333, "bike_id": "316ffce43612665dfd16649de0b4ba22", "type": "electric_scooter", "is_reserved": 0, "lon": -76.977513}, {"fusion_lat": 0.0, "name": "35050eed059480ea511bed908ed5b0b5", "is_disabled": 0, "rental_uris": {"android": "https://dc.lft.to/lastmile_qr_scan", "ios": "https://dc.lft.to/lastmile_qr_scan"}, "fusion_lon": 0.0, "lat": 38.824581, "bike_id": "35050eed059480ea511bed908ed5b0b5", "type": "electric_bike", "is_reserved": 0, "lon": -77.00792633333333}, {"fusion_lat": 0.0, "name": "f6a58114470de81a7b90fc802beaf7f4", "is_disabled": 0, "rental_uris": {"android": "https://dc.lft.to/lastmile_qr_scan", "ios": "https://dc.lft.to/lastmile_qr_scan"}, "fusion_lon": 0.0, "lat": 38.916193666666665, "bike_id": "f6a58114470de81a7b90fc802beaf7f4", "type": "electric_scooter", "is_reserved": 0, "lon": -77.038561}, {"fusion_lat": 0.0, "name": "8a12ec6433e517cc276ea9622c1767cb", "is_disabled": 0, "rental_uris": {"android": "https://dc.lft.to/lastmile_qr_scan", "ios": "https://dc.lft.to/lastmile_qr_scan"}, "fusion_lon": 0.0, "lat": 38.90552266666667, "bike_id": "8a12ec6433e517cc276ea9622c1767cb", "type": "electric_scooter", "is_reserved": 0, "lon": -77.00487133333333}, {"fusion_lat": 0.0, "name": "3a3837fe3841f6a762dd55f5017b58aa", "is_disabled": 0, "rental_uris": {"android": "https://dc.lft.to/lastmile_qr_scan", "ios": "https://dc.lft.to/lastmile_qr_scan"}, "fusion_lon": 0.0, "lat": 38.93872116666667, "bike_id": "3a3837fe3841f6a762dd55f5017b58aa", "type": "electric_scooter", "is_reserved": 0, "lon": -77.0322645}, {"fusion_lat": 0.0, "name": "84f2c3ddc5af4d65c16c07cadbd21acb", "is_disabled": 0, "rental_uris": {"android": "https://dc.lft.to/lastmile_qr_scan", "ios": "https://dc.lft.to/lastmile_qr_scan"}, "fusion_lon": 0.0, "lat": 38.90489083333333, "bike_id": "84f2c3ddc5af4d65c16c07cadbd21acb", "type": "electric_scooter", "is_reserved": 0, "lon": -77.02586233333334}, {"fusion_lat": 0.0, "name": "9ff9caa59d50e6b77368dc3f9e34b7de", "is_disabled": 0, "rental_uris": {"android": "https://dc.lft.to/lastmile_qr_scan", "ios": "https://dc.lft.to/lastmile_qr_scan"}, "fusion_lon": 0.0, "lat": 38.84504, "bike_id": "9ff9caa59d50e6b77368dc3f9e34b7de", "type": "electric_bike", "is_reserved": 0, "lon": -76.99355433333334}, {"fusion_lat": 0.0, "name": "eb7f20984bbe3edd71912afbd1851b18", "is_disabled": 0, "rental_uris": {"android": "https://dc.lft.to/lastmile_qr_scan", "ios": "https://dc.lft.to/lastmile_qr_scan"}, "fusion_lon": 0.0, "lat": 38.932194333333335, "bike_id": "eb7f20984bbe3edd71912afbd1851b18", "type": "electric_scooter", "is_reserved": 0, "lon": -77.0441145}, {"fusion_lat": 0.0, "name": "799e143925279bc8018abfd9b39dd4c6", "is_disabled": 0, "rental_uris": {"android": "https://dc.lft.to/lastmile_qr_scan", "ios": "https://dc.lft.to/lastmile_qr_scan"}, "fusion_lon": 0.0, "lat": 38.916844, "bike_id": "799e143925279bc8018abfd9b39dd4c6", "type": "electric_scooter", "is_reserved": 0, "lon": -77.02953516666666}, {"fusion_lat": 0.0, "name": "e7c47637fab35a3dff6c36ea0b233a55", "is_disabled": 0, "rental_uris": {"android": "https://dc.lft.to/lastmile_qr_scan", "ios": "https://dc.lft.to/lastmile_qr_scan"}, "fusion_lon": 0.0, "lat": 38.89949416666666, "bike_id": "e7c47637fab35a3dff6c36ea0b233a55", "type": "electric_scooter", "is_reserved": 0, "lon": -77.040618}, {"fusion_lat": 0.0, "name": "31feaa679ef1ab7cc64d216ed7dd5aec", "is_disabled": 0, "rental_uris": {"android": "https://dc.lft.to/lastmile_qr_scan", "ios": "https://dc.lft.to/lastmile_qr_scan"}, "fusion_lon": 0.0, "lat": 38.90810283333333, "bike_id": "31feaa679ef1ab7cc64d216ed7dd5aec", "type": "electric_scooter", "is_reserved": 0, "lon": -77.0432915}, {"fusion_lat": 0.0, "name": "5743a5b0fba7b1d9ddadd59ead848cce", "is_disabled": 0, "rental_uris": {"android": "https://dc.lft.to/lastmile_qr_scan", "ios": "https://dc.lft.to/lastmile_qr_scan"}, "fusion_lon": 0.0, "lat": 38.9232525, "bike_id": "5743a5b0fba7b1d9ddadd59ead848cce", "type": "electric_scooter", "is_reserved": 0, "lon": -77.04372066666667}, {"fusion_lat": 0.0, "name": "2e2854213c91089d071f343a0bda50eb", "is_disabled": 0, "rental_uris": {"android": "https://dc.lft.to/lastmile_qr_scan", "ios": "https://dc.lft.to/lastmile_qr_scan"}, "fusion_lon": 0.0, "lat": 38.89552883333333, "bike_id": "2e2854213c91089d071f343a0bda50eb", "type": "electric_scooter", "is_reserved": 0, "lon": -76.99840183333333}, {"fusion_lat": 0.0, "name": "d19069cb8afe0d5f70f077617c5945f8", "is_disabled": 0, "rental_uris": {"android": "https://dc.lft.to/lastmile_qr_scan", "ios": "https://dc.lft.to/lastmile_qr_scan"}, "fusion_lon": 0.0, "lat": 38.919013, "bike_id": "d19069cb8afe0d5f70f077617c5945f8", "type": "electric_scooter", "is_reserved": 0, "lon": -77.01454433333333}, {"fusion_lat": 0.0, "name": "b3e939772526557e5b461c6b5e858730", "is_disabled": 0, "rental_uris": {"android": "https://dc.lft.to/lastmile_qr_scan", "ios": "https://dc.lft.to/lastmile_qr_scan"}, "fusion_lon": 0.0, "lat": 38.911266833333336, "bike_id": "b3e939772526557e5b461c6b5e858730", "type": "electric_scooter", "is_reserved": 0, "lon": -77.03249116666667}, {"fusion_lat": 0.0, "name": "15ca6ec35c076bf177c6b74da46c2754", "is_disabled": 0, "rental_uris": {"android": "https://dc.lft.to/lastmile_qr_scan", "ios": "https://dc.lft.to/lastmile_qr_scan"}, "fusion_lon": 0.0, "lat": 38.93184483333334, "bike_id": "15ca6ec35c076bf177c6b74da46c2754", "type": "electric_scooter", "is_reserved": 0, "lon": -77.03843616666667}, {"fusion_lat": 0.0, "name": "cd28d0bd81dc79e5d1d102c3f551b830", "is_disabled": 0, "rental_uris": {"android": "https://dc.lft.to/lastmile_qr_scan", "ios": "https://dc.lft.to/lastmile_qr_scan"}, "fusion_lon": 0.0, "lat": 38.97955833333333, "bike_id": "cd28d0bd81dc79e5d1d102c3f551b830", "type": "electric_scooter", "is_reserved": 0, "lon": -77.0261485}, {"fusion_lat": 0.0, "name": "b971f467a97724e79e9a61ea9fb48d4c", "is_disabled": 0, "rental_uris": {"android": "https://dc.lft.to/lastmile_qr_scan", "ios": "https://dc.lft.to/lastmile_qr_scan"}, "fusion_lon": 0.0, "lat": 38.903008166666666, "bike_id": "b971f467a97724e79e9a61ea9fb48d4c", "type": "electric_scooter", "is_reserved": 0, "lon": -76.97645516666667}, {"fusion_lat": 0.0, "name": "baf9d4d26fdb2b968dc7f59cf525c9a7", "is_disabled": 0, "rental_uris": {"android": "https://dc.lft.to/lastmile_qr_scan", "ios": "https://dc.lft.to/lastmile_qr_scan"}, "fusion_lon": 0.0, "lat": 38.90163666666667, "bike_id": "baf9d4d26fdb2b968dc7f59cf525c9a7", "type": "electric_scooter", "is_reserved": 0, "lon": -77.02606333333334}, {"fusion_lat": 0.0, "name": "acf9bce660913f320e8af5f937d30ac1", "is_disabled": 0, "rental_uris": {"android": "https://dc.lft.to/lastmile_qr_scan", "ios": "https://dc.lft.to/lastmile_qr_scan"}, "fusion_lon": 0.0, "lat": 38.943814833333334, "bike_id": "acf9bce660913f320e8af5f937d30ac1", "type": "electric_scooter", "is_reserved": 0, "lon": -77.02612966666666}, {"fusion_lat": 0.0, "name": "d09af69fcc386169416f127dd4b3f101", "is_disabled": 0, "rental_uris": {"android": "https://dc.lft.to/lastmile_qr_scan", "ios": "https://dc.lft.to/lastmile_qr_scan"}, "fusion_lon": 0.0, "lat": 38.926686, "bike_id": "d09af69fcc386169416f127dd4b3f101", "type": "electric_scooter", "is_reserved": 0, "lon": -77.03227133333333}, {"fusion_lat": 0.0, "name": "2a23c2b30b3932d8e98709b579530b7a", "is_disabled": 0, "rental_uris": {"android": "https://dc.lft.to/lastmile_qr_scan", "ios": "https://dc.lft.to/lastmile_qr_scan"}, "fusion_lon": 0.0, "lat": 38.88664216666667, "bike_id": "2a23c2b30b3932d8e98709b579530b7a", "type": "electric_scooter", "is_reserved": 0, "lon": -77.0282175}, {"fusion_lat": 0.0, "name": "e0a42076ff2916932697a44bc945f3aa", "is_disabled": 0, "rental_uris": {"android": "https://dc.lft.to/lastmile_qr_scan", "ios": "https://dc.lft.to/lastmile_qr_scan"}, "fusion_lon": 0.0, "lat": 38.9319575, "bike_id": "e0a42076ff2916932697a44bc945f3aa", "type": "electric_scooter", "is_reserved": 0, "lon": -77.0375015}, {"fusion_lat": 0.0, "name": "7e89f6193c2c1d7a6f7137fbff4bdce1", "is_disabled": 0, "rental_uris": {"android": "https://dc.lft.to/lastmile_qr_scan", "ios": "https://dc.lft.to/lastmile_qr_scan"}, "fusion_lon": 0.0, "lat": 38.99442783333333, "bike_id": "7e89f6193c2c1d7a6f7137fbff4bdce1", "type": "electric_bike", "is_reserved": 0, "lon": -76.99587333333334}, {"fusion_lat": 0.0, "name": "043e39e54fdf07e2bcd3033a14f4fa46", "is_disabled": 0, "rental_uris": {"android": "https://dc.lft.to/lastmile_qr_scan", "ios": "https://dc.lft.to/lastmile_qr_scan"}, "fusion_lon": 0.0, "lat": 38.921071166666664, "bike_id": "043e39e54fdf07e2bcd3033a14f4fa46", "type": "electric_scooter", "is_reserved": 0, "lon": -77.04689033333334}, {"fusion_lat": 0.0, "name": "c58088c7ef80550187be46a4e9e04924", "is_disabled": 0, "rental_uris": {"android": "https://dc.lft.to/lastmile_qr_scan", "ios": "https://dc.lft.to/lastmile_qr_scan"}, "fusion_lon": 0.0, "lat": 38.916810166666664, "bike_id": "c58088c7ef80550187be46a4e9e04924", "type": "electric_scooter", "is_reserved": 0, "lon": -77.03775583333334}, {"fusion_lat": 0.0, "name": "faa787b10cd9a26c4ca1d056128688c0", "is_disabled": 0, "rental_uris": {"android": "https://dc.lft.to/lastmile_qr_scan", "ios": "https://dc.lft.to/lastmile_qr_scan"}, "fusion_lon": 0.0, "lat": 38.940565166666666, "bike_id": "faa787b10cd9a26c4ca1d056128688c0", "type": "electric_bike", "is_reserved": 0, "lon": -76.90415316666666}, {"fusion_lat": 0.0, "name": "fcfe500e5840ff500d254af3a8ff9048", "is_disabled": 0, "rental_uris": {"android": "https://dc.lft.to/lastmile_qr_scan", "ios": "https://dc.lft.to/lastmile_qr_scan"}, "fusion_lon": 0.0, "lat": 38.90166833333333, "bike_id": "fcfe500e5840ff500d254af3a8ff9048", "type": "electric_scooter", "is_reserved": 0, "lon": -76.980863}, {"fusion_lat": 0.0, "name": "cdfe9421f6d2d7b5eae66774aac9fd78", "is_disabled": 0, "rental_uris": {"android": "https://dc.lft.to/lastmile_qr_scan", "ios": "https://dc.lft.to/lastmile_qr_scan"}, "fusion_lon": 0.0, "lat": 38.910702, "bike_id": "cdfe9421f6d2d7b5eae66774aac9fd78", "type": "electric_scooter", "is_reserved": 0, "lon": -77.02715083333334}, {"fusion_lat": 0.0, "name": "eb9a3dc39b865368c9ac34f7c14bc4ae", "is_disabled": 0, "rental_uris": {"android": "https://dc.lft.to/lastmile_qr_scan", "ios": "https://dc.lft.to/lastmile_qr_scan"}, "fusion_lon": 0.0, "lat": 38.8853245, "bike_id": "eb9a3dc39b865368c9ac34f7c14bc4ae", "type": "electric_scooter", "is_reserved": 0, "lon": -76.92916533333333}, {"fusion_lat": 0.0, "name": "0d677c821ba6c19525310bb86ec95090", "is_disabled": 0, "rental_uris": {"android": "https://dc.lft.to/lastmile_qr_scan", "ios": "https://dc.lft.to/lastmile_qr_scan"}, "fusion_lon": 0.0, "lat": 38.899053333333335, "bike_id": "0d677c821ba6c19525310bb86ec95090", "type": "electric_scooter", "is_reserved": 0, "lon": -76.9335955}, {"fusion_lat": 0.0, "name": "893751642f04dbb5e5589dbe0b011a42", "is_disabled": 0, "rental_uris": {"android": "https://dc.lft.to/lastmile_qr_scan", "ios": "https://dc.lft.to/lastmile_qr_scan"}, "fusion_lon": 0.0, "lat": 38.9309455, "bike_id": "893751642f04dbb5e5589dbe0b011a42", "type": "electric_scooter", "is_reserved": 0, "lon": -77.025514}, {"fusion_lat": 0.0, "name": "cf41d45a9cac5290305942de44fb6af1", "is_disabled": 0, "rental_uris": {"android": "https://dc.lft.to/lastmile_qr_scan", "ios": "https://dc.lft.to/lastmile_qr_scan"}, "fusion_lon": 0.0, "lat": 38.89326066666667, "bike_id": "cf41d45a9cac5290305942de44fb6af1", "type": "electric_scooter", "is_reserved": 0, "lon": -77.039593}, {"fusion_lat": 0.0, "name": "40252085cac49eba0874fb7bea323fc6", "is_disabled": 0, "rental_uris": {"android": "https://dc.lft.to/lastmile_qr_scan", "ios": "https://dc.lft.to/lastmile_qr_scan"}, "fusion_lon": 0.0, "lat": 38.91618066666667, "bike_id": "40252085cac49eba0874fb7bea323fc6", "type": "electric_scooter", "is_reserved": 0, "lon": -77.00327483333334}, {"fusion_lat": 0.0, "name": "6eefb0996080c3721310d44a34d1ad2d", "is_disabled": 0, "rental_uris": {"android": "https://dc.lft.to/lastmile_qr_scan", "ios": "https://dc.lft.to/lastmile_qr_scan"}, "fusion_lon": 0.0, "lat": 38.87577866666667, "bike_id": "6eefb0996080c3721310d44a34d1ad2d", "type": "electric_bike", "is_reserved": 0, "lon": -77.23412116666667}, {"fusion_lat": 0.0, "name": "2132131612ff45b7e243f18d62c03f9d", "is_disabled": 0, "rental_uris": {"android": "https://dc.lft.to/lastmile_qr_scan", "ios": "https://dc.lft.to/lastmile_qr_scan"}, "fusion_lon": 0.0, "lat": 38.928377833333336, "bike_id": "2132131612ff45b7e243f18d62c03f9d", "type": "electric_scooter", "is_reserved": 0, "lon": -77.015896}, {"fusion_lat": 0.0, "name": "6340b37d914bf9c596a3a93550f6f1c1", "is_disabled": 0, "rental_uris": {"android": "https://dc.lft.to/lastmile_qr_scan", "ios": "https://dc.lft.to/lastmile_qr_scan"}, "fusion_lon": 0.0, "lat": 38.93533016666667, "bike_id": "6340b37d914bf9c596a3a93550f6f1c1", "type": "electric_scooter", "is_reserved": 0, "lon": -77.02354133333333}, {"fusion_lat": 0.0, "name": "61d476a172dd6d2a656defc7ca011d92", "is_disabled": 0, "rental_uris": {"android": "https://dc.lft.to/lastmile_qr_scan", "ios": "https://dc.lft.to/lastmile_qr_scan"}, "fusion_lon": 0.0, "lat": 38.96313933333333, "bike_id": "61d476a172dd6d2a656defc7ca011d92", "type": "electric_scooter", "is_reserved": 0, "lon": -77.0749145}, {"fusion_lat": 0.0, "name": "622b93ae3a245d57e3193a7a5a6d60ac", "is_disabled": 0, "rental_uris": {"android": "https://dc.lft.to/lastmile_qr_scan", "ios": "https://dc.lft.to/lastmile_qr_scan"}, "fusion_lon": 0.0, "lat": 38.91258216666667, "bike_id": "622b93ae3a245d57e3193a7a5a6d60ac", "type": "electric_scooter", "is_reserved": 0, "lon": -77.00322583333333}, {"fusion_lat": 0.0, "name": "90647616b36df3fc7e09afb6ae27a09d", "is_disabled": 0, "rental_uris": {"android": "https://dc.lft.to/lastmile_qr_scan", "ios": "https://dc.lft.to/lastmile_qr_scan"}, "fusion_lon": 0.0, "lat": 38.899135, "bike_id": "90647616b36df3fc7e09afb6ae27a09d", "type": "electric_scooter", "is_reserved": 0, "lon": -76.9457885}, {"fusion_lat": 0.0, "name": "35ee3323695d13ac85371cea204056d4", "is_disabled": 0, "rental_uris": {"android": "https://dc.lft.to/lastmile_qr_scan", "ios": "https://dc.lft.to/lastmile_qr_scan"}, "fusion_lon": 0.0, "lat": 38.896868166666664, "bike_id": "35ee3323695d13ac85371cea204056d4", "type": "electric_scooter", "is_reserved": 0, "lon": -76.937096}, {"fusion_lat": 0.0, "name": "9081bc8638c612f4a8470adb343c2bdf", "is_disabled": 0, "rental_uris": {"android": "https://dc.lft.to/lastmile_qr_scan", "ios": "https://dc.lft.to/lastmile_qr_scan"}, "fusion_lon": 0.0, "lat": 38.939269, "bike_id": "9081bc8638c612f4a8470adb343c2bdf", "type": "electric_scooter", "is_reserved": 0, "lon": -77.07476416666667}, {"fusion_lat": 0.0, "name": "1ddb5058a9df023841b4080803194e3c", "is_disabled": 0, "rental_uris": {"android": "https://dc.lft.to/lastmile_qr_scan", "ios": "https://dc.lft.to/lastmile_qr_scan"}, "fusion_lon": 0.0, "lat": 38.9039975, "bike_id": "1ddb5058a9df023841b4080803194e3c", "type": "electric_scooter", "is_reserved": 0, "lon": -77.0502605}, {"fusion_lat": 0.0, "name": "4ecde486a1433c46dc17bcf8b9e63481", "is_disabled": 0, "rental_uris": {"android": "https://dc.lft.to/lastmile_qr_scan", "ios": "https://dc.lft.to/lastmile_qr_scan"}, "fusion_lon": 0.0, "lat": 38.892239000000004, "bike_id": "4ecde486a1433c46dc17bcf8b9e63481", "type": "electric_scooter", "is_reserved": 0, "lon": -77.031884}, {"fusion_lat": 0.0, "name": "0d6e391980ef8fa09b182477d95fb0cb", "is_disabled": 0, "rental_uris": {"android": "https://dc.lft.to/lastmile_qr_scan", "ios": "https://dc.lft.to/lastmile_qr_scan"}, "fusion_lon": 0.0, "lat": 38.92735916666667, "bike_id": "0d6e391980ef8fa09b182477d95fb0cb", "type": "electric_scooter", "is_reserved": 0, "lon": -77.042184}, {"fusion_lat": 0.0, "name": "84c3c77bd4221ab5923bd37cdc3d2332", "is_disabled": 0, "rental_uris": {"android": "https://dc.lft.to/lastmile_qr_scan", "ios": "https://dc.lft.to/lastmile_qr_scan"}, "fusion_lon": 0.0, "lat": 38.9074515, "bike_id": "84c3c77bd4221ab5923bd37cdc3d2332", "type": "electric_scooter", "is_reserved": 0, "lon": -77.00494633333334}, {"fusion_lat": 0.0, "name": "65dad19f4f70489705736d6d604d5dbc", "is_disabled": 0, "rental_uris": {"android": "https://dc.lft.to/lastmile_qr_scan", "ios": "https://dc.lft.to/lastmile_qr_scan"}, "fusion_lon": 0.0, "lat": 38.923378, "bike_id": "65dad19f4f70489705736d6d604d5dbc", "type": "electric_scooter", "is_reserved": 0, "lon": -77.0561685}, {"fusion_lat": 0.0, "name": "2c6ff0b2239832d22e607a29f6b10cdd", "is_disabled": 0, "rental_uris": {"android": "https://dc.lft.to/lastmile_qr_scan", "ios": "https://dc.lft.to/lastmile_qr_scan"}, "fusion_lon": 0.0, "lat": 38.900341166666664, "bike_id": "2c6ff0b2239832d22e607a29f6b10cdd", "type": "electric_scooter", "is_reserved": 0, "lon": -76.98851833333333}, {"fusion_lat": 0.0, "name": "3c55a2e04353d37cd2724fcfd4eb10ac", "is_disabled": 0, "rental_uris": {"android": "https://dc.lft.to/lastmile_qr_scan", "ios": "https://dc.lft.to/lastmile_qr_scan"}, "fusion_lon": 0.0, "lat": 38.927833166666666, "bike_id": "3c55a2e04353d37cd2724fcfd4eb10ac", "type": "electric_scooter", "is_reserved": 0, "lon": -77.02730966666667}, {"fusion_lat": 0.0, "name": "688fdc7b880b1a77a78a693d7dc67acf", "is_disabled": 0, "rental_uris": {"android": "https://dc.lft.to/lastmile_qr_scan", "ios": "https://dc.lft.to/lastmile_qr_scan"}, "fusion_lon": 0.0, "lat": 38.88452266666667, "bike_id": "688fdc7b880b1a77a78a693d7dc67acf", "type": "electric_scooter", "is_reserved": 0, "lon": -76.99838133333333}, {"fusion_lat": 0.0, "name": "fc94e900bcd82d1b4b3df20ba5ba18eb", "is_disabled": 0, "rental_uris": {"android": "https://dc.lft.to/lastmile_qr_scan", "ios": "https://dc.lft.to/lastmile_qr_scan"}, "fusion_lon": 0.0, "lat": 38.802945, "bike_id": "fc94e900bcd82d1b4b3df20ba5ba18eb", "type": "electric_bike", "is_reserved": 0, "lon": -77.05934883333333}, {"fusion_lat": 0.0, "name": "11f5c86700231250e0d3948c8dde6616", "is_disabled": 0, "rental_uris": {"android": "https://dc.lft.to/lastmile_qr_scan", "ios": "https://dc.lft.to/lastmile_qr_scan"}, "fusion_lon": 0.0, "lat": 38.9002065, "bike_id": "11f5c86700231250e0d3948c8dde6616", "type": "electric_scooter", "is_reserved": 0, "lon": -77.01222666666666}, {"fusion_lat": 0.0, "name": "69cb77e1eb49b1bb79527263a93c656d", "is_disabled": 0, "rental_uris": {"android": "https://dc.lft.to/lastmile_qr_scan", "ios": "https://dc.lft.to/lastmile_qr_scan"}, "fusion_lon": 0.0, "lat": 38.89221766666667, "bike_id": "69cb77e1eb49b1bb79527263a93c656d", "type": "electric_scooter", "is_reserved": 0, "lon": -77.04195016666667}, {"fusion_lat": 0.0, "name": "60818fededc324650740ed2e551f889a", "is_disabled": 0, "rental_uris": {"android": "https://dc.lft.to/lastmile_qr_scan", "ios": "https://dc.lft.to/lastmile_qr_scan"}, "fusion_lon": 0.0, "lat": 38.923343333333335, "bike_id": "60818fededc324650740ed2e551f889a", "type": "electric_scooter", "is_reserved": 0, "lon": -77.03645566666667}, {"fusion_lat": 0.0, "name": "722a5d6d410d831bd0906278024d90b2", "is_disabled": 0, "rental_uris": {"android": "https://dc.lft.to/lastmile_qr_scan", "ios": "https://dc.lft.to/lastmile_qr_scan"}, "fusion_lon": 0.0, "lat": 38.9050645, "bike_id": "722a5d6d410d831bd0906278024d90b2", "type": "electric_bike", "is_reserved": 0, "lon": -77.06017616666666}, {"fusion_lat": 0.0, "name": "e0b75492aa2a0d4dc6833800f45cf2bc", "is_disabled": 0, "rental_uris": {"android": "https://dc.lft.to/lastmile_qr_scan", "ios": "https://dc.lft.to/lastmile_qr_scan"}, "fusion_lon": 0.0, "lat": 38.93021566666667, "bike_id": "e0b75492aa2a0d4dc6833800f45cf2bc", "type": "electric_scooter", "is_reserved": 0, "lon": -77.03789783333333}, {"fusion_lat": 0.0, "name": "680f44bb55fbb5f16baae5833891d2ed", "is_disabled": 0, "rental_uris": {"android": "https://dc.lft.to/lastmile_qr_scan", "ios": "https://dc.lft.to/lastmile_qr_scan"}, "fusion_lon": 0.0, "lat": 38.93532783333333, "bike_id": "680f44bb55fbb5f16baae5833891d2ed", "type": "electric_scooter", "is_reserved": 0, "lon": -77.023495}, {"fusion_lat": 0.0, "name": "b4123ebfdaf3bf539e07b8addeef232c", "is_disabled": 0, "rental_uris": {"android": "https://dc.lft.to/lastmile_qr_scan", "ios": "https://dc.lft.to/lastmile_qr_scan"}, "fusion_lon": 0.0, "lat": 38.924147166666664, "bike_id": "b4123ebfdaf3bf539e07b8addeef232c", "type": "electric_bike", "is_reserved": 0, "lon": -77.0504445}, {"fusion_lat": 0.0, "name": "74b23df3a173980587e47d9e4a5180c8", "is_disabled": 0, "rental_uris": {"android": "https://dc.lft.to/lastmile_qr_scan", "ios": "https://dc.lft.to/lastmile_qr_scan"}, "fusion_lon": 0.0, "lat": 38.855082333333335, "bike_id": "74b23df3a173980587e47d9e4a5180c8", "type": "electric_scooter", "is_reserved": 0, "lon": -76.96535283333333}, {"fusion_lat": 0.0, "name": "4614a10b7df21a5e041503005221f114", "is_disabled": 0, "rental_uris": {"android": "https://dc.lft.to/lastmile_qr_scan", "ios": "https://dc.lft.to/lastmile_qr_scan"}, "fusion_lon": 0.0, "lat": 38.931274, "bike_id": "4614a10b7df21a5e041503005221f114", "type": "electric_scooter", "is_reserved": 0, "lon": -77.0329035}, {"fusion_lat": 0.0, "name": "58e7627f13ddd9cd1cb8b79dd8281871", "is_disabled": 0, "rental_uris": {"android": "https://dc.lft.to/lastmile_qr_scan", "ios": "https://dc.lft.to/lastmile_qr_scan"}, "fusion_lon": 0.0, "lat": 38.91617866666667, "bike_id": "58e7627f13ddd9cd1cb8b79dd8281871", "type": "electric_scooter", "is_reserved": 0, "lon": -77.0229075}, {"fusion_lat": 0.0, "name": "1f3b3484bd6e588f90f1afb042677828", "is_disabled": 0, "rental_uris": {"android": "https://dc.lft.to/lastmile_qr_scan", "ios": "https://dc.lft.to/lastmile_qr_scan"}, "fusion_lon": 0.0, "lat": 38.992313833333334, "bike_id": "1f3b3484bd6e588f90f1afb042677828", "type": "electric_bike", "is_reserved": 0, "lon": -76.943962}, {"fusion_lat": 0.0, "name": "6513f94a5da18feeb8101f3bef0816fd", "is_disabled": 0, "rental_uris": {"android": "https://dc.lft.to/lastmile_qr_scan", "ios": "https://dc.lft.to/lastmile_qr_scan"}, "fusion_lon": 0.0, "lat": 38.884995333333336, "bike_id": "6513f94a5da18feeb8101f3bef0816fd", "type": "electric_scooter", "is_reserved": 0, "lon": -77.00055916666666}, {"fusion_lat": 0.0, "name": "7a1a39a306e1e449b9f4239548f40d53", "is_disabled": 0, "rental_uris": {"android": "https://dc.lft.to/lastmile_qr_scan", "ios": "https://dc.lft.to/lastmile_qr_scan"}, "fusion_lon": 0.0, "lat": 38.923421166666664, "bike_id": "7a1a39a306e1e449b9f4239548f40d53", "type": "electric_scooter", "is_reserved": 0, "lon": -77.040192}, {"fusion_lat": 0.0, "name": "3d70d9e398d8ad2a738eab40f85c39b7", "is_disabled": 0, "rental_uris": {"android": "https://dc.lft.to/lastmile_qr_scan", "ios": "https://dc.lft.to/lastmile_qr_scan"}, "fusion_lon": 0.0, "lat": 38.95309066666667, "bike_id": "3d70d9e398d8ad2a738eab40f85c39b7", "type": "electric_scooter", "is_reserved": 0, "lon": -77.0224895}, {"fusion_lat": 0.0, "name": "c2552d6034ce1743a54cccf9efaecbed", "is_disabled": 0, "rental_uris": {"android": "https://dc.lft.to/lastmile_qr_scan", "ios": "https://dc.lft.to/lastmile_qr_scan"}, "fusion_lon": 0.0, "lat": 38.92404583333333, "bike_id": "c2552d6034ce1743a54cccf9efaecbed", "type": "electric_scooter", "is_reserved": 0, "lon": -77.02542016666666}, {"fusion_lat": 0.0, "name": "a26036b8f47c0f6b2c5f98b1fa4d4fd0", "is_disabled": 0, "rental_uris": {"android": "https://dc.lft.to/lastmile_qr_scan", "ios": "https://dc.lft.to/lastmile_qr_scan"}, "fusion_lon": 0.0, "lat": 38.91152, "bike_id": "a26036b8f47c0f6b2c5f98b1fa4d4fd0", "type": "electric_scooter", "is_reserved": 0, "lon": -76.98719616666666}, {"fusion_lat": 0.0, "name": "5dca738227132af1e448df41500f918f", "is_disabled": 0, "rental_uris": {"android": "https://dc.lft.to/lastmile_qr_scan", "ios": "https://dc.lft.to/lastmile_qr_scan"}, "fusion_lon": 0.0, "lat": 38.873831333333335, "bike_id": "5dca738227132af1e448df41500f918f", "type": "electric_scooter", "is_reserved": 0, "lon": -77.00128166666667}, {"fusion_lat": 0.0, "name": "bf10f541efa583578ec7aa36d66f6148", "is_disabled": 0, "rental_uris": {"android": "https://dc.lft.to/lastmile_qr_scan", "ios": "https://dc.lft.to/lastmile_qr_scan"}, "fusion_lon": 0.0, "lat": 38.86764266666667, "bike_id": "bf10f541efa583578ec7aa36d66f6148", "type": "electric_scooter", "is_reserved": 0, "lon": -76.98277183333333}, {"fusion_lat": 0.0, "name": "b80e664ceec05982ef7247de5bec7fef", "is_disabled": 0, "rental_uris": {"android": "https://dc.lft.to/lastmile_qr_scan", "ios": "https://dc.lft.to/lastmile_qr_scan"}, "fusion_lon": 0.0, "lat": 38.8921985, "bike_id": "b80e664ceec05982ef7247de5bec7fef", "type": "electric_scooter", "is_reserved": 0, "lon": -77.0437}, {"fusion_lat": 0.0, "name": "f2f34bab6fd03130b8abbca639e6dfc3", "is_disabled": 0, "rental_uris": {"android": "https://dc.lft.to/lastmile_qr_scan", "ios": "https://dc.lft.to/lastmile_qr_scan"}, "fusion_lon": 0.0, "lat": 38.914884666666666, "bike_id": "f2f34bab6fd03130b8abbca639e6dfc3", "type": "electric_scooter", "is_reserved": 0, "lon": -77.014179}, {"fusion_lat": 0.0, "name": "5ba83ceca9df1206785f8671f62ee8ef", "is_disabled": 0, "rental_uris": {"android": "https://dc.lft.to/lastmile_qr_scan", "ios": "https://dc.lft.to/lastmile_qr_scan"}, "fusion_lon": 0.0, "lat": 38.90195716666667, "bike_id": "5ba83ceca9df1206785f8671f62ee8ef", "type": "electric_scooter", "is_reserved": 0, "lon": -77.02208283333333}, {"fusion_lat": 0.0, "name": "7738db460a09a066dc96396f967b6649", "is_disabled": 0, "rental_uris": {"android": "https://dc.lft.to/lastmile_qr_scan", "ios": "https://dc.lft.to/lastmile_qr_scan"}, "fusion_lon": 0.0, "lat": 38.89622966666667, "bike_id": "7738db460a09a066dc96396f967b6649", "type": "electric_scooter", "is_reserved": 0, "lon": -77.02662883333333}, {"fusion_lat": 0.0, "name": "7ae71dbb9247d88d3701b88d24c67657", "is_disabled": 0, "rental_uris": {"android": "https://dc.lft.to/lastmile_qr_scan", "ios": "https://dc.lft.to/lastmile_qr_scan"}, "fusion_lon": 0.0, "lat": 38.92660266666667, "bike_id": "7ae71dbb9247d88d3701b88d24c67657", "type": "electric_scooter", "is_reserved": 0, "lon": -77.0515065}, {"fusion_lat": 0.0, "name": "13177c65578b66445d7f5cdb7cec78df", "is_disabled": 0, "rental_uris": {"android": "https://dc.lft.to/lastmile_qr_scan", "ios": "https://dc.lft.to/lastmile_qr_scan"}, "fusion_lon": 0.0, "lat": 38.92880616666667, "bike_id": "13177c65578b66445d7f5cdb7cec78df", "type": "electric_scooter", "is_reserved": 0, "lon": -77.0348265}, {"fusion_lat": 0.0, "name": "ed07429195315d053ef554a61a5ef4b5", "is_disabled": 0, "rental_uris": {"android": "https://dc.lft.to/lastmile_qr_scan", "ios": "https://dc.lft.to/lastmile_qr_scan"}, "fusion_lon": 0.0, "lat": 38.90023133333333, "bike_id": "ed07429195315d053ef554a61a5ef4b5", "type": "electric_scooter", "is_reserved": 0, "lon": -77.00381116666667}, {"fusion_lat": 0.0, "name": "a30fc931948b80c89e93943983c59b42", "is_disabled": 0, "rental_uris": {"android": "https://dc.lft.to/lastmile_qr_scan", "ios": "https://dc.lft.to/lastmile_qr_scan"}, "fusion_lon": 0.0, "lat": 38.89787966666667, "bike_id": "a30fc931948b80c89e93943983c59b42", "type": "electric_scooter", "is_reserved": 0, "lon": -77.02712833333334}, {"fusion_lat": 0.0, "name": "7e25d94f382d2582f29db4ba9d93b6ac", "is_disabled": 0, "rental_uris": {"android": "https://dc.lft.to/lastmile_qr_scan", "ios": "https://dc.lft.to/lastmile_qr_scan"}, "fusion_lon": 0.0, "lat": 38.909396, "bike_id": "7e25d94f382d2582f29db4ba9d93b6ac", "type": "electric_scooter", "is_reserved": 0, "lon": -77.0218}, {"fusion_lat": 0.0, "name": "0122b16fac30071d4e0cb0e634fbd98d", "is_disabled": 0, "rental_uris": {"android": "https://dc.lft.to/lastmile_qr_scan", "ios": "https://dc.lft.to/lastmile_qr_scan"}, "fusion_lon": 0.0, "lat": 38.9155475, "bike_id": "0122b16fac30071d4e0cb0e634fbd98d", "type": "electric_scooter", "is_reserved": 0, "lon": -77.038245}, {"fusion_lat": 0.0, "name": "7f692701b8014c4c314931b577378d36", "is_disabled": 0, "rental_uris": {"android": "https://dc.lft.to/lastmile_qr_scan", "ios": "https://dc.lft.to/lastmile_qr_scan"}, "fusion_lon": 0.0, "lat": 38.9146645, "bike_id": "7f692701b8014c4c314931b577378d36", "type": "electric_scooter", "is_reserved": 0, "lon": -77.0389875}, {"fusion_lat": 0.0, "name": "25e0bbab07813d07e513b7ce689db977", "is_disabled": 0, "rental_uris": {"android": "https://dc.lft.to/lastmile_qr_scan", "ios": "https://dc.lft.to/lastmile_qr_scan"}, "fusion_lon": 0.0, "lat": 38.921020666666664, "bike_id": "25e0bbab07813d07e513b7ce689db977", "type": "electric_scooter", "is_reserved": 0, "lon": -77.07475633333334}, {"fusion_lat": 0.0, "name": "083e819c7e67f9d6b86e0dc85de0326d", "is_disabled": 0, "rental_uris": {"android": "https://dc.lft.to/lastmile_qr_scan", "ios": "https://dc.lft.to/lastmile_qr_scan"}, "fusion_lon": 0.0, "lat": 38.92929016666667, "bike_id": "083e819c7e67f9d6b86e0dc85de0326d", "type": "electric_scooter", "is_reserved": 0, "lon": -77.03278933333333}, {"fusion_lat": 0.0, "name": "9e37c56b41b10a1e32365bb27eb3e817", "is_disabled": 0, "rental_uris": {"android": "https://dc.lft.to/lastmile_qr_scan", "ios": "https://dc.lft.to/lastmile_qr_scan"}, "fusion_lon": 0.0, "lat": 38.898634, "bike_id": "9e37c56b41b10a1e32365bb27eb3e817", "type": "electric_scooter", "is_reserved": 0, "lon": -77.0201615}, {"fusion_lat": 0.0, "name": "73483225ec8b86bfbabbef1b4b132561", "is_disabled": 0, "rental_uris": {"android": "https://dc.lft.to/lastmile_qr_scan", "ios": "https://dc.lft.to/lastmile_qr_scan"}, "fusion_lon": 0.0, "lat": 38.9385995, "bike_id": "73483225ec8b86bfbabbef1b4b132561", "type": "electric_scooter", "is_reserved": 0, "lon": -77.024548}, {"fusion_lat": 0.0, "name": "7f370f20c4a936597a1aaccce1565a1d", "is_disabled": 0, "rental_uris": {"android": "https://dc.lft.to/lastmile_qr_scan", "ios": "https://dc.lft.to/lastmile_qr_scan"}, "fusion_lon": 0.0, "lat": 38.87375733333333, "bike_id": "7f370f20c4a936597a1aaccce1565a1d", "type": "electric_scooter", "is_reserved": 0, "lon": -77.00164166666667}, {"fusion_lat": 0.0, "name": "63a9dd441c96a6be8c613edd38b7ac55", "is_disabled": 0, "rental_uris": {"android": "https://dc.lft.to/lastmile_qr_scan", "ios": "https://dc.lft.to/lastmile_qr_scan"}, "fusion_lon": 0.0, "lat": 38.897206, "bike_id": "63a9dd441c96a6be8c613edd38b7ac55", "type": "electric_scooter", "is_reserved": 0, "lon": -77.02158566666667}, {"fusion_lat": 0.0, "name": "c7999cfb5abf1126a6ba3e1ef9cf0834", "is_disabled": 0, "rental_uris": {"android": "https://dc.lft.to/lastmile_qr_scan", "ios": "https://dc.lft.to/lastmile_qr_scan"}, "fusion_lon": 0.0, "lat": 38.9257385, "bike_id": "c7999cfb5abf1126a6ba3e1ef9cf0834", "type": "electric_scooter", "is_reserved": 0, "lon": -77.03748283333333}, {"fusion_lat": 0.0, "name": "8ffd189624bf34a9814efa79cfda7b3b", "is_disabled": 0, "rental_uris": {"android": "https://dc.lft.to/lastmile_qr_scan", "ios": "https://dc.lft.to/lastmile_qr_scan"}, "fusion_lon": 0.0, "lat": 38.90663083333333, "bike_id": "8ffd189624bf34a9814efa79cfda7b3b", "type": "electric_scooter", "is_reserved": 0, "lon": -77.07012433333334}, {"fusion_lat": 0.0, "name": "2cacb61a249925b25e4a0303b86a1244", "is_disabled": 0, "rental_uris": {"android": "https://dc.lft.to/lastmile_qr_scan", "ios": "https://dc.lft.to/lastmile_qr_scan"}, "fusion_lon": 0.0, "lat": 38.912729, "bike_id": "2cacb61a249925b25e4a0303b86a1244", "type": "electric_scooter", "is_reserved": 0, "lon": -77.03237633333333}, {"fusion_lat": 0.0, "name": "0ee435a08c61abd82f8a108d0640634f", "is_disabled": 0, "rental_uris": {"android": "https://dc.lft.to/lastmile_qr_scan", "ios": "https://dc.lft.to/lastmile_qr_scan"}, "fusion_lon": 0.0, "lat": 38.89909516666667, "bike_id": "0ee435a08c61abd82f8a108d0640634f", "type": "electric_scooter", "is_reserved": 0, "lon": -76.9335285}, {"fusion_lat": 0.0, "name": "2b54557985dcbef6f4f0f4ad4f619a93", "is_disabled": 0, "rental_uris": {"android": "https://dc.lft.to/lastmile_qr_scan", "ios": "https://dc.lft.to/lastmile_qr_scan"}, "fusion_lon": 0.0, "lat": 38.9081475, "bike_id": "2b54557985dcbef6f4f0f4ad4f619a93", "type": "electric_scooter", "is_reserved": 0, "lon": -77.04309483333333}, {"fusion_lat": 0.0, "name": "eef63c5503a1ec2bc91d9991e7c95295", "is_disabled": 0, "rental_uris": {"android": "https://dc.lft.to/lastmile_qr_scan", "ios": "https://dc.lft.to/lastmile_qr_scan"}, "fusion_lon": 0.0, "lat": 38.93409783333333, "bike_id": "eef63c5503a1ec2bc91d9991e7c95295", "type": "electric_scooter", "is_reserved": 0, "lon": -77.04158816666667}, {"fusion_lat": 0.0, "name": "5e0a47158ce60009fcfa429aa98a798a", "is_disabled": 0, "rental_uris": {"android": "https://dc.lft.to/lastmile_qr_scan", "ios": "https://dc.lft.to/lastmile_qr_scan"}, "fusion_lon": 0.0, "lat": 38.935104833333334, "bike_id": "5e0a47158ce60009fcfa429aa98a798a", "type": "electric_scooter", "is_reserved": 0, "lon": -77.0240475}, {"fusion_lat": 0.0, "name": "838fa49865d053324586d4b45c0754f6", "is_disabled": 0, "rental_uris": {"android": "https://dc.lft.to/lastmile_qr_scan", "ios": "https://dc.lft.to/lastmile_qr_scan"}, "fusion_lon": 0.0, "lat": 38.900796166666666, "bike_id": "838fa49865d053324586d4b45c0754f6", "type": "electric_scooter", "is_reserved": 0, "lon": -77.05836116666667}, {"fusion_lat": 0.0, "name": "8e1245cbe2fa019ac80c59a900653376", "is_disabled": 0, "rental_uris": {"android": "https://dc.lft.to/lastmile_qr_scan", "ios": "https://dc.lft.to/lastmile_qr_scan"}, "fusion_lon": 0.0, "lat": 38.9265525, "bike_id": "8e1245cbe2fa019ac80c59a900653376", "type": "electric_scooter", "is_reserved": 0, "lon": -77.02424666666667}, {"fusion_lat": 0.0, "name": "94033d0575258ed99c0a8e8dd250d0fd", "is_disabled": 0, "rental_uris": {"android": "https://dc.lft.to/lastmile_qr_scan", "ios": "https://dc.lft.to/lastmile_qr_scan"}, "fusion_lon": 0.0, "lat": 38.917042, "bike_id": "94033d0575258ed99c0a8e8dd250d0fd", "type": "electric_scooter", "is_reserved": 0, "lon": -77.034686}, {"fusion_lat": 0.0, "name": "d7a6e699f4653ddb6be15afc72ed2b78", "is_disabled": 0, "rental_uris": {"android": "https://dc.lft.to/lastmile_qr_scan", "ios": "https://dc.lft.to/lastmile_qr_scan"}, "fusion_lon": 0.0, "lat": 38.89252533333333, "bike_id": "d7a6e699f4653ddb6be15afc72ed2b78", "type": "electric_scooter", "is_reserved": 0, "lon": -77.03346066666667}, {"fusion_lat": 0.0, "name": "66dbb8b5b10c08a03e05d545b3e1e4a9", "is_disabled": 0, "rental_uris": {"android": "https://dc.lft.to/lastmile_qr_scan", "ios": "https://dc.lft.to/lastmile_qr_scan"}, "fusion_lon": 0.0, "lat": 38.909750333333335, "bike_id": "66dbb8b5b10c08a03e05d545b3e1e4a9", "type": "electric_scooter", "is_reserved": 0, "lon": -77.0088735}, {"fusion_lat": 0.0, "name": "ba44b45cc42e74d7df8c9bfbc7e90f95", "is_disabled": 0, "rental_uris": {"android": "https://dc.lft.to/lastmile_qr_scan", "ios": "https://dc.lft.to/lastmile_qr_scan"}, "fusion_lon": 0.0, "lat": 38.92747, "bike_id": "ba44b45cc42e74d7df8c9bfbc7e90f95", "type": "electric_scooter", "is_reserved": 0, "lon": -77.0253885}, {"fusion_lat": 0.0, "name": "e6ec946d326804b95d96aaea071d9a6c", "is_disabled": 0, "rental_uris": {"android": "https://dc.lft.to/lastmile_qr_scan", "ios": "https://dc.lft.to/lastmile_qr_scan"}, "fusion_lon": 0.0, "lat": 38.88769333333333, "bike_id": "e6ec946d326804b95d96aaea071d9a6c", "type": "electric_scooter", "is_reserved": 0, "lon": -76.9774935}, {"fusion_lat": 0.0, "name": "8154a9ce2c6e8967f5eb39a5e914ba31", "is_disabled": 0, "rental_uris": {"android": "https://dc.lft.to/lastmile_qr_scan", "ios": "https://dc.lft.to/lastmile_qr_scan"}, "fusion_lon": 0.0, "lat": 38.900515, "bike_id": "8154a9ce2c6e8967f5eb39a5e914ba31", "type": "electric_scooter", "is_reserved": 0, "lon": -77.02609783333334}, {"fusion_lat": 0.0, "name": "f5fbc4ef2f69cb220ff574c7a70a7e49", "is_disabled": 0, "rental_uris": {"android": "https://dc.lft.to/lastmile_qr_scan", "ios": "https://dc.lft.to/lastmile_qr_scan"}, "fusion_lon": 0.0, "lat": 38.936292, "bike_id": "f5fbc4ef2f69cb220ff574c7a70a7e49", "type": "electric_scooter", "is_reserved": 0, "lon": -77.03661233333334}, {"fusion_lat": 0.0, "name": "1e6226f29098aa6e9fe94965363e94f9", "is_disabled": 0, "rental_uris": {"android": "https://dc.lft.to/lastmile_qr_scan", "ios": "https://dc.lft.to/lastmile_qr_scan"}, "fusion_lon": 0.0, "lat": 38.89220683333333, "bike_id": "1e6226f29098aa6e9fe94965363e94f9", "type": "electric_scooter", "is_reserved": 0, "lon": -77.03139133333333}, {"fusion_lat": 0.0, "name": "de7bb245faa6961b54c4bdc4cdbcf348", "is_disabled": 0, "rental_uris": {"android": "https://dc.lft.to/lastmile_qr_scan", "ios": "https://dc.lft.to/lastmile_qr_scan"}, "fusion_lon": 0.0, "lat": 38.879104833333336, "bike_id": "de7bb245faa6961b54c4bdc4cdbcf348", "type": "electric_scooter", "is_reserved": 0, "lon": -77.00804866666667}, {"fusion_lat": 0.0, "name": "029d28310d1f0d4f039cee0198effa70", "is_disabled": 0, "rental_uris": {"android": "https://dc.lft.to/lastmile_qr_scan", "ios": "https://dc.lft.to/lastmile_qr_scan"}, "fusion_lon": 0.0, "lat": 38.85456633333333, "bike_id": "029d28310d1f0d4f039cee0198effa70", "type": "electric_scooter", "is_reserved": 0, "lon": -76.97222216666667}, {"fusion_lat": 0.0, "name": "8dd6f59a670c46c2e4321f06ac9d6ac7", "is_disabled": 0, "rental_uris": {"android": "https://dc.lft.to/lastmile_qr_scan", "ios": "https://dc.lft.to/lastmile_qr_scan"}, "fusion_lon": 0.0, "lat": 38.927248, "bike_id": "8dd6f59a670c46c2e4321f06ac9d6ac7", "type": "electric_scooter", "is_reserved": 0, "lon": -77.02304033333333}, {"fusion_lat": 0.0, "name": "ade9cec97326a4afcc850ef3c9139574", "is_disabled": 0, "rental_uris": {"android": "https://dc.lft.to/lastmile_qr_scan", "ios": "https://dc.lft.to/lastmile_qr_scan"}, "fusion_lon": 0.0, "lat": 38.9097385, "bike_id": "ade9cec97326a4afcc850ef3c9139574", "type": "electric_scooter", "is_reserved": 0, "lon": -77.034445}, {"fusion_lat": 0.0, "name": "5c5df70218b2a603e5491f13519934c1", "is_disabled": 0, "rental_uris": {"android": "https://dc.lft.to/lastmile_qr_scan", "ios": "https://dc.lft.to/lastmile_qr_scan"}, "fusion_lon": 0.0, "lat": 38.89229066666667, "bike_id": "5c5df70218b2a603e5491f13519934c1", "type": "electric_scooter", "is_reserved": 0, "lon": -77.01710433333334}, {"fusion_lat": 0.0, "name": "908e594ba1315145f26b79849528284d", "is_disabled": 0, "rental_uris": {"android": "https://dc.lft.to/lastmile_qr_scan", "ios": "https://dc.lft.to/lastmile_qr_scan"}, "fusion_lon": 0.0, "lat": 38.905340833333334, "bike_id": "908e594ba1315145f26b79849528284d", "type": "electric_scooter", "is_reserved": 0, "lon": -77.0344385}, {"fusion_lat": 0.0, "name": "25792d3d3f2718bce102308ee48e3e93", "is_disabled": 0, "rental_uris": {"android": "https://dc.lft.to/lastmile_qr_scan", "ios": "https://dc.lft.to/lastmile_qr_scan"}, "fusion_lon": 0.0, "lat": 38.926088166666666, "bike_id": "25792d3d3f2718bce102308ee48e3e93", "type": "electric_scooter", "is_reserved": 0, "lon": -77.02159783333333}, {"fusion_lat": 0.0, "name": "79b9a51cd23579ecfda6dbfce03007e8", "is_disabled": 0, "rental_uris": {"android": "https://dc.lft.to/lastmile_qr_scan", "ios": "https://dc.lft.to/lastmile_qr_scan"}, "fusion_lon": 0.0, "lat": 38.91486883333334, "bike_id": "79b9a51cd23579ecfda6dbfce03007e8", "type": "electric_scooter", "is_reserved": 0, "lon": -77.04279716666667}, {"fusion_lat": 0.0, "name": "4f5fc95b5993c272d50c58aea4c0ffb5", "is_disabled": 0, "rental_uris": {"android": "https://dc.lft.to/lastmile_qr_scan", "ios": "https://dc.lft.to/lastmile_qr_scan"}, "fusion_lon": 0.0, "lat": 38.92639, "bike_id": "4f5fc95b5993c272d50c58aea4c0ffb5", "type": "electric_scooter", "is_reserved": 0, "lon": -77.03853433333333}, {"fusion_lat": 0.0, "name": "d4e107eae32f7842676f466d6bd018ad", "is_disabled": 0, "rental_uris": {"android": "https://dc.lft.to/lastmile_qr_scan", "ios": "https://dc.lft.to/lastmile_qr_scan"}, "fusion_lon": 0.0, "lat": 38.89192583333333, "bike_id": "d4e107eae32f7842676f466d6bd018ad", "type": "electric_scooter", "is_reserved": 0, "lon": -77.02229866666667}, {"fusion_lat": 0.0, "name": "ad79c74f86971f5c585b4f6e2ea9524f", "is_disabled": 0, "rental_uris": {"android": "https://dc.lft.to/lastmile_qr_scan", "ios": "https://dc.lft.to/lastmile_qr_scan"}, "fusion_lon": 0.0, "lat": 38.899914333333335, "bike_id": "ad79c74f86971f5c585b4f6e2ea9524f", "type": "electric_scooter", "is_reserved": 0, "lon": -77.05503566666667}, {"fusion_lat": 0.0, "name": "27520c8ba4d0be11e419b9ebd6aa8b60", "is_disabled": 0, "rental_uris": {"android": "https://dc.lft.to/lastmile_qr_scan", "ios": "https://dc.lft.to/lastmile_qr_scan"}, "fusion_lon": 0.0, "lat": 38.91030833333333, "bike_id": "27520c8ba4d0be11e419b9ebd6aa8b60", "type": "electric_scooter", "is_reserved": 0, "lon": -77.03331316666667}, {"fusion_lat": 0.0, "name": "981eb0ff5c67cf9452a450e799c41f58", "is_disabled": 0, "rental_uris": {"android": "https://dc.lft.to/lastmile_qr_scan", "ios": "https://dc.lft.to/lastmile_qr_scan"}, "fusion_lon": 0.0, "lat": 38.9164055, "bike_id": "981eb0ff5c67cf9452a450e799c41f58", "type": "electric_scooter", "is_reserved": 0, "lon": -77.04789266666667}, {"fusion_lat": 0.0, "name": "720215585fb52dd4d70bd86b80bafd14", "is_disabled": 0, "rental_uris": {"android": "https://dc.lft.to/lastmile_qr_scan", "ios": "https://dc.lft.to/lastmile_qr_scan"}, "fusion_lon": 0.0, "lat": 39.03610183333333, "bike_id": "720215585fb52dd4d70bd86b80bafd14", "type": "electric_bike", "is_reserved": 0, "lon": -77.05536833333333}, {"fusion_lat": 0.0, "name": "caf5c6a0dd53767ae5914927cf3327a8", "is_disabled": 0, "rental_uris": {"android": "https://dc.lft.to/lastmile_qr_scan", "ios": "https://dc.lft.to/lastmile_qr_scan"}, "fusion_lon": 0.0, "lat": 38.92081133333333, "bike_id": "caf5c6a0dd53767ae5914927cf3327a8", "type": "electric_bike", "is_reserved": 0, "lon": -77.07177366666667}, {"fusion_lat": 0.0, "name": "4f947f0feb0617f0f47097c4a371c69c", "is_disabled": 0, "rental_uris": {"android": "https://dc.lft.to/lastmile_qr_scan", "ios": "https://dc.lft.to/lastmile_qr_scan"}, "fusion_lon": 0.0, "lat": 38.91037883333333, "bike_id": "4f947f0feb0617f0f47097c4a371c69c", "type": "electric_scooter", "is_reserved": 0, "lon": -77.03829416666666}, {"fusion_lat": 0.0, "name": "9f864a269591b15e5c9a8382715ec14a", "is_disabled": 0, "rental_uris": {"android": "https://dc.lft.to/lastmile_qr_scan", "ios": "https://dc.lft.to/lastmile_qr_scan"}, "fusion_lon": 0.0, "lat": 38.939182333333335, "bike_id": "9f864a269591b15e5c9a8382715ec14a", "type": "electric_scooter", "is_reserved": 0, "lon": -77.02799983333334}, {"fusion_lat": 0.0, "name": "08a1caed8c0821397cf3a48ba3e06371", "is_disabled": 0, "rental_uris": {"android": "https://dc.lft.to/lastmile_qr_scan", "ios": "https://dc.lft.to/lastmile_qr_scan"}, "fusion_lon": 0.0, "lat": 38.9103125, "bike_id": "08a1caed8c0821397cf3a48ba3e06371", "type": "electric_scooter", "is_reserved": 0, "lon": -77.00755666666667}, {"fusion_lat": 0.0, "name": "89ac983df38044e6c7ebe5ccbbba38d7", "is_disabled": 0, "rental_uris": {"android": "https://dc.lft.to/lastmile_qr_scan", "ios": "https://dc.lft.to/lastmile_qr_scan"}, "fusion_lon": 0.0, "lat": 38.88409983333333, "bike_id": "89ac983df38044e6c7ebe5ccbbba38d7", "type": "electric_scooter", "is_reserved": 0, "lon": -77.01987733333333}, {"fusion_lat": 0.0, "name": "8aadbf549f93ad89928476bb658b9bf3", "is_disabled": 0, "rental_uris": {"android": "https://dc.lft.to/lastmile_qr_scan", "ios": "https://dc.lft.to/lastmile_qr_scan"}, "fusion_lon": 0.0, "lat": 38.90031033333333, "bike_id": "8aadbf549f93ad89928476bb658b9bf3", "type": "electric_scooter", "is_reserved": 0, "lon": -76.99135833333334}, {"fusion_lat": 0.0, "name": "3eca318c6c2f86128938cd0323fc22b6", "is_disabled": 0, "rental_uris": {"android": "https://dc.lft.to/lastmile_qr_scan", "ios": "https://dc.lft.to/lastmile_qr_scan"}, "fusion_lon": 0.0, "lat": 38.96142566666666, "bike_id": "3eca318c6c2f86128938cd0323fc22b6", "type": "electric_bike", "is_reserved": 0, "lon": -77.0323655}, {"fusion_lat": 0.0, "name": "9e89e16e87e151580e12099fb1f82381", "is_disabled": 0, "rental_uris": {"android": "https://dc.lft.to/lastmile_qr_scan", "ios": "https://dc.lft.to/lastmile_qr_scan"}, "fusion_lon": 0.0, "lat": 38.89927516666667, "bike_id": "9e89e16e87e151580e12099fb1f82381", "type": "electric_scooter", "is_reserved": 0, "lon": -77.00373583333334}, {"fusion_lat": 0.0, "name": "70a004b991f409e41ca2ad8e5da79a93", "is_disabled": 0, "rental_uris": {"android": "https://dc.lft.to/lastmile_qr_scan", "ios": "https://dc.lft.to/lastmile_qr_scan"}, "fusion_lon": 0.0, "lat": 38.923394, "bike_id": "70a004b991f409e41ca2ad8e5da79a93", "type": "electric_scooter", "is_reserved": 0, "lon": -77.00187666666666}, {"fusion_lat": 0.0, "name": "42c7812a12e24e760eddfcb65c8f7a73", "is_disabled": 0, "rental_uris": {"android": "https://dc.lft.to/lastmile_qr_scan", "ios": "https://dc.lft.to/lastmile_qr_scan"}, "fusion_lon": 0.0, "lat": 38.920627833333334, "bike_id": "42c7812a12e24e760eddfcb65c8f7a73", "type": "electric_scooter", "is_reserved": 0, "lon": -76.998576}, {"fusion_lat": 0.0, "name": "0cf7f10e468a50dfacadf3b42739ea42", "is_disabled": 0, "rental_uris": {"android": "https://dc.lft.to/lastmile_qr_scan", "ios": "https://dc.lft.to/lastmile_qr_scan"}, "fusion_lon": 0.0, "lat": 38.9067255, "bike_id": "0cf7f10e468a50dfacadf3b42739ea42", "type": "electric_scooter", "is_reserved": 0, "lon": -77.02188333333334}, {"fusion_lat": 0.0, "name": "393be8759e00da72823034728ecc81b7", "is_disabled": 0, "rental_uris": {"android": "https://dc.lft.to/lastmile_qr_scan", "ios": "https://dc.lft.to/lastmile_qr_scan"}, "fusion_lon": 0.0, "lat": 38.90557666666667, "bike_id": "393be8759e00da72823034728ecc81b7", "type": "electric_scooter", "is_reserved": 0, "lon": -77.00596466666667}, {"fusion_lat": 0.0, "name": "35535802d9042f5bc55aa8f3abbc50d7", "is_disabled": 0, "rental_uris": {"android": "https://dc.lft.to/lastmile_qr_scan", "ios": "https://dc.lft.to/lastmile_qr_scan"}, "fusion_lon": 0.0, "lat": 38.92463933333333, "bike_id": "35535802d9042f5bc55aa8f3abbc50d7", "type": "electric_bike", "is_reserved": 0, "lon": -77.23346533333333}, {"fusion_lat": 0.0, "name": "8e974880509079cfdd4d7480e8f63b66", "is_disabled": 0, "rental_uris": {"android": "https://dc.lft.to/lastmile_qr_scan", "ios": "https://dc.lft.to/lastmile_qr_scan"}, "fusion_lon": 0.0, "lat": 38.93651116666667, "bike_id": "8e974880509079cfdd4d7480e8f63b66", "type": "electric_scooter", "is_reserved": 0, "lon": -77.0365685}, {"fusion_lat": 0.0, "name": "171a5c1d3bdef1f064a75e1339864d76", "is_disabled": 0, "rental_uris": {"android": "https://dc.lft.to/lastmile_qr_scan", "ios": "https://dc.lft.to/lastmile_qr_scan"},