{"data": {"bikes": [{"lon": -76.99999783333334, "fusion_lon": 0.0, "bike_id": "5f8e27049d8a88132106985cb4f064ac", "type": "electric_scooter", "name": "5f8e27049d8a88132106985cb4f064ac", "rental_uris": {"android": "https://dc.lft.to/lastmile_qr_scan", "ios": "https://dc.lft.to/lastmile_qr_scan"}, "is_disabled": 0, "fusion_lat": 0.0, "lat": 38.87490866666667, "is_reserved": 0}, {"lon": -77.02559116666667, "fusion_lon": 0.0, "bike_id": "8fcf79fdac527e4a270ae2928edbec95", "type": "electric_scooter", "name": "8fcf79fdac527e4a270ae2928edbec95", "rental_uris": {"android": "https://dc.lft.to/lastmile_qr_scan", "ios": "https://dc.lft.to/lastmile_qr_scan"}, "is_disabled": 0, "fusion_lat": 0.0, "lat": 38.94175883333333, "is_reserved": 0}, {"lon": -77.02303533333334, "fusion_lon": 0.0, "bike_id": "097394200ee0dd39b0974447dcd0e0b7", "type": "electric_scooter", "name": "097394200ee0dd39b0974447dcd0e0b7", "rental_uris": {"android": "https://dc.lft.to/lastmile_qr_scan", "ios": "https://dc.lft.to/lastmile_qr_scan"}, "is_disabled": 0, "fusion_lat": 0.0, "lat": 38.917107666666666, "is_reserved": 0}, {"lon": -77.00045616666667, "fusion_lon": 0.0, "bike_id": "12995b2ca55dd4997d7eb4d326748776", "type": "electric_scooter", "name": "12995b2ca55dd4997d7eb4d326748776", "rental_uris": {"android": "https://dc.lft.to/lastmile_qr_scan", "ios": "https://dc.lft.to/lastmile_qr_scan"}, "is_disabled": 0, "fusion_lat": 0.0, "lat": 38.92363483333333, "is_reserved": 0}, {"lon": -77.006551, "fusion_lon": 0.0, "bike_id": "24a86b48bead0a7cc4f138678c10a5ba", "type": "electric_scooter", "name": "24a86b48bead0a7cc4f138678c10a5ba", "rental_uris": {"android": "https://dc.lft.to/lastmile_qr_scan", "ios": "https://dc.lft.to/lastmile_qr_scan"}, "is_disabled": 0, "fusion_lat": 0.0, "lat": 38.89985166666666, "is_reserved": 0}, {"lon": -76.99039283333333, "fusion_lon": 0.0, "bike_id": "36077b1134294ca6e13e4730eba48216", "type": "electric_scooter", "name": "36077b1134294ca6e13e4730eba48216", "rental_uris": {"android": "https://dc.lft.to/lastmile_qr_scan", "ios": "https://dc.lft.to/lastmile_qr_scan"}, "is_disabled": 0, "fusion_lat": 0.0, "lat": 38.86390883333333, "is_reserved": 0}, {"lon": -77.02968783333333, "fusion_lon": 0.0, "bike_id": "fda4509f2cc7f914eba6aa6aa70c112a", "type": "electric_scooter", "name": "fda4509f2cc7f914eba6aa6aa70c112a", "rental_uris": {"android": "https://dc.lft.to/lastmile_qr_scan", "ios": "https://dc.lft.to/lastmile_qr_scan"}, "is_disabled": 0, "fusion_lat": 0.0, "lat": 38.91291866666667, "is_reserved": 0}, {"lon": -76.98008366666667, "fusion_lon": 0.0, "bike_id": "3d621142ed3b0cb80235547c4c47dbd2", "type": "electric_scooter", "name": "3d621142ed3b0cb80235547c4c47dbd2", "rental_uris": {"android": "https://dc.lft.to/lastmile_qr_scan", "ios": "https://dc.lft.to/lastmile_qr_scan"}, "is_disabled": 0, "fusion_lat": 0.0, "lat": 38.86431433333333, "is_reserved": 0}, {"lon": -77.03182733333334, "fusion_lon": 0.0, "bike_id": "fbcf19ba475cf0ace103299bfefa2f14", "type": "electric_scooter", "name": "fbcf19ba475cf0ace103299bfefa2f14", "rental_uris": {"android": "https://dc.lft.to/lastmile_qr_scan", "ios": "https://dc.lft.to/lastmile_qr_scan"}, "is_disabled": 0, "fusion_lat": 0.0, "lat": 38.92486383333333, "is_reserved": 0}, {"lon": -77.04015416666667, "fusion_lon": 0.0, "bike_id": "9d48c1699bfb9fa630367bd5f1fbb64d", "type": "electric_scooter", "name": "9d48c1699bfb9fa630367bd5f1fbb64d", "rental_uris": {"android": "https://dc.lft.to/lastmile_qr_scan", "ios": "https://dc.lft.to/lastmile_qr_scan"}, "is_disabled": 0, "fusion_lat": 0.0, "lat": 38.896329333333334, "is_reserved": 0}, {"lon": -77.001303, "fusion_lon": 0.0, "bike_id": "94fef72f39ffa65aa64517a0cefce666", "type": "electric_scooter", "name": "94fef72f39ffa65aa64517a0cefce666", "rental_uris": {"android": "https://dc.lft.to/lastmile_qr_scan", "ios": "https://dc.lft.to/lastmile_qr_scan"}, "is_disabled": 0, "fusion_lat": 0.0, "lat": 38.89275083333333, "is_reserved": 0}, {"lon": -77.01616083333333, "fusion_lon": 0.0, "bike_id": "24a95fe1287324fb8577c1eadeb18ba3", "type": "electric_scooter", "name": "24a95fe1287324fb8577c1eadeb18ba3", "rental_uris": {"android": "https://dc.lft.to/lastmile_qr_scan", "ios": "https://dc.lft.to/lastmile_qr_scan"}, "is_disabled": 0, "fusion_lat": 0.0, "lat": 38.90177966666667, "is_reserved": 0}, {"lon": -77.03836666666666, "fusion_lon": 0.0, "bike_id": "dc2390989c7492c7aaa4df54b989ebda", "type": "electric_scooter", "name": "dc2390989c7492c7aaa4df54b989ebda", "rental_uris": {"android": "https://dc.lft.to/lastmile_qr_scan", "ios": "https://dc.lft.to/lastmile_qr_scan"}, "is_disabled": 0, "fusion_lat": 0.0, "lat": 38.9026485, "is_reserved": 0}, {"lon": -76.93025816666666, "fusion_lon": 0.0, "bike_id": "055807f4dc4782d65da03fa3ad81eb08", "type": "electric_scooter", "name": "055807f4dc4782d65da03fa3ad81eb08", "rental_uris": {"android": "https://dc.lft.to/lastmile_qr_scan", "ios": "https://dc.lft.to/lastmile_qr_scan"}, "is_disabled": 0, "fusion_lat": 0.0, "lat": 38.90169183333333, "is_reserved": 0}, {"lon": -77.04085566666667, "fusion_lon": 0.0, "bike_id": "a4f1b9f98cd8121e593c87e8544a1159", "type": "electric_scooter", "name": "a4f1b9f98cd8121e593c87e8544a1159", "rental_uris": {"android": "https://dc.lft.to/lastmile_qr_scan", "ios": "https://dc.lft.to/lastmile_qr_scan"}, "is_disabled": 0, "fusion_lat": 0.0, "lat": 38.907270833333335, "is_reserved": 0}, {"lon": -77.0014335, "fusion_lon": 0.0, "bike_id": "6fccb00ad45b6c19f3dbdd5ed16d82fa", "type": "electric_scooter", "name": "6fccb00ad45b6c19f3dbdd5ed16d82fa", "rental_uris": {"android": "https://dc.lft.to/lastmile_qr_scan", "ios": "https://dc.lft.to/lastmile_qr_scan"}, "is_disabled": 0, "fusion_lat": 0.0, "lat": 38.873074, "is_reserved": 0}, {"lon": -77.0830625, "fusion_lon": 0.0, "bike_id": "485d278224319cf42e0af5ec3c8509be", "type": "electric_scooter", "name": "485d278224319cf42e0af5ec3c8509be", "rental_uris": {"android": "https://dc.lft.to/lastmile_qr_scan", "ios": "https://dc.lft.to/lastmile_qr_scan"}, "is_disabled": 0, "fusion_lat": 0.0, "lat": 38.928512833333336, "is_reserved": 0}, {"lon": -77.03223883333334, "fusion_lon": 0.0, "bike_id": "fc962d80cfc6a03038d03e58171a605d", "type": "electric_scooter", "name": "fc962d80cfc6a03038d03e58171a605d", "rental_uris": {"android": "https://dc.lft.to/lastmile_qr_scan", "ios": "https://dc.lft.to/lastmile_qr_scan"}, "is_disabled": 0, "fusion_lat": 0.0, "lat": 38.925926, "is_reserved": 0}, {"lon": -76.9725365, "fusion_lon": 0.0, "bike_id": "5820e7e30ae6605b2b91ade90fb1a12e", "type": "electric_bike", "name": "5820e7e30ae6605b2b91ade90fb1a12e", "rental_uris": {"android": "https://dc.lft.to/lastmile_qr_scan", "ios": "https://dc.lft.to/lastmile_qr_scan"}, "is_disabled": 0, "fusion_lat": 0.0, "lat": 38.957472333333335, "is_reserved": 0}, {"lon": -77.01695833333333, "fusion_lon": 0.0, "bike_id": "50e8795964f668467f8069c3d5e5336f", "type": "electric_scooter", "name": "50e8795964f668467f8069c3d5e5336f", "rental_uris": {"android": "https://dc.lft.to/lastmile_qr_scan", "ios": "https://dc.lft.to/lastmile_qr_scan"}, "is_disabled": 0, "fusion_lat": 0.0, "lat": 38.974995666666665, "is_reserved": 0}, {"lon": -77.03454366666666, "fusion_lon": 0.0, "bike_id": "46795aeef9df5c950601c64fb0159227", "type": "electric_scooter", "name": "46795aeef9df5c950601c64fb0159227", "rental_uris": {"android": "https://dc.lft.to/lastmile_qr_scan", "ios": "https://dc.lft.to/lastmile_qr_scan"}, "is_disabled": 0, "fusion_lat": 0.0, "lat": 38.904450833333335, "is_reserved": 0}, {"lon": -77.044886, "fusion_lon": 0.0, "bike_id": "9568a8142177567e6649214b372f79d9", "type": "electric_scooter", "name": "9568a8142177567e6649214b372f79d9", "rental_uris": {"android": "https://dc.lft.to/lastmile_qr_scan", "ios": "https://dc.lft.to/lastmile_qr_scan"}, "is_disabled": 0, "fusion_lat": 0.0, "lat": 38.89756966666667, "is_reserved": 0}, {"lon": -77.01404833333333, "fusion_lon": 0.0, "bike_id": "7d48e2ecfc1d98b69e281bcacd345130", "type": "electric_scooter", "name": "7d48e2ecfc1d98b69e281bcacd345130", "rental_uris": {"android": "https://dc.lft.to/lastmile_qr_scan", "ios": "https://dc.lft.to/lastmile_qr_scan"}, "is_disabled": 0, "fusion_lat": 0.0, "lat": 38.942331, "is_reserved": 0}, {"lon": -77.03594583333333, "fusion_lon": 0.0, "bike_id": "dc24b58d92418f66d258729e1467046a", "type": "electric_scooter", "name": "dc24b58d92418f66d258729e1467046a", "rental_uris": {"android": "https://dc.lft.to/lastmile_qr_scan", "ios": "https://dc.lft.to/lastmile_qr_scan"}, "is_disabled": 0, "fusion_lat": 0.0, "lat": 38.90390033333333, "is_reserved": 0}, {"lon": -77.0198485, "fusion_lon": 0.0, "bike_id": "4e68a5b8f7e2ceb41c965cf8bc81eee7", "type": "electric_scooter", "name": "4e68a5b8f7e2ceb41c965cf8bc81eee7", "rental_uris": {"android": "https://dc.lft.to/lastmile_qr_scan", "ios": "https://dc.lft.to/lastmile_qr_scan"}, "is_disabled": 0, "fusion_lat": 0.0, "lat": 38.887242, "is_reserved": 0}, {"lon": -77.01079083333333, "fusion_lon": 0.0, "bike_id": "16225e778b76e192fa1eca256d30e5f7", "type": "electric_scooter", "name": "16225e778b76e192fa1eca256d30e5f7", "rental_uris": {"android": "https://dc.lft.to/lastmile_qr_scan", "ios": "https://dc.lft.to/lastmile_qr_scan"}, "is_disabled": 0, "fusion_lat": 0.0, "lat": 38.9096855, "is_reserved": 0}, {"lon": -77.01529933333333, "fusion_lon": 0.0, "bike_id": "594a109ac6197eb1a2dcc8bc20cc8f0d", "type": "electric_bike", "name": "594a109ac6197eb1a2dcc8bc20cc8f0d", "rental_uris": {"android": "https://dc.lft.to/lastmile_qr_scan", "ios": "https://dc.lft.to/lastmile_qr_scan"}, "is_disabled": 0, "fusion_lat": 0.0, "lat": 38.951227, "is_reserved": 0}, {"lon": -77.02637966666667, "fusion_lon": 0.0, "bike_id": "a7d6600e1317603c6d3f63c58e767f4a", "type": "electric_scooter", "name": "a7d6600e1317603c6d3f63c58e767f4a", "rental_uris": {"android": "https://dc.lft.to/lastmile_qr_scan", "ios": "https://dc.lft.to/lastmile_qr_scan"}, "is_disabled": 0, "fusion_lat": 0.0, "lat": 38.894443, "is_reserved": 0}, {"lon": -76.97367383333334, "fusion_lon": 0.0, "bike_id": "16963ac5d44b77d99c4b3fe0bff40ad6", "type": "electric_bike", "name": "16963ac5d44b77d99c4b3fe0bff40ad6", "rental_uris": {"android": "https://dc.lft.to/lastmile_qr_scan", "ios": "https://dc.lft.to/lastmile_qr_scan"}, "is_disabled": 0, "fusion_lat": 0.0, "lat": 38.96321666666667, "is_reserved": 0}, {"lon": -77.0178305, "fusion_lon": 0.0, "bike_id": "99a323da282f094ac83dbdf59bacaf99", "type": "electric_scooter", "name": "99a323da282f094ac83dbdf59bacaf99", "rental_uris": {"android": "https://dc.lft.to/lastmile_qr_scan", "ios": "https://dc.lft.to/lastmile_qr_scan"}, "is_disabled": 0, "fusion_lat": 0.0, "lat": 38.87708716666667, "is_reserved": 0}, {"lon": -77.03593833333333, "fusion_lon": 0.0, "bike_id": "3c2fddea438cf52a835dfece764b88ec", "type": "electric_scooter", "name": "3c2fddea438cf52a835dfece764b88ec", "rental_uris": {"android": "https://dc.lft.to/lastmile_qr_scan", "ios": "https://dc.lft.to/lastmile_qr_scan"}, "is_disabled": 0, "fusion_lat": 0.0, "lat": 38.93148566666667, "is_reserved": 0}, {"lon": -77.04875183333333, "fusion_lon": 0.0, "bike_id": "ee49f35271e4c19aa851a40aa7f9038f", "type": "electric_scooter", "name": "ee49f35271e4c19aa851a40aa7f9038f", "rental_uris": {"android": "https://dc.lft.to/lastmile_qr_scan", "ios": "https://dc.lft.to/lastmile_qr_scan"}, "is_disabled": 0, "fusion_lat": 0.0, "lat": 38.90973666666667, "is_reserved": 0}, {"lon": -77.02285333333333, "fusion_lon": 0.0, "bike_id": "e9b9aae31e09da260e5475920756289f", "type": "electric_scooter", "name": "e9b9aae31e09da260e5475920756289f", "rental_uris": {"android": "https://dc.lft.to/lastmile_qr_scan", "ios": "https://dc.lft.to/lastmile_qr_scan"}, "is_disabled": 0, "fusion_lat": 0.0, "lat": 38.917818, "is_reserved": 0}, {"lon": -77.0971585, "fusion_lon": 0.0, "bike_id": "925df3759c26c72bed0d9589b321f7b9", "type": "electric_scooter", "name": "925df3759c26c72bed0d9589b321f7b9", "rental_uris": {"android": "https://dc.lft.to/lastmile_qr_scan", "ios": "https://dc.lft.to/lastmile_qr_scan"}, "is_disabled": 0, "fusion_lat": 0.0, "lat": 38.951036, "is_reserved": 0}, {"lon": -77.03634033333333, "fusion_lon": 0.0, "bike_id": "b31faa10bb4f2d128e8e5134e4803158", "type": "electric_scooter", "name": "b31faa10bb4f2d128e8e5134e4803158", "rental_uris": {"android": "https://dc.lft.to/lastmile_qr_scan", "ios": "https://dc.lft.to/lastmile_qr_scan"}, "is_disabled": 0, "fusion_lat": 0.0, "lat": 38.91827816666667, "is_reserved": 0}, {"lon": -77.01228933333333, "fusion_lon": 0.0, "bike_id": "1dff80fed2377372b7ed3de36bed376f", "type": "electric_scooter", "name": "1dff80fed2377372b7ed3de36bed376f", "rental_uris": {"android": "https://dc.lft.to/lastmile_qr_scan", "ios": "https://dc.lft.to/lastmile_qr_scan"}, "is_disabled": 0, "fusion_lat": 0.0, "lat": 38.900374666666664, "is_reserved": 0}, {"lon": -76.98202766666667, "fusion_lon": 0.0, "bike_id": "ac67c80cf6512c691012a172093dc68c", "type": "electric_bike", "name": "ac67c80cf6512c691012a172093dc68c", "rental_uris": {"android": "https://dc.lft.to/lastmile_qr_scan", "ios": "https://dc.lft.to/lastmile_qr_scan"}, "is_disabled": 0, "fusion_lat": 0.0, "lat": 38.985058, "is_reserved": 0}, {"lon": -77.05045566666666, "fusion_lon": 0.0, "bike_id": "2f6a6c0a1a1cdc96b4228e33cc105b94", "type": "electric_scooter", "name": "2f6a6c0a1a1cdc96b4228e33cc105b94", "rental_uris": {"android": "https://dc.lft.to/lastmile_qr_scan", "ios": "https://dc.lft.to/lastmile_qr_scan"}, "is_disabled": 0, "fusion_lat": 0.0, "lat": 38.92361116666667, "is_reserved": 0}, {"lon": -77.0253395, "fusion_lon": 0.0, "bike_id": "a0bff5552c511b60c95c698c2f498bc7", "type": "electric_scooter", "name": "a0bff5552c511b60c95c698c2f498bc7", "rental_uris": {"android": "https://dc.lft.to/lastmile_qr_scan", "ios": "https://dc.lft.to/lastmile_qr_scan"}, "is_disabled": 0, "fusion_lat": 0.0, "lat": 38.9462265, "is_reserved": 0}, {"lon": -77.02695833333334, "fusion_lon": 0.0, "bike_id": "8878d8a84848c391eceb10ed0efc7db0", "type": "electric_scooter", "name": "8878d8a84848c391eceb10ed0efc7db0", "rental_uris": {"android": "https://dc.lft.to/lastmile_qr_scan", "ios": "https://dc.lft.to/lastmile_qr_scan"}, "is_disabled": 0, "fusion_lat": 0.0, "lat": 38.908462666666665, "is_reserved": 0}, {"lon": -77.0196595, "fusion_lon": 0.0, "bike_id": "21c3a154f1366a18bfd5c98222d67b77", "type": "electric_scooter", "name": "21c3a154f1366a18bfd5c98222d67b77", "rental_uris": {"android": "https://dc.lft.to/lastmile_qr_scan", "ios": "https://dc.lft.to/lastmile_qr_scan"}, "is_disabled": 0, "fusion_lat": 0.0, "lat": 38.9565395, "is_reserved": 0}, {"lon": -77.02367933333333, "fusion_lon": 0.0, "bike_id": "6df16d7b6f1e346b63b69c2ce5ff7847", "type": "electric_scooter", "name": "6df16d7b6f1e346b63b69c2ce5ff7847", "rental_uris": {"android": "https://dc.lft.to/lastmile_qr_scan", "ios": "https://dc.lft.to/lastmile_qr_scan"}, "is_disabled": 0, "fusion_lat": 0.0, "lat": 38.90668933333333, "is_reserved": 0}, {"lon": -77.007589, "fusion_lon": 0.0, "bike_id": "ef22e8d9cf59f18b38c7706006829a0b", "type": "electric_scooter", "name": "ef22e8d9cf59f18b38c7706006829a0b", "rental_uris": {"android": "https://dc.lft.to/lastmile_qr_scan", "ios": "https://dc.lft.to/lastmile_qr_scan"}, "is_disabled": 0, "fusion_lat": 0.0, "lat": 38.87117283333333, "is_reserved": 0}, {"lon": -77.03586666666666, "fusion_lon": 0.0, "bike_id": "afcac85a3bce23499a2ee46f4f5a62e9", "type": "electric_scooter", "name": "afcac85a3bce23499a2ee46f4f5a62e9", "rental_uris": {"android": "https://dc.lft.to/lastmile_qr_scan", "ios": "https://dc.lft.to/lastmile_qr_scan"}, "is_disabled": 0, "fusion_lat": 0.0, "lat": 38.931468833333334, "is_reserved": 0}, {"lon": -77.02456816666667, "fusion_lon": 0.0, "bike_id": "74b968b2ccb9e27d1013764cafa757a8", "type": "electric_scooter", "name": "74b968b2ccb9e27d1013764cafa757a8", "rental_uris": {"android": "https://dc.lft.to/lastmile_qr_scan", "ios": "https://dc.lft.to/lastmile_qr_scan"}, "is_disabled": 0, "fusion_lat": 0.0, "lat": 38.903229333333336, "is_reserved": 0}, {"lon": -77.02465283333333, "fusion_lon": 0.0, "bike_id": "4277f03daad72d26386ca9b957624cc3", "type": "electric_scooter", "name": "4277f03daad72d26386ca9b957624cc3", "rental_uris": {"android": "https://dc.lft.to/lastmile_qr_scan", "ios": "https://dc.lft.to/lastmile_qr_scan"}, "is_disabled": 0, "fusion_lat": 0.0, "lat": 38.91879466666666, "is_reserved": 0}, {"lon": -76.96709166666666, "fusion_lon": 0.0, "bike_id": "fbf524bdded4ab7d6c2840e7dbf092e7", "type": "electric_scooter", "name": "fbf524bdded4ab7d6c2840e7dbf092e7", "rental_uris": {"android": "https://dc.lft.to/lastmile_qr_scan", "ios": "https://dc.lft.to/lastmile_qr_scan"}, "is_disabled": 0, "fusion_lat": 0.0, "lat": 38.86036433333334, "is_reserved": 0}, {"lon": -77.02502583333333, "fusion_lon": 0.0, "bike_id": "b10d4c543f8275c9bd9d8d6c394f351e", "type": "electric_scooter", "name": "b10d4c543f8275c9bd9d8d6c394f351e", "rental_uris": {"android": "https://dc.lft.to/lastmile_qr_scan", "ios": "https://dc.lft.to/lastmile_qr_scan"}, "is_disabled": 0, "fusion_lat": 0.0, "lat": 38.92013333333333, "is_reserved": 0}, {"lon": -76.99583783333334, "fusion_lon": 0.0, "bike_id": "546606f422194e859a52a41f353da5eb", "type": "electric_scooter", "name": "546606f422194e859a52a41f353da5eb", "rental_uris": {"android": "https://dc.lft.to/lastmile_qr_scan", "ios": "https://dc.lft.to/lastmile_qr_scan"}, "is_disabled": 0, "fusion_lat": 0.0, "lat": 38.851761833333335, "is_reserved": 0}, {"lon": -77.060726, "fusion_lon": 0.0, "bike_id": "b8a1d075a67fa9e1f879d7278dadf0f1", "type": "electric_scooter", "name": "b8a1d075a67fa9e1f879d7278dadf0f1", "rental_uris": {"android": "https://dc.lft.to/lastmile_qr_scan", "ios": "https://dc.lft.to/lastmile_qr_scan"}, "is_disabled": 0, "fusion_lat": 0.0, "lat": 38.906796166666666, "is_reserved": 0}, {"lon": -77.03203333333333, "fusion_lon": 0.0, "bike_id": "3c92f7e0f7cfe14f0f8377681fea58ff", "type": "electric_scooter", "name": "3c92f7e0f7cfe14f0f8377681fea58ff", "rental_uris": {"android": "https://dc.lft.to/lastmile_qr_scan", "ios": "https://dc.lft.to/lastmile_qr_scan"}, "is_disabled": 0, "fusion_lat": 0.0, "lat": 38.91619766666667, "is_reserved": 0}, {"lon": -77.02174, "fusion_lon": 0.0, "bike_id": "a24028a67c66f138ac3c60b0ff8922c1", "type": "electric_scooter", "name": "a24028a67c66f138ac3c60b0ff8922c1", "rental_uris": {"android": "https://dc.lft.to/lastmile_qr_scan", "ios": "https://dc.lft.to/lastmile_qr_scan"}, "is_disabled": 0, "fusion_lat": 0.0, "lat": 38.905710666666664, "is_reserved": 0}, {"lon": -77.00293733333334, "fusion_lon": 0.0, "bike_id": "67adea50ecb5bfaf8d4fedf69e58bdb4", "type": "electric_scooter", "name": "67adea50ecb5bfaf8d4fedf69e58bdb4", "rental_uris": {"android": "https://dc.lft.to/lastmile_qr_scan", "ios": "https://dc.lft.to/lastmile_qr_scan"}, "is_disabled": 0, "fusion_lat": 0.0, "lat": 38.91819483333333, "is_reserved": 0}, {"lon": -77.00239266666667, "fusion_lon": 0.0, "bike_id": "f71812d2d859f6acbe3f15db84f23cb0", "type": "electric_scooter", "name": "f71812d2d859f6acbe3f15db84f23cb0", "rental_uris": {"android": "https://dc.lft.to/lastmile_qr_scan", "ios": "https://dc.lft.to/lastmile_qr_scan"}, "is_disabled": 0, "fusion_lat": 0.0, "lat": 38.874863833333336, "is_reserved": 0}, {"lon": -76.98718366666667, "fusion_lon": 0.0, "bike_id": "b18007bc041a443841f616e32389a1ef", "type": "electric_scooter", "name": "b18007bc041a443841f616e32389a1ef", "rental_uris": {"android": "https://dc.lft.to/lastmile_qr_scan", "ios": "https://dc.lft.to/lastmile_qr_scan"}, "is_disabled": 0, "fusion_lat": 0.0, "lat": 38.86627033333333, "is_reserved": 0}, {"lon": -77.03840516666666, "fusion_lon": 0.0, "bike_id": "5f09954648ffe4198c933edab08b75c2", "type": "electric_scooter", "name": "5f09954648ffe4198c933edab08b75c2", "rental_uris": {"android": "https://dc.lft.to/lastmile_qr_scan", "ios": "https://dc.lft.to/lastmile_qr_scan"}, "is_disabled": 0, "fusion_lat": 0.0, "lat": 38.921779, "is_reserved": 0}, {"lon": -76.94634933333333, "fusion_lon": 0.0, "bike_id": "39e9b4a2c04286bb9e28b15c7247ecdc", "type": "electric_scooter", "name": "39e9b4a2c04286bb9e28b15c7247ecdc", "rental_uris": {"android": "https://dc.lft.to/lastmile_qr_scan", "ios": "https://dc.lft.to/lastmile_qr_scan"}, "is_disabled": 0, "fusion_lat": 0.0, "lat": 38.89867366666667, "is_reserved": 0}, {"lon": -77.0409105, "fusion_lon": 0.0, "bike_id": "69dc3e17d404344fe81e61fccb9c4df4", "type": "electric_scooter", "name": "69dc3e17d404344fe81e61fccb9c4df4", "rental_uris": {"android": "https://dc.lft.to/lastmile_qr_scan", "ios": "https://dc.lft.to/lastmile_qr_scan"}, "is_disabled": 0, "fusion_lat": 0.0, "lat": 38.9038665, "is_reserved": 0}, {"lon": -77.03279583333334, "fusion_lon": 0.0, "bike_id": "3332e531ea0ef81541f52bf65d49ebbb", "type": "electric_scooter", "name": "3332e531ea0ef81541f52bf65d49ebbb", "rental_uris": {"android": "https://dc.lft.to/lastmile_qr_scan", "ios": "https://dc.lft.to/lastmile_qr_scan"}, "is_disabled": 0, "fusion_lat": 0.0, "lat": 38.922733666666666, "is_reserved": 0}, {"lon": -77.07702433333333, "fusion_lon": 0.0, "bike_id": "385f511e6b43bbea9fe5cecb5204a9e0", "type": "electric_scooter", "name": "385f511e6b43bbea9fe5cecb5204a9e0", "rental_uris": {"android": "https://dc.lft.to/lastmile_qr_scan", "ios": "https://dc.lft.to/lastmile_qr_scan"}, "is_disabled": 0, "fusion_lat": 0.0, "lat": 38.943895499999996, "is_reserved": 0}, {"lon": -77.00198216666666, "fusion_lon": 0.0, "bike_id": "6b04a80e1ceed4cf27e9d74369df45b8", "type": "electric_scooter", "name": "6b04a80e1ceed4cf27e9d74369df45b8", "rental_uris": {"android": "https://dc.lft.to/lastmile_qr_scan", "ios": "https://dc.lft.to/lastmile_qr_scan"}, "is_disabled": 0, "fusion_lat": 0.0, "lat": 38.900324, "is_reserved": 0}, {"lon": -76.97094783333333, "fusion_lon": 0.0, "bike_id": "77c1f2a0efb1c0a371da49f00f58930f", "type": "electric_scooter", "name": "77c1f2a0efb1c0a371da49f00f58930f", "rental_uris": {"android": "https://dc.lft.to/lastmile_qr_scan", "ios": "https://dc.lft.to/lastmile_qr_scan"}, "is_disabled": 0, "fusion_lat": 0.0, "lat": 38.870618666666665, "is_reserved": 0}, {"lon": -76.95255633333333, "fusion_lon": 0.0, "bike_id": "b4e95925653247137987f6d6c96d16ea", "type": "electric_bike", "name": "b4e95925653247137987f6d6c96d16ea", "rental_uris": {"android": "https://dc.lft.to/lastmile_qr_scan", "ios": "https://dc.lft.to/lastmile_qr_scan"}, "is_disabled": 0, "fusion_lat": 0.0, "lat": 38.9069615, "is_reserved": 0}, {"lon": -77.02228666666667, "fusion_lon": 0.0, "bike_id": "307cc96f31dcfe0d58059b719f186734", "type": "electric_scooter", "name": "307cc96f31dcfe0d58059b719f186734", "rental_uris": {"android": "https://dc.lft.to/lastmile_qr_scan", "ios": "https://dc.lft.to/lastmile_qr_scan"}, "is_disabled": 0, "fusion_lat": 0.0, "lat": 38.934748166666665, "is_reserved": 0}, {"lon": -76.93188016666667, "fusion_lon": 0.0, "bike_id": "0d8a47078ca263a8301852d0eccd37f2", "type": "electric_scooter", "name": "0d8a47078ca263a8301852d0eccd37f2", "rental_uris": {"android": "https://dc.lft.to/lastmile_qr_scan", "ios": "https://dc.lft.to/lastmile_qr_scan"}, "is_disabled": 0, "fusion_lat": 0.0, "lat": 38.89878816666667, "is_reserved": 0}, {"lon": -77.20138016666667, "fusion_lon": 0.0, "bike_id": "8be02d75c22f556f0e10d64b81ebd82b", "type": "electric_bike", "name": "8be02d75c22f556f0e10d64b81ebd82b", "rental_uris": {"android": "https://dc.lft.to/lastmile_qr_scan", "ios": "https://dc.lft.to/lastmile_qr_scan"}, "is_disabled": 0, "fusion_lat": 0.0, "lat": 38.92220866666667, "is_reserved": 0}, {"lon": -76.98768166666666, "fusion_lon": 0.0, "bike_id": "8406698d95bf5a9df87c5564e0e474d5", "type": "electric_scooter", "name": "8406698d95bf5a9df87c5564e0e474d5", "rental_uris": {"android": "https://dc.lft.to/lastmile_qr_scan", "ios": "https://dc.lft.to/lastmile_qr_scan"}, "is_disabled": 0, "fusion_lat": 0.0, "lat": 38.9003025, "is_reserved": 0}, {"lon": -77.0313125, "fusion_lon": 0.0, "bike_id": "1d8d43aa7a5deb758da8d25271ae7f0e", "type": "electric_scooter", "name": "1d8d43aa7a5deb758da8d25271ae7f0e", "rental_uris": {"android": "https://dc.lft.to/lastmile_qr_scan", "ios": "https://dc.lft.to/lastmile_qr_scan"}, "is_disabled": 0, "fusion_lat": 0.0, "lat": 38.917037666666666, "is_reserved": 0}, {"lon": -77.00606316666666, "fusion_lon": 0.0, "bike_id": "9342cc7ebe2e80d9bf2dc0a91f1f9d3f", "type": "electric_scooter", "name": "9342cc7ebe2e80d9bf2dc0a91f1f9d3f", "rental_uris": {"android": "https://dc.lft.to/lastmile_qr_scan", "ios": "https://dc.lft.to/lastmile_qr_scan"}, "is_disabled": 0, "fusion_lat": 0.0, "lat": 38.871802833333334, "is_reserved": 0}, {"lon": -77.045345, "fusion_lon": 0.0, "bike_id": "31125d8b24d677c4e114916a983fc0b1", "type": "electric_bike", "name": "31125d8b24d677c4e114916a983fc0b1", "rental_uris": {"android": "https://dc.lft.to/lastmile_qr_scan", "ios": "https://dc.lft.to/lastmile_qr_scan"}, "is_disabled": 0, "fusion_lat": 0.0, "lat": 39.033111, "is_reserved": 0}, {"lon": -77.05150433333333, "fusion_lon": 0.0, "bike_id": "497e257c01965a4e1d54b8c89d5fedc4", "type": "electric_scooter", "name": "497e257c01965a4e1d54b8c89d5fedc4", "rental_uris": {"android": "https://dc.lft.to/lastmile_qr_scan", "ios": "https://dc.lft.to/lastmile_qr_scan"}, "is_disabled": 0, "fusion_lat": 0.0, "lat": 38.923755666666665, "is_reserved": 0}, {"lon": -77.02954683333333, "fusion_lon": 0.0, "bike_id": "b50fbc09d80728cc3fd77c6bfcda25d0", "type": "electric_scooter", "name": "b50fbc09d80728cc3fd77c6bfcda25d0", "rental_uris": {"android": "https://dc.lft.to/lastmile_qr_scan", "ios": "https://dc.lft.to/lastmile_qr_scan"}, "is_disabled": 0, "fusion_lat": 0.0, "lat": 38.907386333333335, "is_reserved": 0}, {"lon": -76.95836916666667, "fusion_lon": 0.0, "bike_id": "62ee18131e0790dfad9f0e3cc859e074", "type": "electric_bike", "name": "62ee18131e0790dfad9f0e3cc859e074", "rental_uris": {"android": "https://dc.lft.to/lastmile_qr_scan", "ios": "https://dc.lft.to/lastmile_qr_scan"}, "is_disabled": 0, "fusion_lat": 0.0, "lat": 38.9304635, "is_reserved": 0}, {"lon": -76.97234183333333, "fusion_lon": 0.0, "bike_id": "ffc8ffc291643d98cc06acf8a72e6583", "type": "electric_bike", "name": "ffc8ffc291643d98cc06acf8a72e6583", "rental_uris": {"android": "https://dc.lft.to/lastmile_qr_scan", "ios": "https://dc.lft.to/lastmile_qr_scan"}, "is_disabled": 0, "fusion_lat": 0.0, "lat": 38.90431, "is_reserved": 0}, {"lon": -77.0209335, "fusion_lon": 0.0, "bike_id": "36e4cd2dd2421c0d13273c8a70c93c03", "type": "electric_scooter", "name": "36e4cd2dd2421c0d13273c8a70c93c03", "rental_uris": {"android": "https://dc.lft.to/lastmile_qr_scan", "ios": "https://dc.lft.to/lastmile_qr_scan"}, "is_disabled": 0, "fusion_lat": 0.0, "lat": 38.966486833333335, "is_reserved": 0}, {"lon": -77.04227966666667, "fusion_lon": 0.0, "bike_id": "1b7b658f9f0d80838900e9ea6a5d3f0e", "type": "electric_scooter", "name": "1b7b658f9f0d80838900e9ea6a5d3f0e", "rental_uris": {"android": "https://dc.lft.to/lastmile_qr_scan", "ios": "https://dc.lft.to/lastmile_qr_scan"}, "is_disabled": 0, "fusion_lat": 0.0, "lat": 38.914143333333335, "is_reserved": 0}, {"lon": -77.099643, "fusion_lon": 0.0, "bike_id": "f72caabe7211f36eba2aeb7a68c281ba", "type": "electric_bike", "name": "f72caabe7211f36eba2aeb7a68c281ba", "rental_uris": {"android": "https://dc.lft.to/lastmile_qr_scan", "ios": "https://dc.lft.to/lastmile_qr_scan"}, "is_disabled": 0, "fusion_lat": 0.0, "lat": 38.8579205, "is_reserved": 0}, {"lon": -77.028381, "fusion_lon": 0.0, "bike_id": "8e4e2bc0025787e7af2c51630b29aa88", "type": "electric_scooter", "name": "8e4e2bc0025787e7af2c51630b29aa88", "rental_uris": {"android": "https://dc.lft.to/lastmile_qr_scan", "ios": "https://dc.lft.to/lastmile_qr_scan"}, "is_disabled": 0, "fusion_lat": 0.0, "lat": 38.89371383333334, "is_reserved": 0}, {"lon": -77.046938, "fusion_lon": 0.0, "bike_id": "bc0f241330b909a25fbe7560653f6c3b", "type": "electric_scooter", "name": "bc0f241330b909a25fbe7560653f6c3b", "rental_uris": {"android": "https://dc.lft.to/lastmile_qr_scan", "ios": "https://dc.lft.to/lastmile_qr_scan"}, "is_disabled": 0, "fusion_lat": 0.0, "lat": 38.92177216666666, "is_reserved": 0}, {"lon": -77.03311066666667, "fusion_lon": 0.0, "bike_id": "6ab38648793f418683331452bd80a2e9", "type": "electric_scooter", "name": "6ab38648793f418683331452bd80a2e9", "rental_uris": {"android": "https://dc.lft.to/lastmile_qr_scan", "ios": "https://dc.lft.to/lastmile_qr_scan"}, "is_disabled": 0, "fusion_lat": 0.0, "lat": 38.907335333333336, "is_reserved": 0}, {"lon": -77.044692, "fusion_lon": 0.0, "bike_id": "77ecaa7238e06156cc6a2aa83369c972", "type": "electric_scooter", "name": "77ecaa7238e06156cc6a2aa83369c972", "rental_uris": {"android": "https://dc.lft.to/lastmile_qr_scan", "ios": "https://dc.lft.to/lastmile_qr_scan"}, "is_disabled": 0, "fusion_lat": 0.0, "lat": 38.909406833333335, "is_reserved": 0}, {"lon": -77.02098783333334, "fusion_lon": 0.0, "bike_id": "bff2a5254e1b52136579cee25edf7f26", "type": "electric_scooter", "name": "bff2a5254e1b52136579cee25edf7f26", "rental_uris": {"android": "https://dc.lft.to/lastmile_qr_scan", "ios": "https://dc.lft.to/lastmile_qr_scan"}, "is_disabled": 0, "fusion_lat": 0.0, "lat": 38.927218, "is_reserved": 0}, {"lon": -77.038349, "fusion_lon": 0.0, "bike_id": "248ed50788547453cb8246f3169e999e", "type": "electric_scooter", "name": "248ed50788547453cb8246f3169e999e", "rental_uris": {"android": "https://dc.lft.to/lastmile_qr_scan", "ios": "https://dc.lft.to/lastmile_qr_scan"}, "is_disabled": 0, "fusion_lat": 0.0, "lat": 38.911482166666666, "is_reserved": 0}, {"lon": -77.04100183333334, "fusion_lon": 0.0, "bike_id": "ce7b4f5be7e0ba76548e448af30fa873", "type": "electric_scooter", "name": "ce7b4f5be7e0ba76548e448af30fa873", "rental_uris": {"android": "https://dc.lft.to/lastmile_qr_scan", "ios": "https://dc.lft.to/lastmile_qr_scan"}, "is_disabled": 0, "fusion_lat": 0.0, "lat": 38.90390416666666, "is_reserved": 0}, {"lon": -77.006425, "fusion_lon": 0.0, "bike_id": "14c30def52b5a8a80959c9e2e6b75475", "type": "electric_scooter", "name": "14c30def52b5a8a80959c9e2e6b75475", "rental_uris": {"android": "https://dc.lft.to/lastmile_qr_scan", "ios": "https://dc.lft.to/lastmile_qr_scan"}, "is_disabled": 0, "fusion_lat": 0.0, "lat": 38.91188416666667, "is_reserved": 0}, {"lon": -77.0398975, "fusion_lon": 0.0, "bike_id": "92495eb4e0a5c4c3c9ed3cd9bb1d6a27", "type": "electric_scooter", "name": "92495eb4e0a5c4c3c9ed3cd9bb1d6a27", "rental_uris": {"android": "https://dc.lft.to/lastmile_qr_scan", "ios": "https://dc.lft.to/lastmile_qr_scan"}, "is_disabled": 0, "fusion_lat": 0.0, "lat": 38.923117, "is_reserved": 0}, {"lon": -77.04686483333333, "fusion_lon": 0.0, "bike_id": "0d71ff133b5d541425905037e9be4fb5", "type": "electric_scooter", "name": "0d71ff133b5d541425905037e9be4fb5", "rental_uris": {"android": "https://dc.lft.to/lastmile_qr_scan", "ios": "https://dc.lft.to/lastmile_qr_scan"}, "is_disabled": 0, "fusion_lat": 0.0, "lat": 38.895551166666664, "is_reserved": 0}, {"lon": -77.0383455, "fusion_lon": 0.0, "bike_id": "0f02d87747957927efc46a142fb54b3f", "type": "electric_scooter", "name": "0f02d87747957927efc46a142fb54b3f", "rental_uris": {"android": "https://dc.lft.to/lastmile_qr_scan", "ios": "https://dc.lft.to/lastmile_qr_scan"}, "is_disabled": 0, "fusion_lat": 0.0, "lat": 38.91120216666667, "is_reserved": 0}, {"lon": -76.99988333333333, "fusion_lon": 0.0, "bike_id": "1a0c94056dae1962e7fca4c288452357", "type": "electric_bike", "name": "1a0c94056dae1962e7fca4c288452357", "rental_uris": {"android": "https://dc.lft.to/lastmile_qr_scan", "ios": "https://dc.lft.to/lastmile_qr_scan"}, "is_disabled": 0, "fusion_lat": 0.0, "lat": 38.96405933333333, "is_reserved": 0}, {"lon": -76.96897733333333, "fusion_lon": 0.0, "bike_id": "bb6e4e512c31eccdfce16dd04ed37962", "type": "electric_bike", "name": "bb6e4e512c31eccdfce16dd04ed37962", "rental_uris": {"android": "https://dc.lft.to/lastmile_qr_scan", "ios": "https://dc.lft.to/lastmile_qr_scan"}, "is_disabled": 0, "fusion_lat": 0.0, "lat": 38.9599645, "is_reserved": 0}, {"lon": -77.0175345, "fusion_lon": 0.0, "bike_id": "d160370361982fbfcbd8a679d1a75f15", "type": "electric_scooter", "name": "d160370361982fbfcbd8a679d1a75f15", "rental_uris": {"android": "https://dc.lft.to/lastmile_qr_scan", "ios": "https://dc.lft.to/lastmile_qr_scan"}, "is_disabled": 0, "fusion_lat": 0.0, "lat": 38.9027215, "is_reserved": 0}, {"lon": -76.971677, "fusion_lon": 0.0, "bike_id": "99a9a5be5decf5a870b730628c7a5500", "type": "electric_scooter", "name": "99a9a5be5decf5a870b730628c7a5500", "rental_uris": {"android": "https://dc.lft.to/lastmile_qr_scan", "ios": "https://dc.lft.to/lastmile_qr_scan"}, "is_disabled": 0, "fusion_lat": 0.0, "lat": 38.878193333333336, "is_reserved": 0}, {"lon": -77.02815716666667, "fusion_lon": 0.0, "bike_id": "23087e0b6197608597ed90253ebc8c1e", "type": "electric_scooter", "name": "23087e0b6197608597ed90253ebc8c1e", "rental_uris": {"android": "https://dc.lft.to/lastmile_qr_scan", "ios": "https://dc.lft.to/lastmile_qr_scan"}, "is_disabled": 0, "fusion_lat": 0.0, "lat": 38.930781833333334, "is_reserved": 0}, {"lon": -77.0317555, "fusion_lon": 0.0, "bike_id": "b9edf25c46b0a8a46c9953990e575dbe", "type": "electric_scooter", "name": "b9edf25c46b0a8a46c9953990e575dbe", "rental_uris": {"android": "https://dc.lft.to/lastmile_qr_scan", "ios": "https://dc.lft.to/lastmile_qr_scan"}, "is_disabled": 0, "fusion_lat": 0.0, "lat": 38.90115566666667, "is_reserved": 0}, {"lon": -77.02061916666666, "fusion_lon": 0.0, "bike_id": "fa8aa784e2e96056c1cc6b9e0f99d8ab", "type": "electric_bike", "name": "fa8aa784e2e96056c1cc6b9e0f99d8ab", "rental_uris": {"android": "https://dc.lft.to/lastmile_qr_scan", "ios": "https://dc.lft.to/lastmile_qr_scan"}, "is_disabled": 0, "fusion_lat": 0.0, "lat": 38.932945333333336, "is_reserved": 0}, {"lon": -77.03330383333333, "fusion_lon": 0.0, "bike_id": "7c9b09aac1b2ffb06315a081fdef1c7e", "type": "electric_scooter", "name": "7c9b09aac1b2ffb06315a081fdef1c7e", "rental_uris": {"android": "https://dc.lft.to/lastmile_qr_scan", "ios": "https://dc.lft.to/lastmile_qr_scan"}, "is_disabled": 0, "fusion_lat": 0.0, "lat": 38.89839533333333, "is_reserved": 0}, {"lon": -76.9937835, "fusion_lon": 0.0, "bike_id": "629f91dcaf8ca1d0ca17e7b07fa0bc28", "type": "electric_bike", "name": "629f91dcaf8ca1d0ca17e7b07fa0bc28", "rental_uris": {"android": "https://dc.lft.to/lastmile_qr_scan", "ios": "https://dc.lft.to/lastmile_qr_scan"}, "is_disabled": 0, "fusion_lat": 0.0, "lat": 38.99100816666667, "is_reserved": 0}, {"lon": -76.98566116666667, "fusion_lon": 0.0, "bike_id": "fbc76cfc565d39416eb7626454171e1e", "type": "electric_scooter", "name": "fbc76cfc565d39416eb7626454171e1e", "rental_uris": {"android": "https://dc.lft.to/lastmile_qr_scan", "ios": "https://dc.lft.to/lastmile_qr_scan"}, "is_disabled": 0, "fusion_lat": 0.0, "lat": 38.8668405, "is_reserved": 0}, {"lon": -76.93735383333333, "fusion_lon": 0.0, "bike_id": "c09592171beccf85581a02cab61e3e06", "type": "electric_scooter", "name": "c09592171beccf85581a02cab61e3e06", "rental_uris": {"android": "https://dc.lft.to/lastmile_qr_scan", "ios": "https://dc.lft.to/lastmile_qr_scan"}, "is_disabled": 0, "fusion_lat": 0.0, "lat": 38.89016933333333, "is_reserved": 0}, {"lon": -76.981948, "fusion_lon": 0.0, "bike_id": "98cdabb8140136d40f03c4b1964d821e", "type": "electric_scooter", "name": "98cdabb8140136d40f03c4b1964d821e", "rental_uris": {"android": "https://dc.lft.to/lastmile_qr_scan", "ios": "https://dc.lft.to/lastmile_qr_scan"}, "is_disabled": 0, "fusion_lat": 0.0, "lat": 38.9206495, "is_reserved": 0}, {"lon": -77.02515016666666, "fusion_lon": 0.0, "bike_id": "b4eaa088d0918fbe3bcf15e327f82277", "type": "electric_scooter", "name": "b4eaa088d0918fbe3bcf15e327f82277", "rental_uris": {"android": "https://dc.lft.to/lastmile_qr_scan", "ios": "https://dc.lft.to/lastmile_qr_scan"}, "is_disabled": 0, "fusion_lat": 0.0, "lat": 38.919479833333334, "is_reserved": 0}, {"lon": -77.00055683333333, "fusion_lon": 0.0, "bike_id": "25cabb5ea780b111fa7e78678ef672e6", "type": "electric_scooter", "name": "25cabb5ea780b111fa7e78678ef672e6", "rental_uris": {"android": "https://dc.lft.to/lastmile_qr_scan", "ios": "https://dc.lft.to/lastmile_qr_scan"}, "is_disabled": 0, "fusion_lat": 0.0, "lat": 38.894366166666664, "is_reserved": 0}, {"lon": -77.020967, "fusion_lon": 0.0, "bike_id": "570bf3c3828bb37a33150d0f15b34e12", "type": "electric_scooter", "name": "570bf3c3828bb37a33150d0f15b34e12", "rental_uris": {"android": "https://dc.lft.to/lastmile_qr_scan", "ios": "https://dc.lft.to/lastmile_qr_scan"}, "is_disabled": 0, "fusion_lat": 0.0, "lat": 38.91172666666667, "is_reserved": 0}, {"lon": -77.02977, "fusion_lon": 0.0, "bike_id": "1a2615af6c32e420026191eb209fc795", "type": "electric_scooter", "name": "1a2615af6c32e420026191eb209fc795", "rental_uris": {"android": "https://dc.lft.to/lastmile_qr_scan", "ios": "https://dc.lft.to/lastmile_qr_scan"}, "is_disabled": 0, "fusion_lat": 0.0, "lat": 38.9052085, "is_reserved": 0}, {"lon": -76.942601, "fusion_lon": 0.0, "bike_id": "00d41693c73c0bd5fbdcf2bec31b664d", "type": "electric_scooter", "name": "00d41693c73c0bd5fbdcf2bec31b664d", "rental_uris": {"android": "https://dc.lft.to/lastmile_qr_scan", "ios": "https://dc.lft.to/lastmile_qr_scan"}, "is_disabled": 0, "fusion_lat": 0.0, "lat": 38.89849133333333, "is_reserved": 0}, {"lon": -77.0197205, "fusion_lon": 0.0, "bike_id": "be15a028cda016ea4d004bca45e6fe1f", "type": "electric_scooter", "name": "be15a028cda016ea4d004bca45e6fe1f", "rental_uris": {"android": "https://dc.lft.to/lastmile_qr_scan", "ios": "https://dc.lft.to/lastmile_qr_scan"}, "is_disabled": 0, "fusion_lat": 0.0, "lat": 38.8841395, "is_reserved": 0}, {"lon": -76.99145316666667, "fusion_lon": 0.0, "bike_id": "d21c789f995addc9c0c66df661d7e11d", "type": "electric_scooter", "name": "d21c789f995addc9c0c66df661d7e11d", "rental_uris": {"android": "https://dc.lft.to/lastmile_qr_scan", "ios": "https://dc.lft.to/lastmile_qr_scan"}, "is_disabled": 0, "fusion_lat": 0.0, "lat": 38.8853175, "is_reserved": 0}, {"lon": -76.92680166666666, "fusion_lon": 0.0, "bike_id": "752b4ade356aacfdb58cc1a98a70f119", "type": "electric_scooter", "name": "752b4ade356aacfdb58cc1a98a70f119", "rental_uris": {"android": "https://dc.lft.to/lastmile_qr_scan", "ios": "https://dc.lft.to/lastmile_qr_scan"}, "is_disabled": 0, "fusion_lat": 0.0, "lat": 38.888488833333334, "is_reserved": 0}, {"lon": -77.03736633333334, "fusion_lon": 0.0, "bike_id": "9aeee7abd8410458bc4b99918966b2a9", "type": "electric_scooter", "name": "9aeee7abd8410458bc4b99918966b2a9", "rental_uris": {"android": "https://dc.lft.to/lastmile_qr_scan", "ios": "https://dc.lft.to/lastmile_qr_scan"}, "is_disabled": 0, "fusion_lat": 0.0, "lat": 38.911143333333335, "is_reserved": 0}, {"lon": -77.02790883333333, "fusion_lon": 0.0, "bike_id": "e6c0c5f6d67790569c020635f20a5083", "type": "electric_scooter", "name": "e6c0c5f6d67790569c020635f20a5083", "rental_uris": {"android": "https://dc.lft.to/lastmile_qr_scan", "ios": "https://dc.lft.to/lastmile_qr_scan"}, "is_disabled": 0, "fusion_lat": 0.0, "lat": 38.927756, "is_reserved": 0}, {"lon": -77.0089255, "fusion_lon": 0.0, "bike_id": "fdaaaed9f6d56c88910b73d8a5e03313", "type": "electric_scooter", "name": "fdaaaed9f6d56c88910b73d8a5e03313", "rental_uris": {"android": "https://dc.lft.to/lastmile_qr_scan", "ios": "https://dc.lft.to/lastmile_qr_scan"}, "is_disabled": 0, "fusion_lat": 0.0, "lat": 38.87669783333333, "is_reserved": 0}, {"lon": -77.04633733333333, "fusion_lon": 0.0, "bike_id": "862f872d8390c82a5ad441bbe27e088c", "type": "electric_scooter", "name": "862f872d8390c82a5ad441bbe27e088c", "rental_uris": {"android": "https://dc.lft.to/lastmile_qr_scan", "ios": "https://dc.lft.to/lastmile_qr_scan"}, "is_disabled": 0, "fusion_lat": 0.0, "lat": 38.918071833333336, "is_reserved": 0}, {"lon": -77.00312033333333, "fusion_lon": 0.0, "bike_id": "7669b38e4c8391099844c073feae54b1", "type": "electric_scooter", "name": "7669b38e4c8391099844c073feae54b1", "rental_uris": {"android": "https://dc.lft.to/lastmile_qr_scan", "ios": "https://dc.lft.to/lastmile_qr_scan"}, "is_disabled": 0, "fusion_lat": 0.0, "lat": 38.91944816666667, "is_reserved": 0}, {"lon": -76.9698505, "fusion_lon": 0.0, "bike_id": "e059694f0fbec8e2241bbac690af1879", "type": "electric_scooter", "name": "e059694f0fbec8e2241bbac690af1879", "rental_uris": {"android": "https://dc.lft.to/lastmile_qr_scan", "ios": "https://dc.lft.to/lastmile_qr_scan"}, "is_disabled": 0, "fusion_lat": 0.0, "lat": 38.878697333333335, "is_reserved": 0}, {"lon": -77.0006795, "fusion_lon": 0.0, "bike_id": "b5773853b87cb68f7e5db8cbc7d92d0b", "type": "electric_scooter", "name": "b5773853b87cb68f7e5db8cbc7d92d0b", "rental_uris": {"android": "https://dc.lft.to/lastmile_qr_scan", "ios": "https://dc.lft.to/lastmile_qr_scan"}, "is_disabled": 0, "fusion_lat": 0.0, "lat": 38.88679966666667, "is_reserved": 0}, {"lon": -77.0498905, "fusion_lon": 0.0, "bike_id": "0c105aebe9118fabffd83a04bbcb1fcc", "type": "electric_bike", "name": "0c105aebe9118fabffd83a04bbcb1fcc", "rental_uris": {"android": "https://dc.lft.to/lastmile_qr_scan", "ios": "https://dc.lft.to/lastmile_qr_scan"}, "is_disabled": 0, "fusion_lat": 0.0, "lat": 38.83776116666667, "is_reserved": 0}, {"lon": -77.02846283333334, "fusion_lon": 0.0, "bike_id": "da3d2cbdde71e9f7ce8d83a643d9d927", "type": "electric_scooter", "name": "da3d2cbdde71e9f7ce8d83a643d9d927", "rental_uris": {"android": "https://dc.lft.to/lastmile_qr_scan", "ios": "https://dc.lft.to/lastmile_qr_scan"}, "is_disabled": 0, "fusion_lat": 0.0, "lat": 38.91706766666667, "is_reserved": 0}, {"lon": -77.07959183333334, "fusion_lon": 0.0, "bike_id": "ccfc6c12ba6ae9eac8c84494f88252d2", "type": "electric_scooter", "name": "ccfc6c12ba6ae9eac8c84494f88252d2", "rental_uris": {"android": "https://dc.lft.to/lastmile_qr_scan", "ios": "https://dc.lft.to/lastmile_qr_scan"}, "is_disabled": 0, "fusion_lat": 0.0, "lat": 38.94565166666667, "is_reserved": 0}, {"lon": -77.01321, "fusion_lon": 0.0, "bike_id": "fc465bde62fb30f75bc4e34eecd99fea", "type": "electric_scooter", "name": "fc465bde62fb30f75bc4e34eecd99fea", "rental_uris": {"android": "https://dc.lft.to/lastmile_qr_scan", "ios": "https://dc.lft.to/lastmile_qr_scan"}, "is_disabled": 0, "fusion_lat": 0.0, "lat": 38.90088083333333, "is_reserved": 0}, {"lon": -77.01084583333333, "fusion_lon": 0.0, "bike_id": "91019d85ade079870c2347b6d6eac20e", "type": "electric_bike", "name": "91019d85ade079870c2347b6d6eac20e", "rental_uris": {"android": "https://dc.lft.to/lastmile_qr_scan", "ios": "https://dc.lft.to/lastmile_qr_scan"}, "is_disabled": 0, "fusion_lat": 0.0, "lat": 38.873025, "is_reserved": 0}, {"lon": -77.013569, "fusion_lon": 0.0, "bike_id": "708fa4bc71b78e669711a9abae68e031", "type": "electric_scooter", "name": "708fa4bc71b78e669711a9abae68e031", "rental_uris": {"android": "https://dc.lft.to/lastmile_qr_scan", "ios": "https://dc.lft.to/lastmile_qr_scan"}, "is_disabled": 0, "fusion_lat": 0.0, "lat": 38.91258366666667, "is_reserved": 0}, {"lon": -77.03925033333333, "fusion_lon": 0.0, "bike_id": "a15745c5137ae04acea663b2075fab53", "type": "electric_scooter", "name": "a15745c5137ae04acea663b2075fab53", "rental_uris": {"android": "https://dc.lft.to/lastmile_qr_scan", "ios": "https://dc.lft.to/lastmile_qr_scan"}, "is_disabled": 0, "fusion_lat": 0.0, "lat": 38.90373916666667, "is_reserved": 0}, {"lon": -77.02697116666667, "fusion_lon": 0.0, "bike_id": "e23b29ee62793fe1ed14a5db705ab375", "type": "electric_scooter", "name": "e23b29ee62793fe1ed14a5db705ab375", "rental_uris": {"android": "https://dc.lft.to/lastmile_qr_scan", "ios": "https://dc.lft.to/lastmile_qr_scan"}, "is_disabled": 0, "fusion_lat": 0.0, "lat": 38.9498325, "is_reserved": 0}, {"lon": -77.0513355, "fusion_lon": 0.0, "bike_id": "3b7a979aba0fc8a64888e399f1ae1fc6", "type": "electric_scooter", "name": "3b7a979aba0fc8a64888e399f1ae1fc6", "rental_uris": {"android": "https://dc.lft.to/lastmile_qr_scan", "ios": "https://dc.lft.to/lastmile_qr_scan"}, "is_disabled": 0, "fusion_lat": 0.0, "lat": 38.906417833333336, "is_reserved": 0}, {"lon": -76.93073733333334, "fusion_lon": 0.0, "bike_id": "7a019dc1078cdca09a6bdf00c65d03af", "type": "electric_scooter", "name": "7a019dc1078cdca09a6bdf00c65d03af", "rental_uris": {"android": "https://dc.lft.to/lastmile_qr_scan", "ios": "https://dc.lft.to/lastmile_qr_scan"}, "is_disabled": 0, "fusion_lat": 0.0, "lat": 38.90166966666666, "is_reserved": 0}, {"lon": -77.04520333333333, "fusion_lon": 0.0, "bike_id": "c116787cd3ca2402fb5046ab6532ea32", "type": "electric_scooter", "name": "c116787cd3ca2402fb5046ab6532ea32", "rental_uris": {"android": "https://dc.lft.to/lastmile_qr_scan", "ios": "https://dc.lft.to/lastmile_qr_scan"}, "is_disabled": 0, "fusion_lat": 0.0, "lat": 38.91838833333333, "is_reserved": 0}, {"lon": -76.99860866666667, "fusion_lon": 0.0, "bike_id": "52a11de17fdbbc24e007314a0c84ec82", "type": "electric_scooter", "name": "52a11de17fdbbc24e007314a0c84ec82", "rental_uris": {"android": "https://dc.lft.to/lastmile_qr_scan", "ios": "https://dc.lft.to/lastmile_qr_scan"}, "is_disabled": 0, "fusion_lat": 0.0, "lat": 38.90892866666667, "is_reserved": 0}, {"lon": -77.04231466666667, "fusion_lon": 0.0, "bike_id": "c4667ba93b2d78982fa1d0c31ed84acc", "type": "electric_scooter", "name": "c4667ba93b2d78982fa1d0c31ed84acc", "rental_uris": {"android": "https://dc.lft.to/lastmile_qr_scan", "ios": "https://dc.lft.to/lastmile_qr_scan"}, "is_disabled": 0, "fusion_lat": 0.0, "lat": 38.920654, "is_reserved": 0}, {"lon": -77.03148816666666, "fusion_lon": 0.0, "bike_id": "15b03080d45589f33403515aebd8c6fb", "type": "electric_scooter", "name": "15b03080d45589f33403515aebd8c6fb", "rental_uris": {"android": "https://dc.lft.to/lastmile_qr_scan", "ios": "https://dc.lft.to/lastmile_qr_scan"}, "is_disabled": 0, "fusion_lat": 0.0, "lat": 38.9112125, "is_reserved": 0}, {"lon": -77.028756, "fusion_lon": 0.0, "bike_id": "4db07b1bb1f8c0b8552cf2550537309c", "type": "electric_scooter", "name": "4db07b1bb1f8c0b8552cf2550537309c", "rental_uris": {"android": "https://dc.lft.to/lastmile_qr_scan", "ios": "https://dc.lft.to/lastmile_qr_scan"}, "is_disabled": 0, "fusion_lat": 0.0, "lat": 38.915557, "is_reserved": 0}, {"lon": -77.063895, "fusion_lon": 0.0, "bike_id": "d5f209ff50ac51f86ed3b59a5df72454", "type": "electric_scooter", "name": "d5f209ff50ac51f86ed3b59a5df72454", "rental_uris": {"android": "https://dc.lft.to/lastmile_qr_scan", "ios": "https://dc.lft.to/lastmile_qr_scan"}, "is_disabled": 0, "fusion_lat": 0.0, "lat": 38.944146, "is_reserved": 0}, {"lon": -77.00677483333334, "fusion_lon": 0.0, "bike_id": "98677fdaa11e1ff16da9aa6d863d95f1", "type": "electric_bike", "name": "98677fdaa11e1ff16da9aa6d863d95f1", "rental_uris": {"android": "https://dc.lft.to/lastmile_qr_scan", "ios": "https://dc.lft.to/lastmile_qr_scan"}, "is_disabled": 0, "fusion_lat": 0.0, "lat": 38.94511683333333, "is_reserved": 0}, {"lon": -77.07227516666667, "fusion_lon": 0.0, "bike_id": "a6be3f0625202d148fa32f909d03d6da", "type": "electric_scooter", "name": "a6be3f0625202d148fa32f909d03d6da", "rental_uris": {"android": "https://dc.lft.to/lastmile_qr_scan", "ios": "https://dc.lft.to/lastmile_qr_scan"}, "is_disabled": 0, "fusion_lat": 0.0, "lat": 38.931896333333334, "is_reserved": 0}, {"lon": -77.0141595, "fusion_lon": 0.0, "bike_id": "61433157255f5b57bbcd6d3a50b59544", "type": "electric_scooter", "name": "61433157255f5b57bbcd6d3a50b59544", "rental_uris": {"android": "https://dc.lft.to/lastmile_qr_scan", "ios": "https://dc.lft.to/lastmile_qr_scan"}, "is_disabled": 0, "fusion_lat": 0.0, "lat": 38.89221833333333, "is_reserved": 0}, {"lon": -77.06132383333333, "fusion_lon": 0.0, "bike_id": "4667f4e3d149177f5ecc0c8ed25d2b7d", "type": "electric_scooter", "name": "4667f4e3d149177f5ecc0c8ed25d2b7d", "rental_uris": {"android": "https://dc.lft.to/lastmile_qr_scan", "ios": "https://dc.lft.to/lastmile_qr_scan"}, "is_disabled": 0, "fusion_lat": 0.0, "lat": 38.9435855, "is_reserved": 0}, {"lon": -77.02697866666666, "fusion_lon": 0.0, "bike_id": "0a81e1f992b26f2ead70717b0744ad52", "type": "electric_scooter", "name": "0a81e1f992b26f2ead70717b0744ad52", "rental_uris": {"android": "https://dc.lft.to/lastmile_qr_scan", "ios": "https://dc.lft.to/lastmile_qr_scan"}, "is_disabled": 0, "fusion_lat": 0.0, "lat": 38.9084425, "is_reserved": 0}, {"lon": -77.02820916666667, "fusion_lon": 0.0, "bike_id": "c42802895c46a8b4c66d2d9b738eb8b5", "type": "electric_scooter", "name": "c42802895c46a8b4c66d2d9b738eb8b5", "rental_uris": {"android": "https://dc.lft.to/lastmile_qr_scan", "ios": "https://dc.lft.to/lastmile_qr_scan"}, "is_disabled": 0, "fusion_lat": 0.0, "lat": 38.90895, "is_reserved": 0}, {"lon": -77.02237666666667, "fusion_lon": 0.0, "bike_id": "3e98a4cc2c890de3ab53ae394f8af1d7", "type": "electric_scooter", "name": "3e98a4cc2c890de3ab53ae394f8af1d7", "rental_uris": {"android": "https://dc.lft.to/lastmile_qr_scan", "ios": "https://dc.lft.to/lastmile_qr_scan"}, "is_disabled": 0, "fusion_lat": 0.0, "lat": 38.9222445, "is_reserved": 0}, {"lon": -76.99983166666667, "fusion_lon": 0.0, "bike_id": "b38c6dd105924500145b2d93677ce7e0", "type": "electric_scooter", "name": "b38c6dd105924500145b2d93677ce7e0", "rental_uris": {"android": "https://dc.lft.to/lastmile_qr_scan", "ios": "https://dc.lft.to/lastmile_qr_scan"}, "is_disabled": 0, "fusion_lat": 0.0, "lat": 38.87922983333333, "is_reserved": 0}, {"lon": -76.98841216666666, "fusion_lon": 0.0, "bike_id": "ef88cef4e0aff87b683908fdcd562f8f", "type": "electric_bike", "name": "ef88cef4e0aff87b683908fdcd562f8f", "rental_uris": {"android": "https://dc.lft.to/lastmile_qr_scan", "ios": "https://dc.lft.to/lastmile_qr_scan"}, "is_disabled": 0, "fusion_lat": 0.0, "lat": 38.842787, "is_reserved": 0}, {"lon": -77.0363735, "fusion_lon": 0.0, "bike_id": "ec64476d75d459ee1fb2800d2106776b", "type": "electric_scooter", "name": "ec64476d75d459ee1fb2800d2106776b", "rental_uris": {"android": "https://dc.lft.to/lastmile_qr_scan", "ios": "https://dc.lft.to/lastmile_qr_scan"}, "is_disabled": 0, "fusion_lat": 0.0, "lat": 38.918314333333335, "is_reserved": 0}, {"lon": -77.078636, "fusion_lon": 0.0, "bike_id": "bf058ac3f9fd767f43585c6fc013c3ea", "type": "electric_bike", "name": "bf058ac3f9fd767f43585c6fc013c3ea", "rental_uris": {"android": "https://dc.lft.to/lastmile_qr_scan", "ios": "https://dc.lft.to/lastmile_qr_scan"}, "is_disabled": 0, "fusion_lat": 0.0, "lat": 38.894005166666666, "is_reserved": 0}, {"lon": -76.97855466666667, "fusion_lon": 0.0, "bike_id": "1bcff818edf63853c4d05571a4e25f36", "type": "electric_bike", "name": "1bcff818edf63853c4d05571a4e25f36", "rental_uris": {"android": "https://dc.lft.to/lastmile_qr_scan", "ios": "https://dc.lft.to/lastmile_qr_scan"}, "is_disabled": 0, "fusion_lat": 0.0, "lat": 38.844706, "is_reserved": 0}, {"lon": -77.03361366666667, "fusion_lon": 0.0, "bike_id": "6cf44b6f335e30a5e1dc7353bb992042", "type": "electric_scooter", "name": "6cf44b6f335e30a5e1dc7353bb992042", "rental_uris": {"android": "https://dc.lft.to/lastmile_qr_scan", "ios": "https://dc.lft.to/lastmile_qr_scan"}, "is_disabled": 0, "fusion_lat": 0.0, "lat": 38.902908833333335, "is_reserved": 0}, {"lon": -77.02565316666667, "fusion_lon": 0.0, "bike_id": "027375e331f7ca3d1d42bfef2ba9d321", "type": "electric_scooter", "name": "027375e331f7ca3d1d42bfef2ba9d321", "rental_uris": {"android": "https://dc.lft.to/lastmile_qr_scan", "ios": "https://dc.lft.to/lastmile_qr_scan"}, "is_disabled": 0, "fusion_lat": 0.0, "lat": 38.90961333333333, "is_reserved": 0}, {"lon": -77.00571283333333, "fusion_lon": 0.0, "bike_id": "1d8306138310d18c06aaae76ef7056c4", "type": "electric_scooter", "name": "1d8306138310d18c06aaae76ef7056c4", "rental_uris": {"android": "https://dc.lft.to/lastmile_qr_scan", "ios": "https://dc.lft.to/lastmile_qr_scan"}, "is_disabled": 0, "fusion_lat": 0.0, "lat": 38.87642233333333, "is_reserved": 0}, {"lon": -76.99736533333333, "fusion_lon": 0.0, "bike_id": "976794de3291f1e68673897ef6233f4c", "type": "electric_scooter", "name": "976794de3291f1e68673897ef6233f4c", "rental_uris": {"android": "https://dc.lft.to/lastmile_qr_scan", "ios": "https://dc.lft.to/lastmile_qr_scan"}, "is_disabled": 0, "fusion_lat": 0.0, "lat": 38.9004275, "is_reserved": 0}, {"lon": -77.00337716666667, "fusion_lon": 0.0, "bike_id": "3e2d36aef3d24784228f58cb4320d4af", "type": "electric_scooter", "name": "3e2d36aef3d24784228f58cb4320d4af", "rental_uris": {"android": "https://dc.lft.to/lastmile_qr_scan", "ios": "https://dc.lft.to/lastmile_qr_scan"}, "is_disabled": 0, "fusion_lat": 0.0, "lat": 38.894685833333334, "is_reserved": 0}, {"lon": -77.02496583333334, "fusion_lon": 0.0, "bike_id": "eade5b81989e3489c8aceb73621ff7cb", "type": "electric_scooter", "name": "eade5b81989e3489c8aceb73621ff7cb", "rental_uris": {"android": "https://dc.lft.to/lastmile_qr_scan", "ios": "https://dc.lft.to/lastmile_qr_scan"}, "is_disabled": 0, "fusion_lat": 0.0, "lat": 38.91808433333333, "is_reserved": 0}, {"lon": -77.05663383333334, "fusion_lon": 0.0, "bike_id": "43ef95dc6673e0b0e49f1c460898ff14", "type": "electric_scooter", "name": "43ef95dc6673e0b0e49f1c460898ff14", "rental_uris": {"android": "https://dc.lft.to/lastmile_qr_scan", "ios": "https://dc.lft.to/lastmile_qr_scan"}, "is_disabled": 0, "fusion_lat": 0.0, "lat": 38.906148, "is_reserved": 0}, {"lon": -76.9951865, "fusion_lon": 0.0, "bike_id": "a6983ffb4c5717a5df903ec9fca04c30", "type": "electric_scooter", "name": "a6983ffb4c5717a5df903ec9fca04c30", "rental_uris": {"android": "https://dc.lft.to/lastmile_qr_scan", "ios": "https://dc.lft.to/lastmile_qr_scan"}, "is_disabled": 0, "fusion_lat": 0.0, "lat": 38.879244, "is_reserved": 0}, {"lon": -77.03181833333333, "fusion_lon": 0.0, "bike_id": "b389f13b861686024939b9ccdadc26f0", "type": "electric_scooter", "name": "b389f13b861686024939b9ccdadc26f0", "rental_uris": {"android": "https://dc.lft.to/lastmile_qr_scan", "ios": "https://dc.lft.to/lastmile_qr_scan"}, "is_disabled": 0, "fusion_lat": 0.0, "lat": 38.9192405, "is_reserved": 0}, {"lon": -76.96706633333334, "fusion_lon": 0.0, "bike_id": "546dcb6f39a31e44ea59da9e1f38273d", "type": "electric_scooter", "name": "546dcb6f39a31e44ea59da9e1f38273d", "rental_uris": {"android": "https://dc.lft.to/lastmile_qr_scan", "ios": "https://dc.lft.to/lastmile_qr_scan"}, "is_disabled": 0, "fusion_lat": 0.0, "lat": 38.860391166666666, "is_reserved": 0}, {"lon": -77.05728233333333, "fusion_lon": 0.0, "bike_id": "62e9dc3c7c5247810943521453e565bd", "type": "electric_scooter", "name": "62e9dc3c7c5247810943521453e565bd", "rental_uris": {"android": "https://dc.lft.to/lastmile_qr_scan", "ios": "https://dc.lft.to/lastmile_qr_scan"}, "is_disabled": 0, "fusion_lat": 0.0, "lat": 38.93362916666667, "is_reserved": 0}, {"lon": -77.02290483333333, "fusion_lon": 0.0, "bike_id": "de6af2810c7eae16bb6e96ebfb92970f", "type": "electric_scooter", "name": "de6af2810c7eae16bb6e96ebfb92970f", "rental_uris": {"android": "https://dc.lft.to/lastmile_qr_scan", "ios": "https://dc.lft.to/lastmile_qr_scan"}, "is_disabled": 0, "fusion_lat": 0.0, "lat": 38.8970695, "is_reserved": 0}, {"lon": -77.041731, "fusion_lon": 0.0, "bike_id": "1804808e3965d812a143e9add67a7e70", "type": "electric_scooter", "name": "1804808e3965d812a143e9add67a7e70", "rental_uris": {"android": "https://dc.lft.to/lastmile_qr_scan", "ios": "https://dc.lft.to/lastmile_qr_scan"}, "is_disabled": 0, "fusion_lat": 0.0, "lat": 38.91840166666667, "is_reserved": 0}, {"lon": -77.01748366666666, "fusion_lon": 0.0, "bike_id": "07d0bd7ba25f62e47fe38df182d2e893", "type": "electric_scooter", "name": "07d0bd7ba25f62e47fe38df182d2e893", "rental_uris": {"android": "https://dc.lft.to/lastmile_qr_scan", "ios": "https://dc.lft.to/lastmile_qr_scan"}, "is_disabled": 0, "fusion_lat": 0.0, "lat": 38.9027035, "is_reserved": 0}, {"lon": -77.01989266666666, "fusion_lon": 0.0, "bike_id": "b26250d1f633503718fe1b374a9b7fcb", "type": "electric_scooter", "name": "b26250d1f633503718fe1b374a9b7fcb", "rental_uris": {"android": "https://dc.lft.to/lastmile_qr_scan", "ios": "https://dc.lft.to/lastmile_qr_scan"}, "is_disabled": 0, "fusion_lat": 0.0, "lat": 38.8955205, "is_reserved": 0}, {"lon": -76.955796, "fusion_lon": 0.0, "bike_id": "2f7f5d970040208243033b3dc08b7f21", "type": "electric_scooter", "name": "2f7f5d970040208243033b3dc08b7f21", "rental_uris": {"android": "https://dc.lft.to/lastmile_qr_scan", "ios": "https://dc.lft.to/lastmile_qr_scan"}, "is_disabled": 0, "fusion_lat": 0.0, "lat": 38.886175, "is_reserved": 0}, {"lon": -77.03634433333333, "fusion_lon": 0.0, "bike_id": "fb8b18e5646122ba44cd7dcb2584ba40", "type": "electric_scooter", "name": "fb8b18e5646122ba44cd7dcb2584ba40", "rental_uris": {"android": "https://dc.lft.to/lastmile_qr_scan", "ios": "https://dc.lft.to/lastmile_qr_scan"}, "is_disabled": 0, "fusion_lat": 0.0, "lat": 38.92704966666667, "is_reserved": 0}, {"lon": -77.03888333333333, "fusion_lon": 0.0, "bike_id": "8c64312bd032870a2a53f94b1f3acf0f", "type": "electric_scooter", "name": "8c64312bd032870a2a53f94b1f3acf0f", "rental_uris": {"android": "https://dc.lft.to/lastmile_qr_scan", "ios": "https://dc.lft.to/lastmile_qr_scan"}, "is_disabled": 0, "fusion_lat": 0.0, "lat": 38.922674, "is_reserved": 0}, {"lon": -77.04371733333333, "fusion_lon": 0.0, "bike_id": "919590e8170e2042e8e9e0a1155970a5", "type": "electric_scooter", "name": "919590e8170e2042e8e9e0a1155970a5", "rental_uris": {"android": "https://dc.lft.to/lastmile_qr_scan", "ios": "https://dc.lft.to/lastmile_qr_scan"}, "is_disabled": 0, "fusion_lat": 0.0, "lat": 38.904276833333334, "is_reserved": 0}, {"lon": -76.9979665, "fusion_lon": 0.0, "bike_id": "51c72001ace5b23b31fb1407eb508be2", "type": "electric_scooter", "name": "51c72001ace5b23b31fb1407eb508be2", "rental_uris": {"android": "https://dc.lft.to/lastmile_qr_scan", "ios": "https://dc.lft.to/lastmile_qr_scan"}, "is_disabled": 0, "fusion_lat": 0.0, "lat": 38.901432666666665, "is_reserved": 0}, {"lon": -77.02199816666666, "fusion_lon": 0.0, "bike_id": "ad706b0bc40e6e93950231e93a5da589", "type": "electric_scooter", "name": "ad706b0bc40e6e93950231e93a5da589", "rental_uris": {"android": "https://dc.lft.to/lastmile_qr_scan", "ios": "https://dc.lft.to/lastmile_qr_scan"}, "is_disabled": 0, "fusion_lat": 0.0, "lat": 38.94800816666667, "is_reserved": 0}, {"lon": -76.95757183333333, "fusion_lon": 0.0, "bike_id": "34ec44cf6e2088e96d657c00a025b5e0", "type": "electric_scooter", "name": "34ec44cf6e2088e96d657c00a025b5e0", "rental_uris": {"android": "https://dc.lft.to/lastmile_qr_scan", "ios": "https://dc.lft.to/lastmile_qr_scan"}, "is_disabled": 0, "fusion_lat": 0.0, "lat": 38.8842865, "is_reserved": 0}, {"lon": -77.00514183333334, "fusion_lon": 0.0, "bike_id": "3504215c9c0b573a78c44444040c11e3", "type": "electric_scooter", "name": "3504215c9c0b573a78c44444040c11e3", "rental_uris": {"android": "https://dc.lft.to/lastmile_qr_scan", "ios": "https://dc.lft.to/lastmile_qr_scan"}, "is_disabled": 0, "fusion_lat": 0.0, "lat": 38.89596383333333, "is_reserved": 0}, {"lon": -76.98671366666667, "fusion_lon": 0.0, "bike_id": "f3b8e7f104bd40973231148d3f03ebd9", "type": "electric_scooter", "name": "f3b8e7f104bd40973231148d3f03ebd9", "rental_uris": {"android": "https://dc.lft.to/lastmile_qr_scan", "ios": "https://dc.lft.to/lastmile_qr_scan"}, "is_disabled": 0, "fusion_lat": 0.0, "lat": 38.906792, "is_reserved": 0}, {"lon": -76.99536533333334, "fusion_lon": 0.0, "bike_id": "54364a7c2284918a8b56bea384c72a3a", "type": "electric_scooter", "name": "54364a7c2284918a8b56bea384c72a3a", "rental_uris": {"android": "https://dc.lft.to/lastmile_qr_scan", "ios": "https://dc.lft.to/lastmile_qr_scan"}, "is_disabled": 0, "fusion_lat": 0.0, "lat": 38.926656333333334, "is_reserved": 0}, {"lon": -77.04481483333333, "fusion_lon": 0.0, "bike_id": "ad9646a8847cce3980664e8ce42c12fa", "type": "electric_scooter", "name": "ad9646a8847cce3980664e8ce42c12fa", "rental_uris": {"android": "https://dc.lft.to/lastmile_qr_scan", "ios": "https://dc.lft.to/lastmile_qr_scan"}, "is_disabled": 0, "fusion_lat": 0.0, "lat": 38.89527866666667, "is_reserved": 0}, {"lon": -77.04370616666667, "fusion_lon": 0.0, "bike_id": "d309f9983641453cf1d92037173d1ce4", "type": "electric_scooter", "name": "d309f9983641453cf1d92037173d1ce4", "rental_uris": {"android": "https://dc.lft.to/lastmile_qr_scan", "ios": "https://dc.lft.to/lastmile_qr_scan"}, "is_disabled": 0, "fusion_lat": 0.0, "lat": 38.892222833333335, "is_reserved": 0}, {"lon": -77.0314535, "fusion_lon": 0.0, "bike_id": "4da49c68da1c3b5f30fcafa0d603600d", "type": "electric_scooter", "name": "4da49c68da1c3b5f30fcafa0d603600d", "rental_uris": {"android": "https://dc.lft.to/lastmile_qr_scan", "ios": "https://dc.lft.to/lastmile_qr_scan"}, "is_disabled": 0, "fusion_lat": 0.0, "lat": 38.912672666666666, "is_reserved": 0}, {"lon": -77.03263883333334, "fusion_lon": 0.0, "bike_id": "64324a531ed75429a4825315190956cc", "type": "electric_scooter", "name": "64324a531ed75429a4825315190956cc", "rental_uris": {"android": "https://dc.lft.to/lastmile_qr_scan", "ios": "https://dc.lft.to/lastmile_qr_scan"}, "is_disabled": 0, "fusion_lat": 0.0, "lat": 38.8972715, "is_reserved": 0}, {"lon": -77.022865, "fusion_lon": 0.0, "bike_id": "c21c7a307e0b442aed27073b5668b882", "type": "electric_scooter", "name": "c21c7a307e0b442aed27073b5668b882", "rental_uris": {"android": "https://dc.lft.to/lastmile_qr_scan", "ios": "https://dc.lft.to/lastmile_qr_scan"}, "is_disabled": 0, "fusion_lat": 0.0, "lat": 38.91686133333333, "is_reserved": 0}, {"lon": -77.027114, "fusion_lon": 0.0, "bike_id": "023d3eee81232c80576900d75ce7fc19", "type": "electric_scooter", "name": "023d3eee81232c80576900d75ce7fc19", "rental_uris": {"android": "https://dc.lft.to/lastmile_qr_scan", "ios": "https://dc.lft.to/lastmile_qr_scan"}, "is_disabled": 0, "fusion_lat": 0.0, "lat": 38.917230833333335, "is_reserved": 0}, {"lon": -76.96018466666666, "fusion_lon": 0.0, "bike_id": "c50a4285af1e32cbf46cb50929f8e436", "type": "electric_scooter", "name": "c50a4285af1e32cbf46cb50929f8e436", "rental_uris": {"android": "https://dc.lft.to/lastmile_qr_scan", "ios": "https://dc.lft.to/lastmile_qr_scan"}, "is_disabled": 0, "fusion_lat": 0.0, "lat": 38.8693335, "is_reserved": 0}, {"lon": -76.93737333333334, "fusion_lon": 0.0, "bike_id": "b60114db3d72cb730b2845be246378eb", "type": "electric_scooter", "name": "b60114db3d72cb730b2845be246378eb", "rental_uris": {"android": "https://dc.lft.to/lastmile_qr_scan", "ios": "https://dc.lft.to/lastmile_qr_scan"}, "is_disabled": 0, "fusion_lat": 0.0, "lat": 38.89019, "is_reserved": 0}, {"lon": -77.03878883333333, "fusion_lon": 0.0, "bike_id": "7eeff241543ce6134310f7139ea8fe74", "type": "electric_scooter", "name": "7eeff241543ce6134310f7139ea8fe74", "rental_uris": {"android": "https://dc.lft.to/lastmile_qr_scan", "ios": "https://dc.lft.to/lastmile_qr_scan"}, "is_disabled": 0, "fusion_lat": 0.0, "lat": 38.917064, "is_reserved": 0}, {"lon": -76.983494, "fusion_lon": 0.0, "bike_id": "62678b85c44cad264bffbf264c035d83", "type": "electric_bike", "name": "62678b85c44cad264bffbf264c035d83", "rental_uris": {"android": "https://dc.lft.to/lastmile_qr_scan", "ios": "https://dc.lft.to/lastmile_qr_scan"}, "is_disabled": 0, "fusion_lat": 0.0, "lat": 38.8626295, "is_reserved": 0}, {"lon": -77.03414716666667, "fusion_lon": 0.0, "bike_id": "4f56ae89ffe4d2e316367bdec7150552", "type": "electric_scooter", "name": "4f56ae89ffe4d2e316367bdec7150552", "rental_uris": {"android": "https://dc.lft.to/lastmile_qr_scan", "ios": "https://dc.lft.to/lastmile_qr_scan"}, "is_disabled": 0, "fusion_lat": 0.0, "lat": 38.9232265, "is_reserved": 0}, {"lon": -77.03421, "fusion_lon": 0.0, "bike_id": "ba79ae70d1985b5c4ed6b1f8fb1b58bc", "type": "electric_scooter", "name": "ba79ae70d1985b5c4ed6b1f8fb1b58bc", "rental_uris": {"android": "https://dc.lft.to/lastmile_qr_scan", "ios": "https://dc.lft.to/lastmile_qr_scan"}, "is_disabled": 0, "fusion_lat": 0.0, "lat": 38.927292, "is_reserved": 0}, {"lon": -77.03437466666666, "fusion_lon": 0.0, "bike_id": "f1a43d71ed99d7a4c7a1eb18a7c6e55f", "type": "electric_scooter", "name": "f1a43d71ed99d7a4c7a1eb18a7c6e55f", "rental_uris": {"android": "https://dc.lft.to/lastmile_qr_scan", "ios": "https://dc.lft.to/lastmile_qr_scan"}, "is_disabled": 0, "fusion_lat": 0.0, "lat": 38.9179705, "is_reserved": 0}, {"lon": -77.00842166666666, "fusion_lon": 0.0, "bike_id": "136c5c4bbfa3504cb011b4ae026f2aef", "type": "electric_scooter", "name": "136c5c4bbfa3504cb011b4ae026f2aef", "rental_uris": {"android": "https://dc.lft.to/lastmile_qr_scan", "ios": "https://dc.lft.to/lastmile_qr_scan"}, "is_disabled": 0, "fusion_lat": 0.0, "lat": 38.831688, "is_reserved": 0}, {"lon": -77.02721983333333, "fusion_lon": 0.0, "bike_id": "5d5758cef9803605868f7cefc46bba0c", "type": "electric_scooter", "name": "5d5758cef9803605868f7cefc46bba0c", "rental_uris": {"android": "https://dc.lft.to/lastmile_qr_scan", "ios": "https://dc.lft.to/lastmile_qr_scan"}, "is_disabled": 0, "fusion_lat": 0.0, "lat": 38.907931, "is_reserved": 0}, {"lon": -77.0322725, "fusion_lon": 0.0, "bike_id": "d6e1e8ffd8f9e5438c1eba71b98c2d4c", "type": "electric_scooter", "name": "d6e1e8ffd8f9e5438c1eba71b98c2d4c", "rental_uris": {"android": "https://dc.lft.to/lastmile_qr_scan", "ios": "https://dc.lft.to/lastmile_qr_scan"}, "is_disabled": 0, "fusion_lat": 0.0, "lat": 38.91410183333333, "is_reserved": 0}, {"lon": -76.90419483333334, "fusion_lon": 0.0, "bike_id": "9a87289161b5032e668afa60fbb609be", "type": "electric_bike", "name": "9a87289161b5032e668afa60fbb609be", "rental_uris": {"android": "https://dc.lft.to/lastmile_qr_scan", "ios": "https://dc.lft.to/lastmile_qr_scan"}, "is_disabled": 0, "fusion_lat": 0.0, "lat": 38.94054666666667, "is_reserved": 0}, {"lon": -77.03538716666667, "fusion_lon": 0.0, "bike_id": "77b1814580d95958c789f40960277135", "type": "electric_scooter", "name": "77b1814580d95958c789f40960277135", "rental_uris": {"android": "https://dc.lft.to/lastmile_qr_scan", "ios": "https://dc.lft.to/lastmile_qr_scan"}, "is_disabled": 0, "fusion_lat": 0.0, "lat": 38.918803, "is_reserved": 0}, {"lon": -77.05253583333334, "fusion_lon": 0.0, "bike_id": "78bca639aae3d7d777241b43fe7cc04e", "type": "electric_scooter", "name": "78bca639aae3d7d777241b43fe7cc04e", "rental_uris": {"android": "https://dc.lft.to/lastmile_qr_scan", "ios": "https://dc.lft.to/lastmile_qr_scan"}, "is_disabled": 0, "fusion_lat": 0.0, "lat": 38.9237945, "is_reserved": 0}, {"lon": -77.04530566666666, "fusion_lon": 0.0, "bike_id": "c97aac976403f227867a07f923de4db0", "type": "electric_scooter", "name": "c97aac976403f227867a07f923de4db0", "rental_uris": {"android": "https://dc.lft.to/lastmile_qr_scan", "ios": "https://dc.lft.to/lastmile_qr_scan"}, "is_disabled": 0, "fusion_lat": 0.0, "lat": 38.8947345, "is_reserved": 0}, {"lon": -77.03829883333333, "fusion_lon": 0.0, "bike_id": "b7c9ba45453c59f3e2a5b43c75fc3939", "type": "electric_scooter", "name": "b7c9ba45453c59f3e2a5b43c75fc3939", "rental_uris": {"android": "https://dc.lft.to/lastmile_qr_scan", "ios": "https://dc.lft.to/lastmile_qr_scan"}, "is_disabled": 0, "fusion_lat": 0.0, "lat": 38.90314433333333, "is_reserved": 0}, {"lon": -76.987698, "fusion_lon": 0.0, "bike_id": "e8b05bd876c1c9d1f9bd938800e5580b", "type": "electric_scooter", "name": "e8b05bd876c1c9d1f9bd938800e5580b", "rental_uris": {"android": "https://dc.lft.to/lastmile_qr_scan", "ios": "https://dc.lft.to/lastmile_qr_scan"}, "is_disabled": 0, "fusion_lat": 0.0, "lat": 38.900324, "is_reserved": 0}, {"lon": -76.97266483333334, "fusion_lon": 0.0, "bike_id": "0d985a2541d2807c7448f0b22876b915", "type": "electric_scooter", "name": "0d985a2541d2807c7448f0b22876b915", "rental_uris": {"android": "https://dc.lft.to/lastmile_qr_scan", "ios": "https://dc.lft.to/lastmile_qr_scan"}, "is_disabled": 0, "fusion_lat": 0.0, "lat": 38.91453283333333, "is_reserved": 0}, {"lon": -77.0271375, "fusion_lon": 0.0, "bike_id": "9258480507d2c214b30f543206425dfe", "type": "electric_scooter", "name": "9258480507d2c214b30f543206425dfe", "rental_uris": {"android": "https://dc.lft.to/lastmile_qr_scan", "ios": "https://dc.lft.to/lastmile_qr_scan"}, "is_disabled": 0, "fusion_lat": 0.0, "lat": 38.907895, "is_reserved": 0}, {"lon": -77.0549145, "fusion_lon": 0.0, "bike_id": "c1e8d95c8a87296b855bcd809d9467f6", "type": "electric_scooter", "name": "c1e8d95c8a87296b855bcd809d9467f6", "rental_uris": {"android": "https://dc.lft.to/lastmile_qr_scan", "ios": "https://dc.lft.to/lastmile_qr_scan"}, "is_disabled": 0, "fusion_lat": 0.0, "lat": 38.9085735, "is_reserved": 0}, {"lon": -77.039943, "fusion_lon": 0.0, "bike_id": "9c829a3a78d4c32d4613a29acca9d8ec", "type": "electric_scooter", "name": "9c829a3a78d4c32d4613a29acca9d8ec", "rental_uris": {"android": "https://dc.lft.to/lastmile_qr_scan", "ios": "https://dc.lft.to/lastmile_qr_scan"}, "is_disabled": 0, "fusion_lat": 0.0, "lat": 38.92462233333333, "is_reserved": 0}, {"lon": -76.9425715, "fusion_lon": 0.0, "bike_id": "e15cfdeefa8d61edcb1614cce0275cb9", "type": "electric_bike", "name": "e15cfdeefa8d61edcb1614cce0275cb9", "rental_uris": {"android": "https://dc.lft.to/lastmile_qr_scan", "ios": "https://dc.lft.to/lastmile_qr_scan"}, "is_disabled": 0, "fusion_lat": 0.0, "lat": 38.89735733333333, "is_reserved": 0}, {"lon": -77.02629633333333, "fusion_lon": 0.0, "bike_id": "e99a3d0917837cb262d819cdfcfaa767", "type": "electric_scooter", "name": "e99a3d0917837cb262d819cdfcfaa767", "rental_uris": {"android": "https://dc.lft.to/lastmile_qr_scan", "ios": "https://dc.lft.to/lastmile_qr_scan"}, "is_disabled": 0, "fusion_lat": 0.0, "lat": 38.88772, "is_reserved": 0}, {"lon": -77.05047933333333, "fusion_lon": 0.0, "bike_id": "e77ca73b27ae33bb01bf1ee77ba955cc", "type": "electric_scooter", "name": "e77ca73b27ae33bb01bf1ee77ba955cc", "rental_uris": {"android": "https://dc.lft.to/lastmile_qr_scan", "ios": "https://dc.lft.to/lastmile_qr_scan"}, "is_disabled": 0, "fusion_lat": 0.0, "lat": 38.923633, "is_reserved": 0}, {"lon": -77.0137115, "fusion_lon": 0.0, "bike_id": "c17365d16fbda516f7a1284888e2ac6e", "type": "electric_scooter", "name": "c17365d16fbda516f7a1284888e2ac6e", "rental_uris": {"android": "https://dc.lft.to/lastmile_qr_scan", "ios": "https://dc.lft.to/lastmile_qr_scan"}, "is_disabled": 0, "fusion_lat": 0.0, "lat": 38.88639533333333, "is_reserved": 0}, {"lon": -76.98718483333333, "fusion_lon": 0.0, "bike_id": "fba7c091c826abca04701b9f9403795a", "type": "electric_scooter", "name": "fba7c091c826abca04701b9f9403795a", "rental_uris": {"android": "https://dc.lft.to/lastmile_qr_scan", "ios": "https://dc.lft.to/lastmile_qr_scan"}, "is_disabled": 0, "fusion_lat": 0.0, "lat": 38.866318, "is_reserved": 0}, {"lon": -76.98570466666666, "fusion_lon": 0.0, "bike_id": "a76e86c043a8c0c711859b6462d0668f", "type": "electric_scooter", "name": "a76e86c043a8c0c711859b6462d0668f", "rental_uris": {"android": "https://dc.lft.to/lastmile_qr_scan", "ios": "https://dc.lft.to/lastmile_qr_scan"}, "is_disabled": 0, "fusion_lat": 0.0, "lat": 38.8668405, "is_reserved": 0}, {"lon": -77.03332366666666, "fusion_lon": 0.0, "bike_id": "16812a727f587d2f749619f37eba5ded", "type": "electric_scooter", "name": "16812a727f587d2f749619f37eba5ded", "rental_uris": {"android": "https://dc.lft.to/lastmile_qr_scan", "ios": "https://dc.lft.to/lastmile_qr_scan"}, "is_disabled": 0, "fusion_lat": 0.0, "lat": 38.8925725, "is_reserved": 0}, {"lon": -76.98657, "fusion_lon": 0.0, "bike_id": "4e0d6d735927e124bf1cda859a878e22", "type": "electric_scooter", "name": "4e0d6d735927e124bf1cda859a878e22", "rental_uris": {"android": "https://dc.lft.to/lastmile_qr_scan", "ios": "https://dc.lft.to/lastmile_qr_scan"}, "is_disabled": 0, "fusion_lat": 0.0, "lat": 38.85806783333334, "is_reserved": 0}, {"lon": -77.03173216666667, "fusion_lon": 0.0, "bike_id": "2d138223bda7c1af04b09f5419aeec80", "type": "electric_scooter", "name": "2d138223bda7c1af04b09f5419aeec80", "rental_uris": {"android": "https://dc.lft.to/lastmile_qr_scan", "ios": "https://dc.lft.to/lastmile_qr_scan"}, "is_disabled": 0, "fusion_lat": 0.0, "lat": 38.91328016666667, "is_reserved": 0}, {"lon": -77.02717816666667, "fusion_lon": 0.0, "bike_id": "51c18b9b2550051428e81a07115db0af", "type": "electric_scooter", "name": "51c18b9b2550051428e81a07115db0af", "rental_uris": {"android": "https://dc.lft.to/lastmile_qr_scan", "ios": "https://dc.lft.to/lastmile_qr_scan"}, "is_disabled": 0, "fusion_lat": 0.0, "lat": 38.92793066666667, "is_reserved": 0}, {"lon": -77.02379066666667, "fusion_lon": 0.0, "bike_id": "b3f61bec88f8b7fb68e86c9147b5b2ae", "type": "electric_scooter", "name": "b3f61bec88f8b7fb68e86c9147b5b2ae", "rental_uris": {"android": "https://dc.lft.to/lastmile_qr_scan", "ios": "https://dc.lft.to/lastmile_qr_scan"}, "is_disabled": 0, "fusion_lat": 0.0, "lat": 38.9066635, "is_reserved": 0}, {"lon": -76.98719683333333, "fusion_lon": 0.0, "bike_id": "fc0c94fb109f2ea13d655b5c95d19d3e", "type": "electric_scooter", "name": "fc0c94fb109f2ea13d655b5c95d19d3e", "rental_uris": {"android": "https://dc.lft.to/lastmile_qr_scan", "ios": "https://dc.lft.to/lastmile_qr_scan"}, "is_disabled": 0, "fusion_lat": 0.0, "lat": 38.86632783333334, "is_reserved": 0}, {"lon": -77.02201566666666, "fusion_lon": 0.0, "bike_id": "da897e9b8a8196f9a114c2f0fa7e4aca", "type": "electric_scooter", "name": "da897e9b8a8196f9a114c2f0fa7e4aca", "rental_uris": {"android": "https://dc.lft.to/lastmile_qr_scan", "ios": "https://dc.lft.to/lastmile_qr_scan"}, "is_disabled": 0, "fusion_lat": 0.0, "lat": 38.911264333333335, "is_reserved": 0}, {"lon": -77.007595, "fusion_lon": 0.0, "bike_id": "5d56a2b053dd48657c42586ebf9e976e", "type": "electric_scooter", "name": "5d56a2b053dd48657c42586ebf9e976e", "rental_uris": {"android": "https://dc.lft.to/lastmile_qr_scan", "ios": "https://dc.lft.to/lastmile_qr_scan"}, "is_disabled": 0, "fusion_lat": 0.0, "lat": 38.89595683333334, "is_reserved": 0}, {"lon": -77.032676, "fusion_lon": 0.0, "bike_id": "5cfb284703e40c514d9c49b14e6a33ae", "type": "electric_scooter", "name": "5cfb284703e40c514d9c49b14e6a33ae", "rental_uris": {"android": "https://dc.lft.to/lastmile_qr_scan", "ios": "https://dc.lft.to/lastmile_qr_scan"}, "is_disabled": 0, "fusion_lat": 0.0, "lat": 38.919909833333335, "is_reserved": 0}, {"lon": -77.05292166666666, "fusion_lon": 0.0, "bike_id": "a832e5338e321580c9c8fd781700d0e0", "type": "electric_scooter", "name": "a832e5338e321580c9c8fd781700d0e0", "rental_uris": {"android": "https://dc.lft.to/lastmile_qr_scan", "ios": "https://dc.lft.to/lastmile_qr_scan"}, "is_disabled": 0, "fusion_lat": 0.0, "lat": 38.905235166666664, "is_reserved": 0}, {"lon": -77.00469433333333, "fusion_lon": 0.0, "bike_id": "13e76d7ee6d65f2510448a3dbb120f3a", "type": "electric_scooter", "name": "13e76d7ee6d65f2510448a3dbb120f3a", "rental_uris": {"android": "https://dc.lft.to/lastmile_qr_scan", "ios": "https://dc.lft.to/lastmile_qr_scan"}, "is_disabled": 0, "fusion_lat": 0.0, "lat": 38.910684, "is_reserved": 0}, {"lon": -77.02385033333333, "fusion_lon": 0.0, "bike_id": "3429d168900fc1cc24ee2c29fc518e97", "type": "electric_scooter", "name": "3429d168900fc1cc24ee2c29fc518e97", "rental_uris": {"android": "https://dc.lft.to/lastmile_qr_scan", "ios": "https://dc.lft.to/lastmile_qr_scan"}, "is_disabled": 0, "fusion_lat": 0.0, "lat": 38.912913333333336, "is_reserved": 0}, {"lon": -77.08967483333333, "fusion_lon": 0.0, "bike_id": "93647c55081de7d247facbf9f8337f65", "type": "electric_scooter", "name": "93647c55081de7d247facbf9f8337f65", "rental_uris": {"android": "https://dc.lft.to/lastmile_qr_scan", "ios": "https://dc.lft.to/lastmile_qr_scan"}, "is_disabled": 0, "fusion_lat": 0.0, "lat": 38.934322333333334, "is_reserved": 0}, {"lon": -77.0010805, "fusion_lon": 0.0, "bike_id": "c92c6981b34f7381c98d3b8d55a279c1", "type": "electric_scooter", "name": "c92c6981b34f7381c98d3b8d55a279c1", "rental_uris": {"android": "https://dc.lft.to/lastmile_qr_scan", "ios": "https://dc.lft.to/lastmile_qr_scan"}, "is_disabled": 0, "fusion_lat": 0.0, "lat": 38.91636966666667, "is_reserved": 0}, {"lon": -77.041634, "fusion_lon": 0.0, "bike_id": "df9e8ed8849b323ddf82ee6d8fe31a74", "type": "electric_scooter", "name": "df9e8ed8849b323ddf82ee6d8fe31a74", "rental_uris": {"android": "https://dc.lft.to/lastmile_qr_scan", "ios": "https://dc.lft.to/lastmile_qr_scan"}, "is_disabled": 0, "fusion_lat": 0.0, "lat": 38.914494833333336, "is_reserved": 0}, {"lon": -77.01085383333333, "fusion_lon": 0.0, "bike_id": "aa8efd235eb2d27843ad7e72f30cd0f9", "type": "electric_scooter", "name": "aa8efd235eb2d27843ad7e72f30cd0f9", "rental_uris": {"android": "https://dc.lft.to/lastmile_qr_scan", "ios": "https://dc.lft.to/lastmile_qr_scan"}, "is_disabled": 0, "fusion_lat": 0.0, "lat": 38.91748, "is_reserved": 0}, {"lon": -76.97398366666667, "fusion_lon": 0.0, "bike_id": "7f6ea6ecf821f1094d23a3ad9b85dab4", "type": "electric_bike", "name": "7f6ea6ecf821f1094d23a3ad9b85dab4", "rental_uris": {"android": "https://dc.lft.to/lastmile_qr_scan", "ios": "https://dc.lft.to/lastmile_qr_scan"}, "is_disabled": 0, "fusion_lat": 0.0, "lat": 38.8452885, "is_reserved": 0}, {"lon": -77.00432933333333, "fusion_lon": 0.0, "bike_id": "7f279e99d729be45b3530cdae3a02858", "type": "electric_scooter", "name": "7f279e99d729be45b3530cdae3a02858", "rental_uris": {"android": "https://dc.lft.to/lastmile_qr_scan", "ios": "https://dc.lft.to/lastmile_qr_scan"}, "is_disabled": 0, "fusion_lat": 0.0, "lat": 38.876733333333334, "is_reserved": 0}, {"lon": -77.047945, "fusion_lon": 0.0, "bike_id": "eefe77ea9eecf70589394ded404d90da", "type": "electric_scooter", "name": "eefe77ea9eecf70589394ded404d90da", "rental_uris": {"android": "https://dc.lft.to/lastmile_qr_scan", "ios": "https://dc.lft.to/lastmile_qr_scan"}, "is_disabled": 0, "fusion_lat": 0.0, "lat": 38.91944266666667, "is_reserved": 0}, {"lon": -77.0467985, "fusion_lon": 0.0, "bike_id": "b84672f72cd53afe4cfcca4c924fac8a", "type": "electric_scooter", "name": "b84672f72cd53afe4cfcca4c924fac8a", "rental_uris": {"android": "https://dc.lft.to/lastmile_qr_scan", "ios": "https://dc.lft.to/lastmile_qr_scan"}, "is_disabled": 0, "fusion_lat": 0.0, "lat": 38.8945765, "is_reserved": 0}, {"lon": -77.0478555, "fusion_lon": 0.0, "bike_id": "2310d622e864f448b090b7cf1c28a929", "type": "electric_scooter", "name": "2310d622e864f448b090b7cf1c28a929", "rental_uris": {"android": "https://dc.lft.to/lastmile_qr_scan", "ios": "https://dc.lft.to/lastmile_qr_scan"}, "is_disabled": 0, "fusion_lat": 0.0, "lat": 38.902499, "is_reserved": 0}, {"lon": -77.03672816666666, "fusion_lon": 0.0, "bike_id": "4d43e49a49c0eb231d9ecce51142e37e", "type": "electric_scooter", "name": "4d43e49a49c0eb231d9ecce51142e37e", "rental_uris": {"android": "https://dc.lft.to/lastmile_qr_scan", "ios": "https://dc.lft.to/lastmile_qr_scan"}, "is_disabled": 0, "fusion_lat": 0.0, "lat": 38.92678683333333, "is_reserved": 0}, {"lon": -76.946492, "fusion_lon": 0.0, "bike_id": "c8a4a257db3f3b8d9efd74c8eff53998", "type": "electric_scooter", "name": "c8a4a257db3f3b8d9efd74c8eff53998", "rental_uris": {"android": "https://dc.lft.to/lastmile_qr_scan", "ios": "https://dc.lft.to/lastmile_qr_scan"}, "is_disabled": 0, "fusion_lat": 0.0, "lat": 38.89824466666666, "is_reserved": 0}, {"lon": -77.0158445, "fusion_lon": 0.0, "bike_id": "651e8907f0a08b4ce8cd415a4e103b8b", "type": "electric_scooter", "name": "651e8907f0a08b4ce8cd415a4e103b8b", "rental_uris": {"android": "https://dc.lft.to/lastmile_qr_scan", "ios": "https://dc.lft.to/lastmile_qr_scan"}, "is_disabled": 0, "fusion_lat": 0.0, "lat": 38.91572, "is_reserved": 0}, {"lon": -77.01226216666667, "fusion_lon": 0.0, "bike_id": "e9f93cff35651595df99c4107b732366", "type": "electric_scooter", "name": "e9f93cff35651595df99c4107b732366", "rental_uris": {"android": "https://dc.lft.to/lastmile_qr_scan", "ios": "https://dc.lft.to/lastmile_qr_scan"}, "is_disabled": 0, "fusion_lat": 0.0, "lat": 38.91108466666667, "is_reserved": 0}, {"lon": -77.03330583333333, "fusion_lon": 0.0, "bike_id": "498510a714237a4b9c6c5eaa09676c9f", "type": "electric_bike", "name": "498510a714237a4b9c6c5eaa09676c9f", "rental_uris": {"android": "https://dc.lft.to/lastmile_qr_scan", "ios": "https://dc.lft.to/lastmile_qr_scan"}, "is_disabled": 0, "fusion_lat": 0.0, "lat": 38.920599, "is_reserved": 0}, {"lon": -77.03146283333334, "fusion_lon": 0.0, "bike_id": "c76c775309ed0e1958175600da1ef880", "type": "electric_scooter", "name": "c76c775309ed0e1958175600da1ef880", "rental_uris": {"android": "https://dc.lft.to/lastmile_qr_scan", "ios": "https://dc.lft.to/lastmile_qr_scan"}, "is_disabled": 0, "fusion_lat": 0.0, "lat": 38.915637333333336, "is_reserved": 0}, {"lon": -77.09670933333334, "fusion_lon": 0.0, "bike_id": "e73f9e1e89acd3832f9255a48772ea89", "type": "electric_bike", "name": "e73f9e1e89acd3832f9255a48772ea89", "rental_uris": {"android": "https://dc.lft.to/lastmile_qr_scan", "ios": "https://dc.lft.to/lastmile_qr_scan"}, "is_disabled": 0, "fusion_lat": 0.0, "lat": 38.946193, "is_reserved": 0}, {"lon": -77.00939883333334, "fusion_lon": 0.0, "bike_id": "5771e1959ab3b8d786529591f26a1f76", "type": "electric_scooter", "name": "5771e1959ab3b8d786529591f26a1f76", "rental_uris": {"android": "https://dc.lft.to/lastmile_qr_scan", "ios": "https://dc.lft.to/lastmile_qr_scan"}, "is_disabled": 0, "fusion_lat": 0.0, "lat": 38.883500166666664, "is_reserved": 0}, {"lon": -77.05861666666667, "fusion_lon": 0.0, "bike_id": "4cae3314f0b66a08bb370b1e59d940c5", "type": "electric_scooter", "name": "4cae3314f0b66a08bb370b1e59d940c5", "rental_uris": {"android": "https://dc.lft.to/lastmile_qr_scan", "ios": "https://dc.lft.to/lastmile_qr_scan"}, "is_disabled": 0, "fusion_lat": 0.0, "lat": 38.936138, "is_reserved": 0}, {"lon": -76.92593866666667, "fusion_lon": 0.0, "bike_id": "2eb5ab8048a27b966f44404103c801e2", "type": "electric_scooter", "name": "2eb5ab8048a27b966f44404103c801e2", "rental_uris": {"android": "https://dc.lft.to/lastmile_qr_scan", "ios": "https://dc.lft.to/lastmile_qr_scan"}, "is_disabled": 0, "fusion_lat": 0.0, "lat": 38.89358933333333, "is_reserved": 0}, {"lon": -77.01779066666667, "fusion_lon": 0.0, "bike_id": "d44c8046c2f625fe4b543b6cce77eea1", "type": "electric_scooter", "name": "d44c8046c2f625fe4b543b6cce77eea1", "rental_uris": {"android": "https://dc.lft.to/lastmile_qr_scan", "ios": "https://dc.lft.to/lastmile_qr_scan"}, "is_disabled": 0, "fusion_lat": 0.0, "lat": 38.88715066666666, "is_reserved": 0}, {"lon": -77.02589633333334, "fusion_lon": 0.0, "bike_id": "3c9fc5b5ceaa50ce78e0f261b85cc4fa", "type": "electric_scooter", "name": "3c9fc5b5ceaa50ce78e0f261b85cc4fa", "rental_uris": {"android": "https://dc.lft.to/lastmile_qr_scan", "ios": "https://dc.lft.to/lastmile_qr_scan"}, "is_disabled": 0, "fusion_lat": 0.0, "lat": 38.963955, "is_reserved": 0}, {"lon": -77.01275533333333, "fusion_lon": 0.0, "bike_id": "f96905626ef193a179c297eab61dbff6", "type": "electric_scooter", "name": "f96905626ef193a179c297eab61dbff6", "rental_uris": {"android": "https://dc.lft.to/lastmile_qr_scan", "ios": "https://dc.lft.to/lastmile_qr_scan"}, "is_disabled": 0, "fusion_lat": 0.0, "lat": 38.873066666666666, "is_reserved": 0}, {"lon": -77.02386016666667, "fusion_lon": 0.0, "bike_id": "ddc01d00f53821aebca2697564566046", "type": "electric_scooter", "name": "ddc01d00f53821aebca2697564566046", "rental_uris": {"android": "https://dc.lft.to/lastmile_qr_scan", "ios": "https://dc.lft.to/lastmile_qr_scan"}, "is_disabled": 0, "fusion_lat": 0.0, "lat": 38.8923005, "is_reserved": 0}, {"lon": -76.99771083333333, "fusion_lon": 0.0, "bike_id": "5228f61cc692f22646d22be7ea44d632", "type": "electric_scooter", "name": "5228f61cc692f22646d22be7ea44d632", "rental_uris": {"android": "https://dc.lft.to/lastmile_qr_scan", "ios": "https://dc.lft.to/lastmile_qr_scan"}, "is_disabled": 0, "fusion_lat": 0.0, "lat": 38.91121283333333, "is_reserved": 0}, {"lon": -77.0182785, "fusion_lon": 0.0, "bike_id": "9ee96b20329a060108ded14b1287ef28", "type": "electric_scooter", "name": "9ee96b20329a060108ded14b1287ef28", "rental_uris": {"android": "https://dc.lft.to/lastmile_qr_scan", "ios": "https://dc.lft.to/lastmile_qr_scan"}, "is_disabled": 0, "fusion_lat": 0.0, "lat": 38.901188166666664, "is_reserved": 0}, {"lon": -77.039228, "fusion_lon": 0.0, "bike_id": "20fb04510faf0312ca39317466c96042", "type": "electric_scooter", "name": "20fb04510faf0312ca39317466c96042", "rental_uris": {"android": "https://dc.lft.to/lastmile_qr_scan", "ios": "https://dc.lft.to/lastmile_qr_scan"}, "is_disabled": 0, "fusion_lat": 0.0, "lat": 38.911123833333335, "is_reserved": 0}, {"lon": -77.038557, "fusion_lon": 0.0, "bike_id": "69e57a2a2c2c4a5856a1d5d814401a9d", "type": "electric_scooter", "name": "69e57a2a2c2c4a5856a1d5d814401a9d", "rental_uris": {"android": "https://dc.lft.to/lastmile_qr_scan", "ios": "https://dc.lft.to/lastmile_qr_scan"}, "is_disabled": 0, "fusion_lat": 0.0, "lat": 38.917699166666665, "is_reserved": 0}, {"lon": -77.0572945, "fusion_lon": 0.0, "bike_id": "e85c59048dc257baa7ccb026ccbc1b00", "type": "electric_scooter", "name": "e85c59048dc257baa7ccb026ccbc1b00", "rental_uris": {"android": "https://dc.lft.to/lastmile_qr_scan", "ios": "https://dc.lft.to/lastmile_qr_scan"}, "is_disabled": 0, "fusion_lat": 0.0, "lat": 38.93357366666667, "is_reserved": 0}, {"lon": -77.022414, "fusion_lon": 0.0, "bike_id": "5f54aac6d109f93f9ca635bca521c826", "type": "electric_scooter", "name": "5f54aac6d109f93f9ca635bca521c826", "rental_uris": {"android": "https://dc.lft.to/lastmile_qr_scan", "ios": "https://dc.lft.to/lastmile_qr_scan"}, "is_disabled": 0, "fusion_lat": 0.0, "lat": 38.89194883333333, "is_reserved": 0}, {"lon": -76.98501566666667, "fusion_lon": 0.0, "bike_id": "63be9611f0d35cedb750046b1db388a0", "type": "electric_scooter", "name": "63be9611f0d35cedb750046b1db388a0", "rental_uris": {"android": "https://dc.lft.to/lastmile_qr_scan", "ios": "https://dc.lft.to/lastmile_qr_scan"}, "is_disabled": 0, "fusion_lat": 0.0, "lat": 38.9133135, "is_reserved": 0}, {"lon": -77.026512, "fusion_lon": 0.0, "bike_id": "d31d953ae432b2d1fc2a968627e0d116", "type": "electric_scooter", "name": "d31d953ae432b2d1fc2a968627e0d116", "rental_uris": {"android": "https://dc.lft.to/lastmile_qr_scan", "ios": "https://dc.lft.to/lastmile_qr_scan"}, "is_disabled": 0, "fusion_lat": 0.0, "lat": 38.88122083333333, "is_reserved": 0}, {"lon": -77.013512, "fusion_lon": 0.0, "bike_id": "26773cddc6bc6f288332656a0703cd33", "type": "electric_scooter", "name": "26773cddc6bc6f288332656a0703cd33", "rental_uris": {"android": "https://dc.lft.to/lastmile_qr_scan", "ios": "https://dc.lft.to/lastmile_qr_scan"}, "is_disabled": 0, "fusion_lat": 0.0, "lat": 38.919111666666666, "is_reserved": 0}, {"lon": -77.02482033333334, "fusion_lon": 0.0, "bike_id": "945a540c4f509e1802b2d57c7bc1a61c", "type": "electric_scooter", "name": "945a540c4f509e1802b2d57c7bc1a61c", "rental_uris": {"android": "https://dc.lft.to/lastmile_qr_scan", "ios": "https://dc.lft.to/lastmile_qr_scan"}, "is_disabled": 0, "fusion_lat": 0.0, "lat": 38.93881316666667, "is_reserved": 0}, {"lon": -77.03502533333334, "fusion_lon": 0.0, "bike_id": "57c777d407b14a6ab84de4b0a368a6e8", "type": "electric_scooter", "name": "57c777d407b14a6ab84de4b0a368a6e8", "rental_uris": {"android": "https://dc.lft.to/lastmile_qr_scan", "ios": "https://dc.lft.to/lastmile_qr_scan"}, "is_disabled": 0, "fusion_lat": 0.0, "lat": 38.931602833333336, "is_reserved": 0}, {"lon": -76.9955095, "fusion_lon": 0.0, "bike_id": "dd1106707f6f73e7fdc2272a02fc1427", "type": "electric_scooter", "name": "dd1106707f6f73e7fdc2272a02fc1427", "rental_uris": {"android": "https://dc.lft.to/lastmile_qr_scan", "ios": "https://dc.lft.to/lastmile_qr_scan"}, "is_disabled": 0, "fusion_lat": 0.0, "lat": 38.88424366666667, "is_reserved": 0}, {"lon": -77.0079735, "fusion_lon": 0.0, "bike_id": "406e58ba747b9fab47f4ebd9f7f4500b", "type": "electric_scooter", "name": "406e58ba747b9fab47f4ebd9f7f4500b", "rental_uris": {"android": "https://dc.lft.to/lastmile_qr_scan", "ios": "https://dc.lft.to/lastmile_qr_scan"}, "is_disabled": 0, "fusion_lat": 0.0, "lat": 38.91559, "is_reserved": 0}, {"lon": -77.02491, "fusion_lon": 0.0, "bike_id": "271c91a02354c69177017317d054fbcc", "type": "electric_scooter", "name": "271c91a02354c69177017317d054fbcc", "rental_uris": {"android": "https://dc.lft.to/lastmile_qr_scan", "ios": "https://dc.lft.to/lastmile_qr_scan"}, "is_disabled": 0, "fusion_lat": 0.0, "lat": 38.919284833333336, "is_reserved": 0}, {"lon": -77.001741, "fusion_lon": 0.0, "bike_id": "f5d51a142b11c1e6ee6b4d93390bedb4", "type": "electric_scooter", "name": "f5d51a142b11c1e6ee6b4d93390bedb4", "rental_uris": {"android": "https://dc.lft.to/lastmile_qr_scan", "ios": "https://dc.lft.to/lastmile_qr_scan"}, "is_disabled": 0, "fusion_lat": 0.0, "lat": 38.908646166666664, "is_reserved": 0}, {"lon": -77.02609266666667, "fusion_lon": 0.0, "bike_id": "873312c19d5a68bddf782a69b1c3f43b", "type": "electric_scooter", "name": "873312c19d5a68bddf782a69b1c3f43b", "rental_uris": {"android": "https://dc.lft.to/lastmile_qr_scan", "ios": "https://dc.lft.to/lastmile_qr_scan"}, "is_disabled": 0, "fusion_lat": 0.0, "lat": 38.91718766666666, "is_reserved": 0}, {"lon": -77.04667016666667, "fusion_lon": 0.0, "bike_id": "e4bffd7978c005759a602ade14f6d0f5", "type": "electric_scooter", "name": "e4bffd7978c005759a602ade14f6d0f5", "rental_uris": {"android": "https://dc.lft.to/lastmile_qr_scan", "ios": "https://dc.lft.to/lastmile_qr_scan"}, "is_disabled": 0, "fusion_lat": 0.0, "lat": 38.91416383333333, "is_reserved": 0}, {"lon": -77.012277, "fusion_lon": 0.0, "bike_id": "ebe464a9b26cbb70f8813e660ac9e0d5", "type": "electric_scooter", "name": "ebe464a9b26cbb70f8813e660ac9e0d5", "rental_uris": {"android": "https://dc.lft.to/lastmile_qr_scan", "ios": "https://dc.lft.to/lastmile_qr_scan"}, "is_disabled": 0, "fusion_lat": 0.0, "lat": 38.9140665, "is_reserved": 0}, {"lon": -77.0242865, "fusion_lon": 0.0, "bike_id": "6481cd2d2323df503fb1394f9fe9851f", "type": "electric_scooter", "name": "6481cd2d2323df503fb1394f9fe9851f", "rental_uris": {"android": "https://dc.lft.to/lastmile_qr_scan", "ios": "https://dc.lft.to/lastmile_qr_scan"}, "is_disabled": 0, "fusion_lat": 0.0, "lat": 38.918083833333334, "is_reserved": 0}, {"lon": -77.04472833333334, "fusion_lon": 0.0, "bike_id": "0ca03f3a317d59bf1ed62a121c2017b9", "type": "electric_scooter", "name": "0ca03f3a317d59bf1ed62a121c2017b9", "rental_uris": {"android": "https://dc.lft.to/lastmile_qr_scan", "ios": "https://dc.lft.to/lastmile_qr_scan"}, "is_disabled": 0, "fusion_lat": 0.0, "lat": 38.90898033333333, "is_reserved": 0}, {"lon": -77.00466833333333, "fusion_lon": 0.0, "bike_id": "05f8d86337a6791b81b2ebc5476e229c", "type": "electric_scooter", "name": "05f8d86337a6791b81b2ebc5476e229c", "rental_uris": {"android": "https://dc.lft.to/lastmile_qr_scan", "ios": "https://dc.lft.to/lastmile_qr_scan"}, "is_disabled": 0, "fusion_lat": 0.0, "lat": 38.87662433333333, "is_reserved": 0}, {"lon": -77.03658583333333, "fusion_lon": 0.0, "bike_id": "029e1a9a898c9e4a26ea87f3ebdac3b0", "type": "electric_scooter", "name": "029e1a9a898c9e4a26ea87f3ebdac3b0", "rental_uris": {"android": "https://dc.lft.to/lastmile_qr_scan", "ios": "https://dc.lft.to/lastmile_qr_scan"}, "is_disabled": 0, "fusion_lat": 0.0, "lat": 38.9083495, "is_reserved": 0}, {"lon": -76.935584, "fusion_lon": 0.0, "bike_id": "7b7d2c47f25082f6e2e2d436382a2dd1", "type": "electric_scooter", "name": "7b7d2c47f25082f6e2e2d436382a2dd1", "rental_uris": {"android": "https://dc.lft.to/lastmile_qr_scan", "ios": "https://dc.lft.to/lastmile_qr_scan"}, "is_disabled": 0, "fusion_lat": 0.0, "lat": 38.88258716666667, "is_reserved": 0}, {"lon": -77.0727795, "fusion_lon": 0.0, "bike_id": "536558e66fd68255be58971d8f522e28", "type": "electric_scooter", "name": "536558e66fd68255be58971d8f522e28", "rental_uris": {"android": "https://dc.lft.to/lastmile_qr_scan", "ios": "https://dc.lft.to/lastmile_qr_scan"}, "is_disabled": 0, "fusion_lat": 0.0, "lat": 38.9347355, "is_reserved": 0}, {"lon": -76.99659783333334, "fusion_lon": 0.0, "bike_id": "9ae167141cd1e68b7d721b9d2754bdae", "type": "electric_scooter", "name": "9ae167141cd1e68b7d721b9d2754bdae", "rental_uris": {"android": "https://dc.lft.to/lastmile_qr_scan", "ios": "https://dc.lft.to/lastmile_qr_scan"}, "is_disabled": 0, "fusion_lat": 0.0, "lat": 38.86008016666667, "is_reserved": 0}, {"lon": -77.02286133333334, "fusion_lon": 0.0, "bike_id": "a6d0de19486a9dddef75e1ae460d3f44", "type": "electric_scooter", "name": "a6d0de19486a9dddef75e1ae460d3f44", "rental_uris": {"android": "https://dc.lft.to/lastmile_qr_scan", "ios": "https://dc.lft.to/lastmile_qr_scan"}, "is_disabled": 0, "fusion_lat": 0.0, "lat": 38.90861316666667, "is_reserved": 0}, {"lon": -77.02695633333333, "fusion_lon": 0.0, "bike_id": "1d74b7afd06640fadc3bfb723d5e96f9", "type": "electric_scooter", "name": "1d74b7afd06640fadc3bfb723d5e96f9", "rental_uris": {"android": "https://dc.lft.to/lastmile_qr_scan", "ios": "https://dc.lft.to/lastmile_qr_scan"}, "is_disabled": 0, "fusion_lat": 0.0, "lat": 38.90842116666666, "is_reserved": 0}, {"lon": -77.02961716666667, "fusion_lon": 0.0, "bike_id": "0d00df7b8366bd52dfda164c93bbd678", "type": "electric_scooter", "name": "0d00df7b8366bd52dfda164c93bbd678", "rental_uris": {"android": "https://dc.lft.to/lastmile_qr_scan", "ios": "https://dc.lft.to/lastmile_qr_scan"}, "is_disabled": 0, "fusion_lat": 0.0, "lat": 38.92328966666667, "is_reserved": 0}, {"lon": -77.02606033333333, "fusion_lon": 0.0, "bike_id": "904dad7e2f8551e9a118dae956d6ce1d", "type": "electric_scooter", "name": "904dad7e2f8551e9a118dae956d6ce1d", "rental_uris": {"android": "https://dc.lft.to/lastmile_qr_scan", "ios": "https://dc.lft.to/lastmile_qr_scan"}, "is_disabled": 0, "fusion_lat": 0.0, "lat": 38.92849416666667, "is_reserved": 0}, {"lon": -76.985885, "fusion_lon": 0.0, "bike_id": "b793703eb8309ec7b966d6f1be67e869", "type": "electric_scooter", "name": "b793703eb8309ec7b966d6f1be67e869", "rental_uris": {"android": "https://dc.lft.to/lastmile_qr_scan", "ios": "https://dc.lft.to/lastmile_qr_scan"}, "is_disabled": 0, "fusion_lat": 0.0, "lat": 38.88407633333333, "is_reserved": 0}, {"lon": -76.933375, "fusion_lon": 0.0, "bike_id": "5cb73bc2e69fbb012b6e66474a4d5054", "type": "electric_scooter", "name": "5cb73bc2e69fbb012b6e66474a4d5054", "rental_uris": {"android": "https://dc.lft.to/lastmile_qr_scan", "ios": "https://dc.lft.to/lastmile_qr_scan"}, "is_disabled": 0, "fusion_lat": 0.0, "lat": 38.90866916666667, "is_reserved": 0}, {"lon": -77.00218316666667, "fusion_lon": 0.0, "bike_id": "49e1e079d9987b7a91d0bfa562ef134b", "type": "electric_scooter", "name": "49e1e079d9987b7a91d0bfa562ef134b", "rental_uris": {"android": "https://dc.lft.to/lastmile_qr_scan", "ios": "https://dc.lft.to/lastmile_qr_scan"}, "is_disabled": 0, "fusion_lat": 0.0, "lat": 38.907745, "is_reserved": 0}, {"lon": -77.000838, "fusion_lon": 0.0, "bike_id": "0eefad05af3cced48068795441f7cc2d", "type": "electric_scooter", "name": "0eefad05af3cced48068795441f7cc2d", "rental_uris": {"android": "https://dc.lft.to/lastmile_qr_scan", "ios": "https://dc.lft.to/lastmile_qr_scan"}, "is_disabled": 0, "fusion_lat": 0.0, "lat": 38.87561, "is_reserved": 0}, {"lon": -77.0504675, "fusion_lon": 0.0, "bike_id": "180721496e4ce49ad3b15268ce5c60ff", "type": "electric_scooter", "name": "180721496e4ce49ad3b15268ce5c60ff", "rental_uris": {"android": "https://dc.lft.to/lastmile_qr_scan", "ios": "https://dc.lft.to/lastmile_qr_scan"}, "is_disabled": 0, "fusion_lat": 0.0, "lat": 38.923619, "is_reserved": 0}, {"lon": -77.00592166666667, "fusion_lon": 0.0, "bike_id": "4df005b6506da35d3e638abe50441559", "type": "electric_scooter", "name": "4df005b6506da35d3e638abe50441559", "rental_uris": {"android": "https://dc.lft.to/lastmile_qr_scan", "ios": "https://dc.lft.to/lastmile_qr_scan"}, "is_disabled": 0, "fusion_lat": 0.0, "lat": 38.90567583333333, "is_reserved": 0}, {"lon": -77.00794866666666, "fusion_lon": 0.0, "bike_id": "a490d20c6770df938a5016de93108e7a", "type": "electric_scooter", "name": "a490d20c6770df938a5016de93108e7a", "rental_uris": {"android": "https://dc.lft.to/lastmile_qr_scan", "ios": "https://dc.lft.to/lastmile_qr_scan"}, "is_disabled": 0, "fusion_lat": 0.0, "lat": 38.9058525, "is_reserved": 0}, {"lon": -77.00182766666667, "fusion_lon": 0.0, "bike_id": "7bbc9407b516b43d13d436ac5dc240b3", "type": "electric_bike", "name": "7bbc9407b516b43d13d436ac5dc240b3", "rental_uris": {"android": "https://dc.lft.to/lastmile_qr_scan", "ios": "https://dc.lft.to/lastmile_qr_scan"}, "is_disabled": 0, "fusion_lat": 0.0, "lat": 38.8445655, "is_reserved": 0}, {"lon": -77.02310083333333, "fusion_lon": 0.0, "bike_id": "f28b9c155d83f4e01f25b5e812313205", "type": "electric_scooter", "name": "f28b9c155d83f4e01f25b5e812313205", "rental_uris": {"android": "https://dc.lft.to/lastmile_qr_scan", "ios": "https://dc.lft.to/lastmile_qr_scan"}, "is_disabled": 0, "fusion_lat": 0.0, "lat": 38.9171425, "is_reserved": 0}, {"lon": -77.0256045, "fusion_lon": 0.0, "bike_id": "eed3a54a0e4e9f3aee1dc97d897edb6f", "type": "electric_scooter", "name": "eed3a54a0e4e9f3aee1dc97d897edb6f", "rental_uris": {"android": "https://dc.lft.to/lastmile_qr_scan", "ios": "https://dc.lft.to/lastmile_qr_scan"}, "is_disabled": 0, "fusion_lat": 0.0, "lat": 38.919174, "is_reserved": 0}, {"lon": -77.02719666666667, "fusion_lon": 0.0, "bike_id": "386d7cd28611c91960c343349f7f5591", "type": "electric_scooter", "name": "386d7cd28611c91960c343349f7f5591", "rental_uris": {"android": "https://dc.lft.to/lastmile_qr_scan", "ios": "https://dc.lft.to/lastmile_qr_scan"}, "is_disabled": 0, "fusion_lat": 0.0, "lat": 38.91813666666667, "is_reserved": 0}, {"lon": -77.03640566666667, "fusion_lon": 0.0, "bike_id": "2dc4cf9f4b77b9025fe2d9d867010257", "type": "electric_scooter", "name": "2dc4cf9f4b77b9025fe2d9d867010257", "rental_uris": {"android": "https://dc.lft.to/lastmile_qr_scan", "ios": "https://dc.lft.to/lastmile_qr_scan"}, "is_disabled": 0, "fusion_lat": 0.0, "lat": 38.92413233333333, "is_reserved": 0}, {"lon": -77.0107615, "fusion_lon": 0.0, "bike_id": "3662a6319bae5b718a7fe934484ce57c", "type": "electric_scooter", "name": "3662a6319bae5b718a7fe934484ce57c", "rental_uris": {"android": "https://dc.lft.to/lastmile_qr_scan", "ios": "https://dc.lft.to/lastmile_qr_scan"}, "is_disabled": 0, "fusion_lat": 0.0, "lat": 38.916338833333334, "is_reserved": 0}, {"lon": -76.99734366666667, "fusion_lon": 0.0, "bike_id": "e71bf8d837a40969302a0fda73a17a4d", "type": "electric_scooter", "name": "e71bf8d837a40969302a0fda73a17a4d", "rental_uris": {"android": "https://dc.lft.to/lastmile_qr_scan", "ios": "https://dc.lft.to/lastmile_qr_scan"}, "is_disabled": 0, "fusion_lat": 0.0, "lat": 38.90027583333333, "is_reserved": 0}, {"lon": -77.00208033333334, "fusion_lon": 0.0, "bike_id": "e355c6a0b84d547172c68b6d29293fff", "type": "electric_scooter", "name": "e355c6a0b84d547172c68b6d29293fff", "rental_uris": {"android": "https://dc.lft.to/lastmile_qr_scan", "ios": "https://dc.lft.to/lastmile_qr_scan"}, "is_disabled": 0, "fusion_lat": 0.0, "lat": 38.91105133333333, "is_reserved": 0}, {"lon": -77.0269835, "fusion_lon": 0.0, "bike_id": "8d41c5a2b4db182ae7509f1b6b0886a4", "type": "electric_scooter", "name": "8d41c5a2b4db182ae7509f1b6b0886a4", "rental_uris": {"android": "https://dc.lft.to/lastmile_qr_scan", "ios": "https://dc.lft.to/lastmile_qr_scan"}, "is_disabled": 0, "fusion_lat": 0.0, "lat": 38.907063666666666, "is_reserved": 0}, {"lon": -77.01543316666667, "fusion_lon": 0.0, "bike_id": "1a6abcd0107d0dfa207e556a328ca461", "type": "electric_scooter", "name": "1a6abcd0107d0dfa207e556a328ca461", "rental_uris": {"android": "https://dc.lft.to/lastmile_qr_scan", "ios": "https://dc.lft.to/lastmile_qr_scan"}, "is_disabled": 0, "fusion_lat": 0.0, "lat": 38.88583933333334, "is_reserved": 0}, {"lon": -77.00236283333334, "fusion_lon": 0.0, "bike_id": "51f019c06ddf4a95e0dceab9d2a5a89c", "type": "electric_scooter", "name": "51f019c06ddf4a95e0dceab9d2a5a89c", "rental_uris": {"android": "https://dc.lft.to/lastmile_qr_scan", "ios": "https://dc.lft.to/lastmile_qr_scan"}, "is_disabled": 0, "fusion_lat": 0.0, "lat": 38.87514816666667, "is_reserved": 0},