{"data": {"bikes": [{"name": "d7c0faa53f6d9106522e38e5583fb941", "fusion_lat": 0.0, "type": "electric_scooter", "lat": 38.8624295, "is_reserved": 0, "is_disabled": 0, "fusion_lon": 0.0, "bike_id": "d7c0faa53f6d9106522e38e5583fb941", "lon": -76.9949735, "rental_uris": {"ios": "https://dc.lft.to/lastmile_qr_scan", "android": "https://dc.lft.to/lastmile_qr_scan"}}, {"name": "8a635f1e63ea4bf976fb1277fb5822ed", "fusion_lat": 0.0, "type": "electric_bike", "lat": 38.84158733333334, "is_reserved": 0, "is_disabled": 0, "fusion_lon": 0.0, "bike_id": "8a635f1e63ea4bf976fb1277fb5822ed", "lon": -77.08890933333333, "rental_uris": {"ios": "https://dc.lft.to/lastmile_qr_scan", "android": "https://dc.lft.to/lastmile_qr_scan"}}, {"name": "dd2693b07c9228e8677e23d4ea8ea160", "fusion_lat": 0.0, "type": "electric_scooter", "lat": 38.9235485, "is_reserved": 0, "is_disabled": 0, "fusion_lon": 0.0, "bike_id": "dd2693b07c9228e8677e23d4ea8ea160", "lon": -77.01917066666667, "rental_uris": {"ios": "https://dc.lft.to/lastmile_qr_scan", "android": "https://dc.lft.to/lastmile_qr_scan"}}, {"name": "04a3f2a968f7c3a217740974afed80f2", "fusion_lat": 0.0, "type": "electric_scooter", "lat": 38.91404433333334, "is_reserved": 0, "is_disabled": 0, "fusion_lon": 0.0, "bike_id": "04a3f2a968f7c3a217740974afed80f2", "lon": -77.03907216666667, "rental_uris": {"ios": "https://dc.lft.to/lastmile_qr_scan", "android": "https://dc.lft.to/lastmile_qr_scan"}}, {"name": "0f56530ca26514b07c2dfba0bc8fda8d", "fusion_lat": 0.0, "type": "electric_scooter", "lat": 38.898835166666665, "is_reserved": 0, "is_disabled": 0, "fusion_lon": 0.0, "bike_id": "0f56530ca26514b07c2dfba0bc8fda8d", "lon": -76.93172883333334, "rental_uris": {"ios": "https://dc.lft.to/lastmile_qr_scan", "android": "https://dc.lft.to/lastmile_qr_scan"}}, {"name": "2f1a674300a06e2ec123f63fb8e374fc", "fusion_lat": 0.0, "type": "electric_bike", "lat": 39.05205733333333, "is_reserved": 0, "is_disabled": 0, "fusion_lon": 0.0, "bike_id": "2f1a674300a06e2ec123f63fb8e374fc", "lon": -77.10906933333334, "rental_uris": {"ios": "https://dc.lft.to/lastmile_qr_scan", "android": "https://dc.lft.to/lastmile_qr_scan"}}, {"name": "5acfb69109286d57cc0172b294e82ee4", "fusion_lat": 0.0, "type": "electric_scooter", "lat": 38.915563, "is_reserved": 0, "is_disabled": 0, "fusion_lon": 0.0, "bike_id": "5acfb69109286d57cc0172b294e82ee4", "lon": -77.02942216666666, "rental_uris": {"ios": "https://dc.lft.to/lastmile_qr_scan", "android": "https://dc.lft.to/lastmile_qr_scan"}}, {"name": "7b0528ee41058b71c597cc44e97bec06", "fusion_lat": 0.0, "type": "electric_scooter", "lat": 38.9013485, "is_reserved": 0, "is_disabled": 0, "fusion_lon": 0.0, "bike_id": "7b0528ee41058b71c597cc44e97bec06", "lon": -76.99123766666666, "rental_uris": {"ios": "https://dc.lft.to/lastmile_qr_scan", "android": "https://dc.lft.to/lastmile_qr_scan"}}, {"name": "832429a93b4e13c3719d849ff8e32d3f", "fusion_lat": 0.0, "type": "electric_scooter", "lat": 38.909841, "is_reserved": 0, "is_disabled": 0, "fusion_lon": 0.0, "bike_id": "832429a93b4e13c3719d849ff8e32d3f", "lon": -77.04873516666666, "rental_uris": {"ios": "https://dc.lft.to/lastmile_qr_scan", "android": "https://dc.lft.to/lastmile_qr_scan"}}, {"name": "8817c75039e4b668e56536fb5b4c226a", "fusion_lat": 0.0, "type": "electric_scooter", "lat": 38.8987555, "is_reserved": 0, "is_disabled": 0, "fusion_lon": 0.0, "bike_id": "8817c75039e4b668e56536fb5b4c226a", "lon": -76.93160866666666, "rental_uris": {"ios": "https://dc.lft.to/lastmile_qr_scan", "android": "https://dc.lft.to/lastmile_qr_scan"}}, {"name": "6944816e3512fbc4e85b7649d3f7554e", "fusion_lat": 0.0, "type": "electric_scooter", "lat": 38.91751433333334, "is_reserved": 0, "is_disabled": 0, "fusion_lon": 0.0, "bike_id": "6944816e3512fbc4e85b7649d3f7554e", "lon": -77.0187915, "rental_uris": {"ios": "https://dc.lft.to/lastmile_qr_scan", "android": "https://dc.lft.to/lastmile_qr_scan"}}, {"name": "10dbbc27e042983d190d972ad8916763", "fusion_lat": 0.0, "type": "electric_scooter", "lat": 38.938945333333336, "is_reserved": 0, "is_disabled": 0, "fusion_lon": 0.0, "bike_id": "10dbbc27e042983d190d972ad8916763", "lon": -77.03262983333333, "rental_uris": {"ios": "https://dc.lft.to/lastmile_qr_scan", "android": "https://dc.lft.to/lastmile_qr_scan"}}, {"name": "0acaf079f48bc8dcbc8d434a3802db43", "fusion_lat": 0.0, "type": "electric_scooter", "lat": 38.9085925, "is_reserved": 0, "is_disabled": 0, "fusion_lon": 0.0, "bike_id": "0acaf079f48bc8dcbc8d434a3802db43", "lon": -77.013224, "rental_uris": {"ios": "https://dc.lft.to/lastmile_qr_scan", "android": "https://dc.lft.to/lastmile_qr_scan"}}, {"name": "afac722c7c68c974e84c2d107d99898d", "fusion_lat": 0.0, "type": "electric_scooter", "lat": 38.924486, "is_reserved": 0, "is_disabled": 0, "fusion_lon": 0.0, "bike_id": "afac722c7c68c974e84c2d107d99898d", "lon": -76.99333016666667, "rental_uris": {"ios": "https://dc.lft.to/lastmile_qr_scan", "android": "https://dc.lft.to/lastmile_qr_scan"}}, {"name": "9eee3d75ec7ecf5c985ded397dc915e3", "fusion_lat": 0.0, "type": "electric_scooter", "lat": 38.90374, "is_reserved": 0, "is_disabled": 0, "fusion_lon": 0.0, "bike_id": "9eee3d75ec7ecf5c985ded397dc915e3", "lon": -77.01869233333333, "rental_uris": {"ios": "https://dc.lft.to/lastmile_qr_scan", "android": "https://dc.lft.to/lastmile_qr_scan"}}, {"name": "ac9cf8f5ee5fa05923db5f6313a8506f", "fusion_lat": 0.0, "type": "electric_scooter", "lat": 38.89893416666666, "is_reserved": 0, "is_disabled": 0, "fusion_lon": 0.0, "bike_id": "ac9cf8f5ee5fa05923db5f6313a8506f", "lon": -77.033233, "rental_uris": {"ios": "https://dc.lft.to/lastmile_qr_scan", "android": "https://dc.lft.to/lastmile_qr_scan"}}, {"name": "2a25b7cb7f72b055a0a8808d30914dc7", "fusion_lat": 0.0, "type": "electric_scooter", "lat": 38.923543333333335, "is_reserved": 0, "is_disabled": 0, "fusion_lon": 0.0, "bike_id": "2a25b7cb7f72b055a0a8808d30914dc7", "lon": -77.05234016666667, "rental_uris": {"ios": "https://dc.lft.to/lastmile_qr_scan", "android": "https://dc.lft.to/lastmile_qr_scan"}}, {"name": "3b2b21357a00f040b026cd876f8a3632", "fusion_lat": 0.0, "type": "electric_bike", "lat": 38.96121316666667, "is_reserved": 0, "is_disabled": 0, "fusion_lon": 0.0, "bike_id": "3b2b21357a00f040b026cd876f8a3632", "lon": -77.032704, "rental_uris": {"ios": "https://dc.lft.to/lastmile_qr_scan", "android": "https://dc.lft.to/lastmile_qr_scan"}}, {"name": "acc2d7a0ed386fba16521645f57ba998", "fusion_lat": 0.0, "type": "electric_scooter", "lat": 38.894816666666664, "is_reserved": 0, "is_disabled": 0, "fusion_lon": 0.0, "bike_id": "acc2d7a0ed386fba16521645f57ba998", "lon": -77.02311316666666, "rental_uris": {"ios": "https://dc.lft.to/lastmile_qr_scan", "android": "https://dc.lft.to/lastmile_qr_scan"}}, {"name": "f09d41b71048fbdf6ac9f92c00642819", "fusion_lat": 0.0, "type": "electric_scooter", "lat": 38.91815883333334, "is_reserved": 0, "is_disabled": 0, "fusion_lon": 0.0, "bike_id": "f09d41b71048fbdf6ac9f92c00642819", "lon": -77.03998133333333, "rental_uris": {"ios": "https://dc.lft.to/lastmile_qr_scan", "android": "https://dc.lft.to/lastmile_qr_scan"}}, {"name": "825d81021b43847670141157d0d3e28e", "fusion_lat": 0.0, "type": "electric_scooter", "lat": 38.91728416666667, "is_reserved": 0, "is_disabled": 0, "fusion_lon": 0.0, "bike_id": "825d81021b43847670141157d0d3e28e", "lon": -77.01028616666666, "rental_uris": {"ios": "https://dc.lft.to/lastmile_qr_scan", "android": "https://dc.lft.to/lastmile_qr_scan"}}, {"name": "c6c4995cb557169240a81704b59ee01d", "fusion_lat": 0.0, "type": "electric_scooter", "lat": 38.919041166666666, "is_reserved": 0, "is_disabled": 0, "fusion_lon": 0.0, "bike_id": "c6c4995cb557169240a81704b59ee01d", "lon": -77.02167533333333, "rental_uris": {"ios": "https://dc.lft.to/lastmile_qr_scan", "android": "https://dc.lft.to/lastmile_qr_scan"}}, {"name": "f4f998e15b9ec46e749d593a911e1e2f", "fusion_lat": 0.0, "type": "electric_scooter", "lat": 38.92977483333333, "is_reserved": 0, "is_disabled": 0, "fusion_lon": 0.0, "bike_id": "f4f998e15b9ec46e749d593a911e1e2f", "lon": -77.03271933333333, "rental_uris": {"ios": "https://dc.lft.to/lastmile_qr_scan", "android": "https://dc.lft.to/lastmile_qr_scan"}}, {"name": "c2ead352e2c4eb20d7858cacb0a66cc8", "fusion_lat": 0.0, "type": "electric_scooter", "lat": 38.90881816666667, "is_reserved": 0, "is_disabled": 0, "fusion_lon": 0.0, "bike_id": "c2ead352e2c4eb20d7858cacb0a66cc8", "lon": -77.00575483333333, "rental_uris": {"ios": "https://dc.lft.to/lastmile_qr_scan", "android": "https://dc.lft.to/lastmile_qr_scan"}}, {"name": "dba2a8975f87f22b2a65735ca002b7fa", "fusion_lat": 0.0, "type": "electric_scooter", "lat": 38.9279995, "is_reserved": 0, "is_disabled": 0, "fusion_lon": 0.0, "bike_id": "dba2a8975f87f22b2a65735ca002b7fa", "lon": -77.03972433333334, "rental_uris": {"ios": "https://dc.lft.to/lastmile_qr_scan", "android": "https://dc.lft.to/lastmile_qr_scan"}}, {"name": "52e54b8cd2ed859d4748adc8661bce16", "fusion_lat": 0.0, "type": "electric_scooter", "lat": 38.91928516666667, "is_reserved": 0, "is_disabled": 0, "fusion_lon": 0.0, "bike_id": "52e54b8cd2ed859d4748adc8661bce16", "lon": -77.04496, "rental_uris": {"ios": "https://dc.lft.to/lastmile_qr_scan", "android": "https://dc.lft.to/lastmile_qr_scan"}}, {"name": "668b34932c749dc1e0141b90b68ed984", "fusion_lat": 0.0, "type": "electric_scooter", "lat": 38.861552333333336, "is_reserved": 0, "is_disabled": 0, "fusion_lon": 0.0, "bike_id": "668b34932c749dc1e0141b90b68ed984", "lon": -76.98898433333333, "rental_uris": {"ios": "https://dc.lft.to/lastmile_qr_scan", "android": "https://dc.lft.to/lastmile_qr_scan"}}, {"name": "5b3c618c9f6c5d428246b05642c37aca", "fusion_lat": 0.0, "type": "electric_scooter", "lat": 38.91697333333333, "is_reserved": 0, "is_disabled": 0, "fusion_lon": 0.0, "bike_id": "5b3c618c9f6c5d428246b05642c37aca", "lon": -77.03822333333333, "rental_uris": {"ios": "https://dc.lft.to/lastmile_qr_scan", "android": "https://dc.lft.to/lastmile_qr_scan"}}, {"name": "b5cd9ddc980a2f7b0eb8bd6484749f58", "fusion_lat": 0.0, "type": "electric_scooter", "lat": 38.8921805, "is_reserved": 0, "is_disabled": 0, "fusion_lon": 0.0, "bike_id": "b5cd9ddc980a2f7b0eb8bd6484749f58", "lon": -77.03096066666667, "rental_uris": {"ios": "https://dc.lft.to/lastmile_qr_scan", "android": "https://dc.lft.to/lastmile_qr_scan"}}, {"name": "163ad0632650f349d1d00808087ae16a", "fusion_lat": 0.0, "type": "electric_scooter", "lat": 38.89989383333333, "is_reserved": 0, "is_disabled": 0, "fusion_lon": 0.0, "bike_id": "163ad0632650f349d1d00808087ae16a", "lon": -77.02943683333334, "rental_uris": {"ios": "https://dc.lft.to/lastmile_qr_scan", "android": "https://dc.lft.to/lastmile_qr_scan"}}, {"name": "1a95307050f8f6f1637656adf2a7d965", "fusion_lat": 0.0, "type": "electric_scooter", "lat": 38.86072033333333, "is_reserved": 0, "is_disabled": 0, "fusion_lon": 0.0, "bike_id": "1a95307050f8f6f1637656adf2a7d965", "lon": -76.96741916666667, "rental_uris": {"ios": "https://dc.lft.to/lastmile_qr_scan", "android": "https://dc.lft.to/lastmile_qr_scan"}}, {"name": "0fc93ba6a517ac58060691429b2ab3c3", "fusion_lat": 0.0, "type": "electric_bike", "lat": 38.9089985, "is_reserved": 0, "is_disabled": 0, "fusion_lon": 0.0, "bike_id": "0fc93ba6a517ac58060691429b2ab3c3", "lon": -77.07272083333334, "rental_uris": {"ios": "https://dc.lft.to/lastmile_qr_scan", "android": "https://dc.lft.to/lastmile_qr_scan"}}, {"name": "9b06a53d4b49030d1d16085f51a8624f", "fusion_lat": 0.0, "type": "electric_bike", "lat": 38.89955416666667, "is_reserved": 0, "is_disabled": 0, "fusion_lon": 0.0, "bike_id": "9b06a53d4b49030d1d16085f51a8624f", "lon": -77.04718716666666, "rental_uris": {"ios": "https://dc.lft.to/lastmile_qr_scan", "android": "https://dc.lft.to/lastmile_qr_scan"}}, {"name": "54753f3507e7e6e710a07d991ba01ae7", "fusion_lat": 0.0, "type": "electric_scooter", "lat": 38.94802766666667, "is_reserved": 0, "is_disabled": 0, "fusion_lon": 0.0, "bike_id": "54753f3507e7e6e710a07d991ba01ae7", "lon": -77.07908733333333, "rental_uris": {"ios": "https://dc.lft.to/lastmile_qr_scan", "android": "https://dc.lft.to/lastmile_qr_scan"}}, {"name": "4b9dc1b20bf97bfd70494c1925c1518c", "fusion_lat": 0.0, "type": "electric_scooter", "lat": 38.919467833333336, "is_reserved": 0, "is_disabled": 0, "fusion_lon": 0.0, "bike_id": "4b9dc1b20bf97bfd70494c1925c1518c", "lon": -77.0454705, "rental_uris": {"ios": "https://dc.lft.to/lastmile_qr_scan", "android": "https://dc.lft.to/lastmile_qr_scan"}}, {"name": "da4078ac0a1b201a3ff58508c6cc87d8", "fusion_lat": 0.0, "type": "electric_scooter", "lat": 38.9336265, "is_reserved": 0, "is_disabled": 0, "fusion_lon": 0.0, "bike_id": "da4078ac0a1b201a3ff58508c6cc87d8", "lon": -77.0344655, "rental_uris": {"ios": "https://dc.lft.to/lastmile_qr_scan", "android": "https://dc.lft.to/lastmile_qr_scan"}}, {"name": "de9103645d4b44f2d664ec4425d313cf", "fusion_lat": 0.0, "type": "electric_scooter", "lat": 38.904991333333335, "is_reserved": 0, "is_disabled": 0, "fusion_lon": 0.0, "bike_id": "de9103645d4b44f2d664ec4425d313cf", "lon": -77.0465375, "rental_uris": {"ios": "https://dc.lft.to/lastmile_qr_scan", "android": "https://dc.lft.to/lastmile_qr_scan"}}, {"name": "356da6e71034247cd6266bb16bf739a7", "fusion_lat": 0.0, "type": "electric_scooter", "lat": 38.92953266666667, "is_reserved": 0, "is_disabled": 0, "fusion_lon": 0.0, "bike_id": "356da6e71034247cd6266bb16bf739a7", "lon": -77.02340783333334, "rental_uris": {"ios": "https://dc.lft.to/lastmile_qr_scan", "android": "https://dc.lft.to/lastmile_qr_scan"}}, {"name": "7ca055923d31a31b53429da58b64d94c", "fusion_lat": 0.0, "type": "electric_scooter", "lat": 38.90717583333333, "is_reserved": 0, "is_disabled": 0, "fusion_lon": 0.0, "bike_id": "7ca055923d31a31b53429da58b64d94c", "lon": -77.005351, "rental_uris": {"ios": "https://dc.lft.to/lastmile_qr_scan", "android": "https://dc.lft.to/lastmile_qr_scan"}}, {"name": "1588c97e154fbf1bab275686df2c9b40", "fusion_lat": 0.0, "type": "electric_scooter", "lat": 38.90458433333333, "is_reserved": 0, "is_disabled": 0, "fusion_lon": 0.0, "bike_id": "1588c97e154fbf1bab275686df2c9b40", "lon": -77.01425516666667, "rental_uris": {"ios": "https://dc.lft.to/lastmile_qr_scan", "android": "https://dc.lft.to/lastmile_qr_scan"}}, {"name": "6bb236ef2fe2559d1d752d21bd0459bd", "fusion_lat": 0.0, "type": "electric_scooter", "lat": 38.91840216666667, "is_reserved": 0, "is_disabled": 0, "fusion_lon": 0.0, "bike_id": "6bb236ef2fe2559d1d752d21bd0459bd", "lon": -77.02599583333334, "rental_uris": {"ios": "https://dc.lft.to/lastmile_qr_scan", "android": "https://dc.lft.to/lastmile_qr_scan"}}, {"name": "a8354ea064c954678a7fbd1891a8a71f", "fusion_lat": 0.0, "type": "electric_scooter", "lat": 38.9188045, "is_reserved": 0, "is_disabled": 0, "fusion_lon": 0.0, "bike_id": "a8354ea064c954678a7fbd1891a8a71f", "lon": -77.037605, "rental_uris": {"ios": "https://dc.lft.to/lastmile_qr_scan", "android": "https://dc.lft.to/lastmile_qr_scan"}}, {"name": "f08fda383777f492f7adc4e6bd416bdc", "fusion_lat": 0.0, "type": "electric_scooter", "lat": 38.921488, "is_reserved": 0, "is_disabled": 0, "fusion_lon": 0.0, "bike_id": "f08fda383777f492f7adc4e6bd416bdc", "lon": -77.04021066666667, "rental_uris": {"ios": "https://dc.lft.to/lastmile_qr_scan", "android": "https://dc.lft.to/lastmile_qr_scan"}}, {"name": "50251093942a8e9479f633aa7045fab3", "fusion_lat": 0.0, "type": "electric_scooter", "lat": 38.90414333333333, "is_reserved": 0, "is_disabled": 0, "fusion_lon": 0.0, "bike_id": "50251093942a8e9479f633aa7045fab3", "lon": -76.97887816666666, "rental_uris": {"ios": "https://dc.lft.to/lastmile_qr_scan", "android": "https://dc.lft.to/lastmile_qr_scan"}}, {"name": "0b1f7d9d976f384699db07f4b2d45cf8", "fusion_lat": 0.0, "type": "electric_scooter", "lat": 38.904428833333334, "is_reserved": 0, "is_disabled": 0, "fusion_lon": 0.0, "bike_id": "0b1f7d9d976f384699db07f4b2d45cf8", "lon": -77.02370566666667, "rental_uris": {"ios": "https://dc.lft.to/lastmile_qr_scan", "android": "https://dc.lft.to/lastmile_qr_scan"}}, {"name": "8540fba87b7468c9014902b3a0f96350", "fusion_lat": 0.0, "type": "electric_scooter", "lat": 38.9060795, "is_reserved": 0, "is_disabled": 0, "fusion_lon": 0.0, "bike_id": "8540fba87b7468c9014902b3a0f96350", "lon": -77.04175366666666, "rental_uris": {"ios": "https://dc.lft.to/lastmile_qr_scan", "android": "https://dc.lft.to/lastmile_qr_scan"}}, {"name": "32a60bd7d0d3ccadff688d701fd99d8f", "fusion_lat": 0.0, "type": "electric_scooter", "lat": 38.895766333333334, "is_reserved": 0, "is_disabled": 0, "fusion_lon": 0.0, "bike_id": "32a60bd7d0d3ccadff688d701fd99d8f", "lon": -77.00912516666666, "rental_uris": {"ios": "https://dc.lft.to/lastmile_qr_scan", "android": "https://dc.lft.to/lastmile_qr_scan"}}, {"name": "119f14c36cf6c271e10359ea429c7558", "fusion_lat": 0.0, "type": "electric_bike", "lat": 38.857891333333335, "is_reserved": 0, "is_disabled": 0, "fusion_lon": 0.0, "bike_id": "119f14c36cf6c271e10359ea429c7558", "lon": -76.987405, "rental_uris": {"ios": "https://dc.lft.to/lastmile_qr_scan", "android": "https://dc.lft.to/lastmile_qr_scan"}}, {"name": "93f86a6db805451b00d5fd8c5ab0f507", "fusion_lat": 0.0, "type": "electric_scooter", "lat": 38.904311166666666, "is_reserved": 0, "is_disabled": 0, "fusion_lon": 0.0, "bike_id": "93f86a6db805451b00d5fd8c5ab0f507", "lon": -77.053423, "rental_uris": {"ios": "https://dc.lft.to/lastmile_qr_scan", "android": "https://dc.lft.to/lastmile_qr_scan"}}, {"name": "793eabef94b63eca5c0e526cb18f5da3", "fusion_lat": 0.0, "type": "electric_scooter", "lat": 38.903994, "is_reserved": 0, "is_disabled": 0, "fusion_lon": 0.0, "bike_id": "793eabef94b63eca5c0e526cb18f5da3", "lon": -77.04351666666666, "rental_uris": {"ios": "https://dc.lft.to/lastmile_qr_scan", "android": "https://dc.lft.to/lastmile_qr_scan"}}, {"name": "e88e24a71b1c667346d9294d8261d2c4", "fusion_lat": 0.0, "type": "electric_scooter", "lat": 38.90026916666667, "is_reserved": 0, "is_disabled": 0, "fusion_lon": 0.0, "bike_id": "e88e24a71b1c667346d9294d8261d2c4", "lon": -76.99821966666667, "rental_uris": {"ios": "https://dc.lft.to/lastmile_qr_scan", "android": "https://dc.lft.to/lastmile_qr_scan"}}, {"name": "d0099ff3b4c99b220601d51245f4dd44", "fusion_lat": 0.0, "type": "electric_bike", "lat": 38.959599833333336, "is_reserved": 0, "is_disabled": 0, "fusion_lon": 0.0, "bike_id": "d0099ff3b4c99b220601d51245f4dd44", "lon": -77.10091266666667, "rental_uris": {"ios": "https://dc.lft.to/lastmile_qr_scan", "android": "https://dc.lft.to/lastmile_qr_scan"}}, {"name": "8149dab023e82b586e3f8b5a71431384", "fusion_lat": 0.0, "type": "electric_scooter", "lat": 38.921263, "is_reserved": 0, "is_disabled": 0, "fusion_lon": 0.0, "bike_id": "8149dab023e82b586e3f8b5a71431384", "lon": -77.042067, "rental_uris": {"ios": "https://dc.lft.to/lastmile_qr_scan", "android": "https://dc.lft.to/lastmile_qr_scan"}}, {"name": "bd0d90b35c01ad550dc4d202c1e5fd27", "fusion_lat": 0.0, "type": "electric_scooter", "lat": 38.9248395, "is_reserved": 0, "is_disabled": 0, "fusion_lon": 0.0, "bike_id": "bd0d90b35c01ad550dc4d202c1e5fd27", "lon": -77.05216016666667, "rental_uris": {"ios": "https://dc.lft.to/lastmile_qr_scan", "android": "https://dc.lft.to/lastmile_qr_scan"}}, {"name": "ceac88358c7cf0cb9a5706b0004d2ef1", "fusion_lat": 0.0, "type": "electric_scooter", "lat": 38.885151, "is_reserved": 0, "is_disabled": 0, "fusion_lon": 0.0, "bike_id": "ceac88358c7cf0cb9a5706b0004d2ef1", "lon": -77.03350333333333, "rental_uris": {"ios": "https://dc.lft.to/lastmile_qr_scan", "android": "https://dc.lft.to/lastmile_qr_scan"}}, {"name": "f1db67405e889e00cc75997355e76437", "fusion_lat": 0.0, "type": "electric_scooter", "lat": 38.9174795, "is_reserved": 0, "is_disabled": 0, "fusion_lon": 0.0, "bike_id": "f1db67405e889e00cc75997355e76437", "lon": -77.03643033333333, "rental_uris": {"ios": "https://dc.lft.to/lastmile_qr_scan", "android": "https://dc.lft.to/lastmile_qr_scan"}}, {"name": "19d909eee5209d805a316b7fbfe606ea", "fusion_lat": 0.0, "type": "electric_scooter", "lat": 38.918482166666664, "is_reserved": 0, "is_disabled": 0, "fusion_lon": 0.0, "bike_id": "19d909eee5209d805a316b7fbfe606ea", "lon": -77.0445855, "rental_uris": {"ios": "https://dc.lft.to/lastmile_qr_scan", "android": "https://dc.lft.to/lastmile_qr_scan"}}, {"name": "c81f4da4f10e096a7321b1680f876fc4", "fusion_lat": 0.0, "type": "electric_scooter", "lat": 38.917239, "is_reserved": 0, "is_disabled": 0, "fusion_lon": 0.0, "bike_id": "c81f4da4f10e096a7321b1680f876fc4", "lon": -77.000102, "rental_uris": {"ios": "https://dc.lft.to/lastmile_qr_scan", "android": "https://dc.lft.to/lastmile_qr_scan"}}, {"name": "8e7bfde9ce7cc042ab5089d7457d70bb", "fusion_lat": 0.0, "type": "electric_scooter", "lat": 38.8982955, "is_reserved": 0, "is_disabled": 0, "fusion_lon": 0.0, "bike_id": "8e7bfde9ce7cc042ab5089d7457d70bb", "lon": -77.03347733333334, "rental_uris": {"ios": "https://dc.lft.to/lastmile_qr_scan", "android": "https://dc.lft.to/lastmile_qr_scan"}}, {"name": "2c64099e38ef74903d6e7e7268667362", "fusion_lat": 0.0, "type": "electric_scooter", "lat": 38.900142833333334, "is_reserved": 0, "is_disabled": 0, "fusion_lon": 0.0, "bike_id": "2c64099e38ef74903d6e7e7268667362", "lon": -77.04507233333334, "rental_uris": {"ios": "https://dc.lft.to/lastmile_qr_scan", "android": "https://dc.lft.to/lastmile_qr_scan"}}, {"name": "6fcb9f80e55c628f7dbb714a36f97317", "fusion_lat": 0.0, "type": "electric_scooter", "lat": 38.91906016666667, "is_reserved": 0, "is_disabled": 0, "fusion_lon": 0.0, "bike_id": "6fcb9f80e55c628f7dbb714a36f97317", "lon": -77.02130616666666, "rental_uris": {"ios": "https://dc.lft.to/lastmile_qr_scan", "android": "https://dc.lft.to/lastmile_qr_scan"}}, {"name": "f530a14590dfba5ae88509ff96eb5dc1", "fusion_lat": 0.0, "type": "electric_scooter", "lat": 38.90341333333333, "is_reserved": 0, "is_disabled": 0, "fusion_lon": 0.0, "bike_id": "f530a14590dfba5ae88509ff96eb5dc1", "lon": -76.97565283333333, "rental_uris": {"ios": "https://dc.lft.to/lastmile_qr_scan", "android": "https://dc.lft.to/lastmile_qr_scan"}}, {"name": "7b9abef0b77172d201c265a4e6bda2e0", "fusion_lat": 0.0, "type": "electric_scooter", "lat": 38.91104266666667, "is_reserved": 0, "is_disabled": 0, "fusion_lon": 0.0, "bike_id": "7b9abef0b77172d201c265a4e6bda2e0", "lon": -77.03146416666667, "rental_uris": {"ios": "https://dc.lft.to/lastmile_qr_scan", "android": "https://dc.lft.to/lastmile_qr_scan"}}, {"name": "20ef439ef4d12c0d86efbc41db79fa89", "fusion_lat": 0.0, "type": "electric_scooter", "lat": 38.87998983333333, "is_reserved": 0, "is_disabled": 0, "fusion_lon": 0.0, "bike_id": "20ef439ef4d12c0d86efbc41db79fa89", "lon": -76.98541783333333, "rental_uris": {"ios": "https://dc.lft.to/lastmile_qr_scan", "android": "https://dc.lft.to/lastmile_qr_scan"}}, {"name": "175d8cfa4854dc61f28fd2643011ace0", "fusion_lat": 0.0, "type": "electric_scooter", "lat": 38.907772333333334, "is_reserved": 0, "is_disabled": 0, "fusion_lon": 0.0, "bike_id": "175d8cfa4854dc61f28fd2643011ace0", "lon": -77.03830566666667, "rental_uris": {"ios": "https://dc.lft.to/lastmile_qr_scan", "android": "https://dc.lft.to/lastmile_qr_scan"}}, {"name": "edc674198c83d407162a0ca31b09df02", "fusion_lat": 0.0, "type": "electric_scooter", "lat": 38.8831955, "is_reserved": 0, "is_disabled": 0, "fusion_lon": 0.0, "bike_id": "edc674198c83d407162a0ca31b09df02", "lon": -77.01532033333334, "rental_uris": {"ios": "https://dc.lft.to/lastmile_qr_scan", "android": "https://dc.lft.to/lastmile_qr_scan"}}, {"name": "4d1add80007f379350269c78469a7f8e", "fusion_lat": 0.0, "type": "electric_scooter", "lat": 38.865351, "is_reserved": 0, "is_disabled": 0, "fusion_lon": 0.0, "bike_id": "4d1add80007f379350269c78469a7f8e", "lon": -76.98708983333333, "rental_uris": {"ios": "https://dc.lft.to/lastmile_qr_scan", "android": "https://dc.lft.to/lastmile_qr_scan"}}, {"name": "b91cea5ed877f5078a48d0fb515668fa", "fusion_lat": 0.0, "type": "electric_scooter", "lat": 38.8975565, "is_reserved": 0, "is_disabled": 0, "fusion_lon": 0.0, "bike_id": "b91cea5ed877f5078a48d0fb515668fa", "lon": -77.05114866666666, "rental_uris": {"ios": "https://dc.lft.to/lastmile_qr_scan", "android": "https://dc.lft.to/lastmile_qr_scan"}}, {"name": "32e0009d4260b5a99a799b96777d7f21", "fusion_lat": 0.0, "type": "electric_scooter", "lat": 38.92342816666667, "is_reserved": 0, "is_disabled": 0, "fusion_lon": 0.0, "bike_id": "32e0009d4260b5a99a799b96777d7f21", "lon": -77.01901533333333, "rental_uris": {"ios": "https://dc.lft.to/lastmile_qr_scan", "android": "https://dc.lft.to/lastmile_qr_scan"}}, {"name": "f2678121441945e65c4f06e4c6a60255", "fusion_lat": 0.0, "type": "electric_scooter", "lat": 38.90242083333333, "is_reserved": 0, "is_disabled": 0, "fusion_lon": 0.0, "bike_id": "f2678121441945e65c4f06e4c6a60255", "lon": -77.04344083333334, "rental_uris": {"ios": "https://dc.lft.to/lastmile_qr_scan", "android": "https://dc.lft.to/lastmile_qr_scan"}}, {"name": "842bec5a32ae00a3eb2bdaa64ce94509", "fusion_lat": 0.0, "type": "electric_scooter", "lat": 38.902674833333336, "is_reserved": 0, "is_disabled": 0, "fusion_lon": 0.0, "bike_id": "842bec5a32ae00a3eb2bdaa64ce94509", "lon": -77.045947, "rental_uris": {"ios": "https://dc.lft.to/lastmile_qr_scan", "android": "https://dc.lft.to/lastmile_qr_scan"}}, {"name": "dc64005f1056d7d921651c41a53b43ed", "fusion_lat": 0.0, "type": "electric_scooter", "lat": 38.926270333333335, "is_reserved": 0, "is_disabled": 0, "fusion_lon": 0.0, "bike_id": "dc64005f1056d7d921651c41a53b43ed", "lon": -77.03507416666666, "rental_uris": {"ios": "https://dc.lft.to/lastmile_qr_scan", "android": "https://dc.lft.to/lastmile_qr_scan"}}, {"name": "f2db1005d9345ffb4902a688c3d59472", "fusion_lat": 0.0, "type": "electric_scooter", "lat": 38.902913166666664, "is_reserved": 0, "is_disabled": 0, "fusion_lon": 0.0, "bike_id": "f2db1005d9345ffb4902a688c3d59472", "lon": -77.033716, "rental_uris": {"ios": "https://dc.lft.to/lastmile_qr_scan", "android": "https://dc.lft.to/lastmile_qr_scan"}}, {"name": "7cb6925402506bf19a8841c7927cdf7a", "fusion_lat": 0.0, "type": "electric_bike", "lat": 38.87876933333333, "is_reserved": 0, "is_disabled": 0, "fusion_lon": 0.0, "bike_id": "7cb6925402506bf19a8841c7927cdf7a", "lon": -77.0230315, "rental_uris": {"ios": "https://dc.lft.to/lastmile_qr_scan", "android": "https://dc.lft.to/lastmile_qr_scan"}}, {"name": "4f034c0e7cabde5cdbefea9b09680db2", "fusion_lat": 0.0, "type": "electric_scooter", "lat": 38.8989335, "is_reserved": 0, "is_disabled": 0, "fusion_lon": 0.0, "bike_id": "4f034c0e7cabde5cdbefea9b09680db2", "lon": -77.03324866666667, "rental_uris": {"ios": "https://dc.lft.to/lastmile_qr_scan", "android": "https://dc.lft.to/lastmile_qr_scan"}}, {"name": "afe5a9a5c11ee004ba65caebeb9f0994", "fusion_lat": 0.0, "type": "electric_scooter", "lat": 38.92065216666667, "is_reserved": 0, "is_disabled": 0, "fusion_lon": 0.0, "bike_id": "afe5a9a5c11ee004ba65caebeb9f0994", "lon": -76.97800366666667, "rental_uris": {"ios": "https://dc.lft.to/lastmile_qr_scan", "android": "https://dc.lft.to/lastmile_qr_scan"}}, {"name": "9b133211dfb017d9feebd94305d585a1", "fusion_lat": 0.0, "type": "electric_scooter", "lat": 38.917275, "is_reserved": 0, "is_disabled": 0, "fusion_lon": 0.0, "bike_id": "9b133211dfb017d9feebd94305d585a1", "lon": -77.008177, "rental_uris": {"ios": "https://dc.lft.to/lastmile_qr_scan", "android": "https://dc.lft.to/lastmile_qr_scan"}}, {"name": "11f66ab722daeb26ec54545e0ba226f8", "fusion_lat": 0.0, "type": "electric_scooter", "lat": 38.899998333333336, "is_reserved": 0, "is_disabled": 0, "fusion_lon": 0.0, "bike_id": "11f66ab722daeb26ec54545e0ba226f8", "lon": -77.0321855, "rental_uris": {"ios": "https://dc.lft.to/lastmile_qr_scan", "android": "https://dc.lft.to/lastmile_qr_scan"}}, {"name": "3812a19edca7caebc0590087b98576c7", "fusion_lat": 0.0, "type": "electric_scooter", "lat": 38.9177855, "is_reserved": 0, "is_disabled": 0, "fusion_lon": 0.0, "bike_id": "3812a19edca7caebc0590087b98576c7", "lon": -77.04300833333333, "rental_uris": {"ios": "https://dc.lft.to/lastmile_qr_scan", "android": "https://dc.lft.to/lastmile_qr_scan"}}, {"name": "65756eaa352086b95a821cfd7f4a4c86", "fusion_lat": 0.0, "type": "electric_scooter", "lat": 38.92821683333333, "is_reserved": 0, "is_disabled": 0, "fusion_lon": 0.0, "bike_id": "65756eaa352086b95a821cfd7f4a4c86", "lon": -77.02257766666666, "rental_uris": {"ios": "https://dc.lft.to/lastmile_qr_scan", "android": "https://dc.lft.to/lastmile_qr_scan"}}, {"name": "bc4d1c6df8945de815168ee00ae73988", "fusion_lat": 0.0, "type": "electric_scooter", "lat": 38.90306533333333, "is_reserved": 0, "is_disabled": 0, "fusion_lon": 0.0, "bike_id": "bc4d1c6df8945de815168ee00ae73988", "lon": -77.03643116666667, "rental_uris": {"ios": "https://dc.lft.to/lastmile_qr_scan", "android": "https://dc.lft.to/lastmile_qr_scan"}}, {"name": "edcea98038383b7fc22940b2e4ebab9d", "fusion_lat": 0.0, "type": "electric_scooter", "lat": 38.90132883333333, "is_reserved": 0, "is_disabled": 0, "fusion_lon": 0.0, "bike_id": "edcea98038383b7fc22940b2e4ebab9d", "lon": -77.04711, "rental_uris": {"ios": "https://dc.lft.to/lastmile_qr_scan", "android": "https://dc.lft.to/lastmile_qr_scan"}}, {"name": "472df27e5f8059dcbe40deb9d3c2e253", "fusion_lat": 0.0, "type": "electric_scooter", "lat": 38.94202683333334, "is_reserved": 0, "is_disabled": 0, "fusion_lon": 0.0, "bike_id": "472df27e5f8059dcbe40deb9d3c2e253", "lon": -77.0251575, "rental_uris": {"ios": "https://dc.lft.to/lastmile_qr_scan", "android": "https://dc.lft.to/lastmile_qr_scan"}}, {"name": "af461d2270109d4c3d4d6fa0bfa360e2", "fusion_lat": 0.0, "type": "electric_bike", "lat": 38.881183666666665, "is_reserved": 0, "is_disabled": 0, "fusion_lon": 0.0, "bike_id": "af461d2270109d4c3d4d6fa0bfa360e2", "lon": -77.013487, "rental_uris": {"ios": "https://dc.lft.to/lastmile_qr_scan", "android": "https://dc.lft.to/lastmile_qr_scan"}}, {"name": "a5a11beacc7a2134046550b632922031", "fusion_lat": 0.0, "type": "electric_bike", "lat": 38.84271833333333, "is_reserved": 0, "is_disabled": 0, "fusion_lon": 0.0, "bike_id": "a5a11beacc7a2134046550b632922031", "lon": -76.988371, "rental_uris": {"ios": "https://dc.lft.to/lastmile_qr_scan", "android": "https://dc.lft.to/lastmile_qr_scan"}}, {"name": "12218a0c84717fa94209123dd925702a", "fusion_lat": 0.0, "type": "electric_scooter", "lat": 38.90511216666667, "is_reserved": 0, "is_disabled": 0, "fusion_lon": 0.0, "bike_id": "12218a0c84717fa94209123dd925702a", "lon": -77.03443616666667, "rental_uris": {"ios": "https://dc.lft.to/lastmile_qr_scan", "android": "https://dc.lft.to/lastmile_qr_scan"}}, {"name": "4339abde278eb20c585d55f4cfff86a5", "fusion_lat": 0.0, "type": "electric_scooter", "lat": 38.90344133333333, "is_reserved": 0, "is_disabled": 0, "fusion_lon": 0.0, "bike_id": "4339abde278eb20c585d55f4cfff86a5", "lon": -77.0530975, "rental_uris": {"ios": "https://dc.lft.to/lastmile_qr_scan", "android": "https://dc.lft.to/lastmile_qr_scan"}}, {"name": "e983ea5ee623d9838d330678162fd208", "fusion_lat": 0.0, "type": "electric_bike", "lat": 38.83143333333334, "is_reserved": 0, "is_disabled": 0, "fusion_lon": 0.0, "bike_id": "e983ea5ee623d9838d330678162fd208", "lon": -77.11320983333333, "rental_uris": {"ios": "https://dc.lft.to/lastmile_qr_scan", "android": "https://dc.lft.to/lastmile_qr_scan"}}, {"name": "88aaece192b65a0085e4e8c9e47f59eb", "fusion_lat": 0.0, "type": "electric_scooter", "lat": 38.8922, "is_reserved": 0, "is_disabled": 0, "fusion_lon": 0.0, "bike_id": "88aaece192b65a0085e4e8c9e47f59eb", "lon": -77.03090283333333, "rental_uris": {"ios": "https://dc.lft.to/lastmile_qr_scan", "android": "https://dc.lft.to/lastmile_qr_scan"}}, {"name": "fac5f09f9c57ad8c498f6e3020aaf430", "fusion_lat": 0.0, "type": "electric_scooter", "lat": 38.900545666666666, "is_reserved": 0, "is_disabled": 0, "fusion_lon": 0.0, "bike_id": "fac5f09f9c57ad8c498f6e3020aaf430", "lon": -77.00227583333333, "rental_uris": {"ios": "https://dc.lft.to/lastmile_qr_scan", "android": "https://dc.lft.to/lastmile_qr_scan"}}, {"name": "34c2d2e069b47d123a66bd8cacd5dca9", "fusion_lat": 0.0, "type": "electric_bike", "lat": 38.92426716666667, "is_reserved": 0, "is_disabled": 0, "fusion_lon": 0.0, "bike_id": "34c2d2e069b47d123a66bd8cacd5dca9", "lon": -76.991316, "rental_uris": {"ios": "https://dc.lft.to/lastmile_qr_scan", "android": "https://dc.lft.to/lastmile_qr_scan"}}, {"name": "3f450078e6ff6fb59e92282974379457", "fusion_lat": 0.0, "type": "electric_scooter", "lat": 38.938612166666665, "is_reserved": 0, "is_disabled": 0, "fusion_lon": 0.0, "bike_id": "3f450078e6ff6fb59e92282974379457", "lon": -77.0265225, "rental_uris": {"ios": "https://dc.lft.to/lastmile_qr_scan", "android": "https://dc.lft.to/lastmile_qr_scan"}}, {"name": "f4d7c4acea58712dbefd4a1f893b94bc", "fusion_lat": 0.0, "type": "electric_bike", "lat": 38.87372966666667, "is_reserved": 0, "is_disabled": 0, "fusion_lon": 0.0, "bike_id": "f4d7c4acea58712dbefd4a1f893b94bc", "lon": -77.00089116666666, "rental_uris": {"ios": "https://dc.lft.to/lastmile_qr_scan", "android": "https://dc.lft.to/lastmile_qr_scan"}}, {"name": "191f2fbf07b43dd4ecfdf5cc3f155578", "fusion_lat": 0.0, "type": "electric_scooter", "lat": 38.904463666666665, "is_reserved": 0, "is_disabled": 0, "fusion_lon": 0.0, "bike_id": "191f2fbf07b43dd4ecfdf5cc3f155578", "lon": -77.06013633333333, "rental_uris": {"ios": "https://dc.lft.to/lastmile_qr_scan", "android": "https://dc.lft.to/lastmile_qr_scan"}}, {"name": "341395510371a8d79f3c0f0bd7c38ce2", "fusion_lat": 0.0, "type": "electric_scooter", "lat": 38.92100833333333, "is_reserved": 0, "is_disabled": 0, "fusion_lon": 0.0, "bike_id": "341395510371a8d79f3c0f0bd7c38ce2", "lon": -77.0298045, "rental_uris": {"ios": "https://dc.lft.to/lastmile_qr_scan", "android": "https://dc.lft.to/lastmile_qr_scan"}}, {"name": "5cdc95f3a9d10047e2ac1369ce690f8f", "fusion_lat": 0.0, "type": "electric_scooter", "lat": 38.897561333333336, "is_reserved": 0, "is_disabled": 0, "fusion_lon": 0.0, "bike_id": "5cdc95f3a9d10047e2ac1369ce690f8f", "lon": -77.032647, "rental_uris": {"ios": "https://dc.lft.to/lastmile_qr_scan", "android": "https://dc.lft.to/lastmile_qr_scan"}}, {"name": "3638d32ad959b6c031ca21bf86008f21", "fusion_lat": 0.0, "type": "electric_scooter", "lat": 38.90092516666667, "is_reserved": 0, "is_disabled": 0, "fusion_lon": 0.0, "bike_id": "3638d32ad959b6c031ca21bf86008f21", "lon": -77.01994583333334, "rental_uris": {"ios": "https://dc.lft.to/lastmile_qr_scan", "android": "https://dc.lft.to/lastmile_qr_scan"}}, {"name": "e237cf5e9b8649f90c24955bd5c8658a", "fusion_lat": 0.0, "type": "electric_scooter", "lat": 38.902025, "is_reserved": 0, "is_disabled": 0, "fusion_lon": 0.0, "bike_id": "e237cf5e9b8649f90c24955bd5c8658a", "lon": -76.98817183333334, "rental_uris": {"ios": "https://dc.lft.to/lastmile_qr_scan", "android": "https://dc.lft.to/lastmile_qr_scan"}}, {"name": "79e658f249a604a9c093e905c9fcfeb1", "fusion_lat": 0.0, "type": "electric_scooter", "lat": 38.86454916666667, "is_reserved": 0, "is_disabled": 0, "fusion_lon": 0.0, "bike_id": "79e658f249a604a9c093e905c9fcfeb1", "lon": -76.982427, "rental_uris": {"ios": "https://dc.lft.to/lastmile_qr_scan", "android": "https://dc.lft.to/lastmile_qr_scan"}}, {"name": "d7ffde42d9c48bf261bf829869bec8b1", "fusion_lat": 0.0, "type": "electric_scooter", "lat": 38.940393666666665, "is_reserved": 0, "is_disabled": 0, "fusion_lon": 0.0, "bike_id": "d7ffde42d9c48bf261bf829869bec8b1", "lon": -77.02977183333333, "rental_uris": {"ios": "https://dc.lft.to/lastmile_qr_scan", "android": "https://dc.lft.to/lastmile_qr_scan"}}, {"name": "3786f2de8dccf426fa7d8b0f0bdc91e8", "fusion_lat": 0.0, "type": "electric_scooter", "lat": 38.9655905, "is_reserved": 0, "is_disabled": 0, "fusion_lon": 0.0, "bike_id": "3786f2de8dccf426fa7d8b0f0bdc91e8", "lon": -77.016151, "rental_uris": {"ios": "https://dc.lft.to/lastmile_qr_scan", "android": "https://dc.lft.to/lastmile_qr_scan"}}, {"name": "1490b464543d0958fe05b14a6059112b", "fusion_lat": 0.0, "type": "electric_bike", "lat": 38.928657, "is_reserved": 0, "is_disabled": 0, "fusion_lon": 0.0, "bike_id": "1490b464543d0958fe05b14a6059112b", "lon": -76.96103716666667, "rental_uris": {"ios": "https://dc.lft.to/lastmile_qr_scan", "android": "https://dc.lft.to/lastmile_qr_scan"}}, {"name": "98ce8ad759b3bc3698f1bd4fef24e8b9", "fusion_lat": 0.0, "type": "electric_scooter", "lat": 38.9184895, "is_reserved": 0, "is_disabled": 0, "fusion_lon": 0.0, "bike_id": "98ce8ad759b3bc3698f1bd4fef24e8b9", "lon": -77.04452866666666, "rental_uris": {"ios": "https://dc.lft.to/lastmile_qr_scan", "android": "https://dc.lft.to/lastmile_qr_scan"}}, {"name": "ddbba90a4a23e4f47d292b4a13c7f926", "fusion_lat": 0.0, "type": "electric_scooter", "lat": 38.896056, "is_reserved": 0, "is_disabled": 0, "fusion_lon": 0.0, "bike_id": "ddbba90a4a23e4f47d292b4a13c7f926", "lon": -77.045401, "rental_uris": {"ios": "https://dc.lft.to/lastmile_qr_scan", "android": "https://dc.lft.to/lastmile_qr_scan"}}, {"name": "920010b9ded6b02db410b69af87d9abd", "fusion_lat": 0.0, "type": "electric_scooter", "lat": 38.90527866666667, "is_reserved": 0, "is_disabled": 0, "fusion_lon": 0.0, "bike_id": "920010b9ded6b02db410b69af87d9abd", "lon": -77.05033566666667, "rental_uris": {"ios": "https://dc.lft.to/lastmile_qr_scan", "android": "https://dc.lft.to/lastmile_qr_scan"}}, {"name": "eaded77a57681fd8d17254d67a2be884", "fusion_lat": 0.0, "type": "electric_scooter", "lat": 38.974976, "is_reserved": 0, "is_disabled": 0, "fusion_lon": 0.0, "bike_id": "eaded77a57681fd8d17254d67a2be884", "lon": -77.01691166666667, "rental_uris": {"ios": "https://dc.lft.to/lastmile_qr_scan", "android": "https://dc.lft.to/lastmile_qr_scan"}}, {"name": "fff3b5f593598939c388614d8649ea9c", "fusion_lat": 0.0, "type": "electric_scooter", "lat": 38.896553833333336, "is_reserved": 0, "is_disabled": 0, "fusion_lon": 0.0, "bike_id": "fff3b5f593598939c388614d8649ea9c", "lon": -77.02583366666667, "rental_uris": {"ios": "https://dc.lft.to/lastmile_qr_scan", "android": "https://dc.lft.to/lastmile_qr_scan"}}, {"name": "6c106c9810d9ce6eb85ba61701e91357", "fusion_lat": 0.0, "type": "electric_scooter", "lat": 38.90241133333333, "is_reserved": 0, "is_disabled": 0, "fusion_lon": 0.0, "bike_id": "6c106c9810d9ce6eb85ba61701e91357", "lon": -77.03159733333334, "rental_uris": {"ios": "https://dc.lft.to/lastmile_qr_scan", "android": "https://dc.lft.to/lastmile_qr_scan"}}, {"name": "c1d4c58b34761e557ff06ba4b5f1db99", "fusion_lat": 0.0, "type": "electric_scooter", "lat": 38.9121355, "is_reserved": 0, "is_disabled": 0, "fusion_lon": 0.0, "bike_id": "c1d4c58b34761e557ff06ba4b5f1db99", "lon": -77.07593483333333, "rental_uris": {"ios": "https://dc.lft.to/lastmile_qr_scan", "android": "https://dc.lft.to/lastmile_qr_scan"}}, {"name": "4d14db625a5c92623c788c933aa02772", "fusion_lat": 0.0, "type": "electric_scooter", "lat": 38.889937, "is_reserved": 0, "is_disabled": 0, "fusion_lon": 0.0, "bike_id": "4d14db625a5c92623c788c933aa02772", "lon": -76.95415283333334, "rental_uris": {"ios": "https://dc.lft.to/lastmile_qr_scan", "android": "https://dc.lft.to/lastmile_qr_scan"}}, {"name": "4bb4590838817ecfa08c72880730910f", "fusion_lat": 0.0, "type": "electric_scooter", "lat": 38.902674, "is_reserved": 0, "is_disabled": 0, "fusion_lon": 0.0, "bike_id": "4bb4590838817ecfa08c72880730910f", "lon": -77.01778866666666, "rental_uris": {"ios": "https://dc.lft.to/lastmile_qr_scan", "android": "https://dc.lft.to/lastmile_qr_scan"}}, {"name": "fd6e4b132a55b0185c31b5b295185d7c", "fusion_lat": 0.0, "type": "electric_scooter", "lat": 38.94439783333333, "is_reserved": 0, "is_disabled": 0, "fusion_lon": 0.0, "bike_id": "fd6e4b132a55b0185c31b5b295185d7c", "lon": -77.06348816666667, "rental_uris": {"ios": "https://dc.lft.to/lastmile_qr_scan", "android": "https://dc.lft.to/lastmile_qr_scan"}}, {"name": "9d1d73b27d42335b3be3f8e220005261", "fusion_lat": 0.0, "type": "electric_scooter", "lat": 38.92026033333333, "is_reserved": 0, "is_disabled": 0, "fusion_lon": 0.0, "bike_id": "9d1d73b27d42335b3be3f8e220005261", "lon": -77.01112116666667, "rental_uris": {"ios": "https://dc.lft.to/lastmile_qr_scan", "android": "https://dc.lft.to/lastmile_qr_scan"}}, {"name": "deb515c18aab558907d7a276106cd315", "fusion_lat": 0.0, "type": "electric_scooter", "lat": 38.89728983333333, "is_reserved": 0, "is_disabled": 0, "fusion_lon": 0.0, "bike_id": "deb515c18aab558907d7a276106cd315", "lon": -76.947159, "rental_uris": {"ios": "https://dc.lft.to/lastmile_qr_scan", "android": "https://dc.lft.to/lastmile_qr_scan"}}, {"name": "36afc39dc65791d754e2099a1ad367e1", "fusion_lat": 0.0, "type": "electric_scooter", "lat": 38.90132716666667, "is_reserved": 0, "is_disabled": 0, "fusion_lon": 0.0, "bike_id": "36afc39dc65791d754e2099a1ad367e1", "lon": -77.04446483333334, "rental_uris": {"ios": "https://dc.lft.to/lastmile_qr_scan", "android": "https://dc.lft.to/lastmile_qr_scan"}}, {"name": "9397b2e23a1933b8a79e390e8c107be7", "fusion_lat": 0.0, "type": "electric_scooter", "lat": 38.9118915, "is_reserved": 0, "is_disabled": 0, "fusion_lon": 0.0, "bike_id": "9397b2e23a1933b8a79e390e8c107be7", "lon": -77.0609235, "rental_uris": {"ios": "https://dc.lft.to/lastmile_qr_scan", "android": "https://dc.lft.to/lastmile_qr_scan"}}, {"name": "99a6da59c3f3815901b4bc91c457fd53", "fusion_lat": 0.0, "type": "electric_scooter", "lat": 38.8429165, "is_reserved": 0, "is_disabled": 0, "fusion_lon": 0.0, "bike_id": "99a6da59c3f3815901b4bc91c457fd53", "lon": -76.99946766666666, "rental_uris": {"ios": "https://dc.lft.to/lastmile_qr_scan", "android": "https://dc.lft.to/lastmile_qr_scan"}}, {"name": "e28ded03e5f3fe0a928872663e4d23ae", "fusion_lat": 0.0, "type": "electric_scooter", "lat": 38.91271783333333, "is_reserved": 0, "is_disabled": 0, "fusion_lon": 0.0, "bike_id": "e28ded03e5f3fe0a928872663e4d23ae", "lon": -77.0228845, "rental_uris": {"ios": "https://dc.lft.to/lastmile_qr_scan", "android": "https://dc.lft.to/lastmile_qr_scan"}}, {"name": "8c78498db2efbaa004b815671688cf51", "fusion_lat": 0.0, "type": "electric_scooter", "lat": 38.877833833333334, "is_reserved": 0, "is_disabled": 0, "fusion_lon": 0.0, "bike_id": "8c78498db2efbaa004b815671688cf51", "lon": -76.99407883333333, "rental_uris": {"ios": "https://dc.lft.to/lastmile_qr_scan", "android": "https://dc.lft.to/lastmile_qr_scan"}}, {"name": "7cf003f31e57ff0be31ed6e2a28b0855", "fusion_lat": 0.0, "type": "electric_scooter", "lat": 38.89948783333333, "is_reserved": 0, "is_disabled": 0, "fusion_lon": 0.0, "bike_id": "7cf003f31e57ff0be31ed6e2a28b0855", "lon": -77.04668366666667, "rental_uris": {"ios": "https://dc.lft.to/lastmile_qr_scan", "android": "https://dc.lft.to/lastmile_qr_scan"}}, {"name": "8eb9979f8e2fa92ab2a956c4f241ccdf", "fusion_lat": 0.0, "type": "electric_scooter", "lat": 38.89351216666667, "is_reserved": 0, "is_disabled": 0, "fusion_lon": 0.0, "bike_id": "8eb9979f8e2fa92ab2a956c4f241ccdf", "lon": -77.003364, "rental_uris": {"ios": "https://dc.lft.to/lastmile_qr_scan", "android": "https://dc.lft.to/lastmile_qr_scan"}}, {"name": "c683384637bfd09731ab2a192910c284", "fusion_lat": 0.0, "type": "electric_scooter", "lat": 38.91816766666667, "is_reserved": 0, "is_disabled": 0, "fusion_lon": 0.0, "bike_id": "c683384637bfd09731ab2a192910c284", "lon": -77.03280366666667, "rental_uris": {"ios": "https://dc.lft.to/lastmile_qr_scan", "android": "https://dc.lft.to/lastmile_qr_scan"}}, {"name": "d661a7f5af586c6a23ec8727301310d3", "fusion_lat": 0.0, "type": "electric_scooter", "lat": 38.90167366666667, "is_reserved": 0, "is_disabled": 0, "fusion_lon": 0.0, "bike_id": "d661a7f5af586c6a23ec8727301310d3", "lon": -77.0465115, "rental_uris": {"ios": "https://dc.lft.to/lastmile_qr_scan", "android": "https://dc.lft.to/lastmile_qr_scan"}}, {"name": "483ba364d9c9274033bdfdbba712a17d", "fusion_lat": 0.0, "type": "electric_scooter", "lat": 38.898328, "is_reserved": 0, "is_disabled": 0, "fusion_lon": 0.0, "bike_id": "483ba364d9c9274033bdfdbba712a17d", "lon": -76.94643316666667, "rental_uris": {"ios": "https://dc.lft.to/lastmile_qr_scan", "android": "https://dc.lft.to/lastmile_qr_scan"}}, {"name": "305a6bf8cf56ed5506343f66860f4ef6", "fusion_lat": 0.0, "type": "electric_scooter", "lat": 38.92474816666667, "is_reserved": 0, "is_disabled": 0, "fusion_lon": 0.0, "bike_id": "305a6bf8cf56ed5506343f66860f4ef6", "lon": -77.02995416666667, "rental_uris": {"ios": "https://dc.lft.to/lastmile_qr_scan", "android": "https://dc.lft.to/lastmile_qr_scan"}}, {"name": "f8cda264b5e4bc2501e7a0a42f0986f9", "fusion_lat": 0.0, "type": "electric_scooter", "lat": 38.912818333333334, "is_reserved": 0, "is_disabled": 0, "fusion_lon": 0.0, "bike_id": "f8cda264b5e4bc2501e7a0a42f0986f9", "lon": -76.9379675, "rental_uris": {"ios": "https://dc.lft.to/lastmile_qr_scan", "android": "https://dc.lft.to/lastmile_qr_scan"}}, {"name": "577e57792bfba6feb5f26c45be6d23ae", "fusion_lat": 0.0, "type": "electric_scooter", "lat": 38.92046116666667, "is_reserved": 0, "is_disabled": 0, "fusion_lon": 0.0, "bike_id": "577e57792bfba6feb5f26c45be6d23ae", "lon": -77.02305716666666, "rental_uris": {"ios": "https://dc.lft.to/lastmile_qr_scan", "android": "https://dc.lft.to/lastmile_qr_scan"}}, {"name": "803fb5b7277443e073bbb417b4ff874f", "fusion_lat": 0.0, "type": "electric_scooter", "lat": 38.904016, "is_reserved": 0, "is_disabled": 0, "fusion_lon": 0.0, "bike_id": "803fb5b7277443e073bbb417b4ff874f", "lon": -77.0447335, "rental_uris": {"ios": "https://dc.lft.to/lastmile_qr_scan", "android": "https://dc.lft.to/lastmile_qr_scan"}}, {"name": "c9a03705b5f4177a24230878357c99d1", "fusion_lat": 0.0, "type": "electric_bike", "lat": 38.8772995, "is_reserved": 0, "is_disabled": 0, "fusion_lon": 0.0, "bike_id": "c9a03705b5f4177a24230878357c99d1", "lon": -77.11844166666667, "rental_uris": {"ios": "https://dc.lft.to/lastmile_qr_scan", "android": "https://dc.lft.to/lastmile_qr_scan"}}, {"name": "d4e15f12867105deeaf386989bcfc95d", "fusion_lat": 0.0, "type": "electric_scooter", "lat": 38.89409916666666, "is_reserved": 0, "is_disabled": 0, "fusion_lon": 0.0, "bike_id": "d4e15f12867105deeaf386989bcfc95d", "lon": -77.02175183333334, "rental_uris": {"ios": "https://dc.lft.to/lastmile_qr_scan", "android": "https://dc.lft.to/lastmile_qr_scan"}}, {"name": "e4259f868b4195aa8f8938fdadd45898", "fusion_lat": 0.0, "type": "electric_scooter", "lat": 38.935782, "is_reserved": 0, "is_disabled": 0, "fusion_lon": 0.0, "bike_id": "e4259f868b4195aa8f8938fdadd45898", "lon": -77.028438, "rental_uris": {"ios": "https://dc.lft.to/lastmile_qr_scan", "android": "https://dc.lft.to/lastmile_qr_scan"}}, {"name": "c2f598baf437f10dd790bbe50c1544b6", "fusion_lat": 0.0, "type": "electric_scooter", "lat": 38.92479266666667, "is_reserved": 0, "is_disabled": 0, "fusion_lon": 0.0, "bike_id": "c2f598baf437f10dd790bbe50c1544b6", "lon": -77.02708783333334, "rental_uris": {"ios": "https://dc.lft.to/lastmile_qr_scan", "android": "https://dc.lft.to/lastmile_qr_scan"}}, {"name": "5e4ed3349364ab18789275b956763487", "fusion_lat": 0.0, "type": "electric_scooter", "lat": 38.89724783333333, "is_reserved": 0, "is_disabled": 0, "fusion_lon": 0.0, "bike_id": "5e4ed3349364ab18789275b956763487", "lon": -77.043337, "rental_uris": {"ios": "https://dc.lft.to/lastmile_qr_scan", "android": "https://dc.lft.to/lastmile_qr_scan"}}, {"name": "ca1c5b51cbaeca933bbf3794a785bf71", "fusion_lat": 0.0, "type": "electric_scooter", "lat": 38.8923425, "is_reserved": 0, "is_disabled": 0, "fusion_lon": 0.0, "bike_id": "ca1c5b51cbaeca933bbf3794a785bf71", "lon": -77.0318425, "rental_uris": {"ios": "https://dc.lft.to/lastmile_qr_scan", "android": "https://dc.lft.to/lastmile_qr_scan"}}, {"name": "156d4ccef1e68c6f867af89be4c10a40", "fusion_lat": 0.0, "type": "electric_scooter", "lat": 38.930121166666666, "is_reserved": 0, "is_disabled": 0, "fusion_lon": 0.0, "bike_id": "156d4ccef1e68c6f867af89be4c10a40", "lon": -77.023218, "rental_uris": {"ios": "https://dc.lft.to/lastmile_qr_scan", "android": "https://dc.lft.to/lastmile_qr_scan"}}, {"name": "713879d1f31b6723d3ecc08b988dd004", "fusion_lat": 0.0, "type": "electric_scooter", "lat": 38.907173666666665, "is_reserved": 0, "is_disabled": 0, "fusion_lon": 0.0, "bike_id": "713879d1f31b6723d3ecc08b988dd004", "lon": -77.03352, "rental_uris": {"ios": "https://dc.lft.to/lastmile_qr_scan", "android": "https://dc.lft.to/lastmile_qr_scan"}}, {"name": "160a60a1fa9730ce92d8e62e49112ce5", "fusion_lat": 0.0, "type": "electric_scooter", "lat": 38.92217983333333, "is_reserved": 0, "is_disabled": 0, "fusion_lon": 0.0, "bike_id": "160a60a1fa9730ce92d8e62e49112ce5", "lon": -77.024215, "rental_uris": {"ios": "https://dc.lft.to/lastmile_qr_scan", "android": "https://dc.lft.to/lastmile_qr_scan"}}, {"name": "605c3a5661c060337a0b3443fdd63726", "fusion_lat": 0.0, "type": "electric_scooter", "lat": 38.92895466666667, "is_reserved": 0, "is_disabled": 0, "fusion_lon": 0.0, "bike_id": "605c3a5661c060337a0b3443fdd63726", "lon": -77.05452566666666, "rental_uris": {"ios": "https://dc.lft.to/lastmile_qr_scan", "android": "https://dc.lft.to/lastmile_qr_scan"}}, {"name": "47d7bd8a39dee2b44c4b29a095289f22", "fusion_lat": 0.0, "type": "electric_scooter", "lat": 38.9065185, "is_reserved": 0, "is_disabled": 0, "fusion_lon": 0.0, "bike_id": "47d7bd8a39dee2b44c4b29a095289f22", "lon": -77.05140983333334, "rental_uris": {"ios": "https://dc.lft.to/lastmile_qr_scan", "android": "https://dc.lft.to/lastmile_qr_scan"}}, {"name": "4dfcfad5838b3617eeb1f83f66667c5c", "fusion_lat": 0.0, "type": "electric_scooter", "lat": 38.89848933333333, "is_reserved": 0, "is_disabled": 0, "fusion_lon": 0.0, "bike_id": "4dfcfad5838b3617eeb1f83f66667c5c", "lon": -77.04079866666666, "rental_uris": {"ios": "https://dc.lft.to/lastmile_qr_scan", "android": "https://dc.lft.to/lastmile_qr_scan"}}, {"name": "38349f6ec4c733d5440eba9701337e79", "fusion_lat": 0.0, "type": "electric_scooter", "lat": 38.91223316666667, "is_reserved": 0, "is_disabled": 0, "fusion_lon": 0.0, "bike_id": "38349f6ec4c733d5440eba9701337e79", "lon": -77.02951883333333, "rental_uris": {"ios": "https://dc.lft.to/lastmile_qr_scan", "android": "https://dc.lft.to/lastmile_qr_scan"}}, {"name": "1f5427fb104fafcfd8a27d11fed621a6", "fusion_lat": 0.0, "type": "electric_scooter", "lat": 38.87264833333333, "is_reserved": 0, "is_disabled": 0, "fusion_lon": 0.0, "bike_id": "1f5427fb104fafcfd8a27d11fed621a6", "lon": -77.0152305, "rental_uris": {"ios": "https://dc.lft.to/lastmile_qr_scan", "android": "https://dc.lft.to/lastmile_qr_scan"}}, {"name": "0065efec176893319a86aca4a7b2f704", "fusion_lat": 0.0, "type": "electric_bike", "lat": 38.9518235, "is_reserved": 0, "is_disabled": 0, "fusion_lon": 0.0, "bike_id": "0065efec176893319a86aca4a7b2f704", "lon": -76.93540583333333, "rental_uris": {"ios": "https://dc.lft.to/lastmile_qr_scan", "android": "https://dc.lft.to/lastmile_qr_scan"}}, {"name": "c37577e8e84b11e6ee59612f7120aa95", "fusion_lat": 0.0, "type": "electric_scooter", "lat": 38.89756633333333, "is_reserved": 0, "is_disabled": 0, "fusion_lon": 0.0, "bike_id": "c37577e8e84b11e6ee59612f7120aa95", "lon": -77.02681833333334, "rental_uris": {"ios": "https://dc.lft.to/lastmile_qr_scan", "android": "https://dc.lft.to/lastmile_qr_scan"}}, {"name": "dd4376e3cdfee982698dd36e4072d4c0", "fusion_lat": 0.0, "type": "electric_scooter", "lat": 38.89834833333333, "is_reserved": 0, "is_disabled": 0, "fusion_lon": 0.0, "bike_id": "dd4376e3cdfee982698dd36e4072d4c0", "lon": -77.0291875, "rental_uris": {"ios": "https://dc.lft.to/lastmile_qr_scan", "android": "https://dc.lft.to/lastmile_qr_scan"}}, {"name": "1844e5ccdc1cdff41be6cd662fa5b513", "fusion_lat": 0.0, "type": "electric_bike", "lat": 38.905507666666665, "is_reserved": 0, "is_disabled": 0, "fusion_lon": 0.0, "bike_id": "1844e5ccdc1cdff41be6cd662fa5b513", "lon": -77.03803433333333, "rental_uris": {"ios": "https://dc.lft.to/lastmile_qr_scan", "android": "https://dc.lft.to/lastmile_qr_scan"}}, {"name": "a057aebe1898dfa22b039b1610fefefd", "fusion_lat": 0.0, "type": "electric_scooter", "lat": 38.938236, "is_reserved": 0, "is_disabled": 0, "fusion_lon": 0.0, "bike_id": "a057aebe1898dfa22b039b1610fefefd", "lon": -77.026438, "rental_uris": {"ios": "https://dc.lft.to/lastmile_qr_scan", "android": "https://dc.lft.to/lastmile_qr_scan"}}, {"name": "105c992519c7ddaa8488ce55a05e9604", "fusion_lat": 0.0, "type": "electric_scooter", "lat": 38.941837166666666, "is_reserved": 0, "is_disabled": 0, "fusion_lon": 0.0, "bike_id": "105c992519c7ddaa8488ce55a05e9604", "lon": -77.02484866666667, "rental_uris": {"ios": "https://dc.lft.to/lastmile_qr_scan", "android": "https://dc.lft.to/lastmile_qr_scan"}}, {"name": "b8bb49b995717c058c65360f33d42f00", "fusion_lat": 0.0, "type": "electric_scooter", "lat": 38.92359716666667, "is_reserved": 0, "is_disabled": 0, "fusion_lon": 0.0, "bike_id": "b8bb49b995717c058c65360f33d42f00", "lon": -77.0502875, "rental_uris": {"ios": "https://dc.lft.to/lastmile_qr_scan", "android": "https://dc.lft.to/lastmile_qr_scan"}}, {"name": "7d21d2290b7ae53b1cacfd2d8abe959d", "fusion_lat": 0.0, "type": "electric_scooter", "lat": 38.9066895, "is_reserved": 0, "is_disabled": 0, "fusion_lon": 0.0, "bike_id": "7d21d2290b7ae53b1cacfd2d8abe959d", "lon": -77.0270315, "rental_uris": {"ios": "https://dc.lft.to/lastmile_qr_scan", "android": "https://dc.lft.to/lastmile_qr_scan"}}, {"name": "d8d1eb383d35e3494f6d9d7183385f53", "fusion_lat": 0.0, "type": "electric_scooter", "lat": 38.885310833333335, "is_reserved": 0, "is_disabled": 0, "fusion_lon": 0.0, "bike_id": "d8d1eb383d35e3494f6d9d7183385f53", "lon": -77.00584883333333, "rental_uris": {"ios": "https://dc.lft.to/lastmile_qr_scan", "android": "https://dc.lft.to/lastmile_qr_scan"}}, {"name": "67e247989d0941d8041a87db54f60ed7", "fusion_lat": 0.0, "type": "electric_scooter", "lat": 38.90629766666667, "is_reserved": 0, "is_disabled": 0, "fusion_lon": 0.0, "bike_id": "67e247989d0941d8041a87db54f60ed7", "lon": -77.03865483333334, "rental_uris": {"ios": "https://dc.lft.to/lastmile_qr_scan", "android": "https://dc.lft.to/lastmile_qr_scan"}}, {"name": "b54d54e4b19a21af524f0964f920e407", "fusion_lat": 0.0, "type": "electric_scooter", "lat": 38.90567816666667, "is_reserved": 0, "is_disabled": 0, "fusion_lon": 0.0, "bike_id": "b54d54e4b19a21af524f0964f920e407", "lon": -77.02212533333334, "rental_uris": {"ios": "https://dc.lft.to/lastmile_qr_scan", "android": "https://dc.lft.to/lastmile_qr_scan"}}, {"name": "60234b192095bcc6c61abb4e3fc3f761", "fusion_lat": 0.0, "type": "electric_scooter", "lat": 38.90506333333333, "is_reserved": 0, "is_disabled": 0, "fusion_lon": 0.0, "bike_id": "60234b192095bcc6c61abb4e3fc3f761", "lon": -76.99448766666667, "rental_uris": {"ios": "https://dc.lft.to/lastmile_qr_scan", "android": "https://dc.lft.to/lastmile_qr_scan"}}, {"name": "67853357044793f0a1db873254cd0cc5", "fusion_lat": 0.0, "type": "electric_scooter", "lat": 38.94272083333333, "is_reserved": 0, "is_disabled": 0, "fusion_lon": 0.0, "bike_id": "67853357044793f0a1db873254cd0cc5", "lon": -77.0250345, "rental_uris": {"ios": "https://dc.lft.to/lastmile_qr_scan", "android": "https://dc.lft.to/lastmile_qr_scan"}}, {"name": "868e71ac3d2ba421df2443a1ab495193", "fusion_lat": 0.0, "type": "electric_scooter", "lat": 38.86658633333333, "is_reserved": 0, "is_disabled": 0, "fusion_lon": 0.0, "bike_id": "868e71ac3d2ba421df2443a1ab495193", "lon": -76.98885716666666, "rental_uris": {"ios": "https://dc.lft.to/lastmile_qr_scan", "android": "https://dc.lft.to/lastmile_qr_scan"}}, {"name": "26acf2e24a4f2f686c661288d11de14a", "fusion_lat": 0.0, "type": "electric_scooter", "lat": 38.926205833333334, "is_reserved": 0, "is_disabled": 0, "fusion_lon": 0.0, "bike_id": "26acf2e24a4f2f686c661288d11de14a", "lon": -77.03698633333333, "rental_uris": {"ios": "https://dc.lft.to/lastmile_qr_scan", "android": "https://dc.lft.to/lastmile_qr_scan"}}, {"name": "7c4c1547563b83a54702ed9dc24fd6c6", "fusion_lat": 0.0, "type": "electric_scooter", "lat": 38.907352, "is_reserved": 0, "is_disabled": 0, "fusion_lon": 0.0, "bike_id": "7c4c1547563b83a54702ed9dc24fd6c6", "lon": -77.04664483333333, "rental_uris": {"ios": "https://dc.lft.to/lastmile_qr_scan", "android": "https://dc.lft.to/lastmile_qr_scan"}}, {"name": "cfd138a2ee12a4f07087ebe8d59c215d", "fusion_lat": 0.0, "type": "electric_scooter", "lat": 38.896783, "is_reserved": 0, "is_disabled": 0, "fusion_lon": 0.0, "bike_id": "cfd138a2ee12a4f07087ebe8d59c215d", "lon": -76.99614966666667, "rental_uris": {"ios": "https://dc.lft.to/lastmile_qr_scan", "android": "https://dc.lft.to/lastmile_qr_scan"}}, {"name": "c84bd4a736428683e68572679e87a6ab", "fusion_lat": 0.0, "type": "electric_scooter", "lat": 38.902648166666665, "is_reserved": 0, "is_disabled": 0, "fusion_lon": 0.0, "bike_id": "c84bd4a736428683e68572679e87a6ab", "lon": -77.04613583333334, "rental_uris": {"ios": "https://dc.lft.to/lastmile_qr_scan", "android": "https://dc.lft.to/lastmile_qr_scan"}}, {"name": "a84c986f55881902dab9490ec882cfea", "fusion_lat": 0.0, "type": "electric_bike", "lat": 38.875472, "is_reserved": 0, "is_disabled": 0, "fusion_lon": 0.0, "bike_id": "a84c986f55881902dab9490ec882cfea", "lon": -76.9675515, "rental_uris": {"ios": "https://dc.lft.to/lastmile_qr_scan", "android": "https://dc.lft.to/lastmile_qr_scan"}}, {"name": "c9e369716ae64d22b32d0ffbd28a8244", "fusion_lat": 0.0, "type": "electric_bike", "lat": 38.949694, "is_reserved": 0, "is_disabled": 0, "fusion_lon": 0.0, "bike_id": "c9e369716ae64d22b32d0ffbd28a8244", "lon": -76.97282166666666, "rental_uris": {"ios": "https://dc.lft.to/lastmile_qr_scan", "android": "https://dc.lft.to/lastmile_qr_scan"}}, {"name": "e26705420e9998119b311bcc63d43801", "fusion_lat": 0.0, "type": "electric_scooter", "lat": 38.90794533333333, "is_reserved": 0, "is_disabled": 0, "fusion_lon": 0.0, "bike_id": "e26705420e9998119b311bcc63d43801", "lon": -76.996959, "rental_uris": {"ios": "https://dc.lft.to/lastmile_qr_scan", "android": "https://dc.lft.to/lastmile_qr_scan"}}, {"name": "b1e35d92ba87495140344ae110bc9333", "fusion_lat": 0.0, "type": "electric_scooter", "lat": 38.925144333333336, "is_reserved": 0, "is_disabled": 0, "fusion_lon": 0.0, "bike_id": "b1e35d92ba87495140344ae110bc9333", "lon": -77.0021285, "rental_uris": {"ios": "https://dc.lft.to/lastmile_qr_scan", "android": "https://dc.lft.to/lastmile_qr_scan"}}, {"name": "d9281ac8bbe3d420d31b752cb2e89f11", "fusion_lat": 0.0, "type": "electric_scooter", "lat": 38.90035666666667, "is_reserved": 0, "is_disabled": 0, "fusion_lon": 0.0, "bike_id": "d9281ac8bbe3d420d31b752cb2e89f11", "lon": -77.0063175, "rental_uris": {"ios": "https://dc.lft.to/lastmile_qr_scan", "android": "https://dc.lft.to/lastmile_qr_scan"}}, {"name": "a2b59c088058bde3a420d6c0e4675643", "fusion_lat": 0.0, "type": "electric_scooter", "lat": 38.9024745, "is_reserved": 0, "is_disabled": 0, "fusion_lon": 0.0, "bike_id": "a2b59c088058bde3a420d6c0e4675643", "lon": -77.03143866666667, "rental_uris": {"ios": "https://dc.lft.to/lastmile_qr_scan", "android": "https://dc.lft.to/lastmile_qr_scan"}}, {"name": "a9c06c35bb40f16102134cdaecb77950", "fusion_lat": 0.0, "type": "electric_scooter", "lat": 38.897133833333335, "is_reserved": 0, "is_disabled": 0, "fusion_lon": 0.0, "bike_id": "a9c06c35bb40f16102134cdaecb77950", "lon": -77.0327025, "rental_uris": {"ios": "https://dc.lft.to/lastmile_qr_scan", "android": "https://dc.lft.to/lastmile_qr_scan"}}, {"name": "dd89d873554ed3a5d0241b7459ba355c", "fusion_lat": 0.0, "type": "electric_scooter", "lat": 38.927521666666664, "is_reserved": 0, "is_disabled": 0, "fusion_lon": 0.0, "bike_id": "dd89d873554ed3a5d0241b7459ba355c", "lon": -77.03268016666667, "rental_uris": {"ios": "https://dc.lft.to/lastmile_qr_scan", "android": "https://dc.lft.to/lastmile_qr_scan"}}, {"name": "de6d868cd155e56f95ce607d42a52614", "fusion_lat": 0.0, "type": "electric_scooter", "lat": 38.9002695, "is_reserved": 0, "is_disabled": 0, "fusion_lon": 0.0, "bike_id": "de6d868cd155e56f95ce607d42a52614", "lon": -77.01182633333333, "rental_uris": {"ios": "https://dc.lft.to/lastmile_qr_scan", "android": "https://dc.lft.to/lastmile_qr_scan"}}, {"name": "5c7ac55e4e00f8cee3e60dfc19a76a4b", "fusion_lat": 0.0, "type": "electric_scooter", "lat": 38.937151666666665, "is_reserved": 0, "is_disabled": 0, "fusion_lon": 0.0, "bike_id": "5c7ac55e4e00f8cee3e60dfc19a76a4b", "lon": -77.036467, "rental_uris": {"ios": "https://dc.lft.to/lastmile_qr_scan", "android": "https://dc.lft.to/lastmile_qr_scan"}}, {"name": "6d243920314090d9a5a058a68eee8b23", "fusion_lat": 0.0, "type": "electric_scooter", "lat": 38.90118066666667, "is_reserved": 0, "is_disabled": 0, "fusion_lon": 0.0, "bike_id": "6d243920314090d9a5a058a68eee8b23", "lon": -77.040229, "rental_uris": {"ios": "https://dc.lft.to/lastmile_qr_scan", "android": "https://dc.lft.to/lastmile_qr_scan"}}, {"name": "afbdf40608655e208899a3bf1757dbae", "fusion_lat": 0.0, "type": "electric_scooter", "lat": 38.91802066666666, "is_reserved": 0, "is_disabled": 0, "fusion_lon": 0.0, "bike_id": "afbdf40608655e208899a3bf1757dbae", "lon": -77.03213533333333, "rental_uris": {"ios": "https://dc.lft.to/lastmile_qr_scan", "android": "https://dc.lft.to/lastmile_qr_scan"}}, {"name": "731827f96f0780d9f4f1a98d78b7e1d6", "fusion_lat": 0.0, "type": "electric_scooter", "lat": 38.9148865, "is_reserved": 0, "is_disabled": 0, "fusion_lon": 0.0, "bike_id": "731827f96f0780d9f4f1a98d78b7e1d6", "lon": -77.03245033333333, "rental_uris": {"ios": "https://dc.lft.to/lastmile_qr_scan", "android": "https://dc.lft.to/lastmile_qr_scan"}}, {"name": "a0deb61b57f7b71b1c3eef166665dffb", "fusion_lat": 0.0, "type": "electric_scooter", "lat": 38.89574983333333, "is_reserved": 0, "is_disabled": 0, "fusion_lon": 0.0, "bike_id": "a0deb61b57f7b71b1c3eef166665dffb", "lon": -76.94885233333333, "rental_uris": {"ios": "https://dc.lft.to/lastmile_qr_scan", "android": "https://dc.lft.to/lastmile_qr_scan"}}, {"name": "077e75b928b2960e06ff435acaa6af9f", "fusion_lat": 0.0, "type": "electric_scooter", "lat": 38.900661, "is_reserved": 0, "is_disabled": 0, "fusion_lon": 0.0, "bike_id": "077e75b928b2960e06ff435acaa6af9f", "lon": -77.04988533333334, "rental_uris": {"ios": "https://dc.lft.to/lastmile_qr_scan", "android": "https://dc.lft.to/lastmile_qr_scan"}}, {"name": "8049e95b2706368af4d89002a7de0e3f", "fusion_lat": 0.0, "type": "electric_scooter", "lat": 38.89830666666667, "is_reserved": 0, "is_disabled": 0, "fusion_lon": 0.0, "bike_id": "8049e95b2706368af4d89002a7de0e3f", "lon": -77.0335085, "rental_uris": {"ios": "https://dc.lft.to/lastmile_qr_scan", "android": "https://dc.lft.to/lastmile_qr_scan"}}, {"name": "e30728b197cd18e162b1aca0083ddce6", "fusion_lat": 0.0, "type": "electric_bike", "lat": 38.968643666666665, "is_reserved": 0, "is_disabled": 0, "fusion_lon": 0.0, "bike_id": "e30728b197cd18e162b1aca0083ddce6", "lon": -77.033335, "rental_uris": {"ios": "https://dc.lft.to/lastmile_qr_scan", "android": "https://dc.lft.to/lastmile_qr_scan"}}, {"name": "8409168828a91c3a7e33eae50f2ddc1a", "fusion_lat": 0.0, "type": "electric_scooter", "lat": 38.899842, "is_reserved": 0, "is_disabled": 0, "fusion_lon": 0.0, "bike_id": "8409168828a91c3a7e33eae50f2ddc1a", "lon": -77.03125983333334, "rental_uris": {"ios": "https://dc.lft.to/lastmile_qr_scan", "android": "https://dc.lft.to/lastmile_qr_scan"}}, {"name": "0917409b6c67d15abbdbd004c69bd087", "fusion_lat": 0.0, "type": "electric_bike", "lat": 38.959090333333336, "is_reserved": 0, "is_disabled": 0, "fusion_lon": 0.0, "bike_id": "0917409b6c67d15abbdbd004c69bd087", "lon": -77.00150083333334, "rental_uris": {"ios": "https://dc.lft.to/lastmile_qr_scan", "android": "https://dc.lft.to/lastmile_qr_scan"}}, {"name": "e1dd433ffd535d9282b9aba22c4f2f7e", "fusion_lat": 0.0, "type": "electric_scooter", "lat": 38.92360983333333, "is_reserved": 0, "is_disabled": 0, "fusion_lon": 0.0, "bike_id": "e1dd433ffd535d9282b9aba22c4f2f7e", "lon": -77.01916583333333, "rental_uris": {"ios": "https://dc.lft.to/lastmile_qr_scan", "android": "https://dc.lft.to/lastmile_qr_scan"}}, {"name": "39db8a5a733ec6e6f3165f5b242d88d4", "fusion_lat": 0.0, "type": "electric_scooter", "lat": 38.89666183333333, "is_reserved": 0, "is_disabled": 0, "fusion_lon": 0.0, "bike_id": "39db8a5a733ec6e6f3165f5b242d88d4", "lon": -76.94724616666667, "rental_uris": {"ios": "https://dc.lft.to/lastmile_qr_scan", "android": "https://dc.lft.to/lastmile_qr_scan"}}, {"name": "b5e00b761df8f459ba080a0d55a5b10d", "fusion_lat": 0.0, "type": "electric_scooter", "lat": 38.914170166666665, "is_reserved": 0, "is_disabled": 0, "fusion_lon": 0.0, "bike_id": "b5e00b761df8f459ba080a0d55a5b10d", "lon": -77.00973783333333, "rental_uris": {"ios": "https://dc.lft.to/lastmile_qr_scan", "android": "https://dc.lft.to/lastmile_qr_scan"}}, {"name": "cf1e3714da93b57ae0b1f450bcd72eb5", "fusion_lat": 0.0, "type": "electric_scooter", "lat": 38.9057535, "is_reserved": 0, "is_disabled": 0, "fusion_lon": 0.0, "bike_id": "cf1e3714da93b57ae0b1f450bcd72eb5", "lon": -77.00250533333333, "rental_uris": {"ios": "https://dc.lft.to/lastmile_qr_scan", "android": "https://dc.lft.to/lastmile_qr_scan"}}, {"name": "674518905e7ab1f895c5d23706cc561b", "fusion_lat": 0.0, "type": "electric_scooter", "lat": 38.880934333333336, "is_reserved": 0, "is_disabled": 0, "fusion_lon": 0.0, "bike_id": "674518905e7ab1f895c5d23706cc561b", "lon": -77.025846, "rental_uris": {"ios": "https://dc.lft.to/lastmile_qr_scan", "android": "https://dc.lft.to/lastmile_qr_scan"}}, {"name": "af2f2b30b0bb19b70c346c38b3268eec", "fusion_lat": 0.0, "type": "electric_scooter", "lat": 38.91870083333333, "is_reserved": 0, "is_disabled": 0, "fusion_lon": 0.0, "bike_id": "af2f2b30b0bb19b70c346c38b3268eec", "lon": -77.0444505, "rental_uris": {"ios": "https://dc.lft.to/lastmile_qr_scan", "android": "https://dc.lft.to/lastmile_qr_scan"}}, {"name": "1d9aabf43b67b5a66ec08094b7192289", "fusion_lat": 0.0, "type": "electric_scooter", "lat": 38.898928166666664, "is_reserved": 0, "is_disabled": 0, "fusion_lon": 0.0, "bike_id": "1d9aabf43b67b5a66ec08094b7192289", "lon": -77.03994083333333, "rental_uris": {"ios": "https://dc.lft.to/lastmile_qr_scan", "android": "https://dc.lft.to/lastmile_qr_scan"}}, {"name": "548847632315a07c4cd5231bde2d5627", "fusion_lat": 0.0, "type": "electric_scooter", "lat": 38.903286333333334, "is_reserved": 0, "is_disabled": 0, "fusion_lon": 0.0, "bike_id": "548847632315a07c4cd5231bde2d5627", "lon": -77.025835, "rental_uris": {"ios": "https://dc.lft.to/lastmile_qr_scan", "android": "https://dc.lft.to/lastmile_qr_scan"}}, {"name": "3941875423b6dd8104c2be9c83e6be44", "fusion_lat": 0.0, "type": "electric_scooter", "lat": 38.902352666666665, "is_reserved": 0, "is_disabled": 0, "fusion_lon": 0.0, "bike_id": "3941875423b6dd8104c2be9c83e6be44", "lon": -77.00199266666667, "rental_uris": {"ios": "https://dc.lft.to/lastmile_qr_scan", "android": "https://dc.lft.to/lastmile_qr_scan"}}, {"name": "f707d41d46c6d2ef56173781fedd13ef", "fusion_lat": 0.0, "type": "electric_bike", "lat": 38.86866083333334, "is_reserved": 0, "is_disabled": 0, "fusion_lon": 0.0, "bike_id": "f707d41d46c6d2ef56173781fedd13ef", "lon": -76.91664783333333, "rental_uris": {"ios": "https://dc.lft.to/lastmile_qr_scan", "android": "https://dc.lft.to/lastmile_qr_scan"}}, {"name": "8798fa3b69b1ee7d7eb3c05f69c05dfe", "fusion_lat": 0.0, "type": "electric_scooter", "lat": 38.903719333333335, "is_reserved": 0, "is_disabled": 0, "fusion_lon": 0.0, "bike_id": "8798fa3b69b1ee7d7eb3c05f69c05dfe", "lon": -77.021922, "rental_uris": {"ios": "https://dc.lft.to/lastmile_qr_scan", "android": "https://dc.lft.to/lastmile_qr_scan"}}, {"name": "6f75119bab3c828ab4dc1de98f7012b5", "fusion_lat": 0.0, "type": "electric_scooter", "lat": 38.90963166666667, "is_reserved": 0, "is_disabled": 0, "fusion_lon": 0.0, "bike_id": "6f75119bab3c828ab4dc1de98f7012b5", "lon": -77.01117483333333, "rental_uris": {"ios": "https://dc.lft.to/lastmile_qr_scan", "android": "https://dc.lft.to/lastmile_qr_scan"}}, {"name": "5a446eb9214463cfc7cf4897d0e5aa31", "fusion_lat": 0.0, "type": "electric_scooter", "lat": 38.900118666666664, "is_reserved": 0, "is_disabled": 0, "fusion_lon": 0.0, "bike_id": "5a446eb9214463cfc7cf4897d0e5aa31", "lon": -77.03346833333333, "rental_uris": {"ios": "https://dc.lft.to/lastmile_qr_scan", "android": "https://dc.lft.to/lastmile_qr_scan"}}, {"name": "2d6dfdbddfc25f4ca1fa297c7ff1ee0b", "fusion_lat": 0.0, "type": "electric_scooter", "lat": 38.9082185, "is_reserved": 0, "is_disabled": 0, "fusion_lon": 0.0, "bike_id": "2d6dfdbddfc25f4ca1fa297c7ff1ee0b", "lon": -77.039418, "rental_uris": {"ios": "https://dc.lft.to/lastmile_qr_scan", "android": "https://dc.lft.to/lastmile_qr_scan"}}, {"name": "9ce1a38bafa0a6d492f315ad04165181", "fusion_lat": 0.0, "type": "electric_bike", "lat": 38.959268, "is_reserved": 0, "is_disabled": 0, "fusion_lon": 0.0, "bike_id": "9ce1a38bafa0a6d492f315ad04165181", "lon": -76.92533, "rental_uris": {"ios": "https://dc.lft.to/lastmile_qr_scan", "android": "https://dc.lft.to/lastmile_qr_scan"}}, {"name": "627d75f1a9e7c199e199f7d15ba5a401", "fusion_lat": 0.0, "type": "electric_bike", "lat": 38.877481833333334, "is_reserved": 0, "is_disabled": 0, "fusion_lon": 0.0, "bike_id": "627d75f1a9e7c199e199f7d15ba5a401", "lon": -76.97985433333334, "rental_uris": {"ios": "https://dc.lft.to/lastmile_qr_scan", "android": "https://dc.lft.to/lastmile_qr_scan"}}, {"name": "b56f8ff6e0753d2580af7f98341d8c46", "fusion_lat": 0.0, "type": "electric_scooter", "lat": 38.91702383333333, "is_reserved": 0, "is_disabled": 0, "fusion_lon": 0.0, "bike_id": "b56f8ff6e0753d2580af7f98341d8c46", "lon": -77.04172716666666, "rental_uris": {"ios": "https://dc.lft.to/lastmile_qr_scan", "android": "https://dc.lft.to/lastmile_qr_scan"}}, {"name": "84f1a0de0cf1b4c8e690bd5b3ea36c74", "fusion_lat": 0.0, "type": "electric_scooter", "lat": 38.895520833333336, "is_reserved": 0, "is_disabled": 0, "fusion_lon": 0.0, "bike_id": "84f1a0de0cf1b4c8e690bd5b3ea36c74", "lon": -77.04671583333334, "rental_uris": {"ios": "https://dc.lft.to/lastmile_qr_scan", "android": "https://dc.lft.to/lastmile_qr_scan"}}, {"name": "04b403d56c3e8abc0f95033c18b61795", "fusion_lat": 0.0, "type": "electric_scooter", "lat": 38.905842, "is_reserved": 0, "is_disabled": 0, "fusion_lon": 0.0, "bike_id": "04b403d56c3e8abc0f95033c18b61795", "lon": -77.00265566666667, "rental_uris": {"ios": "https://dc.lft.to/lastmile_qr_scan", "android": "https://dc.lft.to/lastmile_qr_scan"}}, {"name": "2e0144f69b0294d3ee6f6d05414da19a", "fusion_lat": 0.0, "type": "electric_scooter", "lat": 38.92819216666667, "is_reserved": 0, "is_disabled": 0, "fusion_lon": 0.0, "bike_id": "2e0144f69b0294d3ee6f6d05414da19a", "lon": -77.02256266666667, "rental_uris": {"ios": "https://dc.lft.to/lastmile_qr_scan", "android": "https://dc.lft.to/lastmile_qr_scan"}}, {"name": "34818028c4bf33afd81ab2bb1906ce58", "fusion_lat": 0.0, "type": "electric_scooter", "lat": 38.869572166666664, "is_reserved": 0, "is_disabled": 0, "fusion_lon": 0.0, "bike_id": "34818028c4bf33afd81ab2bb1906ce58", "lon": -77.013742, "rental_uris": {"ios": "https://dc.lft.to/lastmile_qr_scan", "android": "https://dc.lft.to/lastmile_qr_scan"}}, {"name": "8775dfa4250db277fc82713faca40f63", "fusion_lat": 0.0, "type": "electric_scooter", "lat": 38.912391166666666, "is_reserved": 0, "is_disabled": 0, "fusion_lon": 0.0, "bike_id": "8775dfa4250db277fc82713faca40f63", "lon": -77.04879316666667, "rental_uris": {"ios": "https://dc.lft.to/lastmile_qr_scan", "android": "https://dc.lft.to/lastmile_qr_scan"}}, {"name": "7b7d670734e52f03dd4d9ab2f7cf21ec", "fusion_lat": 0.0, "type": "electric_scooter", "lat": 38.974982833333335, "is_reserved": 0, "is_disabled": 0, "fusion_lon": 0.0, "bike_id": "7b7d670734e52f03dd4d9ab2f7cf21ec", "lon": -77.0168555, "rental_uris": {"ios": "https://dc.lft.to/lastmile_qr_scan", "android": "https://dc.lft.to/lastmile_qr_scan"}}, {"name": "0c03177f5b47b4ec3122ad2371e87c34", "fusion_lat": 0.0, "type": "electric_bike", "lat": 38.90477766666667, "is_reserved": 0, "is_disabled": 0, "fusion_lon": 0.0, "bike_id": "0c03177f5b47b4ec3122ad2371e87c34", "lon": -77.00203016666667, "rental_uris": {"ios": "https://dc.lft.to/lastmile_qr_scan", "android": "https://dc.lft.to/lastmile_qr_scan"}}, {"name": "8907a70e65a43809f41c61596640b93f", "fusion_lat": 0.0, "type": "electric_scooter", "lat": 38.89642116666667, "is_reserved": 0, "is_disabled": 0, "fusion_lon": 0.0, "bike_id": "8907a70e65a43809f41c61596640b93f", "lon": -77.00910316666666, "rental_uris": {"ios": "https://dc.lft.to/lastmile_qr_scan", "android": "https://dc.lft.to/lastmile_qr_scan"}}, {"name": "3c3754daf45b25bc475261969ffd43e6", "fusion_lat": 0.0, "type": "electric_scooter", "lat": 38.8954705, "is_reserved": 0, "is_disabled": 0, "fusion_lon": 0.0, "bike_id": "3c3754daf45b25bc475261969ffd43e6", "lon": -76.94883566666667, "rental_uris": {"ios": "https://dc.lft.to/lastmile_qr_scan", "android": "https://dc.lft.to/lastmile_qr_scan"}}, {"name": "f7ae8b8459c3db5fa39e7278dc3182d6", "fusion_lat": 0.0, "type": "electric_scooter", "lat": 38.900015833333335, "is_reserved": 0, "is_disabled": 0, "fusion_lon": 0.0, "bike_id": "f7ae8b8459c3db5fa39e7278dc3182d6", "lon": -77.0533775, "rental_uris": {"ios": "https://dc.lft.to/lastmile_qr_scan", "android": "https://dc.lft.to/lastmile_qr_scan"}}, {"name": "6ffadac053b6cc4ab3aa2cd1f1ed8b08", "fusion_lat": 0.0, "type": "electric_scooter", "lat": 38.926524666666666, "is_reserved": 0, "is_disabled": 0, "fusion_lon": 0.0, "bike_id": "6ffadac053b6cc4ab3aa2cd1f1ed8b08", "lon": -77.037221, "rental_uris": {"ios": "https://dc.lft.to/lastmile_qr_scan", "android": "https://dc.lft.to/lastmile_qr_scan"}}, {"name": "df94c2afbc396306bf61d3716a287254", "fusion_lat": 0.0, "type": "electric_scooter", "lat": 38.917469, "is_reserved": 0, "is_disabled": 0, "fusion_lon": 0.0, "bike_id": "df94c2afbc396306bf61d3716a287254", "lon": -77.03640683333333, "rental_uris": {"ios": "https://dc.lft.to/lastmile_qr_scan", "android": "https://dc.lft.to/lastmile_qr_scan"}}, {"name": "8932fd72b8108d82e65d1ce9e1a72f6d", "fusion_lat": 0.0, "type": "electric_bike", "lat": 38.93948983333333, "is_reserved": 0, "is_disabled": 0, "fusion_lon": 0.0, "bike_id": "8932fd72b8108d82e65d1ce9e1a72f6d", "lon": -77.36098366666667, "rental_uris": {"ios": "https://dc.lft.to/lastmile_qr_scan", "android": "https://dc.lft.to/lastmile_qr_scan"}}, {"name": "ad9e337f15752adcdc8b48a26d13c445", "fusion_lat": 0.0, "type": "electric_scooter", "lat": 38.9025835, "is_reserved": 0, "is_disabled": 0, "fusion_lon": 0.0, "bike_id": "ad9e337f15752adcdc8b48a26d13c445", "lon": -77.03450966666666, "rental_uris": {"ios": "https://dc.lft.to/lastmile_qr_scan", "android": "https://dc.lft.to/lastmile_qr_scan"}}, {"name": "a29887d773d8ce100204587a2f3eac2d", "fusion_lat": 0.0, "type": "electric_scooter", "lat": 38.942029166666664, "is_reserved": 0, "is_disabled": 0, "fusion_lon": 0.0, "bike_id": "a29887d773d8ce100204587a2f3eac2d", "lon": -77.025125, "rental_uris": {"ios": "https://dc.lft.to/lastmile_qr_scan", "android": "https://dc.lft.to/lastmile_qr_scan"}}, {"name": "1a74852075264e206247ec1c631ce20b", "fusion_lat": 0.0, "type": "electric_bike", "lat": 38.9171905, "is_reserved": 0, "is_disabled": 0, "fusion_lon": 0.0, "bike_id": "1a74852075264e206247ec1c631ce20b", "lon": -76.98866533333333, "rental_uris": {"ios": "https://dc.lft.to/lastmile_qr_scan", "android": "https://dc.lft.to/lastmile_qr_scan"}}, {"name": "cb89191bc3184e356c4afefb673443ce", "fusion_lat": 0.0, "type": "electric_scooter", "lat": 38.896820166666664, "is_reserved": 0, "is_disabled": 0, "fusion_lon": 0.0, "bike_id": "cb89191bc3184e356c4afefb673443ce", "lon": -77.01200516666667, "rental_uris": {"ios": "https://dc.lft.to/lastmile_qr_scan", "android": "https://dc.lft.to/lastmile_qr_scan"}}, {"name": "14b86cb9dfde13c7d0f03838ca21cff4", "fusion_lat": 0.0, "type": "electric_scooter", "lat": 38.903152166666665, "is_reserved": 0, "is_disabled": 0, "fusion_lon": 0.0, "bike_id": "14b86cb9dfde13c7d0f03838ca21cff4", "lon": -77.05326316666667, "rental_uris": {"ios": "https://dc.lft.to/lastmile_qr_scan", "android": "https://dc.lft.to/lastmile_qr_scan"}}, {"name": "b44f8d0bfb48506006a22e0429c0e83d", "fusion_lat": 0.0, "type": "electric_scooter", "lat": 38.876873333333336, "is_reserved": 0, "is_disabled": 0, "fusion_lon": 0.0, "bike_id": "b44f8d0bfb48506006a22e0429c0e83d", "lon": -77.00059833333333, "rental_uris": {"ios": "https://dc.lft.to/lastmile_qr_scan", "android": "https://dc.lft.to/lastmile_qr_scan"}}, {"name": "2240dd45eddb55211ac8f820167c5cb9", "fusion_lat": 0.0, "type": "electric_scooter", "lat": 38.90315583333334, "is_reserved": 0, "is_disabled": 0, "fusion_lon": 0.0, "bike_id": "2240dd45eddb55211ac8f820167c5cb9", "lon": -77.03840666666666, "rental_uris": {"ios": "https://dc.lft.to/lastmile_qr_scan", "android": "https://dc.lft.to/lastmile_qr_scan"}}, {"name": "4bba01e08c22263b1be7ee353a1d087d", "fusion_lat": 0.0, "type": "electric_scooter", "lat": 38.920145166666664, "is_reserved": 0, "is_disabled": 0, "fusion_lon": 0.0, "bike_id": "4bba01e08c22263b1be7ee353a1d087d", "lon": -77.02600433333333, "rental_uris": {"ios": "https://dc.lft.to/lastmile_qr_scan", "android": "https://dc.lft.to/lastmile_qr_scan"}}, {"name": "b5de92e864f99b09c5a7f916c6d8f2c5", "fusion_lat": 0.0, "type": "electric_scooter", "lat": 38.8946425, "is_reserved": 0, "is_disabled": 0, "fusion_lon": 0.0, "bike_id": "b5de92e864f99b09c5a7f916c6d8f2c5", "lon": -77.020275, "rental_uris": {"ios": "https://dc.lft.to/lastmile_qr_scan", "android": "https://dc.lft.to/lastmile_qr_scan"}}, {"name": "4e1d231ddb928d8d5f911686a1d1b88e", "fusion_lat": 0.0, "type": "electric_scooter", "lat": 38.918008666666665, "is_reserved": 0, "is_disabled": 0, "fusion_lon": 0.0, "bike_id": "4e1d231ddb928d8d5f911686a1d1b88e", "lon": -77.032138, "rental_uris": {"ios": "https://dc.lft.to/lastmile_qr_scan", "android": "https://dc.lft.to/lastmile_qr_scan"}}, {"name": "fc73bacbc20a3ff6544c057576023d06", "fusion_lat": 0.0, "type": "electric_scooter", "lat": 38.93552316666667, "is_reserved": 0, "is_disabled": 0, "fusion_lon": 0.0, "bike_id": "fc73bacbc20a3ff6544c057576023d06", "lon": -77.08187416666667, "rental_uris": {"ios": "https://dc.lft.to/lastmile_qr_scan", "android": "https://dc.lft.to/lastmile_qr_scan"}}, {"name": "f45002cfd31044f3eed61bb8b08941aa", "fusion_lat": 0.0, "type": "electric_bike", "lat": 38.9653315, "is_reserved": 0, "is_disabled": 0, "fusion_lon": 0.0, "bike_id": "f45002cfd31044f3eed61bb8b08941aa", "lon": -77.03513533333333, "rental_uris": {"ios": "https://dc.lft.to/lastmile_qr_scan", "android": "https://dc.lft.to/lastmile_qr_scan"}}, {"name": "c5cb8fa9ce120c554bbbb840b5e1d0a9", "fusion_lat": 0.0, "type": "electric_scooter", "lat": 38.90961816666667, "is_reserved": 0, "is_disabled": 0, "fusion_lon": 0.0, "bike_id": "c5cb8fa9ce120c554bbbb840b5e1d0a9", "lon": -77.040625, "rental_uris": {"ios": "https://dc.lft.to/lastmile_qr_scan", "android": "https://dc.lft.to/lastmile_qr_scan"}}, {"name": "8a31dfae832b7f227e4fe64ead5f7f36", "fusion_lat": 0.0, "type": "electric_scooter", "lat": 38.903561833333335, "is_reserved": 0, "is_disabled": 0, "fusion_lon": 0.0, "bike_id": "8a31dfae832b7f227e4fe64ead5f7f36", "lon": -77.02054033333333, "rental_uris": {"ios": "https://dc.lft.to/lastmile_qr_scan", "android": "https://dc.lft.to/lastmile_qr_scan"}}, {"name": "82ed7a1fb05edd5d56bc382ae57b14a3", "fusion_lat": 0.0, "type": "electric_scooter", "lat": 38.884118, "is_reserved": 0, "is_disabled": 0, "fusion_lon": 0.0, "bike_id": "82ed7a1fb05edd5d56bc382ae57b14a3", "lon": -76.97601933333334, "rental_uris": {"ios": "https://dc.lft.to/lastmile_qr_scan", "android": "https://dc.lft.to/lastmile_qr_scan"}}, {"name": "702bb61930c2ccbc8a19b0b5fd5d08c6", "fusion_lat": 0.0, "type": "electric_bike", "lat": 38.95541333333333, "is_reserved": 0, "is_disabled": 0, "fusion_lon": 0.0, "bike_id": "702bb61930c2ccbc8a19b0b5fd5d08c6", "lon": -77.016187, "rental_uris": {"ios": "https://dc.lft.to/lastmile_qr_scan", "android": "https://dc.lft.to/lastmile_qr_scan"}}, {"name": "28e8c284312aa8aa212340dd6ab6d1f4", "fusion_lat": 0.0, "type": "electric_scooter", "lat": 38.902385333333335, "is_reserved": 0, "is_disabled": 0, "fusion_lon": 0.0, "bike_id": "28e8c284312aa8aa212340dd6ab6d1f4", "lon": -77.0268365, "rental_uris": {"ios": "https://dc.lft.to/lastmile_qr_scan", "android": "https://dc.lft.to/lastmile_qr_scan"}}, {"name": "9803d6bd610190a953d345790b12c4d4", "fusion_lat": 0.0, "type": "electric_scooter", "lat": 38.90259366666667, "is_reserved": 0, "is_disabled": 0, "fusion_lon": 0.0, "bike_id": "9803d6bd610190a953d345790b12c4d4", "lon": -77.05316183333333, "rental_uris": {"ios": "https://dc.lft.to/lastmile_qr_scan", "android": "https://dc.lft.to/lastmile_qr_scan"}}, {"name": "631a854de17894040f21e30654c55d05", "fusion_lat": 0.0, "type": "electric_scooter", "lat": 38.900830666666664, "is_reserved": 0, "is_disabled": 0, "fusion_lon": 0.0, "bike_id": "631a854de17894040f21e30654c55d05", "lon": -77.03229566666667, "rental_uris": {"ios": "https://dc.lft.to/lastmile_qr_scan", "android": "https://dc.lft.to/lastmile_qr_scan"}}, {"name": "1510623fb414747218964e6d707ce09e", "fusion_lat": 0.0, "type": "electric_bike", "lat": 39.10564733333333, "is_reserved": 0, "is_disabled": 0, "fusion_lon": 0.0, "bike_id": "1510623fb414747218964e6d707ce09e", "lon": -77.15265783333334, "rental_uris": {"ios": "https://dc.lft.to/lastmile_qr_scan", "android": "https://dc.lft.to/lastmile_qr_scan"}}, {"name": "e319c58ea5a092a508074f2238bb8229", "fusion_lat": 0.0, "type": "electric_scooter", "lat": 38.9450035, "is_reserved": 0, "is_disabled": 0, "fusion_lon": 0.0, "bike_id": "e319c58ea5a092a508074f2238bb8229", "lon": -77.03150233333334, "rental_uris": {"ios": "https://dc.lft.to/lastmile_qr_scan", "android": "https://dc.lft.to/lastmile_qr_scan"}}, {"name": "d2e59d4450362145b1f889a8f4127d42", "fusion_lat": 0.0, "type": "electric_scooter", "lat": 38.896462166666666, "is_reserved": 0, "is_disabled": 0, "fusion_lon": 0.0, "bike_id": "d2e59d4450362145b1f889a8f4127d42", "lon": -77.0466355, "rental_uris": {"ios": "https://dc.lft.to/lastmile_qr_scan", "android": "https://dc.lft.to/lastmile_qr_scan"}}, {"name": "c8ffc09e98dbb928e0459fcc0b95db39", "fusion_lat": 0.0, "type": "electric_scooter", "lat": 38.87647616666667, "is_reserved": 0, "is_disabled": 0, "fusion_lon": 0.0, "bike_id": "c8ffc09e98dbb928e0459fcc0b95db39", "lon": -76.9650565, "rental_uris": {"ios": "https://dc.lft.to/lastmile_qr_scan", "android": "https://dc.lft.to/lastmile_qr_scan"}}, {"name": "f8160427d5533f4b474c6f1ea6855075", "fusion_lat": 0.0, "type": "electric_scooter", "lat": 38.90965583333333, "is_reserved": 0, "is_disabled": 0, "fusion_lon": 0.0, "bike_id": "f8160427d5533f4b474c6f1ea6855075", "lon": -77.0367285, "rental_uris": {"ios": "https://dc.lft.to/lastmile_qr_scan", "android": "https://dc.lft.to/lastmile_qr_scan"}}, {"name": "27bed9c5e9dd8c02cd884795fa29df0c", "fusion_lat": 0.0, "type": "electric_scooter", "lat": 38.9235745, "is_reserved": 0, "is_disabled": 0, "fusion_lon": 0.0, "bike_id": "27bed9c5e9dd8c02cd884795fa29df0c", "lon": -77.05035316666667, "rental_uris": {"ios": "https://dc.lft.to/lastmile_qr_scan", "android": "https://dc.lft.to/lastmile_qr_scan"}}, {"name": "8ccde9eb2f6cfca58ffaef39f24b0f4c", "fusion_lat": 0.0, "type": "electric_bike", "lat": 38.88674816666666, "is_reserved": 0, "is_disabled": 0, "fusion_lon": 0.0, "bike_id": "8ccde9eb2f6cfca58ffaef39f24b0f4c", "lon": -77.16249183333333, "rental_uris": {"ios": "https://dc.lft.to/lastmile_qr_scan", "android": "https://dc.lft.to/lastmile_qr_scan"}}, {"name": "2e5778426b7cc0b90f37cfb38015641f", "fusion_lat": 0.0, "type": "electric_scooter", "lat": 38.89601316666667, "is_reserved": 0, "is_disabled": 0, "fusion_lon": 0.0, "bike_id": "2e5778426b7cc0b90f37cfb38015641f", "lon": -77.041146, "rental_uris": {"ios": "https://dc.lft.to/lastmile_qr_scan", "android": "https://dc.lft.to/lastmile_qr_scan"}}, {"name": "11a35c3d1c62c317f86cbfd991932976", "fusion_lat": 0.0, "type": "electric_scooter", "lat": 38.911912666666666, "is_reserved": 0, "is_disabled": 0, "fusion_lon": 0.0, "bike_id": "11a35c3d1c62c317f86cbfd991932976", "lon": -77.04504233333333, "rental_uris": {"ios": "https://dc.lft.to/lastmile_qr_scan", "android": "https://dc.lft.to/lastmile_qr_scan"}}, {"name": "a6568631f8c2116de34b02987e34b651", "fusion_lat": 0.0, "type": "electric_scooter", "lat": 38.90533583333333, "is_reserved": 0, "is_disabled": 0, "fusion_lon": 0.0, "bike_id": "a6568631f8c2116de34b02987e34b651", "lon": -77.050275, "rental_uris": {"ios": "https://dc.lft.to/lastmile_qr_scan", "android": "https://dc.lft.to/lastmile_qr_scan"}}, {"name": "4a2e03a416b02e3dbdf4dc0947d89bb4", "fusion_lat": 0.0, "type": "electric_scooter", "lat": 38.906704833333336, "is_reserved": 0, "is_disabled": 0, "fusion_lon": 0.0, "bike_id": "4a2e03a416b02e3dbdf4dc0947d89bb4", "lon": -76.97808, "rental_uris": {"ios": "https://dc.lft.to/lastmile_qr_scan", "android": "https://dc.lft.to/lastmile_qr_scan"}}, {"name": "b8fe62f89ac98582c49ca9e7ff5b5ff1", "fusion_lat": 0.0, "type": "electric_scooter", "lat": 38.90867216666667, "is_reserved": 0, "is_disabled": 0, "fusion_lon": 0.0, "bike_id": "b8fe62f89ac98582c49ca9e7ff5b5ff1", "lon": -76.99957883333333, "rental_uris": {"ios": "https://dc.lft.to/lastmile_qr_scan", "android": "https://dc.lft.to/lastmile_qr_scan"}}, {"name": "a7d6a58a35c652d42994a03da00cfcca", "fusion_lat": 0.0, "type": "electric_scooter", "lat": 38.889990833333336, "is_reserved": 0, "is_disabled": 0, "fusion_lon": 0.0, "bike_id": "a7d6a58a35c652d42994a03da00cfcca", "lon": -77.048977, "rental_uris": {"ios": "https://dc.lft.to/lastmile_qr_scan", "android": "https://dc.lft.to/lastmile_qr_scan"}}, {"name": "d3ebb4ff50d595789ae928ee7d76b584", "fusion_lat": 0.0, "type": "electric_scooter", "lat": 38.915957, "is_reserved": 0, "is_disabled": 0, "fusion_lon": 0.0, "bike_id": "d3ebb4ff50d595789ae928ee7d76b584", "lon": -77.04150516666667, "rental_uris": {"ios": "https://dc.lft.to/lastmile_qr_scan", "android": "https://dc.lft.to/lastmile_qr_scan"}}, {"name": "d8c310f56328f31f3842c96f45519de0", "fusion_lat": 0.0, "type": "electric_scooter", "lat": 38.911043166666666, "is_reserved": 0, "is_disabled": 0, "fusion_lon": 0.0, "bike_id": "d8c310f56328f31f3842c96f45519de0", "lon": -77.049273, "rental_uris": {"ios": "https://dc.lft.to/lastmile_qr_scan", "android": "https://dc.lft.to/lastmile_qr_scan"}}, {"name": "4f4cf3a821edfe2a5f5540782c151bd5", "fusion_lat": 0.0, "type": "electric_bike", "lat": 38.9555015, "is_reserved": 0, "is_disabled": 0, "fusion_lon": 0.0, "bike_id": "4f4cf3a821edfe2a5f5540782c151bd5", "lon": -76.93542283333333, "rental_uris": {"ios": "https://dc.lft.to/lastmile_qr_scan", "android": "https://dc.lft.to/lastmile_qr_scan"}}, {"name": "d8347c54a18fd06248a744305365eb11", "fusion_lat": 0.0, "type": "electric_scooter", "lat": 38.942729166666666, "is_reserved": 0, "is_disabled": 0, "fusion_lon": 0.0, "bike_id": "d8347c54a18fd06248a744305365eb11", "lon": -77.02504516666667, "rental_uris": {"ios": "https://dc.lft.to/lastmile_qr_scan", "android": "https://dc.lft.to/lastmile_qr_scan"}}, {"name": "2c7463d2917be74dab1eaad75ed3d057", "fusion_lat": 0.0, "type": "electric_scooter", "lat": 38.92178366666667, "is_reserved": 0, "is_disabled": 0, "fusion_lon": 0.0, "bike_id": "2c7463d2917be74dab1eaad75ed3d057", "lon": -77.04241566666667, "rental_uris": {"ios": "https://dc.lft.to/lastmile_qr_scan", "android": "https://dc.lft.to/lastmile_qr_scan"}}, {"name": "558bf0a83215551812b6a2a5d375f579", "fusion_lat": 0.0, "type": "electric_scooter", "lat": 38.909721, "is_reserved": 0, "is_disabled": 0, "fusion_lon": 0.0, "bike_id": "558bf0a83215551812b6a2a5d375f579", "lon": -77.0423565, "rental_uris": {"ios": "https://dc.lft.to/lastmile_qr_scan", "android": "https://dc.lft.to/lastmile_qr_scan"}}, {"name": "36426740ea66bcc1cbd2563491b04fff", "fusion_lat": 0.0, "type": "electric_bike", "lat": 38.83190883333333, "is_reserved": 0, "is_disabled": 0, "fusion_lon": 0.0, "bike_id": "36426740ea66bcc1cbd2563491b04fff", "lon": -77.07682133333333, "rental_uris": {"ios": "https://dc.lft.to/lastmile_qr_scan", "android": "https://dc.lft.to/lastmile_qr_scan"}}, {"name": "a43b35b7a467ab4e08e7c5a04ada4b49", "fusion_lat": 0.0, "type": "electric_scooter", "lat": 38.901109166666664, "is_reserved": 0, "is_disabled": 0, "fusion_lon": 0.0, "bike_id": "a43b35b7a467ab4e08e7c5a04ada4b49", "lon": -77.03985066666667, "rental_uris": {"ios": "https://dc.lft.to/lastmile_qr_scan", "android": "https://dc.lft.to/lastmile_qr_scan"}}, {"name": "5c65e04b68c9029cec6494178e4d71ec", "fusion_lat": 0.0, "type": "electric_scooter", "lat": 38.916051, "is_reserved": 0, "is_disabled": 0, "fusion_lon": 0.0, "bike_id": "5c65e04b68c9029cec6494178e4d71ec", "lon": -77.0321825, "rental_uris": {"ios": "https://dc.lft.to/lastmile_qr_scan", "android": "https://dc.lft.to/lastmile_qr_scan"}}, {"name": "54aa061a59f00e48f2e122503995c140", "fusion_lat": 0.0, "type": "electric_scooter", "lat": 38.9298475, "is_reserved": 0, "is_disabled": 0, "fusion_lon": 0.0, "bike_id": "54aa061a59f00e48f2e122503995c140", "lon": -77.0325645, "rental_uris": {"ios": "https://dc.lft.to/lastmile_qr_scan", "android": "https://dc.lft.to/lastmile_qr_scan"}}, {"name": "f8ba7ec25caf02ef65a515301c36af7c", "fusion_lat": 0.0, "type": "electric_scooter", "lat": 38.896027833333335, "is_reserved": 0, "is_disabled": 0, "fusion_lon": 0.0, "bike_id": "f8ba7ec25caf02ef65a515301c36af7c", "lon": -77.04692716666666, "rental_uris": {"ios": "https://dc.lft.to/lastmile_qr_scan", "android": "https://dc.lft.to/lastmile_qr_scan"}}, {"name": "7a196405c0df7258bd6f2a21138b15e3", "fusion_lat": 0.0, "type": "electric_scooter", "lat": 38.907791833333334, "is_reserved": 0, "is_disabled": 0, "fusion_lon": 0.0, "bike_id": "7a196405c0df7258bd6f2a21138b15e3", "lon": -77.07251133333334, "rental_uris": {"ios": "https://dc.lft.to/lastmile_qr_scan", "android": "https://dc.lft.to/lastmile_qr_scan"}}, {"name": "871d1a0f5f795a9d4a753aa3048d7e03", "fusion_lat": 0.0, "type": "electric_scooter", "lat": 38.90510866666666, "is_reserved": 0, "is_disabled": 0, "fusion_lon": 0.0, "bike_id": "871d1a0f5f795a9d4a753aa3048d7e03", "lon": -77.0473335, "rental_uris": {"ios": "https://dc.lft.to/lastmile_qr_scan", "android": "https://dc.lft.to/lastmile_qr_scan"}}, {"name": "597e114d6a38b99f96939eec501bb837", "fusion_lat": 0.0, "type": "electric_bike", "lat": 38.891904333333336, "is_reserved": 0, "is_disabled": 0, "fusion_lon": 0.0, "bike_id": "597e114d6a38b99f96939eec501bb837", "lon": -77.12258866666667, "rental_uris": {"ios": "https://dc.lft.to/lastmile_qr_scan", "android": "https://dc.lft.to/lastmile_qr_scan"}}, {"name": "ab147b7c11ef8d6e9eebcfa141aea87d", "fusion_lat": 0.0, "type": "electric_bike", "lat": 38.815182666666665, "is_reserved": 0, "is_disabled": 0, "fusion_lon": 0.0, "bike_id": "ab147b7c11ef8d6e9eebcfa141aea87d", "lon": -77.12654533333334, "rental_uris": {"ios": "https://dc.lft.to/lastmile_qr_scan", "android": "https://dc.lft.to/lastmile_qr_scan"}}, {"name": "9e4d87c6b190efe75dc02eb30da9d269", "fusion_lat": 0.0, "type": "electric_scooter", "lat": 38.884287, "is_reserved": 0, "is_disabled": 0, "fusion_lon": 0.0, "bike_id": "9e4d87c6b190efe75dc02eb30da9d269", "lon": -76.95749633333334, "rental_uris": {"ios": "https://dc.lft.to/lastmile_qr_scan", "android": "https://dc.lft.to/lastmile_qr_scan"}}, {"name": "f06f53ef6f0683b4028c7fa154284f5e", "fusion_lat": 0.0, "type": "electric_scooter", "lat": 38.91848183333333, "is_reserved": 0, "is_disabled": 0, "fusion_lon": 0.0, "bike_id": "f06f53ef6f0683b4028c7fa154284f5e", "lon": -77.04449616666666, "rental_uris": {"ios": "https://dc.lft.to/lastmile_qr_scan", "android": "https://dc.lft.to/lastmile_qr_scan"}}, {"name": "50433cb3970790595ce79b0b65c2d591", "fusion_lat": 0.0, "type": "electric_scooter", "lat": 38.9217065, "is_reserved": 0, "is_disabled": 0, "fusion_lon": 0.0, "bike_id": "50433cb3970790595ce79b0b65c2d591", "lon": -77.032291, "rental_uris": {"ios": "https://dc.lft.to/lastmile_qr_scan", "android": "https://dc.lft.to/lastmile_qr_scan"}}, {"name": "27ce1da29bb955bd8eae6ed9ae544488", "fusion_lat": 0.0, "type": "electric_scooter", "lat": 38.93331883333333, "is_reserved": 0, "is_disabled": 0, "fusion_lon": 0.0, "bike_id": "27ce1da29bb955bd8eae6ed9ae544488", "lon": -77.032603, "rental_uris": {"ios": "https://dc.lft.to/lastmile_qr_scan", "android": "https://dc.lft.to/lastmile_qr_scan"}}, {"name": "501d7ce7070072cf754e27e4a21139c5", "fusion_lat": 0.0, "type": "electric_scooter", "lat": 38.91515833333333, "is_reserved": 0, "is_disabled": 0, "fusion_lon": 0.0, "bike_id": "501d7ce7070072cf754e27e4a21139c5", "lon": -77.04496383333333, "rental_uris": {"ios": "https://dc.lft.to/lastmile_qr_scan", "android": "https://dc.lft.to/lastmile_qr_scan"}}, {"name": "124be71984225562852554ae5a4bd96a", "fusion_lat": 0.0, "type": "electric_scooter", "lat": 38.897106, "is_reserved": 0, "is_disabled": 0, "fusion_lon": 0.0, "bike_id": "124be71984225562852554ae5a4bd96a", "lon": -77.02682516666667, "rental_uris": {"ios": "https://dc.lft.to/lastmile_qr_scan", "android": "https://dc.lft.to/lastmile_qr_scan"}}, {"name": "1838e03c868b584a2b19bd83de54032d", "fusion_lat": 0.0, "type": "electric_scooter", "lat": 38.92357283333333, "is_reserved": 0, "is_disabled": 0, "fusion_lon": 0.0, "bike_id": "1838e03c868b584a2b19bd83de54032d", "lon": -77.05081266666667, "rental_uris": {"ios": "https://dc.lft.to/lastmile_qr_scan", "android": "https://dc.lft.to/lastmile_qr_scan"}}, {"name": "c432fc59b16d4ad3d24901324a2867e2", "fusion_lat": 0.0, "type": "electric_scooter", "lat": 38.907778666666665, "is_reserved": 0, "is_disabled": 0, "fusion_lon": 0.0, "bike_id": "c432fc59b16d4ad3d24901324a2867e2", "lon": -77.038618, "rental_uris": {"ios": "https://dc.lft.to/lastmile_qr_scan", "android": "https://dc.lft.to/lastmile_qr_scan"}}, {"name": "4a38f0ceebb474a40818231edaaa6a3b", "fusion_lat": 0.0, "type": "electric_bike", "lat": 38.83809433333333, "is_reserved": 0, "is_disabled": 0, "fusion_lon": 0.0, "bike_id": "4a38f0ceebb474a40818231edaaa6a3b", "lon": -77.0951965, "rental_uris": {"ios": "https://dc.lft.to/lastmile_qr_scan", "android": "https://dc.lft.to/lastmile_qr_scan"}}, {"name": "88ce4dfae8d6d7627ff192befb2ae868", "fusion_lat": 0.0, "type": "electric_scooter", "lat": 38.9162885, "is_reserved": 0, "is_disabled": 0, "fusion_lon": 0.0, "bike_id": "88ce4dfae8d6d7627ff192befb2ae868", "lon": -77.0318985, "rental_uris": {"ios": "https://dc.lft.to/lastmile_qr_scan", "android": "https://dc.lft.to/lastmile_qr_scan"}}, {"name": "e5071c6a4c322ab49f50ad8a3e334732", "fusion_lat": 0.0, "type": "electric_scooter", "lat": 38.93576633333333, "is_reserved": 0, "is_disabled": 0, "fusion_lon": 0.0, "bike_id": "e5071c6a4c322ab49f50ad8a3e334732", "lon": -76.99102283333333, "rental_uris": {"ios": "https://dc.lft.to/lastmile_qr_scan", "android": "https://dc.lft.to/lastmile_qr_scan"}}, {"name": "9f501a264966052c1280352dbfa7031c", "fusion_lat": 0.0, "type": "electric_scooter", "lat": 38.887414166666666, "is_reserved": 0, "is_disabled": 0, "fusion_lon": 0.0, "bike_id": "9f501a264966052c1280352dbfa7031c", "lon": -77.02126833333334, "rental_uris": {"ios": "https://dc.lft.to/lastmile_qr_scan", "android": "https://dc.lft.to/lastmile_qr_scan"}}, {"name": "a271ae714625ad07d6baa8b8602d4e9f", "fusion_lat": 0.0, "type": "electric_scooter", "lat": 38.925232333333334, "is_reserved": 0, "is_disabled": 0, "fusion_lon": 0.0, "bike_id": "a271ae714625ad07d6baa8b8602d4e9f", "lon": -77.05526466666667, "rental_uris": {"ios": "https://dc.lft.to/lastmile_qr_scan", "android": "https://dc.lft.to/lastmile_qr_scan"}}, {"name": "fa9cfce2e760c97a0f49e744fee9fc67", "fusion_lat": 0.0, "type": "electric_scooter", "lat": 38.905214666666666, "is_reserved": 0, "is_disabled": 0, "fusion_lon": 0.0, "bike_id": "fa9cfce2e760c97a0f49e744fee9fc67", "lon": -77.057656, "rental_uris": {"ios": "https://dc.lft.to/lastmile_qr_scan", "android": "https://dc.lft.to/lastmile_qr_scan"}}, {"name": "d9b0306ca4780776b8362abbe8353153", "fusion_lat": 0.0, "type": "electric_scooter", "lat": 38.9015415, "is_reserved": 0, "is_disabled": 0, "fusion_lon": 0.0, "bike_id": "d9b0306ca4780776b8362abbe8353153", "lon": -76.93059083333333, "rental_uris": {"ios": "https://dc.lft.to/lastmile_qr_scan", "android": "https://dc.lft.to/lastmile_qr_scan"}}, {"name": "2a2bcd651f98e20965d1dd2bb7a1a40f", "fusion_lat": 0.0, "type": "electric_scooter", "lat": 38.89402283333333, "is_reserved": 0, "is_disabled": 0, "fusion_lon": 0.0, "bike_id": "2a2bcd651f98e20965d1dd2bb7a1a40f", "lon": -76.94800733333334, "rental_uris": {"ios": "https://dc.lft.to/lastmile_qr_scan", "android": "https://dc.lft.to/lastmile_qr_scan"}}, {"name": "f3a0a27854aaf6e99b47e790997b4076", "fusion_lat": 0.0, "type": "electric_scooter", "lat": 38.895308166666666, "is_reserved": 0, "is_disabled": 0, "fusion_lon": 0.0, "bike_id": "f3a0a27854aaf6e99b47e790997b4076", "lon": -77.04646833333334, "rental_uris": {"ios": "https://dc.lft.to/lastmile_qr_scan", "android": "https://dc.lft.to/lastmile_qr_scan"}}, {"name": "b1e7be9784252f88518fa8e9dcb99c04", "fusion_lat": 0.0, "type": "electric_scooter", "lat": 38.857121166666666, "is_reserved": 0, "is_disabled": 0, "fusion_lon": 0.0, "bike_id": "b1e7be9784252f88518fa8e9dcb99c04", "lon": -76.98130283333333, "rental_uris": {"ios": "https://dc.lft.to/lastmile_qr_scan", "android": "https://dc.lft.to/lastmile_qr_scan"}}, {"name": "e5c374f52af20021c2791581303b9517", "fusion_lat": 0.0, "type": "electric_scooter", "lat": 38.92232666666666, "is_reserved": 0, "is_disabled": 0, "fusion_lon": 0.0, "bike_id": "e5c374f52af20021c2791581303b9517", "lon": -77.042468, "rental_uris": {"ios": "https://dc.lft.to/lastmile_qr_scan", "android": "https://dc.lft.to/lastmile_qr_scan"}}, {"name": "f6e8a8f03e8271e792d8a6a03646762a", "fusion_lat": 0.0, "type": "electric_scooter", "lat": 38.8997025, "is_reserved": 0, "is_disabled": 0, "fusion_lon": 0.0, "bike_id": "f6e8a8f03e8271e792d8a6a03646762a", "lon": -77.03370566666666, "rental_uris": {"ios": "https://dc.lft.to/lastmile_qr_scan", "android": "https://dc.lft.to/lastmile_qr_scan"}}, {"name": "c6f48f9250fbfd9fba18cec564f234ff", "fusion_lat": 0.0, "type": "electric_scooter", "lat": 38.898988, "is_reserved": 0, "is_disabled": 0, "fusion_lon": 0.0, "bike_id": "c6f48f9250fbfd9fba18cec564f234ff", "lon": -77.0402755, "rental_uris": {"ios": "https://dc.lft.to/lastmile_qr_scan", "android": "https://dc.lft.to/lastmile_qr_scan"}}, {"name": "0663ddcecfd31940467e6b260168f9da", "fusion_lat": 0.0, "type": "electric_scooter", "lat": 38.914031, "is_reserved": 0, "is_disabled": 0, "fusion_lon": 0.0, "bike_id": "0663ddcecfd31940467e6b260168f9da", "lon": -77.00802366666667, "rental_uris": {"ios": "https://dc.lft.to/lastmile_qr_scan", "android": "https://dc.lft.to/lastmile_qr_scan"}}, {"name": "8999441276f8115892336f567587025c", "fusion_lat": 0.0, "type": "electric_scooter", "lat": 38.9233935, "is_reserved": 0, "is_disabled": 0, "fusion_lon": 0.0, "bike_id": "8999441276f8115892336f567587025c", "lon": -77.05094216666667, "rental_uris": {"ios": "https://dc.lft.to/lastmile_qr_scan", "android": "https://dc.lft.to/lastmile_qr_scan"}}, {"name": "5bf733159727e3e8db46cac3130bff87", "fusion_lat": 0.0, "type": "electric_bike", "lat": 38.86161583333333, "is_reserved": 0, "is_disabled": 0, "fusion_lon": 0.0, "bike_id": "5bf733159727e3e8db46cac3130bff87", "lon": -77.13093133333334, "rental_uris": {"ios": "https://dc.lft.to/lastmile_qr_scan", "android": "https://dc.lft.to/lastmile_qr_scan"}}, {"name": "1496f7bce7ccb2282bf72486d58cdfd1", "fusion_lat": 0.0, "type": "electric_scooter", "lat": 38.93486466666667, "is_reserved": 0, "is_disabled": 0, "fusion_lon": 0.0, "bike_id": "1496f7bce7ccb2282bf72486d58cdfd1", "lon": -77.03271383333333, "rental_uris": {"ios": "https://dc.lft.to/lastmile_qr_scan", "android": "https://dc.lft.to/lastmile_qr_scan"}}, {"name": "0c6d350f4d0833f5dfa4a446409ac487", "fusion_lat": 0.0, "type": "electric_bike", "lat": 38.9675525, "is_reserved": 0, "is_disabled": 0, "fusion_lon": 0.0, "bike_id": "0c6d350f4d0833f5dfa4a446409ac487", "lon": -77.09157616666667, "rental_uris": {"ios": "https://dc.lft.to/lastmile_qr_scan", "android": "https://dc.lft.to/lastmile_qr_scan"}},