{"data": {"bikes": [{"type": "electric_scooter", "fusion_lon": 0.0, "bike_id": "0aa3f3aa5c5b80bc63c56b1f8f859249", "is_disabled": 0, "lat": 38.9195685, "rental_uris": {"ios": "https://dc.lft.to/lastmile_qr_scan", "android": "https://dc.lft.to/lastmile_qr_scan"}, "is_reserved": 0, "lon": -77.0177565, "fusion_lat": 0.0, "name": "0aa3f3aa5c5b80bc63c56b1f8f859249"}, {"type": "electric_bike", "fusion_lon": 0.0, "bike_id": "c69366f91263dbaa6d77c17de37a4c37", "is_disabled": 0, "lat": 38.871384166666665, "rental_uris": {"ios": "https://dc.lft.to/lastmile_qr_scan", "android": "https://dc.lft.to/lastmile_qr_scan"}, "is_reserved": 0, "lon": -76.93726083333334, "fusion_lat": 0.0, "name": "c69366f91263dbaa6d77c17de37a4c37"}, {"type": "electric_scooter", "fusion_lon": 0.0, "bike_id": "1edf41d53e7ecf7b4cfe4847b93dcfc1", "is_disabled": 0, "lat": 38.8906415, "rental_uris": {"ios": "https://dc.lft.to/lastmile_qr_scan", "android": "https://dc.lft.to/lastmile_qr_scan"}, "is_reserved": 0, "lon": -76.9376235, "fusion_lat": 0.0, "name": "1edf41d53e7ecf7b4cfe4847b93dcfc1"}, {"type": "electric_scooter", "fusion_lon": 0.0, "bike_id": "751de331c315a36086ec40a90862e181", "is_disabled": 0, "lat": 38.910566, "rental_uris": {"ios": "https://dc.lft.to/lastmile_qr_scan", "android": "https://dc.lft.to/lastmile_qr_scan"}, "is_reserved": 0, "lon": -77.0435325, "fusion_lat": 0.0, "name": "751de331c315a36086ec40a90862e181"}, {"type": "electric_scooter", "fusion_lon": 0.0, "bike_id": "413dd4845d1e9f5f16020897ce1dce10", "is_disabled": 0, "lat": 38.918909666666664, "rental_uris": {"ios": "https://dc.lft.to/lastmile_qr_scan", "android": "https://dc.lft.to/lastmile_qr_scan"}, "is_reserved": 0, "lon": -77.03826416666666, "fusion_lat": 0.0, "name": "413dd4845d1e9f5f16020897ce1dce10"}, {"type": "electric_scooter", "fusion_lon": 0.0, "bike_id": "44fc6702b80a21985608aff8f7ab8a30", "is_disabled": 0, "lat": 38.904259333333336, "rental_uris": {"ios": "https://dc.lft.to/lastmile_qr_scan", "android": "https://dc.lft.to/lastmile_qr_scan"}, "is_reserved": 0, "lon": -77.03282483333334, "fusion_lat": 0.0, "name": "44fc6702b80a21985608aff8f7ab8a30"}, {"type": "electric_scooter", "fusion_lon": 0.0, "bike_id": "27f00952269675c0096f7a490408992e", "is_disabled": 0, "lat": 38.90024533333333, "rental_uris": {"ios": "https://dc.lft.to/lastmile_qr_scan", "android": "https://dc.lft.to/lastmile_qr_scan"}, "is_reserved": 0, "lon": -77.00670683333334, "fusion_lat": 0.0, "name": "27f00952269675c0096f7a490408992e"}, {"type": "electric_scooter", "fusion_lon": 0.0, "bike_id": "6217d78e7d172b6205e7282a947ecf44", "is_disabled": 0, "lat": 38.9042885, "rental_uris": {"ios": "https://dc.lft.to/lastmile_qr_scan", "android": "https://dc.lft.to/lastmile_qr_scan"}, "is_reserved": 0, "lon": -77.04242283333333, "fusion_lat": 0.0, "name": "6217d78e7d172b6205e7282a947ecf44"}, {"type": "electric_scooter", "fusion_lon": 0.0, "bike_id": "b7343665e1a9525d5b57d1650cdc635f", "is_disabled": 0, "lat": 38.9721305, "rental_uris": {"ios": "https://dc.lft.to/lastmile_qr_scan", "android": "https://dc.lft.to/lastmile_qr_scan"}, "is_reserved": 0, "lon": -77.03331416666667, "fusion_lat": 0.0, "name": "b7343665e1a9525d5b57d1650cdc635f"}, {"type": "electric_scooter", "fusion_lon": 0.0, "bike_id": "9e78b5e4f13950f90a407575affb3b15", "is_disabled": 0, "lat": 38.900026, "rental_uris": {"ios": "https://dc.lft.to/lastmile_qr_scan", "android": "https://dc.lft.to/lastmile_qr_scan"}, "is_reserved": 0, "lon": -77.05235366666666, "fusion_lat": 0.0, "name": "9e78b5e4f13950f90a407575affb3b15"}, {"type": "electric_scooter", "fusion_lon": 0.0, "bike_id": "2f75f0dd77161683a3fffaded25e3b1e", "is_disabled": 0, "lat": 38.92359716666667, "rental_uris": {"ios": "https://dc.lft.to/lastmile_qr_scan", "android": "https://dc.lft.to/lastmile_qr_scan"}, "is_reserved": 0, "lon": -77.021249, "fusion_lat": 0.0, "name": "2f75f0dd77161683a3fffaded25e3b1e"}, {"type": "electric_scooter", "fusion_lon": 0.0, "bike_id": "fc7d8ee87c7a4adda343918944ec56db", "is_disabled": 0, "lat": 38.886963333333334, "rental_uris": {"ios": "https://dc.lft.to/lastmile_qr_scan", "android": "https://dc.lft.to/lastmile_qr_scan"}, "is_reserved": 0, "lon": -76.9403125, "fusion_lat": 0.0, "name": "fc7d8ee87c7a4adda343918944ec56db"}, {"type": "electric_scooter", "fusion_lon": 0.0, "bike_id": "380501e0fe0c76d42cc3ab7aeaec8d9d", "is_disabled": 0, "lat": 38.874723833333334, "rental_uris": {"ios": "https://dc.lft.to/lastmile_qr_scan", "android": "https://dc.lft.to/lastmile_qr_scan"}, "is_reserved": 0, "lon": -77.00555233333333, "fusion_lat": 0.0, "name": "380501e0fe0c76d42cc3ab7aeaec8d9d"}, {"type": "electric_bike", "fusion_lon": 0.0, "bike_id": "7399b6683d460ece15ff9617faf3836d", "is_disabled": 0, "lat": 38.9200245, "rental_uris": {"ios": "https://dc.lft.to/lastmile_qr_scan", "android": "https://dc.lft.to/lastmile_qr_scan"}, "is_reserved": 0, "lon": -76.958207, "fusion_lat": 0.0, "name": "7399b6683d460ece15ff9617faf3836d"}, {"type": "electric_scooter", "fusion_lon": 0.0, "bike_id": "f4e472f39854033931fcfa51f2affd90", "is_disabled": 0, "lat": 38.9052895, "rental_uris": {"ios": "https://dc.lft.to/lastmile_qr_scan", "android": "https://dc.lft.to/lastmile_qr_scan"}, "is_reserved": 0, "lon": -77.04897016666666, "fusion_lat": 0.0, "name": "f4e472f39854033931fcfa51f2affd90"}, {"type": "electric_scooter", "fusion_lon": 0.0, "bike_id": "5577dde5f1aa5316d38f98308a3118b3", "is_disabled": 0, "lat": 38.90174533333333, "rental_uris": {"ios": "https://dc.lft.to/lastmile_qr_scan", "android": "https://dc.lft.to/lastmile_qr_scan"}, "is_reserved": 0, "lon": -77.02305366666667, "fusion_lat": 0.0, "name": "5577dde5f1aa5316d38f98308a3118b3"}, {"type": "electric_scooter", "fusion_lon": 0.0, "bike_id": "2bc632939cd6111c21fd9c4bace3ed9a", "is_disabled": 0, "lat": 38.925020333333336, "rental_uris": {"ios": "https://dc.lft.to/lastmile_qr_scan", "android": "https://dc.lft.to/lastmile_qr_scan"}, "is_reserved": 0, "lon": -77.02401866666666, "fusion_lat": 0.0, "name": "2bc632939cd6111c21fd9c4bace3ed9a"}, {"type": "electric_bike", "fusion_lon": 0.0, "bike_id": "71e1dcdea065c3ee86cd8d0baf2e4ae5", "is_disabled": 0, "lat": 38.946371, "rental_uris": {"ios": "https://dc.lft.to/lastmile_qr_scan", "android": "https://dc.lft.to/lastmile_qr_scan"}, "is_reserved": 0, "lon": -76.99310033333333, "fusion_lat": 0.0, "name": "71e1dcdea065c3ee86cd8d0baf2e4ae5"}, {"type": "electric_scooter", "fusion_lon": 0.0, "bike_id": "6db3d1300fc73f267e520c89b298a8b1", "is_disabled": 0, "lat": 38.9212095, "rental_uris": {"ios": "https://dc.lft.to/lastmile_qr_scan", "android": "https://dc.lft.to/lastmile_qr_scan"}, "is_reserved": 0, "lon": -77.0184845, "fusion_lat": 0.0, "name": "6db3d1300fc73f267e520c89b298a8b1"}, {"type": "electric_scooter", "fusion_lon": 0.0, "bike_id": "11f3718b7a4fce325420fc7699a2d175", "is_disabled": 0, "lat": 38.892685166666666, "rental_uris": {"ios": "https://dc.lft.to/lastmile_qr_scan", "android": "https://dc.lft.to/lastmile_qr_scan"}, "is_reserved": 0, "lon": -77.00348333333334, "fusion_lat": 0.0, "name": "11f3718b7a4fce325420fc7699a2d175"}, {"type": "electric_scooter", "fusion_lon": 0.0, "bike_id": "d76dda047488fea059f5f0809359cb84", "is_disabled": 0, "lat": 38.927069, "rental_uris": {"ios": "https://dc.lft.to/lastmile_qr_scan", "android": "https://dc.lft.to/lastmile_qr_scan"}, "is_reserved": 0, "lon": -77.02090233333334, "fusion_lat": 0.0, "name": "d76dda047488fea059f5f0809359cb84"}, {"type": "electric_scooter", "fusion_lon": 0.0, "bike_id": "fca0dc6574e5ed6826b57f38bb723098", "is_disabled": 0, "lat": 38.9073455, "rental_uris": {"ios": "https://dc.lft.to/lastmile_qr_scan", "android": "https://dc.lft.to/lastmile_qr_scan"}, "is_reserved": 0, "lon": -76.9798005, "fusion_lat": 0.0, "name": "fca0dc6574e5ed6826b57f38bb723098"}, {"type": "electric_scooter", "fusion_lon": 0.0, "bike_id": "4aef9b848cb2efbba41a3148c1eb278a", "is_disabled": 0, "lat": 38.92477933333333, "rental_uris": {"ios": "https://dc.lft.to/lastmile_qr_scan", "android": "https://dc.lft.to/lastmile_qr_scan"}, "is_reserved": 0, "lon": -77.039103, "fusion_lat": 0.0, "name": "4aef9b848cb2efbba41a3148c1eb278a"}, {"type": "electric_scooter", "fusion_lon": 0.0, "bike_id": "6706780675e8288894b3e34165eb11e3", "is_disabled": 0, "lat": 38.90367666666667, "rental_uris": {"ios": "https://dc.lft.to/lastmile_qr_scan", "android": "https://dc.lft.to/lastmile_qr_scan"}, "is_reserved": 0, "lon": -77.016317, "fusion_lat": 0.0, "name": "6706780675e8288894b3e34165eb11e3"}, {"type": "electric_scooter", "fusion_lon": 0.0, "bike_id": "98c61d52b7b9d0ba8afc11942a8fdaf7", "is_disabled": 0, "lat": 38.96607483333333, "rental_uris": {"ios": "https://dc.lft.to/lastmile_qr_scan", "android": "https://dc.lft.to/lastmile_qr_scan"}, "is_reserved": 0, "lon": -77.02749166666666, "fusion_lat": 0.0, "name": "98c61d52b7b9d0ba8afc11942a8fdaf7"}, {"type": "electric_bike", "fusion_lon": 0.0, "bike_id": "a1b61976c33a7089354016cf579ccb95", "is_disabled": 0, "lat": 38.896098333333335, "rental_uris": {"ios": "https://dc.lft.to/lastmile_qr_scan", "android": "https://dc.lft.to/lastmile_qr_scan"}, "is_reserved": 0, "lon": -77.02215183333334, "fusion_lat": 0.0, "name": "a1b61976c33a7089354016cf579ccb95"}, {"type": "electric_scooter", "fusion_lon": 0.0, "bike_id": "ae01e026bb8043930e0b62860fbe9ed4", "is_disabled": 0, "lat": 38.837917833333336, "rental_uris": {"ios": "https://dc.lft.to/lastmile_qr_scan", "android": "https://dc.lft.to/lastmile_qr_scan"}, "is_reserved": 0, "lon": -77.00450833333333, "fusion_lat": 0.0, "name": "ae01e026bb8043930e0b62860fbe9ed4"}, {"type": "electric_scooter", "fusion_lon": 0.0, "bike_id": "3cf021c56d5a423fff60e6e6e1290114", "is_disabled": 0, "lat": 38.92127583333333, "rental_uris": {"ios": "https://dc.lft.to/lastmile_qr_scan", "android": "https://dc.lft.to/lastmile_qr_scan"}, "is_reserved": 0, "lon": -77.04211166666667, "fusion_lat": 0.0, "name": "3cf021c56d5a423fff60e6e6e1290114"}, {"type": "electric_scooter", "fusion_lon": 0.0, "bike_id": "804132f90dffb57646a8fbf9a94e54b8", "is_disabled": 0, "lat": 38.896287666666666, "rental_uris": {"ios": "https://dc.lft.to/lastmile_qr_scan", "android": "https://dc.lft.to/lastmile_qr_scan"}, "is_reserved": 0, "lon": -77.05028566666667, "fusion_lat": 0.0, "name": "804132f90dffb57646a8fbf9a94e54b8"}, {"type": "electric_scooter", "fusion_lon": 0.0, "bike_id": "bc64048e41a012810ca933a717f3afec", "is_disabled": 0, "lat": 38.8922395, "rental_uris": {"ios": "https://dc.lft.to/lastmile_qr_scan", "android": "https://dc.lft.to/lastmile_qr_scan"}, "is_reserved": 0, "lon": -77.04368083333334, "fusion_lat": 0.0, "name": "bc64048e41a012810ca933a717f3afec"}, {"type": "electric_scooter", "fusion_lon": 0.0, "bike_id": "066b82f73265a1ae13a612c7ab599192", "is_disabled": 0, "lat": 38.929496666666665, "rental_uris": {"ios": "https://dc.lft.to/lastmile_qr_scan", "android": "https://dc.lft.to/lastmile_qr_scan"}, "is_reserved": 0, "lon": -77.04407566666667, "fusion_lat": 0.0, "name": "066b82f73265a1ae13a612c7ab599192"}, {"type": "electric_scooter", "fusion_lon": 0.0, "bike_id": "ef8bd55a4c9cf7033f8018f899b5ae1d", "is_disabled": 0, "lat": 38.9570945, "rental_uris": {"ios": "https://dc.lft.to/lastmile_qr_scan", "android": "https://dc.lft.to/lastmile_qr_scan"}, "is_reserved": 0, "lon": -77.023993, "fusion_lat": 0.0, "name": "ef8bd55a4c9cf7033f8018f899b5ae1d"}, {"type": "electric_scooter", "fusion_lon": 0.0, "bike_id": "355df602186bd03f50d794fff54d1f76", "is_disabled": 0, "lat": 38.892281833333335, "rental_uris": {"ios": "https://dc.lft.to/lastmile_qr_scan", "android": "https://dc.lft.to/lastmile_qr_scan"}, "is_reserved": 0, "lon": -77.04496583333334, "fusion_lat": 0.0, "name": "355df602186bd03f50d794fff54d1f76"}, {"type": "electric_scooter", "fusion_lon": 0.0, "bike_id": "2235d31b20ca3534064dbd114299e269", "is_disabled": 0, "lat": 38.873842, "rental_uris": {"ios": "https://dc.lft.to/lastmile_qr_scan", "android": "https://dc.lft.to/lastmile_qr_scan"}, "is_reserved": 0, "lon": -76.9698455, "fusion_lat": 0.0, "name": "2235d31b20ca3534064dbd114299e269"}, {"type": "electric_scooter", "fusion_lon": 0.0, "bike_id": "ad3d03e38a09440cb73ff8b647b02167", "is_disabled": 0, "lat": 38.9232715, "rental_uris": {"ios": "https://dc.lft.to/lastmile_qr_scan", "android": "https://dc.lft.to/lastmile_qr_scan"}, "is_reserved": 0, "lon": -77.03619166666667, "fusion_lat": 0.0, "name": "ad3d03e38a09440cb73ff8b647b02167"}, {"type": "electric_scooter", "fusion_lon": 0.0, "bike_id": "2d317ddff23263a54366a73967c5833f", "is_disabled": 0, "lat": 38.93897316666666, "rental_uris": {"ios": "https://dc.lft.to/lastmile_qr_scan", "android": "https://dc.lft.to/lastmile_qr_scan"}, "is_reserved": 0, "lon": -77.017619, "fusion_lat": 0.0, "name": "2d317ddff23263a54366a73967c5833f"}, {"type": "electric_bike", "fusion_lon": 0.0, "bike_id": "b6c2df91cac0919ce76134fbcdc6ddfd", "is_disabled": 0, "lat": 38.8411145, "rental_uris": {"ios": "https://dc.lft.to/lastmile_qr_scan", "android": "https://dc.lft.to/lastmile_qr_scan"}, "is_reserved": 0, "lon": -77.0701505, "fusion_lat": 0.0, "name": "b6c2df91cac0919ce76134fbcdc6ddfd"}, {"type": "electric_scooter", "fusion_lon": 0.0, "bike_id": "0cd9ccc453170a576c1430ff9745bf9a", "is_disabled": 0, "lat": 38.8764905, "rental_uris": {"ios": "https://dc.lft.to/lastmile_qr_scan", "android": "https://dc.lft.to/lastmile_qr_scan"}, "is_reserved": 0, "lon": -76.96506583333333, "fusion_lat": 0.0, "name": "0cd9ccc453170a576c1430ff9745bf9a"}, {"type": "electric_scooter", "fusion_lon": 0.0, "bike_id": "55b2ef15fe86860d6f4f8b322fcb6c8a", "is_disabled": 0, "lat": 38.898965833333335, "rental_uris": {"ios": "https://dc.lft.to/lastmile_qr_scan", "android": "https://dc.lft.to/lastmile_qr_scan"}, "is_reserved": 0, "lon": -77.0487325, "fusion_lat": 0.0, "name": "55b2ef15fe86860d6f4f8b322fcb6c8a"}, {"type": "electric_scooter", "fusion_lon": 0.0, "bike_id": "8c096e525281ec76b97142a9a1c2d315", "is_disabled": 0, "lat": 38.91732116666667, "rental_uris": {"ios": "https://dc.lft.to/lastmile_qr_scan", "android": "https://dc.lft.to/lastmile_qr_scan"}, "is_reserved": 0, "lon": -77.040851, "fusion_lat": 0.0, "name": "8c096e525281ec76b97142a9a1c2d315"}, {"type": "electric_scooter", "fusion_lon": 0.0, "bike_id": "50bc1ea659a8bb83d19b1dc52a236f1c", "is_disabled": 0, "lat": 38.9001525, "rental_uris": {"ios": "https://dc.lft.to/lastmile_qr_scan", "android": "https://dc.lft.to/lastmile_qr_scan"}, "is_reserved": 0, "lon": -76.98892033333334, "fusion_lat": 0.0, "name": "50bc1ea659a8bb83d19b1dc52a236f1c"}, {"type": "electric_bike", "fusion_lon": 0.0, "bike_id": "088a70053f5db653298340b666b605bb", "is_disabled": 0, "lat": 38.897836, "rental_uris": {"ios": "https://dc.lft.to/lastmile_qr_scan", "android": "https://dc.lft.to/lastmile_qr_scan"}, "is_reserved": 0, "lon": -77.01354433333333, "fusion_lat": 0.0, "name": "088a70053f5db653298340b666b605bb"}, {"type": "electric_scooter", "fusion_lon": 0.0, "bike_id": "5998ec2d5579e707de51449f09fc9970", "is_disabled": 0, "lat": 38.90345133333334, "rental_uris": {"ios": "https://dc.lft.to/lastmile_qr_scan", "android": "https://dc.lft.to/lastmile_qr_scan"}, "is_reserved": 0, "lon": -77.03436233333333, "fusion_lat": 0.0, "name": "5998ec2d5579e707de51449f09fc9970"}, {"type": "electric_scooter", "fusion_lon": 0.0, "bike_id": "0d8a5bf2a041bbec097af9662fa48907", "is_disabled": 0, "lat": 38.8950615, "rental_uris": {"ios": "https://dc.lft.to/lastmile_qr_scan", "android": "https://dc.lft.to/lastmile_qr_scan"}, "is_reserved": 0, "lon": -76.934739, "fusion_lat": 0.0, "name": "0d8a5bf2a041bbec097af9662fa48907"}, {"type": "electric_scooter", "fusion_lon": 0.0, "bike_id": "d0acff03a47280509f1844f44cccaa1d", "is_disabled": 0, "lat": 38.9315685, "rental_uris": {"ios": "https://dc.lft.to/lastmile_qr_scan", "android": "https://dc.lft.to/lastmile_qr_scan"}, "is_reserved": 0, "lon": -77.02882983333333, "fusion_lat": 0.0, "name": "d0acff03a47280509f1844f44cccaa1d"}, {"type": "electric_scooter", "fusion_lon": 0.0, "bike_id": "47d583540ab5ccea08889c5e661f3590", "is_disabled": 0, "lat": 38.90239666666667, "rental_uris": {"ios": "https://dc.lft.to/lastmile_qr_scan", "android": "https://dc.lft.to/lastmile_qr_scan"}, "is_reserved": 0, "lon": -77.04592566666666, "fusion_lat": 0.0, "name": "47d583540ab5ccea08889c5e661f3590"}, {"type": "electric_scooter", "fusion_lon": 0.0, "bike_id": "d0104fefd57c53f94d3f9f58eda4429e", "is_disabled": 0, "lat": 38.897321, "rental_uris": {"ios": "https://dc.lft.to/lastmile_qr_scan", "android": "https://dc.lft.to/lastmile_qr_scan"}, "is_reserved": 0, "lon": -77.03020416666666, "fusion_lat": 0.0, "name": "d0104fefd57c53f94d3f9f58eda4429e"}, {"type": "electric_scooter", "fusion_lon": 0.0, "bike_id": "d9927feae1ea8b77a8a16d5c9711bd04", "is_disabled": 0, "lat": 38.9419465, "rental_uris": {"ios": "https://dc.lft.to/lastmile_qr_scan", "android": "https://dc.lft.to/lastmile_qr_scan"}, "is_reserved": 0, "lon": -77.02479266666667, "fusion_lat": 0.0, "name": "d9927feae1ea8b77a8a16d5c9711bd04"}, {"type": "electric_scooter", "fusion_lon": 0.0, "bike_id": "c6168b116e6abb6aedef148dc66238f0", "is_disabled": 0, "lat": 38.9360795, "rental_uris": {"ios": "https://dc.lft.to/lastmile_qr_scan", "android": "https://dc.lft.to/lastmile_qr_scan"}, "is_reserved": 0, "lon": -77.05711933333333, "fusion_lat": 0.0, "name": "c6168b116e6abb6aedef148dc66238f0"}, {"type": "electric_scooter", "fusion_lon": 0.0, "bike_id": "d19bc02b9621b724b1041bbf2afce436", "is_disabled": 0, "lat": 38.8995715, "rental_uris": {"ios": "https://dc.lft.to/lastmile_qr_scan", "android": "https://dc.lft.to/lastmile_qr_scan"}, "is_reserved": 0, "lon": -77.01393683333333, "fusion_lat": 0.0, "name": "d19bc02b9621b724b1041bbf2afce436"}, {"type": "electric_scooter", "fusion_lon": 0.0, "bike_id": "e936857292fb7840d1a35c6f98fe4688", "is_disabled": 0, "lat": 38.8972965, "rental_uris": {"ios": "https://dc.lft.to/lastmile_qr_scan", "android": "https://dc.lft.to/lastmile_qr_scan"}, "is_reserved": 0, "lon": -77.02168733333333, "fusion_lat": 0.0, "name": "e936857292fb7840d1a35c6f98fe4688"}, {"type": "electric_scooter", "fusion_lon": 0.0, "bike_id": "fc3e2d62ff04492b11c5645e5c783d1c", "is_disabled": 0, "lat": 38.90016083333333, "rental_uris": {"ios": "https://dc.lft.to/lastmile_qr_scan", "android": "https://dc.lft.to/lastmile_qr_scan"}, "is_reserved": 0, "lon": -77.0448055, "fusion_lat": 0.0, "name": "fc3e2d62ff04492b11c5645e5c783d1c"}, {"type": "electric_scooter", "fusion_lon": 0.0, "bike_id": "96c402c511546b52eae9e332741841c7", "is_disabled": 0, "lat": 38.9065085, "rental_uris": {"ios": "https://dc.lft.to/lastmile_qr_scan", "android": "https://dc.lft.to/lastmile_qr_scan"}, "is_reserved": 0, "lon": -77.0246835, "fusion_lat": 0.0, "name": "96c402c511546b52eae9e332741841c7"}, {"type": "electric_scooter", "fusion_lon": 0.0, "bike_id": "d6b578740b6e2a5cbcf4f5e8e8952bc1", "is_disabled": 0, "lat": 38.88721616666667, "rental_uris": {"ios": "https://dc.lft.to/lastmile_qr_scan", "android": "https://dc.lft.to/lastmile_qr_scan"}, "is_reserved": 0, "lon": -77.01977333333333, "fusion_lat": 0.0, "name": "d6b578740b6e2a5cbcf4f5e8e8952bc1"}, {"type": "electric_scooter", "fusion_lon": 0.0, "bike_id": "77b6f5508d287be3ff4b6bb758e90878", "is_disabled": 0, "lat": 38.91730183333333, "rental_uris": {"ios": "https://dc.lft.to/lastmile_qr_scan", "android": "https://dc.lft.to/lastmile_qr_scan"}, "is_reserved": 0, "lon": -77.0684185, "fusion_lat": 0.0, "name": "77b6f5508d287be3ff4b6bb758e90878"}, {"type": "electric_scooter", "fusion_lon": 0.0, "bike_id": "811fc4105b54f0e7655fcbe414d6ba19", "is_disabled": 0, "lat": 38.89919483333333, "rental_uris": {"ios": "https://dc.lft.to/lastmile_qr_scan", "android": "https://dc.lft.to/lastmile_qr_scan"}, "is_reserved": 0, "lon": -77.03306316666666, "fusion_lat": 0.0, "name": "811fc4105b54f0e7655fcbe414d6ba19"}, {"type": "electric_scooter", "fusion_lon": 0.0, "bike_id": "47c9643ae242807d7885452a78215f80", "is_disabled": 0, "lat": 38.916019666666664, "rental_uris": {"ios": "https://dc.lft.to/lastmile_qr_scan", "android": "https://dc.lft.to/lastmile_qr_scan"}, "is_reserved": 0, "lon": -77.01225316666667, "fusion_lat": 0.0, "name": "47c9643ae242807d7885452a78215f80"}, {"type": "electric_scooter", "fusion_lon": 0.0, "bike_id": "fb37f946d5426ac3ed486390e3c9f93e", "is_disabled": 0, "lat": 38.90725333333334, "rental_uris": {"ios": "https://dc.lft.to/lastmile_qr_scan", "android": "https://dc.lft.to/lastmile_qr_scan"}, "is_reserved": 0, "lon": -77.04776066666666, "fusion_lat": 0.0, "name": "fb37f946d5426ac3ed486390e3c9f93e"}, {"type": "electric_scooter", "fusion_lon": 0.0, "bike_id": "f8060d84add7eca703027a98d08cffca", "is_disabled": 0, "lat": 38.9206565, "rental_uris": {"ios": "https://dc.lft.to/lastmile_qr_scan", "android": "https://dc.lft.to/lastmile_qr_scan"}, "is_reserved": 0, "lon": -77.016887, "fusion_lat": 0.0, "name": "f8060d84add7eca703027a98d08cffca"}, {"type": "electric_scooter", "fusion_lon": 0.0, "bike_id": "1067e4beec43b45f39b196dad3cfa3df", "is_disabled": 0, "lat": 38.90283733333333, "rental_uris": {"ios": "https://dc.lft.to/lastmile_qr_scan", "android": "https://dc.lft.to/lastmile_qr_scan"}, "is_reserved": 0, "lon": -77.03840533333333, "fusion_lat": 0.0, "name": "1067e4beec43b45f39b196dad3cfa3df"}, {"type": "electric_scooter", "fusion_lon": 0.0, "bike_id": "a596e909351353c497f82c7fc46cedde", "is_disabled": 0, "lat": 38.91038566666667, "rental_uris": {"ios": "https://dc.lft.to/lastmile_qr_scan", "android": "https://dc.lft.to/lastmile_qr_scan"}, "is_reserved": 0, "lon": -77.03435816666666, "fusion_lat": 0.0, "name": "a596e909351353c497f82c7fc46cedde"}, {"type": "electric_scooter", "fusion_lon": 0.0, "bike_id": "517bf9441f19737ef0956ccd7834b704", "is_disabled": 0, "lat": 38.8925585, "rental_uris": {"ios": "https://dc.lft.to/lastmile_qr_scan", "android": "https://dc.lft.to/lastmile_qr_scan"}, "is_reserved": 0, "lon": -77.0220485, "fusion_lat": 0.0, "name": "517bf9441f19737ef0956ccd7834b704"}, {"type": "electric_scooter", "fusion_lon": 0.0, "bike_id": "682425c7d2eac837864f7dc330bcf79f", "is_disabled": 0, "lat": 38.9289805, "rental_uris": {"ios": "https://dc.lft.to/lastmile_qr_scan", "android": "https://dc.lft.to/lastmile_qr_scan"}, "is_reserved": 0, "lon": -77.05806233333334, "fusion_lat": 0.0, "name": "682425c7d2eac837864f7dc330bcf79f"}, {"type": "electric_scooter", "fusion_lon": 0.0, "bike_id": "de1a360421f0c549f80c3ec377020c64", "is_disabled": 0, "lat": 38.913416, "rental_uris": {"ios": "https://dc.lft.to/lastmile_qr_scan", "android": "https://dc.lft.to/lastmile_qr_scan"}, "is_reserved": 0, "lon": -77.063177, "fusion_lat": 0.0, "name": "de1a360421f0c549f80c3ec377020c64"}, {"type": "electric_scooter", "fusion_lon": 0.0, "bike_id": "93d2d5ed19327452be3a4db45faf035a", "is_disabled": 0, "lat": 38.899406666666664, "rental_uris": {"ios": "https://dc.lft.to/lastmile_qr_scan", "android": "https://dc.lft.to/lastmile_qr_scan"}, "is_reserved": 0, "lon": -77.041881, "fusion_lat": 0.0, "name": "93d2d5ed19327452be3a4db45faf035a"}, {"type": "electric_scooter", "fusion_lon": 0.0, "bike_id": "6edd0f951fbceffe4b3cb7a3a8ba983a", "is_disabled": 0, "lat": 38.92457983333333, "rental_uris": {"ios": "https://dc.lft.to/lastmile_qr_scan", "android": "https://dc.lft.to/lastmile_qr_scan"}, "is_reserved": 0, "lon": -77.03285133333333, "fusion_lat": 0.0, "name": "6edd0f951fbceffe4b3cb7a3a8ba983a"}, {"type": "electric_bike", "fusion_lon": 0.0, "bike_id": "a6fc5e6effdc088aee03f6e77da851c8", "is_disabled": 0, "lat": 38.83107233333333, "rental_uris": {"ios": "https://dc.lft.to/lastmile_qr_scan", "android": "https://dc.lft.to/lastmile_qr_scan"}, "is_reserved": 0, "lon": -77.11283816666666, "fusion_lat": 0.0, "name": "a6fc5e6effdc088aee03f6e77da851c8"}, {"type": "electric_bike", "fusion_lon": 0.0, "bike_id": "055f787cfd4d14fec1df10d8124e0724", "is_disabled": 0, "lat": 38.90013183333333, "rental_uris": {"ios": "https://dc.lft.to/lastmile_qr_scan", "android": "https://dc.lft.to/lastmile_qr_scan"}, "is_reserved": 0, "lon": -77.00537266666667, "fusion_lat": 0.0, "name": "055f787cfd4d14fec1df10d8124e0724"}, {"type": "electric_scooter", "fusion_lon": 0.0, "bike_id": "85e5779b42eb5131f9fcaaca47d6921e", "is_disabled": 0, "lat": 38.9178125, "rental_uris": {"ios": "https://dc.lft.to/lastmile_qr_scan", "android": "https://dc.lft.to/lastmile_qr_scan"}, "is_reserved": 0, "lon": -77.023042, "fusion_lat": 0.0, "name": "85e5779b42eb5131f9fcaaca47d6921e"}, {"type": "electric_scooter", "fusion_lon": 0.0, "bike_id": "0b397ef711952c23ec5d49a13289b42d", "is_disabled": 0, "lat": 38.933577166666666, "rental_uris": {"ios": "https://dc.lft.to/lastmile_qr_scan", "android": "https://dc.lft.to/lastmile_qr_scan"}, "is_reserved": 0, "lon": -77.03655, "fusion_lat": 0.0, "name": "0b397ef711952c23ec5d49a13289b42d"}, {"type": "electric_scooter", "fusion_lon": 0.0, "bike_id": "94a7b031091bf0dfd7c47997a42171ad", "is_disabled": 0, "lat": 38.89930566666666, "rental_uris": {"ios": "https://dc.lft.to/lastmile_qr_scan", "android": "https://dc.lft.to/lastmile_qr_scan"}, "is_reserved": 0, "lon": -77.0279035, "fusion_lat": 0.0, "name": "94a7b031091bf0dfd7c47997a42171ad"}, {"type": "electric_scooter", "fusion_lon": 0.0, "bike_id": "b6fa9cd44de01b1fb8b70454133ce879", "is_disabled": 0, "lat": 38.9721245, "rental_uris": {"ios": "https://dc.lft.to/lastmile_qr_scan", "android": "https://dc.lft.to/lastmile_qr_scan"}, "is_reserved": 0, "lon": -77.03333016666667, "fusion_lat": 0.0, "name": "b6fa9cd44de01b1fb8b70454133ce879"}, {"type": "electric_scooter", "fusion_lon": 0.0, "bike_id": "14a47b5900c36cb89fea32db7e3869f4", "is_disabled": 0, "lat": 38.9027025, "rental_uris": {"ios": "https://dc.lft.to/lastmile_qr_scan", "android": "https://dc.lft.to/lastmile_qr_scan"}, "is_reserved": 0, "lon": -77.01800316666667, "fusion_lat": 0.0, "name": "14a47b5900c36cb89fea32db7e3869f4"}, {"type": "electric_scooter", "fusion_lon": 0.0, "bike_id": "5e5aae6da3ae83aaed33b3307e77d808", "is_disabled": 0, "lat": 38.91907916666667, "rental_uris": {"ios": "https://dc.lft.to/lastmile_qr_scan", "android": "https://dc.lft.to/lastmile_qr_scan"}, "is_reserved": 0, "lon": -77.01957433333334, "fusion_lat": 0.0, "name": "5e5aae6da3ae83aaed33b3307e77d808"}, {"type": "electric_bike", "fusion_lon": 0.0, "bike_id": "e31b590537ac09b6d61386c6ec9bc0b1", "is_disabled": 0, "lat": 38.9766505, "rental_uris": {"ios": "https://dc.lft.to/lastmile_qr_scan", "android": "https://dc.lft.to/lastmile_qr_scan"}, "is_reserved": 0, "lon": -77.01909883333333, "fusion_lat": 0.0, "name": "e31b590537ac09b6d61386c6ec9bc0b1"}, {"type": "electric_scooter", "fusion_lon": 0.0, "bike_id": "5fac2fc6d7b40e5b3c72d9fb5adf0219", "is_disabled": 0, "lat": 38.90408933333333, "rental_uris": {"ios": "https://dc.lft.to/lastmile_qr_scan", "android": "https://dc.lft.to/lastmile_qr_scan"}, "is_reserved": 0, "lon": -76.99955583333333, "fusion_lat": 0.0, "name": "5fac2fc6d7b40e5b3c72d9fb5adf0219"}, {"type": "electric_scooter", "fusion_lon": 0.0, "bike_id": "4ed3f3b833310c542dfd1a54cd4bc4f2", "is_disabled": 0, "lat": 38.90573233333333, "rental_uris": {"ios": "https://dc.lft.to/lastmile_qr_scan", "android": "https://dc.lft.to/lastmile_qr_scan"}, "is_reserved": 0, "lon": -77.034608, "fusion_lat": 0.0, "name": "4ed3f3b833310c542dfd1a54cd4bc4f2"}, {"type": "electric_bike", "fusion_lon": 0.0, "bike_id": "f81763111bc425c1115ecc41a0b66f59", "is_disabled": 0, "lat": 38.88759983333333, "rental_uris": {"ios": "https://dc.lft.to/lastmile_qr_scan", "android": "https://dc.lft.to/lastmile_qr_scan"}, "is_reserved": 0, "lon": -76.9007715, "fusion_lat": 0.0, "name": "f81763111bc425c1115ecc41a0b66f59"}, {"type": "electric_scooter", "fusion_lon": 0.0, "bike_id": "39afeebd102a13474288284c1e518ce6", "is_disabled": 0, "lat": 38.90728516666667, "rental_uris": {"ios": "https://dc.lft.to/lastmile_qr_scan", "android": "https://dc.lft.to/lastmile_qr_scan"}, "is_reserved": 0, "lon": -77.043372, "fusion_lat": 0.0, "name": "39afeebd102a13474288284c1e518ce6"}, {"type": "electric_scooter", "fusion_lon": 0.0, "bike_id": "60e2aae9b807413e1d49435311543bcd", "is_disabled": 0, "lat": 38.88728233333333, "rental_uris": {"ios": "https://dc.lft.to/lastmile_qr_scan", "android": "https://dc.lft.to/lastmile_qr_scan"}, "is_reserved": 0, "lon": -77.02835716666667, "fusion_lat": 0.0, "name": "60e2aae9b807413e1d49435311543bcd"}, {"type": "electric_scooter", "fusion_lon": 0.0, "bike_id": "86b7abd2f37cc3d32f351d3568e409cf", "is_disabled": 0, "lat": 38.8872825, "rental_uris": {"ios": "https://dc.lft.to/lastmile_qr_scan", "android": "https://dc.lft.to/lastmile_qr_scan"}, "is_reserved": 0, "lon": -77.00194116666667, "fusion_lat": 0.0, "name": "86b7abd2f37cc3d32f351d3568e409cf"}, {"type": "electric_scooter", "fusion_lon": 0.0, "bike_id": "e947e0cbcc936524ff43e6a66425c71b", "is_disabled": 0, "lat": 38.911173833333336, "rental_uris": {"ios": "https://dc.lft.to/lastmile_qr_scan", "android": "https://dc.lft.to/lastmile_qr_scan"}, "is_reserved": 0, "lon": -77.00749733333333, "fusion_lat": 0.0, "name": "e947e0cbcc936524ff43e6a66425c71b"}, {"type": "electric_scooter", "fusion_lon": 0.0, "bike_id": "9a623ba415322b7bbf960ef5520e520f", "is_disabled": 0, "lat": 38.94505233333334, "rental_uris": {"ios": "https://dc.lft.to/lastmile_qr_scan", "android": "https://dc.lft.to/lastmile_qr_scan"}, "is_reserved": 0, "lon": -77.03831566666666, "fusion_lat": 0.0, "name": "9a623ba415322b7bbf960ef5520e520f"}, {"type": "electric_scooter", "fusion_lon": 0.0, "bike_id": "75ebf7976e3a23af8b31ec36a7a2be98", "is_disabled": 0, "lat": 38.89042666666667, "rental_uris": {"ios": "https://dc.lft.to/lastmile_qr_scan", "android": "https://dc.lft.to/lastmile_qr_scan"}, "is_reserved": 0, "lon": -76.9374835, "fusion_lat": 0.0, "name": "75ebf7976e3a23af8b31ec36a7a2be98"}, {"type": "electric_scooter", "fusion_lon": 0.0, "bike_id": "568e663830a90d74f2fa51b751fcbd50", "is_disabled": 0, "lat": 38.88177566666667, "rental_uris": {"ios": "https://dc.lft.to/lastmile_qr_scan", "android": "https://dc.lft.to/lastmile_qr_scan"}, "is_reserved": 0, "lon": -76.99259083333334, "fusion_lat": 0.0, "name": "568e663830a90d74f2fa51b751fcbd50"}, {"type": "electric_scooter", "fusion_lon": 0.0, "bike_id": "faa7c2ccd40c37c5ea8e96ac911afd9a", "is_disabled": 0, "lat": 38.92808216666667, "rental_uris": {"ios": "https://dc.lft.to/lastmile_qr_scan", "android": "https://dc.lft.to/lastmile_qr_scan"}, "is_reserved": 0, "lon": -77.04333083333333, "fusion_lat": 0.0, "name": "faa7c2ccd40c37c5ea8e96ac911afd9a"}, {"type": "electric_scooter", "fusion_lon": 0.0, "bike_id": "1056efb7110cb0aeec9a2a48bc7ea31a", "is_disabled": 0, "lat": 38.908112833333334, "rental_uris": {"ios": "https://dc.lft.to/lastmile_qr_scan", "android": "https://dc.lft.to/lastmile_qr_scan"}, "is_reserved": 0, "lon": -77.03950183333333, "fusion_lat": 0.0, "name": "1056efb7110cb0aeec9a2a48bc7ea31a"}, {"type": "electric_scooter", "fusion_lon": 0.0, "bike_id": "bb96ce064d207ad14f32a8856b9bd581", "is_disabled": 0, "lat": 38.892255166666665, "rental_uris": {"ios": "https://dc.lft.to/lastmile_qr_scan", "android": "https://dc.lft.to/lastmile_qr_scan"}, "is_reserved": 0, "lon": -77.04195533333333, "fusion_lat": 0.0, "name": "bb96ce064d207ad14f32a8856b9bd581"}, {"type": "electric_scooter", "fusion_lon": 0.0, "bike_id": "bca91b9c02645719e81f61bed3f6f722", "is_disabled": 0, "lat": 38.89491733333333, "rental_uris": {"ios": "https://dc.lft.to/lastmile_qr_scan", "android": "https://dc.lft.to/lastmile_qr_scan"}, "is_reserved": 0, "lon": -77.00289383333333, "fusion_lat": 0.0, "name": "bca91b9c02645719e81f61bed3f6f722"}, {"type": "electric_scooter", "fusion_lon": 0.0, "bike_id": "342f20fe59dc5d528ce8450db6bdaa3a", "is_disabled": 0, "lat": 38.93575, "rental_uris": {"ios": "https://dc.lft.to/lastmile_qr_scan", "android": "https://dc.lft.to/lastmile_qr_scan"}, "is_reserved": 0, "lon": -76.99302066666667, "fusion_lat": 0.0, "name": "342f20fe59dc5d528ce8450db6bdaa3a"}, {"type": "electric_scooter", "fusion_lon": 0.0, "bike_id": "4fb433a61f3fd61dae5b5ce463357d52", "is_disabled": 0, "lat": 38.907384666666665, "rental_uris": {"ios": "https://dc.lft.to/lastmile_qr_scan", "android": "https://dc.lft.to/lastmile_qr_scan"}, "is_reserved": 0, "lon": -77.04168883333334, "fusion_lat": 0.0, "name": "4fb433a61f3fd61dae5b5ce463357d52"}, {"type": "electric_bike", "fusion_lon": 0.0, "bike_id": "f9fdaed9ab9590dd3b48bcd1c57d9acb", "is_disabled": 0, "lat": 38.8788445, "rental_uris": {"ios": "https://dc.lft.to/lastmile_qr_scan", "android": "https://dc.lft.to/lastmile_qr_scan"}, "is_reserved": 0, "lon": -77.0851295, "fusion_lat": 0.0, "name": "f9fdaed9ab9590dd3b48bcd1c57d9acb"}, {"type": "electric_scooter", "fusion_lon": 0.0, "bike_id": "5d0814b4248567bd2eb316a14f8f6f26", "is_disabled": 0, "lat": 38.924785666666665, "rental_uris": {"ios": "https://dc.lft.to/lastmile_qr_scan", "android": "https://dc.lft.to/lastmile_qr_scan"}, "is_reserved": 0, "lon": -77.02216466666667, "fusion_lat": 0.0, "name": "5d0814b4248567bd2eb316a14f8f6f26"}, {"type": "electric_scooter", "fusion_lon": 0.0, "bike_id": "42766d1002c34e6f9fd2c98c4e5ec03b", "is_disabled": 0, "lat": 38.895318833333334, "rental_uris": {"ios": "https://dc.lft.to/lastmile_qr_scan", "android": "https://dc.lft.to/lastmile_qr_scan"}, "is_reserved": 0, "lon": -77.04644116666667, "fusion_lat": 0.0, "name": "42766d1002c34e6f9fd2c98c4e5ec03b"}, {"type": "electric_scooter", "fusion_lon": 0.0, "bike_id": "f75077594664de62270259a37525b3c2", "is_disabled": 0, "lat": 38.92168483333333, "rental_uris": {"ios": "https://dc.lft.to/lastmile_qr_scan", "android": "https://dc.lft.to/lastmile_qr_scan"}, "is_reserved": 0, "lon": -77.03302916666667, "fusion_lat": 0.0, "name": "f75077594664de62270259a37525b3c2"}, {"type": "electric_scooter", "fusion_lon": 0.0, "bike_id": "a4be0aa582e00b7e56cabec45921be11", "is_disabled": 0, "lat": 38.91414, "rental_uris": {"ios": "https://dc.lft.to/lastmile_qr_scan", "android": "https://dc.lft.to/lastmile_qr_scan"}, "is_reserved": 0, "lon": -77.044986, "fusion_lat": 0.0, "name": "a4be0aa582e00b7e56cabec45921be11"}, {"type": "electric_scooter", "fusion_lon": 0.0, "bike_id": "66e79fdb322d8308c2f4934a4ce10dc5", "is_disabled": 0, "lat": 38.904755, "rental_uris": {"ios": "https://dc.lft.to/lastmile_qr_scan", "android": "https://dc.lft.to/lastmile_qr_scan"}, "is_reserved": 0, "lon": -77.03457616666667, "fusion_lat": 0.0, "name": "66e79fdb322d8308c2f4934a4ce10dc5"}, {"type": "electric_bike", "fusion_lon": 0.0, "bike_id": "6ceeaf51abadd58e4cef86d0e995cdae", "is_disabled": 0, "lat": 38.858818666666664, "rental_uris": {"ios": "https://dc.lft.to/lastmile_qr_scan", "android": "https://dc.lft.to/lastmile_qr_scan"}, "is_reserved": 0, "lon": -77.09560716666667, "fusion_lat": 0.0, "name": "6ceeaf51abadd58e4cef86d0e995cdae"}, {"type": "electric_scooter", "fusion_lon": 0.0, "bike_id": "15b38040893fa63128c76dfa33c40736", "is_disabled": 0, "lat": 38.89848666666666, "rental_uris": {"ios": "https://dc.lft.to/lastmile_qr_scan", "android": "https://dc.lft.to/lastmile_qr_scan"}, "is_reserved": 0, "lon": -76.9425495, "fusion_lat": 0.0, "name": "15b38040893fa63128c76dfa33c40736"}, {"type": "electric_scooter", "fusion_lon": 0.0, "bike_id": "bf33350adc3b08fb140d8d8a0bae8ea6", "is_disabled": 0, "lat": 38.911143833333334, "rental_uris": {"ios": "https://dc.lft.to/lastmile_qr_scan", "android": "https://dc.lft.to/lastmile_qr_scan"}, "is_reserved": 0, "lon": -77.04535733333333, "fusion_lat": 0.0, "name": "bf33350adc3b08fb140d8d8a0bae8ea6"}, {"type": "electric_scooter", "fusion_lon": 0.0, "bike_id": "4fc5856ba997cb6ab66e6ecc7fd0ca88", "is_disabled": 0, "lat": 38.917647, "rental_uris": {"ios": "https://dc.lft.to/lastmile_qr_scan", "android": "https://dc.lft.to/lastmile_qr_scan"}, "is_reserved": 0, "lon": -77.02290783333333, "fusion_lat": 0.0, "name": "4fc5856ba997cb6ab66e6ecc7fd0ca88"}, {"type": "electric_scooter", "fusion_lon": 0.0, "bike_id": "f7e2d82f1c654b0ce23306d5d189d280", "is_disabled": 0, "lat": 38.898414833333334, "rental_uris": {"ios": "https://dc.lft.to/lastmile_qr_scan", "android": "https://dc.lft.to/lastmile_qr_scan"}, "is_reserved": 0, "lon": -77.00752183333333, "fusion_lat": 0.0, "name": "f7e2d82f1c654b0ce23306d5d189d280"}, {"type": "electric_scooter", "fusion_lon": 0.0, "bike_id": "3cdc2c7e118f9ee678c2eb2f9c31ee25", "is_disabled": 0, "lat": 38.8920215, "rental_uris": {"ios": "https://dc.lft.to/lastmile_qr_scan", "android": "https://dc.lft.to/lastmile_qr_scan"}, "is_reserved": 0, "lon": -76.9569365, "fusion_lat": 0.0, "name": "3cdc2c7e118f9ee678c2eb2f9c31ee25"}, {"type": "electric_scooter", "fusion_lon": 0.0, "bike_id": "243efb94471405904181a354f1b2364e", "is_disabled": 0, "lat": 38.874623166666666, "rental_uris": {"ios": "https://dc.lft.to/lastmile_qr_scan", "android": "https://dc.lft.to/lastmile_qr_scan"}, "is_reserved": 0, "lon": -77.0057155, "fusion_lat": 0.0, "name": "243efb94471405904181a354f1b2364e"}, {"type": "electric_scooter", "fusion_lon": 0.0, "bike_id": "fe316f250f7d9204cfc18ddcc8f86215", "is_disabled": 0, "lat": 38.87466933333333, "rental_uris": {"ios": "https://dc.lft.to/lastmile_qr_scan", "android": "https://dc.lft.to/lastmile_qr_scan"}, "is_reserved": 0, "lon": -77.0040725, "fusion_lat": 0.0, "name": "fe316f250f7d9204cfc18ddcc8f86215"}, {"type": "electric_scooter", "fusion_lon": 0.0, "bike_id": "14683557c7d368c76b079b9c6646cf65", "is_disabled": 0, "lat": 38.904751, "rental_uris": {"ios": "https://dc.lft.to/lastmile_qr_scan", "android": "https://dc.lft.to/lastmile_qr_scan"}, "is_reserved": 0, "lon": -77.00588016666667, "fusion_lat": 0.0, "name": "14683557c7d368c76b079b9c6646cf65"}, {"type": "electric_scooter", "fusion_lon": 0.0, "bike_id": "a49f0167059a6133b7f65b27282729a4", "is_disabled": 0, "lat": 38.93172366666667, "rental_uris": {"ios": "https://dc.lft.to/lastmile_qr_scan", "android": "https://dc.lft.to/lastmile_qr_scan"}, "is_reserved": 0, "lon": -77.03666766666667, "fusion_lat": 0.0, "name": "a49f0167059a6133b7f65b27282729a4"}, {"type": "electric_scooter", "fusion_lon": 0.0, "bike_id": "40946ee1d4bb9cf7854cf47fd7d5a218", "is_disabled": 0, "lat": 38.89729883333333, "rental_uris": {"ios": "https://dc.lft.to/lastmile_qr_scan", "android": "https://dc.lft.to/lastmile_qr_scan"}, "is_reserved": 0, "lon": -77.01910783333334, "fusion_lat": 0.0, "name": "40946ee1d4bb9cf7854cf47fd7d5a218"}, {"type": "electric_scooter", "fusion_lon": 0.0, "bike_id": "791842c6e5557d62eb41711dbb0533d1", "is_disabled": 0, "lat": 38.923172, "rental_uris": {"ios": "https://dc.lft.to/lastmile_qr_scan", "android": "https://dc.lft.to/lastmile_qr_scan"}, "is_reserved": 0, "lon": -77.0304145, "fusion_lat": 0.0, "name": "791842c6e5557d62eb41711dbb0533d1"}, {"type": "electric_scooter", "fusion_lon": 0.0, "bike_id": "6bfa11a8fd13c189ed0dd3e7fe8fb043", "is_disabled": 0, "lat": 38.90571583333333, "rental_uris": {"ios": "https://dc.lft.to/lastmile_qr_scan", "android": "https://dc.lft.to/lastmile_qr_scan"}, "is_reserved": 0, "lon": -77.0295445, "fusion_lat": 0.0, "name": "6bfa11a8fd13c189ed0dd3e7fe8fb043"}, {"type": "electric_scooter", "fusion_lon": 0.0, "bike_id": "4c2cd4f5b255e12f255f597c9b433fba", "is_disabled": 0, "lat": 38.92627733333333, "rental_uris": {"ios": "https://dc.lft.to/lastmile_qr_scan", "android": "https://dc.lft.to/lastmile_qr_scan"}, "is_reserved": 0, "lon": -77.0226175, "fusion_lat": 0.0, "name": "4c2cd4f5b255e12f255f597c9b433fba"}, {"type": "electric_scooter", "fusion_lon": 0.0, "bike_id": "774af878d771f24ccc5be028a9ceb579", "is_disabled": 0, "lat": 38.900285333333336, "rental_uris": {"ios": "https://dc.lft.to/lastmile_qr_scan", "android": "https://dc.lft.to/lastmile_qr_scan"}, "is_reserved": 0, "lon": -76.99745216666666, "fusion_lat": 0.0, "name": "774af878d771f24ccc5be028a9ceb579"}, {"type": "electric_scooter", "fusion_lon": 0.0, "bike_id": "eebfe74c206ea602ceaf90a128e95fe7", "is_disabled": 0, "lat": 38.92454216666667, "rental_uris": {"ios": "https://dc.lft.to/lastmile_qr_scan", "android": "https://dc.lft.to/lastmile_qr_scan"}, "is_reserved": 0, "lon": -77.04034333333334, "fusion_lat": 0.0, "name": "eebfe74c206ea602ceaf90a128e95fe7"}, {"type": "electric_scooter", "fusion_lon": 0.0, "bike_id": "85112e99e0edcf0c201171ebd8db0097", "is_disabled": 0, "lat": 38.8953315, "rental_uris": {"ios": "https://dc.lft.to/lastmile_qr_scan", "android": "https://dc.lft.to/lastmile_qr_scan"}, "is_reserved": 0, "lon": -77.01611683333333, "fusion_lat": 0.0, "name": "85112e99e0edcf0c201171ebd8db0097"}, {"type": "electric_scooter", "fusion_lon": 0.0, "bike_id": "dbdb6f1d56dc6bb3489e280744e1543a", "is_disabled": 0, "lat": 38.90779283333333, "rental_uris": {"ios": "https://dc.lft.to/lastmile_qr_scan", "android": "https://dc.lft.to/lastmile_qr_scan"}, "is_reserved": 0, "lon": -77.07170266666667, "fusion_lat": 0.0, "name": "dbdb6f1d56dc6bb3489e280744e1543a"}, {"type": "electric_scooter", "fusion_lon": 0.0, "bike_id": "29ad447b7476099a6fb7a7a5817aced5", "is_disabled": 0, "lat": 38.892278, "rental_uris": {"ios": "https://dc.lft.to/lastmile_qr_scan", "android": "https://dc.lft.to/lastmile_qr_scan"}, "is_reserved": 0, "lon": -77.024174, "fusion_lat": 0.0, "name": "29ad447b7476099a6fb7a7a5817aced5"}, {"type": "electric_scooter", "fusion_lon": 0.0, "bike_id": "62d3cde293d27aadb8292f55765bf55b", "is_disabled": 0, "lat": 38.90240166666667, "rental_uris": {"ios": "https://dc.lft.to/lastmile_qr_scan", "android": "https://dc.lft.to/lastmile_qr_scan"}, "is_reserved": 0, "lon": -77.043365, "fusion_lat": 0.0, "name": "62d3cde293d27aadb8292f55765bf55b"}, {"type": "electric_scooter", "fusion_lon": 0.0, "bike_id": "83a18e42aec4df7121295584f5ad032b", "is_disabled": 0, "lat": 38.923437166666666, "rental_uris": {"ios": "https://dc.lft.to/lastmile_qr_scan", "android": "https://dc.lft.to/lastmile_qr_scan"}, "is_reserved": 0, "lon": -77.01904, "fusion_lat": 0.0, "name": "83a18e42aec4df7121295584f5ad032b"}, {"type": "electric_scooter", "fusion_lon": 0.0, "bike_id": "44af15315ae1000b7df5a9325a62168e", "is_disabled": 0, "lat": 38.91996616666667, "rental_uris": {"ios": "https://dc.lft.to/lastmile_qr_scan", "android": "https://dc.lft.to/lastmile_qr_scan"}, "is_reserved": 0, "lon": -77.02385, "fusion_lat": 0.0, "name": "44af15315ae1000b7df5a9325a62168e"}, {"type": "electric_scooter", "fusion_lon": 0.0, "bike_id": "50312f55ab3d0835709b6a95a0d94f1d", "is_disabled": 0, "lat": 38.93323933333333, "rental_uris": {"ios": "https://dc.lft.to/lastmile_qr_scan", "android": "https://dc.lft.to/lastmile_qr_scan"}, "is_reserved": 0, "lon": -77.02926333333333, "fusion_lat": 0.0, "name": "50312f55ab3d0835709b6a95a0d94f1d"}, {"type": "electric_scooter", "fusion_lon": 0.0, "bike_id": "f7502118f7de9fc38167a7f5d5b65ab4", "is_disabled": 0, "lat": 38.8766265, "rental_uris": {"ios": "https://dc.lft.to/lastmile_qr_scan", "android": "https://dc.lft.to/lastmile_qr_scan"}, "is_reserved": 0, "lon": -77.00286633333333, "fusion_lat": 0.0, "name": "f7502118f7de9fc38167a7f5d5b65ab4"}, {"type": "electric_scooter", "fusion_lon": 0.0, "bike_id": "8b161cb1a56b9a60a626ddaea7d6944b", "is_disabled": 0, "lat": 38.884881, "rental_uris": {"ios": "https://dc.lft.to/lastmile_qr_scan", "android": "https://dc.lft.to/lastmile_qr_scan"}, "is_reserved": 0, "lon": -77.03474216666666, "fusion_lat": 0.0, "name": "8b161cb1a56b9a60a626ddaea7d6944b"}, {"type": "electric_scooter", "fusion_lon": 0.0, "bike_id": "838656d75578f449d53a6959608d5a61", "is_disabled": 0, "lat": 38.92303166666667, "rental_uris": {"ios": "https://dc.lft.to/lastmile_qr_scan", "android": "https://dc.lft.to/lastmile_qr_scan"}, "is_reserved": 0, "lon": -77.02323716666666, "fusion_lat": 0.0, "name": "838656d75578f449d53a6959608d5a61"}, {"type": "electric_scooter", "fusion_lon": 0.0, "bike_id": "8f4707c49bd7eee54837c1ce06b04d2d", "is_disabled": 0, "lat": 38.913204666666665, "rental_uris": {"ios": "https://dc.lft.to/lastmile_qr_scan", "android": "https://dc.lft.to/lastmile_qr_scan"}, "is_reserved": 0, "lon": -77.047026, "fusion_lat": 0.0, "name": "8f4707c49bd7eee54837c1ce06b04d2d"}, {"type": "electric_scooter", "fusion_lon": 0.0, "bike_id": "ca55451ba69f64d48d282f623ae2dd1d", "is_disabled": 0, "lat": 38.91426, "rental_uris": {"ios": "https://dc.lft.to/lastmile_qr_scan", "android": "https://dc.lft.to/lastmile_qr_scan"}, "is_reserved": 0, "lon": -77.04590933333333, "fusion_lat": 0.0, "name": "ca55451ba69f64d48d282f623ae2dd1d"}, {"type": "electric_scooter", "fusion_lon": 0.0, "bike_id": "3b7d7154d817bed908ef80ca978010e6", "is_disabled": 0, "lat": 38.918220166666664, "rental_uris": {"ios": "https://dc.lft.to/lastmile_qr_scan", "android": "https://dc.lft.to/lastmile_qr_scan"}, "is_reserved": 0, "lon": -77.0317525, "fusion_lat": 0.0, "name": "3b7d7154d817bed908ef80ca978010e6"}, {"type": "electric_scooter", "fusion_lon": 0.0, "bike_id": "10a0f3ea0015db46388eadc2d4203426", "is_disabled": 0, "lat": 38.918743166666665, "rental_uris": {"ios": "https://dc.lft.to/lastmile_qr_scan", "android": "https://dc.lft.to/lastmile_qr_scan"}, "is_reserved": 0, "lon": -77.04483533333334, "fusion_lat": 0.0, "name": "10a0f3ea0015db46388eadc2d4203426"}, {"type": "electric_scooter", "fusion_lon": 0.0, "bike_id": "100885469942aa64af88f9ed79c6b1f4", "is_disabled": 0, "lat": 38.90469266666667, "rental_uris": {"ios": "https://dc.lft.to/lastmile_qr_scan", "android": "https://dc.lft.to/lastmile_qr_scan"}, "is_reserved": 0, "lon": -76.99500366666666, "fusion_lat": 0.0, "name": "100885469942aa64af88f9ed79c6b1f4"}, {"type": "electric_scooter", "fusion_lon": 0.0, "bike_id": "dc1fc80047976ce717190ffeb987b873", "is_disabled": 0, "lat": 38.919237, "rental_uris": {"ios": "https://dc.lft.to/lastmile_qr_scan", "android": "https://dc.lft.to/lastmile_qr_scan"}, "is_reserved": 0, "lon": -77.07936666666667, "fusion_lat": 0.0, "name": "dc1fc80047976ce717190ffeb987b873"}, {"type": "electric_scooter", "fusion_lon": 0.0, "bike_id": "e1e3328d9cbf952dae88a0e05ecdd704", "is_disabled": 0, "lat": 38.9274785, "rental_uris": {"ios": "https://dc.lft.to/lastmile_qr_scan", "android": "https://dc.lft.to/lastmile_qr_scan"}, "is_reserved": 0, "lon": -77.02536833333333, "fusion_lat": 0.0, "name": "e1e3328d9cbf952dae88a0e05ecdd704"}, {"type": "electric_scooter", "fusion_lon": 0.0, "bike_id": "e6c9a88684f9190d552cc5fd306b21ab", "is_disabled": 0, "lat": 38.90268783333333, "rental_uris": {"ios": "https://dc.lft.to/lastmile_qr_scan", "android": "https://dc.lft.to/lastmile_qr_scan"}, "is_reserved": 0, "lon": -77.02722266666666, "fusion_lat": 0.0, "name": "e6c9a88684f9190d552cc5fd306b21ab"}, {"type": "electric_scooter", "fusion_lon": 0.0, "bike_id": "990e401d62fae57c2ae462fb692ee182", "is_disabled": 0, "lat": 38.90412583333333, "rental_uris": {"ios": "https://dc.lft.to/lastmile_qr_scan", "android": "https://dc.lft.to/lastmile_qr_scan"}, "is_reserved": 0, "lon": -76.97327866666667, "fusion_lat": 0.0, "name": "990e401d62fae57c2ae462fb692ee182"}, {"type": "electric_scooter", "fusion_lon": 0.0, "bike_id": "ae4fee6a34ba72cc7fb7df4be668678d", "is_disabled": 0, "lat": 38.9043635, "rental_uris": {"ios": "https://dc.lft.to/lastmile_qr_scan", "android": "https://dc.lft.to/lastmile_qr_scan"}, "is_reserved": 0, "lon": -77.0342795, "fusion_lat": 0.0, "name": "ae4fee6a34ba72cc7fb7df4be668678d"}, {"type": "electric_scooter", "fusion_lon": 0.0, "bike_id": "a6c1ae88b4c6ed59ea836f9403ddedbd", "is_disabled": 0, "lat": 38.8998945, "rental_uris": {"ios": "https://dc.lft.to/lastmile_qr_scan", "android": "https://dc.lft.to/lastmile_qr_scan"}, "is_reserved": 0, "lon": -77.02437733333333, "fusion_lat": 0.0, "name": "a6c1ae88b4c6ed59ea836f9403ddedbd"}, {"type": "electric_scooter", "fusion_lon": 0.0, "bike_id": "4ad73a4873c921c63873376d13bc67fc", "is_disabled": 0, "lat": 38.92046783333333, "rental_uris": {"ios": "https://dc.lft.to/lastmile_qr_scan", "android": "https://dc.lft.to/lastmile_qr_scan"}, "is_reserved": 0, "lon": -77.01667283333333, "fusion_lat": 0.0, "name": "4ad73a4873c921c63873376d13bc67fc"}, {"type": "electric_scooter", "fusion_lon": 0.0, "bike_id": "e202e52dc4eec287d0617bb3357e3ece", "is_disabled": 0, "lat": 38.883462, "rental_uris": {"ios": "https://dc.lft.to/lastmile_qr_scan", "android": "https://dc.lft.to/lastmile_qr_scan"}, "is_reserved": 0, "lon": -76.93499783333333, "fusion_lat": 0.0, "name": "e202e52dc4eec287d0617bb3357e3ece"}, {"type": "electric_scooter", "fusion_lon": 0.0, "bike_id": "b6c454838f062ae4448b78a61b67177a", "is_disabled": 0, "lat": 38.901470833333335, "rental_uris": {"ios": "https://dc.lft.to/lastmile_qr_scan", "android": "https://dc.lft.to/lastmile_qr_scan"}, "is_reserved": 0, "lon": -77.044216, "fusion_lat": 0.0, "name": "b6c454838f062ae4448b78a61b67177a"}, {"type": "electric_scooter", "fusion_lon": 0.0, "bike_id": "90af79f6a8f33971f4db284a6376dfac", "is_disabled": 0, "lat": 38.90337183333333, "rental_uris": {"ios": "https://dc.lft.to/lastmile_qr_scan", "android": "https://dc.lft.to/lastmile_qr_scan"}, "is_reserved": 0, "lon": -77.03821616666667, "fusion_lat": 0.0, "name": "90af79f6a8f33971f4db284a6376dfac"}, {"type": "electric_scooter", "fusion_lon": 0.0, "bike_id": "0ea0806bdc05a3aafb711fcbf3086063", "is_disabled": 0, "lat": 38.918938833333335, "rental_uris": {"ios": "https://dc.lft.to/lastmile_qr_scan", "android": "https://dc.lft.to/lastmile_qr_scan"}, "is_reserved": 0, "lon": -77.03816133333333, "fusion_lat": 0.0, "name": "0ea0806bdc05a3aafb711fcbf3086063"}, {"type": "electric_scooter", "fusion_lon": 0.0, "bike_id": "ccd525d35dff6a74d0c360aaccd24fc1", "is_disabled": 0, "lat": 38.90912466666666, "rental_uris": {"ios": "https://dc.lft.to/lastmile_qr_scan", "android": "https://dc.lft.to/lastmile_qr_scan"}, "is_reserved": 0, "lon": -77.07265833333334, "fusion_lat": 0.0, "name": "ccd525d35dff6a74d0c360aaccd24fc1"}, {"type": "electric_scooter", "fusion_lon": 0.0, "bike_id": "02415c38c9c06b6c3e2102b40fb9268d", "is_disabled": 0, "lat": 38.904829166666666, "rental_uris": {"ios": "https://dc.lft.to/lastmile_qr_scan", "android": "https://dc.lft.to/lastmile_qr_scan"}, "is_reserved": 0, "lon": -77.04859616666667, "fusion_lat": 0.0, "name": "02415c38c9c06b6c3e2102b40fb9268d"}, {"type": "electric_scooter", "fusion_lon": 0.0, "bike_id": "639c9abe09e9a5c7678732bf641641cd", "is_disabled": 0, "lat": 38.8738565, "rental_uris": {"ios": "https://dc.lft.to/lastmile_qr_scan", "android": "https://dc.lft.to/lastmile_qr_scan"}, "is_reserved": 0, "lon": -77.00130916666667, "fusion_lat": 0.0, "name": "639c9abe09e9a5c7678732bf641641cd"}, {"type": "electric_scooter", "fusion_lon": 0.0, "bike_id": "da0e232203d1a3fed806ac7be91c5e26", "is_disabled": 0, "lat": 38.8998005, "rental_uris": {"ios": "https://dc.lft.to/lastmile_qr_scan", "android": "https://dc.lft.to/lastmile_qr_scan"}, "is_reserved": 0, "lon": -77.02103216666667, "fusion_lat": 0.0, "name": "da0e232203d1a3fed806ac7be91c5e26"}, {"type": "electric_scooter", "fusion_lon": 0.0, "bike_id": "634237a9e29b6751aacdf75f18c6e0f3", "is_disabled": 0, "lat": 38.9339995, "rental_uris": {"ios": "https://dc.lft.to/lastmile_qr_scan", "android": "https://dc.lft.to/lastmile_qr_scan"}, "is_reserved": 0, "lon": -77.05740866666666, "fusion_lat": 0.0, "name": "634237a9e29b6751aacdf75f18c6e0f3"}, {"type": "electric_scooter", "fusion_lon": 0.0, "bike_id": "35c21dcb1ebd2b0603e6320c2ab10fe5", "is_disabled": 0, "lat": 38.883723333333336, "rental_uris": {"ios": "https://dc.lft.to/lastmile_qr_scan", "android": "https://dc.lft.to/lastmile_qr_scan"}, "is_reserved": 0, "lon": -76.95708133333333, "fusion_lat": 0.0, "name": "35c21dcb1ebd2b0603e6320c2ab10fe5"}, {"type": "electric_scooter", "fusion_lon": 0.0, "bike_id": "e5e0944ff52d468c7b2de027497da6d9", "is_disabled": 0, "lat": 38.90960466666667, "rental_uris": {"ios": "https://dc.lft.to/lastmile_qr_scan", "android": "https://dc.lft.to/lastmile_qr_scan"}, "is_reserved": 0, "lon": -77.00739316666666, "fusion_lat": 0.0, "name": "e5e0944ff52d468c7b2de027497da6d9"}, {"type": "electric_scooter", "fusion_lon": 0.0, "bike_id": "6ef34e138cffa9cc448cf1faf234c072", "is_disabled": 0, "lat": 38.90997683333333, "rental_uris": {"ios": "https://dc.lft.to/lastmile_qr_scan", "android": "https://dc.lft.to/lastmile_qr_scan"}, "is_reserved": 0, "lon": -77.0400255, "fusion_lat": 0.0, "name": "6ef34e138cffa9cc448cf1faf234c072"}, {"type": "electric_scooter", "fusion_lon": 0.0, "bike_id": "d96d311eb8f28a75960152ca19a904f9", "is_disabled": 0, "lat": 38.904185, "rental_uris": {"ios": "https://dc.lft.to/lastmile_qr_scan", "android": "https://dc.lft.to/lastmile_qr_scan"}, "is_reserved": 0, "lon": -77.02949083333333, "fusion_lat": 0.0, "name": "d96d311eb8f28a75960152ca19a904f9"}, {"type": "electric_scooter", "fusion_lon": 0.0, "bike_id": "4a70dd8c65cfd131891be5cad86c53c5", "is_disabled": 0, "lat": 38.876615666666666, "rental_uris": {"ios": "https://dc.lft.to/lastmile_qr_scan", "android": "https://dc.lft.to/lastmile_qr_scan"}, "is_reserved": 0, "lon": -77.00939766666667, "fusion_lat": 0.0, "name": "4a70dd8c65cfd131891be5cad86c53c5"}, {"type": "electric_scooter", "fusion_lon": 0.0, "bike_id": "0cc1e0a0a7c996c5d6ccd4eacc48e6fa", "is_disabled": 0, "lat": 38.89803833333333, "rental_uris": {"ios": "https://dc.lft.to/lastmile_qr_scan", "android": "https://dc.lft.to/lastmile_qr_scan"}, "is_reserved": 0, "lon": -76.9794685, "fusion_lat": 0.0, "name": "0cc1e0a0a7c996c5d6ccd4eacc48e6fa"}, {"type": "electric_scooter", "fusion_lon": 0.0, "bike_id": "54f40555e98aebc134f70a834b2a46aa", "is_disabled": 0, "lat": 38.873836833333336, "rental_uris": {"ios": "https://dc.lft.to/lastmile_qr_scan", "android": "https://dc.lft.to/lastmile_qr_scan"}, "is_reserved": 0, "lon": -77.00133283333334, "fusion_lat": 0.0, "name": "54f40555e98aebc134f70a834b2a46aa"}, {"type": "electric_scooter", "fusion_lon": 0.0, "bike_id": "8c0d429d11caeca3206b2c45a3233fea", "is_disabled": 0, "lat": 38.91041033333333, "rental_uris": {"ios": "https://dc.lft.to/lastmile_qr_scan", "android": "https://dc.lft.to/lastmile_qr_scan"}, "is_reserved": 0, "lon": -77.04409533333333, "fusion_lat": 0.0, "name": "8c0d429d11caeca3206b2c45a3233fea"}, {"type": "electric_scooter", "fusion_lon": 0.0, "bike_id": "447a959f1d0e40b50e59734e5d1c151e", "is_disabled": 0, "lat": 38.89221216666667, "rental_uris": {"ios": "https://dc.lft.to/lastmile_qr_scan", "android": "https://dc.lft.to/lastmile_qr_scan"}, "is_reserved": 0, "lon": -77.02619016666667, "fusion_lat": 0.0, "name": "447a959f1d0e40b50e59734e5d1c151e"}, {"type": "electric_scooter", "fusion_lon": 0.0, "bike_id": "f589d6e28c7b8863cef51ef440f95e22", "is_disabled": 0, "lat": 38.908754, "rental_uris": {"ios": "https://dc.lft.to/lastmile_qr_scan", "android": "https://dc.lft.to/lastmile_qr_scan"}, "is_reserved": 0, "lon": -77.04299483333334, "fusion_lat": 0.0, "name": "f589d6e28c7b8863cef51ef440f95e22"}, {"type": "electric_scooter", "fusion_lon": 0.0, "bike_id": "b34c8bf057c175139916b8f4b972118a", "is_disabled": 0, "lat": 38.89955333333333, "rental_uris": {"ios": "https://dc.lft.to/lastmile_qr_scan", "android": "https://dc.lft.to/lastmile_qr_scan"}, "is_reserved": 0, "lon": -77.047934, "fusion_lat": 0.0, "name": "b34c8bf057c175139916b8f4b972118a"}, {"type": "electric_scooter", "fusion_lon": 0.0, "bike_id": "04244f374230324c299d1e7bbdd0e3fb", "is_disabled": 0, "lat": 38.89665466666667, "rental_uris": {"ios": "https://dc.lft.to/lastmile_qr_scan", "android": "https://dc.lft.to/lastmile_qr_scan"}, "is_reserved": 0, "lon": -77.0273545, "fusion_lat": 0.0, "name": "04244f374230324c299d1e7bbdd0e3fb"}, {"type": "electric_bike", "fusion_lon": 0.0, "bike_id": "1cc247b37a26fae04b8614b5aeb0729d", "is_disabled": 0, "lat": 38.97256383333333, "rental_uris": {"ios": "https://dc.lft.to/lastmile_qr_scan", "android": "https://dc.lft.to/lastmile_qr_scan"}, "is_reserved": 0, "lon": -76.98060883333333, "fusion_lat": 0.0, "name": "1cc247b37a26fae04b8614b5aeb0729d"}, {"type": "electric_scooter", "fusion_lon": 0.0, "bike_id": "4ca434db9aee86175f12047fe169b5ac", "is_disabled": 0, "lat": 38.897102333333336, "rental_uris": {"ios": "https://dc.lft.to/lastmile_qr_scan", "android": "https://dc.lft.to/lastmile_qr_scan"}, "is_reserved": 0, "lon": -77.01981983333333, "fusion_lat": 0.0, "name": "4ca434db9aee86175f12047fe169b5ac"}, {"type": "electric_scooter", "fusion_lon": 0.0, "bike_id": "4f0ad958e38f2a4d721f6f3ac8da3ecb", "is_disabled": 0, "lat": 38.912592833333335, "rental_uris": {"ios": "https://dc.lft.to/lastmile_qr_scan", "android": "https://dc.lft.to/lastmile_qr_scan"}, "is_reserved": 0, "lon": -77.0386165, "fusion_lat": 0.0, "name": "4f0ad958e38f2a4d721f6f3ac8da3ecb"}, {"type": "electric_scooter", "fusion_lon": 0.0, "bike_id": "c8ae5df649a29646b035565773e8f948", "is_disabled": 0, "lat": 38.89446983333333, "rental_uris": {"ios": "https://dc.lft.to/lastmile_qr_scan", "android": "https://dc.lft.to/lastmile_qr_scan"}, "is_reserved": 0, "lon": -77.010739, "fusion_lat": 0.0, "name": "c8ae5df649a29646b035565773e8f948"}, {"type": "electric_scooter", "fusion_lon": 0.0, "bike_id": "389a52d727e7555f3d359893dfdddad2", "is_disabled": 0, "lat": 38.92344633333333, "rental_uris": {"ios": "https://dc.lft.to/lastmile_qr_scan", "android": "https://dc.lft.to/lastmile_qr_scan"}, "is_reserved": 0, "lon": -77.051761, "fusion_lat": 0.0, "name": "389a52d727e7555f3d359893dfdddad2"}, {"type": "electric_scooter", "fusion_lon": 0.0, "bike_id": "0e1c4565338def45ab0f5543788de630", "is_disabled": 0, "lat": 38.922523166666664, "rental_uris": {"ios": "https://dc.lft.to/lastmile_qr_scan", "android": "https://dc.lft.to/lastmile_qr_scan"}, "is_reserved": 0, "lon": -77.01946516666666, "fusion_lat": 0.0, "name": "0e1c4565338def45ab0f5543788de630"}, {"type": "electric_scooter", "fusion_lon": 0.0, "bike_id": "0c846715ef3e27be1a3fd6b55dbdabc8", "is_disabled": 0, "lat": 38.908121, "rental_uris": {"ios": "https://dc.lft.to/lastmile_qr_scan", "android": "https://dc.lft.to/lastmile_qr_scan"}, "is_reserved": 0, "lon": -77.03859583333333, "fusion_lat": 0.0, "name": "0c846715ef3e27be1a3fd6b55dbdabc8"}, {"type": "electric_scooter", "fusion_lon": 0.0, "bike_id": "424c9e0808c446f3ab9f8eaa12f4e981", "is_disabled": 0, "lat": 38.905032166666665, "rental_uris": {"ios": "https://dc.lft.to/lastmile_qr_scan", "android": "https://dc.lft.to/lastmile_qr_scan"}, "is_reserved": 0, "lon": -76.97954683333333, "fusion_lat": 0.0, "name": "424c9e0808c446f3ab9f8eaa12f4e981"}, {"type": "electric_scooter", "fusion_lon": 0.0, "bike_id": "d23cf7f78e33dc4d36d39c4e8900a47d", "is_disabled": 0, "lat": 38.884934, "rental_uris": {"ios": "https://dc.lft.to/lastmile_qr_scan", "android": "https://dc.lft.to/lastmile_qr_scan"}, "is_reserved": 0, "lon": -77.0071045, "fusion_lat": 0.0, "name": "d23cf7f78e33dc4d36d39c4e8900a47d"}, {"type": "electric_bike", "fusion_lon": 0.0, "bike_id": "27f7e3df05dc038c8303e16bb75df9a0", "is_disabled": 0, "lat": 38.9097265, "rental_uris": {"ios": "https://dc.lft.to/lastmile_qr_scan", "android": "https://dc.lft.to/lastmile_qr_scan"}, "is_reserved": 0, "lon": -77.08820716666666, "fusion_lat": 0.0, "name": "27f7e3df05dc038c8303e16bb75df9a0"}, {"type": "electric_scooter", "fusion_lon": 0.0, "bike_id": "92bd8e8dd2e208c2860b290a16b4c935", "is_disabled": 0, "lat": 38.9071085, "rental_uris": {"ios": "https://dc.lft.to/lastmile_qr_scan", "android": "https://dc.lft.to/lastmile_qr_scan"}, "is_reserved": 0, "lon": -76.98553766666667, "fusion_lat": 0.0, "name": "92bd8e8dd2e208c2860b290a16b4c935"}, {"type": "electric_scooter", "fusion_lon": 0.0, "bike_id": "63d69d3ca5d6bcd71d23c39b554fe669", "is_disabled": 0, "lat": 38.876474, "rental_uris": {"ios": "https://dc.lft.to/lastmile_qr_scan", "android": "https://dc.lft.to/lastmile_qr_scan"}, "is_reserved": 0, "lon": -76.96503916666667, "fusion_lat": 0.0, "name": "63d69d3ca5d6bcd71d23c39b554fe669"}, {"type": "electric_scooter", "fusion_lon": 0.0, "bike_id": "7c03df565fd0d774072f01871cc91690", "is_disabled": 0, "lat": 38.906422166666665, "rental_uris": {"ios": "https://dc.lft.to/lastmile_qr_scan", "android": "https://dc.lft.to/lastmile_qr_scan"}, "is_reserved": 0, "lon": -77.04243766666667, "fusion_lat": 0.0, "name": "7c03df565fd0d774072f01871cc91690"}, {"type": "electric_scooter", "fusion_lon": 0.0, "bike_id": "670f0b56140bb0ea22e05b17dda33f45", "is_disabled": 0, "lat": 38.904762, "rental_uris": {"ios": "https://dc.lft.to/lastmile_qr_scan", "android": "https://dc.lft.to/lastmile_qr_scan"}, "is_reserved": 0, "lon": -77.00589316666667, "fusion_lat": 0.0, "name": "670f0b56140bb0ea22e05b17dda33f45"}, {"type": "electric_scooter", "fusion_lon": 0.0, "bike_id": "db1d8a3dc896ebc87fb829b86ada4b0f", "is_disabled": 0, "lat": 38.93281866666667, "rental_uris": {"ios": "https://dc.lft.to/lastmile_qr_scan", "android": "https://dc.lft.to/lastmile_qr_scan"}, "is_reserved": 0, "lon": -77.04081783333334, "fusion_lat": 0.0, "name": "db1d8a3dc896ebc87fb829b86ada4b0f"}, {"type": "electric_scooter", "fusion_lon": 0.0, "bike_id": "e2ee3ea288b7ea5d4b86e2947a583213", "is_disabled": 0, "lat": 38.938275, "rental_uris": {"ios": "https://dc.lft.to/lastmile_qr_scan", "android": "https://dc.lft.to/lastmile_qr_scan"}, "is_reserved": 0, "lon": -76.9892185, "fusion_lat": 0.0, "name": "e2ee3ea288b7ea5d4b86e2947a583213"}, {"type": "electric_scooter", "fusion_lon": 0.0, "bike_id": "44a5ee0effc4dcd8c7713735ddba3d2b", "is_disabled": 0, "lat": 38.89692083333333, "rental_uris": {"ios": "https://dc.lft.to/lastmile_qr_scan", "android": "https://dc.lft.to/lastmile_qr_scan"}, "is_reserved": 0, "lon": -77.01974016666667, "fusion_lat": 0.0, "name": "44a5ee0effc4dcd8c7713735ddba3d2b"}, {"type": "electric_scooter", "fusion_lon": 0.0, "bike_id": "294cc793b0691b59b48b32414cd13881", "is_disabled": 0, "lat": 38.89921016666667, "rental_uris": {"ios": "https://dc.lft.to/lastmile_qr_scan", "android": "https://dc.lft.to/lastmile_qr_scan"}, "is_reserved": 0, "lon": -76.9337405, "fusion_lat": 0.0, "name": "294cc793b0691b59b48b32414cd13881"}, {"type": "electric_scooter", "fusion_lon": 0.0, "bike_id": "69c4c71f60d7b10b5e089be8c6ba97ba", "is_disabled": 0, "lat": 38.91027866666667, "rental_uris": {"ios": "https://dc.lft.to/lastmile_qr_scan", "android": "https://dc.lft.to/lastmile_qr_scan"}, "is_reserved": 0, "lon": -77.0321015, "fusion_lat": 0.0, "name": "69c4c71f60d7b10b5e089be8c6ba97ba"}, {"type": "electric_scooter", "fusion_lon": 0.0, "bike_id": "122ee9ef1fc1409dfb23d5df0b6c3a79", "is_disabled": 0, "lat": 38.9441635, "rental_uris": {"ios": "https://dc.lft.to/lastmile_qr_scan", "android": "https://dc.lft.to/lastmile_qr_scan"}, "is_reserved": 0, "lon": -77.00498333333333, "fusion_lat": 0.0, "name": "122ee9ef1fc1409dfb23d5df0b6c3a79"}, {"type": "electric_scooter", "fusion_lon": 0.0, "bike_id": "7f7736eedc4bd1f70b0305b4feff22cc", "is_disabled": 0, "lat": 38.899598166666664, "rental_uris": {"ios": "https://dc.lft.to/lastmile_qr_scan", "android": "https://dc.lft.to/lastmile_qr_scan"}, "is_reserved": 0, "lon": -76.989053, "fusion_lat": 0.0, "name": "7f7736eedc4bd1f70b0305b4feff22cc"}, {"type": "electric_bike", "fusion_lon": 0.0, "bike_id": "8119686e901d3a448207ee1d592e4933", "is_disabled": 0, "lat": 38.88304333333333, "rental_uris": {"ios": "https://dc.lft.to/lastmile_qr_scan", "android": "https://dc.lft.to/lastmile_qr_scan"}, "is_reserved": 0, "lon": -76.94973716666667, "fusion_lat": 0.0, "name": "8119686e901d3a448207ee1d592e4933"}, {"type": "electric_scooter", "fusion_lon": 0.0, "bike_id": "81df6aba1dd2494db2fc51f2122841ff", "is_disabled": 0, "lat": 38.89225483333333, "rental_uris": {"ios": "https://dc.lft.to/lastmile_qr_scan", "android": "https://dc.lft.to/lastmile_qr_scan"}, "is_reserved": 0, "lon": -77.02619733333333, "fusion_lat": 0.0, "name": "81df6aba1dd2494db2fc51f2122841ff"}, {"type": "electric_scooter", "fusion_lon": 0.0, "bike_id": "80933fad68bf9f9e3a2e2b2d84dbacca", "is_disabled": 0, "lat": 38.859497, "rental_uris": {"ios": "https://dc.lft.to/lastmile_qr_scan", "android": "https://dc.lft.to/lastmile_qr_scan"}, "is_reserved": 0, "lon": -76.95875883333333, "fusion_lat": 0.0, "name": "80933fad68bf9f9e3a2e2b2d84dbacca"}, {"type": "electric_scooter", "fusion_lon": 0.0, "bike_id": "1a56b042c5d951698ddb9a7e306dbd5f", "is_disabled": 0, "lat": 38.903624, "rental_uris": {"ios": "https://dc.lft.to/lastmile_qr_scan", "android": "https://dc.lft.to/lastmile_qr_scan"}, "is_reserved": 0, "lon": -77.03410633333333, "fusion_lat": 0.0, "name": "1a56b042c5d951698ddb9a7e306dbd5f"}, {"type": "electric_scooter", "fusion_lon": 0.0, "bike_id": "dabe67c2f72b4e6b66f60bddd9e35999", "is_disabled": 0, "lat": 38.92112733333333, "rental_uris": {"ios": "https://dc.lft.to/lastmile_qr_scan", "android": "https://dc.lft.to/lastmile_qr_scan"}, "is_reserved": 0, "lon": -77.04826316666667, "fusion_lat": 0.0, "name": "dabe67c2f72b4e6b66f60bddd9e35999"}, {"type": "electric_scooter", "fusion_lon": 0.0, "bike_id": "8b2e20458963ecd23cba7fe5cd65eb36", "is_disabled": 0, "lat": 38.92327083333333, "rental_uris": {"ios": "https://dc.lft.to/lastmile_qr_scan", "android": "https://dc.lft.to/lastmile_qr_scan"}, "is_reserved": 0, "lon": -77.01954583333334, "fusion_lat": 0.0, "name": "8b2e20458963ecd23cba7fe5cd65eb36"}, {"type": "electric_scooter", "fusion_lon": 0.0, "bike_id": "0150c5925c7b34c0f0b18c0389b9fd45", "is_disabled": 0, "lat": 38.900035333333335, "rental_uris": {"ios": "https://dc.lft.to/lastmile_qr_scan", "android": "https://dc.lft.to/lastmile_qr_scan"}, "is_reserved": 0, "lon": -77.03364166666667, "fusion_lat": 0.0, "name": "0150c5925c7b34c0f0b18c0389b9fd45"}, {"type": "electric_scooter", "fusion_lon": 0.0, "bike_id": "d0ce19dfee80e255e6254d9b007f0d9a", "is_disabled": 0, "lat": 38.9105675, "rental_uris": {"ios": "https://dc.lft.to/lastmile_qr_scan", "android": "https://dc.lft.to/lastmile_qr_scan"}, "is_reserved": 0, "lon": -77.02653366666667, "fusion_lat": 0.0, "name": "d0ce19dfee80e255e6254d9b007f0d9a"}, {"type": "electric_scooter", "fusion_lon": 0.0, "bike_id": "e73b6725cd7bbc9fde161018181b2112", "is_disabled": 0, "lat": 38.90646183333333, "rental_uris": {"ios": "https://dc.lft.to/lastmile_qr_scan", "android": "https://dc.lft.to/lastmile_qr_scan"}, "is_reserved": 0, "lon": -77.01139833333333, "fusion_lat": 0.0, "name": "e73b6725cd7bbc9fde161018181b2112"}, {"type": "electric_scooter", "fusion_lon": 0.0, "bike_id": "79f8898ec5aae9033cc684287cfda1d2", "is_disabled": 0, "lat": 38.930457833333335, "rental_uris": {"ios": "https://dc.lft.to/lastmile_qr_scan", "android": "https://dc.lft.to/lastmile_qr_scan"}, "is_reserved": 0, "lon": -77.02498666666666, "fusion_lat": 0.0, "name": "79f8898ec5aae9033cc684287cfda1d2"}, {"type": "electric_scooter", "fusion_lon": 0.0, "bike_id": "ac22abe4a705c0c0d5337419d1a96c84", "is_disabled": 0, "lat": 38.914986999999996, "rental_uris": {"ios": "https://dc.lft.to/lastmile_qr_scan", "android": "https://dc.lft.to/lastmile_qr_scan"}, "is_reserved": 0, "lon": -76.98373, "fusion_lat": 0.0, "name": "ac22abe4a705c0c0d5337419d1a96c84"}, {"type": "electric_scooter", "fusion_lon": 0.0, "bike_id": "abcd709eeaa82a4d82bf1a5daa8aada6", "is_disabled": 0, "lat": 38.927651, "rental_uris": {"ios": "https://dc.lft.to/lastmile_qr_scan", "android": "https://dc.lft.to/lastmile_qr_scan"}, "is_reserved": 0, "lon": -77.02321033333334, "fusion_lat": 0.0, "name": "abcd709eeaa82a4d82bf1a5daa8aada6"}, {"type": "electric_bike", "fusion_lon": 0.0, "bike_id": "d77b1f1b38c67d3a1b93749130f40fe2", "is_disabled": 0, "lat": 38.944760333333335, "rental_uris": {"ios": "https://dc.lft.to/lastmile_qr_scan", "android": "https://dc.lft.to/lastmile_qr_scan"}, "is_reserved": 0, "lon": -76.986867, "fusion_lat": 0.0, "name": "d77b1f1b38c67d3a1b93749130f40fe2"}, {"type": "electric_scooter", "fusion_lon": 0.0, "bike_id": "09ba4d61c28e66b5a179c97734d46ca2", "is_disabled": 0, "lat": 38.90946133333333, "rental_uris": {"ios": "https://dc.lft.to/lastmile_qr_scan", "android": "https://dc.lft.to/lastmile_qr_scan"}, "is_reserved": 0, "lon": -77.0466855, "fusion_lat": 0.0, "name": "09ba4d61c28e66b5a179c97734d46ca2"}, {"type": "electric_scooter", "fusion_lon": 0.0, "bike_id": "da6baecdbdabc336a432525892c88a54", "is_disabled": 0, "lat": 38.907160833333336, "rental_uris": {"ios": "https://dc.lft.to/lastmile_qr_scan", "android": "https://dc.lft.to/lastmile_qr_scan"}, "is_reserved": 0, "lon": -77.02180166666666, "fusion_lat": 0.0, "name": "da6baecdbdabc336a432525892c88a54"}, {"type": "electric_scooter", "fusion_lon": 0.0, "bike_id": "2322856647f7f828180311f5c7f28f67", "is_disabled": 0, "lat": 38.906092666666666, "rental_uris": {"ios": "https://dc.lft.to/lastmile_qr_scan", "android": "https://dc.lft.to/lastmile_qr_scan"}, "is_reserved": 0, "lon": -77.04344366666666, "fusion_lat": 0.0, "name": "2322856647f7f828180311f5c7f28f67"}, {"type": "electric_bike", "fusion_lon": 0.0, "bike_id": "10ae8eb038c7bd50029d22212f172f23", "is_disabled": 0, "lat": 38.81917166666667, "rental_uris": {"ios": "https://dc.lft.to/lastmile_qr_scan", "android": "https://dc.lft.to/lastmile_qr_scan"}, "is_reserved": 0, "lon": -77.12651916666667, "fusion_lat": 0.0, "name": "10ae8eb038c7bd50029d22212f172f23"}, {"type": "electric_scooter", "fusion_lon": 0.0, "bike_id": "2c04f73c4be95eb97031f585210435b4", "is_disabled": 0, "lat": 38.88711383333333, "rental_uris": {"ios": "https://dc.lft.to/lastmile_qr_scan", "android": "https://dc.lft.to/lastmile_qr_scan"}, "is_reserved": 0, "lon": -77.02811283333334, "fusion_lat": 0.0, "name": "2c04f73c4be95eb97031f585210435b4"}, {"type": "electric_scooter", "fusion_lon": 0.0, "bike_id": "08b4393529d869404ff699e32a968bfd", "is_disabled": 0, "lat": 38.92614433333333, "rental_uris": {"ios": "https://dc.lft.to/lastmile_qr_scan", "android": "https://dc.lft.to/lastmile_qr_scan"}, "is_reserved": 0, "lon": -77.02160183333334, "fusion_lat": 0.0, "name": "08b4393529d869404ff699e32a968bfd"}, {"type": "electric_scooter", "fusion_lon": 0.0, "bike_id": "15934b68edeacc7d88928caff1fcf231", "is_disabled": 0, "lat": 38.8546475, "rental_uris": {"ios": "https://dc.lft.to/lastmile_qr_scan", "android": "https://dc.lft.to/lastmile_qr_scan"}, "is_reserved": 0, "lon": -76.97245433333333, "fusion_lat": 0.0, "name": "15934b68edeacc7d88928caff1fcf231"}, {"type": "electric_scooter", "fusion_lon": 0.0, "bike_id": "042211807ce493558970bec8d7ebd55e", "is_disabled": 0, "lat": 38.9330475, "rental_uris": {"ios": "https://dc.lft.to/lastmile_qr_scan", "android": "https://dc.lft.to/lastmile_qr_scan"}, "is_reserved": 0, "lon": -77.035877, "fusion_lat": 0.0, "name": "042211807ce493558970bec8d7ebd55e"}, {"type": "electric_scooter", "fusion_lon": 0.0, "bike_id": "f1e46e148d663be3b1eea9c67b8ec08b", "is_disabled": 0, "lat": 38.927907833333336, "rental_uris": {"ios": "https://dc.lft.to/lastmile_qr_scan", "android": "https://dc.lft.to/lastmile_qr_scan"}, "is_reserved": 0, "lon": -77.0314825, "fusion_lat": 0.0, "name": "f1e46e148d663be3b1eea9c67b8ec08b"}, {"type": "electric_scooter", "fusion_lon": 0.0, "bike_id": "5fec36bc1e867cf43359d09c42cc4dfd", "is_disabled": 0, "lat": 38.8922535, "rental_uris": {"ios": "https://dc.lft.to/lastmile_qr_scan", "android": "https://dc.lft.to/lastmile_qr_scan"}, "is_reserved": 0, "lon": -77.043719, "fusion_lat": 0.0, "name": "5fec36bc1e867cf43359d09c42cc4dfd"}, {"type": "electric_scooter", "fusion_lon": 0.0, "bike_id": "d6817c09164bc42a8442de71b2c2367d", "is_disabled": 0, "lat": 38.95836633333333, "rental_uris": {"ios": "https://dc.lft.to/lastmile_qr_scan", "android": "https://dc.lft.to/lastmile_qr_scan"}, "is_reserved": 0, "lon": -77.08474416666667, "fusion_lat": 0.0, "name": "d6817c09164bc42a8442de71b2c2367d"}, {"type": "electric_scooter", "fusion_lon": 0.0, "bike_id": "b35e9b69b7395273ae0932bdd6d9b2f8", "is_disabled": 0, "lat": 38.900976, "rental_uris": {"ios": "https://dc.lft.to/lastmile_qr_scan", "android": "https://dc.lft.to/lastmile_qr_scan"}, "is_reserved": 0, "lon": -77.02457716666666, "fusion_lat": 0.0, "name": "b35e9b69b7395273ae0932bdd6d9b2f8"}, {"type": "electric_scooter", "fusion_lon": 0.0, "bike_id": "3e6320a7919cd502ce9f56212dcb66e5", "is_disabled": 0, "lat": 38.9197865, "rental_uris": {"ios": "https://dc.lft.to/lastmile_qr_scan", "android": "https://dc.lft.to/lastmile_qr_scan"}, "is_reserved": 0, "lon": -77.02197883333334, "fusion_lat": 0.0, "name": "3e6320a7919cd502ce9f56212dcb66e5"}, {"type": "electric_scooter", "fusion_lon": 0.0, "bike_id": "3394c35ff58595f8a324a96c9e07146a", "is_disabled": 0, "lat": 38.92024033333333, "rental_uris": {"ios": "https://dc.lft.to/lastmile_qr_scan", "android": "https://dc.lft.to/lastmile_qr_scan"}, "is_reserved": 0, "lon": -77.04194533333333, "fusion_lat": 0.0, "name": "3394c35ff58595f8a324a96c9e07146a"}, {"type": "electric_scooter", "fusion_lon": 0.0, "bike_id": "04d8bd7bd0c15c101efd3c9a6791afb0", "is_disabled": 0, "lat": 38.921000666666664, "rental_uris": {"ios": "https://dc.lft.to/lastmile_qr_scan", "android": "https://dc.lft.to/lastmile_qr_scan"}, "is_reserved": 0, "lon": -77.01765616666667, "fusion_lat": 0.0, "name": "04d8bd7bd0c15c101efd3c9a6791afb0"}, {"type": "electric_scooter", "fusion_lon": 0.0, "bike_id": "fcb13ec8a498ef2a8d76c3edec9a7670", "is_disabled": 0, "lat": 38.944553, "rental_uris": {"ios": "https://dc.lft.to/lastmile_qr_scan", "android": "https://dc.lft.to/lastmile_qr_scan"}, "is_reserved": 0, "lon": -77.02801816666667, "fusion_lat": 0.0, "name": "fcb13ec8a498ef2a8d76c3edec9a7670"}, {"type": "electric_scooter", "fusion_lon": 0.0, "bike_id": "81c362cd351b8d83f6b3321358d40725", "is_disabled": 0, "lat": 38.903721166666664, "rental_uris": {"ios": "https://dc.lft.to/lastmile_qr_scan", "android": "https://dc.lft.to/lastmile_qr_scan"}, "is_reserved": 0, "lon": -77.06674166666667, "fusion_lat": 0.0, "name": "81c362cd351b8d83f6b3321358d40725"}, {"type": "electric_scooter", "fusion_lon": 0.0, "bike_id": "5c09640c5a06dbb7dc8c1a7a1614f95f", "is_disabled": 0, "lat": 38.89493483333333, "rental_uris": {"ios": "https://dc.lft.to/lastmile_qr_scan", "android": "https://dc.lft.to/lastmile_qr_scan"}, "is_reserved": 0, "lon": -77.02836383333333, "fusion_lat": 0.0, "name": "5c09640c5a06dbb7dc8c1a7a1614f95f"}, {"type": "electric_scooter", "fusion_lon": 0.0, "bike_id": "f7fc4d3bee5c1fa977702e897def3e86", "is_disabled": 0, "lat": 38.92472466666667, "rental_uris": {"ios": "https://dc.lft.to/lastmile_qr_scan", "android": "https://dc.lft.to/lastmile_qr_scan"}, "is_reserved": 0, "lon": -77.03063916666666, "fusion_lat": 0.0, "name": "f7fc4d3bee5c1fa977702e897def3e86"}, {"type": "electric_scooter", "fusion_lon": 0.0, "bike_id": "831e40183bb579d12bd3b7d562abb899", "is_disabled": 0, "lat": 38.90013783333333, "rental_uris": {"ios": "https://dc.lft.to/lastmile_qr_scan", "android": "https://dc.lft.to/lastmile_qr_scan"}, "is_reserved": 0, "lon": -76.98893983333333, "fusion_lat": 0.0, "name": "831e40183bb579d12bd3b7d562abb899"}, {"type": "electric_scooter", "fusion_lon": 0.0, "bike_id": "8d3df1a1393190f5ec79d676f7c49f01", "is_disabled": 0, "lat": 38.862691166666664, "rental_uris": {"ios": "https://dc.lft.to/lastmile_qr_scan", "android": "https://dc.lft.to/lastmile_qr_scan"}, "is_reserved": 0, "lon": -76.99569616666666, "fusion_lat": 0.0, "name": "8d3df1a1393190f5ec79d676f7c49f01"}, {"type": "electric_scooter", "fusion_lon": 0.0, "bike_id": "5ab050fb4e32e431becd941fd6d8eaac", "is_disabled": 0, "lat": 38.9031915, "rental_uris": {"ios": "https://dc.lft.to/lastmile_qr_scan", "android": "https://dc.lft.to/lastmile_qr_scan"}, "is_reserved": 0, "lon": -77.05173016666667, "fusion_lat": 0.0, "name": "5ab050fb4e32e431becd941fd6d8eaac"}, {"type": "electric_scooter", "fusion_lon": 0.0, "bike_id": "69aab26e437cdea58611c38e64b5db91", "is_disabled": 0, "lat": 38.939000166666666, "rental_uris": {"ios": "https://dc.lft.to/lastmile_qr_scan", "android": "https://dc.lft.to/lastmile_qr_scan"}, "is_reserved": 0, "lon": -77.024869, "fusion_lat": 0.0, "name": "69aab26e437cdea58611c38e64b5db91"}, {"type": "electric_scooter", "fusion_lon": 0.0, "bike_id": "bcab8052effe9115668c4e9721a718a6", "is_disabled": 0, "lat": 38.876656833333335, "rental_uris": {"ios": "https://dc.lft.to/lastmile_qr_scan", "android": "https://dc.lft.to/lastmile_qr_scan"}, "is_reserved": 0, "lon": -77.00286166666666, "fusion_lat": 0.0, "name": "bcab8052effe9115668c4e9721a718a6"}, {"type": "electric_scooter", "fusion_lon": 0.0, "bike_id": "8dd6a95ac75b8f629487c08c151e9728", "is_disabled": 0, "lat": 38.9141625, "rental_uris": {"ios": "https://dc.lft.to/lastmile_qr_scan", "android": "https://dc.lft.to/lastmile_qr_scan"}, "is_reserved": 0, "lon": -77.04148866666667, "fusion_lat": 0.0, "name": "8dd6a95ac75b8f629487c08c151e9728"}, {"type": "electric_scooter", "fusion_lon": 0.0, "bike_id": "383696ee89c3d0804ea15f4b0564c8bf", "is_disabled": 0, "lat": 38.865041, "rental_uris": {"ios": "https://dc.lft.to/lastmile_qr_scan", "android": "https://dc.lft.to/lastmile_qr_scan"}, "is_reserved": 0, "lon": -76.98984566666667, "fusion_lat": 0.0, "name": "383696ee89c3d0804ea15f4b0564c8bf"}, {"type": "electric_bike", "fusion_lon": 0.0, "bike_id": "6a33a5bd6466ba78e173efe3001e1fd7", "is_disabled": 0, "lat": 38.89562266666667, "rental_uris": {"ios": "https://dc.lft.to/lastmile_qr_scan", "android": "https://dc.lft.to/lastmile_qr_scan"}, "is_reserved": 0, "lon": -77.12733816666666, "fusion_lat": 0.0, "name": "6a33a5bd6466ba78e173efe3001e1fd7"}, {"type": "electric_scooter", "fusion_lon": 0.0, "bike_id": "0ec64c1890db08ee8d205eeaaa6e8b1d", "is_disabled": 0, "lat": 38.887417666666664, "rental_uris": {"ios": "https://dc.lft.to/lastmile_qr_scan", "android": "https://dc.lft.to/lastmile_qr_scan"}, "is_reserved": 0, "lon": -77.01529633333334, "fusion_lat": 0.0, "name": "0ec64c1890db08ee8d205eeaaa6e8b1d"}, {"type": "electric_scooter", "fusion_lon": 0.0, "bike_id": "bbdd44c0290f5cca8c5255889c22fc4b", "is_disabled": 0, "lat": 38.89911033333333, "rental_uris": {"ios": "https://dc.lft.to/lastmile_qr_scan", "android": "https://dc.lft.to/lastmile_qr_scan"}, "is_reserved": 0, "lon": -76.93382316666667, "fusion_lat": 0.0, "name": "bbdd44c0290f5cca8c5255889c22fc4b"}, {"type": "electric_scooter", "fusion_lon": 0.0, "bike_id": "f3bdfce3d2d996f5b6065f15e69e3e0e", "is_disabled": 0, "lat": 38.920617666666665, "rental_uris": {"ios": "https://dc.lft.to/lastmile_qr_scan", "android": "https://dc.lft.to/lastmile_qr_scan"}, "is_reserved": 0, "lon": -77.0380575, "fusion_lat": 0.0, "name": "f3bdfce3d2d996f5b6065f15e69e3e0e"}, {"type": "electric_scooter", "fusion_lon": 0.0, "bike_id": "cd89fcf3ca77e30da2ebfef03d384cb7", "is_disabled": 0, "lat": 38.9057255, "rental_uris": {"ios": "https://dc.lft.to/lastmile_qr_scan", "android": "https://dc.lft.to/lastmile_qr_scan"}, "is_reserved": 0, "lon": -77.029572, "fusion_lat": 0.0, "name": "cd89fcf3ca77e30da2ebfef03d384cb7"}, {"type": "electric_scooter", "fusion_lon": 0.0, "bike_id": "0436074c2a8b6f185e82a02fdfe5baaa", "is_disabled": 0, "lat": 38.87725016666667, "rental_uris": {"ios": "https://dc.lft.to/lastmile_qr_scan", "android": "https://dc.lft.to/lastmile_qr_scan"}, "is_reserved": 0, "lon": -77.0175765, "fusion_lat": 0.0, "name": "0436074c2a8b6f185e82a02fdfe5baaa"}, {"type": "electric_scooter", "fusion_lon": 0.0, "bike_id": "be5200cc61bd674f6d535009414ffddc", "is_disabled": 0, "lat": 38.904455666666664, "rental_uris": {"ios": "https://dc.lft.to/lastmile_qr_scan", "android": "https://dc.lft.to/lastmile_qr_scan"}, "is_reserved": 0, "lon": -77.05144366666667, "fusion_lat": 0.0, "name": "be5200cc61bd674f6d535009414ffddc"}, {"type": "electric_scooter", "fusion_lon": 0.0, "bike_id": "390b02a05672aab6f9fe8400d3280b74", "is_disabled": 0, "lat": 38.87867166666667, "rental_uris": {"ios": "https://dc.lft.to/lastmile_qr_scan", "android": "https://dc.lft.to/lastmile_qr_scan"}, "is_reserved": 0, "lon": -76.989287, "fusion_lat": 0.0, "name": "390b02a05672aab6f9fe8400d3280b74"}, {"type": "electric_scooter", "fusion_lon": 0.0, "bike_id": "8eb566e3c87f7f149fd82d7c798118c2", "is_disabled": 0, "lat": 38.92663183333333, "rental_uris": {"ios": "https://dc.lft.to/lastmile_qr_scan", "android": "https://dc.lft.to/lastmile_qr_scan"}, "is_reserved": 0, "lon": -77.0370795, "fusion_lat": 0.0, "name": "8eb566e3c87f7f149fd82d7c798118c2"}, {"type": "electric_scooter", "fusion_lon": 0.0, "bike_id": "5c8fc24c6eeb7a3c63cc6773ea5572b4", "is_disabled": 0, "lat": 38.89559966666667, "rental_uris": {"ios": "https://dc.lft.to/lastmile_qr_scan", "android": "https://dc.lft.to/lastmile_qr_scan"}, "is_reserved": 0, "lon": -77.04674166666666, "fusion_lat": 0.0, "name": "5c8fc24c6eeb7a3c63cc6773ea5572b4"}, {"type": "electric_scooter", "fusion_lon": 0.0, "bike_id": "51010bd0e3f3518bb16dfa65dd314c43", "is_disabled": 0, "lat": 38.90673833333334, "rental_uris": {"ios": "https://dc.lft.to/lastmile_qr_scan", "android": "https://dc.lft.to/lastmile_qr_scan"}, "is_reserved": 0, "lon": -77.0220115, "fusion_lat": 0.0, "name": "51010bd0e3f3518bb16dfa65dd314c43"}, {"type": "electric_scooter", "fusion_lon": 0.0, "bike_id": "2138b5218603241d3657d458bc2f077a", "is_disabled": 0, "lat": 38.8636805, "rental_uris": {"ios": "https://dc.lft.to/lastmile_qr_scan", "android": "https://dc.lft.to/lastmile_qr_scan"}, "is_reserved": 0, "lon": -76.99041483333333, "fusion_lat": 0.0, "name": "2138b5218603241d3657d458bc2f077a"}, {"type": "electric_scooter", "fusion_lon": 0.0, "bike_id": "7f1cef7fd2e31ffbc106eaee29809b6a", "is_disabled": 0, "lat": 38.920528833333336, "rental_uris": {"ios": "https://dc.lft.to/lastmile_qr_scan", "android": "https://dc.lft.to/lastmile_qr_scan"}, "is_reserved": 0, "lon": -77.0418465, "fusion_lat": 0.0, "name": "7f1cef7fd2e31ffbc106eaee29809b6a"}, {"type": "electric_scooter", "fusion_lon": 0.0, "bike_id": "a6cfcf116b64e124397667de0141aa1c", "is_disabled": 0, "lat": 38.92409816666667, "rental_uris": {"ios": "https://dc.lft.to/lastmile_qr_scan", "android": "https://dc.lft.to/lastmile_qr_scan"}, "is_reserved": 0, "lon": -77.02742116666667, "fusion_lat": 0.0, "name": "a6cfcf116b64e124397667de0141aa1c"}, {"type": "electric_scooter", "fusion_lon": 0.0, "bike_id": "3f91ca871e2624bc20acf96fd6c150a3", "is_disabled": 0, "lat": 38.899946666666665, "rental_uris": {"ios": "https://dc.lft.to/lastmile_qr_scan", "android": "https://dc.lft.to/lastmile_qr_scan"}, "is_reserved": 0, "lon": -77.05231933333333, "fusion_lat": 0.0, "name": "3f91ca871e2624bc20acf96fd6c150a3"}, {"type": "electric_scooter", "fusion_lon": 0.0, "bike_id": "e2ab8a0d731f392d17c0b78aff9cb35f", "is_disabled": 0, "lat": 38.8953, "rental_uris": {"ios": "https://dc.lft.to/lastmile_qr_scan", "android": "https://dc.lft.to/lastmile_qr_scan"}, "is_reserved": 0, "lon": -77.04327316666667, "fusion_lat": 0.0, "name": "e2ab8a0d731f392d17c0b78aff9cb35f"}, {"type": "electric_bike", "fusion_lon": 0.0, "bike_id": "05029f98c8751da6c4babc14d19ff858", "is_disabled": 0, "lat": 38.890216833333334, "rental_uris": {"ios": "https://dc.lft.to/lastmile_qr_scan", "android": "https://dc.lft.to/lastmile_qr_scan"}, "is_reserved": 0, "lon": -76.94167816666666, "fusion_lat": 0.0, "name": "05029f98c8751da6c4babc14d19ff858"}, {"type": "electric_scooter", "fusion_lon": 0.0, "bike_id": "876af700ad239f7f6d081b8285b222a1", "is_disabled": 0, "lat": 38.919918, "rental_uris": {"ios": "https://dc.lft.to/lastmile_qr_scan", "android": "https://dc.lft.to/lastmile_qr_scan"}, "is_reserved": 0, "lon": -76.97305666666666, "fusion_lat": 0.0, "name": "876af700ad239f7f6d081b8285b222a1"}, {"type": "electric_scooter", "fusion_lon": 0.0, "bike_id": "62e86ba4e624bd69c0620a7fab0a2179", "is_disabled": 0, "lat": 38.9041005, "rental_uris": {"ios": "https://dc.lft.to/lastmile_qr_scan", "android": "https://dc.lft.to/lastmile_qr_scan"}, "is_reserved": 0, "lon": -77.068128, "fusion_lat": 0.0, "name": "62e86ba4e624bd69c0620a7fab0a2179"}, {"type": "electric_scooter", "fusion_lon": 0.0, "bike_id": "2f183888d8fd4ba5a2e949eec56516fe", "is_disabled": 0, "lat": 38.935330666666665, "rental_uris": {"ios": "https://dc.lft.to/lastmile_qr_scan", "android": "https://dc.lft.to/lastmile_qr_scan"}, "is_reserved": 0, "lon": -77.02354016666666, "fusion_lat": 0.0, "name": "2f183888d8fd4ba5a2e949eec56516fe"}, {"type": "electric_scooter", "fusion_lon": 0.0, "bike_id": "50e96e4e18aa47c862e001834fe4e861", "is_disabled": 0, "lat": 38.92091466666667, "rental_uris": {"ios": "https://dc.lft.to/lastmile_qr_scan", "android": "https://dc.lft.to/lastmile_qr_scan"}, "is_reserved": 0, "lon": -77.042112, "fusion_lat": 0.0, "name": "50e96e4e18aa47c862e001834fe4e861"}, {"type": "electric_scooter", "fusion_lon": 0.0, "bike_id": "ae811d094b3756b6b439f8021d1260e6", "is_disabled": 0, "lat": 38.909490166666664, "rental_uris": {"ios": "https://dc.lft.to/lastmile_qr_scan", "android": "https://dc.lft.to/lastmile_qr_scan"}, "is_reserved": 0, "lon": -77.0465625, "fusion_lat": 0.0, "name": "ae811d094b3756b6b439f8021d1260e6"}, {"type": "electric_scooter", "fusion_lon": 0.0, "bike_id": "bc6a023a62fe4d7b8c223a266f883025", "is_disabled": 0, "lat": 38.900116833333335, "rental_uris": {"ios": "https://dc.lft.to/lastmile_qr_scan", "android": "https://dc.lft.to/lastmile_qr_scan"}, "is_reserved": 0, "lon": -77.00569366666667, "fusion_lat": 0.0, "name": "bc6a023a62fe4d7b8c223a266f883025"}, {"type": "electric_scooter", "fusion_lon": 0.0, "bike_id": "8fac9069987d30cb514ce40a57cb70ff", "is_disabled": 0, "lat": 38.937183, "rental_uris": {"ios": "https://dc.lft.to/lastmile_qr_scan", "android": "https://dc.lft.to/lastmile_qr_scan"}, "is_reserved": 0, "lon": -77.01912966666667, "fusion_lat": 0.0, "name": "8fac9069987d30cb514ce40a57cb70ff"}, {"type": "electric_scooter", "fusion_lon": 0.0, "bike_id": "9ff2bee8846d90542dd72b9645fcfdeb", "is_disabled": 0, "lat": 38.9164525, "rental_uris": {"ios": "https://dc.lft.to/lastmile_qr_scan", "android": "https://dc.lft.to/lastmile_qr_scan"}, "is_reserved": 0, "lon": -76.98287666666667, "fusion_lat": 0.0, "name": "9ff2bee8846d90542dd72b9645fcfdeb"}, {"type": "electric_scooter", "fusion_lon": 0.0, "bike_id": "9cb6592c68d07c80603ce4c40404e8b3", "is_disabled": 0, "lat": 38.904803, "rental_uris": {"ios": "https://dc.lft.to/lastmile_qr_scan", "android": "https://dc.lft.to/lastmile_qr_scan"}, "is_reserved": 0, "lon": -77.04601916666667, "fusion_lat": 0.0, "name": "9cb6592c68d07c80603ce4c40404e8b3"}, {"type": "electric_scooter", "fusion_lon": 0.0, "bike_id": "113977d98706095e8aee785b800ff556", "is_disabled": 0, "lat": 38.9088835, "rental_uris": {"ios": "https://dc.lft.to/lastmile_qr_scan", "android": "https://dc.lft.to/lastmile_qr_scan"}, "is_reserved": 0, "lon": -77.04390716666667, "fusion_lat": 0.0, "name": "113977d98706095e8aee785b800ff556"}, {"type": "electric_scooter", "fusion_lon": 0.0, "bike_id": "91666a52251c9fc0986882bd82fdcc5f", "is_disabled": 0, "lat": 38.900350333333336, "rental_uris": {"ios": "https://dc.lft.to/lastmile_qr_scan", "android": "https://dc.lft.to/lastmile_qr_scan"}, "is_reserved": 0, "lon": -77.011715, "fusion_lat": 0.0, "name": "91666a52251c9fc0986882bd82fdcc5f"}, {"type": "electric_scooter", "fusion_lon": 0.0, "bike_id": "f3c594bec8cd9dde4c5bc56f07100e7d", "is_disabled": 0, "lat": 38.892187, "rental_uris": {"ios": "https://dc.lft.to/lastmile_qr_scan", "android": "https://dc.lft.to/lastmile_qr_scan"}, "is_reserved": 0, "lon": -77.02375533333333, "fusion_lat": 0.0, "name": "f3c594bec8cd9dde4c5bc56f07100e7d"}, {"type": "electric_scooter", "fusion_lon": 0.0, "bike_id": "0515281cd5c032076ffc3cc4c05b69ea", "is_disabled": 0, "lat": 38.94091133333333, "rental_uris": {"ios": "https://dc.lft.to/lastmile_qr_scan", "android": "https://dc.lft.to/lastmile_qr_scan"}, "is_reserved": 0, "lon": -77.02642516666667, "fusion_lat": 0.0, "name": "0515281cd5c032076ffc3cc4c05b69ea"}, {"type": "electric_scooter", "fusion_lon": 0.0, "bike_id": "ab0ff62af1689f6d2c48bf7c05e18e48", "is_disabled": 0, "lat": 38.885049, "rental_uris": {"ios": "https://dc.lft.to/lastmile_qr_scan", "android": "https://dc.lft.to/lastmile_qr_scan"}, "is_reserved": 0, "lon": -77.00567966666667, "fusion_lat": 0.0, "name": "ab0ff62af1689f6d2c48bf7c05e18e48"}, {"type": "electric_scooter", "fusion_lon": 0.0, "bike_id": "6d41e83f0d2cc84ae4d1d51269b09a17", "is_disabled": 0, "lat": 38.90124433333333, "rental_uris": {"ios": "https://dc.lft.to/lastmile_qr_scan", "android": "https://dc.lft.to/lastmile_qr_scan"}, "is_reserved": 0, "lon": -77.03813383333333, "fusion_lat": 0.0, "name": "6d41e83f0d2cc84ae4d1d51269b09a17"}, {"type": "electric_scooter", "fusion_lon": 0.0, "bike_id": "6572bdc18bee0c91fa4750af3bb0d2bf", "is_disabled": 0, "lat": 38.924821333333334, "rental_uris": {"ios": "https://dc.lft.to/lastmile_qr_scan", "android": "https://dc.lft.to/lastmile_qr_scan"}, "is_reserved": 0, "lon": -77.02549383333333, "fusion_lat": 0.0, "name": "6572bdc18bee0c91fa4750af3bb0d2bf"}, {"type": "electric_scooter", "fusion_lon": 0.0, "bike_id": "bca98772b38b66a44cb9f101265529f8", "is_disabled": 0, "lat": 38.90865766666667, "rental_uris": {"ios": "https://dc.lft.to/lastmile_qr_scan", "android": "https://dc.lft.to/lastmile_qr_scan"}, "is_reserved": 0, "lon": -76.98494316666667, "fusion_lat": 0.0, "name": "bca98772b38b66a44cb9f101265529f8"}, {"type": "electric_scooter", "fusion_lon": 0.0, "bike_id": "d0844a1c2ce85775b6fd69adbe12ed8e", "is_disabled": 0, "lat": 38.917238166666664, "rental_uris": {"ios": "https://dc.lft.to/lastmile_qr_scan", "android": "https://dc.lft.to/lastmile_qr_scan"}, "is_reserved": 0, "lon": -77.03207566666667, "fusion_lat": 0.0, "name": "d0844a1c2ce85775b6fd69adbe12ed8e"}, {"type": "electric_scooter", "fusion_lon": 0.0, "bike_id": "a8db71907b6dce8ccfd8b85f833639ac", "is_disabled": 0, "lat": 38.9245865, "rental_uris": {"ios": "https://dc.lft.to/lastmile_qr_scan", "android": "https://dc.lft.to/lastmile_qr_scan"}, "is_reserved": 0, "lon": -77.05752883333334, "fusion_lat": 0.0, "name": "a8db71907b6dce8ccfd8b85f833639ac"}, {"type": "electric_scooter", "fusion_lon": 0.0, "bike_id": "d9f9f15b8b11967883e21bb3aaa00bca", "is_disabled": 0, "lat": 38.92375333333333, "rental_uris": {"ios": "https://dc.lft.to/lastmile_qr_scan", "android": "https://dc.lft.to/lastmile_qr_scan"}, "is_reserved": 0, "lon": -77.0198585, "fusion_lat": 0.0, "name": "d9f9f15b8b11967883e21bb3aaa00bca"}, {"type": "electric_scooter", "fusion_lon": 0.0, "bike_id": "5ccef6415d5e878950f49bb831f2e677", "is_disabled": 0, "lat": 38.92051883333333, "rental_uris": {"ios": "https://dc.lft.to/lastmile_qr_scan", "android": "https://dc.lft.to/lastmile_qr_scan"}, "is_reserved": 0, "lon": -77.033925, "fusion_lat": 0.0, "name": "5ccef6415d5e878950f49bb831f2e677"}, {"type": "electric_scooter", "fusion_lon": 0.0, "bike_id": "8f529e87e2e44278df37440eb5167634", "is_disabled": 0, "lat": 38.918752166666664, "rental_uris": {"ios": "https://dc.lft.to/lastmile_qr_scan", "android": "https://dc.lft.to/lastmile_qr_scan"}, "is_reserved": 0, "lon": -77.04479083333334, "fusion_lat": 0.0, "name": "8f529e87e2e44278df37440eb5167634"}, {"type": "electric_scooter", "fusion_lon": 0.0, "bike_id": "5e3b4f64b118470356fbdea3fb4d6235", "is_disabled": 0, "lat": 38.92223233333333, "rental_uris": {"ios": "https://dc.lft.to/lastmile_qr_scan", "android": "https://dc.lft.to/lastmile_qr_scan"}, "is_reserved": 0, "lon": -77.0223955, "fusion_lat": 0.0, "name": "5e3b4f64b118470356fbdea3fb4d6235"}, {"type": "electric_scooter", "fusion_lon": 0.0, "bike_id": "ad2decf57b75d5a6c9fd8eca147948eb", "is_disabled": 0, "lat": 38.9111735, "rental_uris": {"ios": "https://dc.lft.to/lastmile_qr_scan", "android": "https://dc.lft.to/lastmile_qr_scan"}, "is_reserved": 0, "lon": -77.00599733333334, "fusion_lat": 0.0, "name": "ad2decf57b75d5a6c9fd8eca147948eb"}, {"type": "electric_scooter", "fusion_lon": 0.0, "bike_id": "d19274aa070f9d21ab1a0158b529cddf", "is_disabled": 0, "lat": 38.862016, "rental_uris": {"ios": "https://dc.lft.to/lastmile_qr_scan", "android": "https://dc.lft.to/lastmile_qr_scan"}, "is_reserved": 0, "lon": -76.99504216666666, "fusion_lat": 0.0, "name": "d19274aa070f9d21ab1a0158b529cddf"}, {"type": "electric_scooter", "fusion_lon": 0.0, "bike_id": "66fe9214b915e40253f239542f68530c", "is_disabled": 0, "lat": 38.924157666666666, "rental_uris": {"ios": "https://dc.lft.to/lastmile_qr_scan", "android": "https://dc.lft.to/lastmile_qr_scan"}, "is_reserved": 0, "lon": -77.020047, "fusion_lat": 0.0, "name": "66fe9214b915e40253f239542f68530c"}, {"type": "electric_bike", "fusion_lon": 0.0, "bike_id": "c103e8fdc83d6a4f56c8e24355a814fb", "is_disabled": 0, "lat": 38.876102333333336, "rental_uris": {"ios": "https://dc.lft.to/lastmile_qr_scan", "android": "https://dc.lft.to/lastmile_qr_scan"}, "is_reserved": 0, "lon": -77.0082355, "fusion_lat": 0.0, "name": "c103e8fdc83d6a4f56c8e24355a814fb"}, {"type": "electric_scooter", "fusion_lon": 0.0, "bike_id": "64254da079b354449901b3b965671b35", "is_disabled": 0, "lat": 38.91771983333334, "rental_uris": {"ios": "https://dc.lft.to/lastmile_qr_scan", "android": "https://dc.lft.to/lastmile_qr_scan"}, "is_reserved": 0, "lon": -77.04773416666667, "fusion_lat": 0.0, "name": "64254da079b354449901b3b965671b35"}, {"type": "electric_bike", "fusion_lon": 0.0, "bike_id": "40261d407bfe1afb8a933a21d4a5bf23", "is_disabled": 0, "lat": 38.8846945, "rental_uris": {"ios": "https://dc.lft.to/lastmile_qr_scan", "android": "https://dc.lft.to/lastmile_qr_scan"}, "is_reserved": 0, "lon": -76.952415, "fusion_lat": 0.0, "name": "40261d407bfe1afb8a933a21d4a5bf23"}, {"type": "electric_scooter", "fusion_lon": 0.0, "bike_id": "f2dfa40cfc456bd265c7135146dabfbb", "is_disabled": 0, "lat": 38.93950866666667, "rental_uris": {"ios": "https://dc.lft.to/lastmile_qr_scan", "android": "https://dc.lft.to/lastmile_qr_scan"}, "is_reserved": 0, "lon": -77.0724785, "fusion_lat": 0.0, "name": "f2dfa40cfc456bd265c7135146dabfbb"}, {"type": "electric_scooter", "fusion_lon": 0.0, "bike_id": "3c1712a4ce5a57a1b914488ad7448c19", "is_disabled": 0, "lat": 38.9080725, "rental_uris": {"ios": "https://dc.lft.to/lastmile_qr_scan", "android": "https://dc.lft.to/lastmile_qr_scan"}, "is_reserved": 0, "lon": -77.083975, "fusion_lat": 0.0, "name": "3c1712a4ce5a57a1b914488ad7448c19"}, {"type": "electric_scooter", "fusion_lon": 0.0, "bike_id": "8151ec47f0bbf2e721d7ff3088734922", "is_disabled": 0, "lat": 38.89871, "rental_uris": {"ios": "https://dc.lft.to/lastmile_qr_scan", "android": "https://dc.lft.to/lastmile_qr_scan"}, "is_reserved": 0, "lon": -76.94662833333334, "fusion_lat": 0.0, "name": "8151ec47f0bbf2e721d7ff3088734922"}, {"type": "electric_scooter", "fusion_lon": 0.0, "bike_id": "d6239477d84e9345dbfa6e1f5a65ddca", "is_disabled": 0, "lat": 38.93498266666667, "rental_uris": {"ios": "https://dc.lft.to/lastmile_qr_scan", "android": "https://dc.lft.to/lastmile_qr_scan"}, "is_reserved": 0, "lon": -77.04373616666666, "fusion_lat": 0.0, "name": "d6239477d84e9345dbfa6e1f5a65ddca"}, {"type": "electric_scooter", "fusion_lon": 0.0, "bike_id": "5bc7b0d26757283d231639249b948c2e", "is_disabled": 0, "lat": 38.90919266666667, "rental_uris": {"ios": "https://dc.lft.to/lastmile_qr_scan", "android": "https://dc.lft.to/lastmile_qr_scan"}, "is_reserved": 0, "lon": -76.99958266666667, "fusion_lat": 0.0, "name": "5bc7b0d26757283d231639249b948c2e"}, {"type": "electric_bike", "fusion_lon": 0.0, "bike_id": "6c51b5b7d8ce6c12a642c002eabd497d", "is_disabled": 0, "lat": 38.9938075, "rental_uris": {"ios": "https://dc.lft.to/lastmile_qr_scan", "android": "https://dc.lft.to/lastmile_qr_scan"}, "is_reserved": 0, "lon": -77.0406905, "fusion_lat": 0.0, "name": "6c51b5b7d8ce6c12a642c002eabd497d"}, {"type": "electric_bike", "fusion_lon": 0.0, "bike_id": "44b221cddc16bdf8d987babb390d0437", "is_disabled": 0, "lat": 38.988149, "rental_uris": {"ios": "https://dc.lft.to/lastmile_qr_scan", "android": "https://dc.lft.to/lastmile_qr_scan"}, "is_reserved": 0, "lon": -76.93966833333333, "fusion_lat": 0.0, "name": "44b221cddc16bdf8d987babb390d0437"}, {"type": "electric_scooter", "fusion_lon": 0.0, "bike_id": "968bfb87e549bf68ce18dd1cb1e903f8", "is_disabled": 0, "lat": 38.924865, "rental_uris": {"ios": "https://dc.lft.to/lastmile_qr_scan", "android": "https://dc.lft.to/lastmile_qr_scan"}, "is_reserved": 0, "lon": -77.0215245, "fusion_lat": 0.0, "name": "968bfb87e549bf68ce18dd1cb1e903f8"}, {"type": "electric_bike", "fusion_lon": 0.0, "bike_id": "89b61105f48ca0658f573573ac11548d", "is_disabled": 0, "lat": 38.8590125, "rental_uris": {"ios": "https://dc.lft.to/lastmile_qr_scan", "android": "https://dc.lft.to/lastmile_qr_scan"}, "is_reserved": 0, "lon": -77.05126166666666, "fusion_lat": 0.0, "name": "89b61105f48ca0658f573573ac11548d"}, {"type": "electric_scooter", "fusion_lon": 0.0, "bike_id": "7e143d36ba440d2825d4dc1ed079e7bc", "is_disabled": 0, "lat": 38.8999465, "rental_uris": {"ios": "https://dc.lft.to/lastmile_qr_scan", "android": "https://dc.lft.to/lastmile_qr_scan"}, "is_reserved": 0, "lon": -77.00196033333333, "fusion_lat": 0.0, "name": "7e143d36ba440d2825d4dc1ed079e7bc"}, {"type": "electric_scooter", "fusion_lon": 0.0, "bike_id": "498dfa3469369a9aefb14c2871ea37aa", "is_disabled": 0, "lat": 38.92403083333333, "rental_uris": {"ios": "https://dc.lft.to/lastmile_qr_scan", "android": "https://dc.lft.to/lastmile_qr_scan"}, "is_reserved": 0, "lon": -77.02688016666667, "fusion_lat": 0.0, "name": "498dfa3469369a9aefb14c2871ea37aa"}, {"type": "electric_scooter", "fusion_lon": 0.0, "bike_id": "3effde7dff10411e128557c95bd6001f", "is_disabled": 0, "lat": 38.93473266666667, "rental_uris": {"ios": "https://dc.lft.to/lastmile_qr_scan", "android": "https://dc.lft.to/lastmile_qr_scan"}, "is_reserved": 0, "lon": -77.0413235, "fusion_lat": 0.0, "name": "3effde7dff10411e128557c95bd6001f"}, {"type": "electric_scooter", "fusion_lon": 0.0, "bike_id": "79a0e915d6dc9ccce47308d513406efb", "is_disabled": 0, "lat": 38.88073333333333, "rental_uris": {"ios": "https://dc.lft.to/lastmile_qr_scan", "android": "https://dc.lft.to/lastmile_qr_scan"}, "is_reserved": 0, "lon": -76.9903075, "fusion_lat": 0.0, "name": "79a0e915d6dc9ccce47308d513406efb"}, {"type": "electric_scooter", "fusion_lon": 0.0, "bike_id": "ff2c8d9433f437830567c735c54cc1e5", "is_disabled": 0, "lat": 38.941991333333334, "rental_uris": {"ios": "https://dc.lft.to/lastmile_qr_scan", "android": "https://dc.lft.to/lastmile_qr_scan"}, "is_reserved": 0, "lon": -77.02431916666667, "fusion_lat": 0.0, "name": "ff2c8d9433f437830567c735c54cc1e5"}, {"type": "electric_scooter", "fusion_lon": 0.0, "bike_id": "6c0cb10ce6ce41c3aedc3dfffee871e1", "is_disabled": 0, "lat": 38.91872133333333, "rental_uris": {"ios": "https://dc.lft.to/lastmile_qr_scan", "android": "https://dc.lft.to/lastmile_qr_scan"}, "is_reserved": 0, "lon": -77.0246315, "fusion_lat": 0.0, "name": "6c0cb10ce6ce41c3aedc3dfffee871e1"}, {"type": "electric_scooter", "fusion_lon": 0.0, "bike_id": "faaade73ac961830b09e3f329d0c286e", "is_disabled": 0, "lat": 38.91051916666667, "rental_uris": {"ios": "https://dc.lft.to/lastmile_qr_scan", "android": "https://dc.lft.to/lastmile_qr_scan"}, "is_reserved": 0, "lon": -77.01988133333333, "fusion_lat": 0.0, "name": "faaade73ac961830b09e3f329d0c286e"}, {"type": "electric_scooter", "fusion_lon": 0.0, "bike_id": "c707ab2f26adbb6a14c6bcf7222789c4", "is_disabled": 0, "lat": 38.90137083333333, "rental_uris": {"ios": "https://dc.lft.to/lastmile_qr_scan", "android": "https://dc.lft.to/lastmile_qr_scan"}, "is_reserved": 0, "lon": -77.0401685, "fusion_lat": 0.0, "name": "c707ab2f26adbb6a14c6bcf7222789c4"}, {"type": "electric_scooter", "fusion_lon": 0.0, "bike_id": "4e65fd5982bc0537f0ddf7dbe51a4830", "is_disabled": 0, "lat": 38.91268266666667, "rental_uris": {"ios": "https://dc.lft.to/lastmile_qr_scan", "android": "https://dc.lft.to/lastmile_qr_scan"}, "is_reserved": 0, "lon": -77.01769466666667, "fusion_lat": 0.0, "name": "4e65fd5982bc0537f0ddf7dbe51a4830"}, {"type": "electric_scooter", "fusion_lon": 0.0, "bike_id": "bd49538361d3c909b68b13bb4a5a5871", "is_disabled": 0, "lat": 38.90762933333333, "rental_uris": {"ios": "https://dc.lft.to/lastmile_qr_scan", "android": "https://dc.lft.to/lastmile_qr_scan"}, "is_reserved": 0, "lon": -77.02298883333333, "fusion_lat": 0.0, "name": "bd49538361d3c909b68b13bb4a5a5871"}, {"type": "electric_scooter", "fusion_lon": 0.0, "bike_id": "804ae21375449113a381517740a79c51", "is_disabled": 0, "lat": 38.89635116666667, "rental_uris": {"ios": "https://dc.lft.to/lastmile_qr_scan", "android": "https://dc.lft.to/lastmile_qr_scan"}, "is_reserved": 0, "lon": -77.04656, "fusion_lat": 0.0, "name": "804ae21375449113a381517740a79c51"},