{"data": {"bikes": [{"bike_id": "f7c0cc16c15afd3a9c9226510204fabc", "fusion_lon": 0.0, "name": "f7c0cc16c15afd3a9c9226510204fabc", "lat": 38.93708383333333, "is_disabled": 0, "is_reserved": 0, "lon": -77.0241955, "type": "electric_scooter", "fusion_lat": 0.0, "rental_uris": {"android": "https://dc.lft.to/lastmile_qr_scan", "ios": "https://dc.lft.to/lastmile_qr_scan"}}, {"bike_id": "3bed96da7ff0bc265d17c291031048b2", "fusion_lon": 0.0, "name": "3bed96da7ff0bc265d17c291031048b2", "lat": 38.93176916666667, "is_disabled": 0, "is_reserved": 0, "lon": -77.04298733333333, "type": "electric_scooter", "fusion_lat": 0.0, "rental_uris": {"android": "https://dc.lft.to/lastmile_qr_scan", "ios": "https://dc.lft.to/lastmile_qr_scan"}}, {"bike_id": "a6866cfa2af82f8e26d30d2317576872", "fusion_lon": 0.0, "name": "a6866cfa2af82f8e26d30d2317576872", "lat": 38.913652166666665, "is_disabled": 0, "is_reserved": 0, "lon": -77.019969, "type": "electric_scooter", "fusion_lat": 0.0, "rental_uris": {"android": "https://dc.lft.to/lastmile_qr_scan", "ios": "https://dc.lft.to/lastmile_qr_scan"}}, {"bike_id": "048c8eb9090884f87a41df09f51bc293", "fusion_lon": 0.0, "name": "048c8eb9090884f87a41df09f51bc293", "lat": 38.9290615, "is_disabled": 0, "is_reserved": 0, "lon": -77.03273966666667, "type": "electric_scooter", "fusion_lat": 0.0, "rental_uris": {"android": "https://dc.lft.to/lastmile_qr_scan", "ios": "https://dc.lft.to/lastmile_qr_scan"}}, {"bike_id": "4b0373c8803c63b459bf5124cebd2ef0", "fusion_lon": 0.0, "name": "4b0373c8803c63b459bf5124cebd2ef0", "lat": 38.898838166666664, "is_disabled": 0, "is_reserved": 0, "lon": -77.02962433333333, "type": "electric_scooter", "fusion_lat": 0.0, "rental_uris": {"android": "https://dc.lft.to/lastmile_qr_scan", "ios": "https://dc.lft.to/lastmile_qr_scan"}}, {"bike_id": "15835c9622dc98bc4bfa8b2a58efbbed", "fusion_lon": 0.0, "name": "15835c9622dc98bc4bfa8b2a58efbbed", "lat": 38.908226166666665, "is_disabled": 0, "is_reserved": 0, "lon": -77.05496766666667, "type": "electric_scooter", "fusion_lat": 0.0, "rental_uris": {"android": "https://dc.lft.to/lastmile_qr_scan", "ios": "https://dc.lft.to/lastmile_qr_scan"}}, {"bike_id": "5044cad56f632bb58549fad3f30e3e96", "fusion_lon": 0.0, "name": "5044cad56f632bb58549fad3f30e3e96", "lat": 38.95284783333334, "is_disabled": 0, "is_reserved": 0, "lon": -77.01794283333334, "type": "electric_scooter", "fusion_lat": 0.0, "rental_uris": {"android": "https://dc.lft.to/lastmile_qr_scan", "ios": "https://dc.lft.to/lastmile_qr_scan"}}, {"bike_id": "b514a3301323a2113c6fd6978dfca4d0", "fusion_lon": 0.0, "name": "b514a3301323a2113c6fd6978dfca4d0", "lat": 38.917161, "is_disabled": 0, "is_reserved": 0, "lon": -77.01210283333333, "type": "electric_scooter", "fusion_lat": 0.0, "rental_uris": {"android": "https://dc.lft.to/lastmile_qr_scan", "ios": "https://dc.lft.to/lastmile_qr_scan"}}, {"bike_id": "4647360d186bb670d3ee71b94d4da861", "fusion_lon": 0.0, "name": "4647360d186bb670d3ee71b94d4da861", "lat": 38.87929066666667, "is_disabled": 0, "is_reserved": 0, "lon": -77.02371433333333, "type": "electric_scooter", "fusion_lat": 0.0, "rental_uris": {"android": "https://dc.lft.to/lastmile_qr_scan", "ios": "https://dc.lft.to/lastmile_qr_scan"}}, {"bike_id": "94562084dc2dbd10fdf75ed4edfc12d8", "fusion_lon": 0.0, "name": "94562084dc2dbd10fdf75ed4edfc12d8", "lat": 38.903558, "is_disabled": 0, "is_reserved": 0, "lon": -77.04494166666667, "type": "electric_scooter", "fusion_lat": 0.0, "rental_uris": {"android": "https://dc.lft.to/lastmile_qr_scan", "ios": "https://dc.lft.to/lastmile_qr_scan"}}, {"bike_id": "af372d42553098d9dd5b61472a20a50e", "fusion_lon": 0.0, "name": "af372d42553098d9dd5b61472a20a50e", "lat": 38.9203805, "is_disabled": 0, "is_reserved": 0, "lon": -77.024265, "type": "electric_scooter", "fusion_lat": 0.0, "rental_uris": {"android": "https://dc.lft.to/lastmile_qr_scan", "ios": "https://dc.lft.to/lastmile_qr_scan"}}, {"bike_id": "e651b64f941484c9479c7fe04ea3af81", "fusion_lon": 0.0, "name": "e651b64f941484c9479c7fe04ea3af81", "lat": 38.89233183333333, "is_disabled": 0, "is_reserved": 0, "lon": -77.04998833333333, "type": "electric_scooter", "fusion_lat": 0.0, "rental_uris": {"android": "https://dc.lft.to/lastmile_qr_scan", "ios": "https://dc.lft.to/lastmile_qr_scan"}}, {"bike_id": "c1de168ad70aa3bc04a20951af0d8fa8", "fusion_lon": 0.0, "name": "c1de168ad70aa3bc04a20951af0d8fa8", "lat": 38.918714333333334, "is_disabled": 0, "is_reserved": 0, "lon": -77.0406555, "type": "electric_scooter", "fusion_lat": 0.0, "rental_uris": {"android": "https://dc.lft.to/lastmile_qr_scan", "ios": "https://dc.lft.to/lastmile_qr_scan"}}, {"bike_id": "db2ad8f6c1f66a9225a5a56babf27f89", "fusion_lon": 0.0, "name": "db2ad8f6c1f66a9225a5a56babf27f89", "lat": 38.8948165, "is_disabled": 0, "is_reserved": 0, "lon": -77.01530066666666, "type": "electric_scooter", "fusion_lat": 0.0, "rental_uris": {"android": "https://dc.lft.to/lastmile_qr_scan", "ios": "https://dc.lft.to/lastmile_qr_scan"}}, {"bike_id": "350eaf579b89db035d83e606495b407b", "fusion_lon": 0.0, "name": "350eaf579b89db035d83e606495b407b", "lat": 38.920183, "is_disabled": 0, "is_reserved": 0, "lon": -77.0125945, "type": "electric_scooter", "fusion_lat": 0.0, "rental_uris": {"android": "https://dc.lft.to/lastmile_qr_scan", "ios": "https://dc.lft.to/lastmile_qr_scan"}}, {"bike_id": "91f1c687ff606d62ad7547c36498ce76", "fusion_lon": 0.0, "name": "91f1c687ff606d62ad7547c36498ce76", "lat": 38.937884833333335, "is_disabled": 0, "is_reserved": 0, "lon": -77.02467083333333, "type": "electric_scooter", "fusion_lat": 0.0, "rental_uris": {"android": "https://dc.lft.to/lastmile_qr_scan", "ios": "https://dc.lft.to/lastmile_qr_scan"}}, {"bike_id": "ddf1e28da257be5d546b194bb9bfed3b", "fusion_lon": 0.0, "name": "ddf1e28da257be5d546b194bb9bfed3b", "lat": 38.88459, "is_disabled": 0, "is_reserved": 0, "lon": -76.99840533333334, "type": "electric_scooter", "fusion_lat": 0.0, "rental_uris": {"android": "https://dc.lft.to/lastmile_qr_scan", "ios": "https://dc.lft.to/lastmile_qr_scan"}}, {"bike_id": "1c2d54f86289fe70b54918304e06befa", "fusion_lon": 0.0, "name": "1c2d54f86289fe70b54918304e06befa", "lat": 38.90843666666667, "is_disabled": 0, "is_reserved": 0, "lon": -77.05492266666667, "type": "electric_bike", "fusion_lat": 0.0, "rental_uris": {"android": "https://dc.lft.to/lastmile_qr_scan", "ios": "https://dc.lft.to/lastmile_qr_scan"}}, {"bike_id": "9c05a8f53b1e3356bae9453f4b88631b", "fusion_lon": 0.0, "name": "9c05a8f53b1e3356bae9453f4b88631b", "lat": 38.91686116666666, "is_disabled": 0, "is_reserved": 0, "lon": -77.0335195, "type": "electric_scooter", "fusion_lat": 0.0, "rental_uris": {"android": "https://dc.lft.to/lastmile_qr_scan", "ios": "https://dc.lft.to/lastmile_qr_scan"}}, {"bike_id": "e8f127f398e01f1365d38c2040fc339c", "fusion_lon": 0.0, "name": "e8f127f398e01f1365d38c2040fc339c", "lat": 38.898667, "is_disabled": 0, "is_reserved": 0, "lon": -77.03104583333334, "type": "electric_scooter", "fusion_lat": 0.0, "rental_uris": {"android": "https://dc.lft.to/lastmile_qr_scan", "ios": "https://dc.lft.to/lastmile_qr_scan"}}, {"bike_id": "4d11a8f841be7c33f56919191e3e1b95", "fusion_lon": 0.0, "name": "4d11a8f841be7c33f56919191e3e1b95", "lat": 38.91198583333333, "is_disabled": 0, "is_reserved": 0, "lon": -77.00724866666667, "type": "electric_scooter", "fusion_lat": 0.0, "rental_uris": {"android": "https://dc.lft.to/lastmile_qr_scan", "ios": "https://dc.lft.to/lastmile_qr_scan"}}, {"bike_id": "225bf6a24ae8fa9d0f9fe1f789d2de02", "fusion_lon": 0.0, "name": "225bf6a24ae8fa9d0f9fe1f789d2de02", "lat": 38.87798033333333, "is_disabled": 0, "is_reserved": 0, "lon": -77.00126666666667, "type": "electric_scooter", "fusion_lat": 0.0, "rental_uris": {"android": "https://dc.lft.to/lastmile_qr_scan", "ios": "https://dc.lft.to/lastmile_qr_scan"}}, {"bike_id": "5d975e83f143ebe3a97f3756b84d4cc1", "fusion_lon": 0.0, "name": "5d975e83f143ebe3a97f3756b84d4cc1", "lat": 38.91825683333333, "is_disabled": 0, "is_reserved": 0, "lon": -77.0417015, "type": "electric_scooter", "fusion_lat": 0.0, "rental_uris": {"android": "https://dc.lft.to/lastmile_qr_scan", "ios": "https://dc.lft.to/lastmile_qr_scan"}}, {"bike_id": "11080d0dd196335775988a9b15a53685", "fusion_lon": 0.0, "name": "11080d0dd196335775988a9b15a53685", "lat": 38.935150666666665, "is_disabled": 0, "is_reserved": 0, "lon": -77.05840916666666, "type": "electric_scooter", "fusion_lat": 0.0, "rental_uris": {"android": "https://dc.lft.to/lastmile_qr_scan", "ios": "https://dc.lft.to/lastmile_qr_scan"}}, {"bike_id": "6b4575ad0abfafbf083cd75c1042c1ef", "fusion_lon": 0.0, "name": "6b4575ad0abfafbf083cd75c1042c1ef", "lat": 38.884262166666666, "is_disabled": 0, "is_reserved": 0, "lon": -76.95412633333333, "type": "electric_bike", "fusion_lat": 0.0, "rental_uris": {"android": "https://dc.lft.to/lastmile_qr_scan", "ios": "https://dc.lft.to/lastmile_qr_scan"}}, {"bike_id": "f4d9d234620494dd3a34dc5b2e039691", "fusion_lon": 0.0, "name": "f4d9d234620494dd3a34dc5b2e039691", "lat": 38.8875115, "is_disabled": 0, "is_reserved": 0, "lon": -77.0211895, "type": "electric_scooter", "fusion_lat": 0.0, "rental_uris": {"android": "https://dc.lft.to/lastmile_qr_scan", "ios": "https://dc.lft.to/lastmile_qr_scan"}}, {"bike_id": "c15b8fa034628645b1c2faf076849b36", "fusion_lon": 0.0, "name": "c15b8fa034628645b1c2faf076849b36", "lat": 38.90676083333334, "is_disabled": 0, "is_reserved": 0, "lon": -77.0718095, "type": "electric_scooter", "fusion_lat": 0.0, "rental_uris": {"android": "https://dc.lft.to/lastmile_qr_scan", "ios": "https://dc.lft.to/lastmile_qr_scan"}}, {"bike_id": "382b0eeb799123e9020bb5415dad42e3", "fusion_lon": 0.0, "name": "382b0eeb799123e9020bb5415dad42e3", "lat": 38.901391333333336, "is_disabled": 0, "is_reserved": 0, "lon": -77.060743, "type": "electric_scooter", "fusion_lat": 0.0, "rental_uris": {"android": "https://dc.lft.to/lastmile_qr_scan", "ios": "https://dc.lft.to/lastmile_qr_scan"}}, {"bike_id": "e5c2863fe85fd79fc7d0d1ee137c026b", "fusion_lon": 0.0, "name": "e5c2863fe85fd79fc7d0d1ee137c026b", "lat": 38.900510833333335, "is_disabled": 0, "is_reserved": 0, "lon": -77.00069466666666, "type": "electric_scooter", "fusion_lat": 0.0, "rental_uris": {"android": "https://dc.lft.to/lastmile_qr_scan", "ios": "https://dc.lft.to/lastmile_qr_scan"}}, {"bike_id": "4c3f9e84e702c764feb9e062e14e2e7e", "fusion_lon": 0.0, "name": "4c3f9e84e702c764feb9e062e14e2e7e", "lat": 38.951836666666665, "is_disabled": 0, "is_reserved": 0, "lon": -77.02725183333334, "type": "electric_scooter", "fusion_lat": 0.0, "rental_uris": {"android": "https://dc.lft.to/lastmile_qr_scan", "ios": "https://dc.lft.to/lastmile_qr_scan"}}, {"bike_id": "4c335cd77dd0a6eab959f443ea35c06f", "fusion_lon": 0.0, "name": "4c335cd77dd0a6eab959f443ea35c06f", "lat": 38.90274933333333, "is_disabled": 0, "is_reserved": 0, "lon": -77.053186, "type": "electric_scooter", "fusion_lat": 0.0, "rental_uris": {"android": "https://dc.lft.to/lastmile_qr_scan", "ios": "https://dc.lft.to/lastmile_qr_scan"}}, {"bike_id": "40c389284fd5661179bf1aae19128f9d", "fusion_lon": 0.0, "name": "40c389284fd5661179bf1aae19128f9d", "lat": 38.90372266666667, "is_disabled": 0, "is_reserved": 0, "lon": -77.044538, "type": "electric_scooter", "fusion_lat": 0.0, "rental_uris": {"android": "https://dc.lft.to/lastmile_qr_scan", "ios": "https://dc.lft.to/lastmile_qr_scan"}}, {"bike_id": "2e4a918d122d83c8f354959d05995940", "fusion_lon": 0.0, "name": "2e4a918d122d83c8f354959d05995940", "lat": 38.8973345, "is_disabled": 0, "is_reserved": 0, "lon": -77.04990183333334, "type": "electric_scooter", "fusion_lat": 0.0, "rental_uris": {"android": "https://dc.lft.to/lastmile_qr_scan", "ios": "https://dc.lft.to/lastmile_qr_scan"}}, {"bike_id": "64a420eed4539e6ce4f07ae90bc9c06a", "fusion_lon": 0.0, "name": "64a420eed4539e6ce4f07ae90bc9c06a", "lat": 38.91609733333333, "is_disabled": 0, "is_reserved": 0, "lon": -77.03140216666667, "type": "electric_scooter", "fusion_lat": 0.0, "rental_uris": {"android": "https://dc.lft.to/lastmile_qr_scan", "ios": "https://dc.lft.to/lastmile_qr_scan"}}, {"bike_id": "c6a031ecf040406e8b561c75d5603b84", "fusion_lon": 0.0, "name": "c6a031ecf040406e8b561c75d5603b84", "lat": 38.87658533333333, "is_disabled": 0, "is_reserved": 0, "lon": -77.016113, "type": "electric_scooter", "fusion_lat": 0.0, "rental_uris": {"android": "https://dc.lft.to/lastmile_qr_scan", "ios": "https://dc.lft.to/lastmile_qr_scan"}}, {"bike_id": "8668634c98aeee976c562ba0cf66bb8a", "fusion_lon": 0.0, "name": "8668634c98aeee976c562ba0cf66bb8a", "lat": 38.90259133333333, "is_disabled": 0, "is_reserved": 0, "lon": -77.043629, "type": "electric_scooter", "fusion_lat": 0.0, "rental_uris": {"android": "https://dc.lft.to/lastmile_qr_scan", "ios": "https://dc.lft.to/lastmile_qr_scan"}}, {"bike_id": "f548fa232715f0308f0b3f7779c5c7ed", "fusion_lon": 0.0, "name": "f548fa232715f0308f0b3f7779c5c7ed", "lat": 38.87711633333333, "is_disabled": 0, "is_reserved": 0, "lon": -77.00427666666667, "type": "electric_scooter", "fusion_lat": 0.0, "rental_uris": {"android": "https://dc.lft.to/lastmile_qr_scan", "ios": "https://dc.lft.to/lastmile_qr_scan"}}, {"bike_id": "5172a87cca6b07a2d58cbc14921478ff", "fusion_lon": 0.0, "name": "5172a87cca6b07a2d58cbc14921478ff", "lat": 38.877082333333334, "is_disabled": 0, "is_reserved": 0, "lon": -77.00435116666667, "type": "electric_scooter", "fusion_lat": 0.0, "rental_uris": {"android": "https://dc.lft.to/lastmile_qr_scan", "ios": "https://dc.lft.to/lastmile_qr_scan"}}, {"bike_id": "d41b7e4cd34cdc5af1d9e63bab6dba49", "fusion_lon": 0.0, "name": "d41b7e4cd34cdc5af1d9e63bab6dba49", "lat": 38.916659833333334, "is_disabled": 0, "is_reserved": 0, "lon": -77.0437915, "type": "electric_scooter", "fusion_lat": 0.0, "rental_uris": {"android": "https://dc.lft.to/lastmile_qr_scan", "ios": "https://dc.lft.to/lastmile_qr_scan"}}, {"bike_id": "a12ab0d2d6bf697fdcf5ed8c652c5127", "fusion_lon": 0.0, "name": "a12ab0d2d6bf697fdcf5ed8c652c5127", "lat": 38.9192145, "is_disabled": 0, "is_reserved": 0, "lon": -77.00983716666667, "type": "electric_scooter", "fusion_lat": 0.0, "rental_uris": {"android": "https://dc.lft.to/lastmile_qr_scan", "ios": "https://dc.lft.to/lastmile_qr_scan"}}, {"bike_id": "bd7c69e82b770030f15d389cb715d553", "fusion_lon": 0.0, "name": "bd7c69e82b770030f15d389cb715d553", "lat": 38.88747733333334, "is_disabled": 0, "is_reserved": 0, "lon": -77.02841216666667, "type": "electric_scooter", "fusion_lat": 0.0, "rental_uris": {"android": "https://dc.lft.to/lastmile_qr_scan", "ios": "https://dc.lft.to/lastmile_qr_scan"}}, {"bike_id": "02981332bae20fd7f69df7b735d1b968", "fusion_lon": 0.0, "name": "02981332bae20fd7f69df7b735d1b968", "lat": 38.864471, "is_disabled": 0, "is_reserved": 0, "lon": -77.1068695, "type": "electric_bike", "fusion_lat": 0.0, "rental_uris": {"android": "https://dc.lft.to/lastmile_qr_scan", "ios": "https://dc.lft.to/lastmile_qr_scan"}}, {"bike_id": "8280428c23f9940c9e3018af0047562c", "fusion_lon": 0.0, "name": "8280428c23f9940c9e3018af0047562c", "lat": 38.956303, "is_disabled": 0, "is_reserved": 0, "lon": -77.091287, "type": "electric_scooter", "fusion_lat": 0.0, "rental_uris": {"android": "https://dc.lft.to/lastmile_qr_scan", "ios": "https://dc.lft.to/lastmile_qr_scan"}}, {"bike_id": "c02c4274784d8f3d2d55263a8c0cf1a7", "fusion_lon": 0.0, "name": "c02c4274784d8f3d2d55263a8c0cf1a7", "lat": 38.90628483333333, "is_disabled": 0, "is_reserved": 0, "lon": -77.00997666666666, "type": "electric_scooter", "fusion_lat": 0.0, "rental_uris": {"android": "https://dc.lft.to/lastmile_qr_scan", "ios": "https://dc.lft.to/lastmile_qr_scan"}}, {"bike_id": "706730258e3e1a3ea1620be7fa01d075", "fusion_lon": 0.0, "name": "706730258e3e1a3ea1620be7fa01d075", "lat": 38.866316, "is_disabled": 0, "is_reserved": 0, "lon": -76.98706916666667, "type": "electric_scooter", "fusion_lat": 0.0, "rental_uris": {"android": "https://dc.lft.to/lastmile_qr_scan", "ios": "https://dc.lft.to/lastmile_qr_scan"}}, {"bike_id": "9184758309883d44bc9baab6f089a73f", "fusion_lon": 0.0, "name": "9184758309883d44bc9baab6f089a73f", "lat": 38.96133016666667, "is_disabled": 0, "is_reserved": 0, "lon": -77.02783216666667, "type": "electric_scooter", "fusion_lat": 0.0, "rental_uris": {"android": "https://dc.lft.to/lastmile_qr_scan", "ios": "https://dc.lft.to/lastmile_qr_scan"}}, {"bike_id": "8d3cbe10d977bb8079377ae466b5d778", "fusion_lon": 0.0, "name": "8d3cbe10d977bb8079377ae466b5d778", "lat": 38.923532333333334, "is_disabled": 0, "is_reserved": 0, "lon": -76.9713965, "type": "electric_bike", "fusion_lat": 0.0, "rental_uris": {"android": "https://dc.lft.to/lastmile_qr_scan", "ios": "https://dc.lft.to/lastmile_qr_scan"}}, {"bike_id": "ff3bd5bc9197118c1991693215032af5", "fusion_lon": 0.0, "name": "ff3bd5bc9197118c1991693215032af5", "lat": 38.8199305, "is_disabled": 0, "is_reserved": 0, "lon": -76.99812283333333, "type": "electric_bike", "fusion_lat": 0.0, "rental_uris": {"android": "https://dc.lft.to/lastmile_qr_scan", "ios": "https://dc.lft.to/lastmile_qr_scan"}}, {"bike_id": "78d0b7da6ad64c8a3f15c9478161fdcd", "fusion_lon": 0.0, "name": "78d0b7da6ad64c8a3f15c9478161fdcd", "lat": 38.913218666666666, "is_disabled": 0, "is_reserved": 0, "lon": -77.03847133333333, "type": "electric_scooter", "fusion_lat": 0.0, "rental_uris": {"android": "https://dc.lft.to/lastmile_qr_scan", "ios": "https://dc.lft.to/lastmile_qr_scan"}}, {"bike_id": "f57f8d343840c890abffc51ba653ca77", "fusion_lon": 0.0, "name": "f57f8d343840c890abffc51ba653ca77", "lat": 38.87610816666667, "is_disabled": 0, "is_reserved": 0, "lon": -77.0064445, "type": "electric_scooter", "fusion_lat": 0.0, "rental_uris": {"android": "https://dc.lft.to/lastmile_qr_scan", "ios": "https://dc.lft.to/lastmile_qr_scan"}}, {"bike_id": "8dc59c5da3d7a6cbeec5076742c51426", "fusion_lon": 0.0, "name": "8dc59c5da3d7a6cbeec5076742c51426", "lat": 38.873656833333335, "is_disabled": 0, "is_reserved": 0, "lon": -77.0061105, "type": "electric_scooter", "fusion_lat": 0.0, "rental_uris": {"android": "https://dc.lft.to/lastmile_qr_scan", "ios": "https://dc.lft.to/lastmile_qr_scan"}}, {"bike_id": "f40fbe0e83a48e49fcacd0bef45908a2", "fusion_lon": 0.0, "name": "f40fbe0e83a48e49fcacd0bef45908a2", "lat": 38.90306283333334, "is_disabled": 0, "is_reserved": 0, "lon": -77.0601305, "type": "electric_scooter", "fusion_lat": 0.0, "rental_uris": {"android": "https://dc.lft.to/lastmile_qr_scan", "ios": "https://dc.lft.to/lastmile_qr_scan"}}, {"bike_id": "fd67e6b275e2a58e7b25890483cd1136", "fusion_lon": 0.0, "name": "fd67e6b275e2a58e7b25890483cd1136", "lat": 38.920344, "is_disabled": 0, "is_reserved": 0, "lon": -77.025939, "type": "electric_scooter", "fusion_lat": 0.0, "rental_uris": {"android": "https://dc.lft.to/lastmile_qr_scan", "ios": "https://dc.lft.to/lastmile_qr_scan"}}, {"bike_id": "b410f5706c456d3438bc7112b75f7202", "fusion_lon": 0.0, "name": "b410f5706c456d3438bc7112b75f7202", "lat": 38.86555883333333, "is_disabled": 0, "is_reserved": 0, "lon": -76.97857283333333, "type": "electric_scooter", "fusion_lat": 0.0, "rental_uris": {"android": "https://dc.lft.to/lastmile_qr_scan", "ios": "https://dc.lft.to/lastmile_qr_scan"}}, {"bike_id": "8d7d717dfb40f6841bb73fe855f0c75b", "fusion_lon": 0.0, "name": "8d7d717dfb40f6841bb73fe855f0c75b", "lat": 38.892202833333336, "is_disabled": 0, "is_reserved": 0, "lon": -77.03133016666666, "type": "electric_scooter", "fusion_lat": 0.0, "rental_uris": {"android": "https://dc.lft.to/lastmile_qr_scan", "ios": "https://dc.lft.to/lastmile_qr_scan"}}, {"bike_id": "71d482474ef919a298c1118ca2f6b780", "fusion_lon": 0.0, "name": "71d482474ef919a298c1118ca2f6b780", "lat": 38.884057166666665, "is_disabled": 0, "is_reserved": 0, "lon": -76.98611133333333, "type": "electric_scooter", "fusion_lat": 0.0, "rental_uris": {"android": "https://dc.lft.to/lastmile_qr_scan", "ios": "https://dc.lft.to/lastmile_qr_scan"}}, {"bike_id": "508419e6088f2715a2f2633b7f72f1b6", "fusion_lon": 0.0, "name": "508419e6088f2715a2f2633b7f72f1b6", "lat": 38.88719183333333, "is_disabled": 0, "is_reserved": 0, "lon": -76.99685383333333, "type": "electric_scooter", "fusion_lat": 0.0, "rental_uris": {"android": "https://dc.lft.to/lastmile_qr_scan", "ios": "https://dc.lft.to/lastmile_qr_scan"}}, {"bike_id": "acec347ce2bf5173c158beacfed1ab77", "fusion_lon": 0.0, "name": "acec347ce2bf5173c158beacfed1ab77", "lat": 38.924242, "is_disabled": 0, "is_reserved": 0, "lon": -77.01946666666667, "type": "electric_scooter", "fusion_lat": 0.0, "rental_uris": {"android": "https://dc.lft.to/lastmile_qr_scan", "ios": "https://dc.lft.to/lastmile_qr_scan"}}, {"bike_id": "f10d74184c24d553b328e9e6bc0e0295", "fusion_lon": 0.0, "name": "f10d74184c24d553b328e9e6bc0e0295", "lat": 38.89948016666666, "is_disabled": 0, "is_reserved": 0, "lon": -76.98154633333333, "type": "electric_scooter", "fusion_lat": 0.0, "rental_uris": {"android": "https://dc.lft.to/lastmile_qr_scan", "ios": "https://dc.lft.to/lastmile_qr_scan"}}, {"bike_id": "bd75a12454238e6761d430eee30686ee", "fusion_lon": 0.0, "name": "bd75a12454238e6761d430eee30686ee", "lat": 38.924390833333334, "is_disabled": 0, "is_reserved": 0, "lon": -77.0340785, "type": "electric_scooter", "fusion_lat": 0.0, "rental_uris": {"android": "https://dc.lft.to/lastmile_qr_scan", "ios": "https://dc.lft.to/lastmile_qr_scan"}}, {"bike_id": "d9ee357e9b76f0fe260285669c02b364", "fusion_lon": 0.0, "name": "d9ee357e9b76f0fe260285669c02b364", "lat": 38.918630666666665, "is_disabled": 0, "is_reserved": 0, "lon": -77.02588916666667, "type": "electric_scooter", "fusion_lat": 0.0, "rental_uris": {"android": "https://dc.lft.to/lastmile_qr_scan", "ios": "https://dc.lft.to/lastmile_qr_scan"}}, {"bike_id": "3bac19b0b29015bc8b871e01b35e8631", "fusion_lon": 0.0, "name": "3bac19b0b29015bc8b871e01b35e8631", "lat": 38.91117366666667, "is_disabled": 0, "is_reserved": 0, "lon": -77.038358, "type": "electric_scooter", "fusion_lat": 0.0, "rental_uris": {"android": "https://dc.lft.to/lastmile_qr_scan", "ios": "https://dc.lft.to/lastmile_qr_scan"}}, {"bike_id": "2cbcd1c98299e937114ceef28e495931", "fusion_lon": 0.0, "name": "2cbcd1c98299e937114ceef28e495931", "lat": 38.8922035, "is_disabled": 0, "is_reserved": 0, "lon": -77.03147816666667, "type": "electric_scooter", "fusion_lat": 0.0, "rental_uris": {"android": "https://dc.lft.to/lastmile_qr_scan", "ios": "https://dc.lft.to/lastmile_qr_scan"}}, {"bike_id": "233febaafcd4d8e606225c59aff0981a", "fusion_lon": 0.0, "name": "233febaafcd4d8e606225c59aff0981a", "lat": 38.93683816666667, "is_disabled": 0, "is_reserved": 0, "lon": -77.036299, "type": "electric_scooter", "fusion_lat": 0.0, "rental_uris": {"android": "https://dc.lft.to/lastmile_qr_scan", "ios": "https://dc.lft.to/lastmile_qr_scan"}}, {"bike_id": "a954de52a735413dec00f47864b8d203", "fusion_lon": 0.0, "name": "a954de52a735413dec00f47864b8d203", "lat": 38.9130315, "is_disabled": 0, "is_reserved": 0, "lon": -77.04865833333334, "type": "electric_scooter", "fusion_lat": 0.0, "rental_uris": {"android": "https://dc.lft.to/lastmile_qr_scan", "ios": "https://dc.lft.to/lastmile_qr_scan"}}, {"bike_id": "95db1bdb63fa06a020cc35ea8d78f0cc", "fusion_lon": 0.0, "name": "95db1bdb63fa06a020cc35ea8d78f0cc", "lat": 38.90167233333333, "is_disabled": 0, "is_reserved": 0, "lon": -77.0130885, "type": "electric_scooter", "fusion_lat": 0.0, "rental_uris": {"android": "https://dc.lft.to/lastmile_qr_scan", "ios": "https://dc.lft.to/lastmile_qr_scan"}}, {"bike_id": "58cb6c3149aa7dc496de876a61fbb1fa", "fusion_lon": 0.0, "name": "58cb6c3149aa7dc496de876a61fbb1fa", "lat": 38.892311166666666, "is_disabled": 0, "is_reserved": 0, "lon": -77.02827416666666, "type": "electric_scooter", "fusion_lat": 0.0, "rental_uris": {"android": "https://dc.lft.to/lastmile_qr_scan", "ios": "https://dc.lft.to/lastmile_qr_scan"}}, {"bike_id": "f01914cee410d337eba2e424e062f591", "fusion_lon": 0.0, "name": "f01914cee410d337eba2e424e062f591", "lat": 38.8928485, "is_disabled": 0, "is_reserved": 0, "lon": -76.98309233333333, "type": "electric_scooter", "fusion_lat": 0.0, "rental_uris": {"android": "https://dc.lft.to/lastmile_qr_scan", "ios": "https://dc.lft.to/lastmile_qr_scan"}}, {"bike_id": "e4ad9a615f600a0dd6a2b7dc77291b36", "fusion_lon": 0.0, "name": "e4ad9a615f600a0dd6a2b7dc77291b36", "lat": 38.8980765, "is_disabled": 0, "is_reserved": 0, "lon": -77.03356666666667, "type": "electric_scooter", "fusion_lat": 0.0, "rental_uris": {"android": "https://dc.lft.to/lastmile_qr_scan", "ios": "https://dc.lft.to/lastmile_qr_scan"}}, {"bike_id": "ac6d5218e665412d212bb94604c0cb23", "fusion_lon": 0.0, "name": "ac6d5218e665412d212bb94604c0cb23", "lat": 38.861668, "is_disabled": 0, "is_reserved": 0, "lon": -76.98365516666667, "type": "electric_scooter", "fusion_lat": 0.0, "rental_uris": {"android": "https://dc.lft.to/lastmile_qr_scan", "ios": "https://dc.lft.to/lastmile_qr_scan"}}, {"bike_id": "3387a79e1b32a5b1eec8e6c016c43a91", "fusion_lon": 0.0, "name": "3387a79e1b32a5b1eec8e6c016c43a91", "lat": 38.898404666666664, "is_disabled": 0, "is_reserved": 0, "lon": -77.00742233333334, "type": "electric_scooter", "fusion_lat": 0.0, "rental_uris": {"android": "https://dc.lft.to/lastmile_qr_scan", "ios": "https://dc.lft.to/lastmile_qr_scan"}}, {"bike_id": "286c5ec16200481c08edde2bc3f063c6", "fusion_lon": 0.0, "name": "286c5ec16200481c08edde2bc3f063c6", "lat": 38.920766, "is_disabled": 0, "is_reserved": 0, "lon": -77.0410785, "type": "electric_scooter", "fusion_lat": 0.0, "rental_uris": {"android": "https://dc.lft.to/lastmile_qr_scan", "ios": "https://dc.lft.to/lastmile_qr_scan"}}, {"bike_id": "7cccaf9bf92cdebf8ebe68ed48e92c5f", "fusion_lon": 0.0, "name": "7cccaf9bf92cdebf8ebe68ed48e92c5f", "lat": 38.90832433333333, "is_disabled": 0, "is_reserved": 0, "lon": -76.98260516666667, "type": "electric_scooter", "fusion_lat": 0.0, "rental_uris": {"android": "https://dc.lft.to/lastmile_qr_scan", "ios": "https://dc.lft.to/lastmile_qr_scan"}}, {"bike_id": "a5ab1940722d45f475268e1a14f24374", "fusion_lon": 0.0, "name": "a5ab1940722d45f475268e1a14f24374", "lat": 38.904886166666664, "is_disabled": 0, "is_reserved": 0, "lon": -77.0448915, "type": "electric_scooter", "fusion_lat": 0.0, "rental_uris": {"android": "https://dc.lft.to/lastmile_qr_scan", "ios": "https://dc.lft.to/lastmile_qr_scan"}}, {"bike_id": "34ba521b25354bd27a19f4273230694d", "fusion_lon": 0.0, "name": "34ba521b25354bd27a19f4273230694d", "lat": 38.923743333333334, "is_disabled": 0, "is_reserved": 0, "lon": -77.01899316666666, "type": "electric_scooter", "fusion_lat": 0.0, "rental_uris": {"android": "https://dc.lft.to/lastmile_qr_scan", "ios": "https://dc.lft.to/lastmile_qr_scan"}}, {"bike_id": "45fabbdf8131a70822c8010da1e481bc", "fusion_lon": 0.0, "name": "45fabbdf8131a70822c8010da1e481bc", "lat": 38.9053135, "is_disabled": 0, "is_reserved": 0, "lon": -77.04346166666667, "type": "electric_scooter", "fusion_lat": 0.0, "rental_uris": {"android": "https://dc.lft.to/lastmile_qr_scan", "ios": "https://dc.lft.to/lastmile_qr_scan"}}, {"bike_id": "683e4f35aaad4ada7fe21d7b9dd460b5", "fusion_lon": 0.0, "name": "683e4f35aaad4ada7fe21d7b9dd460b5", "lat": 38.884918666666664, "is_disabled": 0, "is_reserved": 0, "lon": -77.01084683333333, "type": "electric_scooter", "fusion_lat": 0.0, "rental_uris": {"android": "https://dc.lft.to/lastmile_qr_scan", "ios": "https://dc.lft.to/lastmile_qr_scan"}}, {"bike_id": "4847870a2554dc68e37c965924f8a898", "fusion_lon": 0.0, "name": "4847870a2554dc68e37c965924f8a898", "lat": 38.92363733333333, "is_disabled": 0, "is_reserved": 0, "lon": -77.05031533333333, "type": "electric_scooter", "fusion_lat": 0.0, "rental_uris": {"android": "https://dc.lft.to/lastmile_qr_scan", "ios": "https://dc.lft.to/lastmile_qr_scan"}}, {"bike_id": "861c181e1fb2c219e1e1d955293aa81d", "fusion_lon": 0.0, "name": "861c181e1fb2c219e1e1d955293aa81d", "lat": 38.935061833333336, "is_disabled": 0, "is_reserved": 0, "lon": -77.02405316666666, "type": "electric_scooter", "fusion_lat": 0.0, "rental_uris": {"android": "https://dc.lft.to/lastmile_qr_scan", "ios": "https://dc.lft.to/lastmile_qr_scan"}}, {"bike_id": "2807fd70899bcd4aba35a354ae57f046", "fusion_lon": 0.0, "name": "2807fd70899bcd4aba35a354ae57f046", "lat": 38.900231166666664, "is_disabled": 0, "is_reserved": 0, "lon": -77.03494483333333, "type": "electric_scooter", "fusion_lat": 0.0, "rental_uris": {"android": "https://dc.lft.to/lastmile_qr_scan", "ios": "https://dc.lft.to/lastmile_qr_scan"}}, {"bike_id": "e91b16da3d69869604634dea45fdcd02", "fusion_lon": 0.0, "name": "e91b16da3d69869604634dea45fdcd02", "lat": 39.00385383333333, "is_disabled": 0, "is_reserved": 0, "lon": -77.01283083333334, "type": "electric_bike", "fusion_lat": 0.0, "rental_uris": {"android": "https://dc.lft.to/lastmile_qr_scan", "ios": "https://dc.lft.to/lastmile_qr_scan"}}, {"bike_id": "9c5568ffa63c2f40114f889665a451ab", "fusion_lon": 0.0, "name": "9c5568ffa63c2f40114f889665a451ab", "lat": 38.899930499999996, "is_disabled": 0, "is_reserved": 0, "lon": -77.01951066666666, "type": "electric_scooter", "fusion_lat": 0.0, "rental_uris": {"android": "https://dc.lft.to/lastmile_qr_scan", "ios": "https://dc.lft.to/lastmile_qr_scan"}}, {"bike_id": "72a865889a0ebdcfa23ee84003e11d76", "fusion_lon": 0.0, "name": "72a865889a0ebdcfa23ee84003e11d76", "lat": 38.908864, "is_disabled": 0, "is_reserved": 0, "lon": -77.032216, "type": "electric_scooter", "fusion_lat": 0.0, "rental_uris": {"android": "https://dc.lft.to/lastmile_qr_scan", "ios": "https://dc.lft.to/lastmile_qr_scan"}}, {"bike_id": "958a19ff2e444d8b1bafa3d149ef26fa", "fusion_lon": 0.0, "name": "958a19ff2e444d8b1bafa3d149ef26fa", "lat": 38.88472816666667, "is_disabled": 0, "is_reserved": 0, "lon": -77.01524216666667, "type": "electric_scooter", "fusion_lat": 0.0, "rental_uris": {"android": "https://dc.lft.to/lastmile_qr_scan", "ios": "https://dc.lft.to/lastmile_qr_scan"}}, {"bike_id": "e0d1679146e2896dfa0e23c9acc0c05f", "fusion_lon": 0.0, "name": "e0d1679146e2896dfa0e23c9acc0c05f", "lat": 38.908317333333336, "is_disabled": 0, "is_reserved": 0, "lon": -77.02335966666666, "type": "electric_scooter", "fusion_lat": 0.0, "rental_uris": {"android": "https://dc.lft.to/lastmile_qr_scan", "ios": "https://dc.lft.to/lastmile_qr_scan"}}, {"bike_id": "089a2aee64b75ddcfa10b01a2044dc29", "fusion_lon": 0.0, "name": "089a2aee64b75ddcfa10b01a2044dc29", "lat": 38.9317545, "is_disabled": 0, "is_reserved": 0, "lon": -77.07308383333333, "type": "electric_scooter", "fusion_lat": 0.0, "rental_uris": {"android": "https://dc.lft.to/lastmile_qr_scan", "ios": "https://dc.lft.to/lastmile_qr_scan"}}, {"bike_id": "2e9f7ca3119ba51a11d4980dc58c6bcc", "fusion_lon": 0.0, "name": "2e9f7ca3119ba51a11d4980dc58c6bcc", "lat": 38.88327183333333, "is_disabled": 0, "is_reserved": 0, "lon": -77.01674333333334, "type": "electric_scooter", "fusion_lat": 0.0, "rental_uris": {"android": "https://dc.lft.to/lastmile_qr_scan", "ios": "https://dc.lft.to/lastmile_qr_scan"}}, {"bike_id": "ac8006d34d992fa192db120c72a94d5e", "fusion_lon": 0.0, "name": "ac8006d34d992fa192db120c72a94d5e", "lat": 38.884876, "is_disabled": 0, "is_reserved": 0, "lon": -76.9563985, "type": "electric_scooter", "fusion_lat": 0.0, "rental_uris": {"android": "https://dc.lft.to/lastmile_qr_scan", "ios": "https://dc.lft.to/lastmile_qr_scan"}}, {"bike_id": "65d21e4c15bddd06db5e65d5ee0efec9", "fusion_lon": 0.0, "name": "65d21e4c15bddd06db5e65d5ee0efec9", "lat": 38.9132955, "is_disabled": 0, "is_reserved": 0, "lon": -77.031811, "type": "electric_scooter", "fusion_lat": 0.0, "rental_uris": {"android": "https://dc.lft.to/lastmile_qr_scan", "ios": "https://dc.lft.to/lastmile_qr_scan"}}, {"bike_id": "38670f12855caeb2c5cd6ec365b16644", "fusion_lon": 0.0, "name": "38670f12855caeb2c5cd6ec365b16644", "lat": 38.916171, "is_disabled": 0, "is_reserved": 0, "lon": -77.048718, "type": "electric_scooter", "fusion_lat": 0.0, "rental_uris": {"android": "https://dc.lft.to/lastmile_qr_scan", "ios": "https://dc.lft.to/lastmile_qr_scan"}}, {"bike_id": "210748f9314f7e8ac0b24b9840ef2857", "fusion_lon": 0.0, "name": "210748f9314f7e8ac0b24b9840ef2857", "lat": 38.87834633333333, "is_disabled": 0, "is_reserved": 0, "lon": -76.99029916666667, "type": "electric_scooter", "fusion_lat": 0.0, "rental_uris": {"android": "https://dc.lft.to/lastmile_qr_scan", "ios": "https://dc.lft.to/lastmile_qr_scan"}}, {"bike_id": "c9d4381cb0e2a2212888782f585afa63", "fusion_lon": 0.0, "name": "c9d4381cb0e2a2212888782f585afa63", "lat": 38.905705166666664, "is_disabled": 0, "is_reserved": 0, "lon": -77.003899, "type": "electric_scooter", "fusion_lat": 0.0, "rental_uris": {"android": "https://dc.lft.to/lastmile_qr_scan", "ios": "https://dc.lft.to/lastmile_qr_scan"}}, {"bike_id": "55b4cee6372e43c2e42b68afc6939007", "fusion_lon": 0.0, "name": "55b4cee6372e43c2e42b68afc6939007", "lat": 38.8394155, "is_disabled": 0, "is_reserved": 0, "lon": -77.08753133333333, "type": "electric_bike", "fusion_lat": 0.0, "rental_uris": {"android": "https://dc.lft.to/lastmile_qr_scan", "ios": "https://dc.lft.to/lastmile_qr_scan"}}, {"bike_id": "8a6ca3eba9bb22bcaa09ce1e8b832751", "fusion_lon": 0.0, "name": "8a6ca3eba9bb22bcaa09ce1e8b832751", "lat": 38.9055265, "is_disabled": 0, "is_reserved": 0, "lon": -77.00293983333333, "type": "electric_scooter", "fusion_lat": 0.0, "rental_uris": {"android": "https://dc.lft.to/lastmile_qr_scan", "ios": "https://dc.lft.to/lastmile_qr_scan"}}, {"bike_id": "c479a3cd6a09445c04b4962f257a980a", "fusion_lon": 0.0, "name": "c479a3cd6a09445c04b4962f257a980a", "lat": 38.92132183333333, "is_disabled": 0, "is_reserved": 0, "lon": -77.04113916666667, "type": "electric_scooter", "fusion_lat": 0.0, "rental_uris": {"android": "https://dc.lft.to/lastmile_qr_scan", "ios": "https://dc.lft.to/lastmile_qr_scan"}}, {"bike_id": "f68ae04efb41a27c79ea820e734dc0e7", "fusion_lon": 0.0, "name": "f68ae04efb41a27c79ea820e734dc0e7", "lat": 38.911176166666664, "is_disabled": 0, "is_reserved": 0, "lon": -77.034357, "type": "electric_scooter", "fusion_lat": 0.0, "rental_uris": {"android": "https://dc.lft.to/lastmile_qr_scan", "ios": "https://dc.lft.to/lastmile_qr_scan"}}, {"bike_id": "758f422352f14714491b51063a9bca57", "fusion_lon": 0.0, "name": "758f422352f14714491b51063a9bca57", "lat": 38.91172066666667, "is_disabled": 0, "is_reserved": 0, "lon": -77.0282885, "type": "electric_scooter", "fusion_lat": 0.0, "rental_uris": {"android": "https://dc.lft.to/lastmile_qr_scan", "ios": "https://dc.lft.to/lastmile_qr_scan"}}, {"bike_id": "e3ba5b7ae3d4d853e6fb8e8988d0f8b5", "fusion_lon": 0.0, "name": "e3ba5b7ae3d4d853e6fb8e8988d0f8b5", "lat": 38.935329333333335, "is_disabled": 0, "is_reserved": 0, "lon": -77.02346366666667, "type": "electric_scooter", "fusion_lat": 0.0, "rental_uris": {"android": "https://dc.lft.to/lastmile_qr_scan", "ios": "https://dc.lft.to/lastmile_qr_scan"}}, {"bike_id": "eaa74b3eee6b07e841f7530dbcd93557", "fusion_lon": 0.0, "name": "eaa74b3eee6b07e841f7530dbcd93557", "lat": 38.83865216666667, "is_disabled": 0, "is_reserved": 0, "lon": -76.99694983333333, "type": "electric_scooter", "fusion_lat": 0.0, "rental_uris": {"android": "https://dc.lft.to/lastmile_qr_scan", "ios": "https://dc.lft.to/lastmile_qr_scan"}}, {"bike_id": "41ca239d665504f077074f2d5189b2e5", "fusion_lon": 0.0, "name": "41ca239d665504f077074f2d5189b2e5", "lat": 38.927089333333335, "is_disabled": 0, "is_reserved": 0, "lon": -77.02433016666667, "type": "electric_scooter", "fusion_lat": 0.0, "rental_uris": {"android": "https://dc.lft.to/lastmile_qr_scan", "ios": "https://dc.lft.to/lastmile_qr_scan"}}, {"bike_id": "3625e8dcb25fd8de8e3330600cbfd620", "fusion_lon": 0.0, "name": "3625e8dcb25fd8de8e3330600cbfd620", "lat": 38.90815833333333, "is_disabled": 0, "is_reserved": 0, "lon": -77.04333233333334, "type": "electric_scooter", "fusion_lat": 0.0, "rental_uris": {"android": "https://dc.lft.to/lastmile_qr_scan", "ios": "https://dc.lft.to/lastmile_qr_scan"}}, {"bike_id": "f7e10eb4827bb47e1cea7db0abb13c5a", "fusion_lon": 0.0, "name": "f7e10eb4827bb47e1cea7db0abb13c5a", "lat": 38.91153833333333, "is_disabled": 0, "is_reserved": 0, "lon": -77.02374483333334, "type": "electric_scooter", "fusion_lat": 0.0, "rental_uris": {"android": "https://dc.lft.to/lastmile_qr_scan", "ios": "https://dc.lft.to/lastmile_qr_scan"}}, {"bike_id": "bec3c8ff7da64f5ecd6d12768801c199", "fusion_lon": 0.0, "name": "bec3c8ff7da64f5ecd6d12768801c199", "lat": 38.91862033333334, "is_disabled": 0, "is_reserved": 0, "lon": -77.03192183333333, "type": "electric_scooter", "fusion_lat": 0.0, "rental_uris": {"android": "https://dc.lft.to/lastmile_qr_scan", "ios": "https://dc.lft.to/lastmile_qr_scan"}}, {"bike_id": "dd676fffbd8b2e0d6f8278f83c886cd3", "fusion_lon": 0.0, "name": "dd676fffbd8b2e0d6f8278f83c886cd3", "lat": 38.90982266666666, "is_disabled": 0, "is_reserved": 0, "lon": -77.04049766666667, "type": "electric_scooter", "fusion_lat": 0.0, "rental_uris": {"android": "https://dc.lft.to/lastmile_qr_scan", "ios": "https://dc.lft.to/lastmile_qr_scan"}}, {"bike_id": "6f060a9cb5f26ba262c7b588d0688e20", "fusion_lon": 0.0, "name": "6f060a9cb5f26ba262c7b588d0688e20", "lat": 38.92202966666667, "is_disabled": 0, "is_reserved": 0, "lon": -77.02089966666666, "type": "electric_scooter", "fusion_lat": 0.0, "rental_uris": {"android": "https://dc.lft.to/lastmile_qr_scan", "ios": "https://dc.lft.to/lastmile_qr_scan"}}, {"bike_id": "32a5f7cdd07bcf06f8a0d6c5784e5a2e", "fusion_lon": 0.0, "name": "32a5f7cdd07bcf06f8a0d6c5784e5a2e", "lat": 38.9563695, "is_disabled": 0, "is_reserved": 0, "lon": -77.03302816666667, "type": "electric_scooter", "fusion_lat": 0.0, "rental_uris": {"android": "https://dc.lft.to/lastmile_qr_scan", "ios": "https://dc.lft.to/lastmile_qr_scan"}}, {"bike_id": "22ac3c1603083397b0858924de6bdde8", "fusion_lon": 0.0, "name": "22ac3c1603083397b0858924de6bdde8", "lat": 38.90865066666667, "is_disabled": 0, "is_reserved": 0, "lon": -76.99947633333333, "type": "electric_scooter", "fusion_lat": 0.0, "rental_uris": {"android": "https://dc.lft.to/lastmile_qr_scan", "ios": "https://dc.lft.to/lastmile_qr_scan"}}, {"bike_id": "87e81a73d1ddf66127e46d12f25c488e", "fusion_lon": 0.0, "name": "87e81a73d1ddf66127e46d12f25c488e", "lat": 38.9096925, "is_disabled": 0, "is_reserved": 0, "lon": -77.03769866666667, "type": "electric_scooter", "fusion_lat": 0.0, "rental_uris": {"android": "https://dc.lft.to/lastmile_qr_scan", "ios": "https://dc.lft.to/lastmile_qr_scan"}}, {"bike_id": "3841886e65d7a3d2e05fb3ffe6bb6976", "fusion_lon": 0.0, "name": "3841886e65d7a3d2e05fb3ffe6bb6976", "lat": 38.9141825, "is_disabled": 0, "is_reserved": 0, "lon": -77.0083565, "type": "electric_scooter", "fusion_lat": 0.0, "rental_uris": {"android": "https://dc.lft.to/lastmile_qr_scan", "ios": "https://dc.lft.to/lastmile_qr_scan"}}, {"bike_id": "11644e62991715e6392a253067756b07", "fusion_lon": 0.0, "name": "11644e62991715e6392a253067756b07", "lat": 38.89236783333333, "is_disabled": 0, "is_reserved": 0, "lon": -77.04877133333333, "type": "electric_scooter", "fusion_lat": 0.0, "rental_uris": {"android": "https://dc.lft.to/lastmile_qr_scan", "ios": "https://dc.lft.to/lastmile_qr_scan"}}, {"bike_id": "d886e6a239ae460fef4a1c3a2381697c", "fusion_lon": 0.0, "name": "d886e6a239ae460fef4a1c3a2381697c", "lat": 38.9186665, "is_disabled": 0, "is_reserved": 0, "lon": -77.0322035, "type": "electric_scooter", "fusion_lat": 0.0, "rental_uris": {"android": "https://dc.lft.to/lastmile_qr_scan", "ios": "https://dc.lft.to/lastmile_qr_scan"}}, {"bike_id": "f32ba20c650c96e8ba2853138bcf17b3", "fusion_lon": 0.0, "name": "f32ba20c650c96e8ba2853138bcf17b3", "lat": 38.922357833333336, "is_disabled": 0, "is_reserved": 0, "lon": -77.03892483333334, "type": "electric_scooter", "fusion_lat": 0.0, "rental_uris": {"android": "https://dc.lft.to/lastmile_qr_scan", "ios": "https://dc.lft.to/lastmile_qr_scan"}}, {"bike_id": "9a5017d4fbd804884a14e91c664dc127", "fusion_lon": 0.0, "name": "9a5017d4fbd804884a14e91c664dc127", "lat": 38.929610333333336, "is_disabled": 0, "is_reserved": 0, "lon": -77.01144, "type": "electric_scooter", "fusion_lat": 0.0, "rental_uris": {"android": "https://dc.lft.to/lastmile_qr_scan", "ios": "https://dc.lft.to/lastmile_qr_scan"}}, {"bike_id": "c522607153b73b119e2423d4862e8b51", "fusion_lon": 0.0, "name": "c522607153b73b119e2423d4862e8b51", "lat": 38.89231566666667, "is_disabled": 0, "is_reserved": 0, "lon": -77.05003916666666, "type": "electric_scooter", "fusion_lat": 0.0, "rental_uris": {"android": "https://dc.lft.to/lastmile_qr_scan", "ios": "https://dc.lft.to/lastmile_qr_scan"}}, {"bike_id": "bfe33ac00e3f3575cab4e712c34a9779", "fusion_lon": 0.0, "name": "bfe33ac00e3f3575cab4e712c34a9779", "lat": 38.877824, "is_disabled": 0, "is_reserved": 0, "lon": -76.99415216666667, "type": "electric_scooter", "fusion_lat": 0.0, "rental_uris": {"android": "https://dc.lft.to/lastmile_qr_scan", "ios": "https://dc.lft.to/lastmile_qr_scan"}}, {"bike_id": "b131acec1db82fe042f9fd48a8606b3f", "fusion_lon": 0.0, "name": "b131acec1db82fe042f9fd48a8606b3f", "lat": 38.899337333333335, "is_disabled": 0, "is_reserved": 0, "lon": -77.041599, "type": "electric_scooter", "fusion_lat": 0.0, "rental_uris": {"android": "https://dc.lft.to/lastmile_qr_scan", "ios": "https://dc.lft.to/lastmile_qr_scan"}}, {"bike_id": "416bb219fa26ff952bd2b7ec2ae3f299", "fusion_lon": 0.0, "name": "416bb219fa26ff952bd2b7ec2ae3f299", "lat": 38.914558666666665, "is_disabled": 0, "is_reserved": 0, "lon": -77.0064055, "type": "electric_scooter", "fusion_lat": 0.0, "rental_uris": {"android": "https://dc.lft.to/lastmile_qr_scan", "ios": "https://dc.lft.to/lastmile_qr_scan"}}, {"bike_id": "6d2355861e9138f23ea0e5a621c95281", "fusion_lon": 0.0, "name": "6d2355861e9138f23ea0e5a621c95281", "lat": 38.896129333333334, "is_disabled": 0, "is_reserved": 0, "lon": -77.04640716666667, "type": "electric_scooter", "fusion_lat": 0.0, "rental_uris": {"android": "https://dc.lft.to/lastmile_qr_scan", "ios": "https://dc.lft.to/lastmile_qr_scan"}}, {"bike_id": "82d51c5cbd27d11816c4b16e2500809f", "fusion_lon": 0.0, "name": "82d51c5cbd27d11816c4b16e2500809f", "lat": 38.911203666666665, "is_disabled": 0, "is_reserved": 0, "lon": -77.03828383333334, "type": "electric_scooter", "fusion_lat": 0.0, "rental_uris": {"android": "https://dc.lft.to/lastmile_qr_scan", "ios": "https://dc.lft.to/lastmile_qr_scan"}}, {"bike_id": "49ebb1407068337ce6f8a6f4b3dc3cd1", "fusion_lon": 0.0, "name": "49ebb1407068337ce6f8a6f4b3dc3cd1", "lat": 38.90411566666667, "is_disabled": 0, "is_reserved": 0, "lon": -76.97330133333334, "type": "electric_scooter", "fusion_lat": 0.0, "rental_uris": {"android": "https://dc.lft.to/lastmile_qr_scan", "ios": "https://dc.lft.to/lastmile_qr_scan"}}, {"bike_id": "9f04707579c8c9ed209e27373ef0d179", "fusion_lon": 0.0, "name": "9f04707579c8c9ed209e27373ef0d179", "lat": 38.931306666666664, "is_disabled": 0, "is_reserved": 0, "lon": -77.03260466666667, "type": "electric_scooter", "fusion_lat": 0.0, "rental_uris": {"android": "https://dc.lft.to/lastmile_qr_scan", "ios": "https://dc.lft.to/lastmile_qr_scan"}}, {"bike_id": "eaf6791b88e2af5d798604c18a121fab", "fusion_lon": 0.0, "name": "eaf6791b88e2af5d798604c18a121fab", "lat": 38.8845125, "is_disabled": 0, "is_reserved": 0, "lon": -76.995271, "type": "electric_scooter", "fusion_lat": 0.0, "rental_uris": {"android": "https://dc.lft.to/lastmile_qr_scan", "ios": "https://dc.lft.to/lastmile_qr_scan"}}, {"bike_id": "7ed039b74071fccaf0362a5d62ba93f1", "fusion_lon": 0.0, "name": "7ed039b74071fccaf0362a5d62ba93f1", "lat": 38.89231366666667, "is_disabled": 0, "is_reserved": 0, "lon": -77.04159866666667, "type": "electric_scooter", "fusion_lat": 0.0, "rental_uris": {"android": "https://dc.lft.to/lastmile_qr_scan", "ios": "https://dc.lft.to/lastmile_qr_scan"}}, {"bike_id": "0090b5cea73b989cc58b094174e793f7", "fusion_lon": 0.0, "name": "0090b5cea73b989cc58b094174e793f7", "lat": 38.87411933333333, "is_disabled": 0, "is_reserved": 0, "lon": -77.00061, "type": "electric_scooter", "fusion_lat": 0.0, "rental_uris": {"android": "https://dc.lft.to/lastmile_qr_scan", "ios": "https://dc.lft.to/lastmile_qr_scan"}}, {"bike_id": "3f2bdaf9e51a59748e561e9b80296976", "fusion_lon": 0.0, "name": "3f2bdaf9e51a59748e561e9b80296976", "lat": 38.864233, "is_disabled": 0, "is_reserved": 0, "lon": -76.99019816666667, "type": "electric_scooter", "fusion_lat": 0.0, "rental_uris": {"android": "https://dc.lft.to/lastmile_qr_scan", "ios": "https://dc.lft.to/lastmile_qr_scan"}}, {"bike_id": "b4fe46c1f470eac622e34a93ac507036", "fusion_lon": 0.0, "name": "b4fe46c1f470eac622e34a93ac507036", "lat": 38.890418833333335, "is_disabled": 0, "is_reserved": 0, "lon": -76.952465, "type": "electric_scooter", "fusion_lat": 0.0, "rental_uris": {"android": "https://dc.lft.to/lastmile_qr_scan", "ios": "https://dc.lft.to/lastmile_qr_scan"}}, {"bike_id": "822886784e0e950d727b2f7cde9f2808", "fusion_lon": 0.0, "name": "822886784e0e950d727b2f7cde9f2808", "lat": 38.91587116666667, "is_disabled": 0, "is_reserved": 0, "lon": -77.02112033333333, "type": "electric_scooter", "fusion_lat": 0.0, "rental_uris": {"android": "https://dc.lft.to/lastmile_qr_scan", "ios": "https://dc.lft.to/lastmile_qr_scan"}}, {"bike_id": "7823fc91440d48c7e68be94a76fc000b", "fusion_lon": 0.0, "name": "7823fc91440d48c7e68be94a76fc000b", "lat": 38.88301283333333, "is_disabled": 0, "is_reserved": 0, "lon": -76.94855733333333, "type": "electric_scooter", "fusion_lat": 0.0, "rental_uris": {"android": "https://dc.lft.to/lastmile_qr_scan", "ios": "https://dc.lft.to/lastmile_qr_scan"}}, {"bike_id": "8880a8327300665807c25a675098719f", "fusion_lon": 0.0, "name": "8880a8327300665807c25a675098719f", "lat": 38.900009, "is_disabled": 0, "is_reserved": 0, "lon": -76.99901333333334, "type": "electric_scooter", "fusion_lat": 0.0, "rental_uris": {"android": "https://dc.lft.to/lastmile_qr_scan", "ios": "https://dc.lft.to/lastmile_qr_scan"}}, {"bike_id": "f952d1061c7b875d668cbbcaa0218be3", "fusion_lon": 0.0, "name": "f952d1061c7b875d668cbbcaa0218be3", "lat": 38.856999, "is_disabled": 0, "is_reserved": 0, "lon": -76.9958845, "type": "electric_scooter", "fusion_lat": 0.0, "rental_uris": {"android": "https://dc.lft.to/lastmile_qr_scan", "ios": "https://dc.lft.to/lastmile_qr_scan"}}, {"bike_id": "4f3a5ca2d38c7e4a235cf977328cb51f", "fusion_lon": 0.0, "name": "4f3a5ca2d38c7e4a235cf977328cb51f", "lat": 38.896245666666665, "is_disabled": 0, "is_reserved": 0, "lon": -76.98836416666667, "type": "electric_scooter", "fusion_lat": 0.0, "rental_uris": {"android": "https://dc.lft.to/lastmile_qr_scan", "ios": "https://dc.lft.to/lastmile_qr_scan"}}, {"bike_id": "88d7fd41b7d874baa0a1e7b69da99f66", "fusion_lon": 0.0, "name": "88d7fd41b7d874baa0a1e7b69da99f66", "lat": 38.88713683333334, "is_disabled": 0, "is_reserved": 0, "lon": -77.0220425, "type": "electric_scooter", "fusion_lat": 0.0, "rental_uris": {"android": "https://dc.lft.to/lastmile_qr_scan", "ios": "https://dc.lft.to/lastmile_qr_scan"}}, {"bike_id": "3ee682472f2ad67a8b05e5649145c70a", "fusion_lon": 0.0, "name": "3ee682472f2ad67a8b05e5649145c70a", "lat": 38.91533883333334, "is_disabled": 0, "is_reserved": 0, "lon": -77.01222216666666, "type": "electric_scooter", "fusion_lat": 0.0, "rental_uris": {"android": "https://dc.lft.to/lastmile_qr_scan", "ios": "https://dc.lft.to/lastmile_qr_scan"}}, {"bike_id": "f8b451a075a55000cc360e0f4bb5a291", "fusion_lon": 0.0, "name": "f8b451a075a55000cc360e0f4bb5a291", "lat": 38.891002, "is_disabled": 0, "is_reserved": 0, "lon": -77.18408433333333, "type": "electric_bike", "fusion_lat": 0.0, "rental_uris": {"android": "https://dc.lft.to/lastmile_qr_scan", "ios": "https://dc.lft.to/lastmile_qr_scan"}}, {"bike_id": "bcce543efecc471dc15acbdafd1d924e", "fusion_lon": 0.0, "name": "bcce543efecc471dc15acbdafd1d924e", "lat": 38.91733083333333, "is_disabled": 0, "is_reserved": 0, "lon": -77.02883883333334, "type": "electric_scooter", "fusion_lat": 0.0, "rental_uris": {"android": "https://dc.lft.to/lastmile_qr_scan", "ios": "https://dc.lft.to/lastmile_qr_scan"}}, {"bike_id": "39172345b432e825a4c6f3eb729d6478", "fusion_lon": 0.0, "name": "39172345b432e825a4c6f3eb729d6478", "lat": 38.89844766666667, "is_disabled": 0, "is_reserved": 0, "lon": -77.02853466666667, "type": "electric_scooter", "fusion_lat": 0.0, "rental_uris": {"android": "https://dc.lft.to/lastmile_qr_scan", "ios": "https://dc.lft.to/lastmile_qr_scan"}}, {"bike_id": "c8021bbb6af742f818bb2b26799b75b1", "fusion_lon": 0.0, "name": "c8021bbb6af742f818bb2b26799b75b1", "lat": 38.92861516666667, "is_disabled": 0, "is_reserved": 0, "lon": -77.03517683333334, "type": "electric_scooter", "fusion_lat": 0.0, "rental_uris": {"android": "https://dc.lft.to/lastmile_qr_scan", "ios": "https://dc.lft.to/lastmile_qr_scan"}}, {"bike_id": "c6759b9ca5c7714de9c109d57410f892", "fusion_lon": 0.0, "name": "c6759b9ca5c7714de9c109d57410f892", "lat": 38.91583333333333, "is_disabled": 0, "is_reserved": 0, "lon": -76.97957833333334, "type": "electric_scooter", "fusion_lat": 0.0, "rental_uris": {"android": "https://dc.lft.to/lastmile_qr_scan", "ios": "https://dc.lft.to/lastmile_qr_scan"}}, {"bike_id": "9053eaa3f0db353c906c5723763bf8d5", "fusion_lon": 0.0, "name": "9053eaa3f0db353c906c5723763bf8d5", "lat": 38.9055355, "is_disabled": 0, "is_reserved": 0, "lon": -77.00295866666667, "type": "electric_scooter", "fusion_lat": 0.0, "rental_uris": {"android": "https://dc.lft.to/lastmile_qr_scan", "ios": "https://dc.lft.to/lastmile_qr_scan"}}, {"bike_id": "4e44267708b02de771a8e35b71c3b09e", "fusion_lon": 0.0, "name": "4e44267708b02de771a8e35b71c3b09e", "lat": 38.936783166666665, "is_disabled": 0, "is_reserved": 0, "lon": -77.0359175, "type": "electric_scooter", "fusion_lat": 0.0, "rental_uris": {"android": "https://dc.lft.to/lastmile_qr_scan", "ios": "https://dc.lft.to/lastmile_qr_scan"}}, {"bike_id": "c61e53afd8bf0708c07cb9ff451ae616", "fusion_lon": 0.0, "name": "c61e53afd8bf0708c07cb9ff451ae616", "lat": 38.908984, "is_disabled": 0, "is_reserved": 0, "lon": -77.04315316666667, "type": "electric_scooter", "fusion_lat": 0.0, "rental_uris": {"android": "https://dc.lft.to/lastmile_qr_scan", "ios": "https://dc.lft.to/lastmile_qr_scan"}}, {"bike_id": "a3b7949ced3e3a869c2ec5b56c1e085d", "fusion_lon": 0.0, "name": "a3b7949ced3e3a869c2ec5b56c1e085d", "lat": 38.88314916666667, "is_disabled": 0, "is_reserved": 0, "lon": -77.017777, "type": "electric_scooter", "fusion_lat": 0.0, "rental_uris": {"android": "https://dc.lft.to/lastmile_qr_scan", "ios": "https://dc.lft.to/lastmile_qr_scan"}}, {"bike_id": "48041efdedc4303b16116aacd544f57e", "fusion_lon": 0.0, "name": "48041efdedc4303b16116aacd544f57e", "lat": 38.9164055, "is_disabled": 0, "is_reserved": 0, "lon": -77.0478685, "type": "electric_scooter", "fusion_lat": 0.0, "rental_uris": {"android": "https://dc.lft.to/lastmile_qr_scan", "ios": "https://dc.lft.to/lastmile_qr_scan"}}, {"bike_id": "3278a9e6b7cc5e912026d5faacbe2be4", "fusion_lon": 0.0, "name": "3278a9e6b7cc5e912026d5faacbe2be4", "lat": 38.898804166666665, "is_disabled": 0, "is_reserved": 0, "lon": -77.0326625, "type": "electric_scooter", "fusion_lat": 0.0, "rental_uris": {"android": "https://dc.lft.to/lastmile_qr_scan", "ios": "https://dc.lft.to/lastmile_qr_scan"}}, {"bike_id": "ed0ec6e4dee2018b6630f0af207403ad", "fusion_lon": 0.0, "name": "ed0ec6e4dee2018b6630f0af207403ad", "lat": 38.917040666666665, "is_disabled": 0, "is_reserved": 0, "lon": -77.03472166666667, "type": "electric_scooter", "fusion_lat": 0.0, "rental_uris": {"android": "https://dc.lft.to/lastmile_qr_scan", "ios": "https://dc.lft.to/lastmile_qr_scan"}}, {"bike_id": "23bbf67693470fb6b60de7d3a42fe945", "fusion_lon": 0.0, "name": "23bbf67693470fb6b60de7d3a42fe945", "lat": 38.9612835, "is_disabled": 0, "is_reserved": 0, "lon": -77.03273933333334, "type": "electric_bike", "fusion_lat": 0.0, "rental_uris": {"android": "https://dc.lft.to/lastmile_qr_scan", "ios": "https://dc.lft.to/lastmile_qr_scan"}}, {"bike_id": "cd105d888eb679cab5277c3eeda153d2", "fusion_lon": 0.0, "name": "cd105d888eb679cab5277c3eeda153d2", "lat": 38.884687, "is_disabled": 0, "is_reserved": 0, "lon": -76.94979366666666, "type": "electric_scooter", "fusion_lat": 0.0, "rental_uris": {"android": "https://dc.lft.to/lastmile_qr_scan", "ios": "https://dc.lft.to/lastmile_qr_scan"}}, {"bike_id": "6e5da5828c524f2f2d9db97f002a03a8", "fusion_lon": 0.0, "name": "6e5da5828c524f2f2d9db97f002a03a8", "lat": 38.903589333333336, "is_disabled": 0, "is_reserved": 0, "lon": -77.01612516666667, "type": "electric_scooter", "fusion_lat": 0.0, "rental_uris": {"android": "https://dc.lft.to/lastmile_qr_scan", "ios": "https://dc.lft.to/lastmile_qr_scan"}}, {"bike_id": "50678adf2b7eb9d96144e8c5c6512cfd", "fusion_lon": 0.0, "name": "50678adf2b7eb9d96144e8c5c6512cfd", "lat": 38.94437466666667, "is_disabled": 0, "is_reserved": 0, "lon": -77.0639865, "type": "electric_scooter", "fusion_lat": 0.0, "rental_uris": {"android": "https://dc.lft.to/lastmile_qr_scan", "ios": "https://dc.lft.to/lastmile_qr_scan"}}, {"bike_id": "90d465fd87084ee8fb540468c0dd1c93", "fusion_lon": 0.0, "name": "90d465fd87084ee8fb540468c0dd1c93", "lat": 38.9232635, "is_disabled": 0, "is_reserved": 0, "lon": -77.01958033333334, "type": "electric_scooter", "fusion_lat": 0.0, "rental_uris": {"android": "https://dc.lft.to/lastmile_qr_scan", "ios": "https://dc.lft.to/lastmile_qr_scan"}}, {"bike_id": "7c3e99e4f2d476c663f84159ec30c917", "fusion_lon": 0.0, "name": "7c3e99e4f2d476c663f84159ec30c917", "lat": 38.892202166666664, "is_disabled": 0, "is_reserved": 0, "lon": -77.02012916666666, "type": "electric_scooter", "fusion_lat": 0.0, "rental_uris": {"android": "https://dc.lft.to/lastmile_qr_scan", "ios": "https://dc.lft.to/lastmile_qr_scan"}}, {"bike_id": "a09b64d521785c46aeee9fd08fe70f1c", "fusion_lon": 0.0, "name": "a09b64d521785c46aeee9fd08fe70f1c", "lat": 38.9040655, "is_disabled": 0, "is_reserved": 0, "lon": -76.97333483333334, "type": "electric_scooter", "fusion_lat": 0.0, "rental_uris": {"android": "https://dc.lft.to/lastmile_qr_scan", "ios": "https://dc.lft.to/lastmile_qr_scan"}}, {"bike_id": "2020cf96aecaecafc4edeac309f007df", "fusion_lon": 0.0, "name": "2020cf96aecaecafc4edeac309f007df", "lat": 38.93171433333333, "is_disabled": 0, "is_reserved": 0, "lon": -77.04295166666667, "type": "electric_scooter", "fusion_lat": 0.0, "rental_uris": {"android": "https://dc.lft.to/lastmile_qr_scan", "ios": "https://dc.lft.to/lastmile_qr_scan"}}, {"bike_id": "07e51e687ff0ce48fb2918877df969df", "fusion_lon": 0.0, "name": "07e51e687ff0ce48fb2918877df969df", "lat": 38.88554116666667, "is_disabled": 0, "is_reserved": 0, "lon": -76.99781466666667, "type": "electric_scooter", "fusion_lat": 0.0, "rental_uris": {"android": "https://dc.lft.to/lastmile_qr_scan", "ios": "https://dc.lft.to/lastmile_qr_scan"}}, {"bike_id": "35543fece734f800507d9d83cfbea9af", "fusion_lon": 0.0, "name": "35543fece734f800507d9d83cfbea9af", "lat": 38.88738, "is_disabled": 0, "is_reserved": 0, "lon": -77.02579983333334, "type": "electric_scooter", "fusion_lat": 0.0, "rental_uris": {"android": "https://dc.lft.to/lastmile_qr_scan", "ios": "https://dc.lft.to/lastmile_qr_scan"}}, {"bike_id": "c1701592928ae00efcaa6e33a104c923", "fusion_lon": 0.0, "name": "c1701592928ae00efcaa6e33a104c923", "lat": 38.866851, "is_disabled": 0, "is_reserved": 0, "lon": -76.98571066666666, "type": "electric_scooter", "fusion_lat": 0.0, "rental_uris": {"android": "https://dc.lft.to/lastmile_qr_scan", "ios": "https://dc.lft.to/lastmile_qr_scan"}}, {"bike_id": "793c35ecf52a83ea2a11591fe341dff0", "fusion_lon": 0.0, "name": "793c35ecf52a83ea2a11591fe341dff0", "lat": 38.90647833333333, "is_disabled": 0, "is_reserved": 0, "lon": -77.02405633333333, "type": "electric_scooter", "fusion_lat": 0.0, "rental_uris": {"android": "https://dc.lft.to/lastmile_qr_scan", "ios": "https://dc.lft.to/lastmile_qr_scan"}}, {"bike_id": "a347b87e0ba5d4a74557a0d80d32df01", "fusion_lon": 0.0, "name": "a347b87e0ba5d4a74557a0d80d32df01", "lat": 38.911035166666665, "is_disabled": 0, "is_reserved": 0, "lon": -77.03563133333333, "type": "electric_scooter", "fusion_lat": 0.0, "rental_uris": {"android": "https://dc.lft.to/lastmile_qr_scan", "ios": "https://dc.lft.to/lastmile_qr_scan"}}, {"bike_id": "e6e2dc482b2a83371c389c420ac14246", "fusion_lon": 0.0, "name": "e6e2dc482b2a83371c389c420ac14246", "lat": 38.8972995, "is_disabled": 0, "is_reserved": 0, "lon": -77.002156, "type": "electric_scooter", "fusion_lat": 0.0, "rental_uris": {"android": "https://dc.lft.to/lastmile_qr_scan", "ios": "https://dc.lft.to/lastmile_qr_scan"}}, {"bike_id": "d1e86843dee972a2e7948da6592c9813", "fusion_lon": 0.0, "name": "d1e86843dee972a2e7948da6592c9813", "lat": 38.900036166666666, "is_disabled": 0, "is_reserved": 0, "lon": -77.03039933333334, "type": "electric_scooter", "fusion_lat": 0.0, "rental_uris": {"android": "https://dc.lft.to/lastmile_qr_scan", "ios": "https://dc.lft.to/lastmile_qr_scan"}}, {"bike_id": "206ba868bff65bb31f5ca28578741279", "fusion_lon": 0.0, "name": "206ba868bff65bb31f5ca28578741279", "lat": 38.898102333333334, "is_disabled": 0, "is_reserved": 0, "lon": -77.024039, "type": "electric_scooter", "fusion_lat": 0.0, "rental_uris": {"android": "https://dc.lft.to/lastmile_qr_scan", "ios": "https://dc.lft.to/lastmile_qr_scan"}}, {"bike_id": "db26235535e1d0e9f0b155ce255ce898", "fusion_lon": 0.0, "name": "db26235535e1d0e9f0b155ce255ce898", "lat": 38.85462783333333, "is_disabled": 0, "is_reserved": 0, "lon": -76.97230716666667, "type": "electric_scooter", "fusion_lat": 0.0, "rental_uris": {"android": "https://dc.lft.to/lastmile_qr_scan", "ios": "https://dc.lft.to/lastmile_qr_scan"}}, {"bike_id": "37facb86cd3cb98be7c90f8d6d334932", "fusion_lon": 0.0, "name": "37facb86cd3cb98be7c90f8d6d334932", "lat": 38.8863535, "is_disabled": 0, "is_reserved": 0, "lon": -77.01547833333333, "type": "electric_scooter", "fusion_lat": 0.0, "rental_uris": {"android": "https://dc.lft.to/lastmile_qr_scan", "ios": "https://dc.lft.to/lastmile_qr_scan"}}, {"bike_id": "dff87e77a3b66c0822366f73f81eed6f", "fusion_lon": 0.0, "name": "dff87e77a3b66c0822366f73f81eed6f", "lat": 38.905402, "is_disabled": 0, "is_reserved": 0, "lon": -77.00529666666667, "type": "electric_scooter", "fusion_lat": 0.0, "rental_uris": {"android": "https://dc.lft.to/lastmile_qr_scan", "ios": "https://dc.lft.to/lastmile_qr_scan"}}, {"bike_id": "afe3634cd4f278ef61954fc3d31f08fa", "fusion_lon": 0.0, "name": "afe3634cd4f278ef61954fc3d31f08fa", "lat": 38.92039333333334, "is_disabled": 0, "is_reserved": 0, "lon": -77.02436416666667, "type": "electric_scooter", "fusion_lat": 0.0, "rental_uris": {"android": "https://dc.lft.to/lastmile_qr_scan", "ios": "https://dc.lft.to/lastmile_qr_scan"}}, {"bike_id": "1c3b56f75ba67d035a572aeabf1ce45b", "fusion_lon": 0.0, "name": "1c3b56f75ba67d035a572aeabf1ce45b", "lat": 38.8876345, "is_disabled": 0, "is_reserved": 0, "lon": -76.977477, "type": "electric_scooter", "fusion_lat": 0.0, "rental_uris": {"android": "https://dc.lft.to/lastmile_qr_scan", "ios": "https://dc.lft.to/lastmile_qr_scan"}}, {"bike_id": "91c692736ef204851c937f7b6aed0c00", "fusion_lon": 0.0, "name": "91c692736ef204851c937f7b6aed0c00", "lat": 38.90688433333333, "is_disabled": 0, "is_reserved": 0, "lon": -76.98494883333333, "type": "electric_scooter", "fusion_lat": 0.0, "rental_uris": {"android": "https://dc.lft.to/lastmile_qr_scan", "ios": "https://dc.lft.to/lastmile_qr_scan"}}, {"bike_id": "034ffc438f1570d8270ddc1e8956bb21", "fusion_lon": 0.0, "name": "034ffc438f1570d8270ddc1e8956bb21", "lat": 38.9340885, "is_disabled": 0, "is_reserved": 0, "lon": -77.03269066666667, "type": "electric_scooter", "fusion_lat": 0.0, "rental_uris": {"android": "https://dc.lft.to/lastmile_qr_scan", "ios": "https://dc.lft.to/lastmile_qr_scan"}}, {"bike_id": "29fd2af2aad5d7ba8064c794b990c166", "fusion_lon": 0.0, "name": "29fd2af2aad5d7ba8064c794b990c166", "lat": 38.915580166666665, "is_disabled": 0, "is_reserved": 0, "lon": -77.0204925, "type": "electric_scooter", "fusion_lat": 0.0, "rental_uris": {"android": "https://dc.lft.to/lastmile_qr_scan", "ios": "https://dc.lft.to/lastmile_qr_scan"}}, {"bike_id": "fcf6150af2c9c25ae2f7ba490d300e57", "fusion_lon": 0.0, "name": "fcf6150af2c9c25ae2f7ba490d300e57", "lat": 38.88487516666667, "is_disabled": 0, "is_reserved": 0, "lon": -77.00710683333334, "type": "electric_scooter", "fusion_lat": 0.0, "rental_uris": {"android": "https://dc.lft.to/lastmile_qr_scan", "ios": "https://dc.lft.to/lastmile_qr_scan"}}, {"bike_id": "a3a0ee16fb065fa5367ee86621e59c73", "fusion_lon": 0.0, "name": "a3a0ee16fb065fa5367ee86621e59c73", "lat": 38.8923465, "is_disabled": 0, "is_reserved": 0, "lon": -77.0171395, "type": "electric_scooter", "fusion_lat": 0.0, "rental_uris": {"android": "https://dc.lft.to/lastmile_qr_scan", "ios": "https://dc.lft.to/lastmile_qr_scan"}}, {"bike_id": "51384168f2c844ce7b0d5b018f716339", "fusion_lon": 0.0, "name": "51384168f2c844ce7b0d5b018f716339", "lat": 38.915411666666664, "is_disabled": 0, "is_reserved": 0, "lon": -77.01222566666667, "type": "electric_scooter", "fusion_lat": 0.0, "rental_uris": {"android": "https://dc.lft.to/lastmile_qr_scan", "ios": "https://dc.lft.to/lastmile_qr_scan"}}, {"bike_id": "6655e877630d233c4516903339be3eea", "fusion_lon": 0.0, "name": "6655e877630d233c4516903339be3eea", "lat": 38.9170715, "is_disabled": 0, "is_reserved": 0, "lon": -77.03469216666667, "type": "electric_scooter", "fusion_lat": 0.0, "rental_uris": {"android": "https://dc.lft.to/lastmile_qr_scan", "ios": "https://dc.lft.to/lastmile_qr_scan"}}, {"bike_id": "79a69e74b8b6f55e2d090b3a29a43108", "fusion_lon": 0.0, "name": "79a69e74b8b6f55e2d090b3a29a43108", "lat": 38.90132333333333, "is_disabled": 0, "is_reserved": 0, "lon": -77.04889033333333, "type": "electric_scooter", "fusion_lat": 0.0, "rental_uris": {"android": "https://dc.lft.to/lastmile_qr_scan", "ios": "https://dc.lft.to/lastmile_qr_scan"}}, {"bike_id": "529613d35765b10b8e634f7635b58196", "fusion_lon": 0.0, "name": "529613d35765b10b8e634f7635b58196", "lat": 38.91927233333333, "is_disabled": 0, "is_reserved": 0, "lon": -77.03176333333333, "type": "electric_scooter", "fusion_lat": 0.0, "rental_uris": {"android": "https://dc.lft.to/lastmile_qr_scan", "ios": "https://dc.lft.to/lastmile_qr_scan"}}, {"bike_id": "ef42f5034c1a2666320f6b96282a028a", "fusion_lon": 0.0, "name": "ef42f5034c1a2666320f6b96282a028a", "lat": 38.908454, "is_disabled": 0, "is_reserved": 0, "lon": -77.05578133333333, "type": "electric_scooter", "fusion_lat": 0.0, "rental_uris": {"android": "https://dc.lft.to/lastmile_qr_scan", "ios": "https://dc.lft.to/lastmile_qr_scan"}}, {"bike_id": "8f9e84d4afb086caeb4f92c060a82b68", "fusion_lon": 0.0, "name": "8f9e84d4afb086caeb4f92c060a82b68", "lat": 39.0320575, "is_disabled": 0, "is_reserved": 0, "lon": -77.04728216666666, "type": "electric_bike", "fusion_lat": 0.0, "rental_uris": {"android": "https://dc.lft.to/lastmile_qr_scan", "ios": "https://dc.lft.to/lastmile_qr_scan"}}, {"bike_id": "b095800744f5da691f8fdfd599176afd", "fusion_lon": 0.0, "name": "b095800744f5da691f8fdfd599176afd", "lat": 38.91693933333333, "is_disabled": 0, "is_reserved": 0, "lon": -77.0259815, "type": "electric_scooter", "fusion_lat": 0.0, "rental_uris": {"android": "https://dc.lft.to/lastmile_qr_scan", "ios": "https://dc.lft.to/lastmile_qr_scan"}}, {"bike_id": "1d3d08cd089266dbf843002b615686ab", "fusion_lon": 0.0, "name": "1d3d08cd089266dbf843002b615686ab", "lat": 38.89610583333334, "is_disabled": 0, "is_reserved": 0, "lon": -76.99279033333333, "type": "electric_scooter", "fusion_lat": 0.0, "rental_uris": {"android": "https://dc.lft.to/lastmile_qr_scan", "ios": "https://dc.lft.to/lastmile_qr_scan"}}, {"bike_id": "c743fd5f3465c617be938c9d13f0d0d2", "fusion_lon": 0.0, "name": "c743fd5f3465c617be938c9d13f0d0d2", "lat": 38.901482, "is_disabled": 0, "is_reserved": 0, "lon": -77.00919416666666, "type": "electric_scooter", "fusion_lat": 0.0, "rental_uris": {"android": "https://dc.lft.to/lastmile_qr_scan", "ios": "https://dc.lft.to/lastmile_qr_scan"}}, {"bike_id": "6f55e14baa7b8b235bc68b9fbcf30183", "fusion_lon": 0.0, "name": "6f55e14baa7b8b235bc68b9fbcf30183", "lat": 38.90833583333333, "is_disabled": 0, "is_reserved": 0, "lon": -76.9996445, "type": "electric_scooter", "fusion_lat": 0.0, "rental_uris": {"android": "https://dc.lft.to/lastmile_qr_scan", "ios": "https://dc.lft.to/lastmile_qr_scan"}}, {"bike_id": "d879db4acf11d0988758502e1c360a2f", "fusion_lon": 0.0, "name": "d879db4acf11d0988758502e1c360a2f", "lat": 38.904156, "is_disabled": 0, "is_reserved": 0, "lon": -76.99286016666667, "type": "electric_scooter", "fusion_lat": 0.0, "rental_uris": {"android": "https://dc.lft.to/lastmile_qr_scan", "ios": "https://dc.lft.to/lastmile_qr_scan"}}, {"bike_id": "3df976599eee1fc59a444cc2efbd4322", "fusion_lon": 0.0, "name": "3df976599eee1fc59a444cc2efbd4322", "lat": 38.900857333333335, "is_disabled": 0, "is_reserved": 0, "lon": -77.04998716666667, "type": "electric_scooter", "fusion_lat": 0.0, "rental_uris": {"android": "https://dc.lft.to/lastmile_qr_scan", "ios": "https://dc.lft.to/lastmile_qr_scan"}}, {"bike_id": "e5334ebb2f4e7441fe572f400c9d471e", "fusion_lon": 0.0, "name": "e5334ebb2f4e7441fe572f400c9d471e", "lat": 38.90836616666667, "is_disabled": 0, "is_reserved": 0, "lon": -76.991893, "type": "electric_scooter", "fusion_lat": 0.0, "rental_uris": {"android": "https://dc.lft.to/lastmile_qr_scan", "ios": "https://dc.lft.to/lastmile_qr_scan"}}, {"bike_id": "02fd1c2a0e1c1e9044a8d495d9270241", "fusion_lon": 0.0, "name": "02fd1c2a0e1c1e9044a8d495d9270241", "lat": 38.90448583333333, "is_disabled": 0, "is_reserved": 0, "lon": -76.97424483333333, "type": "electric_scooter", "fusion_lat": 0.0, "rental_uris": {"android": "https://dc.lft.to/lastmile_qr_scan", "ios": "https://dc.lft.to/lastmile_qr_scan"}}, {"bike_id": "059d2133cec87d5004e39e79eb5b50cc", "fusion_lon": 0.0, "name": "059d2133cec87d5004e39e79eb5b50cc", "lat": 38.88954483333333, "is_disabled": 0, "is_reserved": 0, "lon": -77.07644433333333, "type": "electric_bike", "fusion_lat": 0.0, "rental_uris": {"android": "https://dc.lft.to/lastmile_qr_scan", "ios": "https://dc.lft.to/lastmile_qr_scan"}}, {"bike_id": "adfa925499ae58c3ef8aed9116897196", "fusion_lon": 0.0, "name": "adfa925499ae58c3ef8aed9116897196", "lat": 38.9182335, "is_disabled": 0, "is_reserved": 0, "lon": -77.0417265, "type": "electric_scooter", "fusion_lat": 0.0, "rental_uris": {"android": "https://dc.lft.to/lastmile_qr_scan", "ios": "https://dc.lft.to/lastmile_qr_scan"}}, {"bike_id": "ec03338baac7e8dbdb0db559d260898c", "fusion_lon": 0.0, "name": "ec03338baac7e8dbdb0db559d260898c", "lat": 38.899194333333334, "is_disabled": 0, "is_reserved": 0, "lon": -77.03941533333334, "type": "electric_scooter", "fusion_lat": 0.0, "rental_uris": {"android": "https://dc.lft.to/lastmile_qr_scan", "ios": "https://dc.lft.to/lastmile_qr_scan"}}, {"bike_id": "f459f79ad68e43ac6b639066ab531ebc", "fusion_lon": 0.0, "name": "f459f79ad68e43ac6b639066ab531ebc", "lat": 38.92495666666667, "is_disabled": 0, "is_reserved": 0, "lon": -77.05111433333333, "type": "electric_scooter", "fusion_lat": 0.0, "rental_uris": {"android": "https://dc.lft.to/lastmile_qr_scan", "ios": "https://dc.lft.to/lastmile_qr_scan"}}, {"bike_id": "785817618319aad1bc18bccdc4ca0675", "fusion_lon": 0.0, "name": "785817618319aad1bc18bccdc4ca0675", "lat": 38.932527, "is_disabled": 0, "is_reserved": 0, "lon": -77.03103966666667, "type": "electric_scooter", "fusion_lat": 0.0, "rental_uris": {"android": "https://dc.lft.to/lastmile_qr_scan", "ios": "https://dc.lft.to/lastmile_qr_scan"}}, {"bike_id": "738427a27efce890d72757af5832b540", "fusion_lon": 0.0, "name": "738427a27efce890d72757af5832b540", "lat": 38.928695833333336, "is_disabled": 0, "is_reserved": 0, "lon": -77.03216983333333, "type": "electric_scooter", "fusion_lat": 0.0, "rental_uris": {"android": "https://dc.lft.to/lastmile_qr_scan", "ios": "https://dc.lft.to/lastmile_qr_scan"}}, {"bike_id": "b866a8885333e2b0118f862ac68813f0", "fusion_lon": 0.0, "name": "b866a8885333e2b0118f862ac68813f0", "lat": 38.933962333333334, "is_disabled": 0, "is_reserved": 0, "lon": -77.0576865, "type": "electric_scooter", "fusion_lat": 0.0, "rental_uris": {"android": "https://dc.lft.to/lastmile_qr_scan", "ios": "https://dc.lft.to/lastmile_qr_scan"}}, {"bike_id": "227dac63498adb4f72e6ef7f96746379", "fusion_lon": 0.0, "name": "227dac63498adb4f72e6ef7f96746379", "lat": 38.9078875, "is_disabled": 0, "is_reserved": 0, "lon": -77.00021133333334, "type": "electric_scooter", "fusion_lat": 0.0, "rental_uris": {"android": "https://dc.lft.to/lastmile_qr_scan", "ios": "https://dc.lft.to/lastmile_qr_scan"}}, {"bike_id": "2b4944ea5c7b1f7addb4a2b6ee3ba98c", "fusion_lon": 0.0, "name": "2b4944ea5c7b1f7addb4a2b6ee3ba98c", "lat": 38.913277, "is_disabled": 0, "is_reserved": 0, "lon": -77.03179516666667, "type": "electric_scooter", "fusion_lat": 0.0, "rental_uris": {"android": "https://dc.lft.to/lastmile_qr_scan", "ios": "https://dc.lft.to/lastmile_qr_scan"}}, {"bike_id": "d5ab97acc7a9efa4f8e64b13a278a05c", "fusion_lon": 0.0, "name": "d5ab97acc7a9efa4f8e64b13a278a05c", "lat": 38.90161783333333, "is_disabled": 0, "is_reserved": 0, "lon": -77.01355383333333, "type": "electric_scooter", "fusion_lat": 0.0, "rental_uris": {"android": "https://dc.lft.to/lastmile_qr_scan", "ios": "https://dc.lft.to/lastmile_qr_scan"}}, {"bike_id": "6282d4a456fb4b16a866f94bbf12a70e", "fusion_lon": 0.0, "name": "6282d4a456fb4b16a866f94bbf12a70e", "lat": 38.8961805, "is_disabled": 0, "is_reserved": 0, "lon": -77.0322515, "type": "electric_scooter", "fusion_lat": 0.0, "rental_uris": {"android": "https://dc.lft.to/lastmile_qr_scan", "ios": "https://dc.lft.to/lastmile_qr_scan"}}, {"bike_id": "05c8d93e4797c01ea6facd5e9990efa2", "fusion_lon": 0.0, "name": "05c8d93e4797c01ea6facd5e9990efa2", "lat": 38.858958333333334, "is_disabled": 0, "is_reserved": 0, "lon": -77.09563333333334, "type": "electric_bike", "fusion_lat": 0.0, "rental_uris": {"android": "https://dc.lft.to/lastmile_qr_scan", "ios": "https://dc.lft.to/lastmile_qr_scan"}}, {"bike_id": "40e9bcde6260de2741ba509dbb1a54a1", "fusion_lon": 0.0, "name": "40e9bcde6260de2741ba509dbb1a54a1", "lat": 38.915663333333335, "is_disabled": 0, "is_reserved": 0, "lon": -77.03328066666667, "type": "electric_scooter", "fusion_lat": 0.0, "rental_uris": {"android": "https://dc.lft.to/lastmile_qr_scan", "ios": "https://dc.lft.to/lastmile_qr_scan"}}, {"bike_id": "eb0cc366b58740bbcbd7fbadfe223784", "fusion_lon": 0.0, "name": "eb0cc366b58740bbcbd7fbadfe223784", "lat": 38.93609, "is_disabled": 0, "is_reserved": 0, "lon": -77.05860366666667, "type": "electric_scooter", "fusion_lat": 0.0, "rental_uris": {"android": "https://dc.lft.to/lastmile_qr_scan", "ios": "https://dc.lft.to/lastmile_qr_scan"}}, {"bike_id": "d4da141e0f97fc3c4ec56b5dc268cf2a", "fusion_lon": 0.0, "name": "d4da141e0f97fc3c4ec56b5dc268cf2a", "lat": 38.9024875, "is_disabled": 0, "is_reserved": 0, "lon": -77.03521366666666, "type": "electric_scooter", "fusion_lat": 0.0, "rental_uris": {"android": "https://dc.lft.to/lastmile_qr_scan", "ios": "https://dc.lft.to/lastmile_qr_scan"}}, {"bike_id": "244db555a8b873edb950afa95427a29a", "fusion_lon": 0.0, "name": "244db555a8b873edb950afa95427a29a", "lat": 38.88140383333333, "is_disabled": 0, "is_reserved": 0, "lon": -76.99618866666667, "type": "electric_scooter", "fusion_lat": 0.0, "rental_uris": {"android": "https://dc.lft.to/lastmile_qr_scan", "ios": "https://dc.lft.to/lastmile_qr_scan"}}, {"bike_id": "047e8d13e20255b08bb47ae53415b824", "fusion_lon": 0.0, "name": "047e8d13e20255b08bb47ae53415b824", "lat": 38.897934166666666, "is_disabled": 0, "is_reserved": 0, "lon": -76.93121466666666, "type": "electric_scooter", "fusion_lat": 0.0, "rental_uris": {"android": "https://dc.lft.to/lastmile_qr_scan", "ios": "https://dc.lft.to/lastmile_qr_scan"}}, {"bike_id": "4bf924776164ec1adfe4d0fb7240a7f0", "fusion_lon": 0.0, "name": "4bf924776164ec1adfe4d0fb7240a7f0", "lat": 38.86502983333333, "is_disabled": 0, "is_reserved": 0, "lon": -76.99001166666666, "type": "electric_scooter", "fusion_lat": 0.0, "rental_uris": {"android": "https://dc.lft.to/lastmile_qr_scan", "ios": "https://dc.lft.to/lastmile_qr_scan"}}, {"bike_id": "f506a0549f3b31957163a10594e050aa", "fusion_lon": 0.0, "name": "f506a0549f3b31957163a10594e050aa", "lat": 38.90274216666667, "is_disabled": 0, "is_reserved": 0, "lon": -77.035261, "type": "electric_scooter", "fusion_lat": 0.0, "rental_uris": {"android": "https://dc.lft.to/lastmile_qr_scan", "ios": "https://dc.lft.to/lastmile_qr_scan"}}, {"bike_id": "5fcdc68b579f7f4aa9988526dfa974ff", "fusion_lon": 0.0, "name": "5fcdc68b579f7f4aa9988526dfa974ff", "lat": 38.90498816666667, "is_disabled": 0, "is_reserved": 0, "lon": -77.06305133333333, "type": "electric_scooter", "fusion_lat": 0.0, "rental_uris": {"android": "https://dc.lft.to/lastmile_qr_scan", "ios": "https://dc.lft.to/lastmile_qr_scan"}}, {"bike_id": "f7ad034d3b2dfc8b7bcd6f3e380985fc", "fusion_lon": 0.0, "name": "f7ad034d3b2dfc8b7bcd6f3e380985fc", "lat": 38.92392366666667, "is_disabled": 0, "is_reserved": 0, "lon": -77.0363935, "type": "electric_scooter", "fusion_lat": 0.0, "rental_uris": {"android": "https://dc.lft.to/lastmile_qr_scan", "ios": "https://dc.lft.to/lastmile_qr_scan"}}, {"bike_id": "00591d3b286434b6f52e702662c49504", "fusion_lon": 0.0, "name": "00591d3b286434b6f52e702662c49504", "lat": 38.89666916666667, "is_disabled": 0, "is_reserved": 0, "lon": -77.02488716666667, "type": "electric_scooter", "fusion_lat": 0.0, "rental_uris": {"android": "https://dc.lft.to/lastmile_qr_scan", "ios": "https://dc.lft.to/lastmile_qr_scan"}}, {"bike_id": "908c3e1012ad8b8e14518e38471c3378", "fusion_lon": 0.0, "name": "908c3e1012ad8b8e14518e38471c3378", "lat": 38.9040995, "is_disabled": 0, "is_reserved": 0, "lon": -76.97330483333333, "type": "electric_scooter", "fusion_lat": 0.0, "rental_uris": {"android": "https://dc.lft.to/lastmile_qr_scan", "ios": "https://dc.lft.to/lastmile_qr_scan"}}, {"bike_id": "fca1b763a8cd0b3d09976ed012f842ed", "fusion_lon": 0.0, "name": "fca1b763a8cd0b3d09976ed012f842ed", "lat": 38.87249766666667, "is_disabled": 0, "is_reserved": 0, "lon": -76.9772515, "type": "electric_scooter", "fusion_lat": 0.0, "rental_uris": {"android": "https://dc.lft.to/lastmile_qr_scan", "ios": "https://dc.lft.to/lastmile_qr_scan"}}, {"bike_id": "3936e3e68c667a5c3ae04276ec630b3c", "fusion_lon": 0.0, "name": "3936e3e68c667a5c3ae04276ec630b3c", "lat": 38.98775066666666, "is_disabled": 0, "is_reserved": 0, "lon": -77.140523, "type": "electric_bike", "fusion_lat": 0.0, "rental_uris": {"android": "https://dc.lft.to/lastmile_qr_scan", "ios": "https://dc.lft.to/lastmile_qr_scan"}}, {"bike_id": "16e892e0e1d904ba51e42819776bb8ab", "fusion_lon": 0.0, "name": "16e892e0e1d904ba51e42819776bb8ab", "lat": 38.903694333333334, "is_disabled": 0, "is_reserved": 0, "lon": -77.0436875, "type": "electric_scooter", "fusion_lat": 0.0, "rental_uris": {"android": "https://dc.lft.to/lastmile_qr_scan", "ios": "https://dc.lft.to/lastmile_qr_scan"}}, {"bike_id": "2534ea6136a833322168d769b68b7b76", "fusion_lon": 0.0, "name": "2534ea6136a833322168d769b68b7b76", "lat": 38.903377, "is_disabled": 0, "is_reserved": 0, "lon": -77.02868583333333, "type": "electric_scooter", "fusion_lat": 0.0, "rental_uris": {"android": "https://dc.lft.to/lastmile_qr_scan", "ios": "https://dc.lft.to/lastmile_qr_scan"}}, {"bike_id": "e71e7852b2de61aa90155e3de7f6d2a6", "fusion_lon": 0.0, "name": "e71e7852b2de61aa90155e3de7f6d2a6", "lat": 38.91701283333333, "is_disabled": 0, "is_reserved": 0, "lon": -77.03586383333334, "type": "electric_scooter", "fusion_lat": 0.0, "rental_uris": {"android": "https://dc.lft.to/lastmile_qr_scan", "ios": "https://dc.lft.to/lastmile_qr_scan"}}, {"bike_id": "c37b95d47390d872dc2d83f146a772c2", "fusion_lon": 0.0, "name": "c37b95d47390d872dc2d83f146a772c2", "lat": 38.92879383333333, "is_disabled": 0, "is_reserved": 0, "lon": -77.02706916666666, "type": "electric_scooter", "fusion_lat": 0.0, "rental_uris": {"android": "https://dc.lft.to/lastmile_qr_scan", "ios": "https://dc.lft.to/lastmile_qr_scan"}}, {"bike_id": "ab4b8408f65e2fdc1ada63fe7c9e7957", "fusion_lon": 0.0, "name": "ab4b8408f65e2fdc1ada63fe7c9e7957", "lat": 38.913182, "is_disabled": 0, "is_reserved": 0, "lon": -77.01513933333334, "type": "electric_scooter", "fusion_lat": 0.0, "rental_uris": {"android": "https://dc.lft.to/lastmile_qr_scan", "ios": "https://dc.lft.to/lastmile_qr_scan"}}, {"bike_id": "d576b85caf5ab421e6d8b2f14fe09b9e", "fusion_lon": 0.0, "name": "d576b85caf5ab421e6d8b2f14fe09b9e", "lat": 38.91121016666666, "is_disabled": 0, "is_reserved": 0, "lon": -77.04560466666666, "type": "electric_scooter", "fusion_lat": 0.0, "rental_uris": {"android": "https://dc.lft.to/lastmile_qr_scan", "ios": "https://dc.lft.to/lastmile_qr_scan"}}, {"bike_id": "a10f662711c83221ad109588e204d801", "fusion_lon": 0.0, "name": "a10f662711c83221ad109588e204d801", "lat": 38.90408383333333, "is_disabled": 0, "is_reserved": 0, "lon": -76.97331583333333, "type": "electric_scooter", "fusion_lat": 0.0, "rental_uris": {"android": "https://dc.lft.to/lastmile_qr_scan", "ios": "https://dc.lft.to/lastmile_qr_scan"}}, {"bike_id": "18b2e4e9cf4980f6eff81b378546920e", "fusion_lon": 0.0, "name": "18b2e4e9cf4980f6eff81b378546920e", "lat": 38.90788383333334, "is_disabled": 0, "is_reserved": 0, "lon": -77.04003883333333, "type": "electric_scooter", "fusion_lat": 0.0, "rental_uris": {"android": "https://dc.lft.to/lastmile_qr_scan", "ios": "https://dc.lft.to/lastmile_qr_scan"}}, {"bike_id": "65354ccb6f7334d6aae7b9b1e603a7d8", "fusion_lon": 0.0, "name": "65354ccb6f7334d6aae7b9b1e603a7d8", "lat": 38.90186633333333, "is_disabled": 0, "is_reserved": 0, "lon": -77.02148916666667, "type": "electric_scooter", "fusion_lat": 0.0, "rental_uris": {"android": "https://dc.lft.to/lastmile_qr_scan", "ios": "https://dc.lft.to/lastmile_qr_scan"}}, {"bike_id": "8ae0541cb48fe4f8ceefeda102799994", "fusion_lon": 0.0, "name": "8ae0541cb48fe4f8ceefeda102799994", "lat": 38.90855283333333, "is_disabled": 0, "is_reserved": 0, "lon": -76.99795466666667, "type": "electric_scooter", "fusion_lat": 0.0, "rental_uris": {"android": "https://dc.lft.to/lastmile_qr_scan", "ios": "https://dc.lft.to/lastmile_qr_scan"}}, {"bike_id": "21537dad77e30dd13d40844c9483ce25", "fusion_lon": 0.0, "name": "21537dad77e30dd13d40844c9483ce25", "lat": 38.90255716666667, "is_disabled": 0, "is_reserved": 0, "lon": -76.97453, "type": "electric_scooter", "fusion_lat": 0.0, "rental_uris": {"android": "https://dc.lft.to/lastmile_qr_scan", "ios": "https://dc.lft.to/lastmile_qr_scan"}}, {"bike_id": "ac7475d188b5c435c2f15cd59aebef88", "fusion_lon": 0.0, "name": "ac7475d188b5c435c2f15cd59aebef88", "lat": 38.91702133333333, "is_disabled": 0, "is_reserved": 0, "lon": -77.03472683333334, "type": "electric_scooter", "fusion_lat": 0.0, "rental_uris": {"android": "https://dc.lft.to/lastmile_qr_scan", "ios": "https://dc.lft.to/lastmile_qr_scan"}}, {"bike_id": "34ea02c303837aeee7ddba733af44622", "fusion_lon": 0.0, "name": "34ea02c303837aeee7ddba733af44622", "lat": 38.930186, "is_disabled": 0, "is_reserved": 0, "lon": -77.03296916666666, "type": "electric_scooter", "fusion_lat": 0.0, "rental_uris": {"android": "https://dc.lft.to/lastmile_qr_scan", "ios": "https://dc.lft.to/lastmile_qr_scan"}}, {"bike_id": "9140048ed7ef3054ba63ce19675eeab4", "fusion_lon": 0.0, "name": "9140048ed7ef3054ba63ce19675eeab4", "lat": 38.892506166666664, "is_disabled": 0, "is_reserved": 0, "lon": -77.046556, "type": "electric_scooter", "fusion_lat": 0.0, "rental_uris": {"android": "https://dc.lft.to/lastmile_qr_scan", "ios": "https://dc.lft.to/lastmile_qr_scan"}}, {"bike_id": "0aa4ace8635a6851a9b27e9b34743b26", "fusion_lon": 0.0, "name": "0aa4ace8635a6851a9b27e9b34743b26", "lat": 38.89568633333333, "is_disabled": 0, "is_reserved": 0, "lon": -77.12737283333334, "type": "electric_bike", "fusion_lat": 0.0, "rental_uris": {"android": "https://dc.lft.to/lastmile_qr_scan", "ios": "https://dc.lft.to/lastmile_qr_scan"}}, {"bike_id": "f1b06952f97e9374f86bed3fc43db14e", "fusion_lon": 0.0, "name": "f1b06952f97e9374f86bed3fc43db14e", "lat": 38.91281983333333, "is_disabled": 0, "is_reserved": 0, "lon": -77.04715, "type": "electric_scooter", "fusion_lat": 0.0, "rental_uris": {"android": "https://dc.lft.to/lastmile_qr_scan", "ios": "https://dc.lft.to/lastmile_qr_scan"}}, {"bike_id": "f5f78c15f933de2479edd1bf05acf666", "fusion_lon": 0.0, "name": "f5f78c15f933de2479edd1bf05acf666", "lat": 38.896156166666664, "is_disabled": 0, "is_reserved": 0, "lon": -77.04477766666666, "type": "electric_scooter", "fusion_lat": 0.0, "rental_uris": {"android": "https://dc.lft.to/lastmile_qr_scan", "ios": "https://dc.lft.to/lastmile_qr_scan"}}, {"bike_id": "fcb11e2fb8472ba9cd4223d97ecc60a4", "fusion_lon": 0.0, "name": "fcb11e2fb8472ba9cd4223d97ecc60a4", "lat": 38.9108455, "is_disabled": 0, "is_reserved": 0, "lon": -77.02196916666666, "type": "electric_scooter", "fusion_lat": 0.0, "rental_uris": {"android": "https://dc.lft.to/lastmile_qr_scan", "ios": "https://dc.lft.to/lastmile_qr_scan"}}, {"bike_id": "5e000a1731f647d737aca2c16a2bfd72", "fusion_lon": 0.0, "name": "5e000a1731f647d737aca2c16a2bfd72", "lat": 38.90381033333333, "is_disabled": 0, "is_reserved": 0, "lon": -77.0626985, "type": "electric_scooter", "fusion_lat": 0.0, "rental_uris": {"android": "https://dc.lft.to/lastmile_qr_scan", "ios": "https://dc.lft.to/lastmile_qr_scan"}}, {"bike_id": "82bfb9133ceb183c4b3531dd19ef58e0", "fusion_lon": 0.0, "name": "82bfb9133ceb183c4b3531dd19ef58e0", "lat": 38.896088, "is_disabled": 0, "is_reserved": 0, "lon": -77.04413916666667, "type": "electric_scooter", "fusion_lat": 0.0, "rental_uris": {"android": "https://dc.lft.to/lastmile_qr_scan", "ios": "https://dc.lft.to/lastmile_qr_scan"}}, {"bike_id": "208b787d5bfca6c8a7aab887cd214205", "fusion_lon": 0.0, "name": "208b787d5bfca6c8a7aab887cd214205", "lat": 38.911902, "is_disabled": 0, "is_reserved": 0, "lon": -77.03955933333333, "type": "electric_scooter", "fusion_lat": 0.0, "rental_uris": {"android": "https://dc.lft.to/lastmile_qr_scan", "ios": "https://dc.lft.to/lastmile_qr_scan"}}, {"bike_id": "a8ad7304f812ef1ee5c56655f30778ce", "fusion_lon": 0.0, "name": "a8ad7304f812ef1ee5c56655f30778ce", "lat": 38.993951, "is_disabled": 0, "is_reserved": 0, "lon": -77.03101916666667, "type": "electric_bike", "fusion_lat": 0.0, "rental_uris": {"android": "https://dc.lft.to/lastmile_qr_scan", "ios": "https://dc.lft.to/lastmile_qr_scan"}}, {"bike_id": "b98a5ba5b27ab89e0605281941b6b28f", "fusion_lon": 0.0, "name": "b98a5ba5b27ab89e0605281941b6b28f", "lat": 38.90410516666667, "is_disabled": 0, "is_reserved": 0, "lon": -76.97333583333334, "type": "electric_scooter", "fusion_lat": 0.0, "rental_uris": {"android": "https://dc.lft.to/lastmile_qr_scan", "ios": "https://dc.lft.to/lastmile_qr_scan"}}, {"bike_id": "30bfcd2bc65846325375b3df90658869", "fusion_lon": 0.0, "name": "30bfcd2bc65846325375b3df90658869", "lat": 38.92974383333333, "is_disabled": 0, "is_reserved": 0, "lon": -77.02825766666666, "type": "electric_scooter", "fusion_lat": 0.0, "rental_uris": {"android": "https://dc.lft.to/lastmile_qr_scan", "ios": "https://dc.lft.to/lastmile_qr_scan"}}, {"bike_id": "ee8cf1042a239c47eada30cc81f2008b", "fusion_lon": 0.0, "name": "ee8cf1042a239c47eada30cc81f2008b", "lat": 38.89005266666667, "is_disabled": 0, "is_reserved": 0, "lon": -76.937437, "type": "electric_scooter", "fusion_lat": 0.0, "rental_uris": {"android": "https://dc.lft.to/lastmile_qr_scan", "ios": "https://dc.lft.to/lastmile_qr_scan"}}, {"bike_id": "1ff54ca20980e39e15b21bbc9cb0ad9e", "fusion_lon": 0.0, "name": "1ff54ca20980e39e15b21bbc9cb0ad9e", "lat": 38.845072, "is_disabled": 0, "is_reserved": 0, "lon": -76.99353516666666, "type": "electric_bike", "fusion_lat": 0.0, "rental_uris": {"android": "https://dc.lft.to/lastmile_qr_scan", "ios": "https://dc.lft.to/lastmile_qr_scan"}}, {"bike_id": "3e9f5da196d0a2570b154d4abc5cec72", "fusion_lon": 0.0, "name": "3e9f5da196d0a2570b154d4abc5cec72", "lat": 38.92884866666667, "is_disabled": 0, "is_reserved": 0, "lon": -77.03316633333333, "type": "electric_scooter", "fusion_lat": 0.0, "rental_uris": {"android": "https://dc.lft.to/lastmile_qr_scan", "ios": "https://dc.lft.to/lastmile_qr_scan"}}, {"bike_id": "b655f5ef1a8d683b9a4e8dd82afbb9e1", "fusion_lon": 0.0, "name": "b655f5ef1a8d683b9a4e8dd82afbb9e1", "lat": 38.9227755, "is_disabled": 0, "is_reserved": 0, "lon": -77.042377, "type": "electric_scooter", "fusion_lat": 0.0, "rental_uris": {"android": "https://dc.lft.to/lastmile_qr_scan", "ios": "https://dc.lft.to/lastmile_qr_scan"}}, {"bike_id": "e3a44d64c3f1e083262cd211d3b81844", "fusion_lon": 0.0, "name": "e3a44d64c3f1e083262cd211d3b81844", "lat": 38.857783166666664, "is_disabled": 0, "is_reserved": 0, "lon": -76.972969, "type": "electric_scooter", "fusion_lat": 0.0, "rental_uris": {"android": "https://dc.lft.to/lastmile_qr_scan", "ios": "https://dc.lft.to/lastmile_qr_scan"}}, {"bike_id": "4e957aa9f80816578ddab73731d989fd", "fusion_lon": 0.0, "name": "4e957aa9f80816578ddab73731d989fd", "lat": 38.923086, "is_disabled": 0, "is_reserved": 0, "lon": -77.04110416666667, "type": "electric_scooter", "fusion_lat": 0.0, "rental_uris": {"android": "https://dc.lft.to/lastmile_qr_scan", "ios": "https://dc.lft.to/lastmile_qr_scan"}}, {"bike_id": "2beb4b39a70fc26a30b2aedc3d80391e", "fusion_lon": 0.0, "name": "2beb4b39a70fc26a30b2aedc3d80391e", "lat": 38.89360716666667, "is_disabled": 0, "is_reserved": 0, "lon": -76.9259405, "type": "electric_scooter", "fusion_lat": 0.0, "rental_uris": {"android": "https://dc.lft.to/lastmile_qr_scan", "ios": "https://dc.lft.to/lastmile_qr_scan"}}, {"bike_id": "44bc6ff5285532b1b386648b36fa7718", "fusion_lon": 0.0, "name": "44bc6ff5285532b1b386648b36fa7718", "lat": 38.909516333333336, "is_disabled": 0, "is_reserved": 0, "lon": -76.98539233333334, "type": "electric_scooter", "fusion_lat": 0.0, "rental_uris": {"android": "https://dc.lft.to/lastmile_qr_scan", "ios": "https://dc.lft.to/lastmile_qr_scan"}}, {"bike_id": "7c64126f3efad82e88270ca05db6769d", "fusion_lon": 0.0, "name": "7c64126f3efad82e88270ca05db6769d", "lat": 38.865174833333334, "is_disabled": 0, "is_reserved": 0, "lon": -77.1293735, "type": "electric_bike", "fusion_lat": 0.0, "rental_uris": {"android": "https://dc.lft.to/lastmile_qr_scan", "ios": "https://dc.lft.to/lastmile_qr_scan"}}, {"bike_id": "6b33dd1b5e188047231d46a19c05541e", "fusion_lon": 0.0, "name": "6b33dd1b5e188047231d46a19c05541e", "lat": 38.917000333333334, "is_disabled": 0, "is_reserved": 0, "lon": -77.04211883333333, "type": "electric_scooter", "fusion_lat": 0.0, "rental_uris": {"android": "https://dc.lft.to/lastmile_qr_scan", "ios": "https://dc.lft.to/lastmile_qr_scan"}}, {"bike_id": "a08d8fbe30248fb17d955b94f8a3cb14", "fusion_lon": 0.0, "name": "a08d8fbe30248fb17d955b94f8a3cb14", "lat": 38.905768333333334, "is_disabled": 0, "is_reserved": 0, "lon": -77.04076666666667, "type": "electric_scooter", "fusion_lat": 0.0, "rental_uris": {"android": "https://dc.lft.to/lastmile_qr_scan", "ios": "https://dc.lft.to/lastmile_qr_scan"}}, {"bike_id": "1f9752df38978bfcb0624e7a20c73397", "fusion_lon": 0.0, "name": "1f9752df38978bfcb0624e7a20c73397", "lat": 38.89228333333333, "is_disabled": 0, "is_reserved": 0, "lon": -77.05003866666667, "type": "electric_scooter", "fusion_lat": 0.0, "rental_uris": {"android": "https://dc.lft.to/lastmile_qr_scan", "ios": "https://dc.lft.to/lastmile_qr_scan"}}, {"bike_id": "0774ccc242a38f219c8ac8b4e0348b8f", "fusion_lon": 0.0, "name": "0774ccc242a38f219c8ac8b4e0348b8f", "lat": 38.82457733333333, "is_disabled": 0, "is_reserved": 0, "lon": -77.00791766666667, "type": "electric_bike", "fusion_lat": 0.0, "rental_uris": {"android": "https://dc.lft.to/lastmile_qr_scan", "ios": "https://dc.lft.to/lastmile_qr_scan"}}, {"bike_id": "e20ba42e161b35c3bb2e0cbb1481c807", "fusion_lon": 0.0, "name": "e20ba42e161b35c3bb2e0cbb1481c807", "lat": 38.91074016666666, "is_disabled": 0, "is_reserved": 0, "lon": -77.0654925, "type": "electric_bike", "fusion_lat": 0.0, "rental_uris": {"android": "https://dc.lft.to/lastmile_qr_scan", "ios": "https://dc.lft.to/lastmile_qr_scan"}}, {"bike_id": "c94a7b7497483e6edaa18d2c5f67dd7d", "fusion_lon": 0.0, "name": "c94a7b7497483e6edaa18d2c5f67dd7d", "lat": 38.92360633333333, "is_disabled": 0, "is_reserved": 0, "lon": -77.05047916666666, "type": "electric_scooter", "fusion_lat": 0.0, "rental_uris": {"android": "https://dc.lft.to/lastmile_qr_scan", "ios": "https://dc.lft.to/lastmile_qr_scan"}}, {"bike_id": "a392482a4bc7656163ef49ef0fc8d5d6", "fusion_lon": 0.0, "name": "a392482a4bc7656163ef49ef0fc8d5d6", "lat": 38.89598483333333, "is_disabled": 0, "is_reserved": 0, "lon": -77.0257885, "type": "electric_scooter", "fusion_lat": 0.0, "rental_uris": {"android": "https://dc.lft.to/lastmile_qr_scan", "ios": "https://dc.lft.to/lastmile_qr_scan"}}, {"bike_id": "5b6a6b04c0446bda7b9fc46f17f38d0c", "fusion_lon": 0.0, "name": "5b6a6b04c0446bda7b9fc46f17f38d0c", "lat": 38.9046975, "is_disabled": 0, "is_reserved": 0, "lon": -77.02831916666666, "type": "electric_scooter", "fusion_lat": 0.0, "rental_uris": {"android": "https://dc.lft.to/lastmile_qr_scan", "ios": "https://dc.lft.to/lastmile_qr_scan"}}, {"bike_id": "fd3070bdeb32d50d811d998076462d1d", "fusion_lon": 0.0, "name": "fd3070bdeb32d50d811d998076462d1d", "lat": 38.90992216666667, "is_disabled": 0, "is_reserved": 0, "lon": -77.03459216666667, "type": "electric_scooter", "fusion_lat": 0.0, "rental_uris": {"android": "https://dc.lft.to/lastmile_qr_scan", "ios": "https://dc.lft.to/lastmile_qr_scan"}}, {"bike_id": "26a237ef17af3a928066ba2d65deabd8", "fusion_lon": 0.0, "name": "26a237ef17af3a928066ba2d65deabd8", "lat": 38.91880116666667, "is_disabled": 0, "is_reserved": 0, "lon": -77.043082, "type": "electric_scooter", "fusion_lat": 0.0, "rental_uris": {"android": "https://dc.lft.to/lastmile_qr_scan", "ios": "https://dc.lft.to/lastmile_qr_scan"}}, {"bike_id": "11037fbea0e27cddd0f26a11d17523cf", "fusion_lon": 0.0, "name": "11037fbea0e27cddd0f26a11d17523cf", "lat": 38.90035866666667, "is_disabled": 0, "is_reserved": 0, "lon": -77.01297233333334, "type": "electric_scooter", "fusion_lat": 0.0, "rental_uris": {"android": "https://dc.lft.to/lastmile_qr_scan", "ios": "https://dc.lft.to/lastmile_qr_scan"}}, {"bike_id": "4c2b38b17775c356bdb5017c2584ecaa", "fusion_lon": 0.0, "name": "4c2b38b17775c356bdb5017c2584ecaa", "lat": 38.8768155, "is_disabled": 0, "is_reserved": 0, "lon": -77.00753, "type": "electric_scooter", "fusion_lat": 0.0, "rental_uris": {"android": "https://dc.lft.to/lastmile_qr_scan", "ios": "https://dc.lft.to/lastmile_qr_scan"}}, {"bike_id": "292bfb2fda857420169b652d1c96e882", "fusion_lon": 0.0, "name": "292bfb2fda857420169b652d1c96e882", "lat": 38.88769383333333, "is_disabled": 0, "is_reserved": 0, "lon": -76.97753233333333, "type": "electric_scooter", "fusion_lat": 0.0, "rental_uris": {"android": "https://dc.lft.to/lastmile_qr_scan", "ios": "https://dc.lft.to/lastmile_qr_scan"}}, {"bike_id": "2bacbf46c4fb14140d76ee25713fdc24", "fusion_lon": 0.0, "name": "2bacbf46c4fb14140d76ee25713fdc24", "lat": 38.905641333333335, "is_disabled": 0, "is_reserved": 0, "lon": -77.04348766666666, "type": "electric_scooter", "fusion_lat": 0.0, "rental_uris": {"android": "https://dc.lft.to/lastmile_qr_scan", "ios": "https://dc.lft.to/lastmile_qr_scan"}}, {"bike_id": "374b03ef8675d97bfc2877c61e4944c2", "fusion_lon": 0.0, "name": "374b03ef8675d97bfc2877c61e4944c2", "lat": 38.900336, "is_disabled": 0, "is_reserved": 0, "lon": -77.00692033333333, "type": "electric_scooter", "fusion_lat": 0.0, "rental_uris": {"android": "https://dc.lft.to/lastmile_qr_scan", "ios": "https://dc.lft.to/lastmile_qr_scan"}}, {"bike_id": "02492ba9ebbb5e3ba4e46faee7a03b41", "fusion_lon": 0.0, "name": "02492ba9ebbb5e3ba4e46faee7a03b41", "lat": 38.914879, "is_disabled": 0, "is_reserved": 0, "lon": -77.04835983333334, "type": "electric_scooter", "fusion_lat": 0.0, "rental_uris": {"android": "https://dc.lft.to/lastmile_qr_scan", "ios": "https://dc.lft.to/lastmile_qr_scan"}}, {"bike_id": "f6e950abc8e0cf315b6b6274104b525e", "fusion_lon": 0.0, "name": "f6e950abc8e0cf315b6b6274104b525e", "lat": 38.949186833333336, "is_disabled": 0, "is_reserved": 0, "lon": -77.06609266666666, "type": "electric_scooter", "fusion_lat": 0.0, "rental_uris": {"android": "https://dc.lft.to/lastmile_qr_scan", "ios": "https://dc.lft.to/lastmile_qr_scan"}}, {"bike_id": "95453733c5b96dc59a734fd427e6b7ff", "fusion_lon": 0.0, "name": "95453733c5b96dc59a734fd427e6b7ff", "lat": 38.91263983333333, "is_disabled": 0, "is_reserved": 0, "lon": -77.04837633333334, "type": "electric_scooter", "fusion_lat": 0.0, "rental_uris": {"android": "https://dc.lft.to/lastmile_qr_scan", "ios": "https://dc.lft.to/lastmile_qr_scan"}}, {"bike_id": "6f5cdf6b70f21f43c4fde3808566effe", "fusion_lon": 0.0, "name": "6f5cdf6b70f21f43c4fde3808566effe", "lat": 38.9129935, "is_disabled": 0, "is_reserved": 0, "lon": -76.98471466666666, "type": "electric_scooter", "fusion_lat": 0.0, "rental_uris": {"android": "https://dc.lft.to/lastmile_qr_scan", "ios": "https://dc.lft.to/lastmile_qr_scan"}}, {"bike_id": "c40f1f5a51e425365afdd7ddda647c83", "fusion_lon": 0.0, "name": "c40f1f5a51e425365afdd7ddda647c83", "lat": 38.908947, "is_disabled": 0, "is_reserved": 0, "lon": -77.03456016666667, "type": "electric_scooter", "fusion_lat": 0.0, "rental_uris": {"android": "https://dc.lft.to/lastmile_qr_scan", "ios": "https://dc.lft.to/lastmile_qr_scan"}}, {"bike_id": "8215f3abcafc86d312fc2207209f9ff7", "fusion_lon": 0.0, "name": "8215f3abcafc86d312fc2207209f9ff7", "lat": 38.91849916666666, "is_disabled": 0, "is_reserved": 0, "lon": -77.040365, "type": "electric_scooter", "fusion_lat": 0.0, "rental_uris": {"android": "https://dc.lft.to/lastmile_qr_scan", "ios": "https://dc.lft.to/lastmile_qr_scan"}}, {"bike_id": "a3499ad6579073b86951fb6b67c2f13a", "fusion_lon": 0.0, "name": "a3499ad6579073b86951fb6b67c2f13a", "lat": 38.9198975, "is_disabled": 0, "is_reserved": 0, "lon": -76.97305116666666, "type": "electric_scooter", "fusion_lat": 0.0, "rental_uris": {"android": "https://dc.lft.to/lastmile_qr_scan", "ios": "https://dc.lft.to/lastmile_qr_scan"}}, {"bike_id": "87941e3fd70a9e2afbc10dcaa8d060a5", "fusion_lon": 0.0, "name": "87941e3fd70a9e2afbc10dcaa8d060a5", "lat": 38.881789, "is_disabled": 0, "is_reserved": 0, "lon": -76.95902633333333, "type": "electric_scooter", "fusion_lat": 0.0, "rental_uris": {"android": "https://dc.lft.to/lastmile_qr_scan", "ios": "https://dc.lft.to/lastmile_qr_scan"}}, {"bike_id": "a2c3df17bbe013001fcfb0ff5b62b00d", "fusion_lon": 0.0, "name": "a2c3df17bbe013001fcfb0ff5b62b00d", "lat": 38.9205735, "is_disabled": 0, "is_reserved": 0, "lon": -76.99883716666666, "type": "electric_scooter", "fusion_lat": 0.0, "rental_uris": {"android": "https://dc.lft.to/lastmile_qr_scan", "ios": "https://dc.lft.to/lastmile_qr_scan"}}, {"bike_id": "6cfec2b9798ba3c197f4dbb8141e1d91", "fusion_lon": 0.0, "name": "6cfec2b9798ba3c197f4dbb8141e1d91", "lat": 38.884255, "is_disabled": 0, "is_reserved": 0, "lon": -77.03049683333333, "type": "electric_scooter", "fusion_lat": 0.0, "rental_uris": {"android": "https://dc.lft.to/lastmile_qr_scan", "ios": "https://dc.lft.to/lastmile_qr_scan"}}, {"bike_id": "9418d9b26f2fa52d583d3a1dfc2aaee2", "fusion_lon": 0.0, "name": "9418d9b26f2fa52d583d3a1dfc2aaee2", "lat": 38.92037716666667, "is_disabled": 0, "is_reserved": 0, "lon": -77.0258345, "type": "electric_scooter", "fusion_lat": 0.0, "rental_uris": {"android": "https://dc.lft.to/lastmile_qr_scan", "ios": "https://dc.lft.to/lastmile_qr_scan"}}, {"bike_id": "6cef341d011f6fd82de66253ec85ab80", "fusion_lon": 0.0, "name": "6cef341d011f6fd82de66253ec85ab80", "lat": 38.9317645, "is_disabled": 0, "is_reserved": 0, "lon": -77.04300583333334, "type": "electric_scooter", "fusion_lat": 0.0, "rental_uris": {"android": "https://dc.lft.to/lastmile_qr_scan", "ios": "https://dc.lft.to/lastmile_qr_scan"}}, {"bike_id": "6a16724aadb6bba86bf1c4e3bc8d3635", "fusion_lon": 0.0, "name": "6a16724aadb6bba86bf1c4e3bc8d3635", "lat": 38.898036, "is_disabled": 0, "is_reserved": 0, "lon": -76.9903505, "type": "electric_scooter", "fusion_lat": 0.0, "rental_uris": {"android": "https://dc.lft.to/lastmile_qr_scan", "ios": "https://dc.lft.to/lastmile_qr_scan"}}, {"bike_id": "ee67a924d33266b7a249f285e02d308a", "fusion_lon": 0.0, "name": "ee67a924d33266b7a249f285e02d308a", "lat": 38.93018883333333, "is_disabled": 0, "is_reserved": 0, "lon": -77.03252083333334, "type": "electric_scooter", "fusion_lat": 0.0, "rental_uris": {"android": "https://dc.lft.to/lastmile_qr_scan", "ios": "https://dc.lft.to/lastmile_qr_scan"}}, {"bike_id": "f5c1993e241306341854777c4041bda5", "fusion_lon": 0.0, "name": "f5c1993e241306341854777c4041bda5", "lat": 38.88707483333334, "is_disabled": 0, "is_reserved": 0, "lon": -77.0220725, "type": "electric_scooter", "fusion_lat": 0.0, "rental_uris": {"android": "https://dc.lft.to/lastmile_qr_scan", "ios": "https://dc.lft.to/lastmile_qr_scan"}}, {"bike_id": "9d842ba8f8028f83acf2a8d6e6d4523a", "fusion_lon": 0.0, "name": "9d842ba8f8028f83acf2a8d6e6d4523a", "lat": 38.926717833333335, "is_disabled": 0, "is_reserved": 0, "lon": -77.0147075, "type": "electric_scooter", "fusion_lat": 0.0, "rental_uris": {"android": "https://dc.lft.to/lastmile_qr_scan", "ios": "https://dc.lft.to/lastmile_qr_scan"}}, {"bike_id": "43166c2720a5dad5b23d500c9ba596e4", "fusion_lon": 0.0, "name": "43166c2720a5dad5b23d500c9ba596e4", "lat": 38.9169355, "is_disabled": 0, "is_reserved": 0, "lon": -77.02958483333333, "type": "electric_scooter", "fusion_lat": 0.0, "rental_uris": {"android": "https://dc.lft.to/lastmile_qr_scan", "ios": "https://dc.lft.to/lastmile_qr_scan"}}, {"bike_id": "f2c7edf7a13fec763b32477f8772c27e", "fusion_lon": 0.0, "name": "f2c7edf7a13fec763b32477f8772c27e", "lat": 38.95933866666667, "is_disabled": 0, "is_reserved": 0, "lon": -77.03119033333333, "type": "electric_scooter", "fusion_lat": 0.0, "rental_uris": {"android": "https://dc.lft.to/lastmile_qr_scan", "ios": "https://dc.lft.to/lastmile_qr_scan"}}, {"bike_id": "d14dd728114e892c421c7825be9d14d2", "fusion_lon": 0.0, "name": "d14dd728114e892c421c7825be9d14d2", "lat": 38.91222833333333, "is_disabled": 0, "is_reserved": 0, "lon": -77.03794166666667, "type": "electric_scooter", "fusion_lat": 0.0, "rental_uris": {"android": "https://dc.lft.to/lastmile_qr_scan", "ios": "https://dc.lft.to/lastmile_qr_scan"}}, {"bike_id": "65ff120e4f4e6afbd0e52f60725445b0", "fusion_lon": 0.0, "name": "65ff120e4f4e6afbd0e52f60725445b0", "lat": 38.918256166666666, "is_disabled": 0, "is_reserved": 0, "lon": -77.04171216666667, "type": "electric_scooter", "fusion_lat": 0.0, "rental_uris": {"android": "https://dc.lft.to/lastmile_qr_scan", "ios": "https://dc.lft.to/lastmile_qr_scan"}}, {"bike_id": "019a640059a4cb0b8cc2ce288abf57aa", "fusion_lon": 0.0, "name": "019a640059a4cb0b8cc2ce288abf57aa", "lat": 38.91930933333333, "is_disabled": 0, "is_reserved": 0, "lon": -77.02347516666667, "type": "electric_scooter", "fusion_lat": 0.0, "rental_uris": {"android": "https://dc.lft.to/lastmile_qr_scan", "ios": "https://dc.lft.to/lastmile_qr_scan"}}, {"bike_id": "8ee3e0a6a6fe469763ca34bd16221492", "fusion_lon": 0.0, "name": "8ee3e0a6a6fe469763ca34bd16221492", "lat": 38.84507466666667, "is_disabled": 0, "is_reserved": 0, "lon": -76.99353116666667, "type": "electric_bike", "fusion_lat": 0.0, "rental_uris": {"android": "https://dc.lft.to/lastmile_qr_scan", "ios": "https://dc.lft.to/lastmile_qr_scan"}}, {"bike_id": "74f7dff74bacdd251bc2b8c8def9a0af", "fusion_lon": 0.0, "name": "74f7dff74bacdd251bc2b8c8def9a0af", "lat": 38.924860833333334, "is_disabled": 0, "is_reserved": 0, "lon": -77.02755033333334, "type": "electric_scooter", "fusion_lat": 0.0, "rental_uris": {"android": "https://dc.lft.to/lastmile_qr_scan", "ios": "https://dc.lft.to/lastmile_qr_scan"}}, {"bike_id": "4c9b76cc52f80e0a461db87aa879d77f", "fusion_lon": 0.0, "name": "4c9b76cc52f80e0a461db87aa879d77f", "lat": 38.902047333333336, "is_disabled": 0, "is_reserved": 0, "lon": -77.02760033333334, "type": "electric_scooter", "fusion_lat": 0.0, "rental_uris": {"android": "https://dc.lft.to/lastmile_qr_scan", "ios": "https://dc.lft.to/lastmile_qr_scan"}},