{"data": {"bikes": [{"type": "electric_scooter", "name": "62399f341287089c61f1a9c74003da70", "fusion_lat": 0.0, "fusion_lon": 0.0, "lon": -76.99847416666667, "is_disabled": 0, "bike_id": "62399f341287089c61f1a9c74003da70", "is_reserved": 0, "rental_uris": {"android": "https://dc.lft.to/lastmile_qr_scan", "ios": "https://dc.lft.to/lastmile_qr_scan"}, "lat": 38.900635666666666}, {"type": "electric_scooter", "name": "f616db11ae867e60045b35985f82e7ef", "fusion_lat": 0.0, "fusion_lon": 0.0, "lon": -77.0248715, "is_disabled": 0, "bike_id": "f616db11ae867e60045b35985f82e7ef", "is_reserved": 0, "rental_uris": {"android": "https://dc.lft.to/lastmile_qr_scan", "ios": "https://dc.lft.to/lastmile_qr_scan"}, "lat": 38.94185233333333}, {"type": "electric_scooter", "name": "2d53225b6a42ecc584a5d11b1516820d", "fusion_lat": 0.0, "fusion_lon": 0.0, "lon": -77.07318766666667, "is_disabled": 0, "bike_id": "2d53225b6a42ecc584a5d11b1516820d", "is_reserved": 0, "rental_uris": {"android": "https://dc.lft.to/lastmile_qr_scan", "ios": "https://dc.lft.to/lastmile_qr_scan"}, "lat": 38.92317633333333}, {"type": "electric_scooter", "name": "e1709924a08984c93410808e622913b0", "fusion_lat": 0.0, "fusion_lon": 0.0, "lon": -77.008452, "is_disabled": 0, "bike_id": "e1709924a08984c93410808e622913b0", "is_reserved": 0, "rental_uris": {"android": "https://dc.lft.to/lastmile_qr_scan", "ios": "https://dc.lft.to/lastmile_qr_scan"}, "lat": 38.879081666666664}, {"type": "electric_scooter", "name": "98f6ff3d53aab806d2639f7b40284f5d", "fusion_lat": 0.0, "fusion_lon": 0.0, "lon": -77.0222425, "is_disabled": 0, "bike_id": "98f6ff3d53aab806d2639f7b40284f5d", "is_reserved": 0, "rental_uris": {"android": "https://dc.lft.to/lastmile_qr_scan", "ios": "https://dc.lft.to/lastmile_qr_scan"}, "lat": 38.93552433333333}, {"type": "electric_scooter", "name": "63053578d4d59d5ef66633194a81fcf1", "fusion_lat": 0.0, "fusion_lon": 0.0, "lon": -77.0396105, "is_disabled": 0, "bike_id": "63053578d4d59d5ef66633194a81fcf1", "is_reserved": 0, "rental_uris": {"android": "https://dc.lft.to/lastmile_qr_scan", "ios": "https://dc.lft.to/lastmile_qr_scan"}, "lat": 38.931548}, {"type": "electric_scooter", "name": "c3604766cab15945b1468fbb825ad43e", "fusion_lat": 0.0, "fusion_lon": 0.0, "lon": -77.03621883333334, "is_disabled": 0, "bike_id": "c3604766cab15945b1468fbb825ad43e", "is_reserved": 0, "rental_uris": {"android": "https://dc.lft.to/lastmile_qr_scan", "ios": "https://dc.lft.to/lastmile_qr_scan"}, "lat": 38.936752166666665}, {"type": "electric_scooter", "name": "5acd0ec94554a2941152a1f53b6467ce", "fusion_lat": 0.0, "fusion_lon": 0.0, "lon": -77.0237715, "is_disabled": 0, "bike_id": "5acd0ec94554a2941152a1f53b6467ce", "is_reserved": 0, "rental_uris": {"android": "https://dc.lft.to/lastmile_qr_scan", "ios": "https://dc.lft.to/lastmile_qr_scan"}, "lat": 38.90971416666667}, {"type": "electric_scooter", "name": "053c801b45e02caeebcabaea63d8feca", "fusion_lat": 0.0, "fusion_lon": 0.0, "lon": -77.03226483333333, "is_disabled": 0, "bike_id": "053c801b45e02caeebcabaea63d8feca", "is_reserved": 0, "rental_uris": {"android": "https://dc.lft.to/lastmile_qr_scan", "ios": "https://dc.lft.to/lastmile_qr_scan"}, "lat": 38.907387166666666}, {"type": "electric_scooter", "name": "4b035d8961d984dba6baf0bf8c13bb44", "fusion_lat": 0.0, "fusion_lon": 0.0, "lon": -77.02170133333334, "is_disabled": 0, "bike_id": "4b035d8961d984dba6baf0bf8c13bb44", "is_reserved": 0, "rental_uris": {"android": "https://dc.lft.to/lastmile_qr_scan", "ios": "https://dc.lft.to/lastmile_qr_scan"}, "lat": 38.90189766666667}, {"type": "electric_bike", "name": "c936724008f84e4529179a9862b584d9", "fusion_lat": 0.0, "fusion_lon": 0.0, "lon": -77.02802383333334, "is_disabled": 0, "bike_id": "c936724008f84e4529179a9862b584d9", "is_reserved": 0, "rental_uris": {"android": "https://dc.lft.to/lastmile_qr_scan", "ios": "https://dc.lft.to/lastmile_qr_scan"}, "lat": 38.919233}, {"type": "electric_scooter", "name": "38cb17f4d51790e9419db5c3728a4f95", "fusion_lat": 0.0, "fusion_lon": 0.0, "lon": -77.0347205, "is_disabled": 0, "bike_id": "38cb17f4d51790e9419db5c3728a4f95", "is_reserved": 0, "rental_uris": {"android": "https://dc.lft.to/lastmile_qr_scan", "ios": "https://dc.lft.to/lastmile_qr_scan"}, "lat": 38.928816}, {"type": "electric_scooter", "name": "5b223b58e7b7e02235824c0c548b9c9c", "fusion_lat": 0.0, "fusion_lon": 0.0, "lon": -76.98078816666667, "is_disabled": 0, "bike_id": "5b223b58e7b7e02235824c0c548b9c9c", "is_reserved": 0, "rental_uris": {"android": "https://dc.lft.to/lastmile_qr_scan", "ios": "https://dc.lft.to/lastmile_qr_scan"}, "lat": 38.90413483333333}, {"type": "electric_scooter", "name": "31d05208f7e331647e2cb13e01cc5e2d", "fusion_lat": 0.0, "fusion_lon": 0.0, "lon": -77.02697133333334, "is_disabled": 0, "bike_id": "31d05208f7e331647e2cb13e01cc5e2d", "is_reserved": 0, "rental_uris": {"android": "https://dc.lft.to/lastmile_qr_scan", "ios": "https://dc.lft.to/lastmile_qr_scan"}, "lat": 38.906710333333336}, {"type": "electric_scooter", "name": "353c506b35e2be432c964a6c5d35956b", "fusion_lat": 0.0, "fusion_lon": 0.0, "lon": -77.03896633333333, "is_disabled": 0, "bike_id": "353c506b35e2be432c964a6c5d35956b", "is_reserved": 0, "rental_uris": {"android": "https://dc.lft.to/lastmile_qr_scan", "ios": "https://dc.lft.to/lastmile_qr_scan"}, "lat": 38.92223333333333}, {"type": "electric_scooter", "name": "da231c856ca49853001e7a09de193698", "fusion_lat": 0.0, "fusion_lon": 0.0, "lon": -77.02299616666667, "is_disabled": 0, "bike_id": "da231c856ca49853001e7a09de193698", "is_reserved": 0, "rental_uris": {"android": "https://dc.lft.to/lastmile_qr_scan", "ios": "https://dc.lft.to/lastmile_qr_scan"}, "lat": 38.926845}, {"type": "electric_scooter", "name": "12aaeb3fc5e1fc1e9365b7f2e5100c73", "fusion_lat": 0.0, "fusion_lon": 0.0, "lon": -77.05597, "is_disabled": 0, "bike_id": "12aaeb3fc5e1fc1e9365b7f2e5100c73", "is_reserved": 0, "rental_uris": {"android": "https://dc.lft.to/lastmile_qr_scan", "ios": "https://dc.lft.to/lastmile_qr_scan"}, "lat": 38.89425333333333}, {"type": "electric_scooter", "name": "9056c0d73526ee0fd66cebebb9f27e20", "fusion_lat": 0.0, "fusion_lon": 0.0, "lon": -77.01412233333333, "is_disabled": 0, "bike_id": "9056c0d73526ee0fd66cebebb9f27e20", "is_reserved": 0, "rental_uris": {"android": "https://dc.lft.to/lastmile_qr_scan", "ios": "https://dc.lft.to/lastmile_qr_scan"}, "lat": 38.928229333333334}, {"type": "electric_scooter", "name": "d4f862128139022cd195fedbbf802aaa", "fusion_lat": 0.0, "fusion_lon": 0.0, "lon": -77.03555566666667, "is_disabled": 0, "bike_id": "d4f862128139022cd195fedbbf802aaa", "is_reserved": 0, "rental_uris": {"android": "https://dc.lft.to/lastmile_qr_scan", "ios": "https://dc.lft.to/lastmile_qr_scan"}, "lat": 38.91719583333333}, {"type": "electric_scooter", "name": "85a220b119607ffe489af2d7245e1622", "fusion_lat": 0.0, "fusion_lon": 0.0, "lon": -76.96543033333333, "is_disabled": 0, "bike_id": "85a220b119607ffe489af2d7245e1622", "is_reserved": 0, "rental_uris": {"android": "https://dc.lft.to/lastmile_qr_scan", "ios": "https://dc.lft.to/lastmile_qr_scan"}, "lat": 38.91849083333334}, {"type": "electric_scooter", "name": "da82419fee9418dc16ebf022f9ebce81", "fusion_lat": 0.0, "fusion_lon": 0.0, "lon": -77.02023266666667, "is_disabled": 0, "bike_id": "da82419fee9418dc16ebf022f9ebce81", "is_reserved": 0, "rental_uris": {"android": "https://dc.lft.to/lastmile_qr_scan", "ios": "https://dc.lft.to/lastmile_qr_scan"}, "lat": 38.8986205}, {"type": "electric_bike", "name": "99a0abfa942ec58eafb0f95beef99c7b", "fusion_lat": 0.0, "fusion_lon": 0.0, "lon": -77.0832395, "is_disabled": 0, "bike_id": "99a0abfa942ec58eafb0f95beef99c7b", "is_reserved": 0, "rental_uris": {"android": "https://dc.lft.to/lastmile_qr_scan", "ios": "https://dc.lft.to/lastmile_qr_scan"}, "lat": 38.9335015}, {"type": "electric_scooter", "name": "edff47054ca9f1b6c14b5c3d6d095212", "fusion_lat": 0.0, "fusion_lon": 0.0, "lon": -77.0213325, "is_disabled": 0, "bike_id": "edff47054ca9f1b6c14b5c3d6d095212", "is_reserved": 0, "rental_uris": {"android": "https://dc.lft.to/lastmile_qr_scan", "ios": "https://dc.lft.to/lastmile_qr_scan"}, "lat": 38.913226333333334}, {"type": "electric_scooter", "name": "31855d288df3f3c7abbd22ad7170746a", "fusion_lat": 0.0, "fusion_lon": 0.0, "lon": -77.04155416666667, "is_disabled": 0, "bike_id": "31855d288df3f3c7abbd22ad7170746a", "is_reserved": 0, "rental_uris": {"android": "https://dc.lft.to/lastmile_qr_scan", "ios": "https://dc.lft.to/lastmile_qr_scan"}, "lat": 38.91547516666667}, {"type": "electric_scooter", "name": "b651dfc500b046d46e4c0749716815ad", "fusion_lat": 0.0, "fusion_lon": 0.0, "lon": -77.03291083333333, "is_disabled": 0, "bike_id": "b651dfc500b046d46e4c0749716815ad", "is_reserved": 0, "rental_uris": {"android": "https://dc.lft.to/lastmile_qr_scan", "ios": "https://dc.lft.to/lastmile_qr_scan"}, "lat": 38.924576333333334}, {"type": "electric_scooter", "name": "cd4a2e79549d4635bf1ec6c7a051c93c", "fusion_lat": 0.0, "fusion_lon": 0.0, "lon": -77.02476583333333, "is_disabled": 0, "bike_id": "cd4a2e79549d4635bf1ec6c7a051c93c", "is_reserved": 0, "rental_uris": {"android": "https://dc.lft.to/lastmile_qr_scan", "ios": "https://dc.lft.to/lastmile_qr_scan"}, "lat": 38.9181735}, {"type": "electric_scooter", "name": "d9402547ce897362dea57230cc51dfba", "fusion_lat": 0.0, "fusion_lon": 0.0, "lon": -77.02257133333333, "is_disabled": 0, "bike_id": "d9402547ce897362dea57230cc51dfba", "is_reserved": 0, "rental_uris": {"android": "https://dc.lft.to/lastmile_qr_scan", "ios": "https://dc.lft.to/lastmile_qr_scan"}, "lat": 38.89364966666667}, {"type": "electric_scooter", "name": "0961b57c82caf689ae2f09d023256c5e", "fusion_lat": 0.0, "fusion_lon": 0.0, "lon": -77.03783416666667, "is_disabled": 0, "bike_id": "0961b57c82caf689ae2f09d023256c5e", "is_reserved": 0, "rental_uris": {"android": "https://dc.lft.to/lastmile_qr_scan", "ios": "https://dc.lft.to/lastmile_qr_scan"}, "lat": 38.90731266666667}, {"type": "electric_scooter", "name": "c2133300cda8280f7ad3e3bc5b2abc5b", "fusion_lat": 0.0, "fusion_lon": 0.0, "lon": -77.02511716666666, "is_disabled": 0, "bike_id": "c2133300cda8280f7ad3e3bc5b2abc5b", "is_reserved": 0, "rental_uris": {"android": "https://dc.lft.to/lastmile_qr_scan", "ios": "https://dc.lft.to/lastmile_qr_scan"}, "lat": 38.92079533333333}, {"type": "electric_bike", "name": "b3e0e613519ac786d75b10cf7974181b", "fusion_lat": 0.0, "fusion_lon": 0.0, "lon": -77.053473, "is_disabled": 0, "bike_id": "b3e0e613519ac786d75b10cf7974181b", "is_reserved": 0, "rental_uris": {"android": "https://dc.lft.to/lastmile_qr_scan", "ios": "https://dc.lft.to/lastmile_qr_scan"}, "lat": 38.834508}, {"type": "electric_scooter", "name": "087f39a6135219c5dff61f526928d57c", "fusion_lat": 0.0, "fusion_lon": 0.0, "lon": -77.013376, "is_disabled": 0, "bike_id": "087f39a6135219c5dff61f526928d57c", "is_reserved": 0, "rental_uris": {"android": "https://dc.lft.to/lastmile_qr_scan", "ios": "https://dc.lft.to/lastmile_qr_scan"}, "lat": 38.881249}, {"type": "electric_bike", "name": "8a29d071d1919e740b1c1c7bff2bb937", "fusion_lat": 0.0, "fusion_lon": 0.0, "lon": -76.98438933333334, "is_disabled": 0, "bike_id": "8a29d071d1919e740b1c1c7bff2bb937", "is_reserved": 0, "rental_uris": {"android": "https://dc.lft.to/lastmile_qr_scan", "ios": "https://dc.lft.to/lastmile_qr_scan"}, "lat": 38.855232666666666}, {"type": "electric_scooter", "name": "511b34ec9b8986d0f9898f06204a4a85", "fusion_lat": 0.0, "fusion_lon": 0.0, "lon": -77.02182633333334, "is_disabled": 0, "bike_id": "511b34ec9b8986d0f9898f06204a4a85", "is_reserved": 0, "rental_uris": {"android": "https://dc.lft.to/lastmile_qr_scan", "ios": "https://dc.lft.to/lastmile_qr_scan"}, "lat": 38.905474}, {"type": "electric_scooter", "name": "501e5510bf7c973902fdb2a1b0e18377", "fusion_lat": 0.0, "fusion_lon": 0.0, "lon": -76.98339, "is_disabled": 0, "bike_id": "501e5510bf7c973902fdb2a1b0e18377", "is_reserved": 0, "rental_uris": {"android": "https://dc.lft.to/lastmile_qr_scan", "ios": "https://dc.lft.to/lastmile_qr_scan"}, "lat": 38.8954105}, {"type": "electric_scooter", "name": "6eea851a154e6b7ece2beabdd3782721", "fusion_lat": 0.0, "fusion_lon": 0.0, "lon": -77.0367285, "is_disabled": 0, "bike_id": "6eea851a154e6b7ece2beabdd3782721", "is_reserved": 0, "rental_uris": {"android": "https://dc.lft.to/lastmile_qr_scan", "ios": "https://dc.lft.to/lastmile_qr_scan"}, "lat": 38.923330166666666}, {"type": "electric_scooter", "name": "c85eba898e4288b9f355e3235323d8b8", "fusion_lat": 0.0, "fusion_lon": 0.0, "lon": -77.0335305, "is_disabled": 0, "bike_id": "c85eba898e4288b9f355e3235323d8b8", "is_reserved": 0, "rental_uris": {"android": "https://dc.lft.to/lastmile_qr_scan", "ios": "https://dc.lft.to/lastmile_qr_scan"}, "lat": 38.92344583333333}, {"type": "electric_scooter", "name": "afbe4858484c72f70ef0603d6037ad13", "fusion_lat": 0.0, "fusion_lon": 0.0, "lon": -77.01782733333333, "is_disabled": 0, "bike_id": "afbe4858484c72f70ef0603d6037ad13", "is_reserved": 0, "rental_uris": {"android": "https://dc.lft.to/lastmile_qr_scan", "ios": "https://dc.lft.to/lastmile_qr_scan"}, "lat": 38.919918833333334}, {"type": "electric_scooter", "name": "9070e50f74c7e6f106c9c9bef9031469", "fusion_lat": 0.0, "fusion_lon": 0.0, "lon": -77.04350233333334, "is_disabled": 0, "bike_id": "9070e50f74c7e6f106c9c9bef9031469", "is_reserved": 0, "rental_uris": {"android": "https://dc.lft.to/lastmile_qr_scan", "ios": "https://dc.lft.to/lastmile_qr_scan"}, "lat": 38.90817583333333}, {"type": "electric_scooter", "name": "02ba04a85e56ea0883f34555ae501410", "fusion_lat": 0.0, "fusion_lon": 0.0, "lon": -77.00345466666667, "is_disabled": 0, "bike_id": "02ba04a85e56ea0883f34555ae501410", "is_reserved": 0, "rental_uris": {"android": "https://dc.lft.to/lastmile_qr_scan", "ios": "https://dc.lft.to/lastmile_qr_scan"}, "lat": 38.916226}, {"type": "electric_scooter", "name": "d05b5bbd0f2c60d5f5f6ee53e879ac45", "fusion_lat": 0.0, "fusion_lon": 0.0, "lon": -77.020957, "is_disabled": 0, "bike_id": "d05b5bbd0f2c60d5f5f6ee53e879ac45", "is_reserved": 0, "rental_uris": {"android": "https://dc.lft.to/lastmile_qr_scan", "ios": "https://dc.lft.to/lastmile_qr_scan"}, "lat": 38.930102833333336}, {"type": "electric_bike", "name": "a90b036188a917f7b58448eb92ddfc32", "fusion_lat": 0.0, "fusion_lon": 0.0, "lon": -77.11414883333333, "is_disabled": 0, "bike_id": "a90b036188a917f7b58448eb92ddfc32", "is_reserved": 0, "rental_uris": {"android": "https://dc.lft.to/lastmile_qr_scan", "ios": "https://dc.lft.to/lastmile_qr_scan"}, "lat": 38.873196666666665}, {"type": "electric_scooter", "name": "5a3229b4455b8b8bdc5c88c805106ec3", "fusion_lat": 0.0, "fusion_lon": 0.0, "lon": -77.02202066666666, "is_disabled": 0, "bike_id": "5a3229b4455b8b8bdc5c88c805106ec3", "is_reserved": 0, "rental_uris": {"android": "https://dc.lft.to/lastmile_qr_scan", "ios": "https://dc.lft.to/lastmile_qr_scan"}, "lat": 38.91439866666666}, {"type": "electric_scooter", "name": "5f98d994c14fac3349a02551db6f3b95", "fusion_lat": 0.0, "fusion_lon": 0.0, "lon": -77.04327, "is_disabled": 0, "bike_id": "5f98d994c14fac3349a02551db6f3b95", "is_reserved": 0, "rental_uris": {"android": "https://dc.lft.to/lastmile_qr_scan", "ios": "https://dc.lft.to/lastmile_qr_scan"}, "lat": 38.934152166666664}, {"type": "electric_scooter", "name": "3140446d1f9c689f2b1964733106fbc1", "fusion_lat": 0.0, "fusion_lon": 0.0, "lon": -77.00620116666667, "is_disabled": 0, "bike_id": "3140446d1f9c689f2b1964733106fbc1", "is_reserved": 0, "rental_uris": {"android": "https://dc.lft.to/lastmile_qr_scan", "ios": "https://dc.lft.to/lastmile_qr_scan"}, "lat": 38.87193633333333}, {"type": "electric_scooter", "name": "6df58b799de195a1e6fef4e4eeac90ee", "fusion_lat": 0.0, "fusion_lon": 0.0, "lon": -77.04878666666667, "is_disabled": 0, "bike_id": "6df58b799de195a1e6fef4e4eeac90ee", "is_reserved": 0, "rental_uris": {"android": "https://dc.lft.to/lastmile_qr_scan", "ios": "https://dc.lft.to/lastmile_qr_scan"}, "lat": 38.910571}, {"type": "electric_scooter", "name": "670acbfdf3114d59dd27eabd41abfe8e", "fusion_lat": 0.0, "fusion_lon": 0.0, "lon": -77.02300683333333, "is_disabled": 0, "bike_id": "670acbfdf3114d59dd27eabd41abfe8e", "is_reserved": 0, "rental_uris": {"android": "https://dc.lft.to/lastmile_qr_scan", "ios": "https://dc.lft.to/lastmile_qr_scan"}, "lat": 38.91694233333333}, {"type": "electric_scooter", "name": "bc1a34522bdc60d1cae19413729b9de6", "fusion_lat": 0.0, "fusion_lon": 0.0, "lon": -77.04860383333333, "is_disabled": 0, "bike_id": "bc1a34522bdc60d1cae19413729b9de6", "is_reserved": 0, "rental_uris": {"android": "https://dc.lft.to/lastmile_qr_scan", "ios": "https://dc.lft.to/lastmile_qr_scan"}, "lat": 38.91265283333333}, {"type": "electric_scooter", "name": "7e6ef0dba73d9828a595b52bfeb9092c", "fusion_lat": 0.0, "fusion_lon": 0.0, "lon": -76.98371016666667, "is_disabled": 0, "bike_id": "7e6ef0dba73d9828a595b52bfeb9092c", "is_reserved": 0, "rental_uris": {"android": "https://dc.lft.to/lastmile_qr_scan", "ios": "https://dc.lft.to/lastmile_qr_scan"}, "lat": 38.891362}, {"type": "electric_scooter", "name": "859411b3e39e9ae5c17ccc2fffc92614", "fusion_lat": 0.0, "fusion_lon": 0.0, "lon": -77.06692383333333, "is_disabled": 0, "bike_id": "859411b3e39e9ae5c17ccc2fffc92614", "is_reserved": 0, "rental_uris": {"android": "https://dc.lft.to/lastmile_qr_scan", "ios": "https://dc.lft.to/lastmile_qr_scan"}, "lat": 38.95020016666667}, {"type": "electric_scooter", "name": "9d748558bef6a7aeaa92e230eec03bb4", "fusion_lat": 0.0, "fusion_lon": 0.0, "lon": -77.017992, "is_disabled": 0, "bike_id": "9d748558bef6a7aeaa92e230eec03bb4", "is_reserved": 0, "rental_uris": {"android": "https://dc.lft.to/lastmile_qr_scan", "ios": "https://dc.lft.to/lastmile_qr_scan"}, "lat": 38.919431333333335}, {"type": "electric_scooter", "name": "6f2f662fa52396df600cdf1ae69e55ae", "fusion_lat": 0.0, "fusion_lon": 0.0, "lon": -77.02299633333334, "is_disabled": 0, "bike_id": "6f2f662fa52396df600cdf1ae69e55ae", "is_reserved": 0, "rental_uris": {"android": "https://dc.lft.to/lastmile_qr_scan", "ios": "https://dc.lft.to/lastmile_qr_scan"}, "lat": 38.928255166666666}, {"type": "electric_scooter", "name": "7644f5fe8c0382e1e5f289a7cf15c5d0", "fusion_lat": 0.0, "fusion_lon": 0.0, "lon": -77.0173105, "is_disabled": 0, "bike_id": "7644f5fe8c0382e1e5f289a7cf15c5d0", "is_reserved": 0, "rental_uris": {"android": "https://dc.lft.to/lastmile_qr_scan", "ios": "https://dc.lft.to/lastmile_qr_scan"}, "lat": 38.9055755}, {"type": "electric_scooter", "name": "50f05f9f9cba04b14cbc00b17606da75", "fusion_lat": 0.0, "fusion_lon": 0.0, "lon": -76.99032433333333, "is_disabled": 0, "bike_id": "50f05f9f9cba04b14cbc00b17606da75", "is_reserved": 0, "rental_uris": {"android": "https://dc.lft.to/lastmile_qr_scan", "ios": "https://dc.lft.to/lastmile_qr_scan"}, "lat": 38.888807}, {"type": "electric_scooter", "name": "d7fe506b31362c9fa1dec9e1ceed0819", "fusion_lat": 0.0, "fusion_lon": 0.0, "lon": -77.0110895, "is_disabled": 0, "bike_id": "d7fe506b31362c9fa1dec9e1ceed0819", "is_reserved": 0, "rental_uris": {"android": "https://dc.lft.to/lastmile_qr_scan", "ios": "https://dc.lft.to/lastmile_qr_scan"}, "lat": 38.8954715}, {"type": "electric_bike", "name": "d4ffde9860c754d6bb95186a68c1714c", "fusion_lat": 0.0, "fusion_lon": 0.0, "lon": -77.02068683333333, "is_disabled": 0, "bike_id": "d4ffde9860c754d6bb95186a68c1714c", "is_reserved": 0, "rental_uris": {"android": "https://dc.lft.to/lastmile_qr_scan", "ios": "https://dc.lft.to/lastmile_qr_scan"}, "lat": 38.96441316666667}, {"type": "electric_scooter", "name": "220726a4412a683953d12db813a84790", "fusion_lat": 0.0, "fusion_lon": 0.0, "lon": -77.036609, "is_disabled": 0, "bike_id": "220726a4412a683953d12db813a84790", "is_reserved": 0, "rental_uris": {"android": "https://dc.lft.to/lastmile_qr_scan", "ios": "https://dc.lft.to/lastmile_qr_scan"}, "lat": 38.922845}, {"type": "electric_scooter", "name": "046b912ef153226096c6dbb6adcb3794", "fusion_lat": 0.0, "fusion_lon": 0.0, "lon": -77.062882, "is_disabled": 0, "bike_id": "046b912ef153226096c6dbb6adcb3794", "is_reserved": 0, "rental_uris": {"android": "https://dc.lft.to/lastmile_qr_scan", "ios": "https://dc.lft.to/lastmile_qr_scan"}, "lat": 38.90317266666667}, {"type": "electric_scooter", "name": "ec8bc1a3065af0e1c21ff2f44e8041a6", "fusion_lat": 0.0, "fusion_lon": 0.0, "lon": -76.94191133333334, "is_disabled": 0, "bike_id": "ec8bc1a3065af0e1c21ff2f44e8041a6", "is_reserved": 0, "rental_uris": {"android": "https://dc.lft.to/lastmile_qr_scan", "ios": "https://dc.lft.to/lastmile_qr_scan"}, "lat": 38.89761}, {"type": "electric_scooter", "name": "5d658c6f47cde763c81093bc37672c2b", "fusion_lat": 0.0, "fusion_lon": 0.0, "lon": -77.03555433333334, "is_disabled": 0, "bike_id": "5d658c6f47cde763c81093bc37672c2b", "is_reserved": 0, "rental_uris": {"android": "https://dc.lft.to/lastmile_qr_scan", "ios": "https://dc.lft.to/lastmile_qr_scan"}, "lat": 38.9248505}, {"type": "electric_scooter", "name": "942adbfdcf18898c8a953c6c12b6d70d", "fusion_lat": 0.0, "fusion_lon": 0.0, "lon": -77.0338565, "is_disabled": 0, "bike_id": "942adbfdcf18898c8a953c6c12b6d70d", "is_reserved": 0, "rental_uris": {"android": "https://dc.lft.to/lastmile_qr_scan", "ios": "https://dc.lft.to/lastmile_qr_scan"}, "lat": 38.90142266666667}, {"type": "electric_scooter", "name": "8a894f2d634358ed857145b322df899e", "fusion_lat": 0.0, "fusion_lon": 0.0, "lon": -77.014373, "is_disabled": 0, "bike_id": "8a894f2d634358ed857145b322df899e", "is_reserved": 0, "rental_uris": {"android": "https://dc.lft.to/lastmile_qr_scan", "ios": "https://dc.lft.to/lastmile_qr_scan"}, "lat": 38.913169333333336}, {"type": "electric_scooter", "name": "1840839249543a047e578c6465320326", "fusion_lat": 0.0, "fusion_lon": 0.0, "lon": -76.99747716666667, "is_disabled": 0, "bike_id": "1840839249543a047e578c6465320326", "is_reserved": 0, "rental_uris": {"android": "https://dc.lft.to/lastmile_qr_scan", "ios": "https://dc.lft.to/lastmile_qr_scan"}, "lat": 38.90046816666667}, {"type": "electric_bike", "name": "78f33a46067cdfa5fa241bd45c70bbd6", "fusion_lat": 0.0, "fusion_lon": 0.0, "lon": -77.07662966666666, "is_disabled": 0, "bike_id": "78f33a46067cdfa5fa241bd45c70bbd6", "is_reserved": 0, "rental_uris": {"android": "https://dc.lft.to/lastmile_qr_scan", "ios": "https://dc.lft.to/lastmile_qr_scan"}, "lat": 38.80980566666667}, {"type": "electric_scooter", "name": "847550ae7a48e80274dd00ad9ed1ff9e", "fusion_lat": 0.0, "fusion_lon": 0.0, "lon": -77.02696466666667, "is_disabled": 0, "bike_id": "847550ae7a48e80274dd00ad9ed1ff9e", "is_reserved": 0, "rental_uris": {"android": "https://dc.lft.to/lastmile_qr_scan", "ios": "https://dc.lft.to/lastmile_qr_scan"}, "lat": 38.912708}, {"type": "electric_scooter", "name": "cb25d52589e20fed06e824e439f19ff1", "fusion_lat": 0.0, "fusion_lon": 0.0, "lon": -77.02802666666666, "is_disabled": 0, "bike_id": "cb25d52589e20fed06e824e439f19ff1", "is_reserved": 0, "rental_uris": {"android": "https://dc.lft.to/lastmile_qr_scan", "ios": "https://dc.lft.to/lastmile_qr_scan"}, "lat": 38.93186816666667}, {"type": "electric_scooter", "name": "8806685c35a90e78773bdd2851a69f22", "fusion_lat": 0.0, "fusion_lon": 0.0, "lon": -77.02695033333333, "is_disabled": 0, "bike_id": "8806685c35a90e78773bdd2851a69f22", "is_reserved": 0, "rental_uris": {"android": "https://dc.lft.to/lastmile_qr_scan", "ios": "https://dc.lft.to/lastmile_qr_scan"}, "lat": 38.91273733333333}, {"type": "electric_scooter", "name": "727bcd481bce9495be2c13fc6b07bbc1", "fusion_lat": 0.0, "fusion_lon": 0.0, "lon": -77.02651183333333, "is_disabled": 0, "bike_id": "727bcd481bce9495be2c13fc6b07bbc1", "is_reserved": 0, "rental_uris": {"android": "https://dc.lft.to/lastmile_qr_scan", "ios": "https://dc.lft.to/lastmile_qr_scan"}, "lat": 38.93100833333333}, {"type": "electric_scooter", "name": "1ab0f6812931056c1781e3fedd3f22b2", "fusion_lat": 0.0, "fusion_lon": 0.0, "lon": -77.03838316666666, "is_disabled": 0, "bike_id": "1ab0f6812931056c1781e3fedd3f22b2", "is_reserved": 0, "rental_uris": {"android": "https://dc.lft.to/lastmile_qr_scan", "ios": "https://dc.lft.to/lastmile_qr_scan"}, "lat": 38.90715633333333}, {"type": "electric_scooter", "name": "4653ff766f82fbdf0613d39dd7be5047", "fusion_lat": 0.0, "fusion_lon": 0.0, "lon": -77.11019866666666, "is_disabled": 0, "bike_id": "4653ff766f82fbdf0613d39dd7be5047", "is_reserved": 0, "rental_uris": {"android": "https://dc.lft.to/lastmile_qr_scan", "ios": "https://dc.lft.to/lastmile_qr_scan"}, "lat": 38.87705966666667}, {"type": "electric_scooter", "name": "1c5e60513d0992f1d02ccfe38b094efc", "fusion_lat": 0.0, "fusion_lon": 0.0, "lon": -77.02428016666667, "is_disabled": 0, "bike_id": "1c5e60513d0992f1d02ccfe38b094efc", "is_reserved": 0, "rental_uris": {"android": "https://dc.lft.to/lastmile_qr_scan", "ios": "https://dc.lft.to/lastmile_qr_scan"}, "lat": 38.92050116666667}, {"type": "electric_scooter", "name": "38ab100ade6206306c6219f097b67579", "fusion_lat": 0.0, "fusion_lon": 0.0, "lon": -77.0244655, "is_disabled": 0, "bike_id": "38ab100ade6206306c6219f097b67579", "is_reserved": 0, "rental_uris": {"android": "https://dc.lft.to/lastmile_qr_scan", "ios": "https://dc.lft.to/lastmile_qr_scan"}, "lat": 38.923527}, {"type": "electric_scooter", "name": "72432ddbccad6b89dac5eac5edbb1db8", "fusion_lat": 0.0, "fusion_lon": 0.0, "lon": -77.03283033333334, "is_disabled": 0, "bike_id": "72432ddbccad6b89dac5eac5edbb1db8", "is_reserved": 0, "rental_uris": {"android": "https://dc.lft.to/lastmile_qr_scan", "ios": "https://dc.lft.to/lastmile_qr_scan"}, "lat": 38.93152}, {"type": "electric_scooter", "name": "45b21af3a53a47e854711d8c31a64771", "fusion_lat": 0.0, "fusion_lon": 0.0, "lon": -77.0280575, "is_disabled": 0, "bike_id": "45b21af3a53a47e854711d8c31a64771", "is_reserved": 0, "rental_uris": {"android": "https://dc.lft.to/lastmile_qr_scan", "ios": "https://dc.lft.to/lastmile_qr_scan"}, "lat": 38.91055766666667}, {"type": "electric_scooter", "name": "c346ee23ec0cb07a5a588a682923276b", "fusion_lat": 0.0, "fusion_lon": 0.0, "lon": -77.018898, "is_disabled": 0, "bike_id": "c346ee23ec0cb07a5a588a682923276b", "is_reserved": 0, "rental_uris": {"android": "https://dc.lft.to/lastmile_qr_scan", "ios": "https://dc.lft.to/lastmile_qr_scan"}, "lat": 38.89749966666667}, {"type": "electric_scooter", "name": "e3683552d75048689625eee73b6f5c2e", "fusion_lat": 0.0, "fusion_lon": 0.0, "lon": -77.03209183333334, "is_disabled": 0, "bike_id": "e3683552d75048689625eee73b6f5c2e", "is_reserved": 0, "rental_uris": {"android": "https://dc.lft.to/lastmile_qr_scan", "ios": "https://dc.lft.to/lastmile_qr_scan"}, "lat": 38.911948333333335}, {"type": "electric_scooter", "name": "b35ba2d2ff4f5b6ade7956232b7912e3", "fusion_lat": 0.0, "fusion_lon": 0.0, "lon": -77.0230085, "is_disabled": 0, "bike_id": "b35ba2d2ff4f5b6ade7956232b7912e3", "is_reserved": 0, "rental_uris": {"android": "https://dc.lft.to/lastmile_qr_scan", "ios": "https://dc.lft.to/lastmile_qr_scan"}, "lat": 38.92828733333333}, {"type": "electric_scooter", "name": "5dd07537abcb468ede42c72c0c25f90e", "fusion_lat": 0.0, "fusion_lon": 0.0, "lon": -77.037288, "is_disabled": 0, "bike_id": "5dd07537abcb468ede42c72c0c25f90e", "is_reserved": 0, "rental_uris": {"android": "https://dc.lft.to/lastmile_qr_scan", "ios": "https://dc.lft.to/lastmile_qr_scan"}, "lat": 38.92022016666667}, {"type": "electric_scooter", "name": "71f5eacb8f5d5fe3cb30d2048b1bac68", "fusion_lat": 0.0, "fusion_lon": 0.0, "lon": -76.99849916666666, "is_disabled": 0, "bike_id": "71f5eacb8f5d5fe3cb30d2048b1bac68", "is_reserved": 0, "rental_uris": {"android": "https://dc.lft.to/lastmile_qr_scan", "ios": "https://dc.lft.to/lastmile_qr_scan"}, "lat": 38.900654833333334}, {"type": "electric_scooter", "name": "542e4825271698fe5cbf33092db32374", "fusion_lat": 0.0, "fusion_lon": 0.0, "lon": -77.0344015, "is_disabled": 0, "bike_id": "542e4825271698fe5cbf33092db32374", "is_reserved": 0, "rental_uris": {"android": "https://dc.lft.to/lastmile_qr_scan", "ios": "https://dc.lft.to/lastmile_qr_scan"}, "lat": 38.917951333333335}, {"type": "electric_scooter", "name": "72b4d0d2922971fa517b9a2ddb42d16d", "fusion_lat": 0.0, "fusion_lon": 0.0, "lon": -77.0137905, "is_disabled": 0, "bike_id": "72b4d0d2922971fa517b9a2ddb42d16d", "is_reserved": 0, "rental_uris": {"android": "https://dc.lft.to/lastmile_qr_scan", "ios": "https://dc.lft.to/lastmile_qr_scan"}, "lat": 38.8760505}, {"type": "electric_bike", "name": "7e51fd15700c2f51bbc728087ec5e3da", "fusion_lat": 0.0, "fusion_lon": 0.0, "lon": -77.02858883333333, "is_disabled": 0, "bike_id": "7e51fd15700c2f51bbc728087ec5e3da", "is_reserved": 0, "rental_uris": {"android": "https://dc.lft.to/lastmile_qr_scan", "ios": "https://dc.lft.to/lastmile_qr_scan"}, "lat": 38.937535}, {"type": "electric_scooter", "name": "4550f89dc10cf3083327f2e65ea99620", "fusion_lat": 0.0, "fusion_lon": 0.0, "lon": -76.99348216666667, "is_disabled": 0, "bike_id": "4550f89dc10cf3083327f2e65ea99620", "is_reserved": 0, "rental_uris": {"android": "https://dc.lft.to/lastmile_qr_scan", "ios": "https://dc.lft.to/lastmile_qr_scan"}, "lat": 38.900093166666665}, {"type": "electric_scooter", "name": "06b8252386799f2e096094632683e58f", "fusion_lat": 0.0, "fusion_lon": 0.0, "lon": -77.0183465, "is_disabled": 0, "bike_id": "06b8252386799f2e096094632683e58f", "is_reserved": 0, "rental_uris": {"android": "https://dc.lft.to/lastmile_qr_scan", "ios": "https://dc.lft.to/lastmile_qr_scan"}, "lat": 38.91508683333333}, {"type": "electric_scooter", "name": "4b42652b8a93bc3b5762aa95fec693c5", "fusion_lat": 0.0, "fusion_lon": 0.0, "lon": -77.036599, "is_disabled": 0, "bike_id": "4b42652b8a93bc3b5762aa95fec693c5", "is_reserved": 0, "rental_uris": {"android": "https://dc.lft.to/lastmile_qr_scan", "ios": "https://dc.lft.to/lastmile_qr_scan"}, "lat": 38.9228375}, {"type": "electric_scooter", "name": "531fec2c6d74273cb9e6e2f1f4f93e2f", "fusion_lat": 0.0, "fusion_lon": 0.0, "lon": -77.02827266666667, "is_disabled": 0, "bike_id": "531fec2c6d74273cb9e6e2f1f4f93e2f", "is_reserved": 0, "rental_uris": {"android": "https://dc.lft.to/lastmile_qr_scan", "ios": "https://dc.lft.to/lastmile_qr_scan"}, "lat": 38.89953033333333}, {"type": "electric_bike", "name": "13f92977cd3ad3bd206264c35b3229c3", "fusion_lat": 0.0, "fusion_lon": 0.0, "lon": -76.96321816666666, "is_disabled": 0, "bike_id": "13f92977cd3ad3bd206264c35b3229c3", "is_reserved": 0, "rental_uris": {"android": "https://dc.lft.to/lastmile_qr_scan", "ios": "https://dc.lft.to/lastmile_qr_scan"}, "lat": 38.93896633333333}, {"type": "electric_scooter", "name": "20e51eea42c7365082b20ede2767de02", "fusion_lat": 0.0, "fusion_lon": 0.0, "lon": -77.0364505, "is_disabled": 0, "bike_id": "20e51eea42c7365082b20ede2767de02", "is_reserved": 0, "rental_uris": {"android": "https://dc.lft.to/lastmile_qr_scan", "ios": "https://dc.lft.to/lastmile_qr_scan"}, "lat": 38.91735383333334}, {"type": "electric_scooter", "name": "392691e18c6192685664c0245367ddce", "fusion_lat": 0.0, "fusion_lon": 0.0, "lon": -76.9956485, "is_disabled": 0, "bike_id": "392691e18c6192685664c0245367ddce", "is_reserved": 0, "rental_uris": {"android": "https://dc.lft.to/lastmile_qr_scan", "ios": "https://dc.lft.to/lastmile_qr_scan"}, "lat": 38.9036895}, {"type": "electric_scooter", "name": "feabb2ccc112b3a350a7ee7cb1949427", "fusion_lat": 0.0, "fusion_lon": 0.0, "lon": -77.020782, "is_disabled": 0, "bike_id": "feabb2ccc112b3a350a7ee7cb1949427", "is_reserved": 0, "rental_uris": {"android": "https://dc.lft.to/lastmile_qr_scan", "ios": "https://dc.lft.to/lastmile_qr_scan"}, "lat": 38.930234166666665}, {"type": "electric_bike", "name": "503cae5f17ed382047bd5025d004a711", "fusion_lat": 0.0, "fusion_lon": 0.0, "lon": -76.97539766666667, "is_disabled": 0, "bike_id": "503cae5f17ed382047bd5025d004a711", "is_reserved": 0, "rental_uris": {"android": "https://dc.lft.to/lastmile_qr_scan", "ios": "https://dc.lft.to/lastmile_qr_scan"}, "lat": 38.903267666666665}, {"type": "electric_bike", "name": "a6045e493752e50847f7588a3ce2c52c", "fusion_lat": 0.0, "fusion_lon": 0.0, "lon": -77.0037895, "is_disabled": 0, "bike_id": "a6045e493752e50847f7588a3ce2c52c", "is_reserved": 0, "rental_uris": {"android": "https://dc.lft.to/lastmile_qr_scan", "ios": "https://dc.lft.to/lastmile_qr_scan"}, "lat": 38.83603883333333}, {"type": "electric_scooter", "name": "2cee45fc89ee5944f1f2957ec41290a0", "fusion_lat": 0.0, "fusion_lon": 0.0, "lon": -76.99033916666667, "is_disabled": 0, "bike_id": "2cee45fc89ee5944f1f2957ec41290a0", "is_reserved": 0, "rental_uris": {"android": "https://dc.lft.to/lastmile_qr_scan", "ios": "https://dc.lft.to/lastmile_qr_scan"}, "lat": 38.88873916666667}, {"type": "electric_scooter", "name": "f70e5c47f42aa10e8b8267a36ace539d", "fusion_lat": 0.0, "fusion_lon": 0.0, "lon": -77.00210683333333, "is_disabled": 0, "bike_id": "f70e5c47f42aa10e8b8267a36ace539d", "is_reserved": 0, "rental_uris": {"android": "https://dc.lft.to/lastmile_qr_scan", "ios": "https://dc.lft.to/lastmile_qr_scan"}, "lat": 38.9110245}, {"type": "electric_scooter", "name": "7b06d7a9f9d540c9e0cb5617550727bd", "fusion_lat": 0.0, "fusion_lon": 0.0, "lon": -77.04990283333333, "is_disabled": 0, "bike_id": "7b06d7a9f9d540c9e0cb5617550727bd", "is_reserved": 0, "rental_uris": {"android": "https://dc.lft.to/lastmile_qr_scan", "ios": "https://dc.lft.to/lastmile_qr_scan"}, "lat": 38.90125583333333}, {"type": "electric_scooter", "name": "6b38dba86b9eb75e1208b747d486a419", "fusion_lat": 0.0, "fusion_lon": 0.0, "lon": -77.035039, "is_disabled": 0, "bike_id": "6b38dba86b9eb75e1208b747d486a419", "is_reserved": 0, "rental_uris": {"android": "https://dc.lft.to/lastmile_qr_scan", "ios": "https://dc.lft.to/lastmile_qr_scan"}, "lat": 38.921548333333334}, {"type": "electric_scooter", "name": "f60e06d1466f875c59321a67c82c0a9d", "fusion_lat": 0.0, "fusion_lon": 0.0, "lon": -77.03367083333333, "is_disabled": 0, "bike_id": "f60e06d1466f875c59321a67c82c0a9d", "is_reserved": 0, "rental_uris": {"android": "https://dc.lft.to/lastmile_qr_scan", "ios": "https://dc.lft.to/lastmile_qr_scan"}, "lat": 38.900398333333335}, {"type": "electric_scooter", "name": "b7f6e45b9adba0edfee37d2c38128879", "fusion_lat": 0.0, "fusion_lon": 0.0, "lon": -76.980005, "is_disabled": 0, "bike_id": "b7f6e45b9adba0edfee37d2c38128879", "is_reserved": 0, "rental_uris": {"android": "https://dc.lft.to/lastmile_qr_scan", "ios": "https://dc.lft.to/lastmile_qr_scan"}, "lat": 38.902168}, {"type": "electric_scooter", "name": "cb440d07e2bdca6a2eba00abd4c8eb8f", "fusion_lat": 0.0, "fusion_lon": 0.0, "lon": -77.04234083333333, "is_disabled": 0, "bike_id": "cb440d07e2bdca6a2eba00abd4c8eb8f", "is_reserved": 0, "rental_uris": {"android": "https://dc.lft.to/lastmile_qr_scan", "ios": "https://dc.lft.to/lastmile_qr_scan"}, "lat": 38.91117116666667}, {"type": "electric_bike", "name": "093a96d395574768931c6f58377291e1", "fusion_lat": 0.0, "fusion_lon": 0.0, "lon": -76.98350483333333, "is_disabled": 0, "bike_id": "093a96d395574768931c6f58377291e1", "is_reserved": 0, "rental_uris": {"android": "https://dc.lft.to/lastmile_qr_scan", "ios": "https://dc.lft.to/lastmile_qr_scan"}, "lat": 38.862640666666664}, {"type": "electric_scooter", "name": "d6acf94d6cb0768fa092c99d5e945abb", "fusion_lat": 0.0, "fusion_lon": 0.0, "lon": -77.041759, "is_disabled": 0, "bike_id": "d6acf94d6cb0768fa092c99d5e945abb", "is_reserved": 0, "rental_uris": {"android": "https://dc.lft.to/lastmile_qr_scan", "ios": "https://dc.lft.to/lastmile_qr_scan"}, "lat": 38.9181665}, {"type": "electric_scooter", "name": "a8aeff2485df3277e3b736080aa12c2d", "fusion_lat": 0.0, "fusion_lon": 0.0, "lon": -77.0591045, "is_disabled": 0, "bike_id": "a8aeff2485df3277e3b736080aa12c2d", "is_reserved": 0, "rental_uris": {"android": "https://dc.lft.to/lastmile_qr_scan", "ios": "https://dc.lft.to/lastmile_qr_scan"}, "lat": 38.901537166666664}, {"type": "electric_scooter", "name": "88f532d3213712bbe954c1f970e7ad5a", "fusion_lat": 0.0, "fusion_lon": 0.0, "lon": -77.03635966666667, "is_disabled": 0, "bike_id": "88f532d3213712bbe954c1f970e7ad5a", "is_reserved": 0, "rental_uris": {"android": "https://dc.lft.to/lastmile_qr_scan", "ios": "https://dc.lft.to/lastmile_qr_scan"}, "lat": 38.903293}, {"type": "electric_scooter", "name": "63d40d546cd1670bd7c42521bafe19b7", "fusion_lat": 0.0, "fusion_lon": 0.0, "lon": -77.01632833333333, "is_disabled": 0, "bike_id": "63d40d546cd1670bd7c42521bafe19b7", "is_reserved": 0, "rental_uris": {"android": "https://dc.lft.to/lastmile_qr_scan", "ios": "https://dc.lft.to/lastmile_qr_scan"}, "lat": 38.887380666666665}, {"type": "electric_scooter", "name": "60b8ac4a27cd5c4a321a0f63f12ecf00", "fusion_lat": 0.0, "fusion_lon": 0.0, "lon": -77.01086916666667, "is_disabled": 0, "bike_id": "60b8ac4a27cd5c4a321a0f63f12ecf00", "is_reserved": 0, "rental_uris": {"android": "https://dc.lft.to/lastmile_qr_scan", "ios": "https://dc.lft.to/lastmile_qr_scan"}, "lat": 38.903353333333335}, {"type": "electric_scooter", "name": "3b9b56c78a13757ffa27eba8b84ce013", "fusion_lat": 0.0, "fusion_lon": 0.0, "lon": -77.03662016666667, "is_disabled": 0, "bike_id": "3b9b56c78a13757ffa27eba8b84ce013", "is_reserved": 0, "rental_uris": {"android": "https://dc.lft.to/lastmile_qr_scan", "ios": "https://dc.lft.to/lastmile_qr_scan"}, "lat": 38.920434166666666}, {"type": "electric_scooter", "name": "cb3bc6412d4317ce027062663a75a4d4", "fusion_lat": 0.0, "fusion_lon": 0.0, "lon": -77.02176166666666, "is_disabled": 0, "bike_id": "cb3bc6412d4317ce027062663a75a4d4", "is_reserved": 0, "rental_uris": {"android": "https://dc.lft.to/lastmile_qr_scan", "ios": "https://dc.lft.to/lastmile_qr_scan"}, "lat": 38.9110795}, {"type": "electric_scooter", "name": "347502ba6b864e53ce672b2e624e1683", "fusion_lat": 0.0, "fusion_lon": 0.0, "lon": -77.034138, "is_disabled": 0, "bike_id": "347502ba6b864e53ce672b2e624e1683", "is_reserved": 0, "rental_uris": {"android": "https://dc.lft.to/lastmile_qr_scan", "ios": "https://dc.lft.to/lastmile_qr_scan"}, "lat": 38.919254333333335}, {"type": "electric_bike", "name": "3c410b38438d2d2663c913066aa1c385", "fusion_lat": 0.0, "fusion_lon": 0.0, "lon": -77.03001116666667, "is_disabled": 0, "bike_id": "3c410b38438d2d2663c913066aa1c385", "is_reserved": 0, "rental_uris": {"android": "https://dc.lft.to/lastmile_qr_scan", "ios": "https://dc.lft.to/lastmile_qr_scan"}, "lat": 38.900178333333336}, {"type": "electric_scooter", "name": "2101dfe049b6daa691cb05622bb4a271", "fusion_lat": 0.0, "fusion_lon": 0.0, "lon": -77.0290085, "is_disabled": 0, "bike_id": "2101dfe049b6daa691cb05622bb4a271", "is_reserved": 0, "rental_uris": {"android": "https://dc.lft.to/lastmile_qr_scan", "ios": "https://dc.lft.to/lastmile_qr_scan"}, "lat": 38.936026166666664}, {"type": "electric_scooter", "name": "00a17507587b7634e177b84c0e44fe20", "fusion_lat": 0.0, "fusion_lon": 0.0, "lon": -77.02283966666667, "is_disabled": 0, "bike_id": "00a17507587b7634e177b84c0e44fe20", "is_reserved": 0, "rental_uris": {"android": "https://dc.lft.to/lastmile_qr_scan", "ios": "https://dc.lft.to/lastmile_qr_scan"}, "lat": 38.898413166666664}, {"type": "electric_scooter", "name": "a199fd4031d7f8653f487839a7e0ccba", "fusion_lat": 0.0, "fusion_lon": 0.0, "lon": -77.029383, "is_disabled": 0, "bike_id": "a199fd4031d7f8653f487839a7e0ccba", "is_reserved": 0, "rental_uris": {"android": "https://dc.lft.to/lastmile_qr_scan", "ios": "https://dc.lft.to/lastmile_qr_scan"}, "lat": 38.90719433333334}, {"type": "electric_scooter", "name": "515316e8eb2bf623a715ab15cbbe054c", "fusion_lat": 0.0, "fusion_lon": 0.0, "lon": -76.98088633333333, "is_disabled": 0, "bike_id": "515316e8eb2bf623a715ab15cbbe054c", "is_reserved": 0, "rental_uris": {"android": "https://dc.lft.to/lastmile_qr_scan", "ios": "https://dc.lft.to/lastmile_qr_scan"}, "lat": 38.8943905}, {"type": "electric_scooter", "name": "0397c47e939f8840ee9478b253ee6bc8", "fusion_lat": 0.0, "fusion_lon": 0.0, "lon": -77.03449266666667, "is_disabled": 0, "bike_id": "0397c47e939f8840ee9478b253ee6bc8", "is_reserved": 0, "rental_uris": {"android": "https://dc.lft.to/lastmile_qr_scan", "ios": "https://dc.lft.to/lastmile_qr_scan"}, "lat": 38.91398516666667}, {"type": "electric_scooter", "name": "2240bbc6aaae7e0d312ae7d4d286b11d", "fusion_lat": 0.0, "fusion_lon": 0.0, "lon": -76.93217816666666, "is_disabled": 0, "bike_id": "2240bbc6aaae7e0d312ae7d4d286b11d", "is_reserved": 0, "rental_uris": {"android": "https://dc.lft.to/lastmile_qr_scan", "ios": "https://dc.lft.to/lastmile_qr_scan"}, "lat": 38.880591333333335}, {"type": "electric_scooter", "name": "8d5e72988cffa5e008080af1d67c90c2", "fusion_lat": 0.0, "fusion_lon": 0.0, "lon": -77.0414295, "is_disabled": 0, "bike_id": "8d5e72988cffa5e008080af1d67c90c2", "is_reserved": 0, "rental_uris": {"android": "https://dc.lft.to/lastmile_qr_scan", "ios": "https://dc.lft.to/lastmile_qr_scan"}, "lat": 38.893524}, {"type": "electric_scooter", "name": "bab99bf76f3367f638d45c5544d60119", "fusion_lat": 0.0, "fusion_lon": 0.0, "lon": -77.04002416666667, "is_disabled": 0, "bike_id": "bab99bf76f3367f638d45c5544d60119", "is_reserved": 0, "rental_uris": {"android": "https://dc.lft.to/lastmile_qr_scan", "ios": "https://dc.lft.to/lastmile_qr_scan"}, "lat": 38.934282}, {"type": "electric_scooter", "name": "73a334f861320dff0c5651cb623dd458", "fusion_lat": 0.0, "fusion_lon": 0.0, "lon": -77.01432716666666, "is_disabled": 0, "bike_id": "73a334f861320dff0c5651cb623dd458", "is_reserved": 0, "rental_uris": {"android": "https://dc.lft.to/lastmile_qr_scan", "ios": "https://dc.lft.to/lastmile_qr_scan"}, "lat": 38.9125445}, {"type": "electric_scooter", "name": "f0c55ed4cc283240e13ff20c4cec5e7a", "fusion_lat": 0.0, "fusion_lon": 0.0, "lon": -77.0474535, "is_disabled": 0, "bike_id": "f0c55ed4cc283240e13ff20c4cec5e7a", "is_reserved": 0, "rental_uris": {"android": "https://dc.lft.to/lastmile_qr_scan", "ios": "https://dc.lft.to/lastmile_qr_scan"}, "lat": 38.923338666666666}, {"type": "electric_scooter", "name": "aa2b37cf925ea1928830912a80fedc2c", "fusion_lat": 0.0, "fusion_lon": 0.0, "lon": -77.03651533333333, "is_disabled": 0, "bike_id": "aa2b37cf925ea1928830912a80fedc2c", "is_reserved": 0, "rental_uris": {"android": "https://dc.lft.to/lastmile_qr_scan", "ios": "https://dc.lft.to/lastmile_qr_scan"}, "lat": 38.91245383333333}, {"type": "electric_scooter", "name": "94f398a991f9b3a8354a9cf53adee152", "fusion_lat": 0.0, "fusion_lon": 0.0, "lon": -76.983585, "is_disabled": 0, "bike_id": "94f398a991f9b3a8354a9cf53adee152", "is_reserved": 0, "rental_uris": {"android": "https://dc.lft.to/lastmile_qr_scan", "ios": "https://dc.lft.to/lastmile_qr_scan"}, "lat": 38.88734066666667}, {"type": "electric_scooter", "name": "be35f69fc684022776dd0527178ae84e", "fusion_lat": 0.0, "fusion_lon": 0.0, "lon": -77.02278366666667, "is_disabled": 0, "bike_id": "be35f69fc684022776dd0527178ae84e", "is_reserved": 0, "rental_uris": {"android": "https://dc.lft.to/lastmile_qr_scan", "ios": "https://dc.lft.to/lastmile_qr_scan"}, "lat": 38.898391333333336}, {"type": "electric_bike", "name": "7f7910929e93c7d8b331d11dd2f05570", "fusion_lat": 0.0, "fusion_lon": 0.0, "lon": -76.90740433333333, "is_disabled": 0, "bike_id": "7f7910929e93c7d8b331d11dd2f05570", "is_reserved": 0, "rental_uris": {"android": "https://dc.lft.to/lastmile_qr_scan", "ios": "https://dc.lft.to/lastmile_qr_scan"}, "lat": 38.896187833333336}, {"type": "electric_bike", "name": "ac14b6835fa751171b5a697080c24869", "fusion_lat": 0.0, "fusion_lon": 0.0, "lon": -77.02979733333333, "is_disabled": 0, "bike_id": "ac14b6835fa751171b5a697080c24869", "is_reserved": 0, "rental_uris": {"android": "https://dc.lft.to/lastmile_qr_scan", "ios": "https://dc.lft.to/lastmile_qr_scan"}, "lat": 38.93497333333333}, {"type": "electric_scooter", "name": "32d53b41de11cd3a69817d7bf6ac6d26", "fusion_lat": 0.0, "fusion_lon": 0.0, "lon": -77.0229165, "is_disabled": 0, "bike_id": "32d53b41de11cd3a69817d7bf6ac6d26", "is_reserved": 0, "rental_uris": {"android": "https://dc.lft.to/lastmile_qr_scan", "ios": "https://dc.lft.to/lastmile_qr_scan"}, "lat": 38.89659966666667}, {"type": "electric_scooter", "name": "e3802a00ebcb9d3f528c8de35a2db59d", "fusion_lat": 0.0, "fusion_lon": 0.0, "lon": -77.035886, "is_disabled": 0, "bike_id": "e3802a00ebcb9d3f528c8de35a2db59d", "is_reserved": 0, "rental_uris": {"android": "https://dc.lft.to/lastmile_qr_scan", "ios": "https://dc.lft.to/lastmile_qr_scan"}, "lat": 38.9069125}, {"type": "electric_scooter", "name": "cd54cbfb364b93d4d0cc52270d191ccf", "fusion_lat": 0.0, "fusion_lon": 0.0, "lon": -77.03169083333333, "is_disabled": 0, "bike_id": "cd54cbfb364b93d4d0cc52270d191ccf", "is_reserved": 0, "rental_uris": {"android": "https://dc.lft.to/lastmile_qr_scan", "ios": "https://dc.lft.to/lastmile_qr_scan"}, "lat": 38.91566483333333}, {"type": "electric_scooter", "name": "c1a34b58a07a7d9be58fa5710bad8230", "fusion_lat": 0.0, "fusion_lon": 0.0, "lon": -77.02202566666666, "is_disabled": 0, "bike_id": "c1a34b58a07a7d9be58fa5710bad8230", "is_reserved": 0, "rental_uris": {"android": "https://dc.lft.to/lastmile_qr_scan", "ios": "https://dc.lft.to/lastmile_qr_scan"}, "lat": 38.91438333333333}, {"type": "electric_scooter", "name": "801cc1bc08b5777145b7801a1171431f", "fusion_lat": 0.0, "fusion_lon": 0.0, "lon": -77.03020616666667, "is_disabled": 0, "bike_id": "801cc1bc08b5777145b7801a1171431f", "is_reserved": 0, "rental_uris": {"android": "https://dc.lft.to/lastmile_qr_scan", "ios": "https://dc.lft.to/lastmile_qr_scan"}, "lat": 38.878462666666664}, {"type": "electric_scooter", "name": "9c423237d3e244b72efd56b4d4fe1266", "fusion_lat": 0.0, "fusion_lon": 0.0, "lon": -77.02928716666666, "is_disabled": 0, "bike_id": "9c423237d3e244b72efd56b4d4fe1266", "is_reserved": 0, "rental_uris": {"android": "https://dc.lft.to/lastmile_qr_scan", "ios": "https://dc.lft.to/lastmile_qr_scan"}, "lat": 38.9070565}, {"type": "electric_scooter", "name": "39a7624c338b149f1175daa9eef9f586", "fusion_lat": 0.0, "fusion_lon": 0.0, "lon": -77.03425016666667, "is_disabled": 0, "bike_id": "39a7624c338b149f1175daa9eef9f586", "is_reserved": 0, "rental_uris": {"android": "https://dc.lft.to/lastmile_qr_scan", "ios": "https://dc.lft.to/lastmile_qr_scan"}, "lat": 38.90974}, {"type": "electric_scooter", "name": "ac8b7c96943eb1a41035f0bc0abf8b01", "fusion_lat": 0.0, "fusion_lon": 0.0, "lon": -77.07316333333333, "is_disabled": 0, "bike_id": "ac8b7c96943eb1a41035f0bc0abf8b01", "is_reserved": 0, "rental_uris": {"android": "https://dc.lft.to/lastmile_qr_scan", "ios": "https://dc.lft.to/lastmile_qr_scan"}, "lat": 38.922033}, {"type": "electric_bike", "name": "45ec3b67891c085260b68f7689e81486", "fusion_lat": 0.0, "fusion_lon": 0.0, "lon": -77.07754966666667, "is_disabled": 0, "bike_id": "45ec3b67891c085260b68f7689e81486", "is_reserved": 0, "rental_uris": {"android": "https://dc.lft.to/lastmile_qr_scan", "ios": "https://dc.lft.to/lastmile_qr_scan"}, "lat": 38.84193583333333}, {"type": "electric_scooter", "name": "122850c042642ccc59e5b61e05156abc", "fusion_lat": 0.0, "fusion_lon": 0.0, "lon": -77.04224666666667, "is_disabled": 0, "bike_id": "122850c042642ccc59e5b61e05156abc", "is_reserved": 0, "rental_uris": {"android": "https://dc.lft.to/lastmile_qr_scan", "ios": "https://dc.lft.to/lastmile_qr_scan"}, "lat": 38.922835666666664}, {"type": "electric_scooter", "name": "58a1829cbaaff83a4601279b086bbe46", "fusion_lat": 0.0, "fusion_lon": 0.0, "lon": -77.02195483333334, "is_disabled": 0, "bike_id": "58a1829cbaaff83a4601279b086bbe46", "is_reserved": 0, "rental_uris": {"android": "https://dc.lft.to/lastmile_qr_scan", "ios": "https://dc.lft.to/lastmile_qr_scan"}, "lat": 38.89987766666667}, {"type": "electric_scooter", "name": "aec528b3c769ca7f3ec2da20c2402113", "fusion_lat": 0.0, "fusion_lon": 0.0, "lon": -77.01813183333333, "is_disabled": 0, "bike_id": "aec528b3c769ca7f3ec2da20c2402113", "is_reserved": 0, "rental_uris": {"android": "https://dc.lft.to/lastmile_qr_scan", "ios": "https://dc.lft.to/lastmile_qr_scan"}, "lat": 38.920323}, {"type": "electric_scooter", "name": "5c65854fefd00bc1ef8772de4d5a9789", "fusion_lat": 0.0, "fusion_lon": 0.0, "lon": -76.98372016666667, "is_disabled": 0, "bike_id": "5c65854fefd00bc1ef8772de4d5a9789", "is_reserved": 0, "rental_uris": {"android": "https://dc.lft.to/lastmile_qr_scan", "ios": "https://dc.lft.to/lastmile_qr_scan"}, "lat": 38.89266216666667}, {"type": "electric_scooter", "name": "ad08921423bffa6ab0ae5daea559d767", "fusion_lat": 0.0, "fusion_lon": 0.0, "lon": -77.0126775, "is_disabled": 0, "bike_id": "ad08921423bffa6ab0ae5daea559d767", "is_reserved": 0, "rental_uris": {"android": "https://dc.lft.to/lastmile_qr_scan", "ios": "https://dc.lft.to/lastmile_qr_scan"}, "lat": 38.914135}, {"type": "electric_scooter", "name": "1eda18c659c5e5b25115c0e19e456acb", "fusion_lat": 0.0, "fusion_lon": 0.0, "lon": -77.02976716666667, "is_disabled": 0, "bike_id": "1eda18c659c5e5b25115c0e19e456acb", "is_reserved": 0, "rental_uris": {"android": "https://dc.lft.to/lastmile_qr_scan", "ios": "https://dc.lft.to/lastmile_qr_scan"}, "lat": 38.92445516666667}, {"type": "electric_scooter", "name": "de4e3dd009ab414cdaaf0cde72f57ec6", "fusion_lat": 0.0, "fusion_lon": 0.0, "lon": -77.04245016666667, "is_disabled": 0, "bike_id": "de4e3dd009ab414cdaaf0cde72f57ec6", "is_reserved": 0, "rental_uris": {"android": "https://dc.lft.to/lastmile_qr_scan", "ios": "https://dc.lft.to/lastmile_qr_scan"}, "lat": 38.903539}, {"type": "electric_scooter", "name": "ff045730c286c6fa4fd204a1c17c5923", "fusion_lat": 0.0, "fusion_lon": 0.0, "lon": -76.95740433333333, "is_disabled": 0, "bike_id": "ff045730c286c6fa4fd204a1c17c5923", "is_reserved": 0, "rental_uris": {"android": "https://dc.lft.to/lastmile_qr_scan", "ios": "https://dc.lft.to/lastmile_qr_scan"}, "lat": 38.88387633333333}, {"type": "electric_scooter", "name": "ddc6574c97bf2b270a7511109e1adf02", "fusion_lat": 0.0, "fusion_lon": 0.0, "lon": -76.9886075, "is_disabled": 0, "bike_id": "ddc6574c97bf2b270a7511109e1adf02", "is_reserved": 0, "rental_uris": {"android": "https://dc.lft.to/lastmile_qr_scan", "ios": "https://dc.lft.to/lastmile_qr_scan"}, "lat": 38.900292}, {"type": "electric_scooter", "name": "d75d7edcb070de954e038965513f9d1c", "fusion_lat": 0.0, "fusion_lon": 0.0, "lon": -77.0265815, "is_disabled": 0, "bike_id": "d75d7edcb070de954e038965513f9d1c", "is_reserved": 0, "rental_uris": {"android": "https://dc.lft.to/lastmile_qr_scan", "ios": "https://dc.lft.to/lastmile_qr_scan"}, "lat": 38.9217875}, {"type": "electric_scooter", "name": "6642be548942f6f1c96f7b04210c1ad6", "fusion_lat": 0.0, "fusion_lon": 0.0, "lon": -77.03386533333334, "is_disabled": 0, "bike_id": "6642be548942f6f1c96f7b04210c1ad6", "is_reserved": 0, "rental_uris": {"android": "https://dc.lft.to/lastmile_qr_scan", "ios": "https://dc.lft.to/lastmile_qr_scan"}, "lat": 38.924660833333334}, {"type": "electric_scooter", "name": "2102d0432c2cec61cc963e8e3f9bd070", "fusion_lat": 0.0, "fusion_lon": 0.0, "lon": -77.02822083333334, "is_disabled": 0, "bike_id": "2102d0432c2cec61cc963e8e3f9bd070", "is_reserved": 0, "rental_uris": {"android": "https://dc.lft.to/lastmile_qr_scan", "ios": "https://dc.lft.to/lastmile_qr_scan"}, "lat": 38.917642666666666}, {"type": "electric_scooter", "name": "31397bebf9bcaadcfca4e220182fa886", "fusion_lat": 0.0, "fusion_lon": 0.0, "lon": -77.02632416666667, "is_disabled": 0, "bike_id": "31397bebf9bcaadcfca4e220182fa886", "is_reserved": 0, "rental_uris": {"android": "https://dc.lft.to/lastmile_qr_scan", "ios": "https://dc.lft.to/lastmile_qr_scan"}, "lat": 38.93863783333333}, {"type": "electric_scooter", "name": "dd4a782c915437527ff9d6915923667a", "fusion_lat": 0.0, "fusion_lon": 0.0, "lon": -76.997728, "is_disabled": 0, "bike_id": "dd4a782c915437527ff9d6915923667a", "is_reserved": 0, "rental_uris": {"android": "https://dc.lft.to/lastmile_qr_scan", "ios": "https://dc.lft.to/lastmile_qr_scan"}, "lat": 38.91118916666667}, {"type": "electric_scooter", "name": "d5809af1a21d1057f95669544a729c35", "fusion_lat": 0.0, "fusion_lon": 0.0, "lon": -77.00057116666666, "is_disabled": 0, "bike_id": "d5809af1a21d1057f95669544a729c35", "is_reserved": 0, "rental_uris": {"android": "https://dc.lft.to/lastmile_qr_scan", "ios": "https://dc.lft.to/lastmile_qr_scan"}, "lat": 38.878834833333336}, {"type": "electric_scooter", "name": "1d3e92f49501c0e94ff32dbf415b7146", "fusion_lat": 0.0, "fusion_lon": 0.0, "lon": -77.0461835, "is_disabled": 0, "bike_id": "1d3e92f49501c0e94ff32dbf415b7146", "is_reserved": 0, "rental_uris": {"android": "https://dc.lft.to/lastmile_qr_scan", "ios": "https://dc.lft.to/lastmile_qr_scan"}, "lat": 38.90666233333334}, {"type": "electric_scooter", "name": "767a58b3b7b4798bf4b853c81ea8042a", "fusion_lat": 0.0, "fusion_lon": 0.0, "lon": -77.00202416666667, "is_disabled": 0, "bike_id": "767a58b3b7b4798bf4b853c81ea8042a", "is_reserved": 0, "rental_uris": {"android": "https://dc.lft.to/lastmile_qr_scan", "ios": "https://dc.lft.to/lastmile_qr_scan"}, "lat": 38.902397666666666}, {"type": "electric_scooter", "name": "256bec24f575ebfaee30a6b3cd6df475", "fusion_lat": 0.0, "fusion_lon": 0.0, "lon": -77.02103516666666, "is_disabled": 0, "bike_id": "256bec24f575ebfaee30a6b3cd6df475", "is_reserved": 0, "rental_uris": {"android": "https://dc.lft.to/lastmile_qr_scan", "ios": "https://dc.lft.to/lastmile_qr_scan"}, "lat": 38.89601233333333}, {"type": "electric_scooter", "name": "10fec5f0737e5924c9111e9ac2fc2b6e", "fusion_lat": 0.0, "fusion_lon": 0.0, "lon": -77.038231, "is_disabled": 0, "bike_id": "10fec5f0737e5924c9111e9ac2fc2b6e", "is_reserved": 0, "rental_uris": {"android": "https://dc.lft.to/lastmile_qr_scan", "ios": "https://dc.lft.to/lastmile_qr_scan"}, "lat": 38.925630166666664}, {"type": "electric_scooter", "name": "0602be23e39af6deb6baaeee6889f590", "fusion_lat": 0.0, "fusion_lon": 0.0, "lon": -77.04554966666667, "is_disabled": 0, "bike_id": "0602be23e39af6deb6baaeee6889f590", "is_reserved": 0, "rental_uris": {"android": "https://dc.lft.to/lastmile_qr_scan", "ios": "https://dc.lft.to/lastmile_qr_scan"}, "lat": 38.903841}, {"type": "electric_scooter", "name": "7cd20738d9bf3bf3102679f864560d61", "fusion_lat": 0.0, "fusion_lon": 0.0, "lon": -77.024291, "is_disabled": 0, "bike_id": "7cd20738d9bf3bf3102679f864560d61", "is_reserved": 0, "rental_uris": {"android": "https://dc.lft.to/lastmile_qr_scan", "ios": "https://dc.lft.to/lastmile_qr_scan"}, "lat": 38.915522333333335}, {"type": "electric_scooter", "name": "ed4b3a17a7113dd9c5ff650cd805cd2a", "fusion_lat": 0.0, "fusion_lon": 0.0, "lon": -77.00262116666667, "is_disabled": 0, "bike_id": "ed4b3a17a7113dd9c5ff650cd805cd2a", "is_reserved": 0, "rental_uris": {"android": "https://dc.lft.to/lastmile_qr_scan", "ios": "https://dc.lft.to/lastmile_qr_scan"}, "lat": 38.905857833333336}, {"type": "electric_bike", "name": "6212c08a6bb15ee27310d8ce509a3335", "fusion_lat": 0.0, "fusion_lon": 0.0, "lon": -77.04993983333334, "is_disabled": 0, "bike_id": "6212c08a6bb15ee27310d8ce509a3335", "is_reserved": 0, "rental_uris": {"android": "https://dc.lft.to/lastmile_qr_scan", "ios": "https://dc.lft.to/lastmile_qr_scan"}, "lat": 38.80528433333333}, {"type": "electric_scooter", "name": "41946e616bd82c33590aa690002b54c5", "fusion_lat": 0.0, "fusion_lon": 0.0, "lon": -76.99874433333333, "is_disabled": 0, "bike_id": "41946e616bd82c33590aa690002b54c5", "is_reserved": 0, "rental_uris": {"android": "https://dc.lft.to/lastmile_qr_scan", "ios": "https://dc.lft.to/lastmile_qr_scan"}, "lat": 38.900325}, {"type": "electric_scooter", "name": "0d4800618257d531414814bc1d359eb7", "fusion_lat": 0.0, "fusion_lon": 0.0, "lon": -77.024076, "is_disabled": 0, "bike_id": "0d4800618257d531414814bc1d359eb7", "is_reserved": 0, "rental_uris": {"android": "https://dc.lft.to/lastmile_qr_scan", "ios": "https://dc.lft.to/lastmile_qr_scan"}, "lat": 38.92085}, {"type": "electric_scooter", "name": "9ff24b7fe09cbfac91224794c0911d56", "fusion_lat": 0.0, "fusion_lon": 0.0, "lon": -77.02329416666667, "is_disabled": 0, "bike_id": "9ff24b7fe09cbfac91224794c0911d56", "is_reserved": 0, "rental_uris": {"android": "https://dc.lft.to/lastmile_qr_scan", "ios": "https://dc.lft.to/lastmile_qr_scan"}, "lat": 38.930590333333335}, {"type": "electric_scooter", "name": "1fda7d3ca8c0039277692dfd0a880da5", "fusion_lat": 0.0, "fusion_lon": 0.0, "lon": -77.03457383333334, "is_disabled": 0, "bike_id": "1fda7d3ca8c0039277692dfd0a880da5", "is_reserved": 0, "rental_uris": {"android": "https://dc.lft.to/lastmile_qr_scan", "ios": "https://dc.lft.to/lastmile_qr_scan"}, "lat": 38.9205235}, {"type": "electric_scooter", "name": "3cbda94da531964a2f3fc23557caa257", "fusion_lat": 0.0, "fusion_lon": 0.0, "lon": -77.03841166666666, "is_disabled": 0, "bike_id": "3cbda94da531964a2f3fc23557caa257", "is_reserved": 0, "rental_uris": {"android": "https://dc.lft.to/lastmile_qr_scan", "ios": "https://dc.lft.to/lastmile_qr_scan"}, "lat": 38.909894}, {"type": "electric_scooter", "name": "8a49d2603c771576505de8898adf2a24", "fusion_lat": 0.0, "fusion_lon": 0.0, "lon": -77.04130816666667, "is_disabled": 0, "bike_id": "8a49d2603c771576505de8898adf2a24", "is_reserved": 0, "rental_uris": {"android": "https://dc.lft.to/lastmile_qr_scan", "ios": "https://dc.lft.to/lastmile_qr_scan"}, "lat": 38.93067933333333}, {"type": "electric_scooter", "name": "dbb4985722f565caed878d701b816f4c", "fusion_lat": 0.0, "fusion_lon": 0.0, "lon": -77.02581183333334, "is_disabled": 0, "bike_id": "dbb4985722f565caed878d701b816f4c", "is_reserved": 0, "rental_uris": {"android": "https://dc.lft.to/lastmile_qr_scan", "ios": "https://dc.lft.to/lastmile_qr_scan"}, "lat": 38.9251655}, {"type": "electric_scooter", "name": "6199e0b0d3dfdb7f3055b31eb55617d4", "fusion_lat": 0.0, "fusion_lon": 0.0, "lon": -77.03526333333333, "is_disabled": 0, "bike_id": "6199e0b0d3dfdb7f3055b31eb55617d4", "is_reserved": 0, "rental_uris": {"android": "https://dc.lft.to/lastmile_qr_scan", "ios": "https://dc.lft.to/lastmile_qr_scan"}, "lat": 38.902743666666666}, {"type": "electric_scooter", "name": "46bf99197daffdf6a5e3e3ac7547d634", "fusion_lat": 0.0, "fusion_lon": 0.0, "lon": -77.00062933333334, "is_disabled": 0, "bike_id": "46bf99197daffdf6a5e3e3ac7547d634", "is_reserved": 0, "rental_uris": {"android": "https://dc.lft.to/lastmile_qr_scan", "ios": "https://dc.lft.to/lastmile_qr_scan"}, "lat": 38.881148333333336}, {"type": "electric_scooter", "name": "d93bef3c886ab294d0d4486dd3e4bcb4", "fusion_lat": 0.0, "fusion_lon": 0.0, "lon": -76.99963716666667, "is_disabled": 0, "bike_id": "d93bef3c886ab294d0d4486dd3e4bcb4", "is_reserved": 0, "rental_uris": {"android": "https://dc.lft.to/lastmile_qr_scan", "ios": "https://dc.lft.to/lastmile_qr_scan"}, "lat": 38.90107916666667}, {"type": "electric_scooter", "name": "a6b43fccb33d0588bca4de10dc35ea57", "fusion_lat": 0.0, "fusion_lon": 0.0, "lon": -77.02988216666667, "is_disabled": 0, "bike_id": "a6b43fccb33d0588bca4de10dc35ea57", "is_reserved": 0, "rental_uris": {"android": "https://dc.lft.to/lastmile_qr_scan", "ios": "https://dc.lft.to/lastmile_qr_scan"}, "lat": 38.90727066666667}, {"type": "electric_scooter", "name": "1955d148e8f7cdd7e7ac0624d81ffbcf", "fusion_lat": 0.0, "fusion_lon": 0.0, "lon": -76.99449233333333, "is_disabled": 0, "bike_id": "1955d148e8f7cdd7e7ac0624d81ffbcf", "is_reserved": 0, "rental_uris": {"android": "https://dc.lft.to/lastmile_qr_scan", "ios": "https://dc.lft.to/lastmile_qr_scan"}, "lat": 38.827702333333335}, {"type": "electric_scooter", "name": "b67085b945a881e7780f9f156fe7d8d7", "fusion_lat": 0.0, "fusion_lon": 0.0, "lon": -77.03672266666666, "is_disabled": 0, "bike_id": "b67085b945a881e7780f9f156fe7d8d7", "is_reserved": 0, "rental_uris": {"android": "https://dc.lft.to/lastmile_qr_scan", "ios": "https://dc.lft.to/lastmile_qr_scan"}, "lat": 38.92328066666666}, {"type": "electric_scooter", "name": "bad26a3560c8e02fd34512b41e372194", "fusion_lat": 0.0, "fusion_lon": 0.0, "lon": -77.06294, "is_disabled": 0, "bike_id": "bad26a3560c8e02fd34512b41e372194", "is_reserved": 0, "rental_uris": {"android": "https://dc.lft.to/lastmile_qr_scan", "ios": "https://dc.lft.to/lastmile_qr_scan"}, "lat": 38.90603266666667}, {"type": "electric_scooter", "name": "13974920e185fa05c941ac0d6c59b241", "fusion_lat": 0.0, "fusion_lon": 0.0, "lon": -77.03930966666667, "is_disabled": 0, "bike_id": "13974920e185fa05c941ac0d6c59b241", "is_reserved": 0, "rental_uris": {"android": "https://dc.lft.to/lastmile_qr_scan", "ios": "https://dc.lft.to/lastmile_qr_scan"}, "lat": 38.91398266666667}, {"type": "electric_bike", "name": "87d91758783c21a38174c0e4ee4fca08", "fusion_lat": 0.0, "fusion_lon": 0.0, "lon": -76.973195, "is_disabled": 0, "bike_id": "87d91758783c21a38174c0e4ee4fca08", "is_reserved": 0, "rental_uris": {"android": "https://dc.lft.to/lastmile_qr_scan", "ios": "https://dc.lft.to/lastmile_qr_scan"}, "lat": 38.85781633333333}, {"type": "electric_scooter", "name": "00dc9c886b2437ec4d64de402d879980", "fusion_lat": 0.0, "fusion_lon": 0.0, "lon": -77.00193, "is_disabled": 0, "bike_id": "00dc9c886b2437ec4d64de402d879980", "is_reserved": 0, "rental_uris": {"android": "https://dc.lft.to/lastmile_qr_scan", "ios": "https://dc.lft.to/lastmile_qr_scan"}, "lat": 38.90753616666667}, {"type": "electric_scooter", "name": "80f3862bb0616aff0a6246187d76cc52", "fusion_lat": 0.0, "fusion_lon": 0.0, "lon": -77.01336466666666, "is_disabled": 0, "bike_id": "80f3862bb0616aff0a6246187d76cc52", "is_reserved": 0, "rental_uris": {"android": "https://dc.lft.to/lastmile_qr_scan", "ios": "https://dc.lft.to/lastmile_qr_scan"}, "lat": 38.881222}, {"type": "electric_scooter", "name": "19195207d2f37cc596409a74662518dd", "fusion_lat": 0.0, "fusion_lon": 0.0, "lon": -76.97650283333333, "is_disabled": 0, "bike_id": "19195207d2f37cc596409a74662518dd", "is_reserved": 0, "rental_uris": {"android": "https://dc.lft.to/lastmile_qr_scan", "ios": "https://dc.lft.to/lastmile_qr_scan"}, "lat": 38.9036345}, {"type": "electric_scooter", "name": "cba75c5532922e16833af02d9cccbbdb", "fusion_lat": 0.0, "fusion_lon": 0.0, "lon": -77.04343166666666, "is_disabled": 0, "bike_id": "cba75c5532922e16833af02d9cccbbdb", "is_reserved": 0, "rental_uris": {"android": "https://dc.lft.to/lastmile_qr_scan", "ios": "https://dc.lft.to/lastmile_qr_scan"}, "lat": 38.9047315}, {"type": "electric_scooter", "name": "d2fae6df0f9e3062e7fe90b9eded2329", "fusion_lat": 0.0, "fusion_lon": 0.0, "lon": -77.02300816666667, "is_disabled": 0, "bike_id": "d2fae6df0f9e3062e7fe90b9eded2329", "is_reserved": 0, "rental_uris": {"android": "https://dc.lft.to/lastmile_qr_scan", "ios": "https://dc.lft.to/lastmile_qr_scan"}, "lat": 38.92083566666667}, {"type": "electric_bike", "name": "07d8ff7176584c3842da9110d5689966", "fusion_lat": 0.0, "fusion_lon": 0.0, "lon": -77.09557883333333, "is_disabled": 0, "bike_id": "07d8ff7176584c3842da9110d5689966", "is_reserved": 0, "rental_uris": {"android": "https://dc.lft.to/lastmile_qr_scan", "ios": "https://dc.lft.to/lastmile_qr_scan"}, "lat": 38.858818166666666}, {"type": "electric_scooter", "name": "d28d74a828e1f84ae1cf3665c82e93a6", "fusion_lat": 0.0, "fusion_lon": 0.0, "lon": -77.0257215, "is_disabled": 0, "bike_id": "d28d74a828e1f84ae1cf3665c82e93a6", "is_reserved": 0, "rental_uris": {"android": "https://dc.lft.to/lastmile_qr_scan", "ios": "https://dc.lft.to/lastmile_qr_scan"}, "lat": 38.94201966666667}, {"type": "electric_scooter", "name": "9cc66f195e8e9eb9a371e111cdeb54d8", "fusion_lat": 0.0, "fusion_lon": 0.0, "lon": -77.0351185, "is_disabled": 0, "bike_id": "9cc66f195e8e9eb9a371e111cdeb54d8", "is_reserved": 0, "rental_uris": {"android": "https://dc.lft.to/lastmile_qr_scan", "ios": "https://dc.lft.to/lastmile_qr_scan"}, "lat": 38.921522333333336}, {"type": "electric_scooter", "name": "d3ca03dc016de2c63f9fe1e4d7260d70", "fusion_lat": 0.0, "fusion_lon": 0.0, "lon": -77.03261683333334, "is_disabled": 0, "bike_id": "d3ca03dc016de2c63f9fe1e4d7260d70", "is_reserved": 0, "rental_uris": {"android": "https://dc.lft.to/lastmile_qr_scan", "ios": "https://dc.lft.to/lastmile_qr_scan"}, "lat": 38.9330815}, {"type": "electric_scooter", "name": "6047df16398dac2cd5eaa810223f0fde", "fusion_lat": 0.0, "fusion_lon": 0.0, "lon": -77.03973916666666, "is_disabled": 0, "bike_id": "6047df16398dac2cd5eaa810223f0fde", "is_reserved": 0, "rental_uris": {"android": "https://dc.lft.to/lastmile_qr_scan", "ios": "https://dc.lft.to/lastmile_qr_scan"}, "lat": 38.89900683333333}, {"type": "electric_scooter", "name": "29d61ced5faaf061915bdeed1086f146", "fusion_lat": 0.0, "fusion_lon": 0.0, "lon": -77.0349935, "is_disabled": 0, "bike_id": "29d61ced5faaf061915bdeed1086f146", "is_reserved": 0, "rental_uris": {"android": "https://dc.lft.to/lastmile_qr_scan", "ios": "https://dc.lft.to/lastmile_qr_scan"}, "lat": 38.91710233333333}, {"type": "electric_scooter", "name": "53ad54780847f367e550ea64d86afaae", "fusion_lat": 0.0, "fusion_lon": 0.0, "lon": -77.0410705, "is_disabled": 0, "bike_id": "53ad54780847f367e550ea64d86afaae", "is_reserved": 0, "rental_uris": {"android": "https://dc.lft.to/lastmile_qr_scan", "ios": "https://dc.lft.to/lastmile_qr_scan"}, "lat": 38.920745333333336}, {"type": "electric_scooter", "name": "e3c46e801d45dd55d7ad75109f55f112", "fusion_lat": 0.0, "fusion_lon": 0.0, "lon": -77.027755, "is_disabled": 0, "bike_id": "e3c46e801d45dd55d7ad75109f55f112", "is_reserved": 0, "rental_uris": {"android": "https://dc.lft.to/lastmile_qr_scan", "ios": "https://dc.lft.to/lastmile_qr_scan"}, "lat": 38.965823}, {"type": "electric_scooter", "name": "92eafa63cf62b9a9bdd6738f252226c3", "fusion_lat": 0.0, "fusion_lon": 0.0, "lon": -77.02282183333334, "is_disabled": 0, "bike_id": "92eafa63cf62b9a9bdd6738f252226c3", "is_reserved": 0, "rental_uris": {"android": "https://dc.lft.to/lastmile_qr_scan", "ios": "https://dc.lft.to/lastmile_qr_scan"}, "lat": 38.926886}, {"type": "electric_scooter", "name": "757bbc56964dfececfa041011c9cd8f0", "fusion_lat": 0.0, "fusion_lon": 0.0, "lon": -77.03464883333334, "is_disabled": 0, "bike_id": "757bbc56964dfececfa041011c9cd8f0", "is_reserved": 0, "rental_uris": {"android": "https://dc.lft.to/lastmile_qr_scan", "ios": "https://dc.lft.to/lastmile_qr_scan"}, "lat": 38.92066533333333}, {"type": "electric_scooter", "name": "0afeb851c96fba203f102e1aa7b75dc0", "fusion_lat": 0.0, "fusion_lon": 0.0, "lon": -77.03534366666666, "is_disabled": 0, "bike_id": "0afeb851c96fba203f102e1aa7b75dc0", "is_reserved": 0, "rental_uris": {"android": "https://dc.lft.to/lastmile_qr_scan", "ios": "https://dc.lft.to/lastmile_qr_scan"}, "lat": 38.9235255}, {"type": "electric_scooter", "name": "dced683076782a4e39f20b8257f9daff", "fusion_lat": 0.0, "fusion_lon": 0.0, "lon": -77.052269, "is_disabled": 0, "bike_id": "dced683076782a4e39f20b8257f9daff", "is_reserved": 0, "rental_uris": {"android": "https://dc.lft.to/lastmile_qr_scan", "ios": "https://dc.lft.to/lastmile_qr_scan"}, "lat": 38.89955966666667}, {"type": "electric_scooter", "name": "fb02bb094c16a4adbbf6b0a8f7f8e688", "fusion_lat": 0.0, "fusion_lon": 0.0, "lon": -77.005837, "is_disabled": 0, "bike_id": "fb02bb094c16a4adbbf6b0a8f7f8e688", "is_reserved": 0, "rental_uris": {"android": "https://dc.lft.to/lastmile_qr_scan", "ios": "https://dc.lft.to/lastmile_qr_scan"}, "lat": 38.905653666666666}, {"type": "electric_scooter", "name": "acdb85cf5738def9aab85f5e1c69ccd2", "fusion_lat": 0.0, "fusion_lon": 0.0, "lon": -77.036641, "is_disabled": 0, "bike_id": "acdb85cf5738def9aab85f5e1c69ccd2", "is_reserved": 0, "rental_uris": {"android": "https://dc.lft.to/lastmile_qr_scan", "ios": "https://dc.lft.to/lastmile_qr_scan"}, "lat": 38.921198833333335}, {"type": "electric_bike", "name": "8f04abfc44eb2aa98e7d51194374734c", "fusion_lat": 0.0, "fusion_lon": 0.0, "lon": -76.94164366666666, "is_disabled": 0, "bike_id": "8f04abfc44eb2aa98e7d51194374734c", "is_reserved": 0, "rental_uris": {"android": "https://dc.lft.to/lastmile_qr_scan", "ios": "https://dc.lft.to/lastmile_qr_scan"}, "lat": 38.865537333333336}, {"type": "electric_bike", "name": "532e506ff6b2cb26403f71d9793468cd", "fusion_lat": 0.0, "fusion_lon": 0.0, "lon": -77.00009266666666, "is_disabled": 0, "bike_id": "532e506ff6b2cb26403f71d9793468cd", "is_reserved": 0, "rental_uris": {"android": "https://dc.lft.to/lastmile_qr_scan", "ios": "https://dc.lft.to/lastmile_qr_scan"}, "lat": 38.923945}, {"type": "electric_scooter", "name": "5f3ccb4bc022b286c8671ea435b9ec92", "fusion_lat": 0.0, "fusion_lon": 0.0, "lon": -77.017362, "is_disabled": 0, "bike_id": "5f3ccb4bc022b286c8671ea435b9ec92", "is_reserved": 0, "rental_uris": {"android": "https://dc.lft.to/lastmile_qr_scan", "ios": "https://dc.lft.to/lastmile_qr_scan"}, "lat": 38.91243083333333}, {"type": "electric_scooter", "name": "3fad93a3e3ec05c92989f5c820e7a323", "fusion_lat": 0.0, "fusion_lon": 0.0, "lon": -77.01840666666666, "is_disabled": 0, "bike_id": "3fad93a3e3ec05c92989f5c820e7a323", "is_reserved": 0, "rental_uris": {"android": "https://dc.lft.to/lastmile_qr_scan", "ios": "https://dc.lft.to/lastmile_qr_scan"}, "lat": 38.909599166666666}, {"type": "electric_scooter", "name": "0b30125dc2230855bb79ce59d63c940a", "fusion_lat": 0.0, "fusion_lon": 0.0, "lon": -77.03267433333333, "is_disabled": 0, "bike_id": "0b30125dc2230855bb79ce59d63c940a", "is_reserved": 0, "rental_uris": {"android": "https://dc.lft.to/lastmile_qr_scan", "ios": "https://dc.lft.to/lastmile_qr_scan"}, "lat": 38.933047333333334}, {"type": "electric_scooter", "name": "82c05ac119747b6fe8cfeb39cbdc7b8f", "fusion_lat": 0.0, "fusion_lon": 0.0, "lon": -77.04178366666666, "is_disabled": 0, "bike_id": "82c05ac119747b6fe8cfeb39cbdc7b8f", "is_reserved": 0, "rental_uris": {"android": "https://dc.lft.to/lastmile_qr_scan", "ios": "https://dc.lft.to/lastmile_qr_scan"}, "lat": 38.919808333333336}, {"type": "electric_scooter", "name": "4a0890acd1986875f8ad8f638b6da862", "fusion_lat": 0.0, "fusion_lon": 0.0, "lon": -77.0098795, "is_disabled": 0, "bike_id": "4a0890acd1986875f8ad8f638b6da862", "is_reserved": 0, "rental_uris": {"android": "https://dc.lft.to/lastmile_qr_scan", "ios": "https://dc.lft.to/lastmile_qr_scan"}, "lat": 38.872942}, {"type": "electric_scooter", "name": "8d0a36320d917b9e5c0f6622e0994115", "fusion_lat": 0.0, "fusion_lon": 0.0, "lon": -77.03450066666667, "is_disabled": 0, "bike_id": "8d0a36320d917b9e5c0f6622e0994115", "is_reserved": 0, "rental_uris": {"android": "https://dc.lft.to/lastmile_qr_scan", "ios": "https://dc.lft.to/lastmile_qr_scan"}, "lat": 38.922199166666665}, {"type": "electric_bike", "name": "01c8fc91bd57cfcf211b97298698a794", "fusion_lat": 0.0, "fusion_lon": 0.0, "lon": -77.10614983333333, "is_disabled": 0, "bike_id": "01c8fc91bd57cfcf211b97298698a794", "is_reserved": 0, "rental_uris": {"android": "https://dc.lft.to/lastmile_qr_scan", "ios": "https://dc.lft.to/lastmile_qr_scan"}, "lat": 38.83726716666666}, {"type": "electric_scooter", "name": "0cbebed17c265a20e92909c665a03461", "fusion_lat": 0.0, "fusion_lon": 0.0, "lon": -77.0353745, "is_disabled": 0, "bike_id": "0cbebed17c265a20e92909c665a03461", "is_reserved": 0, "rental_uris": {"android": "https://dc.lft.to/lastmile_qr_scan", "ios": "https://dc.lft.to/lastmile_qr_scan"}, "lat": 38.923405}, {"type": "electric_scooter", "name": "03d8a0c1ae020d026b5deff425004ef9", "fusion_lat": 0.0, "fusion_lon": 0.0, "lon": -77.02841483333333, "is_disabled": 0, "bike_id": "03d8a0c1ae020d026b5deff425004ef9", "is_reserved": 0, "rental_uris": {"android": "https://dc.lft.to/lastmile_qr_scan", "ios": "https://dc.lft.to/lastmile_qr_scan"}, "lat": 38.93063816666667}, {"type": "electric_scooter", "name": "cb0b039060ecbcf2595447312519249e", "fusion_lat": 0.0, "fusion_lon": 0.0, "lon": -77.048074, "is_disabled": 0, "bike_id": "cb0b039060ecbcf2595447312519249e", "is_reserved": 0, "rental_uris": {"android": "https://dc.lft.to/lastmile_qr_scan", "ios": "https://dc.lft.to/lastmile_qr_scan"}, "lat": 38.910426}, {"type": "electric_scooter", "name": "04e609e311d5cdb50c78bf3eff508a53", "fusion_lat": 0.0, "fusion_lon": 0.0, "lon": -76.93523716666667, "is_disabled": 0, "bike_id": "04e609e311d5cdb50c78bf3eff508a53", "is_reserved": 0, "rental_uris": {"android": "https://dc.lft.to/lastmile_qr_scan", "ios": "https://dc.lft.to/lastmile_qr_scan"}, "lat": 38.87896766666667}, {"type": "electric_scooter", "name": "8592d96b096828f8faee92336a1e587a", "fusion_lat": 0.0, "fusion_lon": 0.0, "lon": -77.05021316666667, "is_disabled": 0, "bike_id": "8592d96b096828f8faee92336a1e587a", "is_reserved": 0, "rental_uris": {"android": "https://dc.lft.to/lastmile_qr_scan", "ios": "https://dc.lft.to/lastmile_qr_scan"}, "lat": 38.90531933333333}, {"type": "electric_scooter", "name": "bc603df136657758a9ba49432e9c5e7c", "fusion_lat": 0.0, "fusion_lon": 0.0, "lon": -76.9971745, "is_disabled": 0, "bike_id": "bc603df136657758a9ba49432e9c5e7c", "is_reserved": 0, "rental_uris": {"android": "https://dc.lft.to/lastmile_qr_scan", "ios": "https://dc.lft.to/lastmile_qr_scan"}, "lat": 38.920378166666666}, {"type": "electric_scooter", "name": "518f9695f8717e783193618b5bc196cc", "fusion_lat": 0.0, "fusion_lon": 0.0, "lon": -77.02894383333333, "is_disabled": 0, "bike_id": "518f9695f8717e783193618b5bc196cc", "is_reserved": 0, "rental_uris": {"android": "https://dc.lft.to/lastmile_qr_scan", "ios": "https://dc.lft.to/lastmile_qr_scan"}, "lat": 38.936042666666665}, {"type": "electric_scooter", "name": "06c9107646007a7a3ce9a7981a874b60", "fusion_lat": 0.0, "fusion_lon": 0.0, "lon": -77.01186116666666, "is_disabled": 0, "bike_id": "06c9107646007a7a3ce9a7981a874b60", "is_reserved": 0, "rental_uris": {"android": "https://dc.lft.to/lastmile_qr_scan", "ios": "https://dc.lft.to/lastmile_qr_scan"}, "lat": 38.900176}, {"type": "electric_scooter", "name": "2e9b66ef5f25b38633ce25c6864d3e68", "fusion_lat": 0.0, "fusion_lon": 0.0, "lon": -77.03590433333333, "is_disabled": 0, "bike_id": "2e9b66ef5f25b38633ce25c6864d3e68", "is_reserved": 0, "rental_uris": {"android": "https://dc.lft.to/lastmile_qr_scan", "ios": "https://dc.lft.to/lastmile_qr_scan"}, "lat": 38.90815383333333}, {"type": "electric_bike", "name": "4d9b8c260394ccb77786030eef719dd2", "fusion_lat": 0.0, "fusion_lon": 0.0, "lon": -76.97702583333333, "is_disabled": 0, "bike_id": "4d9b8c260394ccb77786030eef719dd2", "is_reserved": 0, "rental_uris": {"android": "https://dc.lft.to/lastmile_qr_scan", "ios": "https://dc.lft.to/lastmile_qr_scan"}, "lat": 38.8220305}, {"type": "electric_scooter", "name": "b67467be313bded50653766b655a245a", "fusion_lat": 0.0, "fusion_lon": 0.0, "lon": -77.00580583333333, "is_disabled": 0, "bike_id": "b67467be313bded50653766b655a245a", "is_reserved": 0, "rental_uris": {"android": "https://dc.lft.to/lastmile_qr_scan", "ios": "https://dc.lft.to/lastmile_qr_scan"}, "lat": 38.902594}, {"type": "electric_bike", "name": "d257c3e900ac4274312caa4dac6ad660", "fusion_lat": 0.0, "fusion_lon": 0.0, "lon": -77.08318166666666, "is_disabled": 0, "bike_id": "d257c3e900ac4274312caa4dac6ad660", "is_reserved": 0, "rental_uris": {"android": "https://dc.lft.to/lastmile_qr_scan", "ios": "https://dc.lft.to/lastmile_qr_scan"}, "lat": 38.8544435}, {"type": "electric_scooter", "name": "007bbec0916ce79f6999a550751cbbde", "fusion_lat": 0.0, "fusion_lon": 0.0, "lon": -77.026993, "is_disabled": 0, "bike_id": "007bbec0916ce79f6999a550751cbbde", "is_reserved": 0, "rental_uris": {"android": "https://dc.lft.to/lastmile_qr_scan", "ios": "https://dc.lft.to/lastmile_qr_scan"}, "lat": 38.90871766666667}, {"type": "electric_scooter", "name": "e4a01e5bd0cdb570bc193c1369790a2f", "fusion_lat": 0.0, "fusion_lon": 0.0, "lon": -76.98401, "is_disabled": 0, "bike_id": "e4a01e5bd0cdb570bc193c1369790a2f", "is_reserved": 0, "rental_uris": {"android": "https://dc.lft.to/lastmile_qr_scan", "ios": "https://dc.lft.to/lastmile_qr_scan"}, "lat": 38.905110666666666}, {"type": "electric_scooter", "name": "ab7af0f1c89d4dea9ef011ba908ecd27", "fusion_lat": 0.0, "fusion_lon": 0.0, "lon": -77.0199, "is_disabled": 0, "bike_id": "ab7af0f1c89d4dea9ef011ba908ecd27", "is_reserved": 0, "rental_uris": {"android": "https://dc.lft.to/lastmile_qr_scan", "ios": "https://dc.lft.to/lastmile_qr_scan"}, "lat": 38.8760675}, {"type": "electric_scooter", "name": "45fbbbad074c0b15ff2ac9a8d4ef225e", "fusion_lat": 0.0, "fusion_lon": 0.0, "lon": -77.03860866666666, "is_disabled": 0, "bike_id": "45fbbbad074c0b15ff2ac9a8d4ef225e", "is_reserved": 0, "rental_uris": {"android": "https://dc.lft.to/lastmile_qr_scan", "ios": "https://dc.lft.to/lastmile_qr_scan"}, "lat": 38.916645}, {"type": "electric_scooter", "name": "dbd2b6b0662386f874db1c197f4c5035", "fusion_lat": 0.0, "fusion_lon": 0.0, "lon": -77.024428, "is_disabled": 0, "bike_id": "dbd2b6b0662386f874db1c197f4c5035", "is_reserved": 0, "rental_uris": {"android": "https://dc.lft.to/lastmile_qr_scan", "ios": "https://dc.lft.to/lastmile_qr_scan"}, "lat": 38.95637816666667}, {"type": "electric_scooter", "name": "429259950c40a0de0ce3c6a58501043a", "fusion_lat": 0.0, "fusion_lon": 0.0, "lon": -77.05519716666667, "is_disabled": 0, "bike_id": "429259950c40a0de0ce3c6a58501043a", "is_reserved": 0, "rental_uris": {"android": "https://dc.lft.to/lastmile_qr_scan", "ios": "https://dc.lft.to/lastmile_qr_scan"}, "lat": 38.9076985}, {"type": "electric_bike", "name": "6d648c17f4c579604f264bedfc44c950", "fusion_lat": 0.0, "fusion_lon": 0.0, "lon": -77.0657545, "is_disabled": 0, "bike_id": "6d648c17f4c579604f264bedfc44c950", "is_reserved": 0, "rental_uris": {"android": "https://dc.lft.to/lastmile_qr_scan", "ios": "https://dc.lft.to/lastmile_qr_scan"}, "lat": 38.932682}, {"type": "electric_scooter", "name": "f172a7a381e68abc92e98b0b733352d0", "fusion_lat": 0.0, "fusion_lon": 0.0, "lon": -77.0530025, "is_disabled": 0, "bike_id": "f172a7a381e68abc92e98b0b733352d0", "is_reserved": 0, "rental_uris": {"android": "https://dc.lft.to/lastmile_qr_scan", "ios": "https://dc.lft.to/lastmile_qr_scan"}, "lat": 38.902705166666664}, {"type": "electric_scooter", "name": "46150c7c2539956598f44e6c84faf8d0", "fusion_lat": 0.0, "fusion_lon": 0.0, "lon": -77.02606883333333, "is_disabled": 0, "bike_id": "46150c7c2539956598f44e6c84faf8d0", "is_reserved": 0, "rental_uris": {"android": "https://dc.lft.to/lastmile_qr_scan", "ios": "https://dc.lft.to/lastmile_qr_scan"}, "lat": 38.91836683333333}, {"type": "electric_scooter", "name": "1e786a0e24809c8d99f7f5a8bf0dd7c6", "fusion_lat": 0.0, "fusion_lon": 0.0, "lon": -77.045082, "is_disabled": 0, "bike_id": "1e786a0e24809c8d99f7f5a8bf0dd7c6", "is_reserved": 0, "rental_uris": {"android": "https://dc.lft.to/lastmile_qr_scan", "ios": "https://dc.lft.to/lastmile_qr_scan"}, "lat": 38.912744}, {"type": "electric_scooter", "name": "e0bc1ebedddad8308832c313661d7c07", "fusion_lat": 0.0, "fusion_lon": 0.0, "lon": -77.02232333333333, "is_disabled": 0, "bike_id": "e0bc1ebedddad8308832c313661d7c07", "is_reserved": 0, "rental_uris": {"android": "https://dc.lft.to/lastmile_qr_scan", "ios": "https://dc.lft.to/lastmile_qr_scan"}, "lat": 38.912706666666665}, {"type": "electric_scooter", "name": "7e5dd2f5685c21e4e691efcc738f8926", "fusion_lat": 0.0, "fusion_lon": 0.0, "lon": -77.031891, "is_disabled": 0, "bike_id": "7e5dd2f5685c21e4e691efcc738f8926", "is_reserved": 0, "rental_uris": {"android": "https://dc.lft.to/lastmile_qr_scan", "ios": "https://dc.lft.to/lastmile_qr_scan"}, "lat": 38.91347366666667}, {"type": "electric_scooter", "name": "cfd58850328616867ce2f1c6b8d50569", "fusion_lat": 0.0, "fusion_lon": 0.0, "lon": -76.97134383333334, "is_disabled": 0, "bike_id": "cfd58850328616867ce2f1c6b8d50569", "is_reserved": 0, "rental_uris": {"android": "https://dc.lft.to/lastmile_qr_scan", "ios": "https://dc.lft.to/lastmile_qr_scan"}, "lat": 38.87863466666667}, {"type": "electric_scooter", "name": "a44a17456a79a1b7af94c0f61da55e7a", "fusion_lat": 0.0, "fusion_lon": 0.0, "lon": -77.0682335, "is_disabled": 0, "bike_id": "a44a17456a79a1b7af94c0f61da55e7a", "is_reserved": 0, "rental_uris": {"android": "https://dc.lft.to/lastmile_qr_scan", "ios": "https://dc.lft.to/lastmile_qr_scan"}, "lat": 38.91666683333333}, {"type": "electric_scooter", "name": "3be312cfa26137b7bee37389659f9c20", "fusion_lat": 0.0, "fusion_lon": 0.0, "lon": -77.04876183333333, "is_disabled": 0, "bike_id": "3be312cfa26137b7bee37389659f9c20", "is_reserved": 0, "rental_uris": {"android": "https://dc.lft.to/lastmile_qr_scan", "ios": "https://dc.lft.to/lastmile_qr_scan"}, "lat": 38.89238666666667}, {"type": "electric_scooter", "name": "c2a246be2108da486b857970400f1b75", "fusion_lat": 0.0, "fusion_lon": 0.0, "lon": -77.06854216666666, "is_disabled": 0, "bike_id": "c2a246be2108da486b857970400f1b75", "is_reserved": 0, "rental_uris": {"android": "https://dc.lft.to/lastmile_qr_scan", "ios": "https://dc.lft.to/lastmile_qr_scan"}, "lat": 38.90409833333333}, {"type": "electric_scooter", "name": "57c4d7921693bc440bd395bc0417a15c", "fusion_lat": 0.0, "fusion_lon": 0.0, "lon": -77.00048966666667, "is_disabled": 0, "bike_id": "57c4d7921693bc440bd395bc0417a15c", "is_reserved": 0, "rental_uris": {"android": "https://dc.lft.to/lastmile_qr_scan", "ios": "https://dc.lft.to/lastmile_qr_scan"}, "lat": 38.87503566666667}, {"type": "electric_scooter", "name": "90bec55671b5952d24f60c5259e39dae", "fusion_lat": 0.0, "fusion_lon": 0.0, "lon": -77.06046816666667, "is_disabled": 0, "bike_id": "90bec55671b5952d24f60c5259e39dae", "is_reserved": 0, "rental_uris": {"android": "https://dc.lft.to/lastmile_qr_scan", "ios": "https://dc.lft.to/lastmile_qr_scan"}, "lat": 38.90237966666667}, {"type": "electric_scooter", "name": "fa04dba4d43ab17437894af54758eeea", "fusion_lat": 0.0, "fusion_lon": 0.0, "lon": -77.035099, "is_disabled": 0, "bike_id": "fa04dba4d43ab17437894af54758eeea", "is_reserved": 0, "rental_uris": {"android": "https://dc.lft.to/lastmile_qr_scan", "ios": "https://dc.lft.to/lastmile_qr_scan"}, "lat": 38.922170666666666}, {"type": "electric_scooter", "name": "dc7dc2c1184df634f0da67a51f6aac41", "fusion_lat": 0.0, "fusion_lon": 0.0, "lon": -77.0213335, "is_disabled": 0, "bike_id": "dc7dc2c1184df634f0da67a51f6aac41", "is_reserved": 0, "rental_uris": {"android": "https://dc.lft.to/lastmile_qr_scan", "ios": "https://dc.lft.to/lastmile_qr_scan"}, "lat": 38.92698866666667}, {"type": "electric_scooter", "name": "3f1b4db4ca9575a4ea6b9b51b8ff2760", "fusion_lat": 0.0, "fusion_lon": 0.0, "lon": -76.98852783333334, "is_disabled": 0, "bike_id": "3f1b4db4ca9575a4ea6b9b51b8ff2760", "is_reserved": 0, "rental_uris": {"android": "https://dc.lft.to/lastmile_qr_scan", "ios": "https://dc.lft.to/lastmile_qr_scan"}, "lat": 38.8442575}, {"type": "electric_scooter", "name": "ba4b5dbb59bb92c199cef1f85a44a1cc", "fusion_lat": 0.0, "fusion_lon": 0.0, "lon": -77.02393566666667, "is_disabled": 0, "bike_id": "ba4b5dbb59bb92c199cef1f85a44a1cc", "is_reserved": 0, "rental_uris": {"android": "https://dc.lft.to/lastmile_qr_scan", "ios": "https://dc.lft.to/lastmile_qr_scan"}, "lat": 38.907096833333334}, {"type": "electric_scooter", "name": "13039ae9748fbe8beae0f641d720dbfd", "fusion_lat": 0.0, "fusion_lon": 0.0, "lon": -77.01754716666666, "is_disabled": 0, "bike_id": "13039ae9748fbe8beae0f641d720dbfd", "is_reserved": 0, "rental_uris": {"android": "https://dc.lft.to/lastmile_qr_scan", "ios": "https://dc.lft.to/lastmile_qr_scan"}, "lat": 38.902655833333334}, {"type": "electric_bike", "name": "1721247cac756091c12d75085b96f623", "fusion_lat": 0.0, "fusion_lon": 0.0, "lon": -77.0122865, "is_disabled": 0, "bike_id": "1721247cac756091c12d75085b96f623", "is_reserved": 0, "rental_uris": {"android": "https://dc.lft.to/lastmile_qr_scan", "ios": "https://dc.lft.to/lastmile_qr_scan"}, "lat": 38.950784666666664}, {"type": "electric_scooter", "name": "cdbbd940ff889e5e470fa21610874297", "fusion_lat": 0.0, "fusion_lon": 0.0, "lon": -77.01550433333334, "is_disabled": 0, "bike_id": "cdbbd940ff889e5e470fa21610874297", "is_reserved": 0, "rental_uris": {"android": "https://dc.lft.to/lastmile_qr_scan", "ios": "https://dc.lft.to/lastmile_qr_scan"}, "lat": 38.8848485}, {"type": "electric_scooter", "name": "709ee20c9370244c2226e0a7de17bd27", "fusion_lat": 0.0, "fusion_lon": 0.0, "lon": -77.04590483333334, "is_disabled": 0, "bike_id": "709ee20c9370244c2226e0a7de17bd27", "is_reserved": 0, "rental_uris": {"android": "https://dc.lft.to/lastmile_qr_scan", "ios": "https://dc.lft.to/lastmile_qr_scan"}, "lat": 38.914460166666665}, {"type": "electric_bike", "name": "e1d4125e06c47602354a7f09773227fd", "fusion_lat": 0.0, "fusion_lon": 0.0, "lon": -76.9968655, "is_disabled": 0, "bike_id": "e1d4125e06c47602354a7f09773227fd", "is_reserved": 0, "rental_uris": {"android": "https://dc.lft.to/lastmile_qr_scan", "ios": "https://dc.lft.to/lastmile_qr_scan"}, "lat": 38.83816866666667}, {"type": "electric_scooter", "name": "9d88178d73b2483cb9a1f0a6e685f7fb", "fusion_lat": 0.0, "fusion_lon": 0.0, "lon": -77.05999333333334, "is_disabled": 0, "bike_id": "9d88178d73b2483cb9a1f0a6e685f7fb", "is_reserved": 0, "rental_uris": {"android": "https://dc.lft.to/lastmile_qr_scan", "ios": "https://dc.lft.to/lastmile_qr_scan"}, "lat": 38.93822133333333}, {"type": "electric_bike", "name": "9a0bd4b5cc21d27691c52c042604422f", "fusion_lat": 0.0, "fusion_lon": 0.0, "lon": -76.90297316666667, "is_disabled": 0, "bike_id": "9a0bd4b5cc21d27691c52c042604422f", "is_reserved": 0, "rental_uris": {"android": "https://dc.lft.to/lastmile_qr_scan", "ios": "https://dc.lft.to/lastmile_qr_scan"}, "lat": 39.002955666666665}, {"type": "electric_bike", "name": "89b3269c46b4639c0790e8a1e19f029a", "fusion_lat": 0.0, "fusion_lon": 0.0, "lon": -77.0342975, "is_disabled": 0, "bike_id": "89b3269c46b4639c0790e8a1e19f029a", "is_reserved": 0, "rental_uris": {"android": "https://dc.lft.to/lastmile_qr_scan", "ios": "https://dc.lft.to/lastmile_qr_scan"}, "lat": 38.966196}, {"type": "electric_scooter", "name": "daa251518f85350acc3e83db5876de71", "fusion_lat": 0.0, "fusion_lon": 0.0, "lon": -77.0414895, "is_disabled": 0, "bike_id": "daa251518f85350acc3e83db5876de71", "is_reserved": 0, "rental_uris": {"android": "https://dc.lft.to/lastmile_qr_scan", "ios": "https://dc.lft.to/lastmile_qr_scan"}, "lat": 38.923504333333334}, {"type": "electric_scooter", "name": "ba0730142c7fe9c9acef9bce7beb6fd0", "fusion_lat": 0.0, "fusion_lon": 0.0, "lon": -77.03656016666666, "is_disabled": 0, "bike_id": "ba0730142c7fe9c9acef9bce7beb6fd0", "is_reserved": 0, "rental_uris": {"android": "https://dc.lft.to/lastmile_qr_scan", "ios": "https://dc.lft.to/lastmile_qr_scan"}, "lat": 38.921177666666665}, {"type": "electric_scooter", "name": "54d5c87629c7c109515640f7be2a4f65", "fusion_lat": 0.0, "fusion_lon": 0.0, "lon": -76.994102, "is_disabled": 0, "bike_id": "54d5c87629c7c109515640f7be2a4f65", "is_reserved": 0, "rental_uris": {"android": "https://dc.lft.to/lastmile_qr_scan", "ios": "https://dc.lft.to/lastmile_qr_scan"}, "lat": 38.87792266666666}, {"type": "electric_scooter", "name": "e54636edaeb3587e5d2bbda012200d27", "fusion_lat": 0.0, "fusion_lon": 0.0, "lon": -77.01140966666667, "is_disabled": 0, "bike_id": "e54636edaeb3587e5d2bbda012200d27", "is_reserved": 0, "rental_uris": {"android": "https://dc.lft.to/lastmile_qr_scan", "ios": "https://dc.lft.to/lastmile_qr_scan"}, "lat": 38.91707133333333}, {"type": "electric_scooter", "name": "ef6f7e4bc51ac89b4952219411e6799d", "fusion_lat": 0.0, "fusion_lon": 0.0, "lon": -76.9985585, "is_disabled": 0, "bike_id": "ef6f7e4bc51ac89b4952219411e6799d", "is_reserved": 0, "rental_uris": {"android": "https://dc.lft.to/lastmile_qr_scan", "ios": "https://dc.lft.to/lastmile_qr_scan"}, "lat": 38.90328233333334}, {"type": "electric_scooter", "name": "65c87b38e3ecdd2ac78db553b02844b7", "fusion_lat": 0.0, "fusion_lon": 0.0, "lon": -77.04665433333334, "is_disabled": 0, "bike_id": "65c87b38e3ecdd2ac78db553b02844b7", "is_reserved": 0, "rental_uris": {"android": "https://dc.lft.to/lastmile_qr_scan", "ios": "https://dc.lft.to/lastmile_qr_scan"}, "lat": 38.897459833333336}, {"type": "electric_scooter", "name": "50ee34d7e58684baa47f45d6372ad431", "fusion_lat": 0.0, "fusion_lon": 0.0, "lon": -76.99847933333334, "is_disabled": 0, "bike_id": "50ee34d7e58684baa47f45d6372ad431", "is_reserved": 0, "rental_uris": {"android": "https://dc.lft.to/lastmile_qr_scan", "ios": "https://dc.lft.to/lastmile_qr_scan"}, "lat": 38.906484}, {"type": "electric_scooter", "name": "494760de10c67b03feabe9058fc53cd9", "fusion_lat": 0.0, "fusion_lon": 0.0, "lon": -77.0021195, "is_disabled": 0, "bike_id": "494760de10c67b03feabe9058fc53cd9", "is_reserved": 0, "rental_uris": {"android": "https://dc.lft.to/lastmile_qr_scan", "ios": "https://dc.lft.to/lastmile_qr_scan"}, "lat": 38.9146055}, {"type": "electric_bike", "name": "94b6462760cc085d672723cc2c5cca41", "fusion_lat": 0.0, "fusion_lon": 0.0, "lon": -76.950682, "is_disabled": 0, "bike_id": "94b6462760cc085d672723cc2c5cca41", "is_reserved": 0, "rental_uris": {"android": "https://dc.lft.to/lastmile_qr_scan", "ios": "https://dc.lft.to/lastmile_qr_scan"}, "lat": 39.085082666666665}, {"type": "electric_scooter", "name": "d2f40e160b3390ee36e383ff1867d096", "fusion_lat": 0.0, "fusion_lon": 0.0, "lon": -77.01633866666667, "is_disabled": 0, "bike_id": "d2f40e160b3390ee36e383ff1867d096", "is_reserved": 0, "rental_uris": {"android": "https://dc.lft.to/lastmile_qr_scan", "ios": "https://dc.lft.to/lastmile_qr_scan"}, "lat": 38.90366916666667}, {"type": "electric_scooter", "name": "8ed5c22040c67379df2a4a56f8a5ff5d", "fusion_lat": 0.0, "fusion_lon": 0.0, "lon": -77.03871216666667, "is_disabled": 0, "bike_id": "8ed5c22040c67379df2a4a56f8a5ff5d", "is_reserved": 0, "rental_uris": {"android": "https://dc.lft.to/lastmile_qr_scan", "ios": "https://dc.lft.to/lastmile_qr_scan"}, "lat": 38.91256933333333}, {"type": "electric_scooter", "name": "ee743a345be29c6d8b52f05e63bce4b9", "fusion_lat": 0.0, "fusion_lon": 0.0, "lon": -77.01839, "is_disabled": 0, "bike_id": "ee743a345be29c6d8b52f05e63bce4b9", "is_reserved": 0, "rental_uris": {"android": "https://dc.lft.to/lastmile_qr_scan", "ios": "https://dc.lft.to/lastmile_qr_scan"}, "lat": 38.92139916666667}, {"type": "electric_scooter", "name": "7a156310ab8f282ec94c3a14050bb1a8", "fusion_lat": 0.0, "fusion_lon": 0.0, "lon": -77.01580666666666, "is_disabled": 0, "bike_id": "7a156310ab8f282ec94c3a14050bb1a8", "is_reserved": 0, "rental_uris": {"android": "https://dc.lft.to/lastmile_qr_scan", "ios": "https://dc.lft.to/lastmile_qr_scan"}, "lat": 38.916819333333336}, {"type": "electric_scooter", "name": "938c075092d834369917ca2314d384de", "fusion_lat": 0.0, "fusion_lon": 0.0, "lon": -76.985503, "is_disabled": 0, "bike_id": "938c075092d834369917ca2314d384de", "is_reserved": 0, "rental_uris": {"android": "https://dc.lft.to/lastmile_qr_scan", "ios": "https://dc.lft.to/lastmile_qr_scan"}, "lat": 38.90697466666667}, {"type": "electric_scooter", "name": "bc768f864f7eb310dde81c47f7a1cb1a", "fusion_lat": 0.0, "fusion_lon": 0.0, "lon": -77.02207183333333, "is_disabled": 0, "bike_id": "bc768f864f7eb310dde81c47f7a1cb1a", "is_reserved": 0, "rental_uris": {"android": "https://dc.lft.to/lastmile_qr_scan", "ios": "https://dc.lft.to/lastmile_qr_scan"}, "lat": 38.914412166666665}, {"type": "electric_scooter", "name": "9e86f4f8b4c5fa737b84ce7845e965a4", "fusion_lat": 0.0, "fusion_lon": 0.0, "lon": -76.98187633333333, "is_disabled": 0, "bike_id": "9e86f4f8b4c5fa737b84ce7845e965a4", "is_reserved": 0, "rental_uris": {"android": "https://dc.lft.to/lastmile_qr_scan", "ios": "https://dc.lft.to/lastmile_qr_scan"}, "lat": 38.90581733333333}, {"type": "electric_scooter", "name": "cb08fd8fc20be518e710e434a513cc60", "fusion_lat": 0.0, "fusion_lon": 0.0, "lon": -77.0733155, "is_disabled": 0, "bike_id": "cb08fd8fc20be518e710e434a513cc60", "is_reserved": 0, "rental_uris": {"android": "https://dc.lft.to/lastmile_qr_scan", "ios": "https://dc.lft.to/lastmile_qr_scan"}, "lat": 38.926064}, {"type": "electric_scooter", "name": "b52bb90d3f53174cf3c46be18876e66d", "fusion_lat": 0.0, "fusion_lon": 0.0, "lon": -77.01998783333333, "is_disabled": 0, "bike_id": "b52bb90d3f53174cf3c46be18876e66d", "is_reserved": 0, "rental_uris": {"android": "https://dc.lft.to/lastmile_qr_scan", "ios": "https://dc.lft.to/lastmile_qr_scan"}, "lat": 38.93053233333333}, {"type": "electric_scooter", "name": "ac72e019ba9714176800f73a1abb1695", "fusion_lat": 0.0, "fusion_lon": 0.0, "lon": -77.00214383333334, "is_disabled": 0, "bike_id": "ac72e019ba9714176800f73a1abb1695", "is_reserved": 0, "rental_uris": {"android": "https://dc.lft.to/lastmile_qr_scan", "ios": "https://dc.lft.to/lastmile_qr_scan"}, "lat": 38.90037183333333}, {"type": "electric_scooter", "name": "6b2a904bc6ed0a2f697146de7dda9d92", "fusion_lat": 0.0, "fusion_lon": 0.0, "lon": -77.01562783333334, "is_disabled": 0, "bike_id": "6b2a904bc6ed0a2f697146de7dda9d92", "is_reserved": 0, "rental_uris": {"android": "https://dc.lft.to/lastmile_qr_scan", "ios": "https://dc.lft.to/lastmile_qr_scan"}, "lat": 38.88312466666667}, {"type": "electric_scooter", "name": "bf5742d8e8acf5bfa70ad743e740cdb6", "fusion_lat": 0.0, "fusion_lon": 0.0, "lon": -77.041733, "is_disabled": 0, "bike_id": "bf5742d8e8acf5bfa70ad743e740cdb6", "is_reserved": 0, "rental_uris": {"android": "https://dc.lft.to/lastmile_qr_scan", "ios": "https://dc.lft.to/lastmile_qr_scan"}, "lat": 38.91396666666667}, {"type": "electric_scooter", "name": "03dc7376a378a461d8e0f982643240e7", "fusion_lat": 0.0, "fusion_lon": 0.0, "lon": -77.034809, "is_disabled": 0, "bike_id": "03dc7376a378a461d8e0f982643240e7", "is_reserved": 0, "rental_uris": {"android": "https://dc.lft.to/lastmile_qr_scan", "ios": "https://dc.lft.to/lastmile_qr_scan"}, "lat": 38.92480416666667}, {"type": "electric_bike", "name": "66ebc3267211879dc30be84d1b603719", "fusion_lat": 0.0, "fusion_lon": 0.0, "lon": -76.9609145, "is_disabled": 0, "bike_id": "66ebc3267211879dc30be84d1b603719", "is_reserved": 0, "rental_uris": {"android": "https://dc.lft.to/lastmile_qr_scan", "ios": "https://dc.lft.to/lastmile_qr_scan"}, "lat": 38.918579}, {"type": "electric_bike", "name": "686ed8955dcc91dec76e06f164a0b2ca", "fusion_lat": 0.0, "fusion_lon": 0.0, "lon": -77.0274615, "is_disabled": 0, "bike_id": "686ed8955dcc91dec76e06f164a0b2ca", "is_reserved": 0, "rental_uris": {"android": "https://dc.lft.to/lastmile_qr_scan", "ios": "https://dc.lft.to/lastmile_qr_scan"}, "lat": 38.96937233333333}, {"type": "electric_scooter", "name": "8f92f55936f49dd32d900ba8eab57712", "fusion_lat": 0.0, "fusion_lon": 0.0, "lon": -77.02562383333333, "is_disabled": 0, "bike_id": "8f92f55936f49dd32d900ba8eab57712", "is_reserved": 0, "rental_uris": {"android": "https://dc.lft.to/lastmile_qr_scan", "ios": "https://dc.lft.to/lastmile_qr_scan"}, "lat": 38.88747266666667}, {"type": "electric_scooter", "name": "89f75c8f006bafa0930f6b0d3d02a6aa", "fusion_lat": 0.0, "fusion_lon": 0.0, "lon": -77.0316725, "is_disabled": 0, "bike_id": "89f75c8f006bafa0930f6b0d3d02a6aa", "is_reserved": 0, "rental_uris": {"android": "https://dc.lft.to/lastmile_qr_scan", "ios": "https://dc.lft.to/lastmile_qr_scan"}, "lat": 38.92869966666667}, {"type": "electric_bike", "name": "4e2bffe77560b7befd0467567b63c7b9", "fusion_lat": 0.0, "fusion_lon": 0.0, "lon": -77.02974933333333, "is_disabled": 0, "bike_id": "4e2bffe77560b7befd0467567b63c7b9", "is_reserved": 0, "rental_uris": {"android": "https://dc.lft.to/lastmile_qr_scan", "ios": "https://dc.lft.to/lastmile_qr_scan"}, "lat": 38.90711533333333}, {"type": "electric_bike", "name": "7ffa1acd04790183c7d80ea6cd3a656e", "fusion_lat": 0.0, "fusion_lon": 0.0, "lon": -76.99026116666667, "is_disabled": 0, "bike_id": "7ffa1acd04790183c7d80ea6cd3a656e", "is_reserved": 0, "rental_uris": {"android": "https://dc.lft.to/lastmile_qr_scan", "ios": "https://dc.lft.to/lastmile_qr_scan"}, "lat": 38.835837166666664}, {"type": "electric_scooter", "name": "658d9c8a86cf1b1ed67ca5eba9fb0fe6", "fusion_lat": 0.0, "fusion_lon": 0.0, "lon": -76.988595, "is_disabled": 0, "bike_id": "658d9c8a86cf1b1ed67ca5eba9fb0fe6", "is_reserved": 0, "rental_uris": {"android": "https://dc.lft.to/lastmile_qr_scan", "ios": "https://dc.lft.to/lastmile_qr_scan"}, "lat": 38.84419833333333}, {"type": "electric_scooter", "name": "d9dcf65ea15a16c08b4912ff2f7c949d", "fusion_lat": 0.0, "fusion_lon": 0.0, "lon": -77.01706983333334, "is_disabled": 0, "bike_id": "d9dcf65ea15a16c08b4912ff2f7c949d", "is_reserved": 0, "rental_uris": {"android": "https://dc.lft.to/lastmile_qr_scan", "ios": "https://dc.lft.to/lastmile_qr_scan"}, "lat": 38.904772333333334}, {"type": "electric_scooter", "name": "b0a8e93e9f057cec74b500d2d7fde87d", "fusion_lat": 0.0, "fusion_lon": 0.0, "lon": -77.017672, "is_disabled": 0, "bike_id": "b0a8e93e9f057cec74b500d2d7fde87d", "is_reserved": 0, "rental_uris": {"android": "https://dc.lft.to/lastmile_qr_scan", "ios": "https://dc.lft.to/lastmile_qr_scan"}, "lat": 38.9211315}, {"type": "electric_scooter", "name": "521e448432f83e73228b3a5097675a47", "fusion_lat": 0.0, "fusion_lon": 0.0, "lon": -77.03373466666666, "is_disabled": 0, "bike_id": "521e448432f83e73228b3a5097675a47", "is_reserved": 0, "rental_uris": {"android": "https://dc.lft.to/lastmile_qr_scan", "ios": "https://dc.lft.to/lastmile_qr_scan"}, "lat": 38.899672833333334}, {"type": "electric_scooter", "name": "c5a9bd5e48d150c527e2264b75f37585", "fusion_lat": 0.0, "fusion_lon": 0.0, "lon": -77.0344775, "is_disabled": 0, "bike_id": "c5a9bd5e48d150c527e2264b75f37585", "is_reserved": 0, "rental_uris": {"android": "https://dc.lft.to/lastmile_qr_scan", "ios": "https://dc.lft.to/lastmile_qr_scan"}, "lat": 38.913973}, {"type": "electric_scooter", "name": "7d286bc8e285325e0821d84c0e9276f1", "fusion_lat": 0.0, "fusion_lon": 0.0, "lon": -77.03371133333333, "is_disabled": 0, "bike_id": "7d286bc8e285325e0821d84c0e9276f1", "is_reserved": 0, "rental_uris": {"android": "https://dc.lft.to/lastmile_qr_scan", "ios": "https://dc.lft.to/lastmile_qr_scan"}, "lat": 38.90036333333333}, {"type": "electric_scooter", "name": "6cfccdf7a7e638c39f30c0747b57f13b", "fusion_lat": 0.0, "fusion_lon": 0.0, "lon": -77.00590566666666, "is_disabled": 0, "bike_id": "6cfccdf7a7e638c39f30c0747b57f13b", "is_reserved": 0, "rental_uris": {"android": "https://dc.lft.to/lastmile_qr_scan", "ios": "https://dc.lft.to/lastmile_qr_scan"}, "lat": 38.90562966666667}, {"type": "electric_scooter", "name": "7e2285c8eb291c7551ccd6229c86523f", "fusion_lat": 0.0, "fusion_lon": 0.0, "lon": -76.957406, "is_disabled": 0, "bike_id": "7e2285c8eb291c7551ccd6229c86523f", "is_reserved": 0, "rental_uris": {"android": "https://dc.lft.to/lastmile_qr_scan", "ios": "https://dc.lft.to/lastmile_qr_scan"}, "lat": 38.883912333333335}, {"type": "electric_scooter", "name": "28014aa847567bb7931d1da229105df4", "fusion_lat": 0.0, "fusion_lon": 0.0, "lon": -77.01477116666666, "is_disabled": 0, "bike_id": "28014aa847567bb7931d1da229105df4", "is_reserved": 0, "rental_uris": {"android": "https://dc.lft.to/lastmile_qr_scan", "ios": "https://dc.lft.to/lastmile_qr_scan"}, "lat": 38.917551833333334}, {"type": "electric_scooter", "name": "5db5f3703c97457d558d6f976751a94f", "fusion_lat": 0.0, "fusion_lon": 0.0, "lon": -77.02570316666667, "is_disabled": 0, "bike_id": "5db5f3703c97457d558d6f976751a94f", "is_reserved": 0, "rental_uris": {"android": "https://dc.lft.to/lastmile_qr_scan", "ios": "https://dc.lft.to/lastmile_qr_scan"}, "lat": 38.901408333333336}, {"type": "electric_scooter", "name": "1c1bdb834ad79ba7963737efcd87eb12", "fusion_lat": 0.0, "fusion_lon": 0.0, "lon": -77.023048, "is_disabled": 0, "bike_id": "1c1bdb834ad79ba7963737efcd87eb12", "is_reserved": 0, "rental_uris": {"android": "https://dc.lft.to/lastmile_qr_scan", "ios": "https://dc.lft.to/lastmile_qr_scan"}, "lat": 38.91701483333333}, {"type": "electric_scooter", "name": "640a444a7caa90f3a6c1e3d184161d25", "fusion_lat": 0.0, "fusion_lon": 0.0, "lon": -77.0223905, "is_disabled": 0, "bike_id": "640a444a7caa90f3a6c1e3d184161d25", "is_reserved": 0, "rental_uris": {"android": "https://dc.lft.to/lastmile_qr_scan", "ios": "https://dc.lft.to/lastmile_qr_scan"}, "lat": 38.9086545}, {"type": "electric_bike", "name": "fbec9147923411ae19a26881036f96f7", "fusion_lat": 0.0, "fusion_lon": 0.0, "lon": -77.12729283333333, "is_disabled": 0, "bike_id": "fbec9147923411ae19a26881036f96f7", "is_reserved": 0, "rental_uris": {"android": "https://dc.lft.to/lastmile_qr_scan", "ios": "https://dc.lft.to/lastmile_qr_scan"}, "lat": 38.895601},