{"data": {"bikes": [{"name": "751b28ed830ec3b98726fe36174c6a1e", "lon": -76.99379883333333, "lat": 38.877576166666664, "type": "electric_scooter", "fusion_lon": 0.0, "is_reserved": 0, "bike_id": "751b28ed830ec3b98726fe36174c6a1e", "fusion_lat": 0.0, "is_disabled": 0, "rental_uris": {"ios": "https://dc.lft.to/lastmile_qr_scan", "android": "https://dc.lft.to/lastmile_qr_scan"}}, {"name": "b09879f5159e21068f33570b875915a3", "lon": -77.03078166666667, "lat": 38.911107333333334, "type": "electric_scooter", "fusion_lon": 0.0, "is_reserved": 0, "bike_id": "b09879f5159e21068f33570b875915a3", "fusion_lat": 0.0, "is_disabled": 0, "rental_uris": {"ios": "https://dc.lft.to/lastmile_qr_scan", "android": "https://dc.lft.to/lastmile_qr_scan"}}, {"name": "256430a6a09f4cd54fa2e3ee8d5b4380", "lon": -77.03999933333333, "lat": 38.93426183333333, "type": "electric_scooter", "fusion_lon": 0.0, "is_reserved": 0, "bike_id": "256430a6a09f4cd54fa2e3ee8d5b4380", "fusion_lat": 0.0, "is_disabled": 0, "rental_uris": {"ios": "https://dc.lft.to/lastmile_qr_scan", "android": "https://dc.lft.to/lastmile_qr_scan"}}, {"name": "010461a9a84365919601711745d5c784", "lon": -77.04485966666667, "lat": 38.9240565, "type": "electric_scooter", "fusion_lon": 0.0, "is_reserved": 0, "bike_id": "010461a9a84365919601711745d5c784", "fusion_lat": 0.0, "is_disabled": 0, "rental_uris": {"ios": "https://dc.lft.to/lastmile_qr_scan", "android": "https://dc.lft.to/lastmile_qr_scan"}}, {"name": "107aac1bd43a8a73cc0649ee79d28f28", "lon": -77.015776, "lat": 38.91680133333333, "type": "electric_scooter", "fusion_lon": 0.0, "is_reserved": 0, "bike_id": "107aac1bd43a8a73cc0649ee79d28f28", "fusion_lat": 0.0, "is_disabled": 0, "rental_uris": {"ios": "https://dc.lft.to/lastmile_qr_scan", "android": "https://dc.lft.to/lastmile_qr_scan"}}, {"name": "fc64a1deedfe1dc65877a339b96f82f0", "lon": -77.05220916666667, "lat": 38.9248315, "type": "electric_scooter", "fusion_lon": 0.0, "is_reserved": 0, "bike_id": "fc64a1deedfe1dc65877a339b96f82f0", "fusion_lat": 0.0, "is_disabled": 0, "rental_uris": {"ios": "https://dc.lft.to/lastmile_qr_scan", "android": "https://dc.lft.to/lastmile_qr_scan"}}, {"name": "d0927bad91318df4e41fe9b7d5e32438", "lon": -77.00920483333333, "lat": 38.8278515, "type": "electric_scooter", "fusion_lon": 0.0, "is_reserved": 0, "bike_id": "d0927bad91318df4e41fe9b7d5e32438", "fusion_lat": 0.0, "is_disabled": 0, "rental_uris": {"ios": "https://dc.lft.to/lastmile_qr_scan", "android": "https://dc.lft.to/lastmile_qr_scan"}}, {"name": "aab6f42d2006b2aba21b58fb40422101", "lon": -77.00592133333333, "lat": 38.906431166666664, "type": "electric_scooter", "fusion_lon": 0.0, "is_reserved": 0, "bike_id": "aab6f42d2006b2aba21b58fb40422101", "fusion_lat": 0.0, "is_disabled": 0, "rental_uris": {"ios": "https://dc.lft.to/lastmile_qr_scan", "android": "https://dc.lft.to/lastmile_qr_scan"}}, {"name": "9b4003dbdf3052ccd3d3965e37e18c4e", "lon": -77.03968466666667, "lat": 38.930644, "type": "electric_scooter", "fusion_lon": 0.0, "is_reserved": 0, "bike_id": "9b4003dbdf3052ccd3d3965e37e18c4e", "fusion_lat": 0.0, "is_disabled": 0, "rental_uris": {"ios": "https://dc.lft.to/lastmile_qr_scan", "android": "https://dc.lft.to/lastmile_qr_scan"}}, {"name": "aa4d75513b4584986d858f25f8cbde87", "lon": -77.056941, "lat": 38.90602466666667, "type": "electric_scooter", "fusion_lon": 0.0, "is_reserved": 0, "bike_id": "aa4d75513b4584986d858f25f8cbde87", "fusion_lat": 0.0, "is_disabled": 0, "rental_uris": {"ios": "https://dc.lft.to/lastmile_qr_scan", "android": "https://dc.lft.to/lastmile_qr_scan"}}, {"name": "a5c078316b1c3d3c986014563425e76a", "lon": -77.00767583333334, "lat": 38.89841583333333, "type": "electric_scooter", "fusion_lon": 0.0, "is_reserved": 0, "bike_id": "a5c078316b1c3d3c986014563425e76a", "fusion_lat": 0.0, "is_disabled": 0, "rental_uris": {"ios": "https://dc.lft.to/lastmile_qr_scan", "android": "https://dc.lft.to/lastmile_qr_scan"}}, {"name": "c31ff80c70fcb316ebaefc705ee96886", "lon": -77.02418816666666, "lat": 38.920876166666666, "type": "electric_scooter", "fusion_lon": 0.0, "is_reserved": 0, "bike_id": "c31ff80c70fcb316ebaefc705ee96886", "fusion_lat": 0.0, "is_disabled": 0, "rental_uris": {"ios": "https://dc.lft.to/lastmile_qr_scan", "android": "https://dc.lft.to/lastmile_qr_scan"}}, {"name": "334f5cf18fa166bb575bef4dfcbd607b", "lon": -76.98611933333333, "lat": 38.865269166666664, "type": "electric_scooter", "fusion_lon": 0.0, "is_reserved": 0, "bike_id": "334f5cf18fa166bb575bef4dfcbd607b", "fusion_lat": 0.0, "is_disabled": 0, "rental_uris": {"ios": "https://dc.lft.to/lastmile_qr_scan", "android": "https://dc.lft.to/lastmile_qr_scan"}}, {"name": "6595e13246af18215649ab188c15f0c8", "lon": -77.02398683333334, "lat": 38.919879333333334, "type": "electric_scooter", "fusion_lon": 0.0, "is_reserved": 0, "bike_id": "6595e13246af18215649ab188c15f0c8", "fusion_lat": 0.0, "is_disabled": 0, "rental_uris": {"ios": "https://dc.lft.to/lastmile_qr_scan", "android": "https://dc.lft.to/lastmile_qr_scan"}}, {"name": "154f82ae45801e8fc50fe7a5d7b34c4a", "lon": -77.01125633333334, "lat": 38.916971333333336, "type": "electric_scooter", "fusion_lon": 0.0, "is_reserved": 0, "bike_id": "154f82ae45801e8fc50fe7a5d7b34c4a", "fusion_lat": 0.0, "is_disabled": 0, "rental_uris": {"ios": "https://dc.lft.to/lastmile_qr_scan", "android": "https://dc.lft.to/lastmile_qr_scan"}}, {"name": "18e278567245daa2aa29e1e587d91c99", "lon": -77.038036, "lat": 38.906696833333335, "type": "electric_scooter", "fusion_lon": 0.0, "is_reserved": 0, "bike_id": "18e278567245daa2aa29e1e587d91c99", "fusion_lat": 0.0, "is_disabled": 0, "rental_uris": {"ios": "https://dc.lft.to/lastmile_qr_scan", "android": "https://dc.lft.to/lastmile_qr_scan"}}, {"name": "bfbf62d14b0130a834761b3450ecc423", "lon": -77.03312983333333, "lat": 38.95616033333334, "type": "electric_scooter", "fusion_lon": 0.0, "is_reserved": 0, "bike_id": "bfbf62d14b0130a834761b3450ecc423", "fusion_lat": 0.0, "is_disabled": 0, "rental_uris": {"ios": "https://dc.lft.to/lastmile_qr_scan", "android": "https://dc.lft.to/lastmile_qr_scan"}}, {"name": "83cf291f995e5db661e67d4f601d1ba5", "lon": -76.9463955, "lat": 38.898421, "type": "electric_scooter", "fusion_lon": 0.0, "is_reserved": 0, "bike_id": "83cf291f995e5db661e67d4f601d1ba5", "fusion_lat": 0.0, "is_disabled": 0, "rental_uris": {"ios": "https://dc.lft.to/lastmile_qr_scan", "android": "https://dc.lft.to/lastmile_qr_scan"}}, {"name": "dd37d9353581d58bf685adf683fe0ebc", "lon": -77.12527933333334, "lat": 39.05633666666667, "type": "electric_bike", "fusion_lon": 0.0, "is_reserved": 0, "bike_id": "dd37d9353581d58bf685adf683fe0ebc", "fusion_lat": 0.0, "is_disabled": 0, "rental_uris": {"ios": "https://dc.lft.to/lastmile_qr_scan", "android": "https://dc.lft.to/lastmile_qr_scan"}}, {"name": "49f0b68773f141881b1129ed246b82e5", "lon": -77.01633116666666, "lat": 38.9035305, "type": "electric_scooter", "fusion_lon": 0.0, "is_reserved": 0, "bike_id": "49f0b68773f141881b1129ed246b82e5", "fusion_lat": 0.0, "is_disabled": 0, "rental_uris": {"ios": "https://dc.lft.to/lastmile_qr_scan", "android": "https://dc.lft.to/lastmile_qr_scan"}}, {"name": "97556cb396653ab4c95ef5862013a5df", "lon": -76.9762965, "lat": 38.905698, "type": "electric_scooter", "fusion_lon": 0.0, "is_reserved": 0, "bike_id": "97556cb396653ab4c95ef5862013a5df", "fusion_lat": 0.0, "is_disabled": 0, "rental_uris": {"ios": "https://dc.lft.to/lastmile_qr_scan", "android": "https://dc.lft.to/lastmile_qr_scan"}}, {"name": "4ca0e3983b1e181260efc9e8706bf136", "lon": -77.0418015, "lat": 38.91551066666667, "type": "electric_scooter", "fusion_lon": 0.0, "is_reserved": 0, "bike_id": "4ca0e3983b1e181260efc9e8706bf136", "fusion_lat": 0.0, "is_disabled": 0, "rental_uris": {"ios": "https://dc.lft.to/lastmile_qr_scan", "android": "https://dc.lft.to/lastmile_qr_scan"}}, {"name": "8771e6cbd460e7748822a5acc2d42376", "lon": -77.02684616666667, "lat": 38.92783216666667, "type": "electric_scooter", "fusion_lon": 0.0, "is_reserved": 0, "bike_id": "8771e6cbd460e7748822a5acc2d42376", "fusion_lat": 0.0, "is_disabled": 0, "rental_uris": {"ios": "https://dc.lft.to/lastmile_qr_scan", "android": "https://dc.lft.to/lastmile_qr_scan"}}, {"name": "a2afdd3196f585d91c138513b78c05e0", "lon": -77.02968366666667, "lat": 38.90501533333333, "type": "electric_scooter", "fusion_lon": 0.0, "is_reserved": 0, "bike_id": "a2afdd3196f585d91c138513b78c05e0", "fusion_lat": 0.0, "is_disabled": 0, "rental_uris": {"ios": "https://dc.lft.to/lastmile_qr_scan", "android": "https://dc.lft.to/lastmile_qr_scan"}}, {"name": "36c7e5a3a0893caec5e4ea4037cbff1b", "lon": -77.02713766666666, "lat": 38.9181795, "type": "electric_scooter", "fusion_lon": 0.0, "is_reserved": 0, "bike_id": "36c7e5a3a0893caec5e4ea4037cbff1b", "fusion_lat": 0.0, "is_disabled": 0, "rental_uris": {"ios": "https://dc.lft.to/lastmile_qr_scan", "android": "https://dc.lft.to/lastmile_qr_scan"}}, {"name": "c2d63cb4c2d26074d8e32b24d70b1213", "lon": -77.0020195, "lat": 38.9002735, "type": "electric_scooter", "fusion_lon": 0.0, "is_reserved": 0, "bike_id": "c2d63cb4c2d26074d8e32b24d70b1213", "fusion_lat": 0.0, "is_disabled": 0, "rental_uris": {"ios": "https://dc.lft.to/lastmile_qr_scan", "android": "https://dc.lft.to/lastmile_qr_scan"}}, {"name": "21b7bf7ca74c8ffcd92f9958d24ec564", "lon": -77.02785383333334, "lat": 38.898419833333335, "type": "electric_scooter", "fusion_lon": 0.0, "is_reserved": 0, "bike_id": "21b7bf7ca74c8ffcd92f9958d24ec564", "fusion_lat": 0.0, "is_disabled": 0, "rental_uris": {"ios": "https://dc.lft.to/lastmile_qr_scan", "android": "https://dc.lft.to/lastmile_qr_scan"}}, {"name": "18418855c05dee795f1ce16c7635b856", "lon": -76.99351816666666, "lat": 38.84505133333333, "type": "electric_scooter", "fusion_lon": 0.0, "is_reserved": 0, "bike_id": "18418855c05dee795f1ce16c7635b856", "fusion_lat": 0.0, "is_disabled": 0, "rental_uris": {"ios": "https://dc.lft.to/lastmile_qr_scan", "android": "https://dc.lft.to/lastmile_qr_scan"}}, {"name": "93ec6b65b9e6c73a77d459088922becc", "lon": -76.91133983333333, "lat": 38.8942095, "type": "electric_scooter", "fusion_lon": 0.0, "is_reserved": 0, "bike_id": "93ec6b65b9e6c73a77d459088922becc", "fusion_lat": 0.0, "is_disabled": 0, "rental_uris": {"ios": "https://dc.lft.to/lastmile_qr_scan", "android": "https://dc.lft.to/lastmile_qr_scan"}}, {"name": "815fb293ff155b25df295d243e9334af", "lon": -77.02298566666667, "lat": 38.928050166666665, "type": "electric_scooter", "fusion_lon": 0.0, "is_reserved": 0, "bike_id": "815fb293ff155b25df295d243e9334af", "fusion_lat": 0.0, "is_disabled": 0, "rental_uris": {"ios": "https://dc.lft.to/lastmile_qr_scan", "android": "https://dc.lft.to/lastmile_qr_scan"}}, {"name": "f44442e7cb8b852feb3a556be0117f0f", "lon": -77.0541785, "lat": 38.90252433333333, "type": "electric_scooter", "fusion_lon": 0.0, "is_reserved": 0, "bike_id": "f44442e7cb8b852feb3a556be0117f0f", "fusion_lat": 0.0, "is_disabled": 0, "rental_uris": {"ios": "https://dc.lft.to/lastmile_qr_scan", "android": "https://dc.lft.to/lastmile_qr_scan"}}, {"name": "9fef433c4a2945ce405a0982517d22c2", "lon": -76.99848583333333, "lat": 38.887402333333334, "type": "electric_scooter", "fusion_lon": 0.0, "is_reserved": 0, "bike_id": "9fef433c4a2945ce405a0982517d22c2", "fusion_lat": 0.0, "is_disabled": 0, "rental_uris": {"ios": "https://dc.lft.to/lastmile_qr_scan", "android": "https://dc.lft.to/lastmile_qr_scan"}}, {"name": "b94d35ce12b3bf97c4c9e97733b21b1f", "lon": -76.98373666666667, "lat": 38.914931333333335, "type": "electric_scooter", "fusion_lon": 0.0, "is_reserved": 0, "bike_id": "b94d35ce12b3bf97c4c9e97733b21b1f", "fusion_lat": 0.0, "is_disabled": 0, "rental_uris": {"ios": "https://dc.lft.to/lastmile_qr_scan", "android": "https://dc.lft.to/lastmile_qr_scan"}}, {"name": "130c61121aec5f36deee649266e63d2f", "lon": -77.04195133333333, "lat": 38.926212, "type": "electric_scooter", "fusion_lon": 0.0, "is_reserved": 0, "bike_id": "130c61121aec5f36deee649266e63d2f", "fusion_lat": 0.0, "is_disabled": 0, "rental_uris": {"ios": "https://dc.lft.to/lastmile_qr_scan", "android": "https://dc.lft.to/lastmile_qr_scan"}}, {"name": "304a3a18e764d961509edc01ea394769", "lon": -77.03515883333333, "lat": 38.92728133333333, "type": "electric_scooter", "fusion_lon": 0.0, "is_reserved": 0, "bike_id": "304a3a18e764d961509edc01ea394769", "fusion_lat": 0.0, "is_disabled": 0, "rental_uris": {"ios": "https://dc.lft.to/lastmile_qr_scan", "android": "https://dc.lft.to/lastmile_qr_scan"}}, {"name": "806af021bfe9543ab663a3bc3492e7be", "lon": -77.05617333333333, "lat": 38.9241955, "type": "electric_scooter", "fusion_lon": 0.0, "is_reserved": 0, "bike_id": "806af021bfe9543ab663a3bc3492e7be", "fusion_lat": 0.0, "is_disabled": 0, "rental_uris": {"ios": "https://dc.lft.to/lastmile_qr_scan", "android": "https://dc.lft.to/lastmile_qr_scan"}}, {"name": "5ae21ffb6065a2724296faebe166a44d", "lon": -76.946332, "lat": 38.8984125, "type": "electric_scooter", "fusion_lon": 0.0, "is_reserved": 0, "bike_id": "5ae21ffb6065a2724296faebe166a44d", "fusion_lat": 0.0, "is_disabled": 0, "rental_uris": {"ios": "https://dc.lft.to/lastmile_qr_scan", "android": "https://dc.lft.to/lastmile_qr_scan"}}, {"name": "0a5d91509b614e2cff82e40019512eb0", "lon": -77.00218016666666, "lat": 38.90019433333333, "type": "electric_scooter", "fusion_lon": 0.0, "is_reserved": 0, "bike_id": "0a5d91509b614e2cff82e40019512eb0", "fusion_lat": 0.0, "is_disabled": 0, "rental_uris": {"ios": "https://dc.lft.to/lastmile_qr_scan", "android": "https://dc.lft.to/lastmile_qr_scan"}}, {"name": "379ad3741d28b543397b5654dd0160ce", "lon": -76.98091633333334, "lat": 38.88134516666667, "type": "electric_bike", "fusion_lon": 0.0, "is_reserved": 0, "bike_id": "379ad3741d28b543397b5654dd0160ce", "fusion_lat": 0.0, "is_disabled": 0, "rental_uris": {"ios": "https://dc.lft.to/lastmile_qr_scan", "android": "https://dc.lft.to/lastmile_qr_scan"}}, {"name": "a52ac911a70643f96f5840cb6819dbb5", "lon": -77.01757883333333, "lat": 38.92092316666667, "type": "electric_scooter", "fusion_lon": 0.0, "is_reserved": 0, "bike_id": "a52ac911a70643f96f5840cb6819dbb5", "fusion_lat": 0.0, "is_disabled": 0, "rental_uris": {"ios": "https://dc.lft.to/lastmile_qr_scan", "android": "https://dc.lft.to/lastmile_qr_scan"}}, {"name": "f288873373d828b4df6558c2dc375648", "lon": -76.98236366666667, "lat": 38.908893, "type": "electric_scooter", "fusion_lon": 0.0, "is_reserved": 0, "bike_id": "f288873373d828b4df6558c2dc375648", "fusion_lat": 0.0, "is_disabled": 0, "rental_uris": {"ios": "https://dc.lft.to/lastmile_qr_scan", "android": "https://dc.lft.to/lastmile_qr_scan"}}, {"name": "9e6751203cedbed5a88e43a38b614d83", "lon": -77.058173, "lat": 38.935597666666666, "type": "electric_scooter", "fusion_lon": 0.0, "is_reserved": 0, "bike_id": "9e6751203cedbed5a88e43a38b614d83", "fusion_lat": 0.0, "is_disabled": 0, "rental_uris": {"ios": "https://dc.lft.to/lastmile_qr_scan", "android": "https://dc.lft.to/lastmile_qr_scan"}}, {"name": "e5c3473bb6209791a7bff998796557d1", "lon": -77.02168966666666, "lat": 38.905628666666665, "type": "electric_scooter", "fusion_lon": 0.0, "is_reserved": 0, "bike_id": "e5c3473bb6209791a7bff998796557d1", "fusion_lat": 0.0, "is_disabled": 0, "rental_uris": {"ios": "https://dc.lft.to/lastmile_qr_scan", "android": "https://dc.lft.to/lastmile_qr_scan"}}, {"name": "69442b174026ce6b6a9cc4a6c90bb812", "lon": -77.022994, "lat": 38.92748683333333, "type": "electric_scooter", "fusion_lon": 0.0, "is_reserved": 0, "bike_id": "69442b174026ce6b6a9cc4a6c90bb812", "fusion_lat": 0.0, "is_disabled": 0, "rental_uris": {"ios": "https://dc.lft.to/lastmile_qr_scan", "android": "https://dc.lft.to/lastmile_qr_scan"}}, {"name": "f68117a83159387a994e2ca7a7b06c65", "lon": -76.9480735, "lat": 38.89396216666667, "type": "electric_bike", "fusion_lon": 0.0, "is_reserved": 0, "bike_id": "f68117a83159387a994e2ca7a7b06c65", "fusion_lat": 0.0, "is_disabled": 0, "rental_uris": {"ios": "https://dc.lft.to/lastmile_qr_scan", "android": "https://dc.lft.to/lastmile_qr_scan"}}, {"name": "f2b4f030c06e10915a4c4f209ad15cc8", "lon": -76.929216, "lat": 38.89297166666667, "type": "electric_scooter", "fusion_lon": 0.0, "is_reserved": 0, "bike_id": "f2b4f030c06e10915a4c4f209ad15cc8", "fusion_lat": 0.0, "is_disabled": 0, "rental_uris": {"ios": "https://dc.lft.to/lastmile_qr_scan", "android": "https://dc.lft.to/lastmile_qr_scan"}}, {"name": "30c339a438654b1f8e724724799e1bdc", "lon": -76.99517083333333, "lat": 38.8838085, "type": "electric_scooter", "fusion_lon": 0.0, "is_reserved": 0, "bike_id": "30c339a438654b1f8e724724799e1bdc", "fusion_lat": 0.0, "is_disabled": 0, "rental_uris": {"ios": "https://dc.lft.to/lastmile_qr_scan", "android": "https://dc.lft.to/lastmile_qr_scan"}}, {"name": "77eb7c59f9711593eb853e4c1112ee72", "lon": -76.993331, "lat": 38.871402, "type": "electric_scooter", "fusion_lon": 0.0, "is_reserved": 0, "bike_id": "77eb7c59f9711593eb853e4c1112ee72", "fusion_lat": 0.0, "is_disabled": 0, "rental_uris": {"ios": "https://dc.lft.to/lastmile_qr_scan", "android": "https://dc.lft.to/lastmile_qr_scan"}}, {"name": "7b7ec10d87d595763346af11a882935d", "lon": -77.01695816666667, "lat": 38.974985333333336, "type": "electric_scooter", "fusion_lon": 0.0, "is_reserved": 0, "bike_id": "7b7ec10d87d595763346af11a882935d", "fusion_lat": 0.0, "is_disabled": 0, "rental_uris": {"ios": "https://dc.lft.to/lastmile_qr_scan", "android": "https://dc.lft.to/lastmile_qr_scan"}}, {"name": "673eb3a4e2fc9bbaf02fe36a0e49f897", "lon": -77.02604266666667, "lat": 38.931428333333336, "type": "electric_scooter", "fusion_lon": 0.0, "is_reserved": 0, "bike_id": "673eb3a4e2fc9bbaf02fe36a0e49f897", "fusion_lat": 0.0, "is_disabled": 0, "rental_uris": {"ios": "https://dc.lft.to/lastmile_qr_scan", "android": "https://dc.lft.to/lastmile_qr_scan"}}, {"name": "9238b35b35863fd153a49d35a81d570e", "lon": -76.96060266666667, "lat": 38.884041, "type": "electric_bike", "fusion_lon": 0.0, "is_reserved": 0, "bike_id": "9238b35b35863fd153a49d35a81d570e", "fusion_lat": 0.0, "is_disabled": 0, "rental_uris": {"ios": "https://dc.lft.to/lastmile_qr_scan", "android": "https://dc.lft.to/lastmile_qr_scan"}}, {"name": "8dff33b9fd3f03e101b66501c9e0ac7a", "lon": -76.9836175, "lat": 38.89605533333334, "type": "electric_bike", "fusion_lon": 0.0, "is_reserved": 0, "bike_id": "8dff33b9fd3f03e101b66501c9e0ac7a", "fusion_lat": 0.0, "is_disabled": 0, "rental_uris": {"ios": "https://dc.lft.to/lastmile_qr_scan", "android": "https://dc.lft.to/lastmile_qr_scan"}}, {"name": "f660eccacb6d08a8b257be331bfe6c90", "lon": -76.98870633333334, "lat": 38.95481383333333, "type": "electric_bike", "fusion_lon": 0.0, "is_reserved": 0, "bike_id": "f660eccacb6d08a8b257be331bfe6c90", "fusion_lat": 0.0, "is_disabled": 0, "rental_uris": {"ios": "https://dc.lft.to/lastmile_qr_scan", "android": "https://dc.lft.to/lastmile_qr_scan"}}, {"name": "910ee233657a83b7fc6f3adadaa46339", "lon": -77.0334435, "lat": 38.9204665, "type": "electric_scooter", "fusion_lon": 0.0, "is_reserved": 0, "bike_id": "910ee233657a83b7fc6f3adadaa46339", "fusion_lat": 0.0, "is_disabled": 0, "rental_uris": {"ios": "https://dc.lft.to/lastmile_qr_scan", "android": "https://dc.lft.to/lastmile_qr_scan"}}, {"name": "e91ed66dcb35f366f8b41201fa1e96bd", "lon": -77.02538083333333, "lat": 38.93191016666667, "type": "electric_scooter", "fusion_lon": 0.0, "is_reserved": 0, "bike_id": "e91ed66dcb35f366f8b41201fa1e96bd", "fusion_lat": 0.0, "is_disabled": 0, "rental_uris": {"ios": "https://dc.lft.to/lastmile_qr_scan", "android": "https://dc.lft.to/lastmile_qr_scan"}}, {"name": "3535a90986a620f19fb4e902c9a82d40", "lon": -77.022574, "lat": 38.9273925, "type": "electric_scooter", "fusion_lon": 0.0, "is_reserved": 0, "bike_id": "3535a90986a620f19fb4e902c9a82d40", "fusion_lat": 0.0, "is_disabled": 0, "rental_uris": {"ios": "https://dc.lft.to/lastmile_qr_scan", "android": "https://dc.lft.to/lastmile_qr_scan"}}, {"name": "3f937f47b65875a8c68216c54599e998", "lon": -77.0007945, "lat": 38.916293833333334, "type": "electric_scooter", "fusion_lon": 0.0, "is_reserved": 0, "bike_id": "3f937f47b65875a8c68216c54599e998", "fusion_lat": 0.0, "is_disabled": 0, "rental_uris": {"ios": "https://dc.lft.to/lastmile_qr_scan", "android": "https://dc.lft.to/lastmile_qr_scan"}}, {"name": "286b6048eb7f450b024ccf025c14cb0b", "lon": -77.01569583333334, "lat": 38.91677166666667, "type": "electric_scooter", "fusion_lon": 0.0, "is_reserved": 0, "bike_id": "286b6048eb7f450b024ccf025c14cb0b", "fusion_lat": 0.0, "is_disabled": 0, "rental_uris": {"ios": "https://dc.lft.to/lastmile_qr_scan", "android": "https://dc.lft.to/lastmile_qr_scan"}}, {"name": "fabdac93286b3770cbecdbf7095d03e6", "lon": -77.03849316666667, "lat": 38.91215583333333, "type": "electric_scooter", "fusion_lon": 0.0, "is_reserved": 0, "bike_id": "fabdac93286b3770cbecdbf7095d03e6", "fusion_lat": 0.0, "is_disabled": 0, "rental_uris": {"ios": "https://dc.lft.to/lastmile_qr_scan", "android": "https://dc.lft.to/lastmile_qr_scan"}}, {"name": "b04ff2d0b452daae9cfcc613bea037f7", "lon": -77.02597116666666, "lat": 38.883571333333336, "type": "electric_scooter", "fusion_lon": 0.0, "is_reserved": 0, "bike_id": "b04ff2d0b452daae9cfcc613bea037f7", "fusion_lat": 0.0, "is_disabled": 0, "rental_uris": {"ios": "https://dc.lft.to/lastmile_qr_scan", "android": "https://dc.lft.to/lastmile_qr_scan"}}, {"name": "103c02d5ad56068714feb9d35513318f", "lon": -77.04035016666667, "lat": 38.91286016666667, "type": "electric_scooter", "fusion_lon": 0.0, "is_reserved": 0, "bike_id": "103c02d5ad56068714feb9d35513318f", "fusion_lat": 0.0, "is_disabled": 0, "rental_uris": {"ios": "https://dc.lft.to/lastmile_qr_scan", "android": "https://dc.lft.to/lastmile_qr_scan"}}, {"name": "c597fad2299252ee43625c6cc29d436a", "lon": -77.02227416666666, "lat": 38.892178666666666, "type": "electric_scooter", "fusion_lon": 0.0, "is_reserved": 0, "bike_id": "c597fad2299252ee43625c6cc29d436a", "fusion_lat": 0.0, "is_disabled": 0, "rental_uris": {"ios": "https://dc.lft.to/lastmile_qr_scan", "android": "https://dc.lft.to/lastmile_qr_scan"}}, {"name": "cdc650682dcb8ebe626e14bf3f8f693e", "lon": -77.03779683333333, "lat": 38.91690066666666, "type": "electric_scooter", "fusion_lon": 0.0, "is_reserved": 0, "bike_id": "cdc650682dcb8ebe626e14bf3f8f693e", "fusion_lat": 0.0, "is_disabled": 0, "rental_uris": {"ios": "https://dc.lft.to/lastmile_qr_scan", "android": "https://dc.lft.to/lastmile_qr_scan"}}, {"name": "9713d1c7cbb21c62cf353cd2be8fa878", "lon": -77.0140415, "lat": 38.887423, "type": "electric_scooter", "fusion_lon": 0.0, "is_reserved": 0, "bike_id": "9713d1c7cbb21c62cf353cd2be8fa878", "fusion_lat": 0.0, "is_disabled": 0, "rental_uris": {"ios": "https://dc.lft.to/lastmile_qr_scan", "android": "https://dc.lft.to/lastmile_qr_scan"}}, {"name": "1e0a3559766acef1ab14f4cd45846cb0", "lon": -77.02701833333333, "lat": 38.902607, "type": "electric_scooter", "fusion_lon": 0.0, "is_reserved": 0, "bike_id": "1e0a3559766acef1ab14f4cd45846cb0", "fusion_lat": 0.0, "is_disabled": 0, "rental_uris": {"ios": "https://dc.lft.to/lastmile_qr_scan", "android": "https://dc.lft.to/lastmile_qr_scan"}}, {"name": "c017730908c579aaa15aa7b1019a3df2", "lon": -77.03645033333333, "lat": 38.903786333333336, "type": "electric_scooter", "fusion_lon": 0.0, "is_reserved": 0, "bike_id": "c017730908c579aaa15aa7b1019a3df2", "fusion_lat": 0.0, "is_disabled": 0, "rental_uris": {"ios": "https://dc.lft.to/lastmile_qr_scan", "android": "https://dc.lft.to/lastmile_qr_scan"}}, {"name": "4ea6116414d2f89cd1e9ddb80677254b", "lon": -77.04480583333333, "lat": 38.92237733333333, "type": "electric_scooter", "fusion_lon": 0.0, "is_reserved": 0, "bike_id": "4ea6116414d2f89cd1e9ddb80677254b", "fusion_lat": 0.0, "is_disabled": 0, "rental_uris": {"ios": "https://dc.lft.to/lastmile_qr_scan", "android": "https://dc.lft.to/lastmile_qr_scan"}}, {"name": "44f24e28aba11e54818748c0ecbd6820", "lon": -76.9373245, "lat": 38.890135, "type": "electric_scooter", "fusion_lon": 0.0, "is_reserved": 0, "bike_id": "44f24e28aba11e54818748c0ecbd6820", "fusion_lat": 0.0, "is_disabled": 0, "rental_uris": {"ios": "https://dc.lft.to/lastmile_qr_scan", "android": "https://dc.lft.to/lastmile_qr_scan"}}, {"name": "bb0cf1915082af0a6410723e952f7986", "lon": -77.0354595, "lat": 38.907756166666665, "type": "electric_scooter", "fusion_lon": 0.0, "is_reserved": 0, "bike_id": "bb0cf1915082af0a6410723e952f7986", "fusion_lat": 0.0, "is_disabled": 0, "rental_uris": {"ios": "https://dc.lft.to/lastmile_qr_scan", "android": "https://dc.lft.to/lastmile_qr_scan"}}, {"name": "df6de1b652b7420990889aa0d285c47a", "lon": -77.029096, "lat": 38.88775616666667, "type": "electric_scooter", "fusion_lon": 0.0, "is_reserved": 0, "bike_id": "df6de1b652b7420990889aa0d285c47a", "fusion_lat": 0.0, "is_disabled": 0, "rental_uris": {"ios": "https://dc.lft.to/lastmile_qr_scan", "android": "https://dc.lft.to/lastmile_qr_scan"}}, {"name": "c52ce5fc3471a654e9eb1e11fc5ebe8f", "lon": -77.04128083333333, "lat": 38.9216315, "type": "electric_scooter", "fusion_lon": 0.0, "is_reserved": 0, "bike_id": "c52ce5fc3471a654e9eb1e11fc5ebe8f", "fusion_lat": 0.0, "is_disabled": 0, "rental_uris": {"ios": "https://dc.lft.to/lastmile_qr_scan", "android": "https://dc.lft.to/lastmile_qr_scan"}}, {"name": "6d286e7d5bb60b020f528b7612390c8b", "lon": -77.032631, "lat": 38.927655666666666, "type": "electric_scooter", "fusion_lon": 0.0, "is_reserved": 0, "bike_id": "6d286e7d5bb60b020f528b7612390c8b", "fusion_lat": 0.0, "is_disabled": 0, "rental_uris": {"ios": "https://dc.lft.to/lastmile_qr_scan", "android": "https://dc.lft.to/lastmile_qr_scan"}}, {"name": "17600931ce0a1c70b31d0522c577a067", "lon": -76.94805866666667, "lat": 38.861906166666664, "type": "electric_bike", "fusion_lon": 0.0, "is_reserved": 0, "bike_id": "17600931ce0a1c70b31d0522c577a067", "fusion_lat": 0.0, "is_disabled": 0, "rental_uris": {"ios": "https://dc.lft.to/lastmile_qr_scan", "android": "https://dc.lft.to/lastmile_qr_scan"}}, {"name": "cb1b6b5b1db7e28c241e96991040076e", "lon": -77.00340466666667, "lat": 38.889846666666664, "type": "electric_scooter", "fusion_lon": 0.0, "is_reserved": 0, "bike_id": "cb1b6b5b1db7e28c241e96991040076e", "fusion_lat": 0.0, "is_disabled": 0, "rental_uris": {"ios": "https://dc.lft.to/lastmile_qr_scan", "android": "https://dc.lft.to/lastmile_qr_scan"}}, {"name": "5f1e42790b23295a1720d24291b1ea76", "lon": -77.04652283333333, "lat": 38.905534833333334, "type": "electric_scooter", "fusion_lon": 0.0, "is_reserved": 0, "bike_id": "5f1e42790b23295a1720d24291b1ea76", "fusion_lat": 0.0, "is_disabled": 0, "rental_uris": {"ios": "https://dc.lft.to/lastmile_qr_scan", "android": "https://dc.lft.to/lastmile_qr_scan"}}, {"name": "f28daec4f1461db3a1cf1c5e37bc333d", "lon": -77.03121283333333, "lat": 38.91562833333333, "type": "electric_scooter", "fusion_lon": 0.0, "is_reserved": 0, "bike_id": "f28daec4f1461db3a1cf1c5e37bc333d", "fusion_lat": 0.0, "is_disabled": 0, "rental_uris": {"ios": "https://dc.lft.to/lastmile_qr_scan", "android": "https://dc.lft.to/lastmile_qr_scan"}}, {"name": "884d1c63fd5bd758710c483660234a4c", "lon": -76.98838366666666, "lat": 38.90036116666667, "type": "electric_scooter", "fusion_lon": 0.0, "is_reserved": 0, "bike_id": "884d1c63fd5bd758710c483660234a4c", "fusion_lat": 0.0, "is_disabled": 0, "rental_uris": {"ios": "https://dc.lft.to/lastmile_qr_scan", "android": "https://dc.lft.to/lastmile_qr_scan"}}, {"name": "68a9e3661847dbb5787d4df0a0104c40", "lon": -77.04183983333333, "lat": 38.89224266666667, "type": "electric_scooter", "fusion_lon": 0.0, "is_reserved": 0, "bike_id": "68a9e3661847dbb5787d4df0a0104c40", "fusion_lat": 0.0, "is_disabled": 0, "rental_uris": {"ios": "https://dc.lft.to/lastmile_qr_scan", "android": "https://dc.lft.to/lastmile_qr_scan"}}, {"name": "309dca4ec190cd432cd7e1c7eef6edbb", "lon": -77.0236325, "lat": 38.902205, "type": "electric_scooter", "fusion_lon": 0.0, "is_reserved": 0, "bike_id": "309dca4ec190cd432cd7e1c7eef6edbb", "fusion_lat": 0.0, "is_disabled": 0, "rental_uris": {"ios": "https://dc.lft.to/lastmile_qr_scan", "android": "https://dc.lft.to/lastmile_qr_scan"}}, {"name": "aa77096de5fa2c1e449a8599e388ca4f", "lon": -77.04999983333333, "lat": 38.892345, "type": "electric_scooter", "fusion_lon": 0.0, "is_reserved": 0, "bike_id": "aa77096de5fa2c1e449a8599e388ca4f", "fusion_lat": 0.0, "is_disabled": 0, "rental_uris": {"ios": "https://dc.lft.to/lastmile_qr_scan", "android": "https://dc.lft.to/lastmile_qr_scan"}}, {"name": "75e77d51eeefd5912006044091b899df", "lon": -77.01759533333333, "lat": 38.876855666666664, "type": "electric_scooter", "fusion_lon": 0.0, "is_reserved": 0, "bike_id": "75e77d51eeefd5912006044091b899df", "fusion_lat": 0.0, "is_disabled": 0, "rental_uris": {"ios": "https://dc.lft.to/lastmile_qr_scan", "android": "https://dc.lft.to/lastmile_qr_scan"}}, {"name": "91daeccb709ddbd1c033c34d02e51ccd", "lon": -77.03263016666666, "lat": 38.92955416666667, "type": "electric_scooter", "fusion_lon": 0.0, "is_reserved": 0, "bike_id": "91daeccb709ddbd1c033c34d02e51ccd", "fusion_lat": 0.0, "is_disabled": 0, "rental_uris": {"ios": "https://dc.lft.to/lastmile_qr_scan", "android": "https://dc.lft.to/lastmile_qr_scan"}}, {"name": "25712cb5509857a503e97e09db3b55c0", "lon": -77.03836416666667, "lat": 38.921651, "type": "electric_scooter", "fusion_lon": 0.0, "is_reserved": 0, "bike_id": "25712cb5509857a503e97e09db3b55c0", "fusion_lat": 0.0, "is_disabled": 0, "rental_uris": {"ios": "https://dc.lft.to/lastmile_qr_scan", "android": "https://dc.lft.to/lastmile_qr_scan"}}, {"name": "d737439e882aeb6385f84f8776a4ff0e", "lon": -77.0946865, "lat": 38.886183, "type": "electric_bike", "fusion_lon": 0.0, "is_reserved": 0, "bike_id": "d737439e882aeb6385f84f8776a4ff0e", "fusion_lat": 0.0, "is_disabled": 0, "rental_uris": {"ios": "https://dc.lft.to/lastmile_qr_scan", "android": "https://dc.lft.to/lastmile_qr_scan"}}, {"name": "c14e145a7fc955751dfe040c82f27446", "lon": -77.03841566666667, "lat": 38.914484333333334, "type": "electric_scooter", "fusion_lon": 0.0, "is_reserved": 0, "bike_id": "c14e145a7fc955751dfe040c82f27446", "fusion_lat": 0.0, "is_disabled": 0, "rental_uris": {"ios": "https://dc.lft.to/lastmile_qr_scan", "android": "https://dc.lft.to/lastmile_qr_scan"}}, {"name": "b7751910f76baf5e285265bb68f29dd6", "lon": -76.99310116666666, "lat": 38.900007333333335, "type": "electric_scooter", "fusion_lon": 0.0, "is_reserved": 0, "bike_id": "b7751910f76baf5e285265bb68f29dd6", "fusion_lat": 0.0, "is_disabled": 0, "rental_uris": {"ios": "https://dc.lft.to/lastmile_qr_scan", "android": "https://dc.lft.to/lastmile_qr_scan"}}, {"name": "1c1e876b68ea7dca58bbb1ac5cd383f2", "lon": -77.11617833333334, "lat": 38.854849333333334, "type": "electric_bike", "fusion_lon": 0.0, "is_reserved": 0, "bike_id": "1c1e876b68ea7dca58bbb1ac5cd383f2", "fusion_lat": 0.0, "is_disabled": 0, "rental_uris": {"ios": "https://dc.lft.to/lastmile_qr_scan", "android": "https://dc.lft.to/lastmile_qr_scan"}}, {"name": "6545e6d7a48020db32508a63af779a21", "lon": -76.93195983333334, "lat": 38.89878233333334, "type": "electric_scooter", "fusion_lon": 0.0, "is_reserved": 0, "bike_id": "6545e6d7a48020db32508a63af779a21", "fusion_lat": 0.0, "is_disabled": 0, "rental_uris": {"ios": "https://dc.lft.to/lastmile_qr_scan", "android": "https://dc.lft.to/lastmile_qr_scan"}}, {"name": "0eacede42fadbe67be6fa41fd2b5e79c", "lon": -76.99625666666667, "lat": 38.900968166666665, "type": "electric_scooter", "fusion_lon": 0.0, "is_reserved": 0, "bike_id": "0eacede42fadbe67be6fa41fd2b5e79c", "fusion_lat": 0.0, "is_disabled": 0, "rental_uris": {"ios": "https://dc.lft.to/lastmile_qr_scan", "android": "https://dc.lft.to/lastmile_qr_scan"}}, {"name": "f695dca339ae0da168a1f240c93d3c7a", "lon": -77.040999, "lat": 38.923773833333335, "type": "electric_scooter", "fusion_lon": 0.0, "is_reserved": 0, "bike_id": "f695dca339ae0da168a1f240c93d3c7a", "fusion_lat": 0.0, "is_disabled": 0, "rental_uris": {"ios": "https://dc.lft.to/lastmile_qr_scan", "android": "https://dc.lft.to/lastmile_qr_scan"}}, {"name": "d8d4c9f304e7f3b8e2fc4838d7e7a3b3", "lon": -77.02703566666666, "lat": 38.92875883333333, "type": "electric_scooter", "fusion_lon": 0.0, "is_reserved": 0, "bike_id": "d8d4c9f304e7f3b8e2fc4838d7e7a3b3", "fusion_lat": 0.0, "is_disabled": 0, "rental_uris": {"ios": "https://dc.lft.to/lastmile_qr_scan", "android": "https://dc.lft.to/lastmile_qr_scan"}}, {"name": "7509a58513365f888317f69a1e445f07", "lon": -76.9989965, "lat": 38.94816216666667, "type": "electric_scooter", "fusion_lon": 0.0, "is_reserved": 0, "bike_id": "7509a58513365f888317f69a1e445f07", "fusion_lat": 0.0, "is_disabled": 0, "rental_uris": {"ios": "https://dc.lft.to/lastmile_qr_scan", "android": "https://dc.lft.to/lastmile_qr_scan"}}, {"name": "f0f3677e7e8081abb2d07b6a55f65508", "lon": -77.029495, "lat": 38.899301333333334, "type": "electric_scooter", "fusion_lon": 0.0, "is_reserved": 0, "bike_id": "f0f3677e7e8081abb2d07b6a55f65508", "fusion_lat": 0.0, "is_disabled": 0, "rental_uris": {"ios": "https://dc.lft.to/lastmile_qr_scan", "android": "https://dc.lft.to/lastmile_qr_scan"}}, {"name": "43b5cc5bdd606ec9b35a5c890b59dc94", "lon": -77.12732333333334, "lat": 38.895624833333336, "type": "electric_bike", "fusion_lon": 0.0, "is_reserved": 0, "bike_id": "43b5cc5bdd606ec9b35a5c890b59dc94", "fusion_lat": 0.0, "is_disabled": 0, "rental_uris": {"ios": "https://dc.lft.to/lastmile_qr_scan", "android": "https://dc.lft.to/lastmile_qr_scan"}}, {"name": "5283d2594f9a65408ac35ec702b06768", "lon": -77.02716416666667, "lat": 38.924613, "type": "electric_scooter", "fusion_lon": 0.0, "is_reserved": 0, "bike_id": "5283d2594f9a65408ac35ec702b06768", "fusion_lat": 0.0, "is_disabled": 0, "rental_uris": {"ios": "https://dc.lft.to/lastmile_qr_scan", "android": "https://dc.lft.to/lastmile_qr_scan"}}, {"name": "920a17770fb41306300d472d06ea9afe", "lon": -77.02286, "lat": 38.91607583333333, "type": "electric_scooter", "fusion_lon": 0.0, "is_reserved": 0, "bike_id": "920a17770fb41306300d472d06ea9afe", "fusion_lat": 0.0, "is_disabled": 0, "rental_uris": {"ios": "https://dc.lft.to/lastmile_qr_scan", "android": "https://dc.lft.to/lastmile_qr_scan"}}, {"name": "00450e4b87bfa46ce6d8ece95edf1e67", "lon": -77.023891, "lat": 38.92747383333333, "type": "electric_bike", "fusion_lon": 0.0, "is_reserved": 0, "bike_id": "00450e4b87bfa46ce6d8ece95edf1e67", "fusion_lat": 0.0, "is_disabled": 0, "rental_uris": {"ios": "https://dc.lft.to/lastmile_qr_scan", "android": "https://dc.lft.to/lastmile_qr_scan"}}, {"name": "b10ea313fac97bf2681850f8727f10a5", "lon": -77.0183575, "lat": 38.909589833333335, "type": "electric_scooter", "fusion_lon": 0.0, "is_reserved": 0, "bike_id": "b10ea313fac97bf2681850f8727f10a5", "fusion_lat": 0.0, "is_disabled": 0, "rental_uris": {"ios": "https://dc.lft.to/lastmile_qr_scan", "android": "https://dc.lft.to/lastmile_qr_scan"}}, {"name": "e99f1888677bd719d5cd9fb9a6471fbd", "lon": -77.11051333333333, "lat": 38.870694, "type": "electric_bike", "fusion_lon": 0.0, "is_reserved": 0, "bike_id": "e99f1888677bd719d5cd9fb9a6471fbd", "fusion_lat": 0.0, "is_disabled": 0, "rental_uris": {"ios": "https://dc.lft.to/lastmile_qr_scan", "android": "https://dc.lft.to/lastmile_qr_scan"}}, {"name": "0d5f8f825271108186c1038817fb6e4b", "lon": -77.036412, "lat": 38.927422, "type": "electric_scooter", "fusion_lon": 0.0, "is_reserved": 0, "bike_id": "0d5f8f825271108186c1038817fb6e4b", "fusion_lat": 0.0, "is_disabled": 0, "rental_uris": {"ios": "https://dc.lft.to/lastmile_qr_scan", "android": "https://dc.lft.to/lastmile_qr_scan"}}, {"name": "504733405a82f0d13c9ccd61e95ae0b5", "lon": -77.0243965, "lat": 38.90966566666667, "type": "electric_scooter", "fusion_lon": 0.0, "is_reserved": 0, "bike_id": "504733405a82f0d13c9ccd61e95ae0b5", "fusion_lat": 0.0, "is_disabled": 0, "rental_uris": {"ios": "https://dc.lft.to/lastmile_qr_scan", "android": "https://dc.lft.to/lastmile_qr_scan"}}, {"name": "1231e0ec3bdf242b6152a5402545924f", "lon": -76.99021483333334, "lat": 38.9049965, "type": "electric_scooter", "fusion_lon": 0.0, "is_reserved": 0, "bike_id": "1231e0ec3bdf242b6152a5402545924f", "fusion_lat": 0.0, "is_disabled": 0, "rental_uris": {"ios": "https://dc.lft.to/lastmile_qr_scan", "android": "https://dc.lft.to/lastmile_qr_scan"}}, {"name": "a80851d0d40f0f6a1de1e874b6fa2265", "lon": -77.01535616666666, "lat": 38.8874035, "type": "electric_scooter", "fusion_lon": 0.0, "is_reserved": 0, "bike_id": "a80851d0d40f0f6a1de1e874b6fa2265", "fusion_lat": 0.0, "is_disabled": 0, "rental_uris": {"ios": "https://dc.lft.to/lastmile_qr_scan", "android": "https://dc.lft.to/lastmile_qr_scan"}}, {"name": "a1545494f1385bb98087249474e4d98c", "lon": -76.98089633333333, "lat": 38.953576166666664, "type": "electric_bike", "fusion_lon": 0.0, "is_reserved": 0, "bike_id": "a1545494f1385bb98087249474e4d98c", "fusion_lat": 0.0, "is_disabled": 0, "rental_uris": {"ios": "https://dc.lft.to/lastmile_qr_scan", "android": "https://dc.lft.to/lastmile_qr_scan"}}, {"name": "536ecfdc88c1af7b4471d1521ba7cf30", "lon": -77.04461716666667, "lat": 38.91884016666667, "type": "electric_scooter", "fusion_lon": 0.0, "is_reserved": 0, "bike_id": "536ecfdc88c1af7b4471d1521ba7cf30", "fusion_lat": 0.0, "is_disabled": 0, "rental_uris": {"ios": "https://dc.lft.to/lastmile_qr_scan", "android": "https://dc.lft.to/lastmile_qr_scan"}}, {"name": "04d010ec9ca3a27117f37c4f0a706412", "lon": -77.00196666666666, "lat": 38.90027083333333, "type": "electric_scooter", "fusion_lon": 0.0, "is_reserved": 0, "bike_id": "04d010ec9ca3a27117f37c4f0a706412", "fusion_lat": 0.0, "is_disabled": 0, "rental_uris": {"ios": "https://dc.lft.to/lastmile_qr_scan", "android": "https://dc.lft.to/lastmile_qr_scan"}}, {"name": "0b3af3d9e40527755f45fff555d3989f", "lon": -77.05917783333334, "lat": 38.901040333333334, "type": "electric_scooter", "fusion_lon": 0.0, "is_reserved": 0, "bike_id": "0b3af3d9e40527755f45fff555d3989f", "fusion_lat": 0.0, "is_disabled": 0, "rental_uris": {"ios": "https://dc.lft.to/lastmile_qr_scan", "android": "https://dc.lft.to/lastmile_qr_scan"}}, {"name": "0a1c4484a95fced7e9eef347e4d43da4", "lon": -76.96607883333333, "lat": 38.87385483333333, "type": "electric_scooter", "fusion_lon": 0.0, "is_reserved": 0, "bike_id": "0a1c4484a95fced7e9eef347e4d43da4", "fusion_lat": 0.0, "is_disabled": 0, "rental_uris": {"ios": "https://dc.lft.to/lastmile_qr_scan", "android": "https://dc.lft.to/lastmile_qr_scan"}}, {"name": "a7b25c287540d7bbe9496bfacd31ae50", "lon": -77.04711333333333, "lat": 38.8974385, "type": "electric_scooter", "fusion_lon": 0.0, "is_reserved": 0, "bike_id": "a7b25c287540d7bbe9496bfacd31ae50", "fusion_lat": 0.0, "is_disabled": 0, "rental_uris": {"ios": "https://dc.lft.to/lastmile_qr_scan", "android": "https://dc.lft.to/lastmile_qr_scan"}}, {"name": "c75ae087d85409e319f3bb555151519e", "lon": -77.0174895, "lat": 38.88740583333333, "type": "electric_scooter", "fusion_lon": 0.0, "is_reserved": 0, "bike_id": "c75ae087d85409e319f3bb555151519e", "fusion_lat": 0.0, "is_disabled": 0, "rental_uris": {"ios": "https://dc.lft.to/lastmile_qr_scan", "android": "https://dc.lft.to/lastmile_qr_scan"}}, {"name": "2f9c1d3fba719274bbf3da8ade05e523", "lon": -77.04699533333333, "lat": 38.92177316666667, "type": "electric_scooter", "fusion_lon": 0.0, "is_reserved": 0, "bike_id": "2f9c1d3fba719274bbf3da8ade05e523", "fusion_lat": 0.0, "is_disabled": 0, "rental_uris": {"ios": "https://dc.lft.to/lastmile_qr_scan", "android": "https://dc.lft.to/lastmile_qr_scan"}}, {"name": "c9d7c5fd783784a65c4c874a415f5063", "lon": -77.01195166666666, "lat": 38.91710166666667, "type": "electric_scooter", "fusion_lon": 0.0, "is_reserved": 0, "bike_id": "c9d7c5fd783784a65c4c874a415f5063", "fusion_lat": 0.0, "is_disabled": 0, "rental_uris": {"ios": "https://dc.lft.to/lastmile_qr_scan", "android": "https://dc.lft.to/lastmile_qr_scan"}}, {"name": "f57049242d9070ff3fb2da74afa06c37", "lon": -77.05142316666667, "lat": 38.90447016666667, "type": "electric_scooter", "fusion_lon": 0.0, "is_reserved": 0, "bike_id": "f57049242d9070ff3fb2da74afa06c37", "fusion_lat": 0.0, "is_disabled": 0, "rental_uris": {"ios": "https://dc.lft.to/lastmile_qr_scan", "android": "https://dc.lft.to/lastmile_qr_scan"}}, {"name": "7e1babf57e154339d195bc8d9e42e0df", "lon": -76.93648333333333, "lat": 38.871492, "type": "electric_bike", "fusion_lon": 0.0, "is_reserved": 0, "bike_id": "7e1babf57e154339d195bc8d9e42e0df", "fusion_lat": 0.0, "is_disabled": 0, "rental_uris": {"ios": "https://dc.lft.to/lastmile_qr_scan", "android": "https://dc.lft.to/lastmile_qr_scan"}}, {"name": "a8a054f78421691f61c11f75308bcfb7", "lon": -77.02683616666667, "lat": 38.927774, "type": "electric_scooter", "fusion_lon": 0.0, "is_reserved": 0, "bike_id": "a8a054f78421691f61c11f75308bcfb7", "fusion_lat": 0.0, "is_disabled": 0, "rental_uris": {"ios": "https://dc.lft.to/lastmile_qr_scan", "android": "https://dc.lft.to/lastmile_qr_scan"}}, {"name": "4da525bf04e5791720fbe2f867265029", "lon": -76.96869433333333, "lat": 38.870905, "type": "electric_scooter", "fusion_lon": 0.0, "is_reserved": 0, "bike_id": "4da525bf04e5791720fbe2f867265029", "fusion_lat": 0.0, "is_disabled": 0, "rental_uris": {"ios": "https://dc.lft.to/lastmile_qr_scan", "android": "https://dc.lft.to/lastmile_qr_scan"}}, {"name": "32eab92969870e225ffc76307b9e6196", "lon": -77.0344175, "lat": 38.91007466666667, "type": "electric_scooter", "fusion_lon": 0.0, "is_reserved": 0, "bike_id": "32eab92969870e225ffc76307b9e6196", "fusion_lat": 0.0, "is_disabled": 0, "rental_uris": {"ios": "https://dc.lft.to/lastmile_qr_scan", "android": "https://dc.lft.to/lastmile_qr_scan"}}, {"name": "81bc18a137897537377e79c2fba8c4e6", "lon": -76.98530983333333, "lat": 38.8807855, "type": "electric_bike", "fusion_lon": 0.0, "is_reserved": 0, "bike_id": "81bc18a137897537377e79c2fba8c4e6", "fusion_lat": 0.0, "is_disabled": 0, "rental_uris": {"ios": "https://dc.lft.to/lastmile_qr_scan", "android": "https://dc.lft.to/lastmile_qr_scan"}}, {"name": "efa9ca370a8cf6a46c05181f160c2c2a", "lon": -77.03845866666667, "lat": 38.921644, "type": "electric_scooter", "fusion_lon": 0.0, "is_reserved": 0, "bike_id": "efa9ca370a8cf6a46c05181f160c2c2a", "fusion_lat": 0.0, "is_disabled": 0, "rental_uris": {"ios": "https://dc.lft.to/lastmile_qr_scan", "android": "https://dc.lft.to/lastmile_qr_scan"}}, {"name": "40069e86f0583e6685df3e9b3cab1aff", "lon": -77.03116233333333, "lat": 38.917109833333335, "type": "electric_scooter", "fusion_lon": 0.0, "is_reserved": 0, "bike_id": "40069e86f0583e6685df3e9b3cab1aff", "fusion_lat": 0.0, "is_disabled": 0, "rental_uris": {"ios": "https://dc.lft.to/lastmile_qr_scan", "android": "https://dc.lft.to/lastmile_qr_scan"}}, {"name": "32078f78b4c3a3cb50cfe923a4b9bd74", "lon": -77.02306283333333, "lat": 38.91788916666667, "type": "electric_scooter", "fusion_lon": 0.0, "is_reserved": 0, "bike_id": "32078f78b4c3a3cb50cfe923a4b9bd74", "fusion_lat": 0.0, "is_disabled": 0, "rental_uris": {"ios": "https://dc.lft.to/lastmile_qr_scan", "android": "https://dc.lft.to/lastmile_qr_scan"}}, {"name": "fe15934858dccf20b98f1d2da5304626", "lon": -76.96009, "lat": 38.896444333333335, "type": "electric_scooter", "fusion_lon": 0.0, "is_reserved": 0, "bike_id": "fe15934858dccf20b98f1d2da5304626", "fusion_lat": 0.0, "is_disabled": 0, "rental_uris": {"ios": "https://dc.lft.to/lastmile_qr_scan", "android": "https://dc.lft.to/lastmile_qr_scan"}}, {"name": "b0f37b8a4ead65b4dbb53ef2b3bf8471", "lon": -77.0113735, "lat": 38.906456166666665, "type": "electric_scooter", "fusion_lon": 0.0, "is_reserved": 0, "bike_id": "b0f37b8a4ead65b4dbb53ef2b3bf8471", "fusion_lat": 0.0, "is_disabled": 0, "rental_uris": {"ios": "https://dc.lft.to/lastmile_qr_scan", "android": "https://dc.lft.to/lastmile_qr_scan"}}, {"name": "d3b1d17314f37aae8cf16a549e6fadf0", "lon": -77.02896466666667, "lat": 38.917136666666664, "type": "electric_scooter", "fusion_lon": 0.0, "is_reserved": 0, "bike_id": "d3b1d17314f37aae8cf16a549e6fadf0", "fusion_lat": 0.0, "is_disabled": 0, "rental_uris": {"ios": "https://dc.lft.to/lastmile_qr_scan", "android": "https://dc.lft.to/lastmile_qr_scan"}}, {"name": "bf270b182a689ce281902927acb18c72", "lon": -77.02953233333334, "lat": 38.90497416666667, "type": "electric_scooter", "fusion_lon": 0.0, "is_reserved": 0, "bike_id": "bf270b182a689ce281902927acb18c72", "fusion_lat": 0.0, "is_disabled": 0, "rental_uris": {"ios": "https://dc.lft.to/lastmile_qr_scan", "android": "https://dc.lft.to/lastmile_qr_scan"}}, {"name": "b1c664dad7e031a681e317c7b7c40564", "lon": -77.0299225, "lat": 38.89741316666667, "type": "electric_scooter", "fusion_lon": 0.0, "is_reserved": 0, "bike_id": "b1c664dad7e031a681e317c7b7c40564", "fusion_lat": 0.0, "is_disabled": 0, "rental_uris": {"ios": "https://dc.lft.to/lastmile_qr_scan", "android": "https://dc.lft.to/lastmile_qr_scan"}}, {"name": "b4877a3b49f4ce93e06cd43f8fd65e1b", "lon": -77.02709533333334, "lat": 38.91813883333333, "type": "electric_scooter", "fusion_lon": 0.0, "is_reserved": 0, "bike_id": "b4877a3b49f4ce93e06cd43f8fd65e1b", "fusion_lat": 0.0, "is_disabled": 0, "rental_uris": {"ios": "https://dc.lft.to/lastmile_qr_scan", "android": "https://dc.lft.to/lastmile_qr_scan"}}, {"name": "d9313497f8c29a38b5541881c0eb8c61", "lon": -77.0441005, "lat": 38.921282166666664, "type": "electric_scooter", "fusion_lon": 0.0, "is_reserved": 0, "bike_id": "d9313497f8c29a38b5541881c0eb8c61", "fusion_lat": 0.0, "is_disabled": 0, "rental_uris": {"ios": "https://dc.lft.to/lastmile_qr_scan", "android": "https://dc.lft.to/lastmile_qr_scan"}}, {"name": "d0beb194263cd21e96b84f5ae1956ac9", "lon": -77.04072433333333, "lat": 38.9254035, "type": "electric_scooter", "fusion_lon": 0.0, "is_reserved": 0, "bike_id": "d0beb194263cd21e96b84f5ae1956ac9", "fusion_lat": 0.0, "is_disabled": 0, "rental_uris": {"ios": "https://dc.lft.to/lastmile_qr_scan", "android": "https://dc.lft.to/lastmile_qr_scan"}}, {"name": "5444485ab89f5351dfa0205a44e7d875", "lon": -77.04871516666667, "lat": 38.892740833333335, "type": "electric_scooter", "fusion_lon": 0.0, "is_reserved": 0, "bike_id": "5444485ab89f5351dfa0205a44e7d875", "fusion_lat": 0.0, "is_disabled": 0, "rental_uris": {"ios": "https://dc.lft.to/lastmile_qr_scan", "android": "https://dc.lft.to/lastmile_qr_scan"}}, {"name": "f631b6732cbdc5aa73abe6db649040a4", "lon": -77.02827933333333, "lat": 38.9650975, "type": "electric_bike", "fusion_lon": 0.0, "is_reserved": 0, "bike_id": "f631b6732cbdc5aa73abe6db649040a4", "fusion_lat": 0.0, "is_disabled": 0, "rental_uris": {"ios": "https://dc.lft.to/lastmile_qr_scan", "android": "https://dc.lft.to/lastmile_qr_scan"}}, {"name": "a60fc96d9f6d1b95298d3ca53b514301", "lon": -77.04612133333333, "lat": 38.923302166666666, "type": "electric_scooter", "fusion_lon": 0.0, "is_reserved": 0, "bike_id": "a60fc96d9f6d1b95298d3ca53b514301", "fusion_lat": 0.0, "is_disabled": 0, "rental_uris": {"ios": "https://dc.lft.to/lastmile_qr_scan", "android": "https://dc.lft.to/lastmile_qr_scan"}}, {"name": "f0df9865e33b80a6bdedf02810377610", "lon": -76.98884916666667, "lat": 38.8665005, "type": "electric_scooter", "fusion_lon": 0.0, "is_reserved": 0, "bike_id": "f0df9865e33b80a6bdedf02810377610", "fusion_lat": 0.0, "is_disabled": 0, "rental_uris": {"ios": "https://dc.lft.to/lastmile_qr_scan", "android": "https://dc.lft.to/lastmile_qr_scan"}}, {"name": "372652ae3e768ff2c9aa81d28c071cd6", "lon": -77.04933433333333, "lat": 38.909961833333334, "type": "electric_scooter", "fusion_lon": 0.0, "is_reserved": 0, "bike_id": "372652ae3e768ff2c9aa81d28c071cd6", "fusion_lat": 0.0, "is_disabled": 0, "rental_uris": {"ios": "https://dc.lft.to/lastmile_qr_scan", "android": "https://dc.lft.to/lastmile_qr_scan"}}, {"name": "e81c1bdd615e0aff7967c40ae5d084db", "lon": -77.0465445, "lat": 38.9136575, "type": "electric_scooter", "fusion_lon": 0.0, "is_reserved": 0, "bike_id": "e81c1bdd615e0aff7967c40ae5d084db", "fusion_lat": 0.0, "is_disabled": 0, "rental_uris": {"ios": "https://dc.lft.to/lastmile_qr_scan", "android": "https://dc.lft.to/lastmile_qr_scan"}}, {"name": "9cd64480ddecc0078d0fe2118a19d7af", "lon": -77.11570016666667, "lat": 38.993308166666665, "type": "electric_bike", "fusion_lon": 0.0, "is_reserved": 0, "bike_id": "9cd64480ddecc0078d0fe2118a19d7af", "fusion_lat": 0.0, "is_disabled": 0, "rental_uris": {"ios": "https://dc.lft.to/lastmile_qr_scan", "android": "https://dc.lft.to/lastmile_qr_scan"}}, {"name": "07f2add334e088b0250577f66afd9008", "lon": -77.019679, "lat": 38.95650933333334, "type": "electric_scooter", "fusion_lon": 0.0, "is_reserved": 0, "bike_id": "07f2add334e088b0250577f66afd9008", "fusion_lat": 0.0, "is_disabled": 0, "rental_uris": {"ios": "https://dc.lft.to/lastmile_qr_scan", "android": "https://dc.lft.to/lastmile_qr_scan"}}, {"name": "b52ac9c9e49fb5b3d2d5b537ea823165", "lon": -77.0129685, "lat": 38.89486816666667, "type": "electric_scooter", "fusion_lon": 0.0, "is_reserved": 0, "bike_id": "b52ac9c9e49fb5b3d2d5b537ea823165", "fusion_lat": 0.0, "is_disabled": 0, "rental_uris": {"ios": "https://dc.lft.to/lastmile_qr_scan", "android": "https://dc.lft.to/lastmile_qr_scan"}}, {"name": "d5699fcc62cb4564928d9e29c84af8c9", "lon": -77.05140283333333, "lat": 38.90585133333333, "type": "electric_scooter", "fusion_lon": 0.0, "is_reserved": 0, "bike_id": "d5699fcc62cb4564928d9e29c84af8c9", "fusion_lat": 0.0, "is_disabled": 0, "rental_uris": {"ios": "https://dc.lft.to/lastmile_qr_scan", "android": "https://dc.lft.to/lastmile_qr_scan"}}, {"name": "e7fff02f5fed1a52121ecfb4060a0106", "lon": -77.032572, "lat": 38.94271366666667, "type": "electric_scooter", "fusion_lon": 0.0, "is_reserved": 0, "bike_id": "e7fff02f5fed1a52121ecfb4060a0106", "fusion_lat": 0.0, "is_disabled": 0, "rental_uris": {"ios": "https://dc.lft.to/lastmile_qr_scan", "android": "https://dc.lft.to/lastmile_qr_scan"}}, {"name": "2553b3cc2ba8675a720b16a23d2ddb20", "lon": -76.9937685, "lat": 38.971832, "type": "electric_bike", "fusion_lon": 0.0, "is_reserved": 0, "bike_id": "2553b3cc2ba8675a720b16a23d2ddb20", "fusion_lat": 0.0, "is_disabled": 0, "rental_uris": {"ios": "https://dc.lft.to/lastmile_qr_scan", "android": "https://dc.lft.to/lastmile_qr_scan"}}, {"name": "3ccb8f73a3427e04255549d0a0d9f494", "lon": -77.05215316666667, "lat": 38.92483766666667, "type": "electric_scooter", "fusion_lon": 0.0, "is_reserved": 0, "bike_id": "3ccb8f73a3427e04255549d0a0d9f494", "fusion_lat": 0.0, "is_disabled": 0, "rental_uris": {"ios": "https://dc.lft.to/lastmile_qr_scan", "android": "https://dc.lft.to/lastmile_qr_scan"}}, {"name": "6b29329d46222e14319001d48d790c22", "lon": -77.0237505, "lat": 38.94504216666667, "type": "electric_bike", "fusion_lon": 0.0, "is_reserved": 0, "bike_id": "6b29329d46222e14319001d48d790c22", "fusion_lat": 0.0, "is_disabled": 0, "rental_uris": {"ios": "https://dc.lft.to/lastmile_qr_scan", "android": "https://dc.lft.to/lastmile_qr_scan"}}, {"name": "2ec1e5d710522c2385ce8986550a6621", "lon": -76.97166483333334, "lat": 38.854653, "type": "electric_scooter", "fusion_lon": 0.0, "is_reserved": 0, "bike_id": "2ec1e5d710522c2385ce8986550a6621", "fusion_lat": 0.0, "is_disabled": 0, "rental_uris": {"ios": "https://dc.lft.to/lastmile_qr_scan", "android": "https://dc.lft.to/lastmile_qr_scan"}}, {"name": "7fc2f4d6746662c4e43badf6012eb2ac", "lon": -77.018629, "lat": 38.973696333333336, "type": "electric_scooter", "fusion_lon": 0.0, "is_reserved": 0, "bike_id": "7fc2f4d6746662c4e43badf6012eb2ac", "fusion_lat": 0.0, "is_disabled": 0, "rental_uris": {"ios": "https://dc.lft.to/lastmile_qr_scan", "android": "https://dc.lft.to/lastmile_qr_scan"}}, {"name": "8dfe82cfa7edd3e7cc1e2697e0d8ec3f", "lon": -77.07333733333333, "lat": 38.92608716666667, "type": "electric_scooter", "fusion_lon": 0.0, "is_reserved": 0, "bike_id": "8dfe82cfa7edd3e7cc1e2697e0d8ec3f", "fusion_lat": 0.0, "is_disabled": 0, "rental_uris": {"ios": "https://dc.lft.to/lastmile_qr_scan", "android": "https://dc.lft.to/lastmile_qr_scan"}}, {"name": "4dc277e876cf14683aebda1cae8eeb0a", "lon": -77.02490966666667, "lat": 38.93760433333333, "type": "electric_scooter", "fusion_lon": 0.0, "is_reserved": 0, "bike_id": "4dc277e876cf14683aebda1cae8eeb0a", "fusion_lat": 0.0, "is_disabled": 0, "rental_uris": {"ios": "https://dc.lft.to/lastmile_qr_scan", "android": "https://dc.lft.to/lastmile_qr_scan"}}, {"name": "ee779df3292ce07d3ecaa8464e3cca7d", "lon": -77.03249133333334, "lat": 38.915662833333336, "type": "electric_scooter", "fusion_lon": 0.0, "is_reserved": 0, "bike_id": "ee779df3292ce07d3ecaa8464e3cca7d", "fusion_lat": 0.0, "is_disabled": 0, "rental_uris": {"ios": "https://dc.lft.to/lastmile_qr_scan", "android": "https://dc.lft.to/lastmile_qr_scan"}}, {"name": "836829e967b6d0a62ca8fc266d214167", "lon": -77.03498366666666, "lat": 38.963793333333335, "type": "electric_scooter", "fusion_lon": 0.0, "is_reserved": 0, "bike_id": "836829e967b6d0a62ca8fc266d214167", "fusion_lat": 0.0, "is_disabled": 0, "rental_uris": {"ios": "https://dc.lft.to/lastmile_qr_scan", "android": "https://dc.lft.to/lastmile_qr_scan"}}, {"name": "9d45fa5fea005a3f7a64d824f4e9d7f6", "lon": -77.02398916666667, "lat": 38.919884833333334, "type": "electric_scooter", "fusion_lon": 0.0, "is_reserved": 0, "bike_id": "9d45fa5fea005a3f7a64d824f4e9d7f6", "fusion_lat": 0.0, "is_disabled": 0, "rental_uris": {"ios": "https://dc.lft.to/lastmile_qr_scan", "android": "https://dc.lft.to/lastmile_qr_scan"}}, {"name": "e5ab53d835722ef6718e40d52eff5791", "lon": -77.1122385, "lat": 38.81264733333333, "type": "electric_bike", "fusion_lon": 0.0, "is_reserved": 0, "bike_id": "e5ab53d835722ef6718e40d52eff5791", "fusion_lat": 0.0, "is_disabled": 0, "rental_uris": {"ios": "https://dc.lft.to/lastmile_qr_scan", "android": "https://dc.lft.to/lastmile_qr_scan"}}, {"name": "f112750b3cd1e73e017982bcf692f343", "lon": -77.0325745, "lat": 38.934062, "type": "electric_scooter", "fusion_lon": 0.0, "is_reserved": 0, "bike_id": "f112750b3cd1e73e017982bcf692f343", "fusion_lat": 0.0, "is_disabled": 0, "rental_uris": {"ios": "https://dc.lft.to/lastmile_qr_scan", "android": "https://dc.lft.to/lastmile_qr_scan"}}, {"name": "cabdb765644be8e596fba9c06190bac1", "lon": -77.04098333333333, "lat": 38.91783133333333, "type": "electric_scooter", "fusion_lon": 0.0, "is_reserved": 0, "bike_id": "cabdb765644be8e596fba9c06190bac1", "fusion_lat": 0.0, "is_disabled": 0, "rental_uris": {"ios": "https://dc.lft.to/lastmile_qr_scan", "android": "https://dc.lft.to/lastmile_qr_scan"}}, {"name": "3e349f5f50805340a11443c29f974d1c", "lon": -77.004793, "lat": 38.911182333333336, "type": "electric_scooter", "fusion_lon": 0.0, "is_reserved": 0, "bike_id": "3e349f5f50805340a11443c29f974d1c", "fusion_lat": 0.0, "is_disabled": 0, "rental_uris": {"ios": "https://dc.lft.to/lastmile_qr_scan", "android": "https://dc.lft.to/lastmile_qr_scan"}}, {"name": "6e63737b7db2bca0c53dce7505c21686", "lon": -76.99764433333333, "lat": 38.887649833333334, "type": "electric_scooter", "fusion_lon": 0.0, "is_reserved": 0, "bike_id": "6e63737b7db2bca0c53dce7505c21686", "fusion_lat": 0.0, "is_disabled": 0, "rental_uris": {"ios": "https://dc.lft.to/lastmile_qr_scan", "android": "https://dc.lft.to/lastmile_qr_scan"}}, {"name": "d89b64c996448aefe403f6e64da38af8", "lon": -77.017752, "lat": 38.98272683333333, "type": "electric_bike", "fusion_lon": 0.0, "is_reserved": 0, "bike_id": "d89b64c996448aefe403f6e64da38af8", "fusion_lat": 0.0, "is_disabled": 0, "rental_uris": {"ios": "https://dc.lft.to/lastmile_qr_scan", "android": "https://dc.lft.to/lastmile_qr_scan"}}, {"name": "14a6ca72a0b365e330df95227c38034d", "lon": -76.98219833333333, "lat": 38.985096, "type": "electric_bike", "fusion_lon": 0.0, "is_reserved": 0, "bike_id": "14a6ca72a0b365e330df95227c38034d", "fusion_lat": 0.0, "is_disabled": 0, "rental_uris": {"ios": "https://dc.lft.to/lastmile_qr_scan", "android": "https://dc.lft.to/lastmile_qr_scan"}}, {"name": "f855203fa573f8c32b810dccef1d2f38", "lon": -76.94941216666666, "lat": 38.895089166666665, "type": "electric_scooter", "fusion_lon": 0.0, "is_reserved": 0, "bike_id": "f855203fa573f8c32b810dccef1d2f38", "fusion_lat": 0.0, "is_disabled": 0, "rental_uris": {"ios": "https://dc.lft.to/lastmile_qr_scan", "android": "https://dc.lft.to/lastmile_qr_scan"}}, {"name": "bab273a2507f0378be16130536af32bb", "lon": -77.031479, "lat": 38.92788216666667, "type": "electric_scooter", "fusion_lon": 0.0, "is_reserved": 0, "bike_id": "bab273a2507f0378be16130536af32bb", "fusion_lat": 0.0, "is_disabled": 0, "rental_uris": {"ios": "https://dc.lft.to/lastmile_qr_scan", "android": "https://dc.lft.to/lastmile_qr_scan"}}, {"name": "e55080fc185b829f58c869cf1d3d3415", "lon": -77.01741766666666, "lat": 38.902586166666666, "type": "electric_scooter", "fusion_lon": 0.0, "is_reserved": 0, "bike_id": "e55080fc185b829f58c869cf1d3d3415", "fusion_lat": 0.0, "is_disabled": 0, "rental_uris": {"ios": "https://dc.lft.to/lastmile_qr_scan", "android": "https://dc.lft.to/lastmile_qr_scan"}}, {"name": "c79a29256cf91749b1751bd27c1845a3", "lon": -77.024166, "lat": 38.91413266666667, "type": "electric_bike", "fusion_lon": 0.0, "is_reserved": 0, "bike_id": "c79a29256cf91749b1751bd27c1845a3", "fusion_lat": 0.0, "is_disabled": 0, "rental_uris": {"ios": "https://dc.lft.to/lastmile_qr_scan", "android": "https://dc.lft.to/lastmile_qr_scan"}}, {"name": "1b36983d0937409bdaaf479ef3f86c3d", "lon": -77.03511583333334, "lat": 38.931032333333334, "type": "electric_bike", "fusion_lon": 0.0, "is_reserved": 0, "bike_id": "1b36983d0937409bdaaf479ef3f86c3d", "fusion_lat": 0.0, "is_disabled": 0, "rental_uris": {"ios": "https://dc.lft.to/lastmile_qr_scan", "android": "https://dc.lft.to/lastmile_qr_scan"}}, {"name": "72cc6df5305a408ff646fcba1e45872d", "lon": -76.94683466666666, "lat": 38.886264833333335, "type": "electric_scooter", "fusion_lon": 0.0, "is_reserved": 0, "bike_id": "72cc6df5305a408ff646fcba1e45872d", "fusion_lat": 0.0, "is_disabled": 0, "rental_uris": {"ios": "https://dc.lft.to/lastmile_qr_scan", "android": "https://dc.lft.to/lastmile_qr_scan"}}, {"name": "b2236f019e73400c1e73174fe125ae66", "lon": -77.04598733333333, "lat": 38.923323833333335, "type": "electric_scooter", "fusion_lon": 0.0, "is_reserved": 0, "bike_id": "b2236f019e73400c1e73174fe125ae66", "fusion_lat": 0.0, "is_disabled": 0, "rental_uris": {"ios": "https://dc.lft.to/lastmile_qr_scan", "android": "https://dc.lft.to/lastmile_qr_scan"}}, {"name": "21254aa115ce8c8eb846b991633aa2f9", "lon": -77.04182716666666, "lat": 38.8922575, "type": "electric_scooter", "fusion_lon": 0.0, "is_reserved": 0, "bike_id": "21254aa115ce8c8eb846b991633aa2f9", "fusion_lat": 0.0, "is_disabled": 0, "rental_uris": {"ios": "https://dc.lft.to/lastmile_qr_scan", "android": "https://dc.lft.to/lastmile_qr_scan"}}, {"name": "b8bb065edcafe69bd23750d90693dd6f", "lon": -77.023215, "lat": 38.897330833333335, "type": "electric_scooter", "fusion_lon": 0.0, "is_reserved": 0, "bike_id": "b8bb065edcafe69bd23750d90693dd6f", "fusion_lat": 0.0, "is_disabled": 0, "rental_uris": {"ios": "https://dc.lft.to/lastmile_qr_scan", "android": "https://dc.lft.to/lastmile_qr_scan"}}, {"name": "a18d59e0452e3a29c90584bc6f0d6460", "lon": -77.012297, "lat": 38.916791, "type": "electric_scooter", "fusion_lon": 0.0, "is_reserved": 0, "bike_id": "a18d59e0452e3a29c90584bc6f0d6460", "fusion_lat": 0.0, "is_disabled": 0, "rental_uris": {"ios": "https://dc.lft.to/lastmile_qr_scan", "android": "https://dc.lft.to/lastmile_qr_scan"}}, {"name": "a2867a0240a69e7e5be61f18ad72ff55", "lon": -77.024838, "lat": 38.909656166666664, "type": "electric_scooter", "fusion_lon": 0.0, "is_reserved": 0, "bike_id": "a2867a0240a69e7e5be61f18ad72ff55", "fusion_lat": 0.0, "is_disabled": 0, "rental_uris": {"ios": "https://dc.lft.to/lastmile_qr_scan", "android": "https://dc.lft.to/lastmile_qr_scan"}}, {"name": "0f281bc85d0ef957ec3aa10953da0186", "lon": -77.02809533333334, "lat": 38.916233, "type": "electric_scooter", "fusion_lon": 0.0, "is_reserved": 0, "bike_id": "0f281bc85d0ef957ec3aa10953da0186", "fusion_lat": 0.0, "is_disabled": 0, "rental_uris": {"ios": "https://dc.lft.to/lastmile_qr_scan", "android": "https://dc.lft.to/lastmile_qr_scan"}}, {"name": "b28841328e9a64e117f91785d6a96bf6", "lon": -76.98095583333334, "lat": 38.953546833333334, "type": "electric_bike", "fusion_lon": 0.0, "is_reserved": 0, "bike_id": "b28841328e9a64e117f91785d6a96bf6", "fusion_lat": 0.0, "is_disabled": 0, "rental_uris": {"ios": "https://dc.lft.to/lastmile_qr_scan", "android": "https://dc.lft.to/lastmile_qr_scan"}}, {"name": "c70a937e2f9b77092e4fd4a192234f26", "lon": -77.02618333333334, "lat": 38.8967765, "type": "electric_scooter", "fusion_lon": 0.0, "is_reserved": 0, "bike_id": "c70a937e2f9b77092e4fd4a192234f26", "fusion_lat": 0.0, "is_disabled": 0, "rental_uris": {"ios": "https://dc.lft.to/lastmile_qr_scan", "android": "https://dc.lft.to/lastmile_qr_scan"}}, {"name": "05ae230f1cc39388284e05335d664bae", "lon": -77.00197583333333, "lat": 38.90245566666667, "type": "electric_scooter", "fusion_lon": 0.0, "is_reserved": 0, "bike_id": "05ae230f1cc39388284e05335d664bae", "fusion_lat": 0.0, "is_disabled": 0, "rental_uris": {"ios": "https://dc.lft.to/lastmile_qr_scan", "android": "https://dc.lft.to/lastmile_qr_scan"}}, {"name": "de0be6e38048066d3516326917873408", "lon": -77.03867683333333, "lat": 38.91548616666667, "type": "electric_scooter", "fusion_lon": 0.0, "is_reserved": 0, "bike_id": "de0be6e38048066d3516326917873408", "fusion_lat": 0.0, "is_disabled": 0, "rental_uris": {"ios": "https://dc.lft.to/lastmile_qr_scan", "android": "https://dc.lft.to/lastmile_qr_scan"}}, {"name": "692651b3485adef236f9ff64d4f3ae3d", "lon": -77.043299, "lat": 38.907912, "type": "electric_scooter", "fusion_lon": 0.0, "is_reserved": 0, "bike_id": "692651b3485adef236f9ff64d4f3ae3d", "fusion_lat": 0.0, "is_disabled": 0, "rental_uris": {"ios": "https://dc.lft.to/lastmile_qr_scan", "android": "https://dc.lft.to/lastmile_qr_scan"}}, {"name": "b128471340d83c6ad5e16359fb783053", "lon": -77.0231695, "lat": 38.90718416666667, "type": "electric_scooter", "fusion_lon": 0.0, "is_reserved": 0, "bike_id": "b128471340d83c6ad5e16359fb783053", "fusion_lat": 0.0, "is_disabled": 0, "rental_uris": {"ios": "https://dc.lft.to/lastmile_qr_scan", "android": "https://dc.lft.to/lastmile_qr_scan"}}, {"name": "3fb234285c60e1a0b7d28066fbb90b29", "lon": -77.03506233333333, "lat": 38.90667166666667, "type": "electric_scooter", "fusion_lon": 0.0, "is_reserved": 0, "bike_id": "3fb234285c60e1a0b7d28066fbb90b29", "fusion_lat": 0.0, "is_disabled": 0, "rental_uris": {"ios": "https://dc.lft.to/lastmile_qr_scan", "android": "https://dc.lft.to/lastmile_qr_scan"}}, {"name": "08618e92a06388f2d6c29d829cd6bdba", "lon": -76.99550166666667, "lat": 38.92657583333333, "type": "electric_scooter", "fusion_lon": 0.0, "is_reserved": 0, "bike_id": "08618e92a06388f2d6c29d829cd6bdba", "fusion_lat": 0.0, "is_disabled": 0, "rental_uris": {"ios": "https://dc.lft.to/lastmile_qr_scan", "android": "https://dc.lft.to/lastmile_qr_scan"}}, {"name": "544d093e8251eb3a53861092f10f2a89", "lon": -77.0324175, "lat": 38.91560116666667, "type": "electric_scooter", "fusion_lon": 0.0, "is_reserved": 0, "bike_id": "544d093e8251eb3a53861092f10f2a89", "fusion_lat": 0.0, "is_disabled": 0, "rental_uris": {"ios": "https://dc.lft.to/lastmile_qr_scan", "android": "https://dc.lft.to/lastmile_qr_scan"}}, {"name": "39cdce8b5e7d871622336d083620520c", "lon": -77.09802383333333, "lat": 38.85028483333333, "type": "electric_bike", "fusion_lon": 0.0, "is_reserved": 0, "bike_id": "39cdce8b5e7d871622336d083620520c", "fusion_lat": 0.0, "is_disabled": 0, "rental_uris": {"ios": "https://dc.lft.to/lastmile_qr_scan", "android": "https://dc.lft.to/lastmile_qr_scan"}}, {"name": "178f068a65e345fa6d7536f4a913e0d5", "lon": -77.078013, "lat": 38.849048, "type": "electric_bike", "fusion_lon": 0.0, "is_reserved": 0, "bike_id": "178f068a65e345fa6d7536f4a913e0d5", "fusion_lat": 0.0, "is_disabled": 0, "rental_uris": {"ios": "https://dc.lft.to/lastmile_qr_scan", "android": "https://dc.lft.to/lastmile_qr_scan"}}, {"name": "cd37139c443dd667f611e88ff935de4c", "lon": -77.03489, "lat": 38.932744666666665, "type": "electric_scooter", "fusion_lon": 0.0, "is_reserved": 0, "bike_id": "cd37139c443dd667f611e88ff935de4c", "fusion_lat": 0.0, "is_disabled": 0, "rental_uris": {"ios": "https://dc.lft.to/lastmile_qr_scan", "android": "https://dc.lft.to/lastmile_qr_scan"}}, {"name": "6ad5c36c049152920abadaf575898a80", "lon": -77.04490316666667, "lat": 38.9132875, "type": "electric_scooter", "fusion_lon": 0.0, "is_reserved": 0, "bike_id": "6ad5c36c049152920abadaf575898a80", "fusion_lat": 0.0, "is_disabled": 0, "rental_uris": {"ios": "https://dc.lft.to/lastmile_qr_scan", "android": "https://dc.lft.to/lastmile_qr_scan"}}, {"name": "a2c943b5d81e11d8212a1f4744659d08", "lon": -77.0174655, "lat": 38.872713, "type": "electric_scooter", "fusion_lon": 0.0, "is_reserved": 0, "bike_id": "a2c943b5d81e11d8212a1f4744659d08", "fusion_lat": 0.0, "is_disabled": 0, "rental_uris": {"ios": "https://dc.lft.to/lastmile_qr_scan", "android": "https://dc.lft.to/lastmile_qr_scan"}}, {"name": "f33e8f2bdf72e445663cb0efcdd590fc", "lon": -77.05123716666667, "lat": 38.92358733333333, "type": "electric_scooter", "fusion_lon": 0.0, "is_reserved": 0, "bike_id": "f33e8f2bdf72e445663cb0efcdd590fc", "fusion_lat": 0.0, "is_disabled": 0, "rental_uris": {"ios": "https://dc.lft.to/lastmile_qr_scan", "android": "https://dc.lft.to/lastmile_qr_scan"}}, {"name": "dd61371e21e86c3bfbe2cbd35764496a", "lon": -77.049264, "lat": 38.813478333333336, "type": "electric_bike", "fusion_lon": 0.0, "is_reserved": 0, "bike_id": "dd61371e21e86c3bfbe2cbd35764496a", "fusion_lat": 0.0, "is_disabled": 0, "rental_uris": {"ios": "https://dc.lft.to/lastmile_qr_scan", "android": "https://dc.lft.to/lastmile_qr_scan"}}, {"name": "16131ee1c60fc1d4c9d548b4a233225f", "lon": -77.017648, "lat": 38.877166, "type": "electric_scooter", "fusion_lon": 0.0, "is_reserved": 0, "bike_id": "16131ee1c60fc1d4c9d548b4a233225f", "fusion_lat": 0.0, "is_disabled": 0, "rental_uris": {"ios": "https://dc.lft.to/lastmile_qr_scan", "android": "https://dc.lft.to/lastmile_qr_scan"}}, {"name": "df38a2f32e618014345472a8266b717c", "lon": -77.02458683333333, "lat": 38.918055, "type": "electric_scooter", "fusion_lon": 0.0, "is_reserved": 0, "bike_id": "df38a2f32e618014345472a8266b717c", "fusion_lat": 0.0, "is_disabled": 0, "rental_uris": {"ios": "https://dc.lft.to/lastmile_qr_scan", "android": "https://dc.lft.to/lastmile_qr_scan"}}, {"name": "7668d37f6aab490aef71d242c8b26625", "lon": -77.00194883333333, "lat": 38.902466833333335, "type": "electric_scooter", "fusion_lon": 0.0, "is_reserved": 0, "bike_id": "7668d37f6aab490aef71d242c8b26625", "fusion_lat": 0.0, "is_disabled": 0, "rental_uris": {"ios": "https://dc.lft.to/lastmile_qr_scan", "android": "https://dc.lft.to/lastmile_qr_scan"}}, {"name": "fca01eb31b5153337a5307dbc16add98", "lon": -77.08826416666666, "lat": 38.9096975, "type": "electric_bike", "fusion_lon": 0.0, "is_reserved": 0, "bike_id": "fca01eb31b5153337a5307dbc16add98", "fusion_lat": 0.0, "is_disabled": 0, "rental_uris": {"ios": "https://dc.lft.to/lastmile_qr_scan", "android": "https://dc.lft.to/lastmile_qr_scan"}}, {"name": "f4a4d7315b64068749c5d4dad98a8acd", "lon": -77.01763983333333, "lat": 38.87491266666667, "type": "electric_scooter", "fusion_lon": 0.0, "is_reserved": 0, "bike_id": "f4a4d7315b64068749c5d4dad98a8acd", "fusion_lat": 0.0, "is_disabled": 0, "rental_uris": {"ios": "https://dc.lft.to/lastmile_qr_scan", "android": "https://dc.lft.to/lastmile_qr_scan"}}, {"name": "8948a24b43d6a31221202e1be6826958", "lon": -77.06413983333333, "lat": 38.9455625, "type": "electric_scooter", "fusion_lon": 0.0, "is_reserved": 0, "bike_id": "8948a24b43d6a31221202e1be6826958", "fusion_lat": 0.0, "is_disabled": 0, "rental_uris": {"ios": "https://dc.lft.to/lastmile_qr_scan", "android": "https://dc.lft.to/lastmile_qr_scan"}}, {"name": "a4552343239a1bfb75a4aa0328385981", "lon": -77.01845233333333, "lat": 38.90387116666667, "type": "electric_scooter", "fusion_lon": 0.0, "is_reserved": 0, "bike_id": "a4552343239a1bfb75a4aa0328385981", "fusion_lat": 0.0, "is_disabled": 0, "rental_uris": {"ios": "https://dc.lft.to/lastmile_qr_scan", "android": "https://dc.lft.to/lastmile_qr_scan"}}, {"name": "6eb74bcdd82f0c4816488b9f97243908", "lon": -77.03648233333334, "lat": 38.923351, "type": "electric_scooter", "fusion_lon": 0.0, "is_reserved": 0, "bike_id": "6eb74bcdd82f0c4816488b9f97243908", "fusion_lat": 0.0, "is_disabled": 0, "rental_uris": {"ios": "https://dc.lft.to/lastmile_qr_scan", "android": "https://dc.lft.to/lastmile_qr_scan"}}, {"name": "b30f1a849f1c83452dd89479eb74353f", "lon": -77.02393833333333, "lat": 38.896081, "type": "electric_scooter", "fusion_lon": 0.0, "is_reserved": 0, "bike_id": "b30f1a849f1c83452dd89479eb74353f", "fusion_lat": 0.0, "is_disabled": 0, "rental_uris": {"ios": "https://dc.lft.to/lastmile_qr_scan", "android": "https://dc.lft.to/lastmile_qr_scan"}}, {"name": "a32b48f42c903d21331f1e93ba4da63f", "lon": -77.0298625, "lat": 38.93448166666667, "type": "electric_scooter", "fusion_lon": 0.0, "is_reserved": 0, "bike_id": "a32b48f42c903d21331f1e93ba4da63f", "fusion_lat": 0.0, "is_disabled": 0, "rental_uris": {"ios": "https://dc.lft.to/lastmile_qr_scan", "android": "https://dc.lft.to/lastmile_qr_scan"}}, {"name": "bf3853d10ebbc314dc0e10dd25aee3f4", "lon": -77.03439116666667, "lat": 38.930894333333335, "type": "electric_scooter", "fusion_lon": 0.0, "is_reserved": 0, "bike_id": "bf3853d10ebbc314dc0e10dd25aee3f4", "fusion_lat": 0.0, "is_disabled": 0, "rental_uris": {"ios": "https://dc.lft.to/lastmile_qr_scan", "android": "https://dc.lft.to/lastmile_qr_scan"}}, {"name": "a63980f2f1441f4bb415dc80e7a6130c", "lon": -77.0770145, "lat": 38.84089516666667, "type": "electric_bike", "fusion_lon": 0.0, "is_reserved": 0, "bike_id": "a63980f2f1441f4bb415dc80e7a6130c", "fusion_lat": 0.0, "is_disabled": 0, "rental_uris": {"ios": "https://dc.lft.to/lastmile_qr_scan", "android": "https://dc.lft.to/lastmile_qr_scan"}}, {"name": "5a2ea16ba97562b84ef1ca923354fdce", "lon": -77.04174616666667, "lat": 38.917364166666665, "type": "electric_scooter", "fusion_lon": 0.0, "is_reserved": 0, "bike_id": "5a2ea16ba97562b84ef1ca923354fdce", "fusion_lat": 0.0, "is_disabled": 0, "rental_uris": {"ios": "https://dc.lft.to/lastmile_qr_scan", "android": "https://dc.lft.to/lastmile_qr_scan"}}, {"name": "0c91747a14def1be9347e237cd9c7aa8", "lon": -77.00456766666667, "lat": 38.920798, "type": "electric_scooter", "fusion_lon": 0.0, "is_reserved": 0, "bike_id": "0c91747a14def1be9347e237cd9c7aa8", "fusion_lat": 0.0, "is_disabled": 0, "rental_uris": {"ios": "https://dc.lft.to/lastmile_qr_scan", "android": "https://dc.lft.to/lastmile_qr_scan"}}, {"name": "1c25c4ef2aa27b386717d429dee14926", "lon": -77.02959633333333, "lat": 38.92336266666667, "type": "electric_scooter", "fusion_lon": 0.0, "is_reserved": 0, "bike_id": "1c25c4ef2aa27b386717d429dee14926", "fusion_lat": 0.0, "is_disabled": 0, "rental_uris": {"ios": "https://dc.lft.to/lastmile_qr_scan", "android": "https://dc.lft.to/lastmile_qr_scan"}}, {"name": "4c1fdb675c4ceb5d7b14c260798c681f", "lon": -77.04600083333334, "lat": 38.917227833333335, "type": "electric_scooter", "fusion_lon": 0.0, "is_reserved": 0, "bike_id": "4c1fdb675c4ceb5d7b14c260798c681f", "fusion_lat": 0.0, "is_disabled": 0, "rental_uris": {"ios": "https://dc.lft.to/lastmile_qr_scan", "android": "https://dc.lft.to/lastmile_qr_scan"}}, {"name": "8524da0ba4e6cc1c314c5419e34d1c73", "lon": -77.04328283333334, "lat": 38.89222933333333, "type": "electric_scooter", "fusion_lon": 0.0, "is_reserved": 0, "bike_id": "8524da0ba4e6cc1c314c5419e34d1c73", "fusion_lat": 0.0, "is_disabled": 0, "rental_uris": {"ios": "https://dc.lft.to/lastmile_qr_scan", "android": "https://dc.lft.to/lastmile_qr_scan"}}, {"name": "01ff94d391f3558bd7767811ec6c97b6", "lon": -77.0119735, "lat": 38.900173333333335, "type": "electric_scooter", "fusion_lon": 0.0, "is_reserved": 0, "bike_id": "01ff94d391f3558bd7767811ec6c97b6", "fusion_lat": 0.0, "is_disabled": 0, "rental_uris": {"ios": "https://dc.lft.to/lastmile_qr_scan", "android": "https://dc.lft.to/lastmile_qr_scan"}}, {"name": "fb4cf08a85955ec71290c12e7f328114", "lon": -77.00070866666667, "lat": 38.9160055, "type": "electric_scooter", "fusion_lon": 0.0, "is_reserved": 0, "bike_id": "fb4cf08a85955ec71290c12e7f328114", "fusion_lat": 0.0, "is_disabled": 0, "rental_uris": {"ios": "https://dc.lft.to/lastmile_qr_scan", "android": "https://dc.lft.to/lastmile_qr_scan"}}, {"name": "90c4f669650bd9a0eb02bbf07cdf06b1", "lon": -77.01541733333333, "lat": 38.8840695, "type": "electric_scooter", "fusion_lon": 0.0, "is_reserved": 0, "bike_id": "90c4f669650bd9a0eb02bbf07cdf06b1", "fusion_lat": 0.0, "is_disabled": 0, "rental_uris": {"ios": "https://dc.lft.to/lastmile_qr_scan", "android": "https://dc.lft.to/lastmile_qr_scan"}}, {"name": "311224eff6dcd9a7a49a84416e6fc224", "lon": -77.02026116666667, "lat": 38.89271766666667, "type": "electric_scooter", "fusion_lon": 0.0, "is_reserved": 0, "bike_id": "311224eff6dcd9a7a49a84416e6fc224", "fusion_lat": 0.0, "is_disabled": 0, "rental_uris": {"ios": "https://dc.lft.to/lastmile_qr_scan", "android": "https://dc.lft.to/lastmile_qr_scan"}}, {"name": "a88391f68d5ccb0ff86fd9b7e67f743e", "lon": -77.02969516666667, "lat": 38.90505266666667, "type": "electric_scooter", "fusion_lon": 0.0, "is_reserved": 0, "bike_id": "a88391f68d5ccb0ff86fd9b7e67f743e", "fusion_lat": 0.0, "is_disabled": 0, "rental_uris": {"ios": "https://dc.lft.to/lastmile_qr_scan", "android": "https://dc.lft.to/lastmile_qr_scan"}}, {"name": "77b87b198e7882221fdc8279553d537c", "lon": -77.02165083333334, "lat": 38.902128, "type": "electric_scooter", "fusion_lon": 0.0, "is_reserved": 0, "bike_id": "77b87b198e7882221fdc8279553d537c", "fusion_lat": 0.0, "is_disabled": 0, "rental_uris": {"ios": "https://dc.lft.to/lastmile_qr_scan", "android": "https://dc.lft.to/lastmile_qr_scan"}}, {"name": "538135e01bdc126297bace9e1b4ad49f", "lon": -77.01601616666666, "lat": 38.91714266666666, "type": "electric_scooter", "fusion_lon": 0.0, "is_reserved": 0, "bike_id": "538135e01bdc126297bace9e1b4ad49f", "fusion_lat": 0.0, "is_disabled": 0, "rental_uris": {"ios": "https://dc.lft.to/lastmile_qr_scan", "android": "https://dc.lft.to/lastmile_qr_scan"}}, {"name": "ed9050c155282caf092c29da1320d187", "lon": -77.00890433333333, "lat": 38.90349833333333, "type": "electric_scooter", "fusion_lon": 0.0, "is_reserved": 0, "bike_id": "ed9050c155282caf092c29da1320d187", "fusion_lat": 0.0, "is_disabled": 0, "rental_uris": {"ios": "https://dc.lft.to/lastmile_qr_scan", "android": "https://dc.lft.to/lastmile_qr_scan"}}, {"name": "1998e27f60ed5d0623da92a462e46f20", "lon": -77.0388875, "lat": 38.90825, "type": "electric_scooter", "fusion_lon": 0.0, "is_reserved": 0, "bike_id": "1998e27f60ed5d0623da92a462e46f20", "fusion_lat": 0.0, "is_disabled": 0, "rental_uris": {"ios": "https://dc.lft.to/lastmile_qr_scan", "android": "https://dc.lft.to/lastmile_qr_scan"}}, {"name": "5ca0ad0aef2c90ffff2642bfe6b2df22", "lon": -76.9959585, "lat": 38.856865666666664, "type": "electric_scooter", "fusion_lon": 0.0, "is_reserved": 0, "bike_id": "5ca0ad0aef2c90ffff2642bfe6b2df22", "fusion_lat": 0.0, "is_disabled": 0, "rental_uris": {"ios": "https://dc.lft.to/lastmile_qr_scan", "android": "https://dc.lft.to/lastmile_qr_scan"}}, {"name": "1480a22ba4614759b77856e22dff05a0", "lon": -77.00830366666666, "lat": 38.829082, "type": "electric_bike", "fusion_lon": 0.0, "is_reserved": 0, "bike_id": "1480a22ba4614759b77856e22dff05a0", "fusion_lat": 0.0, "is_disabled": 0, "rental_uris": {"ios": "https://dc.lft.to/lastmile_qr_scan", "android": "https://dc.lft.to/lastmile_qr_scan"}}, {"name": "8f6ebc1b84d6d15f19514eccbea5b33d", "lon": -77.03185183333333, "lat": 38.91352233333333, "type": "electric_scooter", "fusion_lon": 0.0, "is_reserved": 0, "bike_id": "8f6ebc1b84d6d15f19514eccbea5b33d", "fusion_lat": 0.0, "is_disabled": 0, "rental_uris": {"ios": "https://dc.lft.to/lastmile_qr_scan", "android": "https://dc.lft.to/lastmile_qr_scan"}}, {"name": "1ab64bc77a71efa5c18be664623a6705", "lon": -77.0343725, "lat": 38.90972933333333, "type": "electric_scooter", "fusion_lon": 0.0, "is_reserved": 0, "bike_id": "1ab64bc77a71efa5c18be664623a6705", "fusion_lat": 0.0, "is_disabled": 0, "rental_uris": {"ios": "https://dc.lft.to/lastmile_qr_scan", "android": "https://dc.lft.to/lastmile_qr_scan"}}, {"name": "8d615b22522f15da039b0bfe56e50db7", "lon": -77.03795833333334, "lat": 38.915426833333335, "type": "electric_scooter", "fusion_lon": 0.0, "is_reserved": 0, "bike_id": "8d615b22522f15da039b0bfe56e50db7", "fusion_lat": 0.0, "is_disabled": 0, "rental_uris": {"ios": "https://dc.lft.to/lastmile_qr_scan", "android": "https://dc.lft.to/lastmile_qr_scan"}}, {"name": "c2b13b7534f2615b0bf7f7e23ae5d2d7", "lon": -77.0006055, "lat": 38.87669433333333, "type": "electric_scooter", "fusion_lon": 0.0, "is_reserved": 0, "bike_id": "c2b13b7534f2615b0bf7f7e23ae5d2d7", "fusion_lat": 0.0, "is_disabled": 0, "rental_uris": {"ios": "https://dc.lft.to/lastmile_qr_scan", "android": "https://dc.lft.to/lastmile_qr_scan"}}, {"name": "dc7bf986acc861b3d729c983771a98e2", "lon": -77.071831, "lat": 38.959504833333334, "type": "electric_scooter", "fusion_lon": 0.0, "is_reserved": 0, "bike_id": "dc7bf986acc861b3d729c983771a98e2", "fusion_lat": 0.0, "is_disabled": 0, "rental_uris": {"ios": "https://dc.lft.to/lastmile_qr_scan", "android": "https://dc.lft.to/lastmile_qr_scan"}}, {"name": "ebbc6b197f2783f323899eeac8f640ab", "lon": -76.9493965, "lat": 38.89505283333333, "type": "electric_scooter", "fusion_lon": 0.0, "is_reserved": 0, "bike_id": "ebbc6b197f2783f323899eeac8f640ab", "fusion_lat": 0.0, "is_disabled": 0, "rental_uris": {"ios": "https://dc.lft.to/lastmile_qr_scan", "android": "https://dc.lft.to/lastmile_qr_scan"}}, {"name": "a273d18bf8200e6322cb369b164540aa", "lon": -77.01517933333334, "lat": 38.9104465, "type": "electric_scooter", "fusion_lon": 0.0, "is_reserved": 0, "bike_id": "a273d18bf8200e6322cb369b164540aa", "fusion_lat": 0.0, "is_disabled": 0, "rental_uris": {"ios": "https://dc.lft.to/lastmile_qr_scan", "android": "https://dc.lft.to/lastmile_qr_scan"}}, {"name": "d731321f65f876f6588f99caabefd680", "lon": -77.03865216666667, "lat": 38.917020666666666, "type": "electric_scooter", "fusion_lon": 0.0, "is_reserved": 0, "bike_id": "d731321f65f876f6588f99caabefd680", "fusion_lat": 0.0, "is_disabled": 0, "rental_uris": {"ios": "https://dc.lft.to/lastmile_qr_scan", "android": "https://dc.lft.to/lastmile_qr_scan"}}, {"name": "4d3323eb2d91cff8a30e9bc712efbeea", "lon": -77.04134783333333, "lat": 38.92264516666667, "type": "electric_scooter", "fusion_lon": 0.0, "is_reserved": 0, "bike_id": "4d3323eb2d91cff8a30e9bc712efbeea", "fusion_lat": 0.0, "is_disabled": 0, "rental_uris": {"ios": "https://dc.lft.to/lastmile_qr_scan", "android": "https://dc.lft.to/lastmile_qr_scan"}}, {"name": "2a2f9cdaa9d576b456309a73e8f1d831", "lon": -77.02613583333333, "lat": 38.905645166666666, "type": "electric_scooter", "fusion_lon": 0.0, "is_reserved": 0, "bike_id": "2a2f9cdaa9d576b456309a73e8f1d831", "fusion_lat": 0.0, "is_disabled": 0, "rental_uris": {"ios": "https://dc.lft.to/lastmile_qr_scan", "android": "https://dc.lft.to/lastmile_qr_scan"}}, {"name": "e65d1d552f8e2fae3b29b48a7d26ab8b", "lon": -76.95982366666667, "lat": 38.8698115, "type": "electric_bike", "fusion_lon": 0.0, "is_reserved": 0, "bike_id": "e65d1d552f8e2fae3b29b48a7d26ab8b", "fusion_lat": 0.0, "is_disabled": 0, "rental_uris": {"ios": "https://dc.lft.to/lastmile_qr_scan", "android": "https://dc.lft.to/lastmile_qr_scan"}}, {"name": "f10b46015cc3206698eb5c3e7591ea1d", "lon": -77.05268416666667, "lat": 38.939355166666665, "type": "electric_scooter", "fusion_lon": 0.0, "is_reserved": 0, "bike_id": "f10b46015cc3206698eb5c3e7591ea1d", "fusion_lat": 0.0, "is_disabled": 0, "rental_uris": {"ios": "https://dc.lft.to/lastmile_qr_scan", "android": "https://dc.lft.to/lastmile_qr_scan"}}, {"name": "f1ba97735fe40eecdfbb4b0c1cd514ee", "lon": -77.07822416666667, "lat": 38.93636333333333, "type": "electric_bike", "fusion_lon": 0.0, "is_reserved": 0, "bike_id": "f1ba97735fe40eecdfbb4b0c1cd514ee", "fusion_lat": 0.0, "is_disabled": 0, "rental_uris": {"ios": "https://dc.lft.to/lastmile_qr_scan", "android": "https://dc.lft.to/lastmile_qr_scan"}}, {"name": "267f91a642231a1569bd8464f0cc5768", "lon": -77.01172733333334, "lat": 38.9156125, "type": "electric_scooter", "fusion_lon": 0.0, "is_reserved": 0, "bike_id": "267f91a642231a1569bd8464f0cc5768", "fusion_lat": 0.0, "is_disabled": 0, "rental_uris": {"ios": "https://dc.lft.to/lastmile_qr_scan", "android": "https://dc.lft.to/lastmile_qr_scan"}}, {"name": "c7304e7da862acc0222721e5f18d0ddb", "lon": -76.99701066666667, "lat": 38.8386355, "type": "electric_bike", "fusion_lon": 0.0, "is_reserved": 0, "bike_id": "c7304e7da862acc0222721e5f18d0ddb", "fusion_lat": 0.0, "is_disabled": 0, "rental_uris": {"ios": "https://dc.lft.to/lastmile_qr_scan", "android": "https://dc.lft.to/lastmile_qr_scan"}}, {"name": "719c30e695d835efb260296cb880bbbc", "lon": -77.03252833333333, "lat": 38.91816433333334, "type": "electric_scooter", "fusion_lon": 0.0, "is_reserved": 0, "bike_id": "719c30e695d835efb260296cb880bbbc", "fusion_lat": 0.0, "is_disabled": 0, "rental_uris": {"ios": "https://dc.lft.to/lastmile_qr_scan", "android": "https://dc.lft.to/lastmile_qr_scan"}}, {"name": "4ecf05aa1b2e5564a489eb43392df126", "lon": -77.0262335, "lat": 38.89426183333333, "type": "electric_scooter", "fusion_lon": 0.0, "is_reserved": 0, "bike_id": "4ecf05aa1b2e5564a489eb43392df126", "fusion_lat": 0.0, "is_disabled": 0, "rental_uris": {"ios": "https://dc.lft.to/lastmile_qr_scan", "android": "https://dc.lft.to/lastmile_qr_scan"}}, {"name": "e7f94af571014893d39b6a3e69010a45", "lon": -77.02062, "lat": 38.9218805, "type": "electric_scooter", "fusion_lon": 0.0, "is_reserved": 0, "bike_id": "e7f94af571014893d39b6a3e69010a45", "fusion_lat": 0.0, "is_disabled": 0, "rental_uris": {"ios": "https://dc.lft.to/lastmile_qr_scan", "android": "https://dc.lft.to/lastmile_qr_scan"}}, {"name": "f1d2416727de3c3c49b99822bd27bea0", "lon": -76.95961583333333, "lat": 38.89000466666667, "type": "electric_scooter", "fusion_lon": 0.0, "is_reserved": 0, "bike_id": "f1d2416727de3c3c49b99822bd27bea0", "fusion_lat": 0.0, "is_disabled": 0, "rental_uris": {"ios": "https://dc.lft.to/lastmile_qr_scan", "android": "https://dc.lft.to/lastmile_qr_scan"}}, {"name": "390e2b8910d2f4f4658c75de56dab4b7", "lon": -77.04605933333333, "lat": 38.916916666666665, "type": "electric_scooter", "fusion_lon": 0.0, "is_reserved": 0, "bike_id": "390e2b8910d2f4f4658c75de56dab4b7", "fusion_lat": 0.0, "is_disabled": 0, "rental_uris": {"ios": "https://dc.lft.to/lastmile_qr_scan", "android": "https://dc.lft.to/lastmile_qr_scan"}}, {"name": "94a9c2b0814bac87951517a3ea65e948", "lon": -77.021868, "lat": 38.894821, "type": "electric_scooter", "fusion_lon": 0.0, "is_reserved": 0, "bike_id": "94a9c2b0814bac87951517a3ea65e948", "fusion_lat": 0.0, "is_disabled": 0, "rental_uris": {"ios": "https://dc.lft.to/lastmile_qr_scan", "android": "https://dc.lft.to/lastmile_qr_scan"}}, {"name": "7a50c05c0731e007bc49acdec5ef2bdc", "lon": -77.03265316666666, "lat": 38.90717866666667, "type": "electric_scooter", "fusion_lon": 0.0, "is_reserved": 0, "bike_id": "7a50c05c0731e007bc49acdec5ef2bdc", "fusion_lat": 0.0, "is_disabled": 0, "rental_uris": {"ios": "https://dc.lft.to/lastmile_qr_scan", "android": "https://dc.lft.to/lastmile_qr_scan"}}, {"name": "c9d454d57267e6dd9ab1b034a74000d1", "lon": -77.038681, "lat": 38.908346, "type": "electric_scooter", "fusion_lon": 0.0, "is_reserved": 0, "bike_id": "c9d454d57267e6dd9ab1b034a74000d1", "fusion_lat": 0.0, "is_disabled": 0, "rental_uris": {"ios": "https://dc.lft.to/lastmile_qr_scan", "android": "https://dc.lft.to/lastmile_qr_scan"}}, {"name": "ef816df7bf1c5892ed2e27f53d5be997", "lon": -77.03903733333334, "lat": 38.92196716666667, "type": "electric_scooter", "fusion_lon": 0.0, "is_reserved": 0, "bike_id": "ef816df7bf1c5892ed2e27f53d5be997", "fusion_lat": 0.0, "is_disabled": 0, "rental_uris": {"ios": "https://dc.lft.to/lastmile_qr_scan", "android": "https://dc.lft.to/lastmile_qr_scan"}}, {"name": "d87c14da61e1a5b1596a426a60831cc9", "lon": -76.98837233333333, "lat": 38.842818333333334, "type": "electric_bike", "fusion_lon": 0.0, "is_reserved": 0, "bike_id": "d87c14da61e1a5b1596a426a60831cc9", "fusion_lat": 0.0, "is_disabled": 0, "rental_uris": {"ios": "https://dc.lft.to/lastmile_qr_scan", "android": "https://dc.lft.to/lastmile_qr_scan"}}, {"name": "01ea9a2dbc9b7c4a5497f21a1cd419c0", "lon": -77.038393, "lat": 38.9168185, "type": "electric_scooter", "fusion_lon": 0.0, "is_reserved": 0, "bike_id": "01ea9a2dbc9b7c4a5497f21a1cd419c0", "fusion_lat": 0.0, "is_disabled": 0, "rental_uris": {"ios": "https://dc.lft.to/lastmile_qr_scan", "android": "https://dc.lft.to/lastmile_qr_scan"}}, {"name": "3fd7b08bfaab4e945e9bba9d5f5e1bd3", "lon": -77.02671416666666, "lat": 38.89738783333333, "type": "electric_scooter", "fusion_lon": 0.0, "is_reserved": 0, "bike_id": "3fd7b08bfaab4e945e9bba9d5f5e1bd3", "fusion_lat": 0.0, "is_disabled": 0, "rental_uris": {"ios": "https://dc.lft.to/lastmile_qr_scan", "android": "https://dc.lft.to/lastmile_qr_scan"}}, {"name": "454c52a421af59cf94caa0adea1a0fb8", "lon": -77.0367285, "lat": 38.93622883333333, "type": "electric_scooter", "fusion_lon": 0.0, "is_reserved": 0, "bike_id": "454c52a421af59cf94caa0adea1a0fb8", "fusion_lat": 0.0, "is_disabled": 0, "rental_uris": {"ios": "https://dc.lft.to/lastmile_qr_scan", "android": "https://dc.lft.to/lastmile_qr_scan"}}, {"name": "43cd89558815152c125e2bf2c82162ba", "lon": -77.022312, "lat": 38.8921885, "type": "electric_scooter", "fusion_lon": 0.0, "is_reserved": 0, "bike_id": "43cd89558815152c125e2bf2c82162ba", "fusion_lat": 0.0, "is_disabled": 0, "rental_uris": {"ios": "https://dc.lft.to/lastmile_qr_scan", "android": "https://dc.lft.to/lastmile_qr_scan"}}, {"name": "39714ff7281f1830c113571a27f54201", "lon": -77.0280885, "lat": 38.8817155, "type": "electric_scooter", "fusion_lon": 0.0, "is_reserved": 0, "bike_id": "39714ff7281f1830c113571a27f54201", "fusion_lat": 0.0, "is_disabled": 0, "rental_uris": {"ios": "https://dc.lft.to/lastmile_qr_scan", "android": "https://dc.lft.to/lastmile_qr_scan"}}, {"name": "311178bcd96ca28df1f172acef628275", "lon": -77.06926766666666, "lat": 38.907755, "type": "electric_scooter", "fusion_lon": 0.0, "is_reserved": 0, "bike_id": "311178bcd96ca28df1f172acef628275", "fusion_lat": 0.0, "is_disabled": 0, "rental_uris": {"ios": "https://dc.lft.to/lastmile_qr_scan", "android": "https://dc.lft.to/lastmile_qr_scan"}}, {"name": "42ab0ae3107705637fb3b6a889ca8dc3", "lon": -77.04334833333333, "lat": 38.908058, "type": "electric_scooter", "fusion_lon": 0.0, "is_reserved": 0, "bike_id": "42ab0ae3107705637fb3b6a889ca8dc3", "fusion_lat": 0.0, "is_disabled": 0, "rental_uris": {"ios": "https://dc.lft.to/lastmile_qr_scan", "android": "https://dc.lft.to/lastmile_qr_scan"}}, {"name": "0179c868e233485b3e13b4878614bc9d", "lon": -77.01746566666667, "lat": 38.887407, "type": "electric_scooter", "fusion_lon": 0.0, "is_reserved": 0, "bike_id": "0179c868e233485b3e13b4878614bc9d", "fusion_lat": 0.0, "is_disabled": 0, "rental_uris": {"ios": "https://dc.lft.to/lastmile_qr_scan", "android": "https://dc.lft.to/lastmile_qr_scan"}}, {"name": "a87261824ff174d0b0028eeaaf47180e", "lon": -77.039676, "lat": 38.9024955, "type": "electric_scooter", "fusion_lon": 0.0, "is_reserved": 0, "bike_id": "a87261824ff174d0b0028eeaaf47180e", "fusion_lat": 0.0, "is_disabled": 0, "rental_uris": {"ios": "https://dc.lft.to/lastmile_qr_scan", "android": "https://dc.lft.to/lastmile_qr_scan"}}, {"name": "31f0e5f77526aac78fb411fc02b14ae0", "lon": -77.03089016666667, "lat": 38.931681833333336, "type": "electric_scooter", "fusion_lon": 0.0, "is_reserved": 0, "bike_id": "31f0e5f77526aac78fb411fc02b14ae0", "fusion_lat": 0.0, "is_disabled": 0, "rental_uris": {"ios": "https://dc.lft.to/lastmile_qr_scan", "android": "https://dc.lft.to/lastmile_qr_scan"}}, {"name": "623e6a5c7af31dc078cc6ac8f4fd3a02", "lon": -77.04102266666666, "lat": 38.91770433333333, "type": "electric_scooter", "fusion_lon": 0.0, "is_reserved": 0, "bike_id": "623e6a5c7af31dc078cc6ac8f4fd3a02", "fusion_lat": 0.0, "is_disabled": 0, "rental_uris": {"ios": "https://dc.lft.to/lastmile_qr_scan", "android": "https://dc.lft.to/lastmile_qr_scan"}}, {"name": "617e640257141acb64def7843b50bec2", "lon": -77.02136783333333, "lat": 38.93761716666667, "type": "electric_scooter", "fusion_lon": 0.0, "is_reserved": 0, "bike_id": "617e640257141acb64def7843b50bec2", "fusion_lat": 0.0, "is_disabled": 0, "rental_uris": {"ios": "https://dc.lft.to/lastmile_qr_scan", "android": "https://dc.lft.to/lastmile_qr_scan"}}, {"name": "529a42867104e8caa60ff467e685ef21", "lon": -77.04650816666667, "lat": 38.91598283333333, "type": "electric_scooter", "fusion_lon": 0.0, "is_reserved": 0, "bike_id": "529a42867104e8caa60ff467e685ef21", "fusion_lat": 0.0, "is_disabled": 0, "rental_uris": {"ios": "https://dc.lft.to/lastmile_qr_scan", "android": "https://dc.lft.to/lastmile_qr_scan"}}, {"name": "746571e7862cd89eeff76793cae7e1ee", "lon": -77.02206116666666, "lat": 38.886388833333335, "type": "electric_scooter", "fusion_lon": 0.0, "is_reserved": 0, "bike_id": "746571e7862cd89eeff76793cae7e1ee", "fusion_lat": 0.0, "is_disabled": 0, "rental_uris": {"ios": "https://dc.lft.to/lastmile_qr_scan", "android": "https://dc.lft.to/lastmile_qr_scan"}}, {"name": "532443844ba4616143634319df387d12", "lon": -76.993355, "lat": 38.924407333333335, "type": "electric_scooter", "fusion_lon": 0.0, "is_reserved": 0, "bike_id": "532443844ba4616143634319df387d12", "fusion_lat": 0.0, "is_disabled": 0, "rental_uris": {"ios": "https://dc.lft.to/lastmile_qr_scan", "android": "https://dc.lft.to/lastmile_qr_scan"}}, {"name": "e4b378e710ff1a443984312143d4c7d4", "lon": -77.03808866666667, "lat": 38.906509, "type": "electric_scooter", "fusion_lon": 0.0, "is_reserved": 0, "bike_id": "e4b378e710ff1a443984312143d4c7d4", "fusion_lat": 0.0, "is_disabled": 0, "rental_uris": {"ios": "https://dc.lft.to/lastmile_qr_scan", "android": "https://dc.lft.to/lastmile_qr_scan"}}, {"name": "9d0c52ea04672bc65136aeb9ce4173a5", "lon": -77.036663, "lat": 38.91796633333333, "type": "electric_scooter", "fusion_lon": 0.0, "is_reserved": 0, "bike_id": "9d0c52ea04672bc65136aeb9ce4173a5", "fusion_lat": 0.0, "is_disabled": 0, "rental_uris": {"ios": "https://dc.lft.to/lastmile_qr_scan", "android": "https://dc.lft.to/lastmile_qr_scan"}}, {"name": "34b099ac6fcd620190c92b1d584cdbc1", "lon": -77.0347695, "lat": 38.92544133333333, "type": "electric_scooter", "fusion_lon": 0.0, "is_reserved": 0, "bike_id": "34b099ac6fcd620190c92b1d584cdbc1", "fusion_lat": 0.0, "is_disabled": 0, "rental_uris": {"ios": "https://dc.lft.to/lastmile_qr_scan", "android": "https://dc.lft.to/lastmile_qr_scan"}}, {"name": "984e5109bbb876d040009a5a1ad77842", "lon": -77.0370465, "lat": 38.92038733333333, "type": "electric_bike", "fusion_lon": 0.0, "is_reserved": 0, "bike_id": "984e5109bbb876d040009a5a1ad77842", "fusion_lat": 0.0, "is_disabled": 0, "rental_uris": {"ios": "https://dc.lft.to/lastmile_qr_scan", "android": "https://dc.lft.to/lastmile_qr_scan"}}, {"name": "da7e62fa46ac4c6dab61be4c0fa3af0f", "lon": -76.97241683333333, "lat": 38.949042666666664, "type": "electric_bike", "fusion_lon": 0.0, "is_reserved": 0, "bike_id": "da7e62fa46ac4c6dab61be4c0fa3af0f", "fusion_lat": 0.0, "is_disabled": 0, "rental_uris": {"ios": "https://dc.lft.to/lastmile_qr_scan", "android": "https://dc.lft.to/lastmile_qr_scan"}}, {"name": "7f1d966bd5d97f1f02ad393354a20683", "lon": -76.98495533333333, "lat": 38.91506233333333, "type": "electric_scooter", "fusion_lon": 0.0, "is_reserved": 0, "bike_id": "7f1d966bd5d97f1f02ad393354a20683", "fusion_lat": 0.0, "is_disabled": 0, "rental_uris": {"ios": "https://dc.lft.to/lastmile_qr_scan", "android": "https://dc.lft.to/lastmile_qr_scan"}}, {"name": "86351dd0f71124513862eb4957aba0df", "lon": -77.0390365, "lat": 38.922509166666664, "type": "electric_scooter", "fusion_lon": 0.0, "is_reserved": 0, "bike_id": "86351dd0f71124513862eb4957aba0df", "fusion_lat": 0.0, "is_disabled": 0, "rental_uris": {"ios": "https://dc.lft.to/lastmile_qr_scan", "android": "https://dc.lft.to/lastmile_qr_scan"}}, {"name": "3beae5306806c1a43b8488e8022af439", "lon": -77.08587766666666, "lat": 38.8443935, "type": "electric_bike", "fusion_lon": 0.0, "is_reserved": 0, "bike_id": "3beae5306806c1a43b8488e8022af439", "fusion_lat": 0.0, "is_disabled": 0, "rental_uris": {"ios": "https://dc.lft.to/lastmile_qr_scan", "android": "https://dc.lft.to/lastmile_qr_scan"}}, {"name": "c8f5e78a17e69df6319a7d6ba1097d41", "lon": -77.03544083333334, "lat": 38.923996833333334, "type": "electric_scooter", "fusion_lon": 0.0, "is_reserved": 0, "bike_id": "c8f5e78a17e69df6319a7d6ba1097d41", "fusion_lat": 0.0, "is_disabled": 0, "rental_uris": {"ios": "https://dc.lft.to/lastmile_qr_scan", "android": "https://dc.lft.to/lastmile_qr_scan"}}, {"name": "fe969b7807a21555792144fe13848cfe", "lon": -77.03149583333334, "lat": 38.929641833333335, "type": "electric_scooter", "fusion_lon": 0.0, "is_reserved": 0, "bike_id": "fe969b7807a21555792144fe13848cfe", "fusion_lat": 0.0, "is_disabled": 0, "rental_uris": {"ios": "https://dc.lft.to/lastmile_qr_scan", "android": "https://dc.lft.to/lastmile_qr_scan"}}, {"name": "9ba15e98a10f492b5b6a382e57ba81ef", "lon": -77.03491766666667, "lat": 38.93266766666667, "type": "electric_scooter", "fusion_lon": 0.0, "is_reserved": 0, "bike_id": "9ba15e98a10f492b5b6a382e57ba81ef", "fusion_lat": 0.0, "is_disabled": 0, "rental_uris": {"ios": "https://dc.lft.to/lastmile_qr_scan", "android": "https://dc.lft.to/lastmile_qr_scan"}}, {"name": "743d5fa1924bf5fdd56168d47d854b99", "lon": -77.04243466666667, "lat": 38.906474333333335, "type": "electric_scooter", "fusion_lon": 0.0, "is_reserved": 0, "bike_id": "743d5fa1924bf5fdd56168d47d854b99", "fusion_lat": 0.0, "is_disabled": 0, "rental_uris": {"ios": "https://dc.lft.to/lastmile_qr_scan", "android": "https://dc.lft.to/lastmile_qr_scan"}}, {"name": "1d4e1acf63a7bde620fc1bde38dc2a46", "lon": -77.01895533333334, "lat": 38.91384333333333, "type": "electric_scooter", "fusion_lon": 0.0, "is_reserved": 0, "bike_id": "1d4e1acf63a7bde620fc1bde38dc2a46", "fusion_lat": 0.0, "is_disabled": 0, "rental_uris": {"ios": "https://dc.lft.to/lastmile_qr_scan", "android": "https://dc.lft.to/lastmile_qr_scan"}}, {"name": "7d1d9e9419e97ede01e3879be219d3bf", "lon": -77.027439, "lat": 38.9241445, "type": "electric_scooter", "fusion_lon": 0.0, "is_reserved": 0, "bike_id": "7d1d9e9419e97ede01e3879be219d3bf", "fusion_lat": 0.0, "is_disabled": 0, "rental_uris": {"ios": "https://dc.lft.to/lastmile_qr_scan", "android": "https://dc.lft.to/lastmile_qr_scan"}}, {"name": "f48954bfe83d2f401bb93554b7c3918d", "lon": -77.05430733333333, "lat": 38.923427833333335, "type": "electric_scooter", "fusion_lon": 0.0, "is_reserved": 0, "bike_id": "f48954bfe83d2f401bb93554b7c3918d", "fusion_lat": 0.0, "is_disabled": 0, "rental_uris": {"ios": "https://dc.lft.to/lastmile_qr_scan", "android": "https://dc.lft.to/lastmile_qr_scan"}}, {"name": "0ca4c34e6fe30ff88ad495edca81613a", "lon": -77.02733566666667, "lat": 38.9276565, "type": "electric_scooter", "fusion_lon": 0.0, "is_reserved": 0, "bike_id": "0ca4c34e6fe30ff88ad495edca81613a", "fusion_lat": 0.0, "is_disabled": 0, "rental_uris": {"ios": "https://dc.lft.to/lastmile_qr_scan", "android": "https://dc.lft.to/lastmile_qr_scan"}}, {"name": "c757dc13fa5ac429eddb24d4fbc8cc4d", "lon": -77.0229935, "lat": 38.8949675, "type": "electric_scooter", "fusion_lon": 0.0, "is_reserved": 0, "bike_id": "c757dc13fa5ac429eddb24d4fbc8cc4d", "fusion_lat": 0.0, "is_disabled": 0, "rental_uris": {"ios": "https://dc.lft.to/lastmile_qr_scan", "android": "https://dc.lft.to/lastmile_qr_scan"}}, {"name": "c040fb5b1eb235d877a91d73fcd219bb", "lon": -77.035425, "lat": 38.923195666666665, "type": "electric_scooter", "fusion_lon": 0.0, "is_reserved": 0, "bike_id": "c040fb5b1eb235d877a91d73fcd219bb", "fusion_lat": 0.0, "is_disabled": 0, "rental_uris": {"ios": "https://dc.lft.to/lastmile_qr_scan", "android": "https://dc.lft.to/lastmile_qr_scan"}}, {"name": "a24cc623ef255fb660c338e5a87f85fd", "lon": -77.0209185, "lat": 38.929992, "type": "electric_scooter", "fusion_lon": 0.0, "is_reserved": 0, "bike_id": "a24cc623ef255fb660c338e5a87f85fd", "fusion_lat": 0.0, "is_disabled": 0, "rental_uris": {"ios": "https://dc.lft.to/lastmile_qr_scan", "android": "https://dc.lft.to/lastmile_qr_scan"}}, {"name": "ca7902226a6d6f03aadb2f30724bf339", "lon": -77.04485016666666, "lat": 38.91245116666666, "type": "electric_scooter", "fusion_lon": 0.0, "is_reserved": 0, "bike_id": "ca7902226a6d6f03aadb2f30724bf339", "fusion_lat": 0.0, "is_disabled": 0, "rental_uris": {"ios": "https://dc.lft.to/lastmile_qr_scan", "android": "https://dc.lft.to/lastmile_qr_scan"}}, {"name": "a029190f986fa4f21309b8b6b6969d3e", "lon": -77.02982683333333, "lat": 38.92441916666667, "type": "electric_scooter", "fusion_lon": 0.0, "is_reserved": 0, "bike_id": "a029190f986fa4f21309b8b6b6969d3e", "fusion_lat": 0.0, "is_disabled": 0, "rental_uris": {"ios": "https://dc.lft.to/lastmile_qr_scan", "android": "https://dc.lft.to/lastmile_qr_scan"}}, {"name": "e4c8a99ab781d785d362eb45778ef0e1", "lon": -77.02202733333333, "lat": 38.905827333333335, "type": "electric_scooter", "fusion_lon": 0.0, "is_reserved": 0, "bike_id": "e4c8a99ab781d785d362eb45778ef0e1", "fusion_lat": 0.0, "is_disabled": 0, "rental_uris": {"ios": "https://dc.lft.to/lastmile_qr_scan", "android": "https://dc.lft.to/lastmile_qr_scan"}}, {"name": "5c503780f2487a8524e5f7392bd65a9d", "lon": -77.038327, "lat": 38.911239, "type": "electric_scooter", "fusion_lon": 0.0, "is_reserved": 0, "bike_id": "5c503780f2487a8524e5f7392bd65a9d", "fusion_lat": 0.0, "is_disabled": 0, "rental_uris": {"ios": "https://dc.lft.to/lastmile_qr_scan", "android": "https://dc.lft.to/lastmile_qr_scan"}}, {"name": "77e26a1364d3b0f2beae2633bdd50209", "lon": -77.0363915, "lat": 38.91579683333333, "type": "electric_scooter", "fusion_lon": 0.0, "is_reserved": 0, "bike_id": "77e26a1364d3b0f2beae2633bdd50209", "fusion_lat": 0.0, "is_disabled": 0, "rental_uris": {"ios": "https://dc.lft.to/lastmile_qr_scan", "android": "https://dc.lft.to/lastmile_qr_scan"}}, {"name": "5440d4821e46ac73db19c24dc656434f", "lon": -76.98713266666667, "lat": 38.866975333333336, "type": "electric_scooter", "fusion_lon": 0.0, "is_reserved": 0, "bike_id": "5440d4821e46ac73db19c24dc656434f", "fusion_lat": 0.0, "is_disabled": 0, "rental_uris": {"ios": "https://dc.lft.to/lastmile_qr_scan", "android": "https://dc.lft.to/lastmile_qr_scan"}}, {"name": "1b344416b9a81a367a0df02ab80f7daa", "lon": -77.05119, "lat": 38.8996445, "type": "electric_scooter", "fusion_lon": 0.0, "is_reserved": 0, "bike_id": "1b344416b9a81a367a0df02ab80f7daa", "fusion_lat": 0.0, "is_disabled": 0, "rental_uris": {"ios": "https://dc.lft.to/lastmile_qr_scan", "android": "https://dc.lft.to/lastmile_qr_scan"}}, {"name": "81000d7b92c9b1e62c39415338098fca", "lon": -77.05396216666666, "lat": 38.9281895, "type": "electric_scooter", "fusion_lon": 0.0, "is_reserved": 0, "bike_id": "81000d7b92c9b1e62c39415338098fca", "fusion_lat": 0.0, "is_disabled": 0, "rental_uris": {"ios": "https://dc.lft.to/lastmile_qr_scan", "android": "https://dc.lft.to/lastmile_qr_scan"}}, {"name": "95e441f706d62f5305c91c0c66b4de25", "lon": -77.02371966666666, "lat": 38.892201166666666, "type": "electric_scooter", "fusion_lon": 0.0, "is_reserved": 0, "bike_id": "95e441f706d62f5305c91c0c66b4de25", "fusion_lat": 0.0, "is_disabled": 0, "rental_uris": {"ios": "https://dc.lft.to/lastmile_qr_scan", "android": "https://dc.lft.to/lastmile_qr_scan"}}, {"name": "0961ac2aae37acd445ba1d532a3dab47", "lon": -77.03661933333333, "lat": 38.9175335, "type": "electric_scooter", "fusion_lon": 0.0, "is_reserved": 0, "bike_id": "0961ac2aae37acd445ba1d532a3dab47", "fusion_lat": 0.0, "is_disabled": 0, "rental_uris": {"ios": "https://dc.lft.to/lastmile_qr_scan", "android": "https://dc.lft.to/lastmile_qr_scan"}},