{"data": {"bikes": [{"name": "fd723ad8c3935fea4ee8987737f7ca91", "fusion_lat": 0.0, "type": "electric_scooter", "lat": 38.93089333333333, "is_reserved": 0, "is_disabled": 0, "fusion_lon": 0.0, "bike_id": "fd723ad8c3935fea4ee8987737f7ca91", "lon": -77.024169, "rental_uris": {"ios": "https://dc.lft.to/lastmile_qr_scan", "android": "https://dc.lft.to/lastmile_qr_scan"}}, {"name": "38e08c647633a0b82d6f0ae8ed858ee4", "fusion_lat": 0.0, "type": "electric_scooter", "lat": 38.91817916666667, "is_reserved": 0, "is_disabled": 0, "fusion_lon": 0.0, "bike_id": "38e08c647633a0b82d6f0ae8ed858ee4", "lon": -77.04011916666667, "rental_uris": {"ios": "https://dc.lft.to/lastmile_qr_scan", "android": "https://dc.lft.to/lastmile_qr_scan"}}, {"name": "6e811ed0f8f3ee7ae3a07468bc34483f", "fusion_lat": 0.0, "type": "electric_scooter", "lat": 38.9180015, "is_reserved": 0, "is_disabled": 0, "fusion_lon": 0.0, "bike_id": "6e811ed0f8f3ee7ae3a07468bc34483f", "lon": -77.028124, "rental_uris": {"ios": "https://dc.lft.to/lastmile_qr_scan", "android": "https://dc.lft.to/lastmile_qr_scan"}}, {"name": "a5736e3fc2aba9361dc480c796df0066", "fusion_lat": 0.0, "type": "electric_bike", "lat": 38.838120833333335, "is_reserved": 0, "is_disabled": 0, "fusion_lon": 0.0, "bike_id": "a5736e3fc2aba9361dc480c796df0066", "lon": -77.09524566666667, "rental_uris": {"ios": "https://dc.lft.to/lastmile_qr_scan", "android": "https://dc.lft.to/lastmile_qr_scan"}}, {"name": "8e1532695bcb023a619ca3e35ee225f8", "fusion_lat": 0.0, "type": "electric_bike", "lat": 38.973249, "is_reserved": 0, "is_disabled": 0, "fusion_lon": 0.0, "bike_id": "8e1532695bcb023a619ca3e35ee225f8", "lon": -77.0215045, "rental_uris": {"ios": "https://dc.lft.to/lastmile_qr_scan", "android": "https://dc.lft.to/lastmile_qr_scan"}}, {"name": "23a5fb4eba6d03c550d67c5a3e6d5fd0", "fusion_lat": 0.0, "type": "electric_scooter", "lat": 38.93429483333333, "is_reserved": 0, "is_disabled": 0, "fusion_lon": 0.0, "bike_id": "23a5fb4eba6d03c550d67c5a3e6d5fd0", "lon": -77.04006066666666, "rental_uris": {"ios": "https://dc.lft.to/lastmile_qr_scan", "android": "https://dc.lft.to/lastmile_qr_scan"}}, {"name": "294534740ef1acf5f1561013adbed87d", "fusion_lat": 0.0, "type": "electric_scooter", "lat": 38.874732, "is_reserved": 0, "is_disabled": 0, "fusion_lon": 0.0, "bike_id": "294534740ef1acf5f1561013adbed87d", "lon": -77.001784, "rental_uris": {"ios": "https://dc.lft.to/lastmile_qr_scan", "android": "https://dc.lft.to/lastmile_qr_scan"}}, {"name": "da49a56eeeb82497a88ba1e8b5b86faf", "fusion_lat": 0.0, "type": "electric_bike", "lat": 38.97064566666667, "is_reserved": 0, "is_disabled": 0, "fusion_lon": 0.0, "bike_id": "da49a56eeeb82497a88ba1e8b5b86faf", "lon": -76.93622683333334, "rental_uris": {"ios": "https://dc.lft.to/lastmile_qr_scan", "android": "https://dc.lft.to/lastmile_qr_scan"}}, {"name": "a5ab89cbd618a2f2df479f2a2245c73f", "fusion_lat": 0.0, "type": "electric_bike", "lat": 38.902889, "is_reserved": 0, "is_disabled": 0, "fusion_lon": 0.0, "bike_id": "a5ab89cbd618a2f2df479f2a2245c73f", "lon": -76.98084366666667, "rental_uris": {"ios": "https://dc.lft.to/lastmile_qr_scan", "android": "https://dc.lft.to/lastmile_qr_scan"}}, {"name": "f0bcd51f65bfbc5224305c44b3d9ab34", "fusion_lat": 0.0, "type": "electric_scooter", "lat": 38.90135166666666, "is_reserved": 0, "is_disabled": 0, "fusion_lon": 0.0, "bike_id": "f0bcd51f65bfbc5224305c44b3d9ab34", "lon": -76.99968133333333, "rental_uris": {"ios": "https://dc.lft.to/lastmile_qr_scan", "android": "https://dc.lft.to/lastmile_qr_scan"}}, {"name": "9ee011fc51a11eaa430028797ce8257d", "fusion_lat": 0.0, "type": "electric_bike", "lat": 38.8398885, "is_reserved": 0, "is_disabled": 0, "fusion_lon": 0.0, "bike_id": "9ee011fc51a11eaa430028797ce8257d", "lon": -77.0056465, "rental_uris": {"ios": "https://dc.lft.to/lastmile_qr_scan", "android": "https://dc.lft.to/lastmile_qr_scan"}}, {"name": "71f6b6c95f2948f9e30d3daaf8d1d9b7", "fusion_lat": 0.0, "type": "electric_scooter", "lat": 38.88599083333333, "is_reserved": 0, "is_disabled": 0, "fusion_lon": 0.0, "bike_id": "71f6b6c95f2948f9e30d3daaf8d1d9b7", "lon": -77.022057, "rental_uris": {"ios": "https://dc.lft.to/lastmile_qr_scan", "android": "https://dc.lft.to/lastmile_qr_scan"}}, {"name": "b2ef447aa0c1c471fa644fa070181a01", "fusion_lat": 0.0, "type": "electric_scooter", "lat": 38.90605166666667, "is_reserved": 0, "is_disabled": 0, "fusion_lon": 0.0, "bike_id": "b2ef447aa0c1c471fa644fa070181a01", "lon": -77.04693616666667, "rental_uris": {"ios": "https://dc.lft.to/lastmile_qr_scan", "android": "https://dc.lft.to/lastmile_qr_scan"}}, {"name": "3a003fd5173b31aceecfa033de22f3fd", "fusion_lat": 0.0, "type": "electric_scooter", "lat": 38.8992425, "is_reserved": 0, "is_disabled": 0, "fusion_lon": 0.0, "bike_id": "3a003fd5173b31aceecfa033de22f3fd", "lon": -77.05296416666667, "rental_uris": {"ios": "https://dc.lft.to/lastmile_qr_scan", "android": "https://dc.lft.to/lastmile_qr_scan"}}, {"name": "49cad5aaa0e21cd8490753d9b3e19438", "fusion_lat": 0.0, "type": "electric_scooter", "lat": 38.9431695, "is_reserved": 0, "is_disabled": 0, "fusion_lon": 0.0, "bike_id": "49cad5aaa0e21cd8490753d9b3e19438", "lon": -77.0247845, "rental_uris": {"ios": "https://dc.lft.to/lastmile_qr_scan", "android": "https://dc.lft.to/lastmile_qr_scan"}}, {"name": "4e65633115cba29841e70ca223cb2816", "fusion_lat": 0.0, "type": "electric_scooter", "lat": 38.9003635, "is_reserved": 0, "is_disabled": 0, "fusion_lon": 0.0, "bike_id": "4e65633115cba29841e70ca223cb2816", "lon": -76.98843733333334, "rental_uris": {"ios": "https://dc.lft.to/lastmile_qr_scan", "android": "https://dc.lft.to/lastmile_qr_scan"}}, {"name": "670d5f7c50d406a9e3296248fa905e1d", "fusion_lat": 0.0, "type": "electric_scooter", "lat": 38.86244416666667, "is_reserved": 0, "is_disabled": 0, "fusion_lon": 0.0, "bike_id": "670d5f7c50d406a9e3296248fa905e1d", "lon": -76.994946, "rental_uris": {"ios": "https://dc.lft.to/lastmile_qr_scan", "android": "https://dc.lft.to/lastmile_qr_scan"}}, {"name": "4f17cb204ca8ef0dc16b289224267488", "fusion_lat": 0.0, "type": "electric_bike", "lat": 38.8839415, "is_reserved": 0, "is_disabled": 0, "fusion_lon": 0.0, "bike_id": "4f17cb204ca8ef0dc16b289224267488", "lon": -76.9854315, "rental_uris": {"ios": "https://dc.lft.to/lastmile_qr_scan", "android": "https://dc.lft.to/lastmile_qr_scan"}}, {"name": "d4ead45a5d452717770ba2274355ad4a", "fusion_lat": 0.0, "type": "electric_scooter", "lat": 38.932542166666664, "is_reserved": 0, "is_disabled": 0, "fusion_lon": 0.0, "bike_id": "d4ead45a5d452717770ba2274355ad4a", "lon": -77.04008483333334, "rental_uris": {"ios": "https://dc.lft.to/lastmile_qr_scan", "android": "https://dc.lft.to/lastmile_qr_scan"}}, {"name": "8a2992a4a51f5e51b10d207c3af07601", "fusion_lat": 0.0, "type": "electric_scooter", "lat": 38.88501616666667, "is_reserved": 0, "is_disabled": 0, "fusion_lon": 0.0, "bike_id": "8a2992a4a51f5e51b10d207c3af07601", "lon": -77.00566916666666, "rental_uris": {"ios": "https://dc.lft.to/lastmile_qr_scan", "android": "https://dc.lft.to/lastmile_qr_scan"}}, {"name": "a5c89f512b649ee16e87dca21ee6dbaa", "fusion_lat": 0.0, "type": "electric_scooter", "lat": 38.92977916666667, "is_reserved": 0, "is_disabled": 0, "fusion_lon": 0.0, "bike_id": "a5c89f512b649ee16e87dca21ee6dbaa", "lon": -77.014497, "rental_uris": {"ios": "https://dc.lft.to/lastmile_qr_scan", "android": "https://dc.lft.to/lastmile_qr_scan"}}, {"name": "dd092a5d9c71b555860897b83bbba13a", "fusion_lat": 0.0, "type": "electric_scooter", "lat": 38.93234483333333, "is_reserved": 0, "is_disabled": 0, "fusion_lon": 0.0, "bike_id": "dd092a5d9c71b555860897b83bbba13a", "lon": -77.03591333333334, "rental_uris": {"ios": "https://dc.lft.to/lastmile_qr_scan", "android": "https://dc.lft.to/lastmile_qr_scan"}}, {"name": "d0a3d08c285403b218c3f4d478764c2d", "fusion_lat": 0.0, "type": "electric_bike", "lat": 38.92106966666667, "is_reserved": 0, "is_disabled": 0, "fusion_lon": 0.0, "bike_id": "d0a3d08c285403b218c3f4d478764c2d", "lon": -77.06328933333333, "rental_uris": {"ios": "https://dc.lft.to/lastmile_qr_scan", "android": "https://dc.lft.to/lastmile_qr_scan"}}, {"name": "cc8856450ed94ea759a536360d5fd2de", "fusion_lat": 0.0, "type": "electric_scooter", "lat": 38.94290733333333, "is_reserved": 0, "is_disabled": 0, "fusion_lon": 0.0, "bike_id": "cc8856450ed94ea759a536360d5fd2de", "lon": -77.0217095, "rental_uris": {"ios": "https://dc.lft.to/lastmile_qr_scan", "android": "https://dc.lft.to/lastmile_qr_scan"}}, {"name": "dc0cc5de5e5b5483ecb1496e964e4424", "fusion_lat": 0.0, "type": "electric_scooter", "lat": 38.907981166666666, "is_reserved": 0, "is_disabled": 0, "fusion_lon": 0.0, "bike_id": "dc0cc5de5e5b5483ecb1496e964e4424", "lon": -77.0481935, "rental_uris": {"ios": "https://dc.lft.to/lastmile_qr_scan", "android": "https://dc.lft.to/lastmile_qr_scan"}}, {"name": "f429d52b5ad07b55226349aca7b7b319", "fusion_lat": 0.0, "type": "electric_scooter", "lat": 38.930088166666664, "is_reserved": 0, "is_disabled": 0, "fusion_lon": 0.0, "bike_id": "f429d52b5ad07b55226349aca7b7b319", "lon": -77.02312983333333, "rental_uris": {"ios": "https://dc.lft.to/lastmile_qr_scan", "android": "https://dc.lft.to/lastmile_qr_scan"}}, {"name": "d8594a7cf0c3f1cadf6f0e123879e49b", "fusion_lat": 0.0, "type": "electric_scooter", "lat": 38.92121083333333, "is_reserved": 0, "is_disabled": 0, "fusion_lon": 0.0, "bike_id": "d8594a7cf0c3f1cadf6f0e123879e49b", "lon": -77.0319665, "rental_uris": {"ios": "https://dc.lft.to/lastmile_qr_scan", "android": "https://dc.lft.to/lastmile_qr_scan"}}, {"name": "6b19b54f8c5a795c90f433ed8873b475", "fusion_lat": 0.0, "type": "electric_scooter", "lat": 38.87801116666667, "is_reserved": 0, "is_disabled": 0, "fusion_lon": 0.0, "bike_id": "6b19b54f8c5a795c90f433ed8873b475", "lon": -77.00556233333333, "rental_uris": {"ios": "https://dc.lft.to/lastmile_qr_scan", "android": "https://dc.lft.to/lastmile_qr_scan"}}, {"name": "f060dca627e77b9748eb3ff0984f0522", "fusion_lat": 0.0, "type": "electric_scooter", "lat": 38.91704766666667, "is_reserved": 0, "is_disabled": 0, "fusion_lon": 0.0, "bike_id": "f060dca627e77b9748eb3ff0984f0522", "lon": -77.0291245, "rental_uris": {"ios": "https://dc.lft.to/lastmile_qr_scan", "android": "https://dc.lft.to/lastmile_qr_scan"}}, {"name": "8cf69235da091e1057634fc75132afdb", "fusion_lat": 0.0, "type": "electric_scooter", "lat": 38.897352, "is_reserved": 0, "is_disabled": 0, "fusion_lon": 0.0, "bike_id": "8cf69235da091e1057634fc75132afdb", "lon": -76.942509, "rental_uris": {"ios": "https://dc.lft.to/lastmile_qr_scan", "android": "https://dc.lft.to/lastmile_qr_scan"}}, {"name": "693aeab5293559f63f0c80a2057066e1", "fusion_lat": 0.0, "type": "electric_bike", "lat": 38.9325075, "is_reserved": 0, "is_disabled": 0, "fusion_lon": 0.0, "bike_id": "693aeab5293559f63f0c80a2057066e1", "lon": -77.06658133333333, "rental_uris": {"ios": "https://dc.lft.to/lastmile_qr_scan", "android": "https://dc.lft.to/lastmile_qr_scan"}}, {"name": "ebdd263c462e5632864f59e1a8e68732", "fusion_lat": 0.0, "type": "electric_scooter", "lat": 38.91989433333333, "is_reserved": 0, "is_disabled": 0, "fusion_lon": 0.0, "bike_id": "ebdd263c462e5632864f59e1a8e68732", "lon": -76.97305816666666, "rental_uris": {"ios": "https://dc.lft.to/lastmile_qr_scan", "android": "https://dc.lft.to/lastmile_qr_scan"}}, {"name": "db3cd4cabd8b59fa8ed940c24d2d6b5b", "fusion_lat": 0.0, "type": "electric_scooter", "lat": 38.8636685, "is_reserved": 0, "is_disabled": 0, "fusion_lon": 0.0, "bike_id": "db3cd4cabd8b59fa8ed940c24d2d6b5b", "lon": -77.01366616666667, "rental_uris": {"ios": "https://dc.lft.to/lastmile_qr_scan", "android": "https://dc.lft.to/lastmile_qr_scan"}}, {"name": "6ad4e9f23bf0cc341298043d3e915a99", "fusion_lat": 0.0, "type": "electric_scooter", "lat": 38.921385, "is_reserved": 0, "is_disabled": 0, "fusion_lon": 0.0, "bike_id": "6ad4e9f23bf0cc341298043d3e915a99", "lon": -77.04344483333334, "rental_uris": {"ios": "https://dc.lft.to/lastmile_qr_scan", "android": "https://dc.lft.to/lastmile_qr_scan"}}, {"name": "2b1ce27dd20e532fab24648dbddf3f94", "fusion_lat": 0.0, "type": "electric_scooter", "lat": 38.906365666666666, "is_reserved": 0, "is_disabled": 0, "fusion_lon": 0.0, "bike_id": "2b1ce27dd20e532fab24648dbddf3f94", "lon": -76.98566266666667, "rental_uris": {"ios": "https://dc.lft.to/lastmile_qr_scan", "android": "https://dc.lft.to/lastmile_qr_scan"}}, {"name": "e8128fc8c187433d9089b23399684cde", "fusion_lat": 0.0, "type": "electric_scooter", "lat": 38.9231495, "is_reserved": 0, "is_disabled": 0, "fusion_lon": 0.0, "bike_id": "e8128fc8c187433d9089b23399684cde", "lon": -77.02985216666667, "rental_uris": {"ios": "https://dc.lft.to/lastmile_qr_scan", "android": "https://dc.lft.to/lastmile_qr_scan"}}, {"name": "649b84a1deb528a460419e01c74b3acb", "fusion_lat": 0.0, "type": "electric_bike", "lat": 38.917689, "is_reserved": 0, "is_disabled": 0, "fusion_lon": 0.0, "bike_id": "649b84a1deb528a460419e01c74b3acb", "lon": -76.97332633333333, "rental_uris": {"ios": "https://dc.lft.to/lastmile_qr_scan", "android": "https://dc.lft.to/lastmile_qr_scan"}}, {"name": "a591f8307fae8011499e92a242d5df95", "fusion_lat": 0.0, "type": "electric_scooter", "lat": 38.879136, "is_reserved": 0, "is_disabled": 0, "fusion_lon": 0.0, "bike_id": "a591f8307fae8011499e92a242d5df95", "lon": -77.02231183333333, "rental_uris": {"ios": "https://dc.lft.to/lastmile_qr_scan", "android": "https://dc.lft.to/lastmile_qr_scan"}}, {"name": "a93ebb533682c8862fb928887dc04ead", "fusion_lat": 0.0, "type": "electric_scooter", "lat": 38.91050366666666, "is_reserved": 0, "is_disabled": 0, "fusion_lon": 0.0, "bike_id": "a93ebb533682c8862fb928887dc04ead", "lon": -77.04362983333333, "rental_uris": {"ios": "https://dc.lft.to/lastmile_qr_scan", "android": "https://dc.lft.to/lastmile_qr_scan"}}, {"name": "a8f73c48d7ec019c97e5394a1b00194d", "fusion_lat": 0.0, "type": "electric_scooter", "lat": 38.90290916666667, "is_reserved": 0, "is_disabled": 0, "fusion_lon": 0.0, "bike_id": "a8f73c48d7ec019c97e5394a1b00194d", "lon": -77.0580315, "rental_uris": {"ios": "https://dc.lft.to/lastmile_qr_scan", "android": "https://dc.lft.to/lastmile_qr_scan"}}, {"name": "d7165c00cf61b872caccd774037f39e6", "fusion_lat": 0.0, "type": "electric_bike", "lat": 38.824442, "is_reserved": 0, "is_disabled": 0, "fusion_lon": 0.0, "bike_id": "d7165c00cf61b872caccd774037f39e6", "lon": -77.0704705, "rental_uris": {"ios": "https://dc.lft.to/lastmile_qr_scan", "android": "https://dc.lft.to/lastmile_qr_scan"}}, {"name": "d04efa82a445c253e06f7af6b4665583", "fusion_lat": 0.0, "type": "electric_scooter", "lat": 38.842884166666664, "is_reserved": 0, "is_disabled": 0, "fusion_lon": 0.0, "bike_id": "d04efa82a445c253e06f7af6b4665583", "lon": -76.99944466666666, "rental_uris": {"ios": "https://dc.lft.to/lastmile_qr_scan", "android": "https://dc.lft.to/lastmile_qr_scan"}}, {"name": "5cd10d2c03c1da8492018cdffc13af31", "fusion_lat": 0.0, "type": "electric_scooter", "lat": 38.88430983333333, "is_reserved": 0, "is_disabled": 0, "fusion_lon": 0.0, "bike_id": "5cd10d2c03c1da8492018cdffc13af31", "lon": -77.03045933333334, "rental_uris": {"ios": "https://dc.lft.to/lastmile_qr_scan", "android": "https://dc.lft.to/lastmile_qr_scan"}}, {"name": "7242ff3b3ef31c68fa90cd0dc913006a", "fusion_lat": 0.0, "type": "electric_scooter", "lat": 38.91806833333333, "is_reserved": 0, "is_disabled": 0, "fusion_lon": 0.0, "bike_id": "7242ff3b3ef31c68fa90cd0dc913006a", "lon": -77.03435333333333, "rental_uris": {"ios": "https://dc.lft.to/lastmile_qr_scan", "android": "https://dc.lft.to/lastmile_qr_scan"}}, {"name": "55940e15c58e0661910cc5a410fccbac", "fusion_lat": 0.0, "type": "electric_scooter", "lat": 38.92204016666667, "is_reserved": 0, "is_disabled": 0, "fusion_lon": 0.0, "bike_id": "55940e15c58e0661910cc5a410fccbac", "lon": -77.04126783333334, "rental_uris": {"ios": "https://dc.lft.to/lastmile_qr_scan", "android": "https://dc.lft.to/lastmile_qr_scan"}}, {"name": "40afa7b549e3d3c3198b2633402a87cc", "fusion_lat": 0.0, "type": "electric_scooter", "lat": 38.902709, "is_reserved": 0, "is_disabled": 0, "fusion_lon": 0.0, "bike_id": "40afa7b549e3d3c3198b2633402a87cc", "lon": -76.9985085, "rental_uris": {"ios": "https://dc.lft.to/lastmile_qr_scan", "android": "https://dc.lft.to/lastmile_qr_scan"}}, {"name": "2f3ead3ad32bf7eed44ee745f9b8c2cb", "fusion_lat": 0.0, "type": "electric_scooter", "lat": 38.895337, "is_reserved": 0, "is_disabled": 0, "fusion_lon": 0.0, "bike_id": "2f3ead3ad32bf7eed44ee745f9b8c2cb", "lon": -77.04288033333333, "rental_uris": {"ios": "https://dc.lft.to/lastmile_qr_scan", "android": "https://dc.lft.to/lastmile_qr_scan"}}, {"name": "f8cee81472aa35bcbbb15dc92b2e2fdf", "fusion_lat": 0.0, "type": "electric_scooter", "lat": 38.911240666666664, "is_reserved": 0, "is_disabled": 0, "fusion_lon": 0.0, "bike_id": "f8cee81472aa35bcbbb15dc92b2e2fdf", "lon": -77.02201666666667, "rental_uris": {"ios": "https://dc.lft.to/lastmile_qr_scan", "android": "https://dc.lft.to/lastmile_qr_scan"}}, {"name": "4e446541ece956feda7fc59885e82972", "fusion_lat": 0.0, "type": "electric_scooter", "lat": 38.9187085, "is_reserved": 0, "is_disabled": 0, "fusion_lon": 0.0, "bike_id": "4e446541ece956feda7fc59885e82972", "lon": -77.03666633333333, "rental_uris": {"ios": "https://dc.lft.to/lastmile_qr_scan", "android": "https://dc.lft.to/lastmile_qr_scan"}}, {"name": "59499eb93293f926a481278dea3b6f0e", "fusion_lat": 0.0, "type": "electric_scooter", "lat": 38.90156483333333, "is_reserved": 0, "is_disabled": 0, "fusion_lon": 0.0, "bike_id": "59499eb93293f926a481278dea3b6f0e", "lon": -76.9306465, "rental_uris": {"ios": "https://dc.lft.to/lastmile_qr_scan", "android": "https://dc.lft.to/lastmile_qr_scan"}}, {"name": "e902ff55598750de00810ae761879030", "fusion_lat": 0.0, "type": "electric_scooter", "lat": 38.88656133333333, "is_reserved": 0, "is_disabled": 0, "fusion_lon": 0.0, "bike_id": "e902ff55598750de00810ae761879030", "lon": -77.01372933333333, "rental_uris": {"ios": "https://dc.lft.to/lastmile_qr_scan", "android": "https://dc.lft.to/lastmile_qr_scan"}}, {"name": "afa87e19950f195478399ed41470b8df", "fusion_lat": 0.0, "type": "electric_bike", "lat": 38.906839833333336, "is_reserved": 0, "is_disabled": 0, "fusion_lon": 0.0, "bike_id": "afa87e19950f195478399ed41470b8df", "lon": -76.95185733333334, "rental_uris": {"ios": "https://dc.lft.to/lastmile_qr_scan", "android": "https://dc.lft.to/lastmile_qr_scan"}}, {"name": "d3cb434d534fb4107bdfa34a02d94ed8", "fusion_lat": 0.0, "type": "electric_scooter", "lat": 38.90957733333333, "is_reserved": 0, "is_disabled": 0, "fusion_lon": 0.0, "bike_id": "d3cb434d534fb4107bdfa34a02d94ed8", "lon": -77.02382866666666, "rental_uris": {"ios": "https://dc.lft.to/lastmile_qr_scan", "android": "https://dc.lft.to/lastmile_qr_scan"}}, {"name": "b2e872de19cf94c769b6a72126d527e1", "fusion_lat": 0.0, "type": "electric_scooter", "lat": 38.95274783333333, "is_reserved": 0, "is_disabled": 0, "fusion_lon": 0.0, "bike_id": "b2e872de19cf94c769b6a72126d527e1", "lon": -77.07146033333333, "rental_uris": {"ios": "https://dc.lft.to/lastmile_qr_scan", "android": "https://dc.lft.to/lastmile_qr_scan"}}, {"name": "c4f685018b7589b108d62ff71815fac9", "fusion_lat": 0.0, "type": "electric_scooter", "lat": 38.916950666666665, "is_reserved": 0, "is_disabled": 0, "fusion_lon": 0.0, "bike_id": "c4f685018b7589b108d62ff71815fac9", "lon": -77.03143333333334, "rental_uris": {"ios": "https://dc.lft.to/lastmile_qr_scan", "android": "https://dc.lft.to/lastmile_qr_scan"}}, {"name": "ca11f7f05a8ef7115ff5e6208332e9ed", "fusion_lat": 0.0, "type": "electric_bike", "lat": 38.802284666666665, "is_reserved": 0, "is_disabled": 0, "fusion_lon": 0.0, "bike_id": "ca11f7f05a8ef7115ff5e6208332e9ed", "lon": -77.079138, "rental_uris": {"ios": "https://dc.lft.to/lastmile_qr_scan", "android": "https://dc.lft.to/lastmile_qr_scan"}}, {"name": "a08c5f32b9f1aaee9412b45c5cd4353a", "fusion_lat": 0.0, "type": "electric_scooter", "lat": 38.915786833333335, "is_reserved": 0, "is_disabled": 0, "fusion_lon": 0.0, "bike_id": "a08c5f32b9f1aaee9412b45c5cd4353a", "lon": -77.04670183333333, "rental_uris": {"ios": "https://dc.lft.to/lastmile_qr_scan", "android": "https://dc.lft.to/lastmile_qr_scan"}}, {"name": "f4757f750379e54d438e6e2c825ca67b", "fusion_lat": 0.0, "type": "electric_scooter", "lat": 38.906105, "is_reserved": 0, "is_disabled": 0, "fusion_lon": 0.0, "bike_id": "f4757f750379e54d438e6e2c825ca67b", "lon": -77.02408216666667, "rental_uris": {"ios": "https://dc.lft.to/lastmile_qr_scan", "android": "https://dc.lft.to/lastmile_qr_scan"}}, {"name": "ccc934dd669ce7d5dc2fbf6be4e3910a", "fusion_lat": 0.0, "type": "electric_scooter", "lat": 38.903517, "is_reserved": 0, "is_disabled": 0, "fusion_lon": 0.0, "bike_id": "ccc934dd669ce7d5dc2fbf6be4e3910a", "lon": -77.01104233333334, "rental_uris": {"ios": "https://dc.lft.to/lastmile_qr_scan", "android": "https://dc.lft.to/lastmile_qr_scan"}}, {"name": "6dc02534abe95c59f40882e2b790a9c6", "fusion_lat": 0.0, "type": "electric_bike", "lat": 38.935678833333334, "is_reserved": 0, "is_disabled": 0, "fusion_lon": 0.0, "bike_id": "6dc02534abe95c59f40882e2b790a9c6", "lon": -77.10440883333334, "rental_uris": {"ios": "https://dc.lft.to/lastmile_qr_scan", "android": "https://dc.lft.to/lastmile_qr_scan"}}, {"name": "1a0995781b5a04975f42542b90ccc3f8", "fusion_lat": 0.0, "type": "electric_scooter", "lat": 38.89232, "is_reserved": 0, "is_disabled": 0, "fusion_lon": 0.0, "bike_id": "1a0995781b5a04975f42542b90ccc3f8", "lon": -77.01507083333334, "rental_uris": {"ios": "https://dc.lft.to/lastmile_qr_scan", "android": "https://dc.lft.to/lastmile_qr_scan"}}, {"name": "ae558a75884d08ed5485a5bdf859ef15", "fusion_lat": 0.0, "type": "electric_scooter", "lat": 38.939599333333334, "is_reserved": 0, "is_disabled": 0, "fusion_lon": 0.0, "bike_id": "ae558a75884d08ed5485a5bdf859ef15", "lon": -77.02749466666667, "rental_uris": {"ios": "https://dc.lft.to/lastmile_qr_scan", "android": "https://dc.lft.to/lastmile_qr_scan"}}, {"name": "d521c0aa431dadefa8c5b05af21b8a85", "fusion_lat": 0.0, "type": "electric_scooter", "lat": 38.9274755, "is_reserved": 0, "is_disabled": 0, "fusion_lon": 0.0, "bike_id": "d521c0aa431dadefa8c5b05af21b8a85", "lon": -77.0230125, "rental_uris": {"ios": "https://dc.lft.to/lastmile_qr_scan", "android": "https://dc.lft.to/lastmile_qr_scan"}}, {"name": "ec1caade9ecf2cacbada02ae39d407a5", "fusion_lat": 0.0, "type": "electric_scooter", "lat": 38.930661666666666, "is_reserved": 0, "is_disabled": 0, "fusion_lon": 0.0, "bike_id": "ec1caade9ecf2cacbada02ae39d407a5", "lon": -77.0298025, "rental_uris": {"ios": "https://dc.lft.to/lastmile_qr_scan", "android": "https://dc.lft.to/lastmile_qr_scan"}}, {"name": "03195408dad22280c81fcdacaece3d6c", "fusion_lat": 0.0, "type": "electric_bike", "lat": 38.94915183333333, "is_reserved": 0, "is_disabled": 0, "fusion_lon": 0.0, "bike_id": "03195408dad22280c81fcdacaece3d6c", "lon": -77.00793383333334, "rental_uris": {"ios": "https://dc.lft.to/lastmile_qr_scan", "android": "https://dc.lft.to/lastmile_qr_scan"}}, {"name": "80fd771b7b0909452daf8ea3c37a9ff7", "fusion_lat": 0.0, "type": "electric_scooter", "lat": 38.88501516666667, "is_reserved": 0, "is_disabled": 0, "fusion_lon": 0.0, "bike_id": "80fd771b7b0909452daf8ea3c37a9ff7", "lon": -77.02198116666666, "rental_uris": {"ios": "https://dc.lft.to/lastmile_qr_scan", "android": "https://dc.lft.to/lastmile_qr_scan"}}, {"name": "752a32249c48c52d34ff38c96106297d", "fusion_lat": 0.0, "type": "electric_bike", "lat": 38.85852416666667, "is_reserved": 0, "is_disabled": 0, "fusion_lon": 0.0, "bike_id": "752a32249c48c52d34ff38c96106297d", "lon": -77.09751683333333, "rental_uris": {"ios": "https://dc.lft.to/lastmile_qr_scan", "android": "https://dc.lft.to/lastmile_qr_scan"}}, {"name": "46f5e5b4d219cfeb5b2059fd37b07951", "fusion_lat": 0.0, "type": "electric_scooter", "lat": 38.91638583333334, "is_reserved": 0, "is_disabled": 0, "fusion_lon": 0.0, "bike_id": "46f5e5b4d219cfeb5b2059fd37b07951", "lon": -77.00098433333334, "rental_uris": {"ios": "https://dc.lft.to/lastmile_qr_scan", "android": "https://dc.lft.to/lastmile_qr_scan"}}, {"name": "71e9eb7dbd4d17fd937fe4736a15c0a8", "fusion_lat": 0.0, "type": "electric_scooter", "lat": 38.9177825, "is_reserved": 0, "is_disabled": 0, "fusion_lon": 0.0, "bike_id": "71e9eb7dbd4d17fd937fe4736a15c0a8", "lon": -77.02340466666666, "rental_uris": {"ios": "https://dc.lft.to/lastmile_qr_scan", "android": "https://dc.lft.to/lastmile_qr_scan"}}, {"name": "4a3e7568a613c455aa7d0eaf5c56391c", "fusion_lat": 0.0, "type": "electric_bike", "lat": 39.00016033333333, "is_reserved": 0, "is_disabled": 0, "fusion_lon": 0.0, "bike_id": "4a3e7568a613c455aa7d0eaf5c56391c", "lon": -77.01741783333334, "rental_uris": {"ios": "https://dc.lft.to/lastmile_qr_scan", "android": "https://dc.lft.to/lastmile_qr_scan"}}, {"name": "21a4edd2fa84c2815d0671bdc24c7775", "fusion_lat": 0.0, "type": "electric_scooter", "lat": 38.89221083333333, "is_reserved": 0, "is_disabled": 0, "fusion_lon": 0.0, "bike_id": "21a4edd2fa84c2815d0671bdc24c7775", "lon": -77.039781, "rental_uris": {"ios": "https://dc.lft.to/lastmile_qr_scan", "android": "https://dc.lft.to/lastmile_qr_scan"}}, {"name": "4e859e2661cba99985dd8661a0fa2c70", "fusion_lat": 0.0, "type": "electric_scooter", "lat": 38.915593333333334, "is_reserved": 0, "is_disabled": 0, "fusion_lon": 0.0, "bike_id": "4e859e2661cba99985dd8661a0fa2c70", "lon": -77.0058525, "rental_uris": {"ios": "https://dc.lft.to/lastmile_qr_scan", "android": "https://dc.lft.to/lastmile_qr_scan"}}, {"name": "04dbdb18457b0ee9bf70a16a67b25901", "fusion_lat": 0.0, "type": "electric_scooter", "lat": 38.89599966666667, "is_reserved": 0, "is_disabled": 0, "fusion_lon": 0.0, "bike_id": "04dbdb18457b0ee9bf70a16a67b25901", "lon": -77.041292, "rental_uris": {"ios": "https://dc.lft.to/lastmile_qr_scan", "android": "https://dc.lft.to/lastmile_qr_scan"}}, {"name": "a449fde30a7c62602842f16a88ac7ee9", "fusion_lat": 0.0, "type": "electric_scooter", "lat": 38.895684, "is_reserved": 0, "is_disabled": 0, "fusion_lon": 0.0, "bike_id": "a449fde30a7c62602842f16a88ac7ee9", "lon": -77.01354533333334, "rental_uris": {"ios": "https://dc.lft.to/lastmile_qr_scan", "android": "https://dc.lft.to/lastmile_qr_scan"}}, {"name": "52175da298d5157012a1b6857961c886", "fusion_lat": 0.0, "type": "electric_scooter", "lat": 38.91556083333333, "is_reserved": 0, "is_disabled": 0, "fusion_lon": 0.0, "bike_id": "52175da298d5157012a1b6857961c886", "lon": -77.03890233333334, "rental_uris": {"ios": "https://dc.lft.to/lastmile_qr_scan", "android": "https://dc.lft.to/lastmile_qr_scan"}}, {"name": "c2a86ef5567a4faa68257814f6998655", "fusion_lat": 0.0, "type": "electric_scooter", "lat": 38.88116216666667, "is_reserved": 0, "is_disabled": 0, "fusion_lon": 0.0, "bike_id": "c2a86ef5567a4faa68257814f6998655", "lon": -77.01663183333334, "rental_uris": {"ios": "https://dc.lft.to/lastmile_qr_scan", "android": "https://dc.lft.to/lastmile_qr_scan"}}, {"name": "7aed5a70ef11c85c0c244eef015d8224", "fusion_lat": 0.0, "type": "electric_bike", "lat": 39.024157833333334, "is_reserved": 0, "is_disabled": 0, "fusion_lon": 0.0, "bike_id": "7aed5a70ef11c85c0c244eef015d8224", "lon": -77.12502183333334, "rental_uris": {"ios": "https://dc.lft.to/lastmile_qr_scan", "android": "https://dc.lft.to/lastmile_qr_scan"}}, {"name": "8370e4a9e1cb5ca8a3f33acab92e0589", "fusion_lat": 0.0, "type": "electric_scooter", "lat": 38.89599533333333, "is_reserved": 0, "is_disabled": 0, "fusion_lon": 0.0, "bike_id": "8370e4a9e1cb5ca8a3f33acab92e0589", "lon": -77.04757833333333, "rental_uris": {"ios": "https://dc.lft.to/lastmile_qr_scan", "android": "https://dc.lft.to/lastmile_qr_scan"}}, {"name": "e8c8d379391343e433f82907cf7f32a8", "fusion_lat": 0.0, "type": "electric_scooter", "lat": 38.903759, "is_reserved": 0, "is_disabled": 0, "fusion_lon": 0.0, "bike_id": "e8c8d379391343e433f82907cf7f32a8", "lon": -77.0385315, "rental_uris": {"ios": "https://dc.lft.to/lastmile_qr_scan", "android": "https://dc.lft.to/lastmile_qr_scan"}}, {"name": "2655e257d1f7a5a5f1418d1028c5063c", "fusion_lat": 0.0, "type": "electric_scooter", "lat": 38.908591666666666, "is_reserved": 0, "is_disabled": 0, "fusion_lon": 0.0, "bike_id": "2655e257d1f7a5a5f1418d1028c5063c", "lon": -77.04504683333333, "rental_uris": {"ios": "https://dc.lft.to/lastmile_qr_scan", "android": "https://dc.lft.to/lastmile_qr_scan"}}, {"name": "6592fe9c1d2018fb2016bb05d5639fcb", "fusion_lat": 0.0, "type": "electric_scooter", "lat": 38.918073166666666, "is_reserved": 0, "is_disabled": 0, "fusion_lon": 0.0, "bike_id": "6592fe9c1d2018fb2016bb05d5639fcb", "lon": -77.0248995, "rental_uris": {"ios": "https://dc.lft.to/lastmile_qr_scan", "android": "https://dc.lft.to/lastmile_qr_scan"}}, {"name": "1b024e4d9cb4512e4acef806d5b79508", "fusion_lat": 0.0, "type": "electric_scooter", "lat": 38.902638, "is_reserved": 0, "is_disabled": 0, "fusion_lon": 0.0, "bike_id": "1b024e4d9cb4512e4acef806d5b79508", "lon": -77.01752366666666, "rental_uris": {"ios": "https://dc.lft.to/lastmile_qr_scan", "android": "https://dc.lft.to/lastmile_qr_scan"}}, {"name": "890f8afc0dfda4ad176190fd3a1e1240", "fusion_lat": 0.0, "type": "electric_scooter", "lat": 38.90703, "is_reserved": 0, "is_disabled": 0, "fusion_lon": 0.0, "bike_id": "890f8afc0dfda4ad176190fd3a1e1240", "lon": -77.029651, "rental_uris": {"ios": "https://dc.lft.to/lastmile_qr_scan", "android": "https://dc.lft.to/lastmile_qr_scan"}}, {"name": "e77af00caa44024db5dadd7932891c35", "fusion_lat": 0.0, "type": "electric_bike", "lat": 39.0531835, "is_reserved": 0, "is_disabled": 0, "fusion_lon": 0.0, "bike_id": "e77af00caa44024db5dadd7932891c35", "lon": -77.04772733333333, "rental_uris": {"ios": "https://dc.lft.to/lastmile_qr_scan", "android": "https://dc.lft.to/lastmile_qr_scan"}}, {"name": "b8476110b66a582ca857ceb7f2d1a57f", "fusion_lat": 0.0, "type": "electric_scooter", "lat": 38.866932166666665, "is_reserved": 0, "is_disabled": 0, "fusion_lon": 0.0, "bike_id": "b8476110b66a582ca857ceb7f2d1a57f", "lon": -76.98897466666666, "rental_uris": {"ios": "https://dc.lft.to/lastmile_qr_scan", "android": "https://dc.lft.to/lastmile_qr_scan"}}, {"name": "83f1e7c858ef8c2744df849cac2b66c0", "fusion_lat": 0.0, "type": "electric_bike", "lat": 39.088562833333334, "is_reserved": 0, "is_disabled": 0, "fusion_lon": 0.0, "bike_id": "83f1e7c858ef8c2744df849cac2b66c0", "lon": -77.17840983333333, "rental_uris": {"ios": "https://dc.lft.to/lastmile_qr_scan", "android": "https://dc.lft.to/lastmile_qr_scan"}}, {"name": "4af62a79f591423b43464070b4cb0fde", "fusion_lat": 0.0, "type": "electric_bike", "lat": 38.935239, "is_reserved": 0, "is_disabled": 0, "fusion_lon": 0.0, "bike_id": "4af62a79f591423b43464070b4cb0fde", "lon": -76.9506585, "rental_uris": {"ios": "https://dc.lft.to/lastmile_qr_scan", "android": "https://dc.lft.to/lastmile_qr_scan"}}, {"name": "0282c7cb7fae3ace55788c1eb4a5a312", "fusion_lat": 0.0, "type": "electric_scooter", "lat": 38.865366, "is_reserved": 0, "is_disabled": 0, "fusion_lon": 0.0, "bike_id": "0282c7cb7fae3ace55788c1eb4a5a312", "lon": -76.98706, "rental_uris": {"ios": "https://dc.lft.to/lastmile_qr_scan", "android": "https://dc.lft.to/lastmile_qr_scan"}}, {"name": "665bdf38bcee6d6a9a3ccaad764d39eb", "fusion_lat": 0.0, "type": "electric_scooter", "lat": 38.902700333333335, "is_reserved": 0, "is_disabled": 0, "fusion_lon": 0.0, "bike_id": "665bdf38bcee6d6a9a3ccaad764d39eb", "lon": -76.98712533333334, "rental_uris": {"ios": "https://dc.lft.to/lastmile_qr_scan", "android": "https://dc.lft.to/lastmile_qr_scan"}}, {"name": "8641767539480cafac0ae14ace96ef17", "fusion_lat": 0.0, "type": "electric_scooter", "lat": 38.935425333333335, "is_reserved": 0, "is_disabled": 0, "fusion_lon": 0.0, "bike_id": "8641767539480cafac0ae14ace96ef17", "lon": -77.03415066666666, "rental_uris": {"ios": "https://dc.lft.to/lastmile_qr_scan", "android": "https://dc.lft.to/lastmile_qr_scan"}}, {"name": "43a5ca2353c314297f7dc8cf7e21fa4e", "fusion_lat": 0.0, "type": "electric_scooter", "lat": 38.9215095, "is_reserved": 0, "is_disabled": 0, "fusion_lon": 0.0, "bike_id": "43a5ca2353c314297f7dc8cf7e21fa4e", "lon": -77.033884, "rental_uris": {"ios": "https://dc.lft.to/lastmile_qr_scan", "android": "https://dc.lft.to/lastmile_qr_scan"}}, {"name": "b0168ca789a6781e4dacfdd898877eb2", "fusion_lat": 0.0, "type": "electric_scooter", "lat": 38.900334666666666, "is_reserved": 0, "is_disabled": 0, "fusion_lon": 0.0, "bike_id": "b0168ca789a6781e4dacfdd898877eb2", "lon": -77.001955, "rental_uris": {"ios": "https://dc.lft.to/lastmile_qr_scan", "android": "https://dc.lft.to/lastmile_qr_scan"}}, {"name": "888c26233209db831dd4ceaf472af97a", "fusion_lat": 0.0, "type": "electric_scooter", "lat": 38.94998283333334, "is_reserved": 0, "is_disabled": 0, "fusion_lon": 0.0, "bike_id": "888c26233209db831dd4ceaf472af97a", "lon": -77.0194895, "rental_uris": {"ios": "https://dc.lft.to/lastmile_qr_scan", "android": "https://dc.lft.to/lastmile_qr_scan"}}, {"name": "0c1fcc541fa47cffb5c62fffc315c11e", "fusion_lat": 0.0, "type": "electric_scooter", "lat": 38.92134433333333, "is_reserved": 0, "is_disabled": 0, "fusion_lon": 0.0, "bike_id": "0c1fcc541fa47cffb5c62fffc315c11e", "lon": -77.04008466666667, "rental_uris": {"ios": "https://dc.lft.to/lastmile_qr_scan", "android": "https://dc.lft.to/lastmile_qr_scan"}}, {"name": "6287fa5f4333c3e450b0778532d5a89e", "fusion_lat": 0.0, "type": "electric_scooter", "lat": 38.90057733333333, "is_reserved": 0, "is_disabled": 0, "fusion_lon": 0.0, "bike_id": "6287fa5f4333c3e450b0778532d5a89e", "lon": -77.01277016666667, "rental_uris": {"ios": "https://dc.lft.to/lastmile_qr_scan", "android": "https://dc.lft.to/lastmile_qr_scan"}}, {"name": "7effdcb83d2df59fcea3cdb0c5bbae5d", "fusion_lat": 0.0, "type": "electric_scooter", "lat": 38.920433, "is_reserved": 0, "is_disabled": 0, "fusion_lon": 0.0, "bike_id": "7effdcb83d2df59fcea3cdb0c5bbae5d", "lon": -77.048056, "rental_uris": {"ios": "https://dc.lft.to/lastmile_qr_scan", "android": "https://dc.lft.to/lastmile_qr_scan"}}, {"name": "3e8b0d14b1702114bba1360f67edba35", "fusion_lat": 0.0, "type": "electric_scooter", "lat": 38.89854833333333, "is_reserved": 0, "is_disabled": 0, "fusion_lon": 0.0, "bike_id": "3e8b0d14b1702114bba1360f67edba35", "lon": -76.97650133333333, "rental_uris": {"ios": "https://dc.lft.to/lastmile_qr_scan", "android": "https://dc.lft.to/lastmile_qr_scan"}}, {"name": "3f1878e07636d34cba704141b53859d3", "fusion_lat": 0.0, "type": "electric_scooter", "lat": 38.921608, "is_reserved": 0, "is_disabled": 0, "fusion_lon": 0.0, "bike_id": "3f1878e07636d34cba704141b53859d3", "lon": -77.0338935, "rental_uris": {"ios": "https://dc.lft.to/lastmile_qr_scan", "android": "https://dc.lft.to/lastmile_qr_scan"}}, {"name": "ddadfa60d06ca6197308dbae4ef249ed", "fusion_lat": 0.0, "type": "electric_scooter", "lat": 38.90236983333333, "is_reserved": 0, "is_disabled": 0, "fusion_lon": 0.0, "bike_id": "ddadfa60d06ca6197308dbae4ef249ed", "lon": -77.019461, "rental_uris": {"ios": "https://dc.lft.to/lastmile_qr_scan", "android": "https://dc.lft.to/lastmile_qr_scan"}}, {"name": "6a6e8520428857bbfdd0bd001a714fd1", "fusion_lat": 0.0, "type": "electric_scooter", "lat": 38.89733366666667, "is_reserved": 0, "is_disabled": 0, "fusion_lon": 0.0, "bike_id": "6a6e8520428857bbfdd0bd001a714fd1", "lon": -77.02049466666666, "rental_uris": {"ios": "https://dc.lft.to/lastmile_qr_scan", "android": "https://dc.lft.to/lastmile_qr_scan"}}, {"name": "db866f20ea5e1b1230f65e02f56e9f69", "fusion_lat": 0.0, "type": "electric_scooter", "lat": 38.908486833333335, "is_reserved": 0, "is_disabled": 0, "fusion_lon": 0.0, "bike_id": "db866f20ea5e1b1230f65e02f56e9f69", "lon": -77.01096133333333, "rental_uris": {"ios": "https://dc.lft.to/lastmile_qr_scan", "android": "https://dc.lft.to/lastmile_qr_scan"}}, {"name": "0d9feb83ad2147dca7e38618b4223480", "fusion_lat": 0.0, "type": "electric_scooter", "lat": 38.92500166666667, "is_reserved": 0, "is_disabled": 0, "fusion_lon": 0.0, "bike_id": "0d9feb83ad2147dca7e38618b4223480", "lon": -77.02350083333333, "rental_uris": {"ios": "https://dc.lft.to/lastmile_qr_scan", "android": "https://dc.lft.to/lastmile_qr_scan"}}, {"name": "44bb7f6c650bf99a283f826c35ab0414", "fusion_lat": 0.0, "type": "electric_scooter", "lat": 38.89795133333333, "is_reserved": 0, "is_disabled": 0, "fusion_lon": 0.0, "bike_id": "44bb7f6c650bf99a283f826c35ab0414", "lon": -76.94418066666667, "rental_uris": {"ios": "https://dc.lft.to/lastmile_qr_scan", "android": "https://dc.lft.to/lastmile_qr_scan"}}, {"name": "c3ab7d0464379e77c84d337618279ad3", "fusion_lat": 0.0, "type": "electric_scooter", "lat": 38.92602816666667, "is_reserved": 0, "is_disabled": 0, "fusion_lon": 0.0, "bike_id": "c3ab7d0464379e77c84d337618279ad3", "lon": -77.02353766666667, "rental_uris": {"ios": "https://dc.lft.to/lastmile_qr_scan", "android": "https://dc.lft.to/lastmile_qr_scan"}}, {"name": "1403f85753e59cd58c760b83ffba73d5", "fusion_lat": 0.0, "type": "electric_scooter", "lat": 38.905296, "is_reserved": 0, "is_disabled": 0, "fusion_lon": 0.0, "bike_id": "1403f85753e59cd58c760b83ffba73d5", "lon": -77.05006366666667, "rental_uris": {"ios": "https://dc.lft.to/lastmile_qr_scan", "android": "https://dc.lft.to/lastmile_qr_scan"}}, {"name": "969a92d5bf14d249bc1a4320cda30d20", "fusion_lat": 0.0, "type": "electric_scooter", "lat": 38.912411666666664, "is_reserved": 0, "is_disabled": 0, "fusion_lon": 0.0, "bike_id": "969a92d5bf14d249bc1a4320cda30d20", "lon": -77.0091735, "rental_uris": {"ios": "https://dc.lft.to/lastmile_qr_scan", "android": "https://dc.lft.to/lastmile_qr_scan"}}, {"name": "563ca613afbc696769f524cb2488651f", "fusion_lat": 0.0, "type": "electric_bike", "lat": 38.9649455, "is_reserved": 0, "is_disabled": 0, "fusion_lon": 0.0, "bike_id": "563ca613afbc696769f524cb2488651f", "lon": -77.064929, "rental_uris": {"ios": "https://dc.lft.to/lastmile_qr_scan", "android": "https://dc.lft.to/lastmile_qr_scan"}}, {"name": "37b959a3f2b24b7008b5c2ec10ba139f", "fusion_lat": 0.0, "type": "electric_scooter", "lat": 38.921219666666666, "is_reserved": 0, "is_disabled": 0, "fusion_lon": 0.0, "bike_id": "37b959a3f2b24b7008b5c2ec10ba139f", "lon": -77.0411485, "rental_uris": {"ios": "https://dc.lft.to/lastmile_qr_scan", "android": "https://dc.lft.to/lastmile_qr_scan"}}, {"name": "52967307a0cf0a9e93ee935c01418291", "fusion_lat": 0.0, "type": "electric_scooter", "lat": 38.90734366666667, "is_reserved": 0, "is_disabled": 0, "fusion_lon": 0.0, "bike_id": "52967307a0cf0a9e93ee935c01418291", "lon": -77.03446633333333, "rental_uris": {"ios": "https://dc.lft.to/lastmile_qr_scan", "android": "https://dc.lft.to/lastmile_qr_scan"}}, {"name": "44c4f3709957e79a3f8ebd415ed044bf", "fusion_lat": 0.0, "type": "electric_scooter", "lat": 38.9070855, "is_reserved": 0, "is_disabled": 0, "fusion_lon": 0.0, "bike_id": "44c4f3709957e79a3f8ebd415ed044bf", "lon": -77.04184483333333, "rental_uris": {"ios": "https://dc.lft.to/lastmile_qr_scan", "android": "https://dc.lft.to/lastmile_qr_scan"}}, {"name": "3522978a3e6131f7fdf91cb8e5679900", "fusion_lat": 0.0, "type": "electric_scooter", "lat": 38.902694, "is_reserved": 0, "is_disabled": 0, "fusion_lon": 0.0, "bike_id": "3522978a3e6131f7fdf91cb8e5679900", "lon": -76.99855916666667, "rental_uris": {"ios": "https://dc.lft.to/lastmile_qr_scan", "android": "https://dc.lft.to/lastmile_qr_scan"}}, {"name": "774b7779271e4386fcb7d9e28b5949f0", "fusion_lat": 0.0, "type": "electric_scooter", "lat": 38.942300833333334, "is_reserved": 0, "is_disabled": 0, "fusion_lon": 0.0, "bike_id": "774b7779271e4386fcb7d9e28b5949f0", "lon": -77.015439, "rental_uris": {"ios": "https://dc.lft.to/lastmile_qr_scan", "android": "https://dc.lft.to/lastmile_qr_scan"}}, {"name": "4c67aec46466a98a973d4bcc96463557", "fusion_lat": 0.0, "type": "electric_scooter", "lat": 38.909727833333335, "is_reserved": 0, "is_disabled": 0, "fusion_lon": 0.0, "bike_id": "4c67aec46466a98a973d4bcc96463557", "lon": -77.017114, "rental_uris": {"ios": "https://dc.lft.to/lastmile_qr_scan", "android": "https://dc.lft.to/lastmile_qr_scan"}}, {"name": "ac7c509e28dd95064e7263205c696bbb", "fusion_lat": 0.0, "type": "electric_scooter", "lat": 38.905751333333335, "is_reserved": 0, "is_disabled": 0, "fusion_lon": 0.0, "bike_id": "ac7c509e28dd95064e7263205c696bbb", "lon": -77.048631, "rental_uris": {"ios": "https://dc.lft.to/lastmile_qr_scan", "android": "https://dc.lft.to/lastmile_qr_scan"}}, {"name": "ff25f2f515945d3f5591078531c8327d", "fusion_lat": 0.0, "type": "electric_bike", "lat": 38.91308733333334, "is_reserved": 0, "is_disabled": 0, "fusion_lon": 0.0, "bike_id": "ff25f2f515945d3f5591078531c8327d", "lon": -76.97610433333334, "rental_uris": {"ios": "https://dc.lft.to/lastmile_qr_scan", "android": "https://dc.lft.to/lastmile_qr_scan"}}, {"name": "d01e13678c719a7659721c2b922f8625", "fusion_lat": 0.0, "type": "electric_scooter", "lat": 38.938705666666664, "is_reserved": 0, "is_disabled": 0, "fusion_lon": 0.0, "bike_id": "d01e13678c719a7659721c2b922f8625", "lon": -77.0325875, "rental_uris": {"ios": "https://dc.lft.to/lastmile_qr_scan", "android": "https://dc.lft.to/lastmile_qr_scan"}}, {"name": "00fb624e302cc253c0ae3bb9bcf89841", "fusion_lat": 0.0, "type": "electric_scooter", "lat": 38.898444166666664, "is_reserved": 0, "is_disabled": 0, "fusion_lon": 0.0, "bike_id": "00fb624e302cc253c0ae3bb9bcf89841", "lon": -77.01997083333333, "rental_uris": {"ios": "https://dc.lft.to/lastmile_qr_scan", "android": "https://dc.lft.to/lastmile_qr_scan"}}, {"name": "69394de5fa7d2a51b34946ddb2e36835", "fusion_lat": 0.0, "type": "electric_scooter", "lat": 38.930200666666664, "is_reserved": 0, "is_disabled": 0, "fusion_lon": 0.0, "bike_id": "69394de5fa7d2a51b34946ddb2e36835", "lon": -77.037771, "rental_uris": {"ios": "https://dc.lft.to/lastmile_qr_scan", "android": "https://dc.lft.to/lastmile_qr_scan"}}, {"name": "d37b8aae5324e16aa06d211aa80e7efb", "fusion_lat": 0.0, "type": "electric_scooter", "lat": 38.93527483333333, "is_reserved": 0, "is_disabled": 0, "fusion_lon": 0.0, "bike_id": "d37b8aae5324e16aa06d211aa80e7efb", "lon": -77.03264683333333, "rental_uris": {"ios": "https://dc.lft.to/lastmile_qr_scan", "android": "https://dc.lft.to/lastmile_qr_scan"}}, {"name": "34ce075673a8e4e622d97e15970ad19c", "fusion_lat": 0.0, "type": "electric_scooter", "lat": 38.92579466666667, "is_reserved": 0, "is_disabled": 0, "fusion_lon": 0.0, "bike_id": "34ce075673a8e4e622d97e15970ad19c", "lon": -77.026053, "rental_uris": {"ios": "https://dc.lft.to/lastmile_qr_scan", "android": "https://dc.lft.to/lastmile_qr_scan"}}, {"name": "26b0887c6e6fa9c6636031dfb8724b39", "fusion_lat": 0.0, "type": "electric_scooter", "lat": 38.965619, "is_reserved": 0, "is_disabled": 0, "fusion_lon": 0.0, "bike_id": "26b0887c6e6fa9c6636031dfb8724b39", "lon": -77.01622516666667, "rental_uris": {"ios": "https://dc.lft.to/lastmile_qr_scan", "android": "https://dc.lft.to/lastmile_qr_scan"}}, {"name": "694698aff4ed2ab6f7dfedb90253540b", "fusion_lat": 0.0, "type": "electric_bike", "lat": 39.024230333333335, "is_reserved": 0, "is_disabled": 0, "fusion_lon": 0.0, "bike_id": "694698aff4ed2ab6f7dfedb90253540b", "lon": -77.12503416666667, "rental_uris": {"ios": "https://dc.lft.to/lastmile_qr_scan", "android": "https://dc.lft.to/lastmile_qr_scan"}}, {"name": "2f476c76b71400d8836651cb9d03b449", "fusion_lat": 0.0, "type": "electric_scooter", "lat": 38.912551666666666, "is_reserved": 0, "is_disabled": 0, "fusion_lon": 0.0, "bike_id": "2f476c76b71400d8836651cb9d03b449", "lon": -77.045291, "rental_uris": {"ios": "https://dc.lft.to/lastmile_qr_scan", "android": "https://dc.lft.to/lastmile_qr_scan"}}, {"name": "30498e722865d70e4d16553176ef2e44", "fusion_lat": 0.0, "type": "electric_scooter", "lat": 38.906079166666665, "is_reserved": 0, "is_disabled": 0, "fusion_lon": 0.0, "bike_id": "30498e722865d70e4d16553176ef2e44", "lon": -77.05619483333334, "rental_uris": {"ios": "https://dc.lft.to/lastmile_qr_scan", "android": "https://dc.lft.to/lastmile_qr_scan"}}, {"name": "5bbd68e5a59d223fc49a3908a0bf2335", "fusion_lat": 0.0, "type": "electric_scooter", "lat": 38.89981733333333, "is_reserved": 0, "is_disabled": 0, "fusion_lon": 0.0, "bike_id": "5bbd68e5a59d223fc49a3908a0bf2335", "lon": -77.04123833333334, "rental_uris": {"ios": "https://dc.lft.to/lastmile_qr_scan", "android": "https://dc.lft.to/lastmile_qr_scan"}}, {"name": "9876ff9419202deab1deb8c68e816f6e", "fusion_lat": 0.0, "type": "electric_scooter", "lat": 38.88430966666667, "is_reserved": 0, "is_disabled": 0, "fusion_lon": 0.0, "bike_id": "9876ff9419202deab1deb8c68e816f6e", "lon": -76.95754516666666, "rental_uris": {"ios": "https://dc.lft.to/lastmile_qr_scan", "android": "https://dc.lft.to/lastmile_qr_scan"}}, {"name": "b3f7b7535b6647b68e1ad400bd6c9dbb", "fusion_lat": 0.0, "type": "electric_scooter", "lat": 38.9617465, "is_reserved": 0, "is_disabled": 0, "fusion_lon": 0.0, "bike_id": "b3f7b7535b6647b68e1ad400bd6c9dbb", "lon": -77.03227066666666, "rental_uris": {"ios": "https://dc.lft.to/lastmile_qr_scan", "android": "https://dc.lft.to/lastmile_qr_scan"}}, {"name": "59cda918ed10eeb36c439d4a37854f8b", "fusion_lat": 0.0, "type": "electric_scooter", "lat": 38.92269816666666, "is_reserved": 0, "is_disabled": 0, "fusion_lon": 0.0, "bike_id": "59cda918ed10eeb36c439d4a37854f8b", "lon": -77.034037, "rental_uris": {"ios": "https://dc.lft.to/lastmile_qr_scan", "android": "https://dc.lft.to/lastmile_qr_scan"}}, {"name": "697f134af57be1307074cff66221b470", "fusion_lat": 0.0, "type": "electric_scooter", "lat": 38.925926833333335, "is_reserved": 0, "is_disabled": 0, "fusion_lon": 0.0, "bike_id": "697f134af57be1307074cff66221b470", "lon": -77.05221483333334, "rental_uris": {"ios": "https://dc.lft.to/lastmile_qr_scan", "android": "https://dc.lft.to/lastmile_qr_scan"}}, {"name": "8cfcf51ecceaf6e314c85259ebce1b67", "fusion_lat": 0.0, "type": "electric_scooter", "lat": 38.91552183333334, "is_reserved": 0, "is_disabled": 0, "fusion_lon": 0.0, "bike_id": "8cfcf51ecceaf6e314c85259ebce1b67", "lon": -77.038303, "rental_uris": {"ios": "https://dc.lft.to/lastmile_qr_scan", "android": "https://dc.lft.to/lastmile_qr_scan"}}, {"name": "c0af10a8f05b14229207c809f41204c1", "fusion_lat": 0.0, "type": "electric_bike", "lat": 38.96617283333333, "is_reserved": 0, "is_disabled": 0, "fusion_lon": 0.0, "bike_id": "c0af10a8f05b14229207c809f41204c1", "lon": -76.94424116666667, "rental_uris": {"ios": "https://dc.lft.to/lastmile_qr_scan", "android": "https://dc.lft.to/lastmile_qr_scan"}}, {"name": "de225ae87e76e2158028a4e471704a2f", "fusion_lat": 0.0, "type": "electric_bike", "lat": 38.850638333333336, "is_reserved": 0, "is_disabled": 0, "fusion_lon": 0.0, "bike_id": "de225ae87e76e2158028a4e471704a2f", "lon": -76.97327516666667, "rental_uris": {"ios": "https://dc.lft.to/lastmile_qr_scan", "android": "https://dc.lft.to/lastmile_qr_scan"}}, {"name": "6154ec49cfeec471c90610217c98668c", "fusion_lat": 0.0, "type": "electric_scooter", "lat": 38.920186666666666, "is_reserved": 0, "is_disabled": 0, "fusion_lon": 0.0, "bike_id": "6154ec49cfeec471c90610217c98668c", "lon": -77.034753, "rental_uris": {"ios": "https://dc.lft.to/lastmile_qr_scan", "android": "https://dc.lft.to/lastmile_qr_scan"}}, {"name": "48d51467d99e6c44d36ea19b0ad35de4", "fusion_lat": 0.0, "type": "electric_scooter", "lat": 38.96174216666667, "is_reserved": 0, "is_disabled": 0, "fusion_lon": 0.0, "bike_id": "48d51467d99e6c44d36ea19b0ad35de4", "lon": -77.03224816666666, "rental_uris": {"ios": "https://dc.lft.to/lastmile_qr_scan", "android": "https://dc.lft.to/lastmile_qr_scan"}}, {"name": "10548a7804aab9d51c6579c08cc35e6b", "fusion_lat": 0.0, "type": "electric_scooter", "lat": 38.896069, "is_reserved": 0, "is_disabled": 0, "fusion_lon": 0.0, "bike_id": "10548a7804aab9d51c6579c08cc35e6b", "lon": -77.04679216666666, "rental_uris": {"ios": "https://dc.lft.to/lastmile_qr_scan", "android": "https://dc.lft.to/lastmile_qr_scan"}}, {"name": "1b1364b37021329902dd5561c25df116", "fusion_lat": 0.0, "type": "electric_scooter", "lat": 38.90253883333333, "is_reserved": 0, "is_disabled": 0, "fusion_lon": 0.0, "bike_id": "1b1364b37021329902dd5561c25df116", "lon": -77.04614583333333, "rental_uris": {"ios": "https://dc.lft.to/lastmile_qr_scan", "android": "https://dc.lft.to/lastmile_qr_scan"}}, {"name": "c02666337ec315bea6fb80fd881add87", "fusion_lat": 0.0, "type": "electric_scooter", "lat": 38.925278666666664, "is_reserved": 0, "is_disabled": 0, "fusion_lon": 0.0, "bike_id": "c02666337ec315bea6fb80fd881add87", "lon": -77.03216916666666, "rental_uris": {"ios": "https://dc.lft.to/lastmile_qr_scan", "android": "https://dc.lft.to/lastmile_qr_scan"}}, {"name": "5469fe150c990f68b99a9ab002d76b5f", "fusion_lat": 0.0, "type": "electric_scooter", "lat": 38.896582333333335, "is_reserved": 0, "is_disabled": 0, "fusion_lon": 0.0, "bike_id": "5469fe150c990f68b99a9ab002d76b5f", "lon": -77.05036916666667, "rental_uris": {"ios": "https://dc.lft.to/lastmile_qr_scan", "android": "https://dc.lft.to/lastmile_qr_scan"}}, {"name": "2ebf91505f9c74662a5791eb05618c26", "fusion_lat": 0.0, "type": "electric_scooter", "lat": 38.93686816666667, "is_reserved": 0, "is_disabled": 0, "fusion_lon": 0.0, "bike_id": "2ebf91505f9c74662a5791eb05618c26", "lon": -77.032842, "rental_uris": {"ios": "https://dc.lft.to/lastmile_qr_scan", "android": "https://dc.lft.to/lastmile_qr_scan"}}, {"name": "71d007fc0901645ca96e5231d2bd859f", "fusion_lat": 0.0, "type": "electric_scooter", "lat": 38.98498983333333, "is_reserved": 0, "is_disabled": 0, "fusion_lon": 0.0, "bike_id": "71d007fc0901645ca96e5231d2bd859f", "lon": -77.0264255, "rental_uris": {"ios": "https://dc.lft.to/lastmile_qr_scan", "android": "https://dc.lft.to/lastmile_qr_scan"}}, {"name": "a01bed79e97398b69e08a4ff61a812f1", "fusion_lat": 0.0, "type": "electric_bike", "lat": 38.931263, "is_reserved": 0, "is_disabled": 0, "fusion_lon": 0.0, "bike_id": "a01bed79e97398b69e08a4ff61a812f1", "lon": -77.020274, "rental_uris": {"ios": "https://dc.lft.to/lastmile_qr_scan", "android": "https://dc.lft.to/lastmile_qr_scan"}}, {"name": "14b537ad0fb77cc061760be66a0ee458", "fusion_lat": 0.0, "type": "electric_scooter", "lat": 38.93059366666667, "is_reserved": 0, "is_disabled": 0, "fusion_lon": 0.0, "bike_id": "14b537ad0fb77cc061760be66a0ee458", "lon": -77.0232265, "rental_uris": {"ios": "https://dc.lft.to/lastmile_qr_scan", "android": "https://dc.lft.to/lastmile_qr_scan"}}, {"name": "b4e07dd82c92959d07ed47175f9a3d17", "fusion_lat": 0.0, "type": "electric_bike", "lat": 38.807889833333334, "is_reserved": 0, "is_disabled": 0, "fusion_lon": 0.0, "bike_id": "b4e07dd82c92959d07ed47175f9a3d17", "lon": -77.12956883333334, "rental_uris": {"ios": "https://dc.lft.to/lastmile_qr_scan", "android": "https://dc.lft.to/lastmile_qr_scan"}}, {"name": "baeb4b9d43d4d59f73b696fc84d9b452", "fusion_lat": 0.0, "type": "electric_bike", "lat": 38.8520865, "is_reserved": 0, "is_disabled": 0, "fusion_lon": 0.0, "bike_id": "baeb4b9d43d4d59f73b696fc84d9b452", "lon": -77.04641966666667, "rental_uris": {"ios": "https://dc.lft.to/lastmile_qr_scan", "android": "https://dc.lft.to/lastmile_qr_scan"}}, {"name": "a2266ccafb9266bcc684bdd0eb7209ce", "fusion_lat": 0.0, "type": "electric_scooter", "lat": 38.9062985, "is_reserved": 0, "is_disabled": 0, "fusion_lon": 0.0, "bike_id": "a2266ccafb9266bcc684bdd0eb7209ce", "lon": -77.00591666666666, "rental_uris": {"ios": "https://dc.lft.to/lastmile_qr_scan", "android": "https://dc.lft.to/lastmile_qr_scan"}}, {"name": "b787b28110c6e817253c3581259420aa", "fusion_lat": 0.0, "type": "electric_scooter", "lat": 38.878184833333336, "is_reserved": 0, "is_disabled": 0, "fusion_lon": 0.0, "bike_id": "b787b28110c6e817253c3581259420aa", "lon": -77.0058585, "rental_uris": {"ios": "https://dc.lft.to/lastmile_qr_scan", "android": "https://dc.lft.to/lastmile_qr_scan"}}, {"name": "665d045fe6963e9523fe08978e3a5434", "fusion_lat": 0.0, "type": "electric_scooter", "lat": 38.927634, "is_reserved": 0, "is_disabled": 0, "fusion_lon": 0.0, "bike_id": "665d045fe6963e9523fe08978e3a5434", "lon": -77.0277285, "rental_uris": {"ios": "https://dc.lft.to/lastmile_qr_scan", "android": "https://dc.lft.to/lastmile_qr_scan"}}, {"name": "57737e37ad5ffab83cd6e487615c7f4e", "fusion_lat": 0.0, "type": "electric_scooter", "lat": 38.923734, "is_reserved": 0, "is_disabled": 0, "fusion_lon": 0.0, "bike_id": "57737e37ad5ffab83cd6e487615c7f4e", "lon": -77.031638, "rental_uris": {"ios": "https://dc.lft.to/lastmile_qr_scan", "android": "https://dc.lft.to/lastmile_qr_scan"}}, {"name": "0b590ad875ae8fc099c971cff8d8713e", "fusion_lat": 0.0, "type": "electric_scooter", "lat": 38.947005833333336, "is_reserved": 0, "is_disabled": 0, "fusion_lon": 0.0, "bike_id": "0b590ad875ae8fc099c971cff8d8713e", "lon": -77.01945633333334, "rental_uris": {"ios": "https://dc.lft.to/lastmile_qr_scan", "android": "https://dc.lft.to/lastmile_qr_scan"}}, {"name": "11d6b9bf6a2c0c24c84e5c08e7991e8d", "fusion_lat": 0.0, "type": "electric_scooter", "lat": 38.959089666666664, "is_reserved": 0, "is_disabled": 0, "fusion_lon": 0.0, "bike_id": "11d6b9bf6a2c0c24c84e5c08e7991e8d", "lon": -77.08078166666667, "rental_uris": {"ios": "https://dc.lft.to/lastmile_qr_scan", "android": "https://dc.lft.to/lastmile_qr_scan"}}, {"name": "c349c69a4a9d5c865cf92d4a823ef9ed", "fusion_lat": 0.0, "type": "electric_scooter", "lat": 38.92353266666667, "is_reserved": 0, "is_disabled": 0, "fusion_lon": 0.0, "bike_id": "c349c69a4a9d5c865cf92d4a823ef9ed", "lon": -77.05433566666666, "rental_uris": {"ios": "https://dc.lft.to/lastmile_qr_scan", "android": "https://dc.lft.to/lastmile_qr_scan"}}, {"name": "0b45e1742f5a6db74641a2bfa214749a", "fusion_lat": 0.0, "type": "electric_scooter", "lat": 38.91749216666667, "is_reserved": 0, "is_disabled": 0, "fusion_lon": 0.0, "bike_id": "0b45e1742f5a6db74641a2bfa214749a", "lon": -77.03199833333333, "rental_uris": {"ios": "https://dc.lft.to/lastmile_qr_scan", "android": "https://dc.lft.to/lastmile_qr_scan"}}, {"name": "dca8b4317908dfc4d70114a6c47a4493", "fusion_lat": 0.0, "type": "electric_scooter", "lat": 38.8941065, "is_reserved": 0, "is_disabled": 0, "fusion_lon": 0.0, "bike_id": "dca8b4317908dfc4d70114a6c47a4493", "lon": -76.932403, "rental_uris": {"ios": "https://dc.lft.to/lastmile_qr_scan", "android": "https://dc.lft.to/lastmile_qr_scan"}}, {"name": "5b88b2e0624895a55ceba85b0c901a24", "fusion_lat": 0.0, "type": "electric_scooter", "lat": 38.9320825, "is_reserved": 0, "is_disabled": 0, "fusion_lon": 0.0, "bike_id": "5b88b2e0624895a55ceba85b0c901a24", "lon": -77.03668716666667, "rental_uris": {"ios": "https://dc.lft.to/lastmile_qr_scan", "android": "https://dc.lft.to/lastmile_qr_scan"}}, {"name": "c87bb41c1cd65de75c02566c50f3fdcc", "fusion_lat": 0.0, "type": "electric_bike", "lat": 39.00383166666666, "is_reserved": 0, "is_disabled": 0, "fusion_lon": 0.0, "bike_id": "c87bb41c1cd65de75c02566c50f3fdcc", "lon": -77.012895, "rental_uris": {"ios": "https://dc.lft.to/lastmile_qr_scan", "android": "https://dc.lft.to/lastmile_qr_scan"}}, {"name": "968620fde742d390a378b45863c3508c", "fusion_lat": 0.0, "type": "electric_scooter", "lat": 38.90420316666667, "is_reserved": 0, "is_disabled": 0, "fusion_lon": 0.0, "bike_id": "968620fde742d390a378b45863c3508c", "lon": -76.99070116666667, "rental_uris": {"ios": "https://dc.lft.to/lastmile_qr_scan", "android": "https://dc.lft.to/lastmile_qr_scan"}}, {"name": "cb58856faa3bdbc2cf47e2ab03d8fa8f", "fusion_lat": 0.0, "type": "electric_bike", "lat": 39.03862766666666, "is_reserved": 0, "is_disabled": 0, "fusion_lon": 0.0, "bike_id": "cb58856faa3bdbc2cf47e2ab03d8fa8f", "lon": -76.99029866666666, "rental_uris": {"ios": "https://dc.lft.to/lastmile_qr_scan", "android": "https://dc.lft.to/lastmile_qr_scan"}}, {"name": "96ca566b2ada7b90e9390431aeb2a993", "fusion_lat": 0.0, "type": "electric_scooter", "lat": 38.909467, "is_reserved": 0, "is_disabled": 0, "fusion_lon": 0.0, "bike_id": "96ca566b2ada7b90e9390431aeb2a993", "lon": -77.027574, "rental_uris": {"ios": "https://dc.lft.to/lastmile_qr_scan", "android": "https://dc.lft.to/lastmile_qr_scan"}}, {"name": "4fc335be0471bda70969d66729f9b066", "fusion_lat": 0.0, "type": "electric_scooter", "lat": 38.92145283333333, "is_reserved": 0, "is_disabled": 0, "fusion_lon": 0.0, "bike_id": "4fc335be0471bda70969d66729f9b066", "lon": -77.03510033333333, "rental_uris": {"ios": "https://dc.lft.to/lastmile_qr_scan", "android": "https://dc.lft.to/lastmile_qr_scan"}}, {"name": "208f32da6643d31842f16e406103a707", "fusion_lat": 0.0, "type": "electric_scooter", "lat": 38.9057655, "is_reserved": 0, "is_disabled": 0, "fusion_lon": 0.0, "bike_id": "208f32da6643d31842f16e406103a707", "lon": -77.02598233333333, "rental_uris": {"ios": "https://dc.lft.to/lastmile_qr_scan", "android": "https://dc.lft.to/lastmile_qr_scan"}}, {"name": "6489838a95691d23113c8fd1ea19d117", "fusion_lat": 0.0, "type": "electric_scooter", "lat": 38.90352466666667, "is_reserved": 0, "is_disabled": 0, "fusion_lon": 0.0, "bike_id": "6489838a95691d23113c8fd1ea19d117", "lon": -77.053444, "rental_uris": {"ios": "https://dc.lft.to/lastmile_qr_scan", "android": "https://dc.lft.to/lastmile_qr_scan"}}, {"name": "749ee861c7a6073efee90ade0591c19d", "fusion_lat": 0.0, "type": "electric_bike", "lat": 38.8808235, "is_reserved": 0, "is_disabled": 0, "fusion_lon": 0.0, "bike_id": "749ee861c7a6073efee90ade0591c19d", "lon": -76.98530033333333, "rental_uris": {"ios": "https://dc.lft.to/lastmile_qr_scan", "android": "https://dc.lft.to/lastmile_qr_scan"}}, {"name": "0de6ecf9547948d4ccc8a9159473e442", "fusion_lat": 0.0, "type": "electric_scooter", "lat": 38.9406555, "is_reserved": 0, "is_disabled": 0, "fusion_lon": 0.0, "bike_id": "0de6ecf9547948d4ccc8a9159473e442", "lon": -77.029599, "rental_uris": {"ios": "https://dc.lft.to/lastmile_qr_scan", "android": "https://dc.lft.to/lastmile_qr_scan"}}, {"name": "ef08e72f2cf4f2c2c048e7abac96f2ab", "fusion_lat": 0.0, "type": "electric_scooter", "lat": 38.919356, "is_reserved": 0, "is_disabled": 0, "fusion_lon": 0.0, "bike_id": "ef08e72f2cf4f2c2c048e7abac96f2ab", "lon": -77.0237825, "rental_uris": {"ios": "https://dc.lft.to/lastmile_qr_scan", "android": "https://dc.lft.to/lastmile_qr_scan"}}, {"name": "ef98571a791f60677fb2a847b37b5e50", "fusion_lat": 0.0, "type": "electric_scooter", "lat": 38.91284266666667, "is_reserved": 0, "is_disabled": 0, "fusion_lon": 0.0, "bike_id": "ef98571a791f60677fb2a847b37b5e50", "lon": -77.04498983333333, "rental_uris": {"ios": "https://dc.lft.to/lastmile_qr_scan", "android": "https://dc.lft.to/lastmile_qr_scan"}}, {"name": "8912cd62e2476879dfd1d34b375c03d4", "fusion_lat": 0.0, "type": "electric_scooter", "lat": 38.92571916666667, "is_reserved": 0, "is_disabled": 0, "fusion_lon": 0.0, "bike_id": "8912cd62e2476879dfd1d34b375c03d4", "lon": -77.02841583333333, "rental_uris": {"ios": "https://dc.lft.to/lastmile_qr_scan", "android": "https://dc.lft.to/lastmile_qr_scan"}}, {"name": "2745f3b37bd6020959c1ebd0bbee2997", "fusion_lat": 0.0, "type": "electric_scooter", "lat": 38.91556166666667, "is_reserved": 0, "is_disabled": 0, "fusion_lon": 0.0, "bike_id": "2745f3b37bd6020959c1ebd0bbee2997", "lon": -77.017222, "rental_uris": {"ios": "https://dc.lft.to/lastmile_qr_scan", "android": "https://dc.lft.to/lastmile_qr_scan"}}, {"name": "1d5dbf205f4a774042284100c25b19dc", "fusion_lat": 0.0, "type": "electric_scooter", "lat": 38.926115333333335, "is_reserved": 0, "is_disabled": 0, "fusion_lon": 0.0, "bike_id": "1d5dbf205f4a774042284100c25b19dc", "lon": -77.0440335, "rental_uris": {"ios": "https://dc.lft.to/lastmile_qr_scan", "android": "https://dc.lft.to/lastmile_qr_scan"}}, {"name": "dd5aa93d71eb876c52d76dc87a81fa41", "fusion_lat": 0.0, "type": "electric_scooter", "lat": 38.92151466666667, "is_reserved": 0, "is_disabled": 0, "fusion_lon": 0.0, "bike_id": "dd5aa93d71eb876c52d76dc87a81fa41", "lon": -77.04121233333333, "rental_uris": {"ios": "https://dc.lft.to/lastmile_qr_scan", "android": "https://dc.lft.to/lastmile_qr_scan"}}, {"name": "d2c5c8b5e0ec5bd9fb8a68486ea6686a", "fusion_lat": 0.0, "type": "electric_scooter", "lat": 38.905923333333334, "is_reserved": 0, "is_disabled": 0, "fusion_lon": 0.0, "bike_id": "d2c5c8b5e0ec5bd9fb8a68486ea6686a", "lon": -77.04652516666667, "rental_uris": {"ios": "https://dc.lft.to/lastmile_qr_scan", "android": "https://dc.lft.to/lastmile_qr_scan"}}, {"name": "4d7fad1cc54d4d4b0a0687846d2d79ed", "fusion_lat": 0.0, "type": "electric_scooter", "lat": 38.89179166666667, "is_reserved": 0, "is_disabled": 0, "fusion_lon": 0.0, "bike_id": "4d7fad1cc54d4d4b0a0687846d2d79ed", "lon": -76.95740716666667, "rental_uris": {"ios": "https://dc.lft.to/lastmile_qr_scan", "android": "https://dc.lft.to/lastmile_qr_scan"}}, {"name": "2d903fc33296bdaf5434586668ddc85e", "fusion_lat": 0.0, "type": "electric_scooter", "lat": 38.93034866666667, "is_reserved": 0, "is_disabled": 0, "fusion_lon": 0.0, "bike_id": "2d903fc33296bdaf5434586668ddc85e", "lon": -77.02957683333334, "rental_uris": {"ios": "https://dc.lft.to/lastmile_qr_scan", "android": "https://dc.lft.to/lastmile_qr_scan"}}, {"name": "5a106872e10e878bb92abcc69015d16e", "fusion_lat": 0.0, "type": "electric_scooter", "lat": 38.916949833333334, "is_reserved": 0, "is_disabled": 0, "fusion_lon": 0.0, "bike_id": "5a106872e10e878bb92abcc69015d16e", "lon": -77.03144666666667, "rental_uris": {"ios": "https://dc.lft.to/lastmile_qr_scan", "android": "https://dc.lft.to/lastmile_qr_scan"}}, {"name": "f4913cf0714e36f4f2737bf9ad0b6618", "fusion_lat": 0.0, "type": "electric_scooter", "lat": 38.926888166666664, "is_reserved": 0, "is_disabled": 0, "fusion_lon": 0.0, "bike_id": "f4913cf0714e36f4f2737bf9ad0b6618", "lon": -77.02301333333334, "rental_uris": {"ios": "https://dc.lft.to/lastmile_qr_scan", "android": "https://dc.lft.to/lastmile_qr_scan"}}, {"name": "cc3ed72dd17fc1bdd828b106a91e2d04", "fusion_lat": 0.0, "type": "electric_scooter", "lat": 38.918073, "is_reserved": 0, "is_disabled": 0, "fusion_lon": 0.0, "bike_id": "cc3ed72dd17fc1bdd828b106a91e2d04", "lon": -77.04623883333333, "rental_uris": {"ios": "https://dc.lft.to/lastmile_qr_scan", "android": "https://dc.lft.to/lastmile_qr_scan"}}, {"name": "ff1adf90aec48037ccccb3c166028846", "fusion_lat": 0.0, "type": "electric_scooter", "lat": 38.89003433333333, "is_reserved": 0, "is_disabled": 0, "fusion_lon": 0.0, "bike_id": "ff1adf90aec48037ccccb3c166028846", "lon": -77.04900983333333, "rental_uris": {"ios": "https://dc.lft.to/lastmile_qr_scan", "android": "https://dc.lft.to/lastmile_qr_scan"}}, {"name": "e4e12f999818b920c855a164f9ee549d", "fusion_lat": 0.0, "type": "electric_scooter", "lat": 38.92578133333333, "is_reserved": 0, "is_disabled": 0, "fusion_lon": 0.0, "bike_id": "e4e12f999818b920c855a164f9ee549d", "lon": -77.03775616666667, "rental_uris": {"ios": "https://dc.lft.to/lastmile_qr_scan", "android": "https://dc.lft.to/lastmile_qr_scan"}}, {"name": "6abfe18f8a9d5e58490bd50071d0d53e", "fusion_lat": 0.0, "type": "electric_scooter", "lat": 38.908638, "is_reserved": 0, "is_disabled": 0, "fusion_lon": 0.0, "bike_id": "6abfe18f8a9d5e58490bd50071d0d53e", "lon": -76.9995165, "rental_uris": {"ios": "https://dc.lft.to/lastmile_qr_scan", "android": "https://dc.lft.to/lastmile_qr_scan"}}, {"name": "4d61bced4b84a547915cd3ea777c92e6", "fusion_lat": 0.0, "type": "electric_scooter", "lat": 38.904262833333334, "is_reserved": 0, "is_disabled": 0, "fusion_lon": 0.0, "bike_id": "4d61bced4b84a547915cd3ea777c92e6", "lon": -77.02862366666666, "rental_uris": {"ios": "https://dc.lft.to/lastmile_qr_scan", "android": "https://dc.lft.to/lastmile_qr_scan"}}, {"name": "72dd33160af392cc3896e6a3f1cc7853", "fusion_lat": 0.0, "type": "electric_bike", "lat": 38.99454033333333, "is_reserved": 0, "is_disabled": 0, "fusion_lon": 0.0, "bike_id": "72dd33160af392cc3896e6a3f1cc7853", "lon": -76.9081535, "rental_uris": {"ios": "https://dc.lft.to/lastmile_qr_scan", "android": "https://dc.lft.to/lastmile_qr_scan"}}, {"name": "232c2884724202135f3f17ca545ed9a0", "fusion_lat": 0.0, "type": "electric_scooter", "lat": 38.92415, "is_reserved": 0, "is_disabled": 0, "fusion_lon": 0.0, "bike_id": "232c2884724202135f3f17ca545ed9a0", "lon": -77.022695, "rental_uris": {"ios": "https://dc.lft.to/lastmile_qr_scan", "android": "https://dc.lft.to/lastmile_qr_scan"}}, {"name": "893de915ef2e100ff737ccefa1aadc95", "fusion_lat": 0.0, "type": "electric_scooter", "lat": 38.9051295, "is_reserved": 0, "is_disabled": 0, "fusion_lon": 0.0, "bike_id": "893de915ef2e100ff737ccefa1aadc95", "lon": -77.0515025, "rental_uris": {"ios": "https://dc.lft.to/lastmile_qr_scan", "android": "https://dc.lft.to/lastmile_qr_scan"}}, {"name": "14d00ebf6a393d9ff5f87bea1fe09b14", "fusion_lat": 0.0, "type": "electric_scooter", "lat": 38.904990166666664, "is_reserved": 0, "is_disabled": 0, "fusion_lon": 0.0, "bike_id": "14d00ebf6a393d9ff5f87bea1fe09b14", "lon": -77.02763333333333, "rental_uris": {"ios": "https://dc.lft.to/lastmile_qr_scan", "android": "https://dc.lft.to/lastmile_qr_scan"}}, {"name": "454bed05683a9eca1367f81254b08dd5", "fusion_lat": 0.0, "type": "electric_scooter", "lat": 38.900361833333335, "is_reserved": 0, "is_disabled": 0, "fusion_lon": 0.0, "bike_id": "454bed05683a9eca1367f81254b08dd5", "lon": -77.00181966666666, "rental_uris": {"ios": "https://dc.lft.to/lastmile_qr_scan", "android": "https://dc.lft.to/lastmile_qr_scan"}}, {"name": "9e0a91a443c99c30e5e290ec5f4c0cf8", "fusion_lat": 0.0, "type": "electric_scooter", "lat": 38.89298433333333, "is_reserved": 0, "is_disabled": 0, "fusion_lon": 0.0, "bike_id": "9e0a91a443c99c30e5e290ec5f4c0cf8", "lon": -76.939302, "rental_uris": {"ios": "https://dc.lft.to/lastmile_qr_scan", "android": "https://dc.lft.to/lastmile_qr_scan"}}, {"name": "07802cddb6daaa6e93c9d76751182f45", "fusion_lat": 0.0, "type": "electric_scooter", "lat": 38.918207833333334, "is_reserved": 0, "is_disabled": 0, "fusion_lon": 0.0, "bike_id": "07802cddb6daaa6e93c9d76751182f45", "lon": -77.04015766666667, "rental_uris": {"ios": "https://dc.lft.to/lastmile_qr_scan", "android": "https://dc.lft.to/lastmile_qr_scan"}}, {"name": "0f24846448372a8f092aab8f7a403aaf", "fusion_lat": 0.0, "type": "electric_scooter", "lat": 38.9091115, "is_reserved": 0, "is_disabled": 0, "fusion_lon": 0.0, "bike_id": "0f24846448372a8f092aab8f7a403aaf", "lon": -77.03432666666667, "rental_uris": {"ios": "https://dc.lft.to/lastmile_qr_scan", "android": "https://dc.lft.to/lastmile_qr_scan"}}, {"name": "5c927a87b2a8590441d1296966ffc548", "fusion_lat": 0.0, "type": "electric_scooter", "lat": 38.899088666666664, "is_reserved": 0, "is_disabled": 0, "fusion_lon": 0.0, "bike_id": "5c927a87b2a8590441d1296966ffc548", "lon": -77.03928433333333, "rental_uris": {"ios": "https://dc.lft.to/lastmile_qr_scan", "android": "https://dc.lft.to/lastmile_qr_scan"}}, {"name": "54879799347c11e0d99835623e90c446", "fusion_lat": 0.0, "type": "electric_bike", "lat": 38.928778, "is_reserved": 0, "is_disabled": 0, "fusion_lon": 0.0, "bike_id": "54879799347c11e0d99835623e90c446", "lon": -77.042606, "rental_uris": {"ios": "https://dc.lft.to/lastmile_qr_scan", "android": "https://dc.lft.to/lastmile_qr_scan"}}, {"name": "2173bbf69a2121304947a73abd4bfd77", "fusion_lat": 0.0, "type": "electric_scooter", "lat": 38.93963, "is_reserved": 0, "is_disabled": 0, "fusion_lon": 0.0, "bike_id": "2173bbf69a2121304947a73abd4bfd77", "lon": -77.02751433333333, "rental_uris": {"ios": "https://dc.lft.to/lastmile_qr_scan", "android": "https://dc.lft.to/lastmile_qr_scan"}}, {"name": "69cf378871e9fbd02ff01615ad910a18", "fusion_lat": 0.0, "type": "electric_scooter", "lat": 38.883918, "is_reserved": 0, "is_disabled": 0, "fusion_lon": 0.0, "bike_id": "69cf378871e9fbd02ff01615ad910a18", "lon": -76.985362, "rental_uris": {"ios": "https://dc.lft.to/lastmile_qr_scan", "android": "https://dc.lft.to/lastmile_qr_scan"}}, {"name": "fbcba6cfd0b48e09af7d8138db8a5a38", "fusion_lat": 0.0, "type": "electric_bike", "lat": 38.832372666666664, "is_reserved": 0, "is_disabled": 0, "fusion_lon": 0.0, "bike_id": "fbcba6cfd0b48e09af7d8138db8a5a38", "lon": -76.94618633333333, "rental_uris": {"ios": "https://dc.lft.to/lastmile_qr_scan", "android": "https://dc.lft.to/lastmile_qr_scan"}}, {"name": "7aa92f3cc0d2929ce08c64e30da76b5e", "fusion_lat": 0.0, "type": "electric_bike", "lat": 38.952664666666664, "is_reserved": 0, "is_disabled": 0, "fusion_lon": 0.0, "bike_id": "7aa92f3cc0d2929ce08c64e30da76b5e", "lon": -77.06983066666666, "rental_uris": {"ios": "https://dc.lft.to/lastmile_qr_scan", "android": "https://dc.lft.to/lastmile_qr_scan"}}, {"name": "caf8246b7d0bc3f825bcfdae7eaacb19", "fusion_lat": 0.0, "type": "electric_scooter", "lat": 38.93333633333334, "is_reserved": 0, "is_disabled": 0, "fusion_lon": 0.0, "bike_id": "caf8246b7d0bc3f825bcfdae7eaacb19", "lon": -77.04363866666667, "rental_uris": {"ios": "https://dc.lft.to/lastmile_qr_scan", "android": "https://dc.lft.to/lastmile_qr_scan"}}, {"name": "b6acbcfc66936734575d8289001aefd6", "fusion_lat": 0.0, "type": "electric_scooter", "lat": 38.90168366666666, "is_reserved": 0, "is_disabled": 0, "fusion_lon": 0.0, "bike_id": "b6acbcfc66936734575d8289001aefd6", "lon": -77.01598366666667, "rental_uris": {"ios": "https://dc.lft.to/lastmile_qr_scan", "android": "https://dc.lft.to/lastmile_qr_scan"}}, {"name": "43a2b333fb519b20ac584f6bc8277fb5", "fusion_lat": 0.0, "type": "electric_scooter", "lat": 38.91546433333333, "is_reserved": 0, "is_disabled": 0, "fusion_lon": 0.0, "bike_id": "43a2b333fb519b20ac584f6bc8277fb5", "lon": -77.03855533333333, "rental_uris": {"ios": "https://dc.lft.to/lastmile_qr_scan", "android": "https://dc.lft.to/lastmile_qr_scan"}}, {"name": "3f8ce35402d3fa5b4aa2e70a11eaec22", "fusion_lat": 0.0, "type": "electric_scooter", "lat": 38.91199533333333, "is_reserved": 0, "is_disabled": 0, "fusion_lon": 0.0, "bike_id": "3f8ce35402d3fa5b4aa2e70a11eaec22", "lon": -77.0344055, "rental_uris": {"ios": "https://dc.lft.to/lastmile_qr_scan", "android": "https://dc.lft.to/lastmile_qr_scan"}}, {"name": "fc759e29563d466567034b8d0a75d664", "fusion_lat": 0.0, "type": "electric_scooter", "lat": 38.902678333333334, "is_reserved": 0, "is_disabled": 0, "fusion_lon": 0.0, "bike_id": "fc759e29563d466567034b8d0a75d664", "lon": -77.02999066666666, "rental_uris": {"ios": "https://dc.lft.to/lastmile_qr_scan", "android": "https://dc.lft.to/lastmile_qr_scan"}}, {"name": "5220bd68c734d026f2508a056e2e9ed3", "fusion_lat": 0.0, "type": "electric_scooter", "lat": 38.918112666666666, "is_reserved": 0, "is_disabled": 0, "fusion_lon": 0.0, "bike_id": "5220bd68c734d026f2508a056e2e9ed3", "lon": -77.0355555, "rental_uris": {"ios": "https://dc.lft.to/lastmile_qr_scan", "android": "https://dc.lft.to/lastmile_qr_scan"}}, {"name": "16880503f798fca59d82ee0b2c10b60e", "fusion_lat": 0.0, "type": "electric_scooter", "lat": 38.9003685, "is_reserved": 0, "is_disabled": 0, "fusion_lon": 0.0, "bike_id": "16880503f798fca59d82ee0b2c10b60e", "lon": -77.01188416666666, "rental_uris": {"ios": "https://dc.lft.to/lastmile_qr_scan", "android": "https://dc.lft.to/lastmile_qr_scan"}}, {"name": "834f082a4424f02353e9ea023e828ddd", "fusion_lat": 0.0, "type": "electric_scooter", "lat": 38.93872566666667, "is_reserved": 0, "is_disabled": 0, "fusion_lon": 0.0, "bike_id": "834f082a4424f02353e9ea023e828ddd", "lon": -77.0267295, "rental_uris": {"ios": "https://dc.lft.to/lastmile_qr_scan", "android": "https://dc.lft.to/lastmile_qr_scan"}}, {"name": "fa417ca58baa378a028ce6223b06ae8e", "fusion_lat": 0.0, "type": "electric_scooter", "lat": 38.956104833333335, "is_reserved": 0, "is_disabled": 0, "fusion_lon": 0.0, "bike_id": "fa417ca58baa378a028ce6223b06ae8e", "lon": -77.07716916666666, "rental_uris": {"ios": "https://dc.lft.to/lastmile_qr_scan", "android": "https://dc.lft.to/lastmile_qr_scan"}}, {"name": "ac0cb908e41527fd8df3fa46d2bb14b4", "fusion_lat": 0.0, "type": "electric_scooter", "lat": 38.92010066666667, "is_reserved": 0, "is_disabled": 0, "fusion_lon": 0.0, "bike_id": "ac0cb908e41527fd8df3fa46d2bb14b4", "lon": -77.03183883333334, "rental_uris": {"ios": "https://dc.lft.to/lastmile_qr_scan", "android": "https://dc.lft.to/lastmile_qr_scan"}}, {"name": "82ac49182a1add85d161b70c0276559a", "fusion_lat": 0.0, "type": "electric_scooter", "lat": 38.86536683333333, "is_reserved": 0, "is_disabled": 0, "fusion_lon": 0.0, "bike_id": "82ac49182a1add85d161b70c0276559a", "lon": -76.987063, "rental_uris": {"ios": "https://dc.lft.to/lastmile_qr_scan", "android": "https://dc.lft.to/lastmile_qr_scan"}}, {"name": "9b22f2e8316a9bb53293cb28a28712e1", "fusion_lat": 0.0, "type": "electric_scooter", "lat": 38.9191535, "is_reserved": 0, "is_disabled": 0, "fusion_lon": 0.0, "bike_id": "9b22f2e8316a9bb53293cb28a28712e1", "lon": -77.025142, "rental_uris": {"ios": "https://dc.lft.to/lastmile_qr_scan", "android": "https://dc.lft.to/lastmile_qr_scan"}}, {"name": "0370c6a40824d1f38e49551031b0a736", "fusion_lat": 0.0, "type": "electric_scooter", "lat": 38.900293833333336, "is_reserved": 0, "is_disabled": 0, "fusion_lon": 0.0, "bike_id": "0370c6a40824d1f38e49551031b0a736", "lon": -76.998617, "rental_uris": {"ios": "https://dc.lft.to/lastmile_qr_scan", "android": "https://dc.lft.to/lastmile_qr_scan"}}, {"name": "efc7e93b98ffd9ac6641f2df39ea4ae8", "fusion_lat": 0.0, "type": "electric_scooter", "lat": 38.911807833333334, "is_reserved": 0, "is_disabled": 0, "fusion_lon": 0.0, "bike_id": "efc7e93b98ffd9ac6641f2df39ea4ae8", "lon": -77.03208483333333, "rental_uris": {"ios": "https://dc.lft.to/lastmile_qr_scan", "android": "https://dc.lft.to/lastmile_qr_scan"}}, {"name": "dafb0e4c4b39f2883ff594e23b6fc145", "fusion_lat": 0.0, "type": "electric_scooter", "lat": 38.928996, "is_reserved": 0, "is_disabled": 0, "fusion_lon": 0.0, "bike_id": "dafb0e4c4b39f2883ff594e23b6fc145", "lon": -77.00520366666667, "rental_uris": {"ios": "https://dc.lft.to/lastmile_qr_scan", "android": "https://dc.lft.to/lastmile_qr_scan"}}, {"name": "0b2289e8b314d68bd5d33b22593d8eb0", "fusion_lat": 0.0, "type": "electric_bike", "lat": 38.863734666666666, "is_reserved": 0, "is_disabled": 0, "fusion_lon": 0.0, "bike_id": "0b2289e8b314d68bd5d33b22593d8eb0", "lon": -77.12896333333333, "rental_uris": {"ios": "https://dc.lft.to/lastmile_qr_scan", "android": "https://dc.lft.to/lastmile_qr_scan"}}, {"name": "f15b98de9824bab79d0816f768f6080d", "fusion_lat": 0.0, "type": "electric_scooter", "lat": 38.91062216666667, "is_reserved": 0, "is_disabled": 0, "fusion_lon": 0.0, "bike_id": "f15b98de9824bab79d0816f768f6080d", "lon": -77.00866733333334, "rental_uris": {"ios": "https://dc.lft.to/lastmile_qr_scan", "android": "https://dc.lft.to/lastmile_qr_scan"}}, {"name": "f53c8367e53ea004e3c9c4a678838a39", "fusion_lat": 0.0, "type": "electric_bike", "lat": 38.927044, "is_reserved": 0, "is_disabled": 0, "fusion_lon": 0.0, "bike_id": "f53c8367e53ea004e3c9c4a678838a39", "lon": -77.02281483333333, "rental_uris": {"ios": "https://dc.lft.to/lastmile_qr_scan", "android": "https://dc.lft.to/lastmile_qr_scan"}}, {"name": "0192f32b81beef347dbdc2fe268e3f7a", "fusion_lat": 0.0, "type": "electric_scooter", "lat": 38.920247333333336, "is_reserved": 0, "is_disabled": 0, "fusion_lon": 0.0, "bike_id": "0192f32b81beef347dbdc2fe268e3f7a", "lon": -77.03114983333333, "rental_uris": {"ios": "https://dc.lft.to/lastmile_qr_scan", "android": "https://dc.lft.to/lastmile_qr_scan"}}, {"name": "4e64dd90f28c5aac79a4e7874d4eed89", "fusion_lat": 0.0, "type": "electric_bike", "lat": 38.97089616666667, "is_reserved": 0, "is_disabled": 0, "fusion_lon": 0.0, "bike_id": "4e64dd90f28c5aac79a4e7874d4eed89", "lon": -77.069672, "rental_uris": {"ios": "https://dc.lft.to/lastmile_qr_scan", "android": "https://dc.lft.to/lastmile_qr_scan"}}, {"name": "d3e198341fc79004542191000035f3a9", "fusion_lat": 0.0, "type": "electric_scooter", "lat": 38.89247266666667, "is_reserved": 0, "is_disabled": 0, "fusion_lon": 0.0, "bike_id": "d3e198341fc79004542191000035f3a9", "lon": -77.01523516666667, "rental_uris": {"ios": "https://dc.lft.to/lastmile_qr_scan", "android": "https://dc.lft.to/lastmile_qr_scan"}}, {"name": "7fd7beb2b968acb96708f08512f06afe", "fusion_lat": 0.0, "type": "electric_scooter", "lat": 38.9055835, "is_reserved": 0, "is_disabled": 0, "fusion_lon": 0.0, "bike_id": "7fd7beb2b968acb96708f08512f06afe", "lon": -76.98379466666667, "rental_uris": {"ios": "https://dc.lft.to/lastmile_qr_scan", "android": "https://dc.lft.to/lastmile_qr_scan"}}, {"name": "690781f75aeb719993ab5808a7956217", "fusion_lat": 0.0, "type": "electric_scooter", "lat": 38.91257266666667, "is_reserved": 0, "is_disabled": 0, "fusion_lon": 0.0, "bike_id": "690781f75aeb719993ab5808a7956217", "lon": -77.0321165, "rental_uris": {"ios": "https://dc.lft.to/lastmile_qr_scan", "android": "https://dc.lft.to/lastmile_qr_scan"}}, {"name": "68a04b45b1ab33ed654b445c519abb4a", "fusion_lat": 0.0, "type": "electric_scooter", "lat": 38.926304, "is_reserved": 0, "is_disabled": 0, "fusion_lon": 0.0, "bike_id": "68a04b45b1ab33ed654b445c519abb4a", "lon": -77.03786433333333, "rental_uris": {"ios": "https://dc.lft.to/lastmile_qr_scan", "android": "https://dc.lft.to/lastmile_qr_scan"}}, {"name": "ffa27e65b7519753d1974824328fe56f", "fusion_lat": 0.0, "type": "electric_scooter", "lat": 38.916906166666664, "is_reserved": 0, "is_disabled": 0, "fusion_lon": 0.0, "bike_id": "ffa27e65b7519753d1974824328fe56f", "lon": -77.0228195, "rental_uris": {"ios": "https://dc.lft.to/lastmile_qr_scan", "android": "https://dc.lft.to/lastmile_qr_scan"}}, {"name": "b47c6b2d20e1c7316588c5e0191546d9", "fusion_lat": 0.0, "type": "electric_bike", "lat": 38.9154175, "is_reserved": 0, "is_disabled": 0, "fusion_lon": 0.0, "bike_id": "b47c6b2d20e1c7316588c5e0191546d9", "lon": -77.06770633333333, "rental_uris": {"ios": "https://dc.lft.to/lastmile_qr_scan", "android": "https://dc.lft.to/lastmile_qr_scan"}}, {"name": "105a9afc9bd6f7e275efa90fcda84a9f", "fusion_lat": 0.0, "type": "electric_scooter", "lat": 38.88823766666667, "is_reserved": 0, "is_disabled": 0, "fusion_lon": 0.0, "bike_id": "105a9afc9bd6f7e275efa90fcda84a9f", "lon": -77.04935583333334, "rental_uris": {"ios": "https://dc.lft.to/lastmile_qr_scan", "android": "https://dc.lft.to/lastmile_qr_scan"}}, {"name": "cbe93f3b02a63ffe77e98735b00647bd", "fusion_lat": 0.0, "type": "electric_scooter", "lat": 38.88430966666667, "is_reserved": 0, "is_disabled": 0, "fusion_lon": 0.0, "bike_id": "cbe93f3b02a63ffe77e98735b00647bd", "lon": -76.95759583333333, "rental_uris": {"ios": "https://dc.lft.to/lastmile_qr_scan", "android": "https://dc.lft.to/lastmile_qr_scan"}}, {"name": "28af8702f757ee893d41d8df2b9a9d06", "fusion_lat": 0.0, "type": "electric_scooter", "lat": 38.91679333333333, "is_reserved": 0, "is_disabled": 0, "fusion_lon": 0.0, "bike_id": "28af8702f757ee893d41d8df2b9a9d06", "lon": -77.03173516666666, "rental_uris": {"ios": "https://dc.lft.to/lastmile_qr_scan", "android": "https://dc.lft.to/lastmile_qr_scan"}}, {"name": "0b10f6601129a8089426648e41770a88", "fusion_lat": 0.0, "type": "electric_bike", "lat": 38.89562016666667, "is_reserved": 0, "is_disabled": 0, "fusion_lon": 0.0, "bike_id": "0b10f6601129a8089426648e41770a88", "lon": -77.127301, "rental_uris": {"ios": "https://dc.lft.to/lastmile_qr_scan", "android": "https://dc.lft.to/lastmile_qr_scan"}}, {"name": "17701be9b208dfebbc8e255bc868ccf9", "fusion_lat": 0.0, "type": "electric_bike", "lat": 39.10565183333333, "is_reserved": 0, "is_disabled": 0, "fusion_lon": 0.0, "bike_id": "17701be9b208dfebbc8e255bc868ccf9", "lon": -77.15265366666667, "rental_uris": {"ios": "https://dc.lft.to/lastmile_qr_scan", "android": "https://dc.lft.to/lastmile_qr_scan"}}, {"name": "a7dcb5dd94c84adb2b79b8467a08fc35", "fusion_lat": 0.0, "type": "electric_bike", "lat": 38.9229835, "is_reserved": 0, "is_disabled": 0, "fusion_lon": 0.0, "bike_id": "a7dcb5dd94c84adb2b79b8467a08fc35", "lon": -76.99379333333333, "rental_uris": {"ios": "https://dc.lft.to/lastmile_qr_scan", "android": "https://dc.lft.to/lastmile_qr_scan"}}, {"name": "32786ebd2505151d4c1d03b54079c056", "fusion_lat": 0.0, "type": "electric_scooter", "lat": 38.89529566666667, "is_reserved": 0, "is_disabled": 0, "fusion_lon": 0.0, "bike_id": "32786ebd2505151d4c1d03b54079c056", "lon": -76.94925883333333, "rental_uris": {"ios": "https://dc.lft.to/lastmile_qr_scan", "android": "https://dc.lft.to/lastmile_qr_scan"}}, {"name": "c3f86867f207833af3c7b2cd05bdc3b0", "fusion_lat": 0.0, "type": "electric_scooter", "lat": 38.91674483333333, "is_reserved": 0, "is_disabled": 0, "fusion_lon": 0.0, "bike_id": "c3f86867f207833af3c7b2cd05bdc3b0", "lon": -77.02948933333333, "rental_uris": {"ios": "https://dc.lft.to/lastmile_qr_scan", "android": "https://dc.lft.to/lastmile_qr_scan"}}, {"name": "67a6b647c352fd0f37f677e92c2a34b2", "fusion_lat": 0.0, "type": "electric_scooter", "lat": 38.896225333333334, "is_reserved": 0, "is_disabled": 0, "fusion_lon": 0.0, "bike_id": "67a6b647c352fd0f37f677e92c2a34b2", "lon": -77.023759, "rental_uris": {"ios": "https://dc.lft.to/lastmile_qr_scan", "android": "https://dc.lft.to/lastmile_qr_scan"}}, {"name": "6cc9f2cd5f20aa9431a551a4e4646f1d", "fusion_lat": 0.0, "type": "electric_scooter", "lat": 38.896068666666665, "is_reserved": 0, "is_disabled": 0, "fusion_lon": 0.0, "bike_id": "6cc9f2cd5f20aa9431a551a4e4646f1d", "lon": -77.04115116666667, "rental_uris": {"ios": "https://dc.lft.to/lastmile_qr_scan", "android": "https://dc.lft.to/lastmile_qr_scan"}}, {"name": "384fbad1cd4141ff64905507612554c3", "fusion_lat": 0.0, "type": "electric_scooter", "lat": 38.8764975, "is_reserved": 0, "is_disabled": 0, "fusion_lon": 0.0, "bike_id": "384fbad1cd4141ff64905507612554c3", "lon": -76.96505716666667, "rental_uris": {"ios": "https://dc.lft.to/lastmile_qr_scan", "android": "https://dc.lft.to/lastmile_qr_scan"}}, {"name": "ffb3b8e0951e4e9aafd0adec08f6b733", "fusion_lat": 0.0, "type": "electric_scooter", "lat": 38.952185, "is_reserved": 0, "is_disabled": 0, "fusion_lon": 0.0, "bike_id": "ffb3b8e0951e4e9aafd0adec08f6b733", "lon": -77.07069416666667, "rental_uris": {"ios": "https://dc.lft.to/lastmile_qr_scan", "android": "https://dc.lft.to/lastmile_qr_scan"}}, {"name": "af020b49e7529b9cecc295580fcb6058", "fusion_lat": 0.0, "type": "electric_scooter", "lat": 38.902588333333334, "is_reserved": 0, "is_disabled": 0, "fusion_lon": 0.0, "bike_id": "af020b49e7529b9cecc295580fcb6058", "lon": -77.017593, "rental_uris": {"ios": "https://dc.lft.to/lastmile_qr_scan", "android": "https://dc.lft.to/lastmile_qr_scan"}}, {"name": "fd22c07f7ff480244079cef94cbcd86d", "fusion_lat": 0.0, "type": "electric_scooter", "lat": 38.9105285, "is_reserved": 0, "is_disabled": 0, "fusion_lon": 0.0, "bike_id": "fd22c07f7ff480244079cef94cbcd86d", "lon": -77.04581583333334, "rental_uris": {"ios": "https://dc.lft.to/lastmile_qr_scan", "android": "https://dc.lft.to/lastmile_qr_scan"}}, {"name": "fc2ea1f3649a88ed223d12816e3ae36f", "fusion_lat": 0.0, "type": "electric_scooter", "lat": 38.922685, "is_reserved": 0, "is_disabled": 0, "fusion_lon": 0.0, "bike_id": "fc2ea1f3649a88ed223d12816e3ae36f", "lon": -77.03403116666667, "rental_uris": {"ios": "https://dc.lft.to/lastmile_qr_scan", "android": "https://dc.lft.to/lastmile_qr_scan"}}, {"name": "119e76a2b206511e0edae1ad623783e5", "fusion_lat": 0.0, "type": "electric_bike", "lat": 38.9037995, "is_reserved": 0, "is_disabled": 0, "fusion_lon": 0.0, "bike_id": "119e76a2b206511e0edae1ad623783e5", "lon": -77.01254933333334, "rental_uris": {"ios": "https://dc.lft.to/lastmile_qr_scan", "android": "https://dc.lft.to/lastmile_qr_scan"}}, {"name": "f88e60c35ca2988f58ce00fbd063d468", "fusion_lat": 0.0, "type": "electric_scooter", "lat": 38.91894933333333, "is_reserved": 0, "is_disabled": 0, "fusion_lon": 0.0, "bike_id": "f88e60c35ca2988f58ce00fbd063d468", "lon": -77.05289316666666, "rental_uris": {"ios": "https://dc.lft.to/lastmile_qr_scan", "android": "https://dc.lft.to/lastmile_qr_scan"}}, {"name": "265281fbb8880e3f39ed30cfbe7dbed8", "fusion_lat": 0.0, "type": "electric_scooter", "lat": 38.8948085, "is_reserved": 0, "is_disabled": 0, "fusion_lon": 0.0, "bike_id": "265281fbb8880e3f39ed30cfbe7dbed8", "lon": -76.94867833333333, "rental_uris": {"ios": "https://dc.lft.to/lastmile_qr_scan", "android": "https://dc.lft.to/lastmile_qr_scan"}}, {"name": "219e69c308e1c7853ddcecc105e6e9b5", "fusion_lat": 0.0, "type": "electric_scooter", "lat": 38.89503833333333, "is_reserved": 0, "is_disabled": 0, "fusion_lon": 0.0, "bike_id": "219e69c308e1c7853ddcecc105e6e9b5", "lon": -77.0240815, "rental_uris": {"ios": "https://dc.lft.to/lastmile_qr_scan", "android": "https://dc.lft.to/lastmile_qr_scan"}}, {"name": "3be9efe3eac42fdf2f4df1b7340c62bf", "fusion_lat": 0.0, "type": "electric_scooter", "lat": 38.865039, "is_reserved": 0, "is_disabled": 0, "fusion_lon": 0.0, "bike_id": "3be9efe3eac42fdf2f4df1b7340c62bf", "lon": -76.989986, "rental_uris": {"ios": "https://dc.lft.to/lastmile_qr_scan", "android": "https://dc.lft.to/lastmile_qr_scan"}}, {"name": "37af65f0e1a6a5bd3e3dfcbe074606f2", "fusion_lat": 0.0, "type": "electric_scooter", "lat": 38.90973416666667, "is_reserved": 0, "is_disabled": 0, "fusion_lon": 0.0, "bike_id": "37af65f0e1a6a5bd3e3dfcbe074606f2", "lon": -77.021799, "rental_uris": {"ios": "https://dc.lft.to/lastmile_qr_scan", "android": "https://dc.lft.to/lastmile_qr_scan"}}, {"name": "e3754469d67c21aed6d8638d310310a6", "fusion_lat": 0.0, "type": "electric_scooter", "lat": 38.925833833333336, "is_reserved": 0, "is_disabled": 0, "fusion_lon": 0.0, "bike_id": "e3754469d67c21aed6d8638d310310a6", "lon": -77.05292716666666, "rental_uris": {"ios": "https://dc.lft.to/lastmile_qr_scan", "android": "https://dc.lft.to/lastmile_qr_scan"}}, {"name": "a0735d4999829a72aedce2a32f2f3a63", "fusion_lat": 0.0, "type": "electric_bike", "lat": 38.82727633333333, "is_reserved": 0, "is_disabled": 0, "fusion_lon": 0.0, "bike_id": "a0735d4999829a72aedce2a32f2f3a63", "lon": -77.008663, "rental_uris": {"ios": "https://dc.lft.to/lastmile_qr_scan", "android": "https://dc.lft.to/lastmile_qr_scan"}}, {"name": "57056ff15db16694f89f02108d9e2f11", "fusion_lat": 0.0, "type": "electric_scooter", "lat": 38.886690333333334, "is_reserved": 0, "is_disabled": 0, "fusion_lon": 0.0, "bike_id": "57056ff15db16694f89f02108d9e2f11", "lon": -76.936149, "rental_uris": {"ios": "https://dc.lft.to/lastmile_qr_scan", "android": "https://dc.lft.to/lastmile_qr_scan"}}, {"name": "2634739f46e37cbc7a3fc1f4d9b33b55", "fusion_lat": 0.0, "type": "electric_scooter", "lat": 38.9232325, "is_reserved": 0, "is_disabled": 0, "fusion_lon": 0.0, "bike_id": "2634739f46e37cbc7a3fc1f4d9b33b55", "lon": -77.05436283333333, "rental_uris": {"ios": "https://dc.lft.to/lastmile_qr_scan", "android": "https://dc.lft.to/lastmile_qr_scan"}}, {"name": "c0dfebe2a482fa911bb8801bb1124113", "fusion_lat": 0.0, "type": "electric_scooter", "lat": 38.901238666666664, "is_reserved": 0, "is_disabled": 0, "fusion_lon": 0.0, "bike_id": "c0dfebe2a482fa911bb8801bb1124113", "lon": -77.03342366666666, "rental_uris": {"ios": "https://dc.lft.to/lastmile_qr_scan", "android": "https://dc.lft.to/lastmile_qr_scan"}}, {"name": "5023e2694d1666efb4c85436de1a3bfd", "fusion_lat": 0.0, "type": "electric_scooter", "lat": 38.901382, "is_reserved": 0, "is_disabled": 0, "fusion_lon": 0.0, "bike_id": "5023e2694d1666efb4c85436de1a3bfd", "lon": -76.98952433333334, "rental_uris": {"ios": "https://dc.lft.to/lastmile_qr_scan", "android": "https://dc.lft.to/lastmile_qr_scan"}}, {"name": "f4ac60dcefafa57a1ff0bd29d29a2d8e", "fusion_lat": 0.0, "type": "electric_scooter", "lat": 38.9455945, "is_reserved": 0, "is_disabled": 0, "fusion_lon": 0.0, "bike_id": "f4ac60dcefafa57a1ff0bd29d29a2d8e", "lon": -77.077713, "rental_uris": {"ios": "https://dc.lft.to/lastmile_qr_scan", "android": "https://dc.lft.to/lastmile_qr_scan"}}, {"name": "7a41f0b9e95a7cd76a57f3f70b6483ed", "fusion_lat": 0.0, "type": "electric_scooter", "lat": 38.89222866666667, "is_reserved": 0, "is_disabled": 0, "fusion_lon": 0.0, "bike_id": "7a41f0b9e95a7cd76a57f3f70b6483ed", "lon": -77.05012633333334, "rental_uris": {"ios": "https://dc.lft.to/lastmile_qr_scan", "android": "https://dc.lft.to/lastmile_qr_scan"}}, {"name": "b5cc41bb42580e44d50570477f954b0c", "fusion_lat": 0.0, "type": "electric_bike", "lat": 38.842722333333334, "is_reserved": 0, "is_disabled": 0, "fusion_lon": 0.0, "bike_id": "b5cc41bb42580e44d50570477f954b0c", "lon": -76.98840466666667, "rental_uris": {"ios": "https://dc.lft.to/lastmile_qr_scan", "android": "https://dc.lft.to/lastmile_qr_scan"}}, {"name": "d78da3078027f0d310dab3088e1ff895", "fusion_lat": 0.0, "type": "electric_scooter", "lat": 38.90629966666667, "is_reserved": 0, "is_disabled": 0, "fusion_lon": 0.0, "bike_id": "d78da3078027f0d310dab3088e1ff895", "lon": -77.04152233333333, "rental_uris": {"ios": "https://dc.lft.to/lastmile_qr_scan", "android": "https://dc.lft.to/lastmile_qr_scan"}}, {"name": "733c6d2abb5bf824683dde14fcc5df4e", "fusion_lat": 0.0, "type": "electric_scooter", "lat": 38.87899216666667, "is_reserved": 0, "is_disabled": 0, "fusion_lon": 0.0, "bike_id": "733c6d2abb5bf824683dde14fcc5df4e", "lon": -77.0056045, "rental_uris": {"ios": "https://dc.lft.to/lastmile_qr_scan", "android": "https://dc.lft.to/lastmile_qr_scan"}}, {"name": "9d0d8e79a95066ca57e042da93f2ade2", "fusion_lat": 0.0, "type": "electric_scooter", "lat": 38.9139645, "is_reserved": 0, "is_disabled": 0, "fusion_lon": 0.0, "bike_id": "9d0d8e79a95066ca57e042da93f2ade2", "lon": -77.041728, "rental_uris": {"ios": "https://dc.lft.to/lastmile_qr_scan", "android": "https://dc.lft.to/lastmile_qr_scan"}}, {"name": "698a13a34b711ed311e2abe6725c0019", "fusion_lat": 0.0, "type": "electric_scooter", "lat": 38.90267133333333, "is_reserved": 0, "is_disabled": 0, "fusion_lon": 0.0, "bike_id": "698a13a34b711ed311e2abe6725c0019", "lon": -77.06249883333334, "rental_uris": {"ios": "https://dc.lft.to/lastmile_qr_scan", "android": "https://dc.lft.to/lastmile_qr_scan"}}, {"name": "303b02fa68ce59376b27aad4d8fd2c72", "fusion_lat": 0.0, "type": "electric_scooter", "lat": 38.9058385, "is_reserved": 0, "is_disabled": 0, "fusion_lon": 0.0, "bike_id": "303b02fa68ce59376b27aad4d8fd2c72", "lon": -77.00700066666667, "rental_uris": {"ios": "https://dc.lft.to/lastmile_qr_scan", "android": "https://dc.lft.to/lastmile_qr_scan"}}, {"name": "733b20b536feeeefcedeebc76e15bb0b", "fusion_lat": 0.0, "type": "electric_scooter", "lat": 38.8774815, "is_reserved": 0, "is_disabled": 0, "fusion_lon": 0.0, "bike_id": "733b20b536feeeefcedeebc76e15bb0b", "lon": -77.01985733333333, "rental_uris": {"ios": "https://dc.lft.to/lastmile_qr_scan", "android": "https://dc.lft.to/lastmile_qr_scan"}}, {"name": "0bc29498f3b99bbb324c1b1ad8abac1d", "fusion_lat": 0.0, "type": "electric_scooter", "lat": 38.9038065, "is_reserved": 0, "is_disabled": 0, "fusion_lon": 0.0, "bike_id": "0bc29498f3b99bbb324c1b1ad8abac1d", "lon": -77.04905883333333, "rental_uris": {"ios": "https://dc.lft.to/lastmile_qr_scan", "android": "https://dc.lft.to/lastmile_qr_scan"}}, {"name": "29e68b899962a6cb38429bbfda6ba0a6", "fusion_lat": 0.0, "type": "electric_scooter", "lat": 38.916918333333335, "is_reserved": 0, "is_disabled": 0, "fusion_lon": 0.0, "bike_id": "29e68b899962a6cb38429bbfda6ba0a6", "lon": -77.0125165, "rental_uris": {"ios": "https://dc.lft.to/lastmile_qr_scan", "android": "https://dc.lft.to/lastmile_qr_scan"}}, {"name": "7bd561af2193806ca8e255ab569e7f52", "fusion_lat": 0.0, "type": "electric_scooter", "lat": 38.91673766666667, "is_reserved": 0, "is_disabled": 0, "fusion_lon": 0.0, "bike_id": "7bd561af2193806ca8e255ab569e7f52", "lon": -77.029615, "rental_uris": {"ios": "https://dc.lft.to/lastmile_qr_scan", "android": "https://dc.lft.to/lastmile_qr_scan"}}, {"name": "a7e6e3b55959171ef1595d9a551753b2", "fusion_lat": 0.0, "type": "electric_scooter", "lat": 38.90441833333333, "is_reserved": 0, "is_disabled": 0, "fusion_lon": 0.0, "bike_id": "a7e6e3b55959171ef1595d9a551753b2", "lon": -76.97555866666667, "rental_uris": {"ios": "https://dc.lft.to/lastmile_qr_scan", "android": "https://dc.lft.to/lastmile_qr_scan"}}, {"name": "b30b7e5c4b6fdc71b137e087fe913984", "fusion_lat": 0.0, "type": "electric_scooter", "lat": 38.90534383333333, "is_reserved": 0, "is_disabled": 0, "fusion_lon": 0.0, "bike_id": "b30b7e5c4b6fdc71b137e087fe913984", "lon": -77.04285183333333, "rental_uris": {"ios": "https://dc.lft.to/lastmile_qr_scan", "android": "https://dc.lft.to/lastmile_qr_scan"}}, {"name": "b2b85b788b71ab02107b5729038045f5", "fusion_lat": 0.0, "type": "electric_scooter", "lat": 38.917821833333335, "is_reserved": 0, "is_disabled": 0, "fusion_lon": 0.0, "bike_id": "b2b85b788b71ab02107b5729038045f5", "lon": -77.023096, "rental_uris": {"ios": "https://dc.lft.to/lastmile_qr_scan", "android": "https://dc.lft.to/lastmile_qr_scan"}}, {"name": "bd33a8e80ba8ea24281d4efc2bea2664", "fusion_lat": 0.0, "type": "electric_scooter", "lat": 38.881237, "is_reserved": 0, "is_disabled": 0, "fusion_lon": 0.0, "bike_id": "bd33a8e80ba8ea24281d4efc2bea2664", "lon": -77.0133535, "rental_uris": {"ios": "https://dc.lft.to/lastmile_qr_scan", "android": "https://dc.lft.to/lastmile_qr_scan"}}, {"name": "c536afa63a2653603a93cf438e2cd3fd", "fusion_lat": 0.0, "type": "electric_scooter", "lat": 38.9060935, "is_reserved": 0, "is_disabled": 0, "fusion_lon": 0.0, "bike_id": "c536afa63a2653603a93cf438e2cd3fd", "lon": -77.00711233333334, "rental_uris": {"ios": "https://dc.lft.to/lastmile_qr_scan", "android": "https://dc.lft.to/lastmile_qr_scan"}}, {"name": "781801ddd6ba25c86d6ab8c2124477eb", "fusion_lat": 0.0, "type": "electric_scooter", "lat": 38.866551, "is_reserved": 0, "is_disabled": 0, "fusion_lon": 0.0, "bike_id": "781801ddd6ba25c86d6ab8c2124477eb", "lon": -76.98884066666666, "rental_uris": {"ios": "https://dc.lft.to/lastmile_qr_scan", "android": "https://dc.lft.to/lastmile_qr_scan"}}, {"name": "89116b92ca869e4c11b2185a59088797", "fusion_lat": 0.0, "type": "electric_scooter", "lat": 38.913018666666666, "is_reserved": 0, "is_disabled": 0, "fusion_lon": 0.0, "bike_id": "89116b92ca869e4c11b2185a59088797", "lon": -77.02019883333334, "rental_uris": {"ios": "https://dc.lft.to/lastmile_qr_scan", "android": "https://dc.lft.to/lastmile_qr_scan"}}, {"name": "319e33f0ed2e1096a03fc8d30d830598", "fusion_lat": 0.0, "type": "electric_bike", "lat": 38.93412333333333, "is_reserved": 0, "is_disabled": 0, "fusion_lon": 0.0, "bike_id": "319e33f0ed2e1096a03fc8d30d830598", "lon": -77.025129, "rental_uris": {"ios": "https://dc.lft.to/lastmile_qr_scan", "android": "https://dc.lft.to/lastmile_qr_scan"}}, {"name": "b438e9dba564d060036beede20cab632", "fusion_lat": 0.0, "type": "electric_scooter", "lat": 38.897315166666665, "is_reserved": 0, "is_disabled": 0, "fusion_lon": 0.0, "bike_id": "b438e9dba564d060036beede20cab632", "lon": -77.009492, "rental_uris": {"ios": "https://dc.lft.to/lastmile_qr_scan", "android": "https://dc.lft.to/lastmile_qr_scan"}}, {"name": "f946794e564989aa97e7f36caa408fa4", "fusion_lat": 0.0, "type": "electric_scooter", "lat": 38.90312516666667, "is_reserved": 0, "is_disabled": 0, "fusion_lon": 0.0, "bike_id": "f946794e564989aa97e7f36caa408fa4", "lon": -76.97796466666667, "rental_uris": {"ios": "https://dc.lft.to/lastmile_qr_scan", "android": "https://dc.lft.to/lastmile_qr_scan"}}, {"name": "651785d2f808455e1d0bdadfff08f9af", "fusion_lat": 0.0, "type": "electric_scooter", "lat": 38.90535966666667, "is_reserved": 0, "is_disabled": 0, "fusion_lon": 0.0, "bike_id": "651785d2f808455e1d0bdadfff08f9af", "lon": -77.06265283333333, "rental_uris": {"ios": "https://dc.lft.to/lastmile_qr_scan", "android": "https://dc.lft.to/lastmile_qr_scan"}}, {"name": "64020d48bedd9a60c416758e60c608d5", "fusion_lat": 0.0, "type": "electric_scooter", "lat": 38.930776333333334, "is_reserved": 0, "is_disabled": 0, "fusion_lon": 0.0, "bike_id": "64020d48bedd9a60c416758e60c608d5", "lon": -77.0279325, "rental_uris": {"ios": "https://dc.lft.to/lastmile_qr_scan", "android": "https://dc.lft.to/lastmile_qr_scan"}}, {"name": "a480f3e0198032718bfd83b1afcfeff2", "fusion_lat": 0.0, "type": "electric_scooter", "lat": 38.905237166666666, "is_reserved": 0, "is_disabled": 0, "fusion_lon": 0.0, "bike_id": "a480f3e0198032718bfd83b1afcfeff2", "lon": -77.02972833333334, "rental_uris": {"ios": "https://dc.lft.to/lastmile_qr_scan", "android": "https://dc.lft.to/lastmile_qr_scan"}}, {"name": "ff86c29801607326703bd8e1b242dad4", "fusion_lat": 0.0, "type": "electric_scooter", "lat": 38.903253666666664, "is_reserved": 0, "is_disabled": 0, "fusion_lon": 0.0, "bike_id": "ff86c29801607326703bd8e1b242dad4", "lon": -77.03643283333334, "rental_uris": {"ios": "https://dc.lft.to/lastmile_qr_scan", "android": "https://dc.lft.to/lastmile_qr_scan"}}, {"name": "b20fe74404c113edc54cd942e72a4189", "fusion_lat": 0.0, "type": "electric_scooter", "lat": 38.91852216666667, "is_reserved": 0, "is_disabled": 0, "fusion_lon": 0.0, "bike_id": "b20fe74404c113edc54cd942e72a4189", "lon": -77.0450035, "rental_uris": {"ios": "https://dc.lft.to/lastmile_qr_scan", "android": "https://dc.lft.to/lastmile_qr_scan"}}, {"name": "8fac769aaf82d7d3f918620ca9d930b5", "fusion_lat": 0.0, "type": "electric_scooter", "lat": 38.90742, "is_reserved": 0, "is_disabled": 0, "fusion_lon": 0.0, "bike_id": "8fac769aaf82d7d3f918620ca9d930b5", "lon": -77.00817633333334, "rental_uris": {"ios": "https://dc.lft.to/lastmile_qr_scan", "android": "https://dc.lft.to/lastmile_qr_scan"}}, {"name": "2bb0866aa063ecbc80f672c5e3f08c53", "fusion_lat": 0.0, "type": "electric_bike", "lat": 38.90502983333333, "is_reserved": 0, "is_disabled": 0, "fusion_lon": 0.0, "bike_id": "2bb0866aa063ecbc80f672c5e3f08c53", "lon": -77.02947483333334, "rental_uris": {"ios": "https://dc.lft.to/lastmile_qr_scan", "android": "https://dc.lft.to/lastmile_qr_scan"}}, {"name": "884541be8924cd0e690e033f9ddd7691", "fusion_lat": 0.0, "type": "electric_bike", "lat": 38.8561835, "is_reserved": 0, "is_disabled": 0, "fusion_lon": 0.0, "bike_id": "884541be8924cd0e690e033f9ddd7691", "lon": -77.0853515, "rental_uris": {"ios": "https://dc.lft.to/lastmile_qr_scan", "android": "https://dc.lft.to/lastmile_qr_scan"}}, {"name": "d17de736c01d829fefac4c5a917f7c7d", "fusion_lat": 0.0, "type": "electric_scooter", "lat": 38.893608666666665, "is_reserved": 0, "is_disabled": 0, "fusion_lon": 0.0, "bike_id": "d17de736c01d829fefac4c5a917f7c7d", "lon": -77.011807, "rental_uris": {"ios": "https://dc.lft.to/lastmile_qr_scan", "android": "https://dc.lft.to/lastmile_qr_scan"}}, {"name": "23a635053f81d750601bd9ebcd63d750", "fusion_lat": 0.0, "type": "electric_scooter", "lat": 38.892306833333336, "is_reserved": 0, "is_disabled": 0, "fusion_lon": 0.0, "bike_id": "23a635053f81d750601bd9ebcd63d750", "lon": -77.0465835, "rental_uris": {"ios": "https://dc.lft.to/lastmile_qr_scan", "android": "https://dc.lft.to/lastmile_qr_scan"}}, {"name": "8c694811bf1b7f875d3d589ff228d12e", "fusion_lat": 0.0, "type": "electric_scooter", "lat": 38.9002755, "is_reserved": 0, "is_disabled": 0, "fusion_lon": 0.0, "bike_id": "8c694811bf1b7f875d3d589ff228d12e", "lon": -77.01213316666667, "rental_uris": {"ios": "https://dc.lft.to/lastmile_qr_scan", "android": "https://dc.lft.to/lastmile_qr_scan"}}, {"name": "f3bef7d012035cd1be21d892b89cadb8", "fusion_lat": 0.0, "type": "electric_scooter", "lat": 38.86658633333333, "is_reserved": 0, "is_disabled": 0, "fusion_lon": 0.0, "bike_id": "f3bef7d012035cd1be21d892b89cadb8", "lon": -76.98884366666667, "rental_uris": {"ios": "https://dc.lft.to/lastmile_qr_scan", "android": "https://dc.lft.to/lastmile_qr_scan"}}, {"name": "2a62d3e022eb971c95b194ffec369695", "fusion_lat": 0.0, "type": "electric_scooter", "lat": 38.90270133333333, "is_reserved": 0, "is_disabled": 0, "fusion_lon": 0.0, "bike_id": "2a62d3e022eb971c95b194ffec369695", "lon": -77.039241, "rental_uris": {"ios": "https://dc.lft.to/lastmile_qr_scan", "android": "https://dc.lft.to/lastmile_qr_scan"}}, {"name": "4bd8a5f4ca8366611b2e6518891a0e9f", "fusion_lat": 0.0, "type": "electric_scooter", "lat": 38.8783335, "is_reserved": 0, "is_disabled": 0, "fusion_lon": 0.0, "bike_id": "4bd8a5f4ca8366611b2e6518891a0e9f", "lon": -77.00034533333333, "rental_uris": {"ios": "https://dc.lft.to/lastmile_qr_scan", "android": "https://dc.lft.to/lastmile_qr_scan"}},