{"data": {"bikes": [{"is_disabled": 0, "fusion_lon": 0.0, "fusion_lat": 0.0, "lat": 38.8782535, "type": "electric_scooter", "lon": -76.96320533333333, "bike_id": "0090f5fec0ec40066e1b715d85068290", "rental_uris": {"android": "https://dc.lft.to/lastmile_qr_scan", "ios": "https://dc.lft.to/lastmile_qr_scan"}, "name": "0090f5fec0ec40066e1b715d85068290", "is_reserved": 0}, {"is_disabled": 0, "fusion_lon": 0.0, "fusion_lat": 0.0, "lat": 38.876766, "type": "electric_scooter", "lon": -76.931982, "bike_id": "8bcb1d8a52eb664e9225145daec82e98", "rental_uris": {"android": "https://dc.lft.to/lastmile_qr_scan", "ios": "https://dc.lft.to/lastmile_qr_scan"}, "name": "8bcb1d8a52eb664e9225145daec82e98", "is_reserved": 0}, {"is_disabled": 0, "fusion_lon": 0.0, "fusion_lat": 0.0, "lat": 38.90012016666667, "type": "electric_scooter", "lon": -77.0239875, "bike_id": "4c76508a011a47e2420661e5c163c409", "rental_uris": {"android": "https://dc.lft.to/lastmile_qr_scan", "ios": "https://dc.lft.to/lastmile_qr_scan"}, "name": "4c76508a011a47e2420661e5c163c409", "is_reserved": 0}, {"is_disabled": 0, "fusion_lon": 0.0, "fusion_lat": 0.0, "lat": 38.9222275, "type": "electric_scooter", "lon": -77.04247183333334, "bike_id": "7c6b590033c59fa87292f8469d524d5a", "rental_uris": {"android": "https://dc.lft.to/lastmile_qr_scan", "ios": "https://dc.lft.to/lastmile_qr_scan"}, "name": "7c6b590033c59fa87292f8469d524d5a", "is_reserved": 0}, {"is_disabled": 0, "fusion_lon": 0.0, "fusion_lat": 0.0, "lat": 38.9170485, "type": "electric_scooter", "lon": -77.0282715, "bike_id": "91ebea3d7ebe4d35611eff751f93a1fb", "rental_uris": {"android": "https://dc.lft.to/lastmile_qr_scan", "ios": "https://dc.lft.to/lastmile_qr_scan"}, "name": "91ebea3d7ebe4d35611eff751f93a1fb", "is_reserved": 0}, {"is_disabled": 0, "fusion_lon": 0.0, "fusion_lat": 0.0, "lat": 38.902619333333334, "type": "electric_scooter", "lon": -77.053954, "bike_id": "a89ad183d9aad1bd67744d92e624b2d6", "rental_uris": {"android": "https://dc.lft.to/lastmile_qr_scan", "ios": "https://dc.lft.to/lastmile_qr_scan"}, "name": "a89ad183d9aad1bd67744d92e624b2d6", "is_reserved": 0}, {"is_disabled": 0, "fusion_lon": 0.0, "fusion_lat": 0.0, "lat": 38.93393966666667, "type": "electric_scooter", "lon": -77.04548316666667, "bike_id": "ed3012d53a999aee19a7c8cbfb6988ce", "rental_uris": {"android": "https://dc.lft.to/lastmile_qr_scan", "ios": "https://dc.lft.to/lastmile_qr_scan"}, "name": "ed3012d53a999aee19a7c8cbfb6988ce", "is_reserved": 0}, {"is_disabled": 0, "fusion_lon": 0.0, "fusion_lat": 0.0, "lat": 38.865784833333336, "type": "electric_scooter", "lon": -76.98713883333333, "bike_id": "21269c361ae4066e6a5f73fa7f933508", "rental_uris": {"android": "https://dc.lft.to/lastmile_qr_scan", "ios": "https://dc.lft.to/lastmile_qr_scan"}, "name": "21269c361ae4066e6a5f73fa7f933508", "is_reserved": 0}, {"is_disabled": 0, "fusion_lon": 0.0, "fusion_lat": 0.0, "lat": 38.9081245, "type": "electric_scooter", "lon": -77.03948066666666, "bike_id": "cd71db963fae0a60d33aab2fc41d410b", "rental_uris": {"android": "https://dc.lft.to/lastmile_qr_scan", "ios": "https://dc.lft.to/lastmile_qr_scan"}, "name": "cd71db963fae0a60d33aab2fc41d410b", "is_reserved": 0}, {"is_disabled": 0, "fusion_lon": 0.0, "fusion_lat": 0.0, "lat": 38.94538, "type": "electric_bike", "lon": -77.34467533333333, "bike_id": "1b5d2177645f0ce491211ca1088c8d1d", "rental_uris": {"android": "https://dc.lft.to/lastmile_qr_scan", "ios": "https://dc.lft.to/lastmile_qr_scan"}, "name": "1b5d2177645f0ce491211ca1088c8d1d", "is_reserved": 0}, {"is_disabled": 0, "fusion_lon": 0.0, "fusion_lat": 0.0, "lat": 38.88748016666667, "type": "electric_scooter", "lon": -77.02227416666666, "bike_id": "5bab28d7d1916e2fc6545f9503a4c168", "rental_uris": {"android": "https://dc.lft.to/lastmile_qr_scan", "ios": "https://dc.lft.to/lastmile_qr_scan"}, "name": "5bab28d7d1916e2fc6545f9503a4c168", "is_reserved": 0}, {"is_disabled": 0, "fusion_lon": 0.0, "fusion_lat": 0.0, "lat": 38.949751666666664, "type": "electric_scooter", "lon": -77.09442883333334, "bike_id": "56330acf43226f3c1f853c7d6a8d077d", "rental_uris": {"android": "https://dc.lft.to/lastmile_qr_scan", "ios": "https://dc.lft.to/lastmile_qr_scan"}, "name": "56330acf43226f3c1f853c7d6a8d077d", "is_reserved": 0}, {"is_disabled": 0, "fusion_lon": 0.0, "fusion_lat": 0.0, "lat": 38.96537283333333, "type": "electric_bike", "lon": -76.97060616666667, "bike_id": "8a646cc1dda84769bb6a78ed10d2da56", "rental_uris": {"android": "https://dc.lft.to/lastmile_qr_scan", "ios": "https://dc.lft.to/lastmile_qr_scan"}, "name": "8a646cc1dda84769bb6a78ed10d2da56", "is_reserved": 0}, {"is_disabled": 0, "fusion_lon": 0.0, "fusion_lat": 0.0, "lat": 38.89908783333333, "type": "electric_scooter", "lon": -77.01385166666667, "bike_id": "c61fd8248d9fe8692b3dd43d67c46d7d", "rental_uris": {"android": "https://dc.lft.to/lastmile_qr_scan", "ios": "https://dc.lft.to/lastmile_qr_scan"}, "name": "c61fd8248d9fe8692b3dd43d67c46d7d", "is_reserved": 0}, {"is_disabled": 0, "fusion_lon": 0.0, "fusion_lat": 0.0, "lat": 38.9097605, "type": "electric_scooter", "lon": -77.06769816666667, "bike_id": "ce74b25bd8d4f299456122888588acae", "rental_uris": {"android": "https://dc.lft.to/lastmile_qr_scan", "ios": "https://dc.lft.to/lastmile_qr_scan"}, "name": "ce74b25bd8d4f299456122888588acae", "is_reserved": 0}, {"is_disabled": 0, "fusion_lon": 0.0, "fusion_lat": 0.0, "lat": 38.9565175, "type": "electric_scooter", "lon": -77.032961, "bike_id": "5644248fd57ca72e697d794e46d6ccfc", "rental_uris": {"android": "https://dc.lft.to/lastmile_qr_scan", "ios": "https://dc.lft.to/lastmile_qr_scan"}, "name": "5644248fd57ca72e697d794e46d6ccfc", "is_reserved": 0}, {"is_disabled": 0, "fusion_lon": 0.0, "fusion_lat": 0.0, "lat": 38.96230533333333, "type": "electric_scooter", "lon": -77.028052, "bike_id": "81417760f953e0cc95e111e269fc5132", "rental_uris": {"android": "https://dc.lft.to/lastmile_qr_scan", "ios": "https://dc.lft.to/lastmile_qr_scan"}, "name": "81417760f953e0cc95e111e269fc5132", "is_reserved": 0}, {"is_disabled": 0, "fusion_lon": 0.0, "fusion_lat": 0.0, "lat": 38.910271, "type": "electric_scooter", "lon": -77.0077195, "bike_id": "30efe88c79c396db98e145ab1986c05d", "rental_uris": {"android": "https://dc.lft.to/lastmile_qr_scan", "ios": "https://dc.lft.to/lastmile_qr_scan"}, "name": "30efe88c79c396db98e145ab1986c05d", "is_reserved": 0}, {"is_disabled": 0, "fusion_lon": 0.0, "fusion_lat": 0.0, "lat": 38.99089433333333, "type": "electric_bike", "lon": -76.87494383333333, "bike_id": "b905d60c63a5f131d93e6e25831fb125", "rental_uris": {"android": "https://dc.lft.to/lastmile_qr_scan", "ios": "https://dc.lft.to/lastmile_qr_scan"}, "name": "b905d60c63a5f131d93e6e25831fb125", "is_reserved": 0}, {"is_disabled": 0, "fusion_lon": 0.0, "fusion_lat": 0.0, "lat": 38.926492333333336, "type": "electric_scooter", "lon": -77.03722916666666, "bike_id": "7627b1369134e2b1de6761ad14a521a7", "rental_uris": {"android": "https://dc.lft.to/lastmile_qr_scan", "ios": "https://dc.lft.to/lastmile_qr_scan"}, "name": "7627b1369134e2b1de6761ad14a521a7", "is_reserved": 0}, {"is_disabled": 0, "fusion_lon": 0.0, "fusion_lat": 0.0, "lat": 38.884069333333336, "type": "electric_scooter", "lon": -77.02593416666667, "bike_id": "0b6507400ea31d8e135f797c25fa5786", "rental_uris": {"android": "https://dc.lft.to/lastmile_qr_scan", "ios": "https://dc.lft.to/lastmile_qr_scan"}, "name": "0b6507400ea31d8e135f797c25fa5786", "is_reserved": 0}, {"is_disabled": 0, "fusion_lon": 0.0, "fusion_lat": 0.0, "lat": 38.8922225, "type": "electric_scooter", "lon": -77.02223033333334, "bike_id": "3b3addf7b0716558e4db55973d64335d", "rental_uris": {"android": "https://dc.lft.to/lastmile_qr_scan", "ios": "https://dc.lft.to/lastmile_qr_scan"}, "name": "3b3addf7b0716558e4db55973d64335d", "is_reserved": 0}, {"is_disabled": 0, "fusion_lon": 0.0, "fusion_lat": 0.0, "lat": 38.87657433333333, "type": "electric_scooter", "lon": -77.0093885, "bike_id": "186344d29772e2751dbbe0fb3733f82e", "rental_uris": {"android": "https://dc.lft.to/lastmile_qr_scan", "ios": "https://dc.lft.to/lastmile_qr_scan"}, "name": "186344d29772e2751dbbe0fb3733f82e", "is_reserved": 0}, {"is_disabled": 0, "fusion_lon": 0.0, "fusion_lat": 0.0, "lat": 38.901611833333334, "type": "electric_scooter", "lon": -77.0258395, "bike_id": "356c52e93cd6021b05d8788723e81873", "rental_uris": {"android": "https://dc.lft.to/lastmile_qr_scan", "ios": "https://dc.lft.to/lastmile_qr_scan"}, "name": "356c52e93cd6021b05d8788723e81873", "is_reserved": 0}, {"is_disabled": 0, "fusion_lon": 0.0, "fusion_lat": 0.0, "lat": 38.892248333333335, "type": "electric_scooter", "lon": -77.040181, "bike_id": "7c86c99774cccdb43205b5f5cf3ae0f4", "rental_uris": {"android": "https://dc.lft.to/lastmile_qr_scan", "ios": "https://dc.lft.to/lastmile_qr_scan"}, "name": "7c86c99774cccdb43205b5f5cf3ae0f4", "is_reserved": 0}, {"is_disabled": 0, "fusion_lon": 0.0, "fusion_lat": 0.0, "lat": 38.895264166666664, "type": "electric_scooter", "lon": -77.02815, "bike_id": "bfb0783d3f6da633beef53bfac060d94", "rental_uris": {"android": "https://dc.lft.to/lastmile_qr_scan", "ios": "https://dc.lft.to/lastmile_qr_scan"}, "name": "bfb0783d3f6da633beef53bfac060d94", "is_reserved": 0}, {"is_disabled": 0, "fusion_lon": 0.0, "fusion_lat": 0.0, "lat": 38.876198, "type": "electric_scooter", "lon": -76.965394, "bike_id": "e398a1b82bf7c736e793c71d081190a1", "rental_uris": {"android": "https://dc.lft.to/lastmile_qr_scan", "ios": "https://dc.lft.to/lastmile_qr_scan"}, "name": "e398a1b82bf7c736e793c71d081190a1", "is_reserved": 0}, {"is_disabled": 0, "fusion_lon": 0.0, "fusion_lat": 0.0, "lat": 38.896735166666666, "type": "electric_scooter", "lon": -77.05147433333333, "bike_id": "1ccec3e2f2c52dee9f785e1667e7e2eb", "rental_uris": {"android": "https://dc.lft.to/lastmile_qr_scan", "ios": "https://dc.lft.to/lastmile_qr_scan"}, "name": "1ccec3e2f2c52dee9f785e1667e7e2eb", "is_reserved": 0}, {"is_disabled": 0, "fusion_lon": 0.0, "fusion_lat": 0.0, "lat": 38.90712533333333, "type": "electric_scooter", "lon": -77.02381266666667, "bike_id": "5652c6afe21e71908ab9655a73a35542", "rental_uris": {"android": "https://dc.lft.to/lastmile_qr_scan", "ios": "https://dc.lft.to/lastmile_qr_scan"}, "name": "5652c6afe21e71908ab9655a73a35542", "is_reserved": 0}, {"is_disabled": 0, "fusion_lon": 0.0, "fusion_lat": 0.0, "lat": 38.91555733333333, "type": "electric_scooter", "lon": -77.02046383333334, "bike_id": "022cbf0571abf33a5db49ac2656359eb", "rental_uris": {"android": "https://dc.lft.to/lastmile_qr_scan", "ios": "https://dc.lft.to/lastmile_qr_scan"}, "name": "022cbf0571abf33a5db49ac2656359eb", "is_reserved": 0}, {"is_disabled": 0, "fusion_lon": 0.0, "fusion_lat": 0.0, "lat": 38.855556, "type": "electric_bike", "lon": -77.10717733333334, "bike_id": "531aeca9ce5e1ba7f2d542dfa2305823", "rental_uris": {"android": "https://dc.lft.to/lastmile_qr_scan", "ios": "https://dc.lft.to/lastmile_qr_scan"}, "name": "531aeca9ce5e1ba7f2d542dfa2305823", "is_reserved": 0}, {"is_disabled": 0, "fusion_lon": 0.0, "fusion_lat": 0.0, "lat": 38.9124825, "type": "electric_scooter", "lon": -77.04159666666666, "bike_id": "1c8a78933ca6a8ca257d39392f41af56", "rental_uris": {"android": "https://dc.lft.to/lastmile_qr_scan", "ios": "https://dc.lft.to/lastmile_qr_scan"}, "name": "1c8a78933ca6a8ca257d39392f41af56", "is_reserved": 0}, {"is_disabled": 0, "fusion_lon": 0.0, "fusion_lat": 0.0, "lat": 38.9140235, "type": "electric_scooter", "lon": -77.026648, "bike_id": "df148667eeeef7d780736c399362b4da", "rental_uris": {"android": "https://dc.lft.to/lastmile_qr_scan", "ios": "https://dc.lft.to/lastmile_qr_scan"}, "name": "df148667eeeef7d780736c399362b4da", "is_reserved": 0}, {"is_disabled": 0, "fusion_lon": 0.0, "fusion_lat": 0.0, "lat": 38.931105333333335, "type": "electric_scooter", "lon": -77.03508066666667, "bike_id": "727c01cf6d0cd14e10d7d696f3ee71e0", "rental_uris": {"android": "https://dc.lft.to/lastmile_qr_scan", "ios": "https://dc.lft.to/lastmile_qr_scan"}, "name": "727c01cf6d0cd14e10d7d696f3ee71e0", "is_reserved": 0}, {"is_disabled": 0, "fusion_lon": 0.0, "fusion_lat": 0.0, "lat": 38.99931816666667, "type": "electric_bike", "lon": -77.00122516666667, "bike_id": "37749976acb00653bc3dbd7225ad89bc", "rental_uris": {"android": "https://dc.lft.to/lastmile_qr_scan", "ios": "https://dc.lft.to/lastmile_qr_scan"}, "name": "37749976acb00653bc3dbd7225ad89bc", "is_reserved": 0}, {"is_disabled": 0, "fusion_lon": 0.0, "fusion_lat": 0.0, "lat": 38.88029483333333, "type": "electric_scooter", "lon": -76.93114583333333, "bike_id": "46552098610c8697da75eae94f3c1e0d", "rental_uris": {"android": "https://dc.lft.to/lastmile_qr_scan", "ios": "https://dc.lft.to/lastmile_qr_scan"}, "name": "46552098610c8697da75eae94f3c1e0d", "is_reserved": 0}, {"is_disabled": 0, "fusion_lon": 0.0, "fusion_lat": 0.0, "lat": 38.895029666666666, "type": "electric_scooter", "lon": -76.94879266666666, "bike_id": "1745eafdb01467ef48efdabeb96aa222", "rental_uris": {"android": "https://dc.lft.to/lastmile_qr_scan", "ios": "https://dc.lft.to/lastmile_qr_scan"}, "name": "1745eafdb01467ef48efdabeb96aa222", "is_reserved": 0}, {"is_disabled": 0, "fusion_lon": 0.0, "fusion_lat": 0.0, "lat": 38.919340166666665, "type": "electric_scooter", "lon": -77.08131516666667, "bike_id": "329323308917b0db98cc09f027e236bf", "rental_uris": {"android": "https://dc.lft.to/lastmile_qr_scan", "ios": "https://dc.lft.to/lastmile_qr_scan"}, "name": "329323308917b0db98cc09f027e236bf", "is_reserved": 0}, {"is_disabled": 0, "fusion_lon": 0.0, "fusion_lat": 0.0, "lat": 39.095867166666665, "type": "electric_bike", "lon": -77.147725, "bike_id": "480b79ee915b1414a26d4a40646074d6", "rental_uris": {"android": "https://dc.lft.to/lastmile_qr_scan", "ios": "https://dc.lft.to/lastmile_qr_scan"}, "name": "480b79ee915b1414a26d4a40646074d6", "is_reserved": 0}, {"is_disabled": 0, "fusion_lon": 0.0, "fusion_lat": 0.0, "lat": 39.0526535, "type": "electric_bike", "lon": -77.0437895, "bike_id": "ec397a459ad1e98131071f7f1c18a62e", "rental_uris": {"android": "https://dc.lft.to/lastmile_qr_scan", "ios": "https://dc.lft.to/lastmile_qr_scan"}, "name": "ec397a459ad1e98131071f7f1c18a62e", "is_reserved": 0}, {"is_disabled": 0, "fusion_lon": 0.0, "fusion_lat": 0.0, "lat": 38.917880833333335, "type": "electric_scooter", "lon": -77.01776, "bike_id": "3c289ef153bacee99d8a57c23f6a3561", "rental_uris": {"android": "https://dc.lft.to/lastmile_qr_scan", "ios": "https://dc.lft.to/lastmile_qr_scan"}, "name": "3c289ef153bacee99d8a57c23f6a3561", "is_reserved": 0}, {"is_disabled": 0, "fusion_lon": 0.0, "fusion_lat": 0.0, "lat": 38.9965345, "type": "electric_bike", "lon": -77.02812833333333, "bike_id": "f1c3a5356db45fce0a8445a97a885c4e", "rental_uris": {"android": "https://dc.lft.to/lastmile_qr_scan", "ios": "https://dc.lft.to/lastmile_qr_scan"}, "name": "f1c3a5356db45fce0a8445a97a885c4e", "is_reserved": 0}, {"is_disabled": 0, "fusion_lon": 0.0, "fusion_lat": 0.0, "lat": 38.91425066666667, "type": "electric_scooter", "lon": -77.04532966666666, "bike_id": "f92e2719f4415a3319aa7034c3449040", "rental_uris": {"android": "https://dc.lft.to/lastmile_qr_scan", "ios": "https://dc.lft.to/lastmile_qr_scan"}, "name": "f92e2719f4415a3319aa7034c3449040", "is_reserved": 0}, {"is_disabled": 0, "fusion_lon": 0.0, "fusion_lat": 0.0, "lat": 38.88454483333334, "type": "electric_bike", "lon": -76.91638016666667, "bike_id": "44c97efa2d1de7365f5ffe1e45e66db9", "rental_uris": {"android": "https://dc.lft.to/lastmile_qr_scan", "ios": "https://dc.lft.to/lastmile_qr_scan"}, "name": "44c97efa2d1de7365f5ffe1e45e66db9", "is_reserved": 0}, {"is_disabled": 0, "fusion_lon": 0.0, "fusion_lat": 0.0, "lat": 38.921671, "type": "electric_scooter", "lon": -77.033893, "bike_id": "1edb046f1371706db8176e36bbed661e", "rental_uris": {"android": "https://dc.lft.to/lastmile_qr_scan", "ios": "https://dc.lft.to/lastmile_qr_scan"}, "name": "1edb046f1371706db8176e36bbed661e", "is_reserved": 0}, {"is_disabled": 0, "fusion_lon": 0.0, "fusion_lat": 0.0, "lat": 38.9285935, "type": "electric_scooter", "lon": -77.03154266666667, "bike_id": "1f51d347676ec36444ef9406be48a773", "rental_uris": {"android": "https://dc.lft.to/lastmile_qr_scan", "ios": "https://dc.lft.to/lastmile_qr_scan"}, "name": "1f51d347676ec36444ef9406be48a773", "is_reserved": 0}, {"is_disabled": 0, "fusion_lon": 0.0, "fusion_lat": 0.0, "lat": 39.08898416666667, "type": "electric_bike", "lon": -77.17848183333334, "bike_id": "eaa92c3dc90d1e9f32fb6138447b928c", "rental_uris": {"android": "https://dc.lft.to/lastmile_qr_scan", "ios": "https://dc.lft.to/lastmile_qr_scan"}, "name": "eaa92c3dc90d1e9f32fb6138447b928c", "is_reserved": 0}, {"is_disabled": 0, "fusion_lon": 0.0, "fusion_lat": 0.0, "lat": 38.9120245, "type": "electric_scooter", "lon": -77.04173283333333, "bike_id": "8960c9ca02c812f07650d71734821593", "rental_uris": {"android": "https://dc.lft.to/lastmile_qr_scan", "ios": "https://dc.lft.to/lastmile_qr_scan"}, "name": "8960c9ca02c812f07650d71734821593", "is_reserved": 0}, {"is_disabled": 0, "fusion_lon": 0.0, "fusion_lat": 0.0, "lat": 38.94892983333333, "type": "electric_bike", "lon": -76.96370816666666, "bike_id": "7d0e2c4b2ffc0e5c62ca8922a18d6656", "rental_uris": {"android": "https://dc.lft.to/lastmile_qr_scan", "ios": "https://dc.lft.to/lastmile_qr_scan"}, "name": "7d0e2c4b2ffc0e5c62ca8922a18d6656", "is_reserved": 0}, {"is_disabled": 0, "fusion_lon": 0.0, "fusion_lat": 0.0, "lat": 38.90017483333333, "type": "electric_scooter", "lon": -77.01188583333334, "bike_id": "b87873c1cb77d33e00bc0d4462de0ec4", "rental_uris": {"android": "https://dc.lft.to/lastmile_qr_scan", "ios": "https://dc.lft.to/lastmile_qr_scan"}, "name": "b87873c1cb77d33e00bc0d4462de0ec4", "is_reserved": 0}, {"is_disabled": 0, "fusion_lon": 0.0, "fusion_lat": 0.0, "lat": 38.8783785, "type": "electric_scooter", "lon": -77.022824, "bike_id": "df6fe620e6ee9afb2d44df90a9234fa4", "rental_uris": {"android": "https://dc.lft.to/lastmile_qr_scan", "ios": "https://dc.lft.to/lastmile_qr_scan"}, "name": "df6fe620e6ee9afb2d44df90a9234fa4", "is_reserved": 0}, {"is_disabled": 0, "fusion_lon": 0.0, "fusion_lat": 0.0, "lat": 38.9005675, "type": "electric_scooter", "lon": -76.934714, "bike_id": "d5d9d98bd737bc0e604f46e9eed5065c", "rental_uris": {"android": "https://dc.lft.to/lastmile_qr_scan", "ios": "https://dc.lft.to/lastmile_qr_scan"}, "name": "d5d9d98bd737bc0e604f46e9eed5065c", "is_reserved": 0}, {"is_disabled": 0, "fusion_lon": 0.0, "fusion_lat": 0.0, "lat": 38.89221883333333, "type": "electric_scooter", "lon": -77.0222065, "bike_id": "c024551c35e0786595b2688a3c444475", "rental_uris": {"android": "https://dc.lft.to/lastmile_qr_scan", "ios": "https://dc.lft.to/lastmile_qr_scan"}, "name": "c024551c35e0786595b2688a3c444475", "is_reserved": 0}, {"is_disabled": 0, "fusion_lon": 0.0, "fusion_lat": 0.0, "lat": 38.91693316666667, "type": "electric_scooter", "lon": -77.02484683333333, "bike_id": "8c3d9dc9fb1c3dcaea82b7d21ad2f23b", "rental_uris": {"android": "https://dc.lft.to/lastmile_qr_scan", "ios": "https://dc.lft.to/lastmile_qr_scan"}, "name": "8c3d9dc9fb1c3dcaea82b7d21ad2f23b", "is_reserved": 0}, {"is_disabled": 0, "fusion_lon": 0.0, "fusion_lat": 0.0, "lat": 38.863387333333336, "type": "electric_bike", "lon": -76.98718983333333, "bike_id": "283e1a513666724c6a28799e6589b21c", "rental_uris": {"android": "https://dc.lft.to/lastmile_qr_scan", "ios": "https://dc.lft.to/lastmile_qr_scan"}, "name": "283e1a513666724c6a28799e6589b21c", "is_reserved": 0}, {"is_disabled": 0, "fusion_lon": 0.0, "fusion_lat": 0.0, "lat": 38.912097833333334, "type": "electric_scooter", "lon": -77.02094183333334, "bike_id": "e63edaf56c85a090af80e2096c55f374", "rental_uris": {"android": "https://dc.lft.to/lastmile_qr_scan", "ios": "https://dc.lft.to/lastmile_qr_scan"}, "name": "e63edaf56c85a090af80e2096c55f374", "is_reserved": 0}, {"is_disabled": 0, "fusion_lon": 0.0, "fusion_lat": 0.0, "lat": 38.919314166666666, "type": "electric_scooter", "lon": -77.02593816666666, "bike_id": "449cbc02924b69bcd1948134ae170b9b", "rental_uris": {"android": "https://dc.lft.to/lastmile_qr_scan", "ios": "https://dc.lft.to/lastmile_qr_scan"}, "name": "449cbc02924b69bcd1948134ae170b9b", "is_reserved": 0}, {"is_disabled": 0, "fusion_lon": 0.0, "fusion_lat": 0.0, "lat": 38.929655333333336, "type": "electric_scooter", "lon": -77.0549575, "bike_id": "8a23da201080f7e6a5a5419da8836bdf", "rental_uris": {"android": "https://dc.lft.to/lastmile_qr_scan", "ios": "https://dc.lft.to/lastmile_qr_scan"}, "name": "8a23da201080f7e6a5a5419da8836bdf", "is_reserved": 0}, {"is_disabled": 0, "fusion_lon": 0.0, "fusion_lat": 0.0, "lat": 38.92828466666667, "type": "electric_scooter", "lon": -77.054383, "bike_id": "98c7cf68f1399d7f8be0aed847297db8", "rental_uris": {"android": "https://dc.lft.to/lastmile_qr_scan", "ios": "https://dc.lft.to/lastmile_qr_scan"}, "name": "98c7cf68f1399d7f8be0aed847297db8", "is_reserved": 0}, {"is_disabled": 0, "fusion_lon": 0.0, "fusion_lat": 0.0, "lat": 38.907625333333336, "type": "electric_scooter", "lon": -76.99667716666667, "bike_id": "636db2922039ce6f533159b72ac37c24", "rental_uris": {"android": "https://dc.lft.to/lastmile_qr_scan", "ios": "https://dc.lft.to/lastmile_qr_scan"}, "name": "636db2922039ce6f533159b72ac37c24", "is_reserved": 0}, {"is_disabled": 0, "fusion_lon": 0.0, "fusion_lat": 0.0, "lat": 38.936425, "type": "electric_scooter", "lon": -77.0208885, "bike_id": "b3f849a1590abe94db176c10deb48dd8", "rental_uris": {"android": "https://dc.lft.to/lastmile_qr_scan", "ios": "https://dc.lft.to/lastmile_qr_scan"}, "name": "b3f849a1590abe94db176c10deb48dd8", "is_reserved": 0}, {"is_disabled": 0, "fusion_lon": 0.0, "fusion_lat": 0.0, "lat": 38.90944116666667, "type": "electric_scooter", "lon": -77.05541983333333, "bike_id": "9f32833b875a71682d888d1f63e07451", "rental_uris": {"android": "https://dc.lft.to/lastmile_qr_scan", "ios": "https://dc.lft.to/lastmile_qr_scan"}, "name": "9f32833b875a71682d888d1f63e07451", "is_reserved": 0}, {"is_disabled": 0, "fusion_lon": 0.0, "fusion_lat": 0.0, "lat": 38.913238, "type": "electric_scooter", "lon": -77.03184516666667, "bike_id": "ac892df71eeed68d85840085d7269b64", "rental_uris": {"android": "https://dc.lft.to/lastmile_qr_scan", "ios": "https://dc.lft.to/lastmile_qr_scan"}, "name": "ac892df71eeed68d85840085d7269b64", "is_reserved": 0}, {"is_disabled": 0, "fusion_lon": 0.0, "fusion_lat": 0.0, "lat": 38.91074116666667, "type": "electric_scooter", "lon": -77.0438785, "bike_id": "b775b10840aae331175fd0b41bb095ca", "rental_uris": {"android": "https://dc.lft.to/lastmile_qr_scan", "ios": "https://dc.lft.to/lastmile_qr_scan"}, "name": "b775b10840aae331175fd0b41bb095ca", "is_reserved": 0}, {"is_disabled": 0, "fusion_lon": 0.0, "fusion_lat": 0.0, "lat": 38.917451666666665, "type": "electric_scooter", "lon": -77.017119, "bike_id": "6c155b1917d8a247378cffd000ede0e6", "rental_uris": {"android": "https://dc.lft.to/lastmile_qr_scan", "ios": "https://dc.lft.to/lastmile_qr_scan"}, "name": "6c155b1917d8a247378cffd000ede0e6", "is_reserved": 0}, {"is_disabled": 0, "fusion_lon": 0.0, "fusion_lat": 0.0, "lat": 38.926150166666666, "type": "electric_scooter", "lon": -77.021628, "bike_id": "ec0b8eeeba26af5d0a08d28ff1f205d6", "rental_uris": {"android": "https://dc.lft.to/lastmile_qr_scan", "ios": "https://dc.lft.to/lastmile_qr_scan"}, "name": "ec0b8eeeba26af5d0a08d28ff1f205d6", "is_reserved": 0}, {"is_disabled": 0, "fusion_lon": 0.0, "fusion_lat": 0.0, "lat": 38.91700316666667, "type": "electric_scooter", "lon": -77.037747, "bike_id": "727d99de6b02bbe404ae9db750108140", "rental_uris": {"android": "https://dc.lft.to/lastmile_qr_scan", "ios": "https://dc.lft.to/lastmile_qr_scan"}, "name": "727d99de6b02bbe404ae9db750108140", "is_reserved": 0}, {"is_disabled": 0, "fusion_lon": 0.0, "fusion_lat": 0.0, "lat": 38.91271416666667, "type": "electric_scooter", "lon": -77.04170833333333, "bike_id": "5b1597bd53bfc369abe5b5dd7109a718", "rental_uris": {"android": "https://dc.lft.to/lastmile_qr_scan", "ios": "https://dc.lft.to/lastmile_qr_scan"}, "name": "5b1597bd53bfc369abe5b5dd7109a718", "is_reserved": 0}, {"is_disabled": 0, "fusion_lon": 0.0, "fusion_lat": 0.0, "lat": 38.94037316666667, "type": "electric_scooter", "lon": -77.02909933333333, "bike_id": "a2e52d80f26e0785e0d46afcec792d5a", "rental_uris": {"android": "https://dc.lft.to/lastmile_qr_scan", "ios": "https://dc.lft.to/lastmile_qr_scan"}, "name": "a2e52d80f26e0785e0d46afcec792d5a", "is_reserved": 0}, {"is_disabled": 0, "fusion_lon": 0.0, "fusion_lat": 0.0, "lat": 38.8937565, "type": "electric_scooter", "lon": -76.97820783333333, "bike_id": "6409d290d8e868bae71d78a992ca5cac", "rental_uris": {"android": "https://dc.lft.to/lastmile_qr_scan", "ios": "https://dc.lft.to/lastmile_qr_scan"}, "name": "6409d290d8e868bae71d78a992ca5cac", "is_reserved": 0}, {"is_disabled": 0, "fusion_lon": 0.0, "fusion_lat": 0.0, "lat": 38.96026583333333, "type": "electric_bike", "lon": -76.92721583333334, "bike_id": "7d592e824c30bff0a603654467203d68", "rental_uris": {"android": "https://dc.lft.to/lastmile_qr_scan", "ios": "https://dc.lft.to/lastmile_qr_scan"}, "name": "7d592e824c30bff0a603654467203d68", "is_reserved": 0}, {"is_disabled": 0, "fusion_lon": 0.0, "fusion_lat": 0.0, "lat": 38.91976316666667, "type": "electric_scooter", "lon": -76.97313183333333, "bike_id": "14964a91b1e6feb0466d31e34fc16936", "rental_uris": {"android": "https://dc.lft.to/lastmile_qr_scan", "ios": "https://dc.lft.to/lastmile_qr_scan"}, "name": "14964a91b1e6feb0466d31e34fc16936", "is_reserved": 0}, {"is_disabled": 0, "fusion_lon": 0.0, "fusion_lat": 0.0, "lat": 38.89524733333333, "type": "electric_scooter", "lon": -77.0021205, "bike_id": "470e85ab022f6fb8412377118932bfd4", "rental_uris": {"android": "https://dc.lft.to/lastmile_qr_scan", "ios": "https://dc.lft.to/lastmile_qr_scan"}, "name": "470e85ab022f6fb8412377118932bfd4", "is_reserved": 0}, {"is_disabled": 0, "fusion_lon": 0.0, "fusion_lat": 0.0, "lat": 38.89230233333333, "type": "electric_scooter", "lon": -77.02181533333334, "bike_id": "c11b8f2eb8035cf04e5ead065a992e19", "rental_uris": {"android": "https://dc.lft.to/lastmile_qr_scan", "ios": "https://dc.lft.to/lastmile_qr_scan"}, "name": "c11b8f2eb8035cf04e5ead065a992e19", "is_reserved": 0}, {"is_disabled": 0, "fusion_lon": 0.0, "fusion_lat": 0.0, "lat": 38.9217315, "type": "electric_scooter", "lon": -77.04231783333333, "bike_id": "8b25b9c6c7959acf1cd805abee7dc844", "rental_uris": {"android": "https://dc.lft.to/lastmile_qr_scan", "ios": "https://dc.lft.to/lastmile_qr_scan"}, "name": "8b25b9c6c7959acf1cd805abee7dc844", "is_reserved": 0}, {"is_disabled": 0, "fusion_lon": 0.0, "fusion_lat": 0.0, "lat": 38.9149605, "type": "electric_scooter", "lon": -77.067882, "bike_id": "a9346aaf5efa0cb1ac2cf21bae93728e", "rental_uris": {"android": "https://dc.lft.to/lastmile_qr_scan", "ios": "https://dc.lft.to/lastmile_qr_scan"}, "name": "a9346aaf5efa0cb1ac2cf21bae93728e", "is_reserved": 0}, {"is_disabled": 0, "fusion_lon": 0.0, "fusion_lat": 0.0, "lat": 38.858661166666664, "type": "electric_scooter", "lon": -76.9902415, "bike_id": "c34016ac0dfae75694f3940e42885ee9", "rental_uris": {"android": "https://dc.lft.to/lastmile_qr_scan", "ios": "https://dc.lft.to/lastmile_qr_scan"}, "name": "c34016ac0dfae75694f3940e42885ee9", "is_reserved": 0}, {"is_disabled": 0, "fusion_lon": 0.0, "fusion_lat": 0.0, "lat": 38.898960833333334, "type": "electric_scooter", "lon": -77.03340966666667, "bike_id": "44bf7124f10bf68c78448fcffd6bada5", "rental_uris": {"android": "https://dc.lft.to/lastmile_qr_scan", "ios": "https://dc.lft.to/lastmile_qr_scan"}, "name": "44bf7124f10bf68c78448fcffd6bada5", "is_reserved": 0}, {"is_disabled": 0, "fusion_lon": 0.0, "fusion_lat": 0.0, "lat": 38.90078783333333, "type": "electric_scooter", "lon": -77.00211233333333, "bike_id": "675faa3fe4083c4499825453243c3ac2", "rental_uris": {"android": "https://dc.lft.to/lastmile_qr_scan", "ios": "https://dc.lft.to/lastmile_qr_scan"}, "name": "675faa3fe4083c4499825453243c3ac2", "is_reserved": 0}, {"is_disabled": 0, "fusion_lon": 0.0, "fusion_lat": 0.0, "lat": 38.918885, "type": "electric_scooter", "lon": -77.04462983333333, "bike_id": "2dffffb03c788b3c0ec9a6587d33a57c", "rental_uris": {"android": "https://dc.lft.to/lastmile_qr_scan", "ios": "https://dc.lft.to/lastmile_qr_scan"}, "name": "2dffffb03c788b3c0ec9a6587d33a57c", "is_reserved": 0}, {"is_disabled": 0, "fusion_lon": 0.0, "fusion_lat": 0.0, "lat": 38.89015166666667, "type": "electric_scooter", "lon": -76.93734566666667, "bike_id": "56ebe5b853bc8ec2136025738c97c990", "rental_uris": {"android": "https://dc.lft.to/lastmile_qr_scan", "ios": "https://dc.lft.to/lastmile_qr_scan"}, "name": "56ebe5b853bc8ec2136025738c97c990", "is_reserved": 0}, {"is_disabled": 0, "fusion_lon": 0.0, "fusion_lat": 0.0, "lat": 38.929598, "type": "electric_scooter", "lon": -77.034696, "bike_id": "bc358b5fff9b6c4ebd4e7d934a61ae3c", "rental_uris": {"android": "https://dc.lft.to/lastmile_qr_scan", "ios": "https://dc.lft.to/lastmile_qr_scan"}, "name": "bc358b5fff9b6c4ebd4e7d934a61ae3c", "is_reserved": 0}, {"is_disabled": 0, "fusion_lon": 0.0, "fusion_lat": 0.0, "lat": 38.92699016666667, "type": "electric_bike", "lon": -77.06120516666667, "bike_id": "5d71e1abbe044b4ccacd22b040718938", "rental_uris": {"android": "https://dc.lft.to/lastmile_qr_scan", "ios": "https://dc.lft.to/lastmile_qr_scan"}, "name": "5d71e1abbe044b4ccacd22b040718938", "is_reserved": 0}, {"is_disabled": 0, "fusion_lon": 0.0, "fusion_lat": 0.0, "lat": 38.91877516666667, "type": "electric_scooter", "lon": -77.04309316666667, "bike_id": "75339fb891e20ebc61c3357ebd2606f6", "rental_uris": {"android": "https://dc.lft.to/lastmile_qr_scan", "ios": "https://dc.lft.to/lastmile_qr_scan"}, "name": "75339fb891e20ebc61c3357ebd2606f6", "is_reserved": 0}, {"is_disabled": 0, "fusion_lon": 0.0, "fusion_lat": 0.0, "lat": 38.9227935, "type": "electric_scooter", "lon": -77.07299483333334, "bike_id": "727b45b5e21ef414ceffa85fdeef470f", "rental_uris": {"android": "https://dc.lft.to/lastmile_qr_scan", "ios": "https://dc.lft.to/lastmile_qr_scan"}, "name": "727b45b5e21ef414ceffa85fdeef470f", "is_reserved": 0}, {"is_disabled": 0, "fusion_lon": 0.0, "fusion_lat": 0.0, "lat": 38.9449265, "type": "electric_bike", "lon": -76.98659216666667, "bike_id": "fa1126482a58767dd73b92a69de258ab", "rental_uris": {"android": "https://dc.lft.to/lastmile_qr_scan", "ios": "https://dc.lft.to/lastmile_qr_scan"}, "name": "fa1126482a58767dd73b92a69de258ab", "is_reserved": 0}, {"is_disabled": 0, "fusion_lon": 0.0, "fusion_lat": 0.0, "lat": 38.905682666666664, "type": "electric_scooter", "lon": -77.00590333333334, "bike_id": "5eca1e9388fbaac80bfd0bafd3d74a5b", "rental_uris": {"android": "https://dc.lft.to/lastmile_qr_scan", "ios": "https://dc.lft.to/lastmile_qr_scan"}, "name": "5eca1e9388fbaac80bfd0bafd3d74a5b", "is_reserved": 0}, {"is_disabled": 0, "fusion_lon": 0.0, "fusion_lat": 0.0, "lat": 38.885793666666665, "type": "electric_scooter", "lon": -76.919113, "bike_id": "441e4f7a135a83415dd542f35478e7cf", "rental_uris": {"android": "https://dc.lft.to/lastmile_qr_scan", "ios": "https://dc.lft.to/lastmile_qr_scan"}, "name": "441e4f7a135a83415dd542f35478e7cf", "is_reserved": 0}, {"is_disabled": 0, "fusion_lon": 0.0, "fusion_lat": 0.0, "lat": 39.038818, "type": "electric_bike", "lon": -77.1091345, "bike_id": "d78c51059186e94deb8349b5101ca69e", "rental_uris": {"android": "https://dc.lft.to/lastmile_qr_scan", "ios": "https://dc.lft.to/lastmile_qr_scan"}, "name": "d78c51059186e94deb8349b5101ca69e", "is_reserved": 0}, {"is_disabled": 0, "fusion_lon": 0.0, "fusion_lat": 0.0, "lat": 38.902770833333335, "type": "electric_scooter", "lon": -77.0218975, "bike_id": "93ba1f013353294ffafb76ab7900ad8b", "rental_uris": {"android": "https://dc.lft.to/lastmile_qr_scan", "ios": "https://dc.lft.to/lastmile_qr_scan"}, "name": "93ba1f013353294ffafb76ab7900ad8b", "is_reserved": 0}, {"is_disabled": 0, "fusion_lon": 0.0, "fusion_lat": 0.0, "lat": 38.9199135, "type": "electric_scooter", "lon": -77.03272266666667, "bike_id": "7ea65ed808fc7b0a50915e39d9605298", "rental_uris": {"android": "https://dc.lft.to/lastmile_qr_scan", "ios": "https://dc.lft.to/lastmile_qr_scan"}, "name": "7ea65ed808fc7b0a50915e39d9605298", "is_reserved": 0}, {"is_disabled": 0, "fusion_lon": 0.0, "fusion_lat": 0.0, "lat": 38.917101833333334, "type": "electric_scooter", "lon": -77.05128116666667, "bike_id": "3b998f59bba54f0911b421c4d00ac998", "rental_uris": {"android": "https://dc.lft.to/lastmile_qr_scan", "ios": "https://dc.lft.to/lastmile_qr_scan"}, "name": "3b998f59bba54f0911b421c4d00ac998", "is_reserved": 0}, {"is_disabled": 0, "fusion_lon": 0.0, "fusion_lat": 0.0, "lat": 38.992654333333334, "type": "electric_scooter", "lon": -77.03609466666667, "bike_id": "0e6bffbc8a5be35a3942767b3e0129b7", "rental_uris": {"android": "https://dc.lft.to/lastmile_qr_scan", "ios": "https://dc.lft.to/lastmile_qr_scan"}, "name": "0e6bffbc8a5be35a3942767b3e0129b7", "is_reserved": 0}, {"is_disabled": 0, "fusion_lon": 0.0, "fusion_lat": 0.0, "lat": 38.9182995, "type": "electric_scooter", "lon": -77.039356, "bike_id": "11cde9a132f1e2a377217d4bce09d0da", "rental_uris": {"android": "https://dc.lft.to/lastmile_qr_scan", "ios": "https://dc.lft.to/lastmile_qr_scan"}, "name": "11cde9a132f1e2a377217d4bce09d0da", "is_reserved": 0}, {"is_disabled": 0, "fusion_lon": 0.0, "fusion_lat": 0.0, "lat": 38.909633166666666, "type": "electric_scooter", "lon": -77.04620883333334, "bike_id": "e264a8516dbf278d37dcd63064024196", "rental_uris": {"android": "https://dc.lft.to/lastmile_qr_scan", "ios": "https://dc.lft.to/lastmile_qr_scan"}, "name": "e264a8516dbf278d37dcd63064024196", "is_reserved": 0}, {"is_disabled": 0, "fusion_lon": 0.0, "fusion_lat": 0.0, "lat": 38.93664316666667, "type": "electric_bike", "lon": -76.95203483333333, "bike_id": "82c390413a702c52bb8f165fac79f7e0", "rental_uris": {"android": "https://dc.lft.to/lastmile_qr_scan", "ios": "https://dc.lft.to/lastmile_qr_scan"}, "name": "82c390413a702c52bb8f165fac79f7e0", "is_reserved": 0}, {"is_disabled": 0, "fusion_lon": 0.0, "fusion_lat": 0.0, "lat": 38.95836533333333, "type": "electric_scooter", "lon": -77.0717345, "bike_id": "41920c594825bd158c26523c1d34e714", "rental_uris": {"android": "https://dc.lft.to/lastmile_qr_scan", "ios": "https://dc.lft.to/lastmile_qr_scan"}, "name": "41920c594825bd158c26523c1d34e714", "is_reserved": 0}, {"is_disabled": 0, "fusion_lon": 0.0, "fusion_lat": 0.0, "lat": 38.934821, "type": "electric_scooter", "lon": -77.07274933333333, "bike_id": "49a19d35371f876ef2bc3e643a08a945", "rental_uris": {"android": "https://dc.lft.to/lastmile_qr_scan", "ios": "https://dc.lft.to/lastmile_qr_scan"}, "name": "49a19d35371f876ef2bc3e643a08a945", "is_reserved": 0}, {"is_disabled": 0, "fusion_lon": 0.0, "fusion_lat": 0.0, "lat": 38.91788066666667, "type": "electric_scooter", "lon": -77.04342783333334, "bike_id": "dc506c003b51dba4cebf153582fef645", "rental_uris": {"android": "https://dc.lft.to/lastmile_qr_scan", "ios": "https://dc.lft.to/lastmile_qr_scan"}, "name": "dc506c003b51dba4cebf153582fef645", "is_reserved": 0}, {"is_disabled": 0, "fusion_lon": 0.0, "fusion_lat": 0.0, "lat": 38.88517366666667, "type": "electric_scooter", "lon": -77.01726983333333, "bike_id": "5558a16c0539a2cff8d82aa7f4100031", "rental_uris": {"android": "https://dc.lft.to/lastmile_qr_scan", "ios": "https://dc.lft.to/lastmile_qr_scan"}, "name": "5558a16c0539a2cff8d82aa7f4100031", "is_reserved": 0}, {"is_disabled": 0, "fusion_lon": 0.0, "fusion_lat": 0.0, "lat": 38.8978265, "type": "electric_bike", "lon": -77.019874, "bike_id": "c572e6360eadf33813553fed956753ef", "rental_uris": {"android": "https://dc.lft.to/lastmile_qr_scan", "ios": "https://dc.lft.to/lastmile_qr_scan"}, "name": "c572e6360eadf33813553fed956753ef", "is_reserved": 0}, {"is_disabled": 0, "fusion_lon": 0.0, "fusion_lat": 0.0, "lat": 38.908292, "type": "electric_scooter", "lon": -77.03209233333334, "bike_id": "8b1a0d9bede8e28f014b72fd178881a8", "rental_uris": {"android": "https://dc.lft.to/lastmile_qr_scan", "ios": "https://dc.lft.to/lastmile_qr_scan"}, "name": "8b1a0d9bede8e28f014b72fd178881a8", "is_reserved": 0}, {"is_disabled": 0, "fusion_lon": 0.0, "fusion_lat": 0.0, "lat": 38.90589416666667, "type": "electric_scooter", "lon": -77.03251566666667, "bike_id": "16152e47328934d0510aff8d4411412b", "rental_uris": {"android": "https://dc.lft.to/lastmile_qr_scan", "ios": "https://dc.lft.to/lastmile_qr_scan"}, "name": "16152e47328934d0510aff8d4411412b", "is_reserved": 0}, {"is_disabled": 0, "fusion_lon": 0.0, "fusion_lat": 0.0, "lat": 38.898419, "type": "electric_scooter", "lon": -76.94632733333333, "bike_id": "97d6a639cfee91da82592a6e8a875cab", "rental_uris": {"android": "https://dc.lft.to/lastmile_qr_scan", "ios": "https://dc.lft.to/lastmile_qr_scan"}, "name": "97d6a639cfee91da82592a6e8a875cab", "is_reserved": 0}, {"is_disabled": 0, "fusion_lon": 0.0, "fusion_lat": 0.0, "lat": 38.9318565, "type": "electric_scooter", "lon": -77.07257733333333, "bike_id": "f49dc8e89b517a68fe46908d382355ff", "rental_uris": {"android": "https://dc.lft.to/lastmile_qr_scan", "ios": "https://dc.lft.to/lastmile_qr_scan"}, "name": "f49dc8e89b517a68fe46908d382355ff", "is_reserved": 0}, {"is_disabled": 0, "fusion_lon": 0.0, "fusion_lat": 0.0, "lat": 38.953557, "type": "electric_bike", "lon": -76.98091633333334, "bike_id": "69197ceff8e78e1d762ae534523da38d", "rental_uris": {"android": "https://dc.lft.to/lastmile_qr_scan", "ios": "https://dc.lft.to/lastmile_qr_scan"}, "name": "69197ceff8e78e1d762ae534523da38d", "is_reserved": 0}, {"is_disabled": 0, "fusion_lon": 0.0, "fusion_lat": 0.0, "lat": 38.899752666666664, "type": "electric_scooter", "lon": -77.0505065, "bike_id": "2f5579d45d3c4840af02144ba02be8db", "rental_uris": {"android": "https://dc.lft.to/lastmile_qr_scan", "ios": "https://dc.lft.to/lastmile_qr_scan"}, "name": "2f5579d45d3c4840af02144ba02be8db", "is_reserved": 0}, {"is_disabled": 0, "fusion_lon": 0.0, "fusion_lat": 0.0, "lat": 38.915361833333336, "type": "electric_scooter", "lon": -77.01841966666667, "bike_id": "25477f35c385072a7be841e4d1df9354", "rental_uris": {"android": "https://dc.lft.to/lastmile_qr_scan", "ios": "https://dc.lft.to/lastmile_qr_scan"}, "name": "25477f35c385072a7be841e4d1df9354", "is_reserved": 0}, {"is_disabled": 0, "fusion_lon": 0.0, "fusion_lat": 0.0, "lat": 38.8847215, "type": "electric_scooter", "lon": -77.01973333333333, "bike_id": "bafebb53695006188456494a2937f056", "rental_uris": {"android": "https://dc.lft.to/lastmile_qr_scan", "ios": "https://dc.lft.to/lastmile_qr_scan"}, "name": "bafebb53695006188456494a2937f056", "is_reserved": 0}, {"is_disabled": 0, "fusion_lon": 0.0, "fusion_lat": 0.0, "lat": 38.923110333333334, "type": "electric_scooter", "lon": -77.022511, "bike_id": "e32db400856c1d6a5b60f4251354e7e5", "rental_uris": {"android": "https://dc.lft.to/lastmile_qr_scan", "ios": "https://dc.lft.to/lastmile_qr_scan"}, "name": "e32db400856c1d6a5b60f4251354e7e5", "is_reserved": 0}, {"is_disabled": 0, "fusion_lon": 0.0, "fusion_lat": 0.0, "lat": 38.920564166666665, "type": "electric_scooter", "lon": -77.02456866666667, "bike_id": "e6366a06100339816867cd46fabf42db", "rental_uris": {"android": "https://dc.lft.to/lastmile_qr_scan", "ios": "https://dc.lft.to/lastmile_qr_scan"}, "name": "e6366a06100339816867cd46fabf42db", "is_reserved": 0}, {"is_disabled": 0, "fusion_lon": 0.0, "fusion_lat": 0.0, "lat": 38.89717016666667, "type": "electric_scooter", "lon": -77.02443483333333, "bike_id": "d6f2ec3ef3308ba912ee7b12f2097f53", "rental_uris": {"android": "https://dc.lft.to/lastmile_qr_scan", "ios": "https://dc.lft.to/lastmile_qr_scan"}, "name": "d6f2ec3ef3308ba912ee7b12f2097f53", "is_reserved": 0}, {"is_disabled": 0, "fusion_lon": 0.0, "fusion_lat": 0.0, "lat": 38.9027415, "type": "electric_scooter", "lon": -77.0344955, "bike_id": "7e88fb75644e76d189e422df043b4993", "rental_uris": {"android": "https://dc.lft.to/lastmile_qr_scan", "ios": "https://dc.lft.to/lastmile_qr_scan"}, "name": "7e88fb75644e76d189e422df043b4993", "is_reserved": 0}, {"is_disabled": 0, "fusion_lon": 0.0, "fusion_lat": 0.0, "lat": 38.9272845, "type": "electric_scooter", "lon": -77.0536485, "bike_id": "1e1e0b7f9f226fe45f276b6ee54bb6d6", "rental_uris": {"android": "https://dc.lft.to/lastmile_qr_scan", "ios": "https://dc.lft.to/lastmile_qr_scan"}, "name": "1e1e0b7f9f226fe45f276b6ee54bb6d6", "is_reserved": 0}, {"is_disabled": 0, "fusion_lon": 0.0, "fusion_lat": 0.0, "lat": 38.9025715, "type": "electric_scooter", "lon": -77.03451783333334, "bike_id": "292bcf53750532743c6c3a452a1512e1", "rental_uris": {"android": "https://dc.lft.to/lastmile_qr_scan", "ios": "https://dc.lft.to/lastmile_qr_scan"}, "name": "292bcf53750532743c6c3a452a1512e1", "is_reserved": 0}, {"is_disabled": 0, "fusion_lon": 0.0, "fusion_lat": 0.0, "lat": 38.9053125, "type": "electric_scooter", "lon": -77.02207233333333, "bike_id": "094e7ad9a1fc95e1b8fef73fda25b6d1", "rental_uris": {"android": "https://dc.lft.to/lastmile_qr_scan", "ios": "https://dc.lft.to/lastmile_qr_scan"}, "name": "094e7ad9a1fc95e1b8fef73fda25b6d1", "is_reserved": 0}, {"is_disabled": 0, "fusion_lon": 0.0, "fusion_lat": 0.0, "lat": 38.9006135, "type": "electric_scooter", "lon": -77.04452733333333, "bike_id": "b68ec415f4439f1a315f3b06a6df05b0", "rental_uris": {"android": "https://dc.lft.to/lastmile_qr_scan", "ios": "https://dc.lft.to/lastmile_qr_scan"}, "name": "b68ec415f4439f1a315f3b06a6df05b0", "is_reserved": 0}, {"is_disabled": 0, "fusion_lon": 0.0, "fusion_lat": 0.0, "lat": 38.957878666666666, "type": "electric_scooter", "lon": -77.02472783333333, "bike_id": "43141d56da9171d93485d501f94aba8e", "rental_uris": {"android": "https://dc.lft.to/lastmile_qr_scan", "ios": "https://dc.lft.to/lastmile_qr_scan"}, "name": "43141d56da9171d93485d501f94aba8e", "is_reserved": 0}, {"is_disabled": 0, "fusion_lon": 0.0, "fusion_lat": 0.0, "lat": 38.899582, "type": "electric_scooter", "lon": -77.0316065, "bike_id": "c8f93186d2f3f076269b89ac9811216c", "rental_uris": {"android": "https://dc.lft.to/lastmile_qr_scan", "ios": "https://dc.lft.to/lastmile_qr_scan"}, "name": "c8f93186d2f3f076269b89ac9811216c", "is_reserved": 0}, {"is_disabled": 0, "fusion_lon": 0.0, "fusion_lat": 0.0, "lat": 38.9129, "type": "electric_scooter", "lon": -76.98697433333334, "bike_id": "5c928122862ffb75bdbd672cb34bb57a", "rental_uris": {"android": "https://dc.lft.to/lastmile_qr_scan", "ios": "https://dc.lft.to/lastmile_qr_scan"}, "name": "5c928122862ffb75bdbd672cb34bb57a", "is_reserved": 0}, {"is_disabled": 0, "fusion_lon": 0.0, "fusion_lat": 0.0, "lat": 38.90639683333333, "type": "electric_scooter", "lon": -77.00582883333334, "bike_id": "5769b61988317620a1d8de3f9b4a603f", "rental_uris": {"android": "https://dc.lft.to/lastmile_qr_scan", "ios": "https://dc.lft.to/lastmile_qr_scan"}, "name": "5769b61988317620a1d8de3f9b4a603f", "is_reserved": 0}, {"is_disabled": 0, "fusion_lon": 0.0, "fusion_lat": 0.0, "lat": 38.89910016666666, "type": "electric_scooter", "lon": -76.93387933333334, "bike_id": "179d5657b24f73087a11f7fe1358443d", "rental_uris": {"android": "https://dc.lft.to/lastmile_qr_scan", "ios": "https://dc.lft.to/lastmile_qr_scan"}, "name": "179d5657b24f73087a11f7fe1358443d", "is_reserved": 0}, {"is_disabled": 0, "fusion_lon": 0.0, "fusion_lat": 0.0, "lat": 38.91816033333333, "type": "electric_scooter", "lon": -77.024766, "bike_id": "235873fdc52b78a331fa21c724dd62ba", "rental_uris": {"android": "https://dc.lft.to/lastmile_qr_scan", "ios": "https://dc.lft.to/lastmile_qr_scan"}, "name": "235873fdc52b78a331fa21c724dd62ba", "is_reserved": 0}, {"is_disabled": 0, "fusion_lon": 0.0, "fusion_lat": 0.0, "lat": 38.842709, "type": "electric_bike", "lon": -76.9884605, "bike_id": "ec5b965f2156467734e967d2246a7ff0", "rental_uris": {"android": "https://dc.lft.to/lastmile_qr_scan", "ios": "https://dc.lft.to/lastmile_qr_scan"}, "name": "ec5b965f2156467734e967d2246a7ff0", "is_reserved": 0}, {"is_disabled": 0, "fusion_lon": 0.0, "fusion_lat": 0.0, "lat": 38.91115083333333, "type": "electric_bike", "lon": -77.008158, "bike_id": "c6a0cd350d4fc9608c8682507212bd3d", "rental_uris": {"android": "https://dc.lft.to/lastmile_qr_scan", "ios": "https://dc.lft.to/lastmile_qr_scan"}, "name": "c6a0cd350d4fc9608c8682507212bd3d", "is_reserved": 0}, {"is_disabled": 0, "fusion_lon": 0.0, "fusion_lat": 0.0, "lat": 38.90562, "type": "electric_scooter", "lon": -77.04084216666666, "bike_id": "093d10fe52f80d78036f3d6c9b0b245b", "rental_uris": {"android": "https://dc.lft.to/lastmile_qr_scan", "ios": "https://dc.lft.to/lastmile_qr_scan"}, "name": "093d10fe52f80d78036f3d6c9b0b245b", "is_reserved": 0}, {"is_disabled": 0, "fusion_lon": 0.0, "fusion_lat": 0.0, "lat": 38.9349735, "type": "electric_scooter", "lon": -77.024198, "bike_id": "b25d68d841ad9493e041c40155405a94", "rental_uris": {"android": "https://dc.lft.to/lastmile_qr_scan", "ios": "https://dc.lft.to/lastmile_qr_scan"}, "name": "b25d68d841ad9493e041c40155405a94", "is_reserved": 0}, {"is_disabled": 0, "fusion_lon": 0.0, "fusion_lat": 0.0, "lat": 38.890823, "type": "electric_scooter", "lon": -76.9387845, "bike_id": "ae0e1a7261cf43d8b2bd6d22ad79c6ef", "rental_uris": {"android": "https://dc.lft.to/lastmile_qr_scan", "ios": "https://dc.lft.to/lastmile_qr_scan"}, "name": "ae0e1a7261cf43d8b2bd6d22ad79c6ef", "is_reserved": 0}, {"is_disabled": 0, "fusion_lon": 0.0, "fusion_lat": 0.0, "lat": 38.913084, "type": "electric_scooter", "lon": -77.03206683333333, "bike_id": "1e5d6272d99d62227b5bf490195266db", "rental_uris": {"android": "https://dc.lft.to/lastmile_qr_scan", "ios": "https://dc.lft.to/lastmile_qr_scan"}, "name": "1e5d6272d99d62227b5bf490195266db", "is_reserved": 0}, {"is_disabled": 0, "fusion_lon": 0.0, "fusion_lat": 0.0, "lat": 38.909266, "type": "electric_scooter", "lon": -77.03517333333333, "bike_id": "e9870aacc7ab95f911187b3ae7d1d0f8", "rental_uris": {"android": "https://dc.lft.to/lastmile_qr_scan", "ios": "https://dc.lft.to/lastmile_qr_scan"}, "name": "e9870aacc7ab95f911187b3ae7d1d0f8", "is_reserved": 0}, {"is_disabled": 0, "fusion_lon": 0.0, "fusion_lat": 0.0, "lat": 38.9078665, "type": "electric_scooter", "lon": -77.038646, "bike_id": "29f5a4ae6fd645f6b4440fe5c2e916fe", "rental_uris": {"android": "https://dc.lft.to/lastmile_qr_scan", "ios": "https://dc.lft.to/lastmile_qr_scan"}, "name": "29f5a4ae6fd645f6b4440fe5c2e916fe", "is_reserved": 0}, {"is_disabled": 0, "fusion_lon": 0.0, "fusion_lat": 0.0, "lat": 38.89227983333333, "type": "electric_scooter", "lon": -77.04794966666667, "bike_id": "92083e26543adbb83205ae9aea01ead2", "rental_uris": {"android": "https://dc.lft.to/lastmile_qr_scan", "ios": "https://dc.lft.to/lastmile_qr_scan"}, "name": "92083e26543adbb83205ae9aea01ead2", "is_reserved": 0}, {"is_disabled": 0, "fusion_lon": 0.0, "fusion_lat": 0.0, "lat": 38.89220483333333, "type": "electric_scooter", "lon": -77.047111, "bike_id": "9795c5cdcdb14f1e55584473942ffa46", "rental_uris": {"android": "https://dc.lft.to/lastmile_qr_scan", "ios": "https://dc.lft.to/lastmile_qr_scan"}, "name": "9795c5cdcdb14f1e55584473942ffa46", "is_reserved": 0}, {"is_disabled": 0, "fusion_lon": 0.0, "fusion_lat": 0.0, "lat": 38.950045, "type": "electric_bike", "lon": -77.05464033333334, "bike_id": "660085303029c4c4bf67c3243c8426a3", "rental_uris": {"android": "https://dc.lft.to/lastmile_qr_scan", "ios": "https://dc.lft.to/lastmile_qr_scan"}, "name": "660085303029c4c4bf67c3243c8426a3", "is_reserved": 0}, {"is_disabled": 0, "fusion_lon": 0.0, "fusion_lat": 0.0, "lat": 38.896241333333336, "type": "electric_scooter", "lon": -77.0408905, "bike_id": "9f503a6a2be8992b9de6928fb1c6862f", "rental_uris": {"android": "https://dc.lft.to/lastmile_qr_scan", "ios": "https://dc.lft.to/lastmile_qr_scan"}, "name": "9f503a6a2be8992b9de6928fb1c6862f", "is_reserved": 0}, {"is_disabled": 0, "fusion_lon": 0.0, "fusion_lat": 0.0, "lat": 38.9327845, "type": "electric_scooter", "lon": -77.03972233333333, "bike_id": "2f2f060492029df2a2fff20e3f28cb7d", "rental_uris": {"android": "https://dc.lft.to/lastmile_qr_scan", "ios": "https://dc.lft.to/lastmile_qr_scan"}, "name": "2f2f060492029df2a2fff20e3f28cb7d", "is_reserved": 0}, {"is_disabled": 0, "fusion_lon": 0.0, "fusion_lat": 0.0, "lat": 38.8636685, "type": "electric_scooter", "lon": -76.99064116666666, "bike_id": "29ba553ef36bcc11506b9f3a63726242", "rental_uris": {"android": "https://dc.lft.to/lastmile_qr_scan", "ios": "https://dc.lft.to/lastmile_qr_scan"}, "name": "29ba553ef36bcc11506b9f3a63726242", "is_reserved": 0}, {"is_disabled": 0, "fusion_lon": 0.0, "fusion_lat": 0.0, "lat": 38.950917833333335, "type": "electric_bike", "lon": -77.00860366666667, "bike_id": "2269ee8568fdfb7ea78247fb327d498b", "rental_uris": {"android": "https://dc.lft.to/lastmile_qr_scan", "ios": "https://dc.lft.to/lastmile_qr_scan"}, "name": "2269ee8568fdfb7ea78247fb327d498b", "is_reserved": 0}, {"is_disabled": 0, "fusion_lon": 0.0, "fusion_lat": 0.0, "lat": 38.918140333333334, "type": "electric_scooter", "lon": -77.00478616666666, "bike_id": "42100e283bc4bd058f573da77a6c6ff0", "rental_uris": {"android": "https://dc.lft.to/lastmile_qr_scan", "ios": "https://dc.lft.to/lastmile_qr_scan"}, "name": "42100e283bc4bd058f573da77a6c6ff0", "is_reserved": 0}, {"is_disabled": 0, "fusion_lon": 0.0, "fusion_lat": 0.0, "lat": 38.9096, "type": "electric_scooter", "lon": -77.0383835, "bike_id": "39d3453428016df808fe9587adb3db2e", "rental_uris": {"android": "https://dc.lft.to/lastmile_qr_scan", "ios": "https://dc.lft.to/lastmile_qr_scan"}, "name": "39d3453428016df808fe9587adb3db2e", "is_reserved": 0}, {"is_disabled": 0, "fusion_lon": 0.0, "fusion_lat": 0.0, "lat": 38.939600166666665, "type": "electric_scooter", "lon": -77.0328655, "bike_id": "0594675ecc3358915457e40ccd091c5f", "rental_uris": {"android": "https://dc.lft.to/lastmile_qr_scan", "ios": "https://dc.lft.to/lastmile_qr_scan"}, "name": "0594675ecc3358915457e40ccd091c5f", "is_reserved": 0}, {"is_disabled": 0, "fusion_lon": 0.0, "fusion_lat": 0.0, "lat": 38.8923005, "type": "electric_scooter", "lon": -77.02181416666667, "bike_id": "5b0a322f64ac3750bced208925f835d1", "rental_uris": {"android": "https://dc.lft.to/lastmile_qr_scan", "ios": "https://dc.lft.to/lastmile_qr_scan"}, "name": "5b0a322f64ac3750bced208925f835d1", "is_reserved": 0}, {"is_disabled": 0, "fusion_lon": 0.0, "fusion_lat": 0.0, "lat": 38.89565966666667, "type": "electric_bike", "lon": -77.12742483333334, "bike_id": "3895abebc398878a7370c2c77f16040f", "rental_uris": {"android": "https://dc.lft.to/lastmile_qr_scan", "ios": "https://dc.lft.to/lastmile_qr_scan"}, "name": "3895abebc398878a7370c2c77f16040f", "is_reserved": 0}, {"is_disabled": 0, "fusion_lon": 0.0, "fusion_lat": 0.0, "lat": 38.9104095, "type": "electric_scooter", "lon": -77.04353016666667, "bike_id": "aecc6f633e5904bc99f2a3e679665b02", "rental_uris": {"android": "https://dc.lft.to/lastmile_qr_scan", "ios": "https://dc.lft.to/lastmile_qr_scan"}, "name": "aecc6f633e5904bc99f2a3e679665b02", "is_reserved": 0}, {"is_disabled": 0, "fusion_lon": 0.0, "fusion_lat": 0.0, "lat": 38.924755166666664, "type": "electric_scooter", "lon": -77.0575455, "bike_id": "42e140907b57b3b9acc01858a60c2f3a", "rental_uris": {"android": "https://dc.lft.to/lastmile_qr_scan", "ios": "https://dc.lft.to/lastmile_qr_scan"}, "name": "42e140907b57b3b9acc01858a60c2f3a", "is_reserved": 0}, {"is_disabled": 0, "fusion_lon": 0.0, "fusion_lat": 0.0, "lat": 38.902781, "type": "electric_scooter", "lon": -77.0406495, "bike_id": "45369925669ae8bb6d220b138d6deaf1", "rental_uris": {"android": "https://dc.lft.to/lastmile_qr_scan", "ios": "https://dc.lft.to/lastmile_qr_scan"}, "name": "45369925669ae8bb6d220b138d6deaf1", "is_reserved": 0}, {"is_disabled": 0, "fusion_lon": 0.0, "fusion_lat": 0.0, "lat": 38.9144235, "type": "electric_scooter", "lon": -77.00888533333334, "bike_id": "69ba64720e4e078c72c91740c5cc6b0c", "rental_uris": {"android": "https://dc.lft.to/lastmile_qr_scan", "ios": "https://dc.lft.to/lastmile_qr_scan"}, "name": "69ba64720e4e078c72c91740c5cc6b0c", "is_reserved": 0}, {"is_disabled": 0, "fusion_lon": 0.0, "fusion_lat": 0.0, "lat": 38.87303516666667, "type": "electric_scooter", "lon": -77.001641, "bike_id": "b6ec7777168563b7de89e161fe21c135", "rental_uris": {"android": "https://dc.lft.to/lastmile_qr_scan", "ios": "https://dc.lft.to/lastmile_qr_scan"}, "name": "b6ec7777168563b7de89e161fe21c135", "is_reserved": 0}, {"is_disabled": 0, "fusion_lon": 0.0, "fusion_lat": 0.0, "lat": 38.8983435, "type": "electric_scooter", "lon": -76.94635983333333, "bike_id": "203abef7449fc13eaec009faff62983c", "rental_uris": {"android": "https://dc.lft.to/lastmile_qr_scan", "ios": "https://dc.lft.to/lastmile_qr_scan"}, "name": "203abef7449fc13eaec009faff62983c", "is_reserved": 0}, {"is_disabled": 0, "fusion_lon": 0.0, "fusion_lat": 0.0, "lat": 38.939753333333336, "type": "electric_scooter", "lon": -77.0328185, "bike_id": "51cba2f8b144a407883be3a8b889893c", "rental_uris": {"android": "https://dc.lft.to/lastmile_qr_scan", "ios": "https://dc.lft.to/lastmile_qr_scan"}, "name": "51cba2f8b144a407883be3a8b889893c", "is_reserved": 0}, {"is_disabled": 0, "fusion_lon": 0.0, "fusion_lat": 0.0, "lat": 38.930294833333335, "type": "electric_scooter", "lon": -77.03458466666666, "bike_id": "1b20e50ca19a1d140aab27b29d4965bb", "rental_uris": {"android": "https://dc.lft.to/lastmile_qr_scan", "ios": "https://dc.lft.to/lastmile_qr_scan"}, "name": "1b20e50ca19a1d140aab27b29d4965bb", "is_reserved": 0}, {"is_disabled": 0, "fusion_lon": 0.0, "fusion_lat": 0.0, "lat": 38.90729433333333, "type": "electric_scooter", "lon": -77.04230883333334, "bike_id": "7a302e92725370c32a4b226add1e634b", "rental_uris": {"android": "https://dc.lft.to/lastmile_qr_scan", "ios": "https://dc.lft.to/lastmile_qr_scan"}, "name": "7a302e92725370c32a4b226add1e634b", "is_reserved": 0}, {"is_disabled": 0, "fusion_lon": 0.0, "fusion_lat": 0.0, "lat": 38.824437833333334, "type": "electric_bike", "lon": -77.07054516666666, "bike_id": "255a11e46a4c792fc0fa9fe86791afe9", "rental_uris": {"android": "https://dc.lft.to/lastmile_qr_scan", "ios": "https://dc.lft.to/lastmile_qr_scan"}, "name": "255a11e46a4c792fc0fa9fe86791afe9", "is_reserved": 0}, {"is_disabled": 0, "fusion_lon": 0.0, "fusion_lat": 0.0, "lat": 38.91588, "type": "electric_scooter", "lon": -77.046917, "bike_id": "69a911bd246a518f2399b797139f3704", "rental_uris": {"android": "https://dc.lft.to/lastmile_qr_scan", "ios": "https://dc.lft.to/lastmile_qr_scan"}, "name": "69a911bd246a518f2399b797139f3704", "is_reserved": 0}, {"is_disabled": 0, "fusion_lon": 0.0, "fusion_lat": 0.0, "lat": 38.827783333333336, "type": "electric_bike", "lon": -77.1108035, "bike_id": "e71b8039ba750459f46d0ae313a76452", "rental_uris": {"android": "https://dc.lft.to/lastmile_qr_scan", "ios": "https://dc.lft.to/lastmile_qr_scan"}, "name": "e71b8039ba750459f46d0ae313a76452", "is_reserved": 0}, {"is_disabled": 0, "fusion_lon": 0.0, "fusion_lat": 0.0, "lat": 38.961892166666665, "type": "electric_scooter", "lon": -77.02784683333333, "bike_id": "93f2737ad7fa13d84a166a662c61b09e", "rental_uris": {"android": "https://dc.lft.to/lastmile_qr_scan", "ios": "https://dc.lft.to/lastmile_qr_scan"}, "name": "93f2737ad7fa13d84a166a662c61b09e", "is_reserved": 0}, {"is_disabled": 0, "fusion_lon": 0.0, "fusion_lat": 0.0, "lat": 38.897468833333335, "type": "electric_scooter", "lon": -77.00047366666666, "bike_id": "577f98b23f3d5133900210009f9c24b4", "rental_uris": {"android": "https://dc.lft.to/lastmile_qr_scan", "ios": "https://dc.lft.to/lastmile_qr_scan"}, "name": "577f98b23f3d5133900210009f9c24b4", "is_reserved": 0}, {"is_disabled": 0, "fusion_lon": 0.0, "fusion_lat": 0.0, "lat": 38.93931166666667, "type": "electric_scooter", "lon": -77.07472416666667, "bike_id": "a6b68eb9e25fbdbd53c7099f8ef790cc", "rental_uris": {"android": "https://dc.lft.to/lastmile_qr_scan", "ios": "https://dc.lft.to/lastmile_qr_scan"}, "name": "a6b68eb9e25fbdbd53c7099f8ef790cc", "is_reserved": 0}, {"is_disabled": 0, "fusion_lon": 0.0, "fusion_lat": 0.0, "lat": 38.885059, "type": "electric_scooter", "lon": -77.0032275, "bike_id": "cfe3b25029edae53e9eb1b94f0ffb377", "rental_uris": {"android": "https://dc.lft.to/lastmile_qr_scan", "ios": "https://dc.lft.to/lastmile_qr_scan"}, "name": "cfe3b25029edae53e9eb1b94f0ffb377", "is_reserved": 0}, {"is_disabled": 0, "fusion_lon": 0.0, "fusion_lat": 0.0, "lat": 38.92579583333333, "type": "electric_scooter", "lon": -77.03209016666666, "bike_id": "6b4fb8bc973ebbe284f1c711b081a4a4", "rental_uris": {"android": "https://dc.lft.to/lastmile_qr_scan", "ios": "https://dc.lft.to/lastmile_qr_scan"}, "name": "6b4fb8bc973ebbe284f1c711b081a4a4", "is_reserved": 0}, {"is_disabled": 0, "fusion_lon": 0.0, "fusion_lat": 0.0, "lat": 38.88615816666667, "type": "electric_bike", "lon": -77.00577416666667, "bike_id": "e18c6eb982debc63e163ceb45c51c44c", "rental_uris": {"android": "https://dc.lft.to/lastmile_qr_scan", "ios": "https://dc.lft.to/lastmile_qr_scan"}, "name": "e18c6eb982debc63e163ceb45c51c44c", "is_reserved": 0}, {"is_disabled": 0, "fusion_lon": 0.0, "fusion_lat": 0.0, "lat": 38.902645666666665, "type": "electric_scooter", "lon": -77.002087, "bike_id": "610d1e6290b707f8b5705225a205df25", "rental_uris": {"android": "https://dc.lft.to/lastmile_qr_scan", "ios": "https://dc.lft.to/lastmile_qr_scan"}, "name": "610d1e6290b707f8b5705225a205df25", "is_reserved": 0}, {"is_disabled": 0, "fusion_lon": 0.0, "fusion_lat": 0.0, "lat": 38.94978483333333, "type": "electric_scooter", "lon": -77.03761416666667, "bike_id": "d6156d36aed8c317bf713e1601e49310", "rental_uris": {"android": "https://dc.lft.to/lastmile_qr_scan", "ios": "https://dc.lft.to/lastmile_qr_scan"}, "name": "d6156d36aed8c317bf713e1601e49310", "is_reserved": 0}, {"is_disabled": 0, "fusion_lon": 0.0, "fusion_lat": 0.0, "lat": 38.90396483333333, "type": "electric_scooter", "lon": -77.04033016666666, "bike_id": "2f16820146448884cf2229f431c3a3de", "rental_uris": {"android": "https://dc.lft.to/lastmile_qr_scan", "ios": "https://dc.lft.to/lastmile_qr_scan"}, "name": "2f16820146448884cf2229f431c3a3de", "is_reserved": 0}, {"is_disabled": 0, "fusion_lon": 0.0, "fusion_lat": 0.0, "lat": 38.89239383333334, "type": "electric_scooter", "lon": -77.033481, "bike_id": "71a2bb1c31f630743cc59f956baa83e9", "rental_uris": {"android": "https://dc.lft.to/lastmile_qr_scan", "ios": "https://dc.lft.to/lastmile_qr_scan"}, "name": "71a2bb1c31f630743cc59f956baa83e9", "is_reserved": 0}, {"is_disabled": 0, "fusion_lon": 0.0, "fusion_lat": 0.0, "lat": 39.0268605, "type": "electric_bike", "lon": -77.12595783333333, "bike_id": "92874551a218f94407fa5f24890e333c", "rental_uris": {"android": "https://dc.lft.to/lastmile_qr_scan", "ios": "https://dc.lft.to/lastmile_qr_scan"}, "name": "92874551a218f94407fa5f24890e333c", "is_reserved": 0}, {"is_disabled": 0, "fusion_lon": 0.0, "fusion_lat": 0.0, "lat": 38.91109516666667, "type": "electric_scooter", "lon": -77.03833666666667, "bike_id": "d540449218bfbbace3fc39a786b201de", "rental_uris": {"android": "https://dc.lft.to/lastmile_qr_scan", "ios": "https://dc.lft.to/lastmile_qr_scan"}, "name": "d540449218bfbbace3fc39a786b201de", "is_reserved": 0}, {"is_disabled": 0, "fusion_lon": 0.0, "fusion_lat": 0.0, "lat": 38.918754166666666, "type": "electric_scooter", "lon": -77.04490166666666, "bike_id": "b00a4a44d39fc78ee4364c359daab772", "rental_uris": {"android": "https://dc.lft.to/lastmile_qr_scan", "ios": "https://dc.lft.to/lastmile_qr_scan"}, "name": "b00a4a44d39fc78ee4364c359daab772", "is_reserved": 0}, {"is_disabled": 0, "fusion_lon": 0.0, "fusion_lat": 0.0, "lat": 38.897285, "type": "electric_scooter", "lon": -76.994591, "bike_id": "f8917977a46246f708468a0f684b3ce0", "rental_uris": {"android": "https://dc.lft.to/lastmile_qr_scan", "ios": "https://dc.lft.to/lastmile_qr_scan"}, "name": "f8917977a46246f708468a0f684b3ce0", "is_reserved": 0}, {"is_disabled": 0, "fusion_lon": 0.0, "fusion_lat": 0.0, "lat": 38.9171535, "type": "electric_scooter", "lon": -77.09809416666667, "bike_id": "9d0440461b1f0be6913fc8c2a0bb0b06", "rental_uris": {"android": "https://dc.lft.to/lastmile_qr_scan", "ios": "https://dc.lft.to/lastmile_qr_scan"}, "name": "9d0440461b1f0be6913fc8c2a0bb0b06", "is_reserved": 0}, {"is_disabled": 0, "fusion_lon": 0.0, "fusion_lat": 0.0, "lat": 38.9026685, "type": "electric_scooter", "lon": -77.03442883333334, "bike_id": "2ead02d1d2f05acc2c9c955d999432cc", "rental_uris": {"android": "https://dc.lft.to/lastmile_qr_scan", "ios": "https://dc.lft.to/lastmile_qr_scan"}, "name": "2ead02d1d2f05acc2c9c955d999432cc", "is_reserved": 0}, {"is_disabled": 0, "fusion_lon": 0.0, "fusion_lat": 0.0, "lat": 38.898794333333335, "type": "electric_scooter", "lon": -76.93160733333333, "bike_id": "568f1b88429564a8ec9731efd7cb2ccc", "rental_uris": {"android": "https://dc.lft.to/lastmile_qr_scan", "ios": "https://dc.lft.to/lastmile_qr_scan"}, "name": "568f1b88429564a8ec9731efd7cb2ccc", "is_reserved": 0}, {"is_disabled": 0, "fusion_lon": 0.0, "fusion_lat": 0.0, "lat": 38.91332583333333, "type": "electric_scooter", "lon": -77.04866966666667, "bike_id": "6434875cb40e1e56df06bc2b70428253", "rental_uris": {"android": "https://dc.lft.to/lastmile_qr_scan", "ios": "https://dc.lft.to/lastmile_qr_scan"}, "name": "6434875cb40e1e56df06bc2b70428253", "is_reserved": 0}, {"is_disabled": 0, "fusion_lon": 0.0, "fusion_lat": 0.0, "lat": 38.91198, "type": "electric_scooter", "lon": -77.045373, "bike_id": "acfbd2077efcce2994244956fb134688", "rental_uris": {"android": "https://dc.lft.to/lastmile_qr_scan", "ios": "https://dc.lft.to/lastmile_qr_scan"}, "name": "acfbd2077efcce2994244956fb134688", "is_reserved": 0}, {"is_disabled": 0, "fusion_lon": 0.0, "fusion_lat": 0.0, "lat": 38.906087166666666, "type": "electric_scooter", "lon": -77.02820516666667, "bike_id": "6f02812881ccbc042e533afe3786bd49", "rental_uris": {"android": "https://dc.lft.to/lastmile_qr_scan", "ios": "https://dc.lft.to/lastmile_qr_scan"}, "name": "6f02812881ccbc042e533afe3786bd49", "is_reserved": 0}, {"is_disabled": 0, "fusion_lon": 0.0, "fusion_lat": 0.0, "lat": 38.921479166666664, "type": "electric_scooter", "lon": -77.03441533333333, "bike_id": "a41bf8fa0a3bca86c2c10c93c993a876", "rental_uris": {"android": "https://dc.lft.to/lastmile_qr_scan", "ios": "https://dc.lft.to/lastmile_qr_scan"}, "name": "a41bf8fa0a3bca86c2c10c93c993a876", "is_reserved": 0}, {"is_disabled": 0, "fusion_lon": 0.0, "fusion_lat": 0.0, "lat": 38.904990166666664, "type": "electric_scooter", "lon": -77.00126166666666, "bike_id": "3bf49e8f5bf85eabc92bfd0a3d12cd0b", "rental_uris": {"android": "https://dc.lft.to/lastmile_qr_scan", "ios": "https://dc.lft.to/lastmile_qr_scan"}, "name": "3bf49e8f5bf85eabc92bfd0a3d12cd0b", "is_reserved": 0}, {"is_disabled": 0, "fusion_lon": 0.0, "fusion_lat": 0.0, "lat": 38.898411833333334, "type": "electric_scooter", "lon": -77.02907016666667, "bike_id": "bc3d792e720affb15bdd19b07f86ac30", "rental_uris": {"android": "https://dc.lft.to/lastmile_qr_scan", "ios": "https://dc.lft.to/lastmile_qr_scan"}, "name": "bc3d792e720affb15bdd19b07f86ac30", "is_reserved": 0}, {"is_disabled": 0, "fusion_lon": 0.0, "fusion_lat": 0.0, "lat": 38.8968115, "type": "electric_scooter", "lon": -76.94783483333333, "bike_id": "6eb8a0fb9ebc789508b2a58a1777d220", "rental_uris": {"android": "https://dc.lft.to/lastmile_qr_scan", "ios": "https://dc.lft.to/lastmile_qr_scan"}, "name": "6eb8a0fb9ebc789508b2a58a1777d220", "is_reserved": 0}, {"is_disabled": 0, "fusion_lon": 0.0, "fusion_lat": 0.0, "lat": 39.105656, "type": "electric_bike", "lon": -77.15269716666667, "bike_id": "8f98bf9890f8990954da1f88522dd5b5", "rental_uris": {"android": "https://dc.lft.to/lastmile_qr_scan", "ios": "https://dc.lft.to/lastmile_qr_scan"}, "name": "8f98bf9890f8990954da1f88522dd5b5", "is_reserved": 0}, {"is_disabled": 0, "fusion_lon": 0.0, "fusion_lat": 0.0, "lat": 38.91112416666667, "type": "electric_scooter", "lon": -77.020158, "bike_id": "1ece5e34262c1c1eb086e9515540d359", "rental_uris": {"android": "https://dc.lft.to/lastmile_qr_scan", "ios": "https://dc.lft.to/lastmile_qr_scan"}, "name": "1ece5e34262c1c1eb086e9515540d359", "is_reserved": 0}, {"is_disabled": 0, "fusion_lon": 0.0, "fusion_lat": 0.0, "lat": 38.933480333333335, "type": "electric_scooter", "lon": -77.02858016666667, "bike_id": "341acf35fe5e6f3d7d9204d839fd0798", "rental_uris": {"android": "https://dc.lft.to/lastmile_qr_scan", "ios": "https://dc.lft.to/lastmile_qr_scan"}, "name": "341acf35fe5e6f3d7d9204d839fd0798", "is_reserved": 0}, {"is_disabled": 0, "fusion_lon": 0.0, "fusion_lat": 0.0, "lat": 38.904041666666664, "type": "electric_scooter", "lon": -77.04056883333334, "bike_id": "9385bca93880292657a72cd79017f30f", "rental_uris": {"android": "https://dc.lft.to/lastmile_qr_scan", "ios": "https://dc.lft.to/lastmile_qr_scan"}, "name": "9385bca93880292657a72cd79017f30f", "is_reserved": 0}, {"is_disabled": 0, "fusion_lon": 0.0, "fusion_lat": 0.0, "lat": 38.92446833333333, "type": "electric_bike", "lon": -76.96830766666666, "bike_id": "0b46d53fb7ea6653aa40beab25aab2a2", "rental_uris": {"android": "https://dc.lft.to/lastmile_qr_scan", "ios": "https://dc.lft.to/lastmile_qr_scan"}, "name": "0b46d53fb7ea6653aa40beab25aab2a2", "is_reserved": 0}, {"is_disabled": 0, "fusion_lon": 0.0, "fusion_lat": 0.0, "lat": 38.928961666666666, "type": "electric_scooter", "lon": -76.98454916666667, "bike_id": "46e14e8cdf61a8c7aa1da4f32a48a163", "rental_uris": {"android": "https://dc.lft.to/lastmile_qr_scan", "ios": "https://dc.lft.to/lastmile_qr_scan"}, "name": "46e14e8cdf61a8c7aa1da4f32a48a163", "is_reserved": 0}, {"is_disabled": 0, "fusion_lon": 0.0, "fusion_lat": 0.0, "lat": 38.85988716666667, "type": "electric_bike", "lon": -76.97054383333334, "bike_id": "fb65dd353bf822eb3e12cf3ca19d7a37", "rental_uris": {"android": "https://dc.lft.to/lastmile_qr_scan", "ios": "https://dc.lft.to/lastmile_qr_scan"}, "name": "fb65dd353bf822eb3e12cf3ca19d7a37", "is_reserved": 0}, {"is_disabled": 0, "fusion_lon": 0.0, "fusion_lat": 0.0, "lat": 38.994556333333335, "type": "electric_bike", "lon": -76.90819516666667, "bike_id": "ed4d9aac5f524df33193aba43cd2c036", "rental_uris": {"android": "https://dc.lft.to/lastmile_qr_scan", "ios": "https://dc.lft.to/lastmile_qr_scan"}, "name": "ed4d9aac5f524df33193aba43cd2c036", "is_reserved": 0}, {"is_disabled": 0, "fusion_lon": 0.0, "fusion_lat": 0.0, "lat": 38.923621, "type": "electric_scooter", "lon": -76.99868466666666, "bike_id": "9cefd8eb331053ed79b466711206d924", "rental_uris": {"android": "https://dc.lft.to/lastmile_qr_scan", "ios": "https://dc.lft.to/lastmile_qr_scan"}, "name": "9cefd8eb331053ed79b466711206d924", "is_reserved": 0}, {"is_disabled": 0, "fusion_lon": 0.0, "fusion_lat": 0.0, "lat": 38.86664566666666, "type": "electric_scooter", "lon": -76.98892416666666, "bike_id": "8013daf4f90f9ec9ccf51456ce817459", "rental_uris": {"android": "https://dc.lft.to/lastmile_qr_scan", "ios": "https://dc.lft.to/lastmile_qr_scan"}, "name": "8013daf4f90f9ec9ccf51456ce817459", "is_reserved": 0}, {"is_disabled": 0, "fusion_lon": 0.0, "fusion_lat": 0.0, "lat": 38.90354083333333, "type": "electric_scooter", "lon": -77.03642066666667, "bike_id": "933507bb1888e91262658fd9f9ae86fa", "rental_uris": {"android": "https://dc.lft.to/lastmile_qr_scan", "ios": "https://dc.lft.to/lastmile_qr_scan"}, "name": "933507bb1888e91262658fd9f9ae86fa", "is_reserved": 0}, {"is_disabled": 0, "fusion_lon": 0.0, "fusion_lat": 0.0, "lat": 38.932565333333336, "type": "electric_scooter", "lon": -77.040165, "bike_id": "619665205f9dce486eaa9431b4361feb", "rental_uris": {"android": "https://dc.lft.to/lastmile_qr_scan", "ios": "https://dc.lft.to/lastmile_qr_scan"}, "name": "619665205f9dce486eaa9431b4361feb", "is_reserved": 0}, {"is_disabled": 0, "fusion_lon": 0.0, "fusion_lat": 0.0, "lat": 38.88009016666667, "type": "electric_bike", "lon": -76.91594083333334, "bike_id": "434ac37673452ddc11a9d440e5a59d6e", "rental_uris": {"android": "https://dc.lft.to/lastmile_qr_scan", "ios": "https://dc.lft.to/lastmile_qr_scan"}, "name": "434ac37673452ddc11a9d440e5a59d6e", "is_reserved": 0}, {"is_disabled": 0, "fusion_lon": 0.0, "fusion_lat": 0.0, "lat": 38.916010166666666, "type": "electric_scooter", "lon": -77.03196116666666, "bike_id": "6784b56f7f5c1c324b6090ac57e17b1e", "rental_uris": {"android": "https://dc.lft.to/lastmile_qr_scan", "ios": "https://dc.lft.to/lastmile_qr_scan"}, "name": "6784b56f7f5c1c324b6090ac57e17b1e", "is_reserved": 0}, {"is_disabled": 0, "fusion_lon": 0.0, "fusion_lat": 0.0, "lat": 38.92869066666667, "type": "electric_scooter", "lon": -76.9902705, "bike_id": "25f81530c6e1b19d6597257c4c67a8ab", "rental_uris": {"android": "https://dc.lft.to/lastmile_qr_scan", "ios": "https://dc.lft.to/lastmile_qr_scan"}, "name": "25f81530c6e1b19d6597257c4c67a8ab", "is_reserved": 0}, {"is_disabled": 0, "fusion_lon": 0.0, "fusion_lat": 0.0, "lat": 38.918162833333334, "type": "electric_scooter", "lon": -77.02474116666667, "bike_id": "3fd37a1e9882e843d874fba48c24d410", "rental_uris": {"android": "https://dc.lft.to/lastmile_qr_scan", "ios": "https://dc.lft.to/lastmile_qr_scan"}, "name": "3fd37a1e9882e843d874fba48c24d410", "is_reserved": 0}, {"is_disabled": 0, "fusion_lon": 0.0, "fusion_lat": 0.0, "lat": 38.92563833333333, "type": "electric_scooter", "lon": -77.02285916666666, "bike_id": "5012321293318ca4fed84730b14959f1", "rental_uris": {"android": "https://dc.lft.to/lastmile_qr_scan", "ios": "https://dc.lft.to/lastmile_qr_scan"}, "name": "5012321293318ca4fed84730b14959f1", "is_reserved": 0}, {"is_disabled": 0, "fusion_lon": 0.0, "fusion_lat": 0.0, "lat": 38.911986166666665, "type": "electric_scooter", "lon": -77.0018875, "bike_id": "42e8fa9b48a90fc6dce29c62cebc2f15", "rental_uris": {"android": "https://dc.lft.to/lastmile_qr_scan", "ios": "https://dc.lft.to/lastmile_qr_scan"}, "name": "42e8fa9b48a90fc6dce29c62cebc2f15", "is_reserved": 0}, {"is_disabled": 0, "fusion_lon": 0.0, "fusion_lat": 0.0, "lat": 38.846002166666665, "type": "electric_bike", "lon": -76.96885633333333, "bike_id": "b01e89ca3b6af1c9295a66584a941df4", "rental_uris": {"android": "https://dc.lft.to/lastmile_qr_scan", "ios": "https://dc.lft.to/lastmile_qr_scan"}, "name": "b01e89ca3b6af1c9295a66584a941df4", "is_reserved": 0}, {"is_disabled": 0, "fusion_lon": 0.0, "fusion_lat": 0.0, "lat": 38.91696983333333, "type": "electric_scooter", "lon": -77.03217133333334, "bike_id": "066f7163c1b773db0becff13808c328e", "rental_uris": {"android": "https://dc.lft.to/lastmile_qr_scan", "ios": "https://dc.lft.to/lastmile_qr_scan"}, "name": "066f7163c1b773db0becff13808c328e", "is_reserved": 0}, {"is_disabled": 0, "fusion_lon": 0.0, "fusion_lat": 0.0, "lat": 38.895954833333334, "type": "electric_scooter", "lon": -77.02617983333333, "bike_id": "d222acbb95547106ec06cb9b086dde69", "rental_uris": {"android": "https://dc.lft.to/lastmile_qr_scan", "ios": "https://dc.lft.to/lastmile_qr_scan"}, "name": "d222acbb95547106ec06cb9b086dde69", "is_reserved": 0}, {"is_disabled": 0, "fusion_lon": 0.0, "fusion_lat": 0.0, "lat": 38.883842333333334, "type": "electric_bike", "lon": -77.03080716666666, "bike_id": "18b617f4c5a4146ec93fa6e780584149", "rental_uris": {"android": "https://dc.lft.to/lastmile_qr_scan", "ios": "https://dc.lft.to/lastmile_qr_scan"}, "name": "18b617f4c5a4146ec93fa6e780584149", "is_reserved": 0}, {"is_disabled": 0, "fusion_lon": 0.0, "fusion_lat": 0.0, "lat": 38.8990675, "type": "electric_scooter", "lon": -76.93394383333333, "bike_id": "95ed5687636b5abda5b5a110f72fb78d", "rental_uris": {"android": "https://dc.lft.to/lastmile_qr_scan", "ios": "https://dc.lft.to/lastmile_qr_scan"}, "name": "95ed5687636b5abda5b5a110f72fb78d", "is_reserved": 0}, {"is_disabled": 0, "fusion_lon": 0.0, "fusion_lat": 0.0, "lat": 38.959624833333336, "type": "electric_scooter", "lon": -77.02108933333334, "bike_id": "66f955236dd4dd4901bf4adb5f250b38", "rental_uris": {"android": "https://dc.lft.to/lastmile_qr_scan", "ios": "https://dc.lft.to/lastmile_qr_scan"}, "name": "66f955236dd4dd4901bf4adb5f250b38", "is_reserved": 0}, {"is_disabled": 0, "fusion_lon": 0.0, "fusion_lat": 0.0, "lat": 38.90242666666666, "type": "electric_scooter", "lon": -77.01941216666667, "bike_id": "7f1ef6eb3ac022c9aec850eef2e61df8", "rental_uris": {"android": "https://dc.lft.to/lastmile_qr_scan", "ios": "https://dc.lft.to/lastmile_qr_scan"}, "name": "7f1ef6eb3ac022c9aec850eef2e61df8", "is_reserved": 0}, {"is_disabled": 0, "fusion_lon": 0.0, "fusion_lat": 0.0, "lat": 38.95405433333333, "type": "electric_scooter", "lon": -77.0275085, "bike_id": "b5a64a7902430005e5a0bf0c95945118", "rental_uris": {"android": "https://dc.lft.to/lastmile_qr_scan", "ios": "https://dc.lft.to/lastmile_qr_scan"}, "name": "b5a64a7902430005e5a0bf0c95945118", "is_reserved": 0}, {"is_disabled": 0, "fusion_lon": 0.0, "fusion_lat": 0.0, "lat": 38.91383, "type": "electric_scooter", "lon": -77.02974233333333, "bike_id": "e56836d8619f46b004aa7309ce52a6d1", "rental_uris": {"android": "https://dc.lft.to/lastmile_qr_scan", "ios": "https://dc.lft.to/lastmile_qr_scan"}, "name": "e56836d8619f46b004aa7309ce52a6d1", "is_reserved": 0}, {"is_disabled": 0, "fusion_lon": 0.0, "fusion_lat": 0.0, "lat": 38.924574666666665, "type": "electric_scooter", "lon": -77.03951633333334, "bike_id": "0b5d6792766ec9800ccfa1b812de5a00", "rental_uris": {"android": "https://dc.lft.to/lastmile_qr_scan", "ios": "https://dc.lft.to/lastmile_qr_scan"}, "name": "0b5d6792766ec9800ccfa1b812de5a00", "is_reserved": 0}, {"is_disabled": 0, "fusion_lon": 0.0, "fusion_lat": 0.0, "lat": 38.90652133333333, "type": "electric_scooter", "lon": -77.025296, "bike_id": "eb762e74fa8150601ec4078a501807b4", "rental_uris": {"android": "https://dc.lft.to/lastmile_qr_scan", "ios": "https://dc.lft.to/lastmile_qr_scan"}, "name": "eb762e74fa8150601ec4078a501807b4", "is_reserved": 0}, {"is_disabled": 0, "fusion_lon": 0.0, "fusion_lat": 0.0, "lat": 38.901208833333335, "type": "electric_scooter", "lon": -77.04054033333334, "bike_id": "a0a2f2a69167372634bfaec9f68bf4ac", "rental_uris": {"android": "https://dc.lft.to/lastmile_qr_scan", "ios": "https://dc.lft.to/lastmile_qr_scan"}, "name": "a0a2f2a69167372634bfaec9f68bf4ac", "is_reserved": 0}, {"is_disabled": 0, "fusion_lon": 0.0, "fusion_lat": 0.0, "lat": 38.950482, "type": "electric_scooter", "lon": -77.02299266666667, "bike_id": "39e8a43c984997dfee219d1d40cdf058", "rental_uris": {"android": "https://dc.lft.to/lastmile_qr_scan", "ios": "https://dc.lft.to/lastmile_qr_scan"}, "name": "39e8a43c984997dfee219d1d40cdf058", "is_reserved": 0}, {"is_disabled": 0, "fusion_lon": 0.0, "fusion_lat": 0.0, "lat": 38.902597, "type": "electric_scooter", "lon": -77.06164883333334, "bike_id": "77cc2b99ad5e69ce321d89d1eac8e75c", "rental_uris": {"android": "https://dc.lft.to/lastmile_qr_scan", "ios": "https://dc.lft.to/lastmile_qr_scan"}, "name": "77cc2b99ad5e69ce321d89d1eac8e75c", "is_reserved": 0}, {"is_disabled": 0, "fusion_lon": 0.0, "fusion_lat": 0.0, "lat": 38.907528166666665, "type": "electric_scooter", "lon": -77.0467595, "bike_id": "ac9754b962acda0b8920b85420f69e48", "rental_uris": {"android": "https://dc.lft.to/lastmile_qr_scan", "ios": "https://dc.lft.to/lastmile_qr_scan"}, "name": "ac9754b962acda0b8920b85420f69e48", "is_reserved": 0}, {"is_disabled": 0, "fusion_lon": 0.0, "fusion_lat": 0.0, "lat": 38.8835105, "type": "electric_scooter", "lon": -76.9278845, "bike_id": "e6d63fd0547638d2dbbc93a6dbaf63e7", "rental_uris": {"android": "https://dc.lft.to/lastmile_qr_scan", "ios": "https://dc.lft.to/lastmile_qr_scan"}, "name": "e6d63fd0547638d2dbbc93a6dbaf63e7", "is_reserved": 0}, {"is_disabled": 0, "fusion_lon": 0.0, "fusion_lat": 0.0, "lat": 38.89258016666667, "type": "electric_scooter", "lon": -76.9415655, "bike_id": "16661551a98f567fdedff5b373f70c3a", "rental_uris": {"android": "https://dc.lft.to/lastmile_qr_scan", "ios": "https://dc.lft.to/lastmile_qr_scan"}, "name": "16661551a98f567fdedff5b373f70c3a", "is_reserved": 0}, {"is_disabled": 0, "fusion_lon": 0.0, "fusion_lat": 0.0, "lat": 38.927086333333335, "type": "electric_scooter", "lon": -76.9721135, "bike_id": "922599741176ef50a7f9e1d0c1263047", "rental_uris": {"android": "https://dc.lft.to/lastmile_qr_scan", "ios": "https://dc.lft.to/lastmile_qr_scan"}, "name": "922599741176ef50a7f9e1d0c1263047", "is_reserved": 0}, {"is_disabled": 0, "fusion_lon": 0.0, "fusion_lat": 0.0, "lat": 38.912523, "type": "electric_scooter", "lon": -77.0223775, "bike_id": "5d20f776748f5544a9528352b95c29b9", "rental_uris": {"android": "https://dc.lft.to/lastmile_qr_scan", "ios": "https://dc.lft.to/lastmile_qr_scan"}, "name": "5d20f776748f5544a9528352b95c29b9", "is_reserved": 0}, {"is_disabled": 0, "fusion_lon": 0.0, "fusion_lat": 0.0, "lat": 38.90537116666667, "type": "electric_scooter", "lon": -77.050474, "bike_id": "01e8b36632abc877bc533e266dd2a589", "rental_uris": {"android": "https://dc.lft.to/lastmile_qr_scan", "ios": "https://dc.lft.to/lastmile_qr_scan"}, "name": "01e8b36632abc877bc533e266dd2a589", "is_reserved": 0}, {"is_disabled": 0, "fusion_lon": 0.0, "fusion_lat": 0.0, "lat": 38.962196, "type": "electric_scooter", "lon": -77.027977, "bike_id": "67652d03fb4c36d4f7007600db804c7f", "rental_uris": {"android": "https://dc.lft.to/lastmile_qr_scan", "ios": "https://dc.lft.to/lastmile_qr_scan"}, "name": "67652d03fb4c36d4f7007600db804c7f", "is_reserved": 0}, {"is_disabled": 0, "fusion_lon": 0.0, "fusion_lat": 0.0, "lat": 38.846197833333335, "type": "electric_scooter", "lon": -76.99630566666667, "bike_id": "976909b5f31e6537e8bd41b947e1bfff", "rental_uris": {"android": "https://dc.lft.to/lastmile_qr_scan", "ios": "https://dc.lft.to/lastmile_qr_scan"}, "name": "976909b5f31e6537e8bd41b947e1bfff", "is_reserved": 0}, {"is_disabled": 0, "fusion_lon": 0.0, "fusion_lat": 0.0, "lat": 38.865260166666665, "type": "electric_scooter", "lon": -76.98976916666666, "bike_id": "adce79c74bf45822951260d2adfc8f90", "rental_uris": {"android": "https://dc.lft.to/lastmile_qr_scan", "ios": "https://dc.lft.to/lastmile_qr_scan"}, "name": "adce79c74bf45822951260d2adfc8f90", "is_reserved": 0}, {"is_disabled": 0, "fusion_lon": 0.0, "fusion_lat": 0.0, "lat": 38.903341, "type": "electric_scooter", "lon": -76.98016433333333, "bike_id": "1288438093a1ec9d41abced902d143e5", "rental_uris": {"android": "https://dc.lft.to/lastmile_qr_scan", "ios": "https://dc.lft.to/lastmile_qr_scan"}, "name": "1288438093a1ec9d41abced902d143e5", "is_reserved": 0}, {"is_disabled": 0, "fusion_lon": 0.0, "fusion_lat": 0.0, "lat": 38.913758333333334, "type": "electric_scooter", "lon": -77.03962683333333, "bike_id": "368f9108212d72ebfedad224f7420c2a", "rental_uris": {"android": "https://dc.lft.to/lastmile_qr_scan", "ios": "https://dc.lft.to/lastmile_qr_scan"}, "name": "368f9108212d72ebfedad224f7420c2a", "is_reserved": 0}, {"is_disabled": 0, "fusion_lon": 0.0, "fusion_lat": 0.0, "lat": 38.8528415, "type": "electric_bike", "lon": -76.98157216666667, "bike_id": "bc08113627be021e26652210ec89ead8", "rental_uris": {"android": "https://dc.lft.to/lastmile_qr_scan", "ios": "https://dc.lft.to/lastmile_qr_scan"}, "name": "bc08113627be021e26652210ec89ead8", "is_reserved": 0}, {"is_disabled": 0, "fusion_lon": 0.0, "fusion_lat": 0.0, "lat": 38.916095166666665, "type": "electric_scooter", "lon": -77.040177, "bike_id": "4bf6f3ad59eba8f6e7ae2bd178801fa8", "rental_uris": {"android": "https://dc.lft.to/lastmile_qr_scan", "ios": "https://dc.lft.to/lastmile_qr_scan"}, "name": "4bf6f3ad59eba8f6e7ae2bd178801fa8", "is_reserved": 0}, {"is_disabled": 0, "fusion_lon": 0.0, "fusion_lat": 0.0, "lat": 38.9047245, "type": "electric_bike", "lon": -76.92949083333333, "bike_id": "8380ca19ab8794bb90d6ec6a1dadd532", "rental_uris": {"android": "https://dc.lft.to/lastmile_qr_scan", "ios": "https://dc.lft.to/lastmile_qr_scan"}, "name": "8380ca19ab8794bb90d6ec6a1dadd532", "is_reserved": 0}, {"is_disabled": 0, "fusion_lon": 0.0, "fusion_lat": 0.0, "lat": 39.00111733333333, "type": "electric_bike", "lon": -77.02528216666667, "bike_id": "04a56d242bd300fad244682641816a97", "rental_uris": {"android": "https://dc.lft.to/lastmile_qr_scan", "ios": "https://dc.lft.to/lastmile_qr_scan"}, "name": "04a56d242bd300fad244682641816a97", "is_reserved": 0}, {"is_disabled": 0, "fusion_lon": 0.0, "fusion_lat": 0.0, "lat": 38.902660166666664, "type": "electric_scooter", "lon": -77.03452216666666, "bike_id": "345581de4fbc373877e35f9336f12610", "rental_uris": {"android": "https://dc.lft.to/lastmile_qr_scan", "ios": "https://dc.lft.to/lastmile_qr_scan"}, "name": "345581de4fbc373877e35f9336f12610", "is_reserved": 0}, {"is_disabled": 0, "fusion_lon": 0.0, "fusion_lat": 0.0, "lat": 38.80363933333334, "type": "electric_bike", "lon": -77.03898083333333, "bike_id": "d06378f3b20ad1f9a02ef00c74802f98", "rental_uris": {"android": "https://dc.lft.to/lastmile_qr_scan", "ios": "https://dc.lft.to/lastmile_qr_scan"}, "name": "d06378f3b20ad1f9a02ef00c74802f98", "is_reserved": 0}, {"is_disabled": 0, "fusion_lon": 0.0, "fusion_lat": 0.0, "lat": 38.902738166666666, "type": "electric_scooter", "lon": -77.034508, "bike_id": "3c357cb1981023b4f431e16b15e9c286", "rental_uris": {"android": "https://dc.lft.to/lastmile_qr_scan", "ios": "https://dc.lft.to/lastmile_qr_scan"}, "name": "3c357cb1981023b4f431e16b15e9c286", "is_reserved": 0}, {"is_disabled": 0, "fusion_lon": 0.0, "fusion_lat": 0.0, "lat": 38.928475666666664, "type": "electric_scooter", "lon": -76.9977095, "bike_id": "96150ec9bff802f132aa39b24f6106ca", "rental_uris": {"android": "https://dc.lft.to/lastmile_qr_scan", "ios": "https://dc.lft.to/lastmile_qr_scan"}, "name": "96150ec9bff802f132aa39b24f6106ca", "is_reserved": 0}, {"is_disabled": 0, "fusion_lon": 0.0, "fusion_lat": 0.0, "lat": 38.931707833333334, "type": "electric_scooter", "lon": -77.07282966666666, "bike_id": "4e1f144f418b3556c2d4b6d8284ecb6d", "rental_uris": {"android": "https://dc.lft.to/lastmile_qr_scan", "ios": "https://dc.lft.to/lastmile_qr_scan"}, "name": "4e1f144f418b3556c2d4b6d8284ecb6d", "is_reserved": 0}, {"is_disabled": 0, "fusion_lon": 0.0, "fusion_lat": 0.0, "lat": 38.907788833333335, "type": "electric_scooter", "lon": -77.04667183333333, "bike_id": "8662df0fc0c893994ab198a2c0928a00", "rental_uris": {"android": "https://dc.lft.to/lastmile_qr_scan", "ios": "https://dc.lft.to/lastmile_qr_scan"}, "name": "8662df0fc0c893994ab198a2c0928a00", "is_reserved": 0}, {"is_disabled": 0, "fusion_lon": 0.0, "fusion_lat": 0.0, "lat": 38.917024166666664, "type": "electric_scooter", "lon": -77.03156333333334, "bike_id": "8a149ce0eb34c70ce5e16d8ef38feb71", "rental_uris": {"android": "https://dc.lft.to/lastmile_qr_scan", "ios": "https://dc.lft.to/lastmile_qr_scan"}, "name": "8a149ce0eb34c70ce5e16d8ef38feb71", "is_reserved": 0}, {"is_disabled": 0, "fusion_lon": 0.0, "fusion_lat": 0.0, "lat": 38.8850065, "type": "electric_scooter", "lon": -77.02086916666667, "bike_id": "3df73954c89d75f3a76dfb81713b3f62", "rental_uris": {"android": "https://dc.lft.to/lastmile_qr_scan", "ios": "https://dc.lft.to/lastmile_qr_scan"}, "name": "3df73954c89d75f3a76dfb81713b3f62", "is_reserved": 0}, {"is_disabled": 0, "fusion_lon": 0.0, "fusion_lat": 0.0, "lat": 38.91852166666666, "type": "electric_bike", "lon": -76.9608445, "bike_id": "a307acf757df594df08e149506dd1c40", "rental_uris": {"android": "https://dc.lft.to/lastmile_qr_scan", "ios": "https://dc.lft.to/lastmile_qr_scan"}, "name": "a307acf757df594df08e149506dd1c40", "is_reserved": 0}, {"is_disabled": 0, "fusion_lon": 0.0, "fusion_lat": 0.0, "lat": 38.8684675, "type": "electric_bike", "lon": -77.09722716666667, "bike_id": "50a1289dc372e9f93e2d2106c2bc1c60", "rental_uris": {"android": "https://dc.lft.to/lastmile_qr_scan", "ios": "https://dc.lft.to/lastmile_qr_scan"}, "name": "50a1289dc372e9f93e2d2106c2bc1c60", "is_reserved": 0}, {"is_disabled": 0, "fusion_lon": 0.0, "fusion_lat": 0.0, "lat": 38.914191833333334, "type": "electric_scooter", "lon": -77.02566666666667, "bike_id": "29daf689a58547bafb510e506372e36d", "rental_uris": {"android": "https://dc.lft.to/lastmile_qr_scan", "ios": "https://dc.lft.to/lastmile_qr_scan"}, "name": "29daf689a58547bafb510e506372e36d", "is_reserved": 0}, {"is_disabled": 0, "fusion_lon": 0.0, "fusion_lat": 0.0, "lat": 38.91556383333333, "type": "electric_scooter", "lon": -77.02048333333333, "bike_id": "435f689a77ed3882c5f6d85f349c6783", "rental_uris": {"android": "https://dc.lft.to/lastmile_qr_scan", "ios": "https://dc.lft.to/lastmile_qr_scan"}, "name": "435f689a77ed3882c5f6d85f349c6783", "is_reserved": 0}, {"is_disabled": 0, "fusion_lon": 0.0, "fusion_lat": 0.0, "lat": 38.90557716666667, "type": "electric_scooter", "lon": -77.03251166666666, "bike_id": "f3bc5fd7befe506a439e14fd8a07828c", "rental_uris": {"android": "https://dc.lft.to/lastmile_qr_scan", "ios": "https://dc.lft.to/lastmile_qr_scan"}, "name": "f3bc5fd7befe506a439e14fd8a07828c", "is_reserved": 0}, {"is_disabled": 0, "fusion_lon": 0.0, "fusion_lat": 0.0, "lat": 38.877391, "type": "electric_scooter", "lon": -77.01748133333334, "bike_id": "2cc3bdb54a6c9f0f026b434099a14d77", "rental_uris": {"android": "https://dc.lft.to/lastmile_qr_scan", "ios": "https://dc.lft.to/lastmile_qr_scan"}, "name": "2cc3bdb54a6c9f0f026b434099a14d77", "is_reserved": 0}, {"is_disabled": 0, "fusion_lon": 0.0, "fusion_lat": 0.0, "lat": 38.8985315, "type": "electric_bike", "lon": -76.93192116666667, "bike_id": "9fe055e7f5c7b1d8b05a466a98cdd024", "rental_uris": {"android": "https://dc.lft.to/lastmile_qr_scan", "ios": "https://dc.lft.to/lastmile_qr_scan"}, "name": "9fe055e7f5c7b1d8b05a466a98cdd024", "is_reserved": 0}, {"is_disabled": 0, "fusion_lon": 0.0, "fusion_lat": 0.0, "lat": 38.8980895, "type": "electric_scooter", "lon": -77.002071, "bike_id": "e4e39e9b7b40782e5c6bba995879df15", "rental_uris": {"android": "https://dc.lft.to/lastmile_qr_scan", "ios": "https://dc.lft.to/lastmile_qr_scan"}, "name": "e4e39e9b7b40782e5c6bba995879df15", "is_reserved": 0}, {"is_disabled": 0, "fusion_lon": 0.0, "fusion_lat": 0.0, "lat": 38.90131016666667, "type": "electric_scooter", "lon": -77.016252, "bike_id": "fd0828783444235bc684d423b5dc399e", "rental_uris": {"android": "https://dc.lft.to/lastmile_qr_scan", "ios": "https://dc.lft.to/lastmile_qr_scan"}, "name": "fd0828783444235bc684d423b5dc399e", "is_reserved": 0}, {"is_disabled": 0, "fusion_lon": 0.0, "fusion_lat": 0.0, "lat": 38.870520666666664, "type": "electric_bike", "lon": -77.01362216666666, "bike_id": "70d5618e3168c1ac8695cf9efbe63ca7", "rental_uris": {"android": "https://dc.lft.to/lastmile_qr_scan", "ios": "https://dc.lft.to/lastmile_qr_scan"}, "name": "70d5618e3168c1ac8695cf9efbe63ca7", "is_reserved": 0}, {"is_disabled": 0, "fusion_lon": 0.0, "fusion_lat": 0.0, "lat": 38.911088666666664, "type": "electric_scooter", "lon": -77.04261783333334, "bike_id": "3cfef4b9e376231b7d087eb4d0ee541a", "rental_uris": {"android": "https://dc.lft.to/lastmile_qr_scan", "ios": "https://dc.lft.to/lastmile_qr_scan"}, "name": "3cfef4b9e376231b7d087eb4d0ee541a", "is_reserved": 0}, {"is_disabled": 0, "fusion_lon": 0.0, "fusion_lat": 0.0, "lat": 38.908595, "type": "electric_scooter", "lon": -77.02683233333333, "bike_id": "3f3c3b8d5b685ffbfa7f5b011ac326cb", "rental_uris": {"android": "https://dc.lft.to/lastmile_qr_scan", "ios": "https://dc.lft.to/lastmile_qr_scan"}, "name": "3f3c3b8d5b685ffbfa7f5b011ac326cb", "is_reserved": 0}, {"is_disabled": 0, "fusion_lon": 0.0, "fusion_lat": 0.0, "lat": 38.93086483333333, "type": "electric_scooter", "lon": -77.0246735, "bike_id": "824276f3732f54710364b60cd9e501da", "rental_uris": {"android": "https://dc.lft.to/lastmile_qr_scan", "ios": "https://dc.lft.to/lastmile_qr_scan"}, "name": "824276f3732f54710364b60cd9e501da", "is_reserved": 0}, {"is_disabled": 0, "fusion_lon": 0.0, "fusion_lat": 0.0, "lat": 38.91272466666667, "type": "electric_scooter", "lon": -77.03032866666666, "bike_id": "93f689c086cc81a940979a9da8ce6f80", "rental_uris": {"android": "https://dc.lft.to/lastmile_qr_scan", "ios": "https://dc.lft.to/lastmile_qr_scan"}, "name": "93f689c086cc81a940979a9da8ce6f80", "is_reserved": 0}, {"is_disabled": 0, "fusion_lon": 0.0, "fusion_lat": 0.0, "lat": 38.845974, "type": "electric_bike", "lon": -76.96887166666667, "bike_id": "4c4a606b20cd8b08c701aa8a0d9f6aa7", "rental_uris": {"android": "https://dc.lft.to/lastmile_qr_scan", "ios": "https://dc.lft.to/lastmile_qr_scan"}, "name": "4c4a606b20cd8b08c701aa8a0d9f6aa7", "is_reserved": 0}, {"is_disabled": 0, "fusion_lon": 0.0, "fusion_lat": 0.0, "lat": 38.895028, "type": "electric_scooter", "lon": -77.00956916666667, "bike_id": "83921b6e17c7c9de90e4b63e5a94c87f", "rental_uris": {"android": "https://dc.lft.to/lastmile_qr_scan", "ios": "https://dc.lft.to/lastmile_qr_scan"}, "name": "83921b6e17c7c9de90e4b63e5a94c87f", "is_reserved": 0}, {"is_disabled": 0, "fusion_lon": 0.0, "fusion_lat": 0.0, "lat": 38.900554, "type": "electric_scooter", "lon": -76.98342166666667, "bike_id": "73c62731a6f78037222e4392e6bf2a9d", "rental_uris": {"android": "https://dc.lft.to/lastmile_qr_scan", "ios": "https://dc.lft.to/lastmile_qr_scan"}, "name": "73c62731a6f78037222e4392e6bf2a9d", "is_reserved": 0}, {"is_disabled": 0, "fusion_lon": 0.0, "fusion_lat": 0.0, "lat": 38.92134583333333, "type": "electric_scooter", "lon": -77.00954266666666, "bike_id": "5674e518ebc1d13699fe9df2a661be1f", "rental_uris": {"android": "https://dc.lft.to/lastmile_qr_scan", "ios": "https://dc.lft.to/lastmile_qr_scan"}, "name": "5674e518ebc1d13699fe9df2a661be1f", "is_reserved": 0}, {"is_disabled": 0, "fusion_lon": 0.0, "fusion_lat": 0.0, "lat": 38.93002516666667, "type": "electric_scooter", "lon": -77.02409366666667, "bike_id": "6207a6fe55868e2957a1486b00cabbcd", "rental_uris": {"android": "https://dc.lft.to/lastmile_qr_scan", "ios": "https://dc.lft.to/lastmile_qr_scan"}, "name": "6207a6fe55868e2957a1486b00cabbcd", "is_reserved": 0}, {"is_disabled": 0, "fusion_lon": 0.0, "fusion_lat": 0.0, "lat": 38.912094833333335, "type": "electric_scooter", "lon": -77.03843166666667, "bike_id": "ff00338a1767bcff7163d45def856a6f", "rental_uris": {"android": "https://dc.lft.to/lastmile_qr_scan", "ios": "https://dc.lft.to/lastmile_qr_scan"}, "name": "ff00338a1767bcff7163d45def856a6f", "is_reserved": 0}, {"is_disabled": 0, "fusion_lon": 0.0, "fusion_lat": 0.0, "lat": 38.923399333333336, "type": "electric_scooter", "lon": -77.05064233333333, "bike_id": "0b9fb05caf692d7b3efaecc28b4c1516", "rental_uris": {"android": "https://dc.lft.to/lastmile_qr_scan", "ios": "https://dc.lft.to/lastmile_qr_scan"}, "name": "0b9fb05caf692d7b3efaecc28b4c1516", "is_reserved": 0}, {"is_disabled": 0, "fusion_lon": 0.0, "fusion_lat": 0.0, "lat": 38.90376933333334, "type": "electric_scooter", "lon": -77.02815816666667, "bike_id": "3986d357b699e86174643ab2973477e4", "rental_uris": {"android": "https://dc.lft.to/lastmile_qr_scan", "ios": "https://dc.lft.to/lastmile_qr_scan"}, "name": "3986d357b699e86174643ab2973477e4", "is_reserved": 0}, {"is_disabled": 0, "fusion_lon": 0.0, "fusion_lat": 0.0, "lat": 38.89684283333333, "type": "electric_bike", "lon": -76.9406485, "bike_id": "66121e21cae49f38bb0d9f936a53a1fb", "rental_uris": {"android": "https://dc.lft.to/lastmile_qr_scan", "ios": "https://dc.lft.to/lastmile_qr_scan"}, "name": "66121e21cae49f38bb0d9f936a53a1fb", "is_reserved": 0}, {"is_disabled": 0, "fusion_lon": 0.0, "fusion_lat": 0.0, "lat": 38.91015216666667, "type": "electric_scooter", "lon": -77.04403883333333, "bike_id": "6cf77806a0d01e78a079937cd2ef1db8", "rental_uris": {"android": "https://dc.lft.to/lastmile_qr_scan", "ios": "https://dc.lft.to/lastmile_qr_scan"}, "name": "6cf77806a0d01e78a079937cd2ef1db8", "is_reserved": 0}, {"is_disabled": 0, "fusion_lon": 0.0, "fusion_lat": 0.0, "lat": 38.927244, "type": "electric_scooter", "lon": -77.0405655, "bike_id": "c4f121db25e650a8ca635ca7407110f3", "rental_uris": {"android": "https://dc.lft.to/lastmile_qr_scan", "ios": "https://dc.lft.to/lastmile_qr_scan"}, "name": "c4f121db25e650a8ca635ca7407110f3", "is_reserved": 0}, {"is_disabled": 0, "fusion_lon": 0.0, "fusion_lat": 0.0, "lat": 38.907928, "type": "electric_scooter", "lon": -77.00971816666667, "bike_id": "9d37548c203364809c706df001a0cf73", "rental_uris": {"android": "https://dc.lft.to/lastmile_qr_scan", "ios": "https://dc.lft.to/lastmile_qr_scan"}, "name": "9d37548c203364809c706df001a0cf73", "is_reserved": 0}, {"is_disabled": 0, "fusion_lon": 0.0, "fusion_lat": 0.0, "lat": 38.904011833333335, "type": "electric_scooter", "lon": -77.0180675, "bike_id": "8d82962192fd79d9f4e81e71176fc642", "rental_uris": {"android": "https://dc.lft.to/lastmile_qr_scan", "ios": "https://dc.lft.to/lastmile_qr_scan"}, "name": "8d82962192fd79d9f4e81e71176fc642", "is_reserved": 0}, {"is_disabled": 0, "fusion_lon": 0.0, "fusion_lat": 0.0, "lat": 38.91272516666667, "type": "electric_scooter", "lon": -77.03862333333333, "bike_id": "63dbef798b58d1e7b9b9ae83ae9dc4ce", "rental_uris": {"android": "https://dc.lft.to/lastmile_qr_scan", "ios": "https://dc.lft.to/lastmile_qr_scan"}, "name": "63dbef798b58d1e7b9b9ae83ae9dc4ce", "is_reserved": 0}, {"is_disabled": 0, "fusion_lon": 0.0, "fusion_lat": 0.0, "lat": 38.92991883333333, "type": "electric_scooter", "lon": -77.0198075, "bike_id": "384b2e6183a60b3b3331fa97bb4994e2", "rental_uris": {"android": "https://dc.lft.to/lastmile_qr_scan", "ios": "https://dc.lft.to/lastmile_qr_scan"}, "name": "384b2e6183a60b3b3331fa97bb4994e2", "is_reserved": 0}, {"is_disabled": 0, "fusion_lon": 0.0, "fusion_lat": 0.0, "lat": 38.91773416666667, "type": "electric_scooter", "lon": -77.014974, "bike_id": "90a107ce6b3ff3642c96e392a4c92fec", "rental_uris": {"android": "https://dc.lft.to/lastmile_qr_scan", "ios": "https://dc.lft.to/lastmile_qr_scan"}, "name": "90a107ce6b3ff3642c96e392a4c92fec", "is_reserved": 0}, {"is_disabled": 0, "fusion_lon": 0.0, "fusion_lat": 0.0, "lat": 38.93456483333333, "type": "electric_scooter", "lon": -77.07232916666666, "bike_id": "76aac3510ad2c01dadc53e57e3f986e2", "rental_uris": {"android": "https://dc.lft.to/lastmile_qr_scan", "ios": "https://dc.lft.to/lastmile_qr_scan"}, "name": "76aac3510ad2c01dadc53e57e3f986e2", "is_reserved": 0}, {"is_disabled": 0, "fusion_lon": 0.0, "fusion_lat": 0.0, "lat": 38.927930833333335, "type": "electric_scooter", "lon": -77.01410966666667, "bike_id": "2b6031e24eac7f92d2e594be7d2dfe11", "rental_uris": {"android": "https://dc.lft.to/lastmile_qr_scan", "ios": "https://dc.lft.to/lastmile_qr_scan"}, "name": "2b6031e24eac7f92d2e594be7d2dfe11", "is_reserved": 0}, {"is_disabled": 0, "fusion_lon": 0.0, "fusion_lat": 0.0, "lat": 38.900444, "type": "electric_scooter", "lon": -76.92271833333334, "bike_id": "4fa85dccdadea1166edebfe664b453ab", "rental_uris": {"android": "https://dc.lft.to/lastmile_qr_scan", "ios": "https://dc.lft.to/lastmile_qr_scan"}, "name": "4fa85dccdadea1166edebfe664b453ab", "is_reserved": 0}, {"is_disabled": 0, "fusion_lon": 0.0, "fusion_lat": 0.0, "lat": 38.8956495, "type": "electric_scooter", "lon": -77.04670883333333, "bike_id": "15fa7f78c1c215dce3b6c5435b2f73e4", "rental_uris": {"android": "https://dc.lft.to/lastmile_qr_scan", "ios": "https://dc.lft.to/lastmile_qr_scan"}, "name": "15fa7f78c1c215dce3b6c5435b2f73e4", "is_reserved": 0}, {"is_disabled": 0, "fusion_lon": 0.0, "fusion_lat": 0.0, "lat": 38.884325, "type": "electric_scooter", "lon": -76.99598416666667, "bike_id": "9a6458e304b8c3f0d80b612593dab018", "rental_uris": {"android": "https://dc.lft.to/lastmile_qr_scan", "ios": "https://dc.lft.to/lastmile_qr_scan"}, "name": "9a6458e304b8c3f0d80b612593dab018", "is_reserved": 0}, {"is_disabled": 0, "fusion_lon": 0.0, "fusion_lat": 0.0, "lat": 38.93518516666666, "type": "electric_scooter", "lon": -77.02384033333334, "bike_id": "56d1e9b4aa5eddcc9c16538dbc3178e0", "rental_uris": {"android": "https://dc.lft.to/lastmile_qr_scan", "ios": "https://dc.lft.to/lastmile_qr_scan"}, "name": "56d1e9b4aa5eddcc9c16538dbc3178e0", "is_reserved": 0}, {"is_disabled": 0, "fusion_lon": 0.0, "fusion_lat": 0.0, "lat": 38.8926305, "type": "electric_scooter", "lon": -77.02822116666667, "bike_id": "7259a609c8778f90a05da3a8cadbc4f5", "rental_uris": {"android": "https://dc.lft.to/lastmile_qr_scan", "ios": "https://dc.lft.to/lastmile_qr_scan"}, "name": "7259a609c8778f90a05da3a8cadbc4f5", "is_reserved": 0}, {"is_disabled": 0, "fusion_lon": 0.0, "fusion_lat": 0.0, "lat": 38.9022955, "type": "electric_scooter", "lon": -77.04560666666667, "bike_id": "c0d7cbfa65819fa2d3fdca7af70898ba", "rental_uris": {"android": "https://dc.lft.to/lastmile_qr_scan", "ios": "https://dc.lft.to/lastmile_qr_scan"}, "name": "c0d7cbfa65819fa2d3fdca7af70898ba", "is_reserved": 0}, {"is_disabled": 0, "fusion_lon": 0.0, "fusion_lat": 0.0, "lat": 38.918835, "type": "electric_scooter", "lon": -77.02474883333333, "bike_id": "a0d0fbad899de690a88ae73a57630d67", "rental_uris": {"android": "https://dc.lft.to/lastmile_qr_scan", "ios": "https://dc.lft.to/lastmile_qr_scan"}, "name": "a0d0fbad899de690a88ae73a57630d67", "is_reserved": 0}, {"is_disabled": 0, "fusion_lon": 0.0, "fusion_lat": 0.0, "lat": 38.89371466666667, "type": "electric_scooter", "lon": -76.94999266666667, "bike_id": "be3818c7e5f7f7879b3175262140748b", "rental_uris": {"android": "https://dc.lft.to/lastmile_qr_scan", "ios": "https://dc.lft.to/lastmile_qr_scan"}, "name": "be3818c7e5f7f7879b3175262140748b", "is_reserved": 0}, {"is_disabled": 0, "fusion_lon": 0.0, "fusion_lat": 0.0, "lat": 38.909806, "type": "electric_scooter", "lon": -77.02185066666667, "bike_id": "b1e08b6e28f5fa60ce4254b61a54bc14", "rental_uris": {"android": "https://dc.lft.to/lastmile_qr_scan", "ios": "https://dc.lft.to/lastmile_qr_scan"}, "name": "b1e08b6e28f5fa60ce4254b61a54bc14", "is_reserved": 0}, {"is_disabled": 0, "fusion_lon": 0.0, "fusion_lat": 0.0, "lat": 38.878339, "type": "electric_scooter", "lon": -77.02279166666666, "bike_id": "59d5250653c559500d28e8ebddfe3c25", "rental_uris": {"android": "https://dc.lft.to/lastmile_qr_scan", "ios": "https://dc.lft.to/lastmile_qr_scan"}, "name": "59d5250653c559500d28e8ebddfe3c25", "is_reserved": 0}, {"is_disabled": 0, "fusion_lon": 0.0, "fusion_lat": 0.0, "lat": 38.91185083333333, "type": "electric_scooter", "lon": -77.03865116666667, "bike_id": "bcc28c0d94db022d7aac742f10e46c51", "rental_uris": {"android": "https://dc.lft.to/lastmile_qr_scan", "ios": "https://dc.lft.to/lastmile_qr_scan"}, "name": "bcc28c0d94db022d7aac742f10e46c51", "is_reserved": 0}, {"is_disabled": 0, "fusion_lon": 0.0, "fusion_lat": 0.0, "lat": 38.93414533333333, "type": "electric_scooter", "lon": -77.04279366666667, "bike_id": "75c00d0eb67c33d38160bfa22aedb385", "rental_uris": {"android": "https://dc.lft.to/lastmile_qr_scan", "ios": "https://dc.lft.to/lastmile_qr_scan"}, "name": "75c00d0eb67c33d38160bfa22aedb385", "is_reserved": 0}, {"is_disabled": 0, "fusion_lon": 0.0, "fusion_lat": 0.0, "lat": 38.900440833333334, "type": "electric_scooter", "lon": -76.98830666666667, "bike_id": "1d554979cd16a6966d6fb8bfe6651cc2", "rental_uris": {"android": "https://dc.lft.to/lastmile_qr_scan", "ios": "https://dc.lft.to/lastmile_qr_scan"}, "name": "1d554979cd16a6966d6fb8bfe6651cc2", "is_reserved": 0}, {"is_disabled": 0, "fusion_lon": 0.0, "fusion_lat": 0.0, "lat": 38.9849915, "type": "electric_bike", "lon": -76.98206816666666, "bike_id": "522a23ce611cf9bdeb70e209d4f8a5d0", "rental_uris": {"android": "https://dc.lft.to/lastmile_qr_scan", "ios": "https://dc.lft.to/lastmile_qr_scan"}, "name": "522a23ce611cf9bdeb70e209d4f8a5d0", "is_reserved": 0}, {"is_disabled": 0, "fusion_lon": 0.0, "fusion_lat": 0.0, "lat": 38.91904733333333, "type": "electric_scooter", "lon": -77.0320855, "bike_id": "24d86cf6289ac8b66102ea94af12ad9b", "rental_uris": {"android": "https://dc.lft.to/lastmile_qr_scan", "ios": "https://dc.lft.to/lastmile_qr_scan"}, "name": "24d86cf6289ac8b66102ea94af12ad9b", "is_reserved": 0}, {"is_disabled": 0, "fusion_lon": 0.0, "fusion_lat": 0.0, "lat": 38.879698166666664, "type": "electric_scooter", "lon": -76.99371916666666, "bike_id": "f64da06935776f3b92050cbb788d5d07", "rental_uris": {"android": "https://dc.lft.to/lastmile_qr_scan", "ios": "https://dc.lft.to/lastmile_qr_scan"}, "name": "f64da06935776f3b92050cbb788d5d07", "is_reserved": 0},