{"data": {"bikes": [{"bike_id": "1daf867571245d2abd7bcce46064b5f4", "is_reserved": 0, "fusion_lon": 0.0, "lat": 38.91553116666667, "is_disabled": 0, "name": "1daf867571245d2abd7bcce46064b5f4", "fusion_lat": 0.0, "rental_uris": {"ios": "https://dc.lft.to/lastmile_qr_scan", "android": "https://dc.lft.to/lastmile_qr_scan"}, "lon": -77.01408466666666, "type": "electric_scooter"}, {"bike_id": "2aa48b6780c248315a542693010452f8", "is_reserved": 0, "fusion_lon": 0.0, "lat": 38.9041445, "is_disabled": 0, "name": "2aa48b6780c248315a542693010452f8", "fusion_lat": 0.0, "rental_uris": {"ios": "https://dc.lft.to/lastmile_qr_scan", "android": "https://dc.lft.to/lastmile_qr_scan"}, "lon": -77.0363865, "type": "electric_scooter"}, {"bike_id": "d02f05d2f6cf5a135b2b53508a4f6a9f", "is_reserved": 0, "fusion_lon": 0.0, "lat": 38.869245666666664, "is_disabled": 0, "name": "d02f05d2f6cf5a135b2b53508a4f6a9f", "fusion_lat": 0.0, "rental_uris": {"ios": "https://dc.lft.to/lastmile_qr_scan", "android": "https://dc.lft.to/lastmile_qr_scan"}, "lon": -76.9830975, "type": "electric_scooter"}, {"bike_id": "79ae77e46e9e7a405fe22d4c6853ddff", "is_reserved": 0, "fusion_lon": 0.0, "lat": 38.888745666666665, "is_disabled": 0, "name": "79ae77e46e9e7a405fe22d4c6853ddff", "fusion_lat": 0.0, "rental_uris": {"ios": "https://dc.lft.to/lastmile_qr_scan", "android": "https://dc.lft.to/lastmile_qr_scan"}, "lon": -76.99028666666666, "type": "electric_scooter"}, {"bike_id": "51b3e567660f4262a5b245e0a0f18974", "is_reserved": 0, "fusion_lon": 0.0, "lat": 38.8721235, "is_disabled": 0, "name": "51b3e567660f4262a5b245e0a0f18974", "fusion_lat": 0.0, "rental_uris": {"ios": "https://dc.lft.to/lastmile_qr_scan", "android": "https://dc.lft.to/lastmile_qr_scan"}, "lon": -77.00568683333333, "type": "electric_scooter"}, {"bike_id": "3e94a51765999dbda75fb5c7ea031077", "is_reserved": 0, "fusion_lon": 0.0, "lat": 38.91771966666667, "is_disabled": 0, "name": "3e94a51765999dbda75fb5c7ea031077", "fusion_lat": 0.0, "rental_uris": {"ios": "https://dc.lft.to/lastmile_qr_scan", "android": "https://dc.lft.to/lastmile_qr_scan"}, "lon": -77.0405575, "type": "electric_scooter"}, {"bike_id": "f9f370285219a530a5ee524b8db52d43", "is_reserved": 0, "fusion_lon": 0.0, "lat": 38.92117916666667, "is_disabled": 0, "name": "f9f370285219a530a5ee524b8db52d43", "fusion_lat": 0.0, "rental_uris": {"ios": "https://dc.lft.to/lastmile_qr_scan", "android": "https://dc.lft.to/lastmile_qr_scan"}, "lon": -77.04582633333334, "type": "electric_scooter"}, {"bike_id": "e96b4ec9cfcaa48cd5eb1bcb01cfabdf", "is_reserved": 0, "fusion_lon": 0.0, "lat": 38.89301066666667, "is_disabled": 0, "name": "e96b4ec9cfcaa48cd5eb1bcb01cfabdf", "fusion_lat": 0.0, "rental_uris": {"ios": "https://dc.lft.to/lastmile_qr_scan", "android": "https://dc.lft.to/lastmile_qr_scan"}, "lon": -77.01232733333333, "type": "electric_scooter"}, {"bike_id": "480760ffbd5a566b6f0423b579ca4486", "is_reserved": 0, "fusion_lon": 0.0, "lat": 38.917822666666666, "is_disabled": 0, "name": "480760ffbd5a566b6f0423b579ca4486", "fusion_lat": 0.0, "rental_uris": {"ios": "https://dc.lft.to/lastmile_qr_scan", "android": "https://dc.lft.to/lastmile_qr_scan"}, "lon": -77.02695516666667, "type": "electric_scooter"}, {"bike_id": "0aa63b007a989847b474d0bf62e99a4d", "is_reserved": 0, "fusion_lon": 0.0, "lat": 38.84421233333333, "is_disabled": 0, "name": "0aa63b007a989847b474d0bf62e99a4d", "fusion_lat": 0.0, "rental_uris": {"ios": "https://dc.lft.to/lastmile_qr_scan", "android": "https://dc.lft.to/lastmile_qr_scan"}, "lon": -76.99774266666667, "type": "electric_scooter"}, {"bike_id": "2d64ce76c2744f1aba91139edf9d4bba", "is_reserved": 0, "fusion_lon": 0.0, "lat": 38.90956666666666, "is_disabled": 0, "name": "2d64ce76c2744f1aba91139edf9d4bba", "fusion_lat": 0.0, "rental_uris": {"ios": "https://dc.lft.to/lastmile_qr_scan", "android": "https://dc.lft.to/lastmile_qr_scan"}, "lon": -77.0200205, "type": "electric_scooter"}, {"bike_id": "194af183a63aa923e5a8d592d6fe29a9", "is_reserved": 0, "fusion_lon": 0.0, "lat": 38.898411, "is_disabled": 0, "name": "194af183a63aa923e5a8d592d6fe29a9", "fusion_lat": 0.0, "rental_uris": {"ios": "https://dc.lft.to/lastmile_qr_scan", "android": "https://dc.lft.to/lastmile_qr_scan"}, "lon": -77.03341166666667, "type": "electric_scooter"}, {"bike_id": "19bc2cf4f51ea94b7bb9e0cfc5ab0493", "is_reserved": 0, "fusion_lon": 0.0, "lat": 38.921822166666665, "is_disabled": 0, "name": "19bc2cf4f51ea94b7bb9e0cfc5ab0493", "fusion_lat": 0.0, "rental_uris": {"ios": "https://dc.lft.to/lastmile_qr_scan", "android": "https://dc.lft.to/lastmile_qr_scan"}, "lon": -77.04285933333334, "type": "electric_scooter"}, {"bike_id": "553f6c34ae71dd5b446879044bf79fdf", "is_reserved": 0, "fusion_lon": 0.0, "lat": 38.896422, "is_disabled": 0, "name": "553f6c34ae71dd5b446879044bf79fdf", "fusion_lat": 0.0, "rental_uris": {"ios": "https://dc.lft.to/lastmile_qr_scan", "android": "https://dc.lft.to/lastmile_qr_scan"}, "lon": -77.04340066666667, "type": "electric_scooter"}, {"bike_id": "9a0e5471aab6f5dacac23a93ee895b99", "is_reserved": 0, "fusion_lon": 0.0, "lat": 38.93486883333333, "is_disabled": 0, "name": "9a0e5471aab6f5dacac23a93ee895b99", "fusion_lat": 0.0, "rental_uris": {"ios": "https://dc.lft.to/lastmile_qr_scan", "android": "https://dc.lft.to/lastmile_qr_scan"}, "lon": -77.03515583333333, "type": "electric_scooter"}, {"bike_id": "6179d11cd0aa14b71a60fb512caf5a09", "is_reserved": 0, "fusion_lon": 0.0, "lat": 38.91042816666667, "is_disabled": 0, "name": "6179d11cd0aa14b71a60fb512caf5a09", "fusion_lat": 0.0, "rental_uris": {"ios": "https://dc.lft.to/lastmile_qr_scan", "android": "https://dc.lft.to/lastmile_qr_scan"}, "lon": -77.02811183333333, "type": "electric_scooter"}, {"bike_id": "d42e0c894b969194d23ddd3b53ecaabc", "is_reserved": 0, "fusion_lon": 0.0, "lat": 38.9309805, "is_disabled": 0, "name": "d42e0c894b969194d23ddd3b53ecaabc", "fusion_lat": 0.0, "rental_uris": {"ios": "https://dc.lft.to/lastmile_qr_scan", "android": "https://dc.lft.to/lastmile_qr_scan"}, "lon": -77.023999, "type": "electric_scooter"}, {"bike_id": "14d80faad88aaea26f5c8fe84dc554e8", "is_reserved": 0, "fusion_lon": 0.0, "lat": 38.95084033333333, "is_disabled": 0, "name": "14d80faad88aaea26f5c8fe84dc554e8", "fusion_lat": 0.0, "rental_uris": {"ios": "https://dc.lft.to/lastmile_qr_scan", "android": "https://dc.lft.to/lastmile_qr_scan"}, "lon": -77.02827266666667, "type": "electric_scooter"}, {"bike_id": "f76d9e06e12db87707bfc7a0bdc140a2", "is_reserved": 0, "fusion_lon": 0.0, "lat": 38.915608, "is_disabled": 0, "name": "f76d9e06e12db87707bfc7a0bdc140a2", "fusion_lat": 0.0, "rental_uris": {"ios": "https://dc.lft.to/lastmile_qr_scan", "android": "https://dc.lft.to/lastmile_qr_scan"}, "lon": -77.03910066666667, "type": "electric_scooter"}, {"bike_id": "24ebd05f0df5e628f664d3200f0bc550", "is_reserved": 0, "fusion_lon": 0.0, "lat": 38.92576716666667, "is_disabled": 0, "name": "24ebd05f0df5e628f664d3200f0bc550", "fusion_lat": 0.0, "rental_uris": {"ios": "https://dc.lft.to/lastmile_qr_scan", "android": "https://dc.lft.to/lastmile_qr_scan"}, "lon": -77.07309316666667, "type": "electric_scooter"}, {"bike_id": "b327febadfe541748f027c49ad18e519", "is_reserved": 0, "fusion_lon": 0.0, "lat": 38.930625166666665, "is_disabled": 0, "name": "b327febadfe541748f027c49ad18e519", "fusion_lat": 0.0, "rental_uris": {"ios": "https://dc.lft.to/lastmile_qr_scan", "android": "https://dc.lft.to/lastmile_qr_scan"}, "lon": -77.02978483333334, "type": "electric_scooter"}, {"bike_id": "247c2d6e8e4a1a824dbd9ff98a692432", "is_reserved": 0, "fusion_lon": 0.0, "lat": 38.92192083333333, "is_disabled": 0, "name": "247c2d6e8e4a1a824dbd9ff98a692432", "fusion_lat": 0.0, "rental_uris": {"ios": "https://dc.lft.to/lastmile_qr_scan", "android": "https://dc.lft.to/lastmile_qr_scan"}, "lon": -77.042438, "type": "electric_scooter"}, {"bike_id": "17f3b1f62508362f365dcc1b4b774cc5", "is_reserved": 0, "fusion_lon": 0.0, "lat": 38.8922645, "is_disabled": 0, "name": "17f3b1f62508362f365dcc1b4b774cc5", "fusion_lat": 0.0, "rental_uris": {"ios": "https://dc.lft.to/lastmile_qr_scan", "android": "https://dc.lft.to/lastmile_qr_scan"}, "lon": -77.021766, "type": "electric_scooter"}, {"bike_id": "2c8a0e7cdb2286d56ee6e9b3739d6f5a", "is_reserved": 0, "fusion_lon": 0.0, "lat": 38.909130833333336, "is_disabled": 0, "name": "2c8a0e7cdb2286d56ee6e9b3739d6f5a", "fusion_lat": 0.0, "rental_uris": {"ios": "https://dc.lft.to/lastmile_qr_scan", "android": "https://dc.lft.to/lastmile_qr_scan"}, "lon": -77.0313265, "type": "electric_scooter"}, {"bike_id": "694c0f486a97780f61161b5ccb5320ad", "is_reserved": 0, "fusion_lon": 0.0, "lat": 38.88506866666667, "is_disabled": 0, "name": "694c0f486a97780f61161b5ccb5320ad", "fusion_lat": 0.0, "rental_uris": {"ios": "https://dc.lft.to/lastmile_qr_scan", "android": "https://dc.lft.to/lastmile_qr_scan"}, "lon": -77.00567433333333, "type": "electric_scooter"}, {"bike_id": "bef4f831154ec8470b367e33c4d00311", "is_reserved": 0, "fusion_lon": 0.0, "lat": 38.91251666666667, "is_disabled": 0, "name": "bef4f831154ec8470b367e33c4d00311", "fusion_lat": 0.0, "rental_uris": {"ios": "https://dc.lft.to/lastmile_qr_scan", "android": "https://dc.lft.to/lastmile_qr_scan"}, "lon": -77.03638766666667, "type": "electric_scooter"}, {"bike_id": "3b77876b893f77249c10602b78bb57b8", "is_reserved": 0, "fusion_lon": 0.0, "lat": 38.911754, "is_disabled": 0, "name": "3b77876b893f77249c10602b78bb57b8", "fusion_lat": 0.0, "rental_uris": {"ios": "https://dc.lft.to/lastmile_qr_scan", "android": "https://dc.lft.to/lastmile_qr_scan"}, "lon": -77.00298883333333, "type": "electric_bike"}, {"bike_id": "dbba028483bd82a9f731a4f89548eb49", "is_reserved": 0, "fusion_lon": 0.0, "lat": 38.90781333333334, "is_disabled": 0, "name": "dbba028483bd82a9f731a4f89548eb49", "fusion_lat": 0.0, "rental_uris": {"ios": "https://dc.lft.to/lastmile_qr_scan", "android": "https://dc.lft.to/lastmile_qr_scan"}, "lon": -77.03858483333333, "type": "electric_scooter"}, {"bike_id": "239df2ef76eb4ca629ebbab642bc0012", "is_reserved": 0, "fusion_lon": 0.0, "lat": 38.921303, "is_disabled": 0, "name": "239df2ef76eb4ca629ebbab642bc0012", "fusion_lat": 0.0, "rental_uris": {"ios": "https://dc.lft.to/lastmile_qr_scan", "android": "https://dc.lft.to/lastmile_qr_scan"}, "lon": -77.04130966666666, "type": "electric_scooter"}, {"bike_id": "1a5359adb22a25e2f1ddb541561a7faa", "is_reserved": 0, "fusion_lon": 0.0, "lat": 38.877305, "is_disabled": 0, "name": "1a5359adb22a25e2f1ddb541561a7faa", "fusion_lat": 0.0, "rental_uris": {"ios": "https://dc.lft.to/lastmile_qr_scan", "android": "https://dc.lft.to/lastmile_qr_scan"}, "lon": -77.11846016666667, "type": "electric_bike"}, {"bike_id": "b2f0f5a363c1a7abad06c28c6591ef13", "is_reserved": 0, "fusion_lon": 0.0, "lat": 38.917305666666664, "is_disabled": 0, "name": "b2f0f5a363c1a7abad06c28c6591ef13", "fusion_lat": 0.0, "rental_uris": {"ios": "https://dc.lft.to/lastmile_qr_scan", "android": "https://dc.lft.to/lastmile_qr_scan"}, "lon": -77.0079145, "type": "electric_scooter"}, {"bike_id": "d849af6deb11f55daf6028fc52fef724", "is_reserved": 0, "fusion_lon": 0.0, "lat": 38.92370966666667, "is_disabled": 0, "name": "d849af6deb11f55daf6028fc52fef724", "fusion_lat": 0.0, "rental_uris": {"ios": "https://dc.lft.to/lastmile_qr_scan", "android": "https://dc.lft.to/lastmile_qr_scan"}, "lon": -77.05174233333334, "type": "electric_scooter"}, {"bike_id": "aa386708d9d86bfa81ed629b83b485f8", "is_reserved": 0, "fusion_lon": 0.0, "lat": 38.9223855, "is_disabled": 0, "name": "aa386708d9d86bfa81ed629b83b485f8", "fusion_lat": 0.0, "rental_uris": {"ios": "https://dc.lft.to/lastmile_qr_scan", "android": "https://dc.lft.to/lastmile_qr_scan"}, "lon": -77.03079316666667, "type": "electric_scooter"}, {"bike_id": "5161b67c9d92ed3a39e5e849bff38a5b", "is_reserved": 0, "fusion_lon": 0.0, "lat": 38.90298716666667, "is_disabled": 0, "name": "5161b67c9d92ed3a39e5e849bff38a5b", "fusion_lat": 0.0, "rental_uris": {"ios": "https://dc.lft.to/lastmile_qr_scan", "android": "https://dc.lft.to/lastmile_qr_scan"}, "lon": -77.03941716666667, "type": "electric_scooter"}, {"bike_id": "44728d589167ba5b59346fdcafffbed1", "is_reserved": 0, "fusion_lon": 0.0, "lat": 38.90301516666667, "is_disabled": 0, "name": "44728d589167ba5b59346fdcafffbed1", "fusion_lat": 0.0, "rental_uris": {"ios": "https://dc.lft.to/lastmile_qr_scan", "android": "https://dc.lft.to/lastmile_qr_scan"}, "lon": -77.0345235, "type": "electric_scooter"}, {"bike_id": "967f404b14d31296fb1df18a7a87e32e", "is_reserved": 0, "fusion_lon": 0.0, "lat": 38.88345916666667, "is_disabled": 0, "name": "967f404b14d31296fb1df18a7a87e32e", "fusion_lat": 0.0, "rental_uris": {"ios": "https://dc.lft.to/lastmile_qr_scan", "android": "https://dc.lft.to/lastmile_qr_scan"}, "lon": -76.98555366666666, "type": "electric_scooter"}, {"bike_id": "5b5f670ad92db199049b9fc2b6c8b234", "is_reserved": 0, "fusion_lon": 0.0, "lat": 38.92862816666667, "is_disabled": 0, "name": "5b5f670ad92db199049b9fc2b6c8b234", "fusion_lat": 0.0, "rental_uris": {"ios": "https://dc.lft.to/lastmile_qr_scan", "android": "https://dc.lft.to/lastmile_qr_scan"}, "lon": -77.0329245, "type": "electric_scooter"}, {"bike_id": "438b569744b31c6650a1885b282e4b7a", "is_reserved": 0, "fusion_lon": 0.0, "lat": 38.932728833333336, "is_disabled": 0, "name": "438b569744b31c6650a1885b282e4b7a", "fusion_lat": 0.0, "rental_uris": {"ios": "https://dc.lft.to/lastmile_qr_scan", "android": "https://dc.lft.to/lastmile_qr_scan"}, "lon": -77.03632016666667, "type": "electric_scooter"}, {"bike_id": "59374b4e40553b33b66df16821f4bc46", "is_reserved": 0, "fusion_lon": 0.0, "lat": 38.909689166666666, "is_disabled": 0, "name": "59374b4e40553b33b66df16821f4bc46", "fusion_lat": 0.0, "rental_uris": {"ios": "https://dc.lft.to/lastmile_qr_scan", "android": "https://dc.lft.to/lastmile_qr_scan"}, "lon": -77.0386135, "type": "electric_scooter"}, {"bike_id": "b1c75bb6a3298aeadc7c236749ad7e1b", "is_reserved": 0, "fusion_lon": 0.0, "lat": 38.90602066666667, "is_disabled": 0, "name": "b1c75bb6a3298aeadc7c236749ad7e1b", "fusion_lat": 0.0, "rental_uris": {"ios": "https://dc.lft.to/lastmile_qr_scan", "android": "https://dc.lft.to/lastmile_qr_scan"}, "lon": -77.05127416666667, "type": "electric_scooter"}, {"bike_id": "95514bd02443e7a7f4074a6ca35e10ce", "is_reserved": 0, "fusion_lon": 0.0, "lat": 38.900416, "is_disabled": 0, "name": "95514bd02443e7a7f4074a6ca35e10ce", "fusion_lat": 0.0, "rental_uris": {"ios": "https://dc.lft.to/lastmile_qr_scan", "android": "https://dc.lft.to/lastmile_qr_scan"}, "lon": -77.002054, "type": "electric_scooter"}, {"bike_id": "4409846047a2af9b62240c3a0049eeec", "is_reserved": 0, "fusion_lon": 0.0, "lat": 38.8792105, "is_disabled": 0, "name": "4409846047a2af9b62240c3a0049eeec", "fusion_lat": 0.0, "rental_uris": {"ios": "https://dc.lft.to/lastmile_qr_scan", "android": "https://dc.lft.to/lastmile_qr_scan"}, "lon": -77.01342766666667, "type": "electric_scooter"}, {"bike_id": "e6b9a394d37c8ffa30c3578d2a6b25cd", "is_reserved": 0, "fusion_lon": 0.0, "lat": 38.94180166666666, "is_disabled": 0, "name": "e6b9a394d37c8ffa30c3578d2a6b25cd", "fusion_lat": 0.0, "rental_uris": {"ios": "https://dc.lft.to/lastmile_qr_scan", "android": "https://dc.lft.to/lastmile_qr_scan"}, "lon": -77.03653216666666, "type": "electric_scooter"}, {"bike_id": "10cab03195dbfe74caacf4b814a027a0", "is_reserved": 0, "fusion_lon": 0.0, "lat": 38.90010016666667, "is_disabled": 0, "name": "10cab03195dbfe74caacf4b814a027a0", "fusion_lat": 0.0, "rental_uris": {"ios": "https://dc.lft.to/lastmile_qr_scan", "android": "https://dc.lft.to/lastmile_qr_scan"}, "lon": -77.03318666666667, "type": "electric_scooter"}, {"bike_id": "2141a315ebaa8919770d7451001e5780", "is_reserved": 0, "fusion_lon": 0.0, "lat": 38.913324833333334, "is_disabled": 0, "name": "2141a315ebaa8919770d7451001e5780", "fusion_lat": 0.0, "rental_uris": {"ios": "https://dc.lft.to/lastmile_qr_scan", "android": "https://dc.lft.to/lastmile_qr_scan"}, "lon": -77.04810183333333, "type": "electric_scooter"}, {"bike_id": "1a25a329efdcac9a0f44554f26331ecf", "is_reserved": 0, "fusion_lon": 0.0, "lat": 38.93699616666667, "is_disabled": 0, "name": "1a25a329efdcac9a0f44554f26331ecf", "fusion_lat": 0.0, "rental_uris": {"ios": "https://dc.lft.to/lastmile_qr_scan", "android": "https://dc.lft.to/lastmile_qr_scan"}, "lon": -77.02975283333333, "type": "electric_bike"}, {"bike_id": "9f70f1e41162848ba6301a20d7e5b965", "is_reserved": 0, "fusion_lon": 0.0, "lat": 38.89848216666667, "is_disabled": 0, "name": "9f70f1e41162848ba6301a20d7e5b965", "fusion_lat": 0.0, "rental_uris": {"ios": "https://dc.lft.to/lastmile_qr_scan", "android": "https://dc.lft.to/lastmile_qr_scan"}, "lon": -77.031944, "type": "electric_scooter"}, {"bike_id": "a847b048a724eb1c1afd9f9de48d9d8c", "is_reserved": 0, "fusion_lon": 0.0, "lat": 38.88292033333333, "is_disabled": 0, "name": "a847b048a724eb1c1afd9f9de48d9d8c", "fusion_lat": 0.0, "rental_uris": {"ios": "https://dc.lft.to/lastmile_qr_scan", "android": "https://dc.lft.to/lastmile_qr_scan"}, "lon": -76.98612633333333, "type": "electric_scooter"}, {"bike_id": "215d41f6b55a690296114f83a169e6f3", "is_reserved": 0, "fusion_lon": 0.0, "lat": 38.9197755, "is_disabled": 0, "name": "215d41f6b55a690296114f83a169e6f3", "fusion_lat": 0.0, "rental_uris": {"ios": "https://dc.lft.to/lastmile_qr_scan", "android": "https://dc.lft.to/lastmile_qr_scan"}, "lon": -77.04440983333333, "type": "electric_scooter"}, {"bike_id": "28d951eb8befb45673145951a60779f2", "is_reserved": 0, "fusion_lon": 0.0, "lat": 38.902741, "is_disabled": 0, "name": "28d951eb8befb45673145951a60779f2", "fusion_lat": 0.0, "rental_uris": {"ios": "https://dc.lft.to/lastmile_qr_scan", "android": "https://dc.lft.to/lastmile_qr_scan"}, "lon": -77.03970733333334, "type": "electric_scooter"}, {"bike_id": "9ab64a72fba65192caca772b8bd7b0c6", "is_reserved": 0, "fusion_lon": 0.0, "lat": 38.89091066666667, "is_disabled": 0, "name": "9ab64a72fba65192caca772b8bd7b0c6", "fusion_lat": 0.0, "rental_uris": {"ios": "https://dc.lft.to/lastmile_qr_scan", "android": "https://dc.lft.to/lastmile_qr_scan"}, "lon": -76.98747433333334, "type": "electric_scooter"}, {"bike_id": "7790e76894e46d3487d4c79a79bc6af2", "is_reserved": 0, "fusion_lon": 0.0, "lat": 38.90973983333333, "is_disabled": 0, "name": "7790e76894e46d3487d4c79a79bc6af2", "fusion_lat": 0.0, "rental_uris": {"ios": "https://dc.lft.to/lastmile_qr_scan", "android": "https://dc.lft.to/lastmile_qr_scan"}, "lon": -77.048685, "type": "electric_scooter"}, {"bike_id": "48bee195f0ee10857b0efe6a59084290", "is_reserved": 0, "fusion_lon": 0.0, "lat": 38.90584333333334, "is_disabled": 0, "name": "48bee195f0ee10857b0efe6a59084290", "fusion_lat": 0.0, "rental_uris": {"ios": "https://dc.lft.to/lastmile_qr_scan", "android": "https://dc.lft.to/lastmile_qr_scan"}, "lon": -77.03487616666666, "type": "electric_scooter"}, {"bike_id": "c1a8b9c8fd3a7d2f489d61e1b003d600", "is_reserved": 0, "fusion_lon": 0.0, "lat": 38.9148055, "is_disabled": 0, "name": "c1a8b9c8fd3a7d2f489d61e1b003d600", "fusion_lat": 0.0, "rental_uris": {"ios": "https://dc.lft.to/lastmile_qr_scan", "android": "https://dc.lft.to/lastmile_qr_scan"}, "lon": -77.04079333333334, "type": "electric_scooter"}, {"bike_id": "4429f2d42d8dc81e99b8deb163c49d74", "is_reserved": 0, "fusion_lon": 0.0, "lat": 38.9141625, "is_disabled": 0, "name": "4429f2d42d8dc81e99b8deb163c49d74", "fusion_lat": 0.0, "rental_uris": {"ios": "https://dc.lft.to/lastmile_qr_scan", "android": "https://dc.lft.to/lastmile_qr_scan"}, "lon": -77.03901033333334, "type": "electric_scooter"}, {"bike_id": "3863f56febc2b92dd7de97f8b9697c53", "is_reserved": 0, "fusion_lon": 0.0, "lat": 38.94214233333334, "is_disabled": 0, "name": "3863f56febc2b92dd7de97f8b9697c53", "fusion_lat": 0.0, "rental_uris": {"ios": "https://dc.lft.to/lastmile_qr_scan", "android": "https://dc.lft.to/lastmile_qr_scan"}, "lon": -77.03589916666667, "type": "electric_scooter"}, {"bike_id": "8c2ed72a2b34bb1e24a93a6d312ba084", "is_reserved": 0, "fusion_lon": 0.0, "lat": 38.91420266666667, "is_disabled": 0, "name": "8c2ed72a2b34bb1e24a93a6d312ba084", "fusion_lat": 0.0, "rental_uris": {"ios": "https://dc.lft.to/lastmile_qr_scan", "android": "https://dc.lft.to/lastmile_qr_scan"}, "lon": -77.03904133333333, "type": "electric_scooter"}, {"bike_id": "b6f28826c8ca1d839975e3c7404282d8", "is_reserved": 0, "fusion_lon": 0.0, "lat": 38.899551333333335, "is_disabled": 0, "name": "b6f28826c8ca1d839975e3c7404282d8", "fusion_lat": 0.0, "rental_uris": {"ios": "https://dc.lft.to/lastmile_qr_scan", "android": "https://dc.lft.to/lastmile_qr_scan"}, "lon": -77.01621866666666, "type": "electric_scooter"}, {"bike_id": "f4532b8f8d38ac82e7b583f2a1ba1208", "is_reserved": 0, "fusion_lon": 0.0, "lat": 38.915781, "is_disabled": 0, "name": "f4532b8f8d38ac82e7b583f2a1ba1208", "fusion_lat": 0.0, "rental_uris": {"ios": "https://dc.lft.to/lastmile_qr_scan", "android": "https://dc.lft.to/lastmile_qr_scan"}, "lon": -77.05027033333333, "type": "electric_bike"}, {"bike_id": "efd819d88fb11316996fb70ec7d3eeac", "is_reserved": 0, "fusion_lon": 0.0, "lat": 38.87682983333333, "is_disabled": 0, "name": "efd819d88fb11316996fb70ec7d3eeac", "fusion_lat": 0.0, "rental_uris": {"ios": "https://dc.lft.to/lastmile_qr_scan", "android": "https://dc.lft.to/lastmile_qr_scan"}, "lon": -77.00720983333333, "type": "electric_scooter"}, {"bike_id": "ffa1656c818044f178e4b59db4eaaa5f", "is_reserved": 0, "fusion_lon": 0.0, "lat": 38.88395216666667, "is_disabled": 0, "name": "ffa1656c818044f178e4b59db4eaaa5f", "fusion_lat": 0.0, "rental_uris": {"ios": "https://dc.lft.to/lastmile_qr_scan", "android": "https://dc.lft.to/lastmile_qr_scan"}, "lon": -77.02581433333333, "type": "electric_scooter"}, {"bike_id": "f639cccff4405e0d15bfe855265ad6d1", "is_reserved": 0, "fusion_lon": 0.0, "lat": 38.90716483333333, "is_disabled": 0, "name": "f639cccff4405e0d15bfe855265ad6d1", "fusion_lat": 0.0, "rental_uris": {"ios": "https://dc.lft.to/lastmile_qr_scan", "android": "https://dc.lft.to/lastmile_qr_scan"}, "lon": -77.025426, "type": "electric_scooter"}, {"bike_id": "b7d915212e0163cdaa7083419e82f821", "is_reserved": 0, "fusion_lon": 0.0, "lat": 38.90184466666667, "is_disabled": 0, "name": "b7d915212e0163cdaa7083419e82f821", "fusion_lat": 0.0, "rental_uris": {"ios": "https://dc.lft.to/lastmile_qr_scan", "android": "https://dc.lft.to/lastmile_qr_scan"}, "lon": -76.929986, "type": "electric_scooter"}, {"bike_id": "cc99ee825d7c664a352ec63db5fd782a", "is_reserved": 0, "fusion_lon": 0.0, "lat": 38.90033116666667, "is_disabled": 0, "name": "cc99ee825d7c664a352ec63db5fd782a", "fusion_lat": 0.0, "rental_uris": {"ios": "https://dc.lft.to/lastmile_qr_scan", "android": "https://dc.lft.to/lastmile_qr_scan"}, "lon": -76.98793216666667, "type": "electric_scooter"}, {"bike_id": "43ce887b4e8aece404bfa17b2b71c50d", "is_reserved": 0, "fusion_lon": 0.0, "lat": 38.9043115, "is_disabled": 0, "name": "43ce887b4e8aece404bfa17b2b71c50d", "fusion_lat": 0.0, "rental_uris": {"ios": "https://dc.lft.to/lastmile_qr_scan", "android": "https://dc.lft.to/lastmile_qr_scan"}, "lon": -76.979116, "type": "electric_scooter"}, {"bike_id": "cdd6bdb13163f9c2f7ca0d2f16b50c04", "is_reserved": 0, "fusion_lon": 0.0, "lat": 38.908449, "is_disabled": 0, "name": "cdd6bdb13163f9c2f7ca0d2f16b50c04", "fusion_lat": 0.0, "rental_uris": {"ios": "https://dc.lft.to/lastmile_qr_scan", "android": "https://dc.lft.to/lastmile_qr_scan"}, "lon": -77.025915, "type": "electric_scooter"}, {"bike_id": "9bf427cd7443a8cd3979f72e9afda7b8", "is_reserved": 0, "fusion_lon": 0.0, "lat": 38.932873, "is_disabled": 0, "name": "9bf427cd7443a8cd3979f72e9afda7b8", "fusion_lat": 0.0, "rental_uris": {"ios": "https://dc.lft.to/lastmile_qr_scan", "android": "https://dc.lft.to/lastmile_qr_scan"}, "lon": -77.0363265, "type": "electric_bike"}, {"bike_id": "092bb7a96a188e3585e8da30e02d8a23", "is_reserved": 0, "fusion_lon": 0.0, "lat": 38.905723333333334, "is_disabled": 0, "name": "092bb7a96a188e3585e8da30e02d8a23", "fusion_lat": 0.0, "rental_uris": {"ios": "https://dc.lft.to/lastmile_qr_scan", "android": "https://dc.lft.to/lastmile_qr_scan"}, "lon": -77.03828733333333, "type": "electric_scooter"}, {"bike_id": "adbc0cd3aaa1163094204fcb842c64b1", "is_reserved": 0, "fusion_lon": 0.0, "lat": 38.904831333333334, "is_disabled": 0, "name": "adbc0cd3aaa1163094204fcb842c64b1", "fusion_lat": 0.0, "rental_uris": {"ios": "https://dc.lft.to/lastmile_qr_scan", "android": "https://dc.lft.to/lastmile_qr_scan"}, "lon": -77.0276125, "type": "electric_bike"}, {"bike_id": "d9329556790726cf6029322b2a18372d", "is_reserved": 0, "fusion_lon": 0.0, "lat": 38.91336316666667, "is_disabled": 0, "name": "d9329556790726cf6029322b2a18372d", "fusion_lat": 0.0, "rental_uris": {"ios": "https://dc.lft.to/lastmile_qr_scan", "android": "https://dc.lft.to/lastmile_qr_scan"}, "lon": -77.04838183333334, "type": "electric_scooter"}, {"bike_id": "4c01ffc71b5dc6c2d3f5899d5ee7c54d", "is_reserved": 0, "fusion_lon": 0.0, "lat": 38.937885666666666, "is_disabled": 0, "name": "4c01ffc71b5dc6c2d3f5899d5ee7c54d", "fusion_lat": 0.0, "rental_uris": {"ios": "https://dc.lft.to/lastmile_qr_scan", "android": "https://dc.lft.to/lastmile_qr_scan"}, "lon": -77.023354, "type": "electric_scooter"}, {"bike_id": "d3c3e0b690367cca0912266665101d2e", "is_reserved": 0, "fusion_lon": 0.0, "lat": 38.90376833333333, "is_disabled": 0, "name": "d3c3e0b690367cca0912266665101d2e", "fusion_lat": 0.0, "rental_uris": {"ios": "https://dc.lft.to/lastmile_qr_scan", "android": "https://dc.lft.to/lastmile_qr_scan"}, "lon": -77.03915766666667, "type": "electric_scooter"}, {"bike_id": "bca2d532fbc786f344027fe988649515", "is_reserved": 0, "fusion_lon": 0.0, "lat": 38.88639216666667, "is_disabled": 0, "name": "bca2d532fbc786f344027fe988649515", "fusion_lat": 0.0, "rental_uris": {"ios": "https://dc.lft.to/lastmile_qr_scan", "android": "https://dc.lft.to/lastmile_qr_scan"}, "lon": -77.02135816666667, "type": "electric_scooter"}, {"bike_id": "5c062595d32ba951f539c242458e3e85", "is_reserved": 0, "fusion_lon": 0.0, "lat": 38.906743666666664, "is_disabled": 0, "name": "5c062595d32ba951f539c242458e3e85", "fusion_lat": 0.0, "rental_uris": {"ios": "https://dc.lft.to/lastmile_qr_scan", "android": "https://dc.lft.to/lastmile_qr_scan"}, "lon": -77.00025016666666, "type": "electric_scooter"}, {"bike_id": "f6bdcc332ea16acb0e34caade86673b8", "is_reserved": 0, "fusion_lon": 0.0, "lat": 38.9246065, "is_disabled": 0, "name": "f6bdcc332ea16acb0e34caade86673b8", "fusion_lat": 0.0, "rental_uris": {"ios": "https://dc.lft.to/lastmile_qr_scan", "android": "https://dc.lft.to/lastmile_qr_scan"}, "lon": -76.99912683333334, "type": "electric_scooter"}, {"bike_id": "a7b2ce2f2e4bd50c44a87b7db4bcbfa1", "is_reserved": 0, "fusion_lon": 0.0, "lat": 38.8133415, "is_disabled": 0, "name": "a7b2ce2f2e4bd50c44a87b7db4bcbfa1", "fusion_lat": 0.0, "rental_uris": {"ios": "https://dc.lft.to/lastmile_qr_scan", "android": "https://dc.lft.to/lastmile_qr_scan"}, "lon": -77.05111616666667, "type": "electric_bike"}, {"bike_id": "02a7b888b1a0489a08e6d0f67014377e", "is_reserved": 0, "fusion_lon": 0.0, "lat": 38.90723116666667, "is_disabled": 0, "name": "02a7b888b1a0489a08e6d0f67014377e", "fusion_lat": 0.0, "rental_uris": {"ios": "https://dc.lft.to/lastmile_qr_scan", "android": "https://dc.lft.to/lastmile_qr_scan"}, "lon": -77.04346433333333, "type": "electric_scooter"}, {"bike_id": "44dae8e7b3b5a47b8028e52a547e83e9", "is_reserved": 0, "fusion_lon": 0.0, "lat": 38.917851666666664, "is_disabled": 0, "name": "44dae8e7b3b5a47b8028e52a547e83e9", "fusion_lat": 0.0, "rental_uris": {"ios": "https://dc.lft.to/lastmile_qr_scan", "android": "https://dc.lft.to/lastmile_qr_scan"}, "lon": -77.02696116666667, "type": "electric_scooter"}, {"bike_id": "929af22e9e4bed7989a0a1bb9100a5a4", "is_reserved": 0, "fusion_lon": 0.0, "lat": 38.90032033333333, "is_disabled": 0, "name": "929af22e9e4bed7989a0a1bb9100a5a4", "fusion_lat": 0.0, "rental_uris": {"ios": "https://dc.lft.to/lastmile_qr_scan", "android": "https://dc.lft.to/lastmile_qr_scan"}, "lon": -76.99793216666667, "type": "electric_scooter"}, {"bike_id": "b5023454f0a20c103f05c4c0cf3dce0a", "is_reserved": 0, "fusion_lon": 0.0, "lat": 38.90018116666667, "is_disabled": 0, "name": "b5023454f0a20c103f05c4c0cf3dce0a", "fusion_lat": 0.0, "rental_uris": {"ios": "https://dc.lft.to/lastmile_qr_scan", "android": "https://dc.lft.to/lastmile_qr_scan"}, "lon": -76.997755, "type": "electric_scooter"}, {"bike_id": "3ce781fd52471d66317552a9db19ad00", "is_reserved": 0, "fusion_lon": 0.0, "lat": 38.903972, "is_disabled": 0, "name": "3ce781fd52471d66317552a9db19ad00", "fusion_lat": 0.0, "rental_uris": {"ios": "https://dc.lft.to/lastmile_qr_scan", "android": "https://dc.lft.to/lastmile_qr_scan"}, "lon": -77.0438765, "type": "electric_scooter"}, {"bike_id": "f07c6ef5a3fe9fae1f3309516d452913", "is_reserved": 0, "fusion_lon": 0.0, "lat": 38.89805066666667, "is_disabled": 0, "name": "f07c6ef5a3fe9fae1f3309516d452913", "fusion_lat": 0.0, "rental_uris": {"ios": "https://dc.lft.to/lastmile_qr_scan", "android": "https://dc.lft.to/lastmile_qr_scan"}, "lon": -77.006326, "type": "electric_scooter"}, {"bike_id": "40549baa2c62edb4c9e43513fb42b1f8", "is_reserved": 0, "fusion_lon": 0.0, "lat": 38.9047445, "is_disabled": 0, "name": "40549baa2c62edb4c9e43513fb42b1f8", "fusion_lat": 0.0, "rental_uris": {"ios": "https://dc.lft.to/lastmile_qr_scan", "android": "https://dc.lft.to/lastmile_qr_scan"}, "lon": -77.007327, "type": "electric_scooter"}, {"bike_id": "4070f3718e61fb4353c80497f572f0ad", "is_reserved": 0, "fusion_lon": 0.0, "lat": 38.926697, "is_disabled": 0, "name": "4070f3718e61fb4353c80497f572f0ad", "fusion_lat": 0.0, "rental_uris": {"ios": "https://dc.lft.to/lastmile_qr_scan", "android": "https://dc.lft.to/lastmile_qr_scan"}, "lon": -77.03118633333334, "type": "electric_scooter"}, {"bike_id": "230410de4ee8a8189c6c3aa9a936c3a0", "is_reserved": 0, "fusion_lon": 0.0, "lat": 38.83860333333333, "is_disabled": 0, "name": "230410de4ee8a8189c6c3aa9a936c3a0", "fusion_lat": 0.0, "rental_uris": {"ios": "https://dc.lft.to/lastmile_qr_scan", "android": "https://dc.lft.to/lastmile_qr_scan"}, "lon": -77.08864566666666, "type": "electric_bike"}, {"bike_id": "1467933ce4575849982a49ad0a21b08f", "is_reserved": 0, "fusion_lon": 0.0, "lat": 38.92872, "is_disabled": 0, "name": "1467933ce4575849982a49ad0a21b08f", "fusion_lat": 0.0, "rental_uris": {"ios": "https://dc.lft.to/lastmile_qr_scan", "android": "https://dc.lft.to/lastmile_qr_scan"}, "lon": -77.02729933333333, "type": "electric_scooter"}, {"bike_id": "5c09e318ce9a4fe14828963d1d1dbffd", "is_reserved": 0, "fusion_lon": 0.0, "lat": 38.917103166666664, "is_disabled": 0, "name": "5c09e318ce9a4fe14828963d1d1dbffd", "fusion_lat": 0.0, "rental_uris": {"ios": "https://dc.lft.to/lastmile_qr_scan", "android": "https://dc.lft.to/lastmile_qr_scan"}, "lon": -77.03244016666666, "type": "electric_scooter"}, {"bike_id": "cc8572ef15c0b5d9638f308241d9f4ad", "is_reserved": 0, "fusion_lon": 0.0, "lat": 38.9732235, "is_disabled": 0, "name": "cc8572ef15c0b5d9638f308241d9f4ad", "fusion_lat": 0.0, "rental_uris": {"ios": "https://dc.lft.to/lastmile_qr_scan", "android": "https://dc.lft.to/lastmile_qr_scan"}, "lon": -77.02142216666667, "type": "electric_bike"}, {"bike_id": "0f26903762753bc74b4872b386c2e08e", "is_reserved": 0, "fusion_lon": 0.0, "lat": 38.9031385, "is_disabled": 0, "name": "0f26903762753bc74b4872b386c2e08e", "fusion_lat": 0.0, "rental_uris": {"ios": "https://dc.lft.to/lastmile_qr_scan", "android": "https://dc.lft.to/lastmile_qr_scan"}, "lon": -77.03815783333333, "type": "electric_scooter"}, {"bike_id": "6c010116a32a37b61ae4ef3957fa77df", "is_reserved": 0, "fusion_lon": 0.0, "lat": 38.9110365, "is_disabled": 0, "name": "6c010116a32a37b61ae4ef3957fa77df", "fusion_lat": 0.0, "rental_uris": {"ios": "https://dc.lft.to/lastmile_qr_scan", "android": "https://dc.lft.to/lastmile_qr_scan"}, "lon": -77.00216083333333, "type": "electric_scooter"}, {"bike_id": "1f6cd6a1b67614dfc4eab829fdefea6c", "is_reserved": 0, "fusion_lon": 0.0, "lat": 38.90032683333333, "is_disabled": 0, "name": "1f6cd6a1b67614dfc4eab829fdefea6c", "fusion_lat": 0.0, "rental_uris": {"ios": "https://dc.lft.to/lastmile_qr_scan", "android": "https://dc.lft.to/lastmile_qr_scan"}, "lon": -76.99542616666666, "type": "electric_scooter"}, {"bike_id": "974e2ae3faa0c128d0884592ac1aa2df", "is_reserved": 0, "fusion_lon": 0.0, "lat": 39.030448, "is_disabled": 0, "name": "974e2ae3faa0c128d0884592ac1aa2df", "fusion_lat": 0.0, "rental_uris": {"ios": "https://dc.lft.to/lastmile_qr_scan", "android": "https://dc.lft.to/lastmile_qr_scan"}, "lon": -77.0947945, "type": "electric_bike"}, {"bike_id": "cb4c7e5c5fd8bd21812641447e39cbcd", "is_reserved": 0, "fusion_lon": 0.0, "lat": 38.931088333333335, "is_disabled": 0, "name": "cb4c7e5c5fd8bd21812641447e39cbcd", "fusion_lat": 0.0, "rental_uris": {"ios": "https://dc.lft.to/lastmile_qr_scan", "android": "https://dc.lft.to/lastmile_qr_scan"}, "lon": -77.03839266666667, "type": "electric_scooter"}, {"bike_id": "4688f984b76c5ffd455d4bfda923ebe9", "is_reserved": 0, "fusion_lon": 0.0, "lat": 38.92476666666666, "is_disabled": 0, "name": "4688f984b76c5ffd455d4bfda923ebe9", "fusion_lat": 0.0, "rental_uris": {"ios": "https://dc.lft.to/lastmile_qr_scan", "android": "https://dc.lft.to/lastmile_qr_scan"}, "lon": -77.0521195, "type": "electric_scooter"}, {"bike_id": "a530c4f2f86b9437a71264173428c8a2", "is_reserved": 0, "fusion_lon": 0.0, "lat": 38.998257, "is_disabled": 0, "name": "a530c4f2f86b9437a71264173428c8a2", "fusion_lat": 0.0, "rental_uris": {"ios": "https://dc.lft.to/lastmile_qr_scan", "android": "https://dc.lft.to/lastmile_qr_scan"}, "lon": -76.88372166666667, "type": "electric_bike"}, {"bike_id": "c9c001f920261af35b3d643878ad892d", "is_reserved": 0, "fusion_lon": 0.0, "lat": 38.91664766666667, "is_disabled": 0, "name": "c9c001f920261af35b3d643878ad892d", "fusion_lat": 0.0, "rental_uris": {"ios": "https://dc.lft.to/lastmile_qr_scan", "android": "https://dc.lft.to/lastmile_qr_scan"}, "lon": -77.02710566666667, "type": "electric_scooter"}, {"bike_id": "3cc8b554f41707882dd28d15b5401c4c", "is_reserved": 0, "fusion_lon": 0.0, "lat": 38.90767666666667, "is_disabled": 0, "name": "3cc8b554f41707882dd28d15b5401c4c", "fusion_lat": 0.0, "rental_uris": {"ios": "https://dc.lft.to/lastmile_qr_scan", "android": "https://dc.lft.to/lastmile_qr_scan"}, "lon": -77.06912333333334, "type": "electric_scooter"}, {"bike_id": "e23dab4a8585bad48eac2ce5a4ed65ba", "is_reserved": 0, "fusion_lon": 0.0, "lat": 38.904566833333334, "is_disabled": 0, "name": "e23dab4a8585bad48eac2ce5a4ed65ba", "fusion_lat": 0.0, "rental_uris": {"ios": "https://dc.lft.to/lastmile_qr_scan", "android": "https://dc.lft.to/lastmile_qr_scan"}, "lon": -77.0199505, "type": "electric_scooter"}, {"bike_id": "2822e95b2a52e7e459f4350fad59d1be", "is_reserved": 0, "fusion_lon": 0.0, "lat": 38.904762166666664, "is_disabled": 0, "name": "2822e95b2a52e7e459f4350fad59d1be", "fusion_lat": 0.0, "rental_uris": {"ios": "https://dc.lft.to/lastmile_qr_scan", "android": "https://dc.lft.to/lastmile_qr_scan"}, "lon": -77.06008616666666, "type": "electric_scooter"}, {"bike_id": "c1651209ef713ef9b7109259542765d5", "is_reserved": 0, "fusion_lon": 0.0, "lat": 38.90141716666667, "is_disabled": 0, "name": "c1651209ef713ef9b7109259542765d5", "fusion_lat": 0.0, "rental_uris": {"ios": "https://dc.lft.to/lastmile_qr_scan", "android": "https://dc.lft.to/lastmile_qr_scan"}, "lon": -76.99790866666666, "type": "electric_scooter"}, {"bike_id": "c02b12a69c8e4b9ef4493ffc82e49917", "is_reserved": 0, "fusion_lon": 0.0, "lat": 38.909192166666664, "is_disabled": 0, "name": "c02b12a69c8e4b9ef4493ffc82e49917", "fusion_lat": 0.0, "rental_uris": {"ios": "https://dc.lft.to/lastmile_qr_scan", "android": "https://dc.lft.to/lastmile_qr_scan"}, "lon": -77.03854033333333, "type": "electric_scooter"}, {"bike_id": "520c478237e7bf2bc622979d00b87d98", "is_reserved": 0, "fusion_lon": 0.0, "lat": 38.936722, "is_disabled": 0, "name": "520c478237e7bf2bc622979d00b87d98", "fusion_lat": 0.0, "rental_uris": {"ios": "https://dc.lft.to/lastmile_qr_scan", "android": "https://dc.lft.to/lastmile_qr_scan"}, "lon": -76.95195966666667, "type": "electric_bike"}, {"bike_id": "e1fa66fdb2e1f36221b75c4b701183b0", "is_reserved": 0, "fusion_lon": 0.0, "lat": 38.928867333333336, "is_disabled": 0, "name": "e1fa66fdb2e1f36221b75c4b701183b0", "fusion_lat": 0.0, "rental_uris": {"ios": "https://dc.lft.to/lastmile_qr_scan", "android": "https://dc.lft.to/lastmile_qr_scan"}, "lon": -77.04053683333333, "type": "electric_scooter"}, {"bike_id": "5dedb440b04951babc98b00d3ab0762c", "is_reserved": 0, "fusion_lon": 0.0, "lat": 38.90016716666667, "is_disabled": 0, "name": "5dedb440b04951babc98b00d3ab0762c", "fusion_lat": 0.0, "rental_uris": {"ios": "https://dc.lft.to/lastmile_qr_scan", "android": "https://dc.lft.to/lastmile_qr_scan"}, "lon": -76.99768383333333, "type": "electric_scooter"}, {"bike_id": "fbb3bd6eb6c917b22ea2c0615f4ad7af", "is_reserved": 0, "fusion_lon": 0.0, "lat": 38.88511333333334, "is_disabled": 0, "name": "fbb3bd6eb6c917b22ea2c0615f4ad7af", "fusion_lat": 0.0, "rental_uris": {"ios": "https://dc.lft.to/lastmile_qr_scan", "android": "https://dc.lft.to/lastmile_qr_scan"}, "lon": -77.0172175, "type": "electric_scooter"}, {"bike_id": "043aecef727817234c88eca1e6aa3a6d", "is_reserved": 0, "fusion_lon": 0.0, "lat": 38.91951233333333, "is_disabled": 0, "name": "043aecef727817234c88eca1e6aa3a6d", "fusion_lat": 0.0, "rental_uris": {"ios": "https://dc.lft.to/lastmile_qr_scan", "android": "https://dc.lft.to/lastmile_qr_scan"}, "lon": -76.97898533333333, "type": "electric_bike"}, {"bike_id": "e4a9806ebb5c24f87644b80e875b94e5", "is_reserved": 0, "fusion_lon": 0.0, "lat": 38.86507, "is_disabled": 0, "name": "e4a9806ebb5c24f87644b80e875b94e5", "fusion_lat": 0.0, "rental_uris": {"ios": "https://dc.lft.to/lastmile_qr_scan", "android": "https://dc.lft.to/lastmile_qr_scan"}, "lon": -76.98977566666667, "type": "electric_scooter"}, {"bike_id": "4ae7954cb6b9f00c707a1adb35035327", "is_reserved": 0, "fusion_lon": 0.0, "lat": 38.88405066666667, "is_disabled": 0, "name": "4ae7954cb6b9f00c707a1adb35035327", "fusion_lat": 0.0, "rental_uris": {"ios": "https://dc.lft.to/lastmile_qr_scan", "android": "https://dc.lft.to/lastmile_qr_scan"}, "lon": -76.96051533333333, "type": "electric_bike"}, {"bike_id": "b8a64c6e1e382ba1437891320271bcb8", "is_reserved": 0, "fusion_lon": 0.0, "lat": 38.91152866666667, "is_disabled": 0, "name": "b8a64c6e1e382ba1437891320271bcb8", "fusion_lat": 0.0, "rental_uris": {"ios": "https://dc.lft.to/lastmile_qr_scan", "android": "https://dc.lft.to/lastmile_qr_scan"}, "lon": -77.0418415, "type": "electric_scooter"}, {"bike_id": "209dee85d9dbeb7f50384a8d439a64d6", "is_reserved": 0, "fusion_lon": 0.0, "lat": 38.906569833333336, "is_disabled": 0, "name": "209dee85d9dbeb7f50384a8d439a64d6", "fusion_lat": 0.0, "rental_uris": {"ios": "https://dc.lft.to/lastmile_qr_scan", "android": "https://dc.lft.to/lastmile_qr_scan"}, "lon": -77.03811033333334, "type": "electric_scooter"}, {"bike_id": "2512335558d58ce758832e417499e2e0", "is_reserved": 0, "fusion_lon": 0.0, "lat": 38.904552333333335, "is_disabled": 0, "name": "2512335558d58ce758832e417499e2e0", "fusion_lat": 0.0, "rental_uris": {"ios": "https://dc.lft.to/lastmile_qr_scan", "android": "https://dc.lft.to/lastmile_qr_scan"}, "lon": -77.05315133333333, "type": "electric_scooter"}, {"bike_id": "e0fb7204a179c82ef7d5c1eb9f56b757", "is_reserved": 0, "fusion_lon": 0.0, "lat": 38.87192183333333, "is_disabled": 0, "name": "e0fb7204a179c82ef7d5c1eb9f56b757", "fusion_lat": 0.0, "rental_uris": {"ios": "https://dc.lft.to/lastmile_qr_scan", "android": "https://dc.lft.to/lastmile_qr_scan"}, "lon": -77.0137345, "type": "electric_scooter"}, {"bike_id": "d364b86ca340a2866f027181080f4acd", "is_reserved": 0, "fusion_lon": 0.0, "lat": 38.912475666666666, "is_disabled": 0, "name": "d364b86ca340a2866f027181080f4acd", "fusion_lat": 0.0, "rental_uris": {"ios": "https://dc.lft.to/lastmile_qr_scan", "android": "https://dc.lft.to/lastmile_qr_scan"}, "lon": -77.02689516666666, "type": "electric_scooter"}, {"bike_id": "4bb6282332ba52f2385f950417ff5d80", "is_reserved": 0, "fusion_lon": 0.0, "lat": 38.90370466666667, "is_disabled": 0, "name": "4bb6282332ba52f2385f950417ff5d80", "fusion_lat": 0.0, "rental_uris": {"ios": "https://dc.lft.to/lastmile_qr_scan", "android": "https://dc.lft.to/lastmile_qr_scan"}, "lon": -77.043352, "type": "electric_scooter"}, {"bike_id": "e326cec6c1deb950339a33dce72f1bd7", "is_reserved": 0, "fusion_lon": 0.0, "lat": 38.9273375, "is_disabled": 0, "name": "e326cec6c1deb950339a33dce72f1bd7", "fusion_lat": 0.0, "rental_uris": {"ios": "https://dc.lft.to/lastmile_qr_scan", "android": "https://dc.lft.to/lastmile_qr_scan"}, "lon": -77.022795, "type": "electric_scooter"}, {"bike_id": "17806c597b426390bd4b70dc79eb696f", "is_reserved": 0, "fusion_lon": 0.0, "lat": 38.866302833333336, "is_disabled": 0, "name": "17806c597b426390bd4b70dc79eb696f", "fusion_lat": 0.0, "rental_uris": {"ios": "https://dc.lft.to/lastmile_qr_scan", "android": "https://dc.lft.to/lastmile_qr_scan"}, "lon": -76.9871395, "type": "electric_scooter"}, {"bike_id": "17e3b27800cf205c91deddff41329339", "is_reserved": 0, "fusion_lon": 0.0, "lat": 38.902309, "is_disabled": 0, "name": "17e3b27800cf205c91deddff41329339", "fusion_lat": 0.0, "rental_uris": {"ios": "https://dc.lft.to/lastmile_qr_scan", "android": "https://dc.lft.to/lastmile_qr_scan"}, "lon": -77.0607515, "type": "electric_scooter"}, {"bike_id": "76bf4ca01a8e8622dc4f61a638d10228", "is_reserved": 0, "fusion_lon": 0.0, "lat": 38.8799885, "is_disabled": 0, "name": "76bf4ca01a8e8622dc4f61a638d10228", "fusion_lat": 0.0, "rental_uris": {"ios": "https://dc.lft.to/lastmile_qr_scan", "android": "https://dc.lft.to/lastmile_qr_scan"}, "lon": -76.9950355, "type": "electric_scooter"}, {"bike_id": "dad42b4c54123a93ca37988862a20f09", "is_reserved": 0, "fusion_lon": 0.0, "lat": 38.92890233333333, "is_disabled": 0, "name": "dad42b4c54123a93ca37988862a20f09", "fusion_lat": 0.0, "rental_uris": {"ios": "https://dc.lft.to/lastmile_qr_scan", "android": "https://dc.lft.to/lastmile_qr_scan"}, "lon": -77.05454516666667, "type": "electric_scooter"}, {"bike_id": "688c1c0067ddba22dee0b65ef146ff3b", "is_reserved": 0, "fusion_lon": 0.0, "lat": 38.9080225, "is_disabled": 0, "name": "688c1c0067ddba22dee0b65ef146ff3b", "fusion_lat": 0.0, "rental_uris": {"ios": "https://dc.lft.to/lastmile_qr_scan", "android": "https://dc.lft.to/lastmile_qr_scan"}, "lon": -77.034656, "type": "electric_scooter"}, {"bike_id": "d28627e2ab106dea8cbaf1fe2f9c4c71", "is_reserved": 0, "fusion_lon": 0.0, "lat": 38.905056, "is_disabled": 0, "name": "d28627e2ab106dea8cbaf1fe2f9c4c71", "fusion_lat": 0.0, "rental_uris": {"ios": "https://dc.lft.to/lastmile_qr_scan", "android": "https://dc.lft.to/lastmile_qr_scan"}, "lon": -77.02949266666667, "type": "electric_scooter"}, {"bike_id": "4e07ca1dacc54c906be5b0c373c91521", "is_reserved": 0, "fusion_lon": 0.0, "lat": 38.9000915, "is_disabled": 0, "name": "4e07ca1dacc54c906be5b0c373c91521", "fusion_lat": 0.0, "rental_uris": {"ios": "https://dc.lft.to/lastmile_qr_scan", "android": "https://dc.lft.to/lastmile_qr_scan"}, "lon": -76.97310733333333, "type": "electric_scooter"}, {"bike_id": "ec4a55b5205c7788a48887dd7e8c28a6", "is_reserved": 0, "fusion_lon": 0.0, "lat": 38.89480483333333, "is_disabled": 0, "name": "ec4a55b5205c7788a48887dd7e8c28a6", "fusion_lat": 0.0, "rental_uris": {"ios": "https://dc.lft.to/lastmile_qr_scan", "android": "https://dc.lft.to/lastmile_qr_scan"}, "lon": -77.02211116666666, "type": "electric_scooter"}, {"bike_id": "db1fbe21329ca115fafb3ed9a447da28", "is_reserved": 0, "fusion_lon": 0.0, "lat": 38.92088016666666, "is_disabled": 0, "name": "db1fbe21329ca115fafb3ed9a447da28", "fusion_lat": 0.0, "rental_uris": {"ios": "https://dc.lft.to/lastmile_qr_scan", "android": "https://dc.lft.to/lastmile_qr_scan"}, "lon": -77.02511833333334, "type": "electric_scooter"}, {"bike_id": "8b9a277a5b1019021c52607871bde573", "is_reserved": 0, "fusion_lon": 0.0, "lat": 38.90846466666667, "is_disabled": 0, "name": "8b9a277a5b1019021c52607871bde573", "fusion_lat": 0.0, "rental_uris": {"ios": "https://dc.lft.to/lastmile_qr_scan", "android": "https://dc.lft.to/lastmile_qr_scan"}, "lon": -77.08529316666667, "type": "electric_scooter"}, {"bike_id": "998462ee835f24d5f1029850a1ce63d4", "is_reserved": 0, "fusion_lon": 0.0, "lat": 38.88863583333333, "is_disabled": 0, "name": "998462ee835f24d5f1029850a1ce63d4", "fusion_lat": 0.0, "rental_uris": {"ios": "https://dc.lft.to/lastmile_qr_scan", "android": "https://dc.lft.to/lastmile_qr_scan"}, "lon": -76.99473616666667, "type": "electric_bike"}, {"bike_id": "f14f87a2080a49459475d70d32b6e3e9", "is_reserved": 0, "fusion_lon": 0.0, "lat": 38.895376166666665, "is_disabled": 0, "name": "f14f87a2080a49459475d70d32b6e3e9", "fusion_lat": 0.0, "rental_uris": {"ios": "https://dc.lft.to/lastmile_qr_scan", "android": "https://dc.lft.to/lastmile_qr_scan"}, "lon": -77.04850966666666, "type": "electric_scooter"}, {"bike_id": "546668da5b2bea99accf27510e943f63", "is_reserved": 0, "fusion_lon": 0.0, "lat": 38.862019, "is_disabled": 0, "name": "546668da5b2bea99accf27510e943f63", "fusion_lat": 0.0, "rental_uris": {"ios": "https://dc.lft.to/lastmile_qr_scan", "android": "https://dc.lft.to/lastmile_qr_scan"}, "lon": -76.99459866666666, "type": "electric_scooter"}, {"bike_id": "59ba1e6f1e1051096e33aff41741c865", "is_reserved": 0, "fusion_lon": 0.0, "lat": 38.899576833333334, "is_disabled": 0, "name": "59ba1e6f1e1051096e33aff41741c865", "fusion_lat": 0.0, "rental_uris": {"ios": "https://dc.lft.to/lastmile_qr_scan", "android": "https://dc.lft.to/lastmile_qr_scan"}, "lon": -76.97549866666667, "type": "electric_scooter"}, {"bike_id": "c9ebef13f2ae376252d88b11a04e5ee3", "is_reserved": 0, "fusion_lon": 0.0, "lat": 38.89999533333334, "is_disabled": 0, "name": "c9ebef13f2ae376252d88b11a04e5ee3", "fusion_lat": 0.0, "rental_uris": {"ios": "https://dc.lft.to/lastmile_qr_scan", "android": "https://dc.lft.to/lastmile_qr_scan"}, "lon": -77.05232383333333, "type": "electric_scooter"}, {"bike_id": "7a0de4ecab6a9502b4412a197081a025", "is_reserved": 0, "fusion_lon": 0.0, "lat": 38.911144, "is_disabled": 0, "name": "7a0de4ecab6a9502b4412a197081a025", "fusion_lat": 0.0, "rental_uris": {"ios": "https://dc.lft.to/lastmile_qr_scan", "android": "https://dc.lft.to/lastmile_qr_scan"}, "lon": -77.04834466666667, "type": "electric_scooter"}, {"bike_id": "7be0afecd4ac56667dc2a7f6d3b1ca8a", "is_reserved": 0, "fusion_lon": 0.0, "lat": 38.900271833333335, "is_disabled": 0, "name": "7be0afecd4ac56667dc2a7f6d3b1ca8a", "fusion_lat": 0.0, "rental_uris": {"ios": "https://dc.lft.to/lastmile_qr_scan", "android": "https://dc.lft.to/lastmile_qr_scan"}, "lon": -76.995361, "type": "electric_scooter"}, {"bike_id": "2754d59701baa3e2746061fd2a5eb06e", "is_reserved": 0, "fusion_lon": 0.0, "lat": 38.89222083333333, "is_disabled": 0, "name": "2754d59701baa3e2746061fd2a5eb06e", "fusion_lat": 0.0, "rental_uris": {"ios": "https://dc.lft.to/lastmile_qr_scan", "android": "https://dc.lft.to/lastmile_qr_scan"}, "lon": -77.0437065, "type": "electric_scooter"}, {"bike_id": "63f23de2020db68fa2e0a1e5f7241691", "is_reserved": 0, "fusion_lon": 0.0, "lat": 38.89832233333333, "is_disabled": 0, "name": "63f23de2020db68fa2e0a1e5f7241691", "fusion_lat": 0.0, "rental_uris": {"ios": "https://dc.lft.to/lastmile_qr_scan", "android": "https://dc.lft.to/lastmile_qr_scan"}, "lon": -76.98040233333333, "type": "electric_scooter"}, {"bike_id": "fe6aaf80fb7f25c9e0da930159f9bea0", "is_reserved": 0, "fusion_lon": 0.0, "lat": 38.8948315, "is_disabled": 0, "name": "fe6aaf80fb7f25c9e0da930159f9bea0", "fusion_lat": 0.0, "rental_uris": {"ios": "https://dc.lft.to/lastmile_qr_scan", "android": "https://dc.lft.to/lastmile_qr_scan"}, "lon": -76.948691, "type": "electric_scooter"}, {"bike_id": "51d4b3e09dcb8c6f3ee5e5028ec73f71", "is_reserved": 0, "fusion_lon": 0.0, "lat": 38.8811685, "is_disabled": 0, "name": "51d4b3e09dcb8c6f3ee5e5028ec73f71", "fusion_lat": 0.0, "rental_uris": {"ios": "https://dc.lft.to/lastmile_qr_scan", "android": "https://dc.lft.to/lastmile_qr_scan"}, "lon": -77.016703, "type": "electric_bike"}, {"bike_id": "fe7d890d8e484bc8af219d2adce9a12b", "is_reserved": 0, "fusion_lon": 0.0, "lat": 38.906708333333334, "is_disabled": 0, "name": "fe7d890d8e484bc8af219d2adce9a12b", "fusion_lat": 0.0, "rental_uris": {"ios": "https://dc.lft.to/lastmile_qr_scan", "android": "https://dc.lft.to/lastmile_qr_scan"}, "lon": -76.98786083333333, "type": "electric_scooter"}, {"bike_id": "81f90568047b90da992e7577f7a146db", "is_reserved": 0, "fusion_lon": 0.0, "lat": 38.902640833333336, "is_disabled": 0, "name": "81f90568047b90da992e7577f7a146db", "fusion_lat": 0.0, "rental_uris": {"ios": "https://dc.lft.to/lastmile_qr_scan", "android": "https://dc.lft.to/lastmile_qr_scan"}, "lon": -77.03261283333333, "type": "electric_scooter"}, {"bike_id": "5866828236620af1e3aa00d20b7c5956", "is_reserved": 0, "fusion_lon": 0.0, "lat": 38.925701333333336, "is_disabled": 0, "name": "5866828236620af1e3aa00d20b7c5956", "fusion_lat": 0.0, "rental_uris": {"ios": "https://dc.lft.to/lastmile_qr_scan", "android": "https://dc.lft.to/lastmile_qr_scan"}, "lon": -77.03100566666667, "type": "electric_scooter"}, {"bike_id": "7252560773d2591badb86d3bf1c2f0db", "is_reserved": 0, "fusion_lon": 0.0, "lat": 38.958979, "is_disabled": 0, "name": "7252560773d2591badb86d3bf1c2f0db", "fusion_lat": 0.0, "rental_uris": {"ios": "https://dc.lft.to/lastmile_qr_scan", "android": "https://dc.lft.to/lastmile_qr_scan"}, "lon": -76.9249225, "type": "electric_bike"}, {"bike_id": "896f64da05731e03a84e14e6094fc724", "is_reserved": 0, "fusion_lon": 0.0, "lat": 38.91845416666666, "is_disabled": 0, "name": "896f64da05731e03a84e14e6094fc724", "fusion_lat": 0.0, "rental_uris": {"ios": "https://dc.lft.to/lastmile_qr_scan", "android": "https://dc.lft.to/lastmile_qr_scan"}, "lon": -77.02315, "type": "electric_scooter"}, {"bike_id": "bd415b08c779632f360edc99fe3bcde7", "is_reserved": 0, "fusion_lon": 0.0, "lat": 38.91912766666667, "is_disabled": 0, "name": "bd415b08c779632f360edc99fe3bcde7", "fusion_lat": 0.0, "rental_uris": {"ios": "https://dc.lft.to/lastmile_qr_scan", "android": "https://dc.lft.to/lastmile_qr_scan"}, "lon": -77.03200466666667, "type": "electric_scooter"}, {"bike_id": "bd02e6ce22b627bdc43882e21c1d8384", "is_reserved": 0, "fusion_lon": 0.0, "lat": 38.87552783333334, "is_disabled": 0, "name": "bd02e6ce22b627bdc43882e21c1d8384", "fusion_lat": 0.0, "rental_uris": {"ios": "https://dc.lft.to/lastmile_qr_scan", "android": "https://dc.lft.to/lastmile_qr_scan"}, "lon": -76.96490966666667, "type": "electric_scooter"}, {"bike_id": "09b355f4949551839e4335f9929ec1d8", "is_reserved": 0, "fusion_lon": 0.0, "lat": 38.910356166666666, "is_disabled": 0, "name": "09b355f4949551839e4335f9929ec1d8", "fusion_lat": 0.0, "rental_uris": {"ios": "https://dc.lft.to/lastmile_qr_scan", "android": "https://dc.lft.to/lastmile_qr_scan"}, "lon": -77.04386983333333, "type": "electric_scooter"}, {"bike_id": "0c902eeaf00c91d11d3a2ed4ae7cf411", "is_reserved": 0, "fusion_lon": 0.0, "lat": 38.95552083333333, "is_disabled": 0, "name": "0c902eeaf00c91d11d3a2ed4ae7cf411", "fusion_lat": 0.0, "rental_uris": {"ios": "https://dc.lft.to/lastmile_qr_scan", "android": "https://dc.lft.to/lastmile_qr_scan"}, "lon": -76.94010933333334, "type": "electric_bike"}, {"bike_id": "f5d8c4b363ede3bb283729c5086c6e8b", "is_reserved": 0, "fusion_lon": 0.0, "lat": 38.901699, "is_disabled": 0, "name": "f5d8c4b363ede3bb283729c5086c6e8b", "fusion_lat": 0.0, "rental_uris": {"ios": "https://dc.lft.to/lastmile_qr_scan", "android": "https://dc.lft.to/lastmile_qr_scan"}, "lon": -77.02208283333333, "type": "electric_scooter"}, {"bike_id": "4ed972ef34e8738ea15c68e1a0fb4a5b", "is_reserved": 0, "fusion_lon": 0.0, "lat": 38.92235433333333, "is_disabled": 0, "name": "4ed972ef34e8738ea15c68e1a0fb4a5b", "fusion_lat": 0.0, "rental_uris": {"ios": "https://dc.lft.to/lastmile_qr_scan", "android": "https://dc.lft.to/lastmile_qr_scan"}, "lon": -77.04135233333334, "type": "electric_scooter"}, {"bike_id": "a3d764add5ead7c5b59baf8f9d477382", "is_reserved": 0, "fusion_lon": 0.0, "lat": 38.905866833333334, "is_disabled": 0, "name": "a3d764add5ead7c5b59baf8f9d477382", "fusion_lat": 0.0, "rental_uris": {"ios": "https://dc.lft.to/lastmile_qr_scan", "android": "https://dc.lft.to/lastmile_qr_scan"}, "lon": -77.034835, "type": "electric_scooter"}, {"bike_id": "9de7fefa56642f71a0c037894e4317e7", "is_reserved": 0, "fusion_lon": 0.0, "lat": 38.90359083333333, "is_disabled": 0, "name": "9de7fefa56642f71a0c037894e4317e7", "fusion_lat": 0.0, "rental_uris": {"ios": "https://dc.lft.to/lastmile_qr_scan", "android": "https://dc.lft.to/lastmile_qr_scan"}, "lon": -77.0391815, "type": "electric_scooter"}, {"bike_id": "ab7776b0d35c6374df8dfeb897f45f1c", "is_reserved": 0, "fusion_lon": 0.0, "lat": 38.880045833333334, "is_disabled": 0, "name": "ab7776b0d35c6374df8dfeb897f45f1c", "fusion_lat": 0.0, "rental_uris": {"ios": "https://dc.lft.to/lastmile_qr_scan", "android": "https://dc.lft.to/lastmile_qr_scan"}, "lon": -76.91595766666667, "type": "electric_bike"}, {"bike_id": "de4f4d185405acc055847bfe799c2b20", "is_reserved": 0, "fusion_lon": 0.0, "lat": 38.935131166666665, "is_disabled": 0, "name": "de4f4d185405acc055847bfe799c2b20", "fusion_lat": 0.0, "rental_uris": {"ios": "https://dc.lft.to/lastmile_qr_scan", "android": "https://dc.lft.to/lastmile_qr_scan"}, "lon": -77.03342866666667, "type": "electric_scooter"}, {"bike_id": "dc89f122eefbefe8944af7dc6b81bd4c", "is_reserved": 0, "fusion_lon": 0.0, "lat": 38.9089855, "is_disabled": 0, "name": "dc89f122eefbefe8944af7dc6b81bd4c", "fusion_lat": 0.0, "rental_uris": {"ios": "https://dc.lft.to/lastmile_qr_scan", "android": "https://dc.lft.to/lastmile_qr_scan"}, "lon": -77.08617183333334, "type": "electric_scooter"}, {"bike_id": "28b7d88f2bfd4469c932806c1b71e317", "is_reserved": 0, "fusion_lon": 0.0, "lat": 38.923443666666664, "is_disabled": 0, "name": "28b7d88f2bfd4469c932806c1b71e317", "fusion_lat": 0.0, "rental_uris": {"ios": "https://dc.lft.to/lastmile_qr_scan", "android": "https://dc.lft.to/lastmile_qr_scan"}, "lon": -77.03523883333334, "type": "electric_scooter"}, {"bike_id": "b8e4771ffbd4dc2509de1cf6dcdde496", "is_reserved": 0, "fusion_lon": 0.0, "lat": 38.883828333333334, "is_disabled": 0, "name": "b8e4771ffbd4dc2509de1cf6dcdde496", "fusion_lat": 0.0, "rental_uris": {"ios": "https://dc.lft.to/lastmile_qr_scan", "android": "https://dc.lft.to/lastmile_qr_scan"}, "lon": -76.949229, "type": "electric_scooter"}, {"bike_id": "533a99eee4fd8df116f0992828fcbe40", "is_reserved": 0, "fusion_lon": 0.0, "lat": 38.89248, "is_disabled": 0, "name": "533a99eee4fd8df116f0992828fcbe40", "fusion_lat": 0.0, "rental_uris": {"ios": "https://dc.lft.to/lastmile_qr_scan", "android": "https://dc.lft.to/lastmile_qr_scan"}, "lon": -77.031763, "type": "electric_scooter"}, {"bike_id": "681ad4321c02c75c4b6b64f139f35115", "is_reserved": 0, "fusion_lon": 0.0, "lat": 38.91719633333334, "is_disabled": 0, "name": "681ad4321c02c75c4b6b64f139f35115", "fusion_lat": 0.0, "rental_uris": {"ios": "https://dc.lft.to/lastmile_qr_scan", "android": "https://dc.lft.to/lastmile_qr_scan"}, "lon": -77.03838866666666, "type": "electric_scooter"}, {"bike_id": "b153f22e3013f8aba5a83d926fa481c2", "is_reserved": 0, "fusion_lon": 0.0, "lat": 38.920913666666664, "is_disabled": 0, "name": "b153f22e3013f8aba5a83d926fa481c2", "fusion_lat": 0.0, "rental_uris": {"ios": "https://dc.lft.to/lastmile_qr_scan", "android": "https://dc.lft.to/lastmile_qr_scan"}, "lon": -77.02412716666667, "type": "electric_scooter"}, {"bike_id": "1de5b5bdc730fc54d21461a7a43901b1", "is_reserved": 0, "fusion_lon": 0.0, "lat": 38.902856166666666, "is_disabled": 0, "name": "1de5b5bdc730fc54d21461a7a43901b1", "fusion_lat": 0.0, "rental_uris": {"ios": "https://dc.lft.to/lastmile_qr_scan", "android": "https://dc.lft.to/lastmile_qr_scan"}, "lon": -77.03641283333333, "type": "electric_scooter"}, {"bike_id": "4bc79d3b44a1e82e143d844a7299b732", "is_reserved": 0, "fusion_lon": 0.0, "lat": 38.824471, "is_disabled": 0, "name": "4bc79d3b44a1e82e143d844a7299b732", "fusion_lat": 0.0, "rental_uris": {"ios": "https://dc.lft.to/lastmile_qr_scan", "android": "https://dc.lft.to/lastmile_qr_scan"}, "lon": -77.07049466666666, "type": "electric_bike"}, {"bike_id": "2cd7287231824406c2f5955c1d16134f", "is_reserved": 0, "fusion_lon": 0.0, "lat": 38.933363666666665, "is_disabled": 0, "name": "2cd7287231824406c2f5955c1d16134f", "fusion_lat": 0.0, "rental_uris": {"ios": "https://dc.lft.to/lastmile_qr_scan", "android": "https://dc.lft.to/lastmile_qr_scan"}, "lon": -77.04200133333333, "type": "electric_bike"}, {"bike_id": "a161427038c6d1431b7db34f5b5365b4", "is_reserved": 0, "fusion_lon": 0.0, "lat": 38.92575883333333, "is_disabled": 0, "name": "a161427038c6d1431b7db34f5b5365b4", "fusion_lat": 0.0, "rental_uris": {"ios": "https://dc.lft.to/lastmile_qr_scan", "android": "https://dc.lft.to/lastmile_qr_scan"}, "lon": -77.0378125, "type": "electric_scooter"}, {"bike_id": "a8b524147589ee31923021f8a3c73cb6", "is_reserved": 0, "fusion_lon": 0.0, "lat": 38.9185905, "is_disabled": 0, "name": "a8b524147589ee31923021f8a3c73cb6", "fusion_lat": 0.0, "rental_uris": {"ios": "https://dc.lft.to/lastmile_qr_scan", "android": "https://dc.lft.to/lastmile_qr_scan"}, "lon": -76.9609275, "type": "electric_bike"}, {"bike_id": "0e87377abdab42984e42d78fc4f0be50", "is_reserved": 0, "fusion_lon": 0.0, "lat": 38.90520433333333, "is_disabled": 0, "name": "0e87377abdab42984e42d78fc4f0be50", "fusion_lat": 0.0, "rental_uris": {"ios": "https://dc.lft.to/lastmile_qr_scan", "android": "https://dc.lft.to/lastmile_qr_scan"}, "lon": -77.06534316666666, "type": "electric_scooter"}, {"bike_id": "d1d54bb9da5be27c4b524674c443238e", "is_reserved": 0, "fusion_lon": 0.0, "lat": 38.9274315, "is_disabled": 0, "name": "d1d54bb9da5be27c4b524674c443238e", "fusion_lat": 0.0, "rental_uris": {"ios": "https://dc.lft.to/lastmile_qr_scan", "android": "https://dc.lft.to/lastmile_qr_scan"}, "lon": -77.03636866666666, "type": "electric_bike"}, {"bike_id": "1d12666bfeddeeb4b5e7e8e74f6df1e7", "is_reserved": 0, "fusion_lon": 0.0, "lat": 38.9296215, "is_disabled": 0, "name": "1d12666bfeddeeb4b5e7e8e74f6df1e7", "fusion_lat": 0.0, "rental_uris": {"ios": "https://dc.lft.to/lastmile_qr_scan", "android": "https://dc.lft.to/lastmile_qr_scan"}, "lon": -77.01147033333334, "type": "electric_scooter"}, {"bike_id": "3e9d5dc52489273f78496599fabb7fe7", "is_reserved": 0, "fusion_lon": 0.0, "lat": 38.918011666666665, "is_disabled": 0, "name": "3e9d5dc52489273f78496599fabb7fe7", "fusion_lat": 0.0, "rental_uris": {"ios": "https://dc.lft.to/lastmile_qr_scan", "android": "https://dc.lft.to/lastmile_qr_scan"}, "lon": -77.03442966666667, "type": "electric_scooter"}, {"bike_id": "6b752e48f7a6981205f2061e8419aa46", "is_reserved": 0, "fusion_lon": 0.0, "lat": 38.9234765, "is_disabled": 0, "name": "6b752e48f7a6981205f2061e8419aa46", "fusion_lat": 0.0, "rental_uris": {"ios": "https://dc.lft.to/lastmile_qr_scan", "android": "https://dc.lft.to/lastmile_qr_scan"}, "lon": -77.03515683333333, "type": "electric_scooter"}, {"bike_id": "8890b50e0a18a3b942f72522a8bd1b45", "is_reserved": 0, "fusion_lon": 0.0, "lat": 38.845738833333336, "is_disabled": 0, "name": "8890b50e0a18a3b942f72522a8bd1b45", "fusion_lat": 0.0, "rental_uris": {"ios": "https://dc.lft.to/lastmile_qr_scan", "android": "https://dc.lft.to/lastmile_qr_scan"}, "lon": -77.09618233333333, "type": "electric_bike"}, {"bike_id": "292b54c0668c43713628ca50bfbec40a", "is_reserved": 0, "fusion_lon": 0.0, "lat": 38.921598, "is_disabled": 0, "name": "292b54c0668c43713628ca50bfbec40a", "fusion_lat": 0.0, "rental_uris": {"ios": "https://dc.lft.to/lastmile_qr_scan", "android": "https://dc.lft.to/lastmile_qr_scan"}, "lon": -77.04689783333333, "type": "electric_scooter"}, {"bike_id": "ceea07d40f8a1a1df9f050ab0c777c19", "is_reserved": 0, "fusion_lon": 0.0, "lat": 38.90530966666667, "is_disabled": 0, "name": "ceea07d40f8a1a1df9f050ab0c777c19", "fusion_lat": 0.0, "rental_uris": {"ios": "https://dc.lft.to/lastmile_qr_scan", "android": "https://dc.lft.to/lastmile_qr_scan"}, "lon": -77.057631, "type": "electric_scooter"}, {"bike_id": "dcf3292195608fce685f902d9da3e1b2", "is_reserved": 0, "fusion_lon": 0.0, "lat": 38.863753333333335, "is_disabled": 0, "name": "dcf3292195608fce685f902d9da3e1b2", "fusion_lat": 0.0, "rental_uris": {"ios": "https://dc.lft.to/lastmile_qr_scan", "android": "https://dc.lft.to/lastmile_qr_scan"}, "lon": -77.013608, "type": "electric_scooter"}, {"bike_id": "1d6f883d4fa9700e240b38261fcfb953", "is_reserved": 0, "fusion_lon": 0.0, "lat": 38.90873066666666, "is_disabled": 0, "name": "1d6f883d4fa9700e240b38261fcfb953", "fusion_lat": 0.0, "rental_uris": {"ios": "https://dc.lft.to/lastmile_qr_scan", "android": "https://dc.lft.to/lastmile_qr_scan"}, "lon": -77.03300483333334, "type": "electric_scooter"}, {"bike_id": "28d4e1def788725024e5032cda24e21b", "is_reserved": 0, "fusion_lon": 0.0, "lat": 38.89219883333333, "is_disabled": 0, "name": "28d4e1def788725024e5032cda24e21b", "fusion_lat": 0.0, "rental_uris": {"ios": "https://dc.lft.to/lastmile_qr_scan", "android": "https://dc.lft.to/lastmile_qr_scan"}, "lon": -77.03340183333333, "type": "electric_scooter"}, {"bike_id": "85f389f2bb475292e175e666e1637aed", "is_reserved": 0, "fusion_lon": 0.0, "lat": 38.906668, "is_disabled": 0, "name": "85f389f2bb475292e175e666e1637aed", "fusion_lat": 0.0, "rental_uris": {"ios": "https://dc.lft.to/lastmile_qr_scan", "android": "https://dc.lft.to/lastmile_qr_scan"}, "lon": -77.03858916666667, "type": "electric_scooter"}, {"bike_id": "23bd0def5b65e5e34009814c5b2ff067", "is_reserved": 0, "fusion_lon": 0.0, "lat": 38.9027125, "is_disabled": 0, "name": "23bd0def5b65e5e34009814c5b2ff067", "fusion_lat": 0.0, "rental_uris": {"ios": "https://dc.lft.to/lastmile_qr_scan", "android": "https://dc.lft.to/lastmile_qr_scan"}, "lon": -77.0531775, "type": "electric_scooter"}, {"bike_id": "b008bdbbfeb5034ccf8cadde7271f261", "is_reserved": 0, "fusion_lon": 0.0, "lat": 38.842889, "is_disabled": 0, "name": "b008bdbbfeb5034ccf8cadde7271f261", "fusion_lat": 0.0, "rental_uris": {"ios": "https://dc.lft.to/lastmile_qr_scan", "android": "https://dc.lft.to/lastmile_qr_scan"}, "lon": -76.99944233333333, "type": "electric_scooter"}, {"bike_id": "d7de35918b5318f340795e40b5e21154", "is_reserved": 0, "fusion_lon": 0.0, "lat": 38.90561133333333, "is_disabled": 0, "name": "d7de35918b5318f340795e40b5e21154", "fusion_lat": 0.0, "rental_uris": {"ios": "https://dc.lft.to/lastmile_qr_scan", "android": "https://dc.lft.to/lastmile_qr_scan"}, "lon": -77.01674816666667, "type": "electric_scooter"}, {"bike_id": "28be565127fa9719ac70877e4fda8b9e", "is_reserved": 0, "fusion_lon": 0.0, "lat": 38.886744666666665, "is_disabled": 0, "name": "28be565127fa9719ac70877e4fda8b9e", "fusion_lat": 0.0, "rental_uris": {"ios": "https://dc.lft.to/lastmile_qr_scan", "android": "https://dc.lft.to/lastmile_qr_scan"}, "lon": -77.01373483333333, "type": "electric_scooter"}, {"bike_id": "86d1b77160300814994ef1cc9cbb7918", "is_reserved": 0, "fusion_lon": 0.0, "lat": 38.906642166666664, "is_disabled": 0, "name": "86d1b77160300814994ef1cc9cbb7918", "fusion_lat": 0.0, "rental_uris": {"ios": "https://dc.lft.to/lastmile_qr_scan", "android": "https://dc.lft.to/lastmile_qr_scan"}, "lon": -77.00961466666666, "type": "electric_scooter"}, {"bike_id": "b6aa7b3eac30589b527dd1123274ca15", "is_reserved": 0, "fusion_lon": 0.0, "lat": 38.927429833333335, "is_disabled": 0, "name": "b6aa7b3eac30589b527dd1123274ca15", "fusion_lat": 0.0, "rental_uris": {"ios": "https://dc.lft.to/lastmile_qr_scan", "android": "https://dc.lft.to/lastmile_qr_scan"}, "lon": -77.05365783333333, "type": "electric_scooter"}, {"bike_id": "24374f4c8bc34e6c9f7cb5a488314fad", "is_reserved": 0, "fusion_lon": 0.0, "lat": 38.89226466666667, "is_disabled": 0, "name": "24374f4c8bc34e6c9f7cb5a488314fad", "fusion_lat": 0.0, "rental_uris": {"ios": "https://dc.lft.to/lastmile_qr_scan", "android": "https://dc.lft.to/lastmile_qr_scan"}, "lon": -77.03218816666667, "type": "electric_scooter"}, {"bike_id": "d57fb219a70e957aa239a5e0e55ca0c5", "is_reserved": 0, "fusion_lon": 0.0, "lat": 38.90261016666667, "is_disabled": 0, "name": "d57fb219a70e957aa239a5e0e55ca0c5", "fusion_lat": 0.0, "rental_uris": {"ios": "https://dc.lft.to/lastmile_qr_scan", "android": "https://dc.lft.to/lastmile_qr_scan"}, "lon": -77.03950983333333, "type": "electric_scooter"}, {"bike_id": "3b5bccde6b073105746e5e767f1f1667", "is_reserved": 0, "fusion_lon": 0.0, "lat": 38.912062666666664, "is_disabled": 0, "name": "3b5bccde6b073105746e5e767f1f1667", "fusion_lat": 0.0, "rental_uris": {"ios": "https://dc.lft.to/lastmile_qr_scan", "android": "https://dc.lft.to/lastmile_qr_scan"}, "lon": -77.02961966666666, "type": "electric_scooter"}, {"bike_id": "c7389c08f5a174b283c551ce956737e8", "is_reserved": 0, "fusion_lon": 0.0, "lat": 38.90273283333333, "is_disabled": 0, "name": "c7389c08f5a174b283c551ce956737e8", "fusion_lat": 0.0, "rental_uris": {"ios": "https://dc.lft.to/lastmile_qr_scan", "android": "https://dc.lft.to/lastmile_qr_scan"}, "lon": -77.0383255, "type": "electric_scooter"}, {"bike_id": "5bc9623582757209b69c717521928f16", "is_reserved": 0, "fusion_lon": 0.0, "lat": 38.85243666666667, "is_disabled": 0, "name": "5bc9623582757209b69c717521928f16", "fusion_lat": 0.0, "rental_uris": {"ios": "https://dc.lft.to/lastmile_qr_scan", "android": "https://dc.lft.to/lastmile_qr_scan"}, "lon": -77.114224, "type": "electric_bike"}, {"bike_id": "f57ca0b8880c68669cfbe975ad6a7f7b", "is_reserved": 0, "fusion_lon": 0.0, "lat": 38.921314, "is_disabled": 0, "name": "f57ca0b8880c68669cfbe975ad6a7f7b", "fusion_lat": 0.0, "rental_uris": {"ios": "https://dc.lft.to/lastmile_qr_scan", "android": "https://dc.lft.to/lastmile_qr_scan"}, "lon": -77.02209483333333, "type": "electric_scooter"}, {"bike_id": "16676504771bf35465ef72921fa3bbb7", "is_reserved": 0, "fusion_lon": 0.0, "lat": 38.911186666666666, "is_disabled": 0, "name": "16676504771bf35465ef72921fa3bbb7", "fusion_lat": 0.0, "rental_uris": {"ios": "https://dc.lft.to/lastmile_qr_scan", "android": "https://dc.lft.to/lastmile_qr_scan"}, "lon": -77.03729533333333, "type": "electric_scooter"}, {"bike_id": "1c7c511aaf5e0dfd1f8aa9fa9c8133fb", "is_reserved": 0, "fusion_lon": 0.0, "lat": 38.89006283333333, "is_disabled": 0, "name": "1c7c511aaf5e0dfd1f8aa9fa9c8133fb", "fusion_lat": 0.0, "rental_uris": {"ios": "https://dc.lft.to/lastmile_qr_scan", "android": "https://dc.lft.to/lastmile_qr_scan"}, "lon": -76.93744983333333, "type": "electric_scooter"}, {"bike_id": "11fa1a456224bc7b8cd61b9ab97603d9", "is_reserved": 0, "fusion_lon": 0.0, "lat": 38.93513433333333, "is_disabled": 0, "name": "11fa1a456224bc7b8cd61b9ab97603d9", "fusion_lat": 0.0, "rental_uris": {"ios": "https://dc.lft.to/lastmile_qr_scan", "android": "https://dc.lft.to/lastmile_qr_scan"}, "lon": -77.03298333333333, "type": "electric_scooter"}, {"bike_id": "fa8c9cc834d8e42d031a368fc145de11", "is_reserved": 0, "fusion_lon": 0.0, "lat": 38.910473, "is_disabled": 0, "name": "fa8c9cc834d8e42d031a368fc145de11", "fusion_lat": 0.0, "rental_uris": {"ios": "https://dc.lft.to/lastmile_qr_scan", "android": "https://dc.lft.to/lastmile_qr_scan"}, "lon": -77.02181816666666, "type": "electric_scooter"}, {"bike_id": "b2f17b02b943ee78f6acea8c32fafae1", "is_reserved": 0, "fusion_lon": 0.0, "lat": 39.05812233333333, "is_disabled": 0, "name": "b2f17b02b943ee78f6acea8c32fafae1", "fusion_lat": 0.0, "rental_uris": {"ios": "https://dc.lft.to/lastmile_qr_scan", "android": "https://dc.lft.to/lastmile_qr_scan"}, "lon": -77.12625416666667, "type": "electric_bike"}, {"bike_id": "b1b9237ca588efe8451fa269d44e9120", "is_reserved": 0, "fusion_lon": 0.0, "lat": 38.902401833333336, "is_disabled": 0, "name": "b1b9237ca588efe8451fa269d44e9120", "fusion_lat": 0.0, "rental_uris": {"ios": "https://dc.lft.to/lastmile_qr_scan", "android": "https://dc.lft.to/lastmile_qr_scan"}, "lon": -77.00198183333333, "type": "electric_scooter"}, {"bike_id": "596324c55cb567daa926365c5f8a5d77", "is_reserved": 0, "fusion_lon": 0.0, "lat": 38.896197666666666, "is_disabled": 0, "name": "596324c55cb567daa926365c5f8a5d77", "fusion_lat": 0.0, "rental_uris": {"ios": "https://dc.lft.to/lastmile_qr_scan", "android": "https://dc.lft.to/lastmile_qr_scan"}, "lon": -77.011326, "type": "electric_scooter"}, {"bike_id": "e34093144edd08295ac97e8af95c6e6b", "is_reserved": 0, "fusion_lon": 0.0, "lat": 38.89859083333333, "is_disabled": 0, "name": "e34093144edd08295ac97e8af95c6e6b", "fusion_lat": 0.0, "rental_uris": {"ios": "https://dc.lft.to/lastmile_qr_scan", "android": "https://dc.lft.to/lastmile_qr_scan"}, "lon": -77.02880566666667, "type": "electric_scooter"}, {"bike_id": "676b7f164b48c4c8a56471cea7ade30e", "is_reserved": 0, "fusion_lon": 0.0, "lat": 38.846087, "is_disabled": 0, "name": "676b7f164b48c4c8a56471cea7ade30e", "fusion_lat": 0.0, "rental_uris": {"ios": "https://dc.lft.to/lastmile_qr_scan", "android": "https://dc.lft.to/lastmile_qr_scan"}, "lon": -76.97836616666666, "type": "electric_bike"}, {"bike_id": "3f0cb1ea23e04ca18a5e12e1fd9ca479", "is_reserved": 0, "fusion_lon": 0.0, "lat": 38.9002105, "is_disabled": 0, "name": "3f0cb1ea23e04ca18a5e12e1fd9ca479", "fusion_lat": 0.0, "rental_uris": {"ios": "https://dc.lft.to/lastmile_qr_scan", "android": "https://dc.lft.to/lastmile_qr_scan"}, "lon": -77.0119705, "type": "electric_scooter"}, {"bike_id": "0131193a080ca95c817e1cc0cd1d097c", "is_reserved": 0, "fusion_lon": 0.0, "lat": 38.895507, "is_disabled": 0, "name": "0131193a080ca95c817e1cc0cd1d097c", "fusion_lat": 0.0, "rental_uris": {"ios": "https://dc.lft.to/lastmile_qr_scan", "android": "https://dc.lft.to/lastmile_qr_scan"}, "lon": -76.93043566666667, "type": "electric_scooter"}, {"bike_id": "dd691779bcd591bbdbe4766fbb3eb32d", "is_reserved": 0, "fusion_lon": 0.0, "lat": 38.910478833333336, "is_disabled": 0, "name": "dd691779bcd591bbdbe4766fbb3eb32d", "fusion_lat": 0.0, "rental_uris": {"ios": "https://dc.lft.to/lastmile_qr_scan", "android": "https://dc.lft.to/lastmile_qr_scan"}, "lon": -77.01506383333333, "type": "electric_scooter"}, {"bike_id": "24fccef9d8327ac16f83510c77ec75ce", "is_reserved": 0, "fusion_lon": 0.0, "lat": 38.892218, "is_disabled": 0, "name": "24fccef9d8327ac16f83510c77ec75ce", "fusion_lat": 0.0, "rental_uris": {"ios": "https://dc.lft.to/lastmile_qr_scan", "android": "https://dc.lft.to/lastmile_qr_scan"}, "lon": -77.039778, "type": "electric_scooter"}, {"bike_id": "6f04f1108314b17c4d0ce09c324bb4e3", "is_reserved": 0, "fusion_lon": 0.0, "lat": 38.915894333333334, "is_disabled": 0, "name": "6f04f1108314b17c4d0ce09c324bb4e3", "fusion_lat": 0.0, "rental_uris": {"ios": "https://dc.lft.to/lastmile_qr_scan", "android": "https://dc.lft.to/lastmile_qr_scan"}, "lon": -76.9837195, "type": "electric_scooter"}, {"bike_id": "8eecd43d6d13d12ae2c235b854730c21", "is_reserved": 0, "fusion_lon": 0.0, "lat": 38.92495683333333, "is_disabled": 0, "name": "8eecd43d6d13d12ae2c235b854730c21", "fusion_lat": 0.0, "rental_uris": {"ios": "https://dc.lft.to/lastmile_qr_scan", "android": "https://dc.lft.to/lastmile_qr_scan"}, "lon": -77.0216805, "type": "electric_scooter"}, {"bike_id": "d59ab429bc02d5599107c7d0ce2859c3", "is_reserved": 0, "fusion_lon": 0.0, "lat": 38.953579166666664, "is_disabled": 0, "name": "d59ab429bc02d5599107c7d0ce2859c3", "fusion_lat": 0.0, "rental_uris": {"ios": "https://dc.lft.to/lastmile_qr_scan", "android": "https://dc.lft.to/lastmile_qr_scan"}, "lon": -76.98094433333333, "type": "electric_bike"}, {"bike_id": "8042231b8254d85768c9523a28e01bd3", "is_reserved": 0, "fusion_lon": 0.0, "lat": 38.914712, "is_disabled": 0, "name": "8042231b8254d85768c9523a28e01bd3", "fusion_lat": 0.0, "rental_uris": {"ios": "https://dc.lft.to/lastmile_qr_scan", "android": "https://dc.lft.to/lastmile_qr_scan"}, "lon": -77.00831966666667, "type": "electric_scooter"}, {"bike_id": "0c5f5b371b058a50adb90a1b7c95596e", "is_reserved": 0, "fusion_lon": 0.0, "lat": 38.883141333333334, "is_disabled": 0, "name": "0c5f5b371b058a50adb90a1b7c95596e", "fusion_lat": 0.0, "rental_uris": {"ios": "https://dc.lft.to/lastmile_qr_scan", "android": "https://dc.lft.to/lastmile_qr_scan"}, "lon": -77.00595016666666, "type": "electric_scooter"}, {"bike_id": "b323ee26408dd1756f14bf127d046302", "is_reserved": 0, "fusion_lon": 0.0, "lat": 38.910888666666665, "is_disabled": 0, "name": "b323ee26408dd1756f14bf127d046302", "fusion_lat": 0.0, "rental_uris": {"ios": "https://dc.lft.to/lastmile_qr_scan", "android": "https://dc.lft.to/lastmile_qr_scan"}, "lon": -77.0385315, "type": "electric_scooter"}, {"bike_id": "cb24572990642502f3d625ee02ab22e6", "is_reserved": 0, "fusion_lon": 0.0, "lat": 38.93253633333333, "is_disabled": 0, "name": "cb24572990642502f3d625ee02ab22e6", "fusion_lat": 0.0, "rental_uris": {"ios": "https://dc.lft.to/lastmile_qr_scan", "android": "https://dc.lft.to/lastmile_qr_scan"}, "lon": -77.0328245, "type": "electric_scooter"}, {"bike_id": "4fe81cb87375e6e677ef11f65d209bf4", "is_reserved": 0, "fusion_lon": 0.0, "lat": 38.884936833333335, "is_disabled": 0, "name": "4fe81cb87375e6e677ef11f65d209bf4", "fusion_lat": 0.0, "rental_uris": {"ios": "https://dc.lft.to/lastmile_qr_scan", "android": "https://dc.lft.to/lastmile_qr_scan"}, "lon": -77.0072, "type": "electric_scooter"}, {"bike_id": "a20730faf62150a271bf4f9a8b0907a9", "is_reserved": 0, "fusion_lon": 0.0, "lat": 38.92654366666667, "is_disabled": 0, "name": "a20730faf62150a271bf4f9a8b0907a9", "fusion_lat": 0.0, "rental_uris": {"ios": "https://dc.lft.to/lastmile_qr_scan", "android": "https://dc.lft.to/lastmile_qr_scan"}, "lon": -77.03710633333333, "type": "electric_scooter"}, {"bike_id": "bef283ef66a8e652473bd2dab07c2b7a", "is_reserved": 0, "fusion_lon": 0.0, "lat": 38.91805, "is_disabled": 0, "name": "bef283ef66a8e652473bd2dab07c2b7a", "fusion_lat": 0.0, "rental_uris": {"ios": "https://dc.lft.to/lastmile_qr_scan", "android": "https://dc.lft.to/lastmile_qr_scan"}, "lon": -77.03437966666667, "type": "electric_scooter"}, {"bike_id": "9f524eb902b5d4921a334d0e8cfe89f5", "is_reserved": 0, "fusion_lon": 0.0, "lat": 38.95908416666666, "is_disabled": 0, "name": "9f524eb902b5d4921a334d0e8cfe89f5", "fusion_lat": 0.0, "rental_uris": {"ios": "https://dc.lft.to/lastmile_qr_scan", "android": "https://dc.lft.to/lastmile_qr_scan"}, "lon": -77.080759, "type": "electric_scooter"}, {"bike_id": "7477ff9ba2bb829c1bab5f2c5423ee86", "is_reserved": 0, "fusion_lon": 0.0, "lat": 38.934002, "is_disabled": 0, "name": "7477ff9ba2bb829c1bab5f2c5423ee86", "fusion_lat": 0.0, "rental_uris": {"ios": "https://dc.lft.to/lastmile_qr_scan", "android": "https://dc.lft.to/lastmile_qr_scan"}, "lon": -77.03880966666667, "type": "electric_scooter"}, {"bike_id": "ed9dcee9db88cb3e75ff02ccf20c5cc5", "is_reserved": 0, "fusion_lon": 0.0, "lat": 38.90790116666667, "is_disabled": 0, "name": "ed9dcee9db88cb3e75ff02ccf20c5cc5", "fusion_lat": 0.0, "rental_uris": {"ios": "https://dc.lft.to/lastmile_qr_scan", "android": "https://dc.lft.to/lastmile_qr_scan"}, "lon": -77.04870416666667, "type": "electric_scooter"}, {"bike_id": "5e5dba5ae98c417345a82095ad065eaf", "is_reserved": 0, "fusion_lon": 0.0, "lat": 38.864154666666664, "is_disabled": 0, "name": "5e5dba5ae98c417345a82095ad065eaf", "fusion_lat": 0.0, "rental_uris": {"ios": "https://dc.lft.to/lastmile_qr_scan", "android": "https://dc.lft.to/lastmile_qr_scan"}, "lon": -76.98045933333333, "type": "electric_scooter"}, {"bike_id": "fe35aa1fb3af0a702c27096c8a9d2ce5", "is_reserved": 0, "fusion_lon": 0.0, "lat": 38.88590633333333, "is_disabled": 0, "name": "fe35aa1fb3af0a702c27096c8a9d2ce5", "fusion_lat": 0.0, "rental_uris": {"ios": "https://dc.lft.to/lastmile_qr_scan", "android": "https://dc.lft.to/lastmile_qr_scan"}, "lon": -76.95263183333333, "type": "electric_scooter"}, {"bike_id": "ab8fd1b39852a5361895c6b54259fd27", "is_reserved": 0, "fusion_lon": 0.0, "lat": 38.94505016666667, "is_disabled": 0, "name": "ab8fd1b39852a5361895c6b54259fd27", "fusion_lat": 0.0, "rental_uris": {"ios": "https://dc.lft.to/lastmile_qr_scan", "android": "https://dc.lft.to/lastmile_qr_scan"}, "lon": -77.00667433333334, "type": "electric_bike"}, {"bike_id": "077d4b7e2fc308899d199c26b21c343a", "is_reserved": 0, "fusion_lon": 0.0, "lat": 38.86432383333333, "is_disabled": 0, "name": "077d4b7e2fc308899d199c26b21c343a", "fusion_lat": 0.0, "rental_uris": {"ios": "https://dc.lft.to/lastmile_qr_scan", "android": "https://dc.lft.to/lastmile_qr_scan"}, "lon": -76.97419766666667, "type": "electric_scooter"}, {"bike_id": "a17ae5c8fe35c9bc12c73c492cd80c9a", "is_reserved": 0, "fusion_lon": 0.0, "lat": 38.924465, "is_disabled": 0, "name": "a17ae5c8fe35c9bc12c73c492cd80c9a", "fusion_lat": 0.0, "rental_uris": {"ios": "https://dc.lft.to/lastmile_qr_scan", "android": "https://dc.lft.to/lastmile_qr_scan"}, "lon": -77.020347, "type": "electric_scooter"}, {"bike_id": "7ea57eaafabd47ceb2cb3bf8bee554b5", "is_reserved": 0, "fusion_lon": 0.0, "lat": 38.895294166666666, "is_disabled": 0, "name": "7ea57eaafabd47ceb2cb3bf8bee554b5", "fusion_lat": 0.0, "rental_uris": {"ios": "https://dc.lft.to/lastmile_qr_scan", "android": "https://dc.lft.to/lastmile_qr_scan"}, "lon": -77.03346316666666, "type": "electric_scooter"}, {"bike_id": "20290f55e7b37a6b1129893afe237464", "is_reserved": 0, "fusion_lon": 0.0, "lat": 38.832346333333334, "is_disabled": 0, "name": "20290f55e7b37a6b1129893afe237464", "fusion_lat": 0.0, "rental_uris": {"ios": "https://dc.lft.to/lastmile_qr_scan", "android": "https://dc.lft.to/lastmile_qr_scan"}, "lon": -76.94624166666667, "type": "electric_bike"}, {"bike_id": "96057becd9b08f21f6efc0183bf80f69", "is_reserved": 0, "fusion_lon": 0.0, "lat": 38.91404133333333, "is_disabled": 0, "name": "96057becd9b08f21f6efc0183bf80f69", "fusion_lat": 0.0, "rental_uris": {"ios": "https://dc.lft.to/lastmile_qr_scan", "android": "https://dc.lft.to/lastmile_qr_scan"}, "lon": -77.04566333333334, "type": "electric_scooter"}, {"bike_id": "491d3ef161a0e88c21c9764e607d22fa", "is_reserved": 0, "fusion_lon": 0.0, "lat": 38.924478666666666, "is_disabled": 0, "name": "491d3ef161a0e88c21c9764e607d22fa", "fusion_lat": 0.0, "rental_uris": {"ios": "https://dc.lft.to/lastmile_qr_scan", "android": "https://dc.lft.to/lastmile_qr_scan"}, "lon": -77.03373033333334, "type": "electric_scooter"}, {"bike_id": "75812039ce138806e8005f5b6b93b58e", "is_reserved": 0, "fusion_lon": 0.0, "lat": 38.940938833333334, "is_disabled": 0, "name": "75812039ce138806e8005f5b6b93b58e", "fusion_lat": 0.0, "rental_uris": {"ios": "https://dc.lft.to/lastmile_qr_scan", "android": "https://dc.lft.to/lastmile_qr_scan"}, "lon": -77.03279616666667, "type": "electric_scooter"}, {"bike_id": "2640949381716cfd4d0dbce6241529f5", "is_reserved": 0, "fusion_lon": 0.0, "lat": 38.908322166666665, "is_disabled": 0, "name": "2640949381716cfd4d0dbce6241529f5", "fusion_lat": 0.0, "rental_uris": {"ios": "https://dc.lft.to/lastmile_qr_scan", "android": "https://dc.lft.to/lastmile_qr_scan"}, "lon": -77.04468966666667, "type": "electric_scooter"}, {"bike_id": "b533c79a640dbba511df7c2a6538be02", "is_reserved": 0, "fusion_lon": 0.0, "lat": 38.91048033333333, "is_disabled": 0, "name": "b533c79a640dbba511df7c2a6538be02", "fusion_lat": 0.0, "rental_uris": {"ios": "https://dc.lft.to/lastmile_qr_scan", "android": "https://dc.lft.to/lastmile_qr_scan"}, "lon": -77.01510233333333, "type": "electric_scooter"}, {"bike_id": "286974317fa8ec46b468007f7490ceef", "is_reserved": 0, "fusion_lon": 0.0, "lat": 38.97236433333333, "is_disabled": 0, "name": "286974317fa8ec46b468007f7490ceef", "fusion_lat": 0.0, "rental_uris": {"ios": "https://dc.lft.to/lastmile_qr_scan", "android": "https://dc.lft.to/lastmile_qr_scan"}, "lon": -77.02714766666666, "type": "electric_scooter"}, {"bike_id": "12f95a8f5fa1f93d00d174972883f621", "is_reserved": 0, "fusion_lon": 0.0, "lat": 38.9319945, "is_disabled": 0, "name": "12f95a8f5fa1f93d00d174972883f621", "fusion_lat": 0.0, "rental_uris": {"ios": "https://dc.lft.to/lastmile_qr_scan", "android": "https://dc.lft.to/lastmile_qr_scan"}, "lon": -77.03847583333334, "type": "electric_scooter"}, {"bike_id": "fccf63f45b408ced57ffb1e7eb53ac5f", "is_reserved": 0, "fusion_lon": 0.0, "lat": 38.89759683333333, "is_disabled": 0, "name": "fccf63f45b408ced57ffb1e7eb53ac5f", "fusion_lat": 0.0, "rental_uris": {"ios": "https://dc.lft.to/lastmile_qr_scan", "android": "https://dc.lft.to/lastmile_qr_scan"}, "lon": -76.94182816666667, "type": "electric_scooter"}, {"bike_id": "b1fa5b6e12f374ef4f5a0170a04a4201", "is_reserved": 0, "fusion_lon": 0.0, "lat": 38.92087133333333, "is_disabled": 0, "name": "b1fa5b6e12f374ef4f5a0170a04a4201", "fusion_lat": 0.0, "rental_uris": {"ios": "https://dc.lft.to/lastmile_qr_scan", "android": "https://dc.lft.to/lastmile_qr_scan"}, "lon": -77.02592133333333, "type": "electric_scooter"}, {"bike_id": "ae392bbdd265c2c0ba9fe724af0771e2", "is_reserved": 0, "fusion_lon": 0.0, "lat": 38.904445833333334, "is_disabled": 0, "name": "ae392bbdd265c2c0ba9fe724af0771e2", "fusion_lat": 0.0, "rental_uris": {"ios": "https://dc.lft.to/lastmile_qr_scan", "android": "https://dc.lft.to/lastmile_qr_scan"}, "lon": -77.048827, "type": "electric_scooter"}, {"bike_id": "bfb75a354577f46aed4539b060fb615e", "is_reserved": 0, "fusion_lon": 0.0, "lat": 38.931515833333336, "is_disabled": 0, "name": "bfb75a354577f46aed4539b060fb615e", "fusion_lat": 0.0, "rental_uris": {"ios": "https://dc.lft.to/lastmile_qr_scan", "android": "https://dc.lft.to/lastmile_qr_scan"}, "lon": -77.0383165, "type": "electric_scooter"}, {"bike_id": "d3056c6f22ed41930f9e7c3f1982bd7f", "is_reserved": 0, "fusion_lon": 0.0, "lat": 38.9258985, "is_disabled": 0, "name": "d3056c6f22ed41930f9e7c3f1982bd7f", "fusion_lat": 0.0, "rental_uris": {"ios": "https://dc.lft.to/lastmile_qr_scan", "android": "https://dc.lft.to/lastmile_qr_scan"}, "lon": -77.00562183333334, "type": "electric_scooter"}, {"bike_id": "c40d6bb94c0595eca6162e7809b5eccd", "is_reserved": 0, "fusion_lon": 0.0, "lat": 38.884367, "is_disabled": 0, "name": "c40d6bb94c0595eca6162e7809b5eccd", "fusion_lat": 0.0, "rental_uris": {"ios": "https://dc.lft.to/lastmile_qr_scan", "android": "https://dc.lft.to/lastmile_qr_scan"}, "lon": -76.95751866666667, "type": "electric_scooter"}, {"bike_id": "d17dff12b81fc07c21f6572497b0f879", "is_reserved": 0, "fusion_lon": 0.0, "lat": 38.912553, "is_disabled": 0, "name": "d17dff12b81fc07c21f6572497b0f879", "fusion_lat": 0.0, "rental_uris": {"ios": "https://dc.lft.to/lastmile_qr_scan", "android": "https://dc.lft.to/lastmile_qr_scan"}, "lon": -77.031254, "type": "electric_scooter"}, {"bike_id": "ad5072c799c5feffc7b6f224158d426f", "is_reserved": 0, "fusion_lon": 0.0, "lat": 38.91668466666667, "is_disabled": 0, "name": "ad5072c799c5feffc7b6f224158d426f", "fusion_lat": 0.0, "rental_uris": {"ios": "https://dc.lft.to/lastmile_qr_scan", "android": "https://dc.lft.to/lastmile_qr_scan"}, "lon": -77.02705466666667, "type": "electric_scooter"}, {"bike_id": "928dd1a5c1b74fd4d7e832da28057a60", "is_reserved": 0, "fusion_lon": 0.0, "lat": 38.899041833333335, "is_disabled": 0, "name": "928dd1a5c1b74fd4d7e832da28057a60", "fusion_lat": 0.0, "rental_uris": {"ios": "https://dc.lft.to/lastmile_qr_scan", "android": "https://dc.lft.to/lastmile_qr_scan"}, "lon": -76.93352616666667, "type": "electric_scooter"}, {"bike_id": "decb89645e3fe4a87ad2725d19e3eaa9", "is_reserved": 0, "fusion_lon": 0.0, "lat": 38.905674833333336, "is_disabled": 0, "name": "decb89645e3fe4a87ad2725d19e3eaa9", "fusion_lat": 0.0, "rental_uris": {"ios": "https://dc.lft.to/lastmile_qr_scan", "android": "https://dc.lft.to/lastmile_qr_scan"}, "lon": -77.00578916666667, "type": "electric_scooter"}, {"bike_id": "734cdf59bbbeb40854b71039fcbcc186", "is_reserved": 0, "fusion_lon": 0.0, "lat": 38.92066366666667, "is_disabled": 0, "name": "734cdf59bbbeb40854b71039fcbcc186", "fusion_lat": 0.0, "rental_uris": {"ios": "https://dc.lft.to/lastmile_qr_scan", "android": "https://dc.lft.to/lastmile_qr_scan"}, "lon": -77.04255116666667, "type": "electric_scooter"}, {"bike_id": "e497b6d9b0c110307d07595971412fbd", "is_reserved": 0, "fusion_lon": 0.0, "lat": 38.924740666666665, "is_disabled": 0, "name": "e497b6d9b0c110307d07595971412fbd", "fusion_lat": 0.0, "rental_uris": {"ios": "https://dc.lft.to/lastmile_qr_scan", "android": "https://dc.lft.to/lastmile_qr_scan"}, "lon": -77.03543166666667, "type": "electric_scooter"}, {"bike_id": "d0dfdddcf6178bb8a6623b3cbc7aa2b7", "is_reserved": 0, "fusion_lon": 0.0, "lat": 38.95477966666667, "is_disabled": 0, "name": "d0dfdddcf6178bb8a6623b3cbc7aa2b7", "fusion_lat": 0.0, "rental_uris": {"ios": "https://dc.lft.to/lastmile_qr_scan", "android": "https://dc.lft.to/lastmile_qr_scan"}, "lon": -77.08239433333334, "type": "electric_bike"}, {"bike_id": "6314929122d81e23bc5718937783ac88", "is_reserved": 0, "fusion_lon": 0.0, "lat": 38.97051066666667, "is_disabled": 0, "name": "6314929122d81e23bc5718937783ac88", "fusion_lat": 0.0, "rental_uris": {"ios": "https://dc.lft.to/lastmile_qr_scan", "android": "https://dc.lft.to/lastmile_qr_scan"}, "lon": -76.936153, "type": "electric_bike"}, {"bike_id": "a21cb59793ee265f29adfe151518e98f", "is_reserved": 0, "fusion_lon": 0.0, "lat": 38.916046333333334, "is_disabled": 0, "name": "a21cb59793ee265f29adfe151518e98f", "fusion_lat": 0.0, "rental_uris": {"ios": "https://dc.lft.to/lastmile_qr_scan", "android": "https://dc.lft.to/lastmile_qr_scan"}, "lon": -77.04351533333333, "type": "electric_scooter"}, {"bike_id": "407265687c66be28984a28d24edb4dc8", "is_reserved": 0, "fusion_lon": 0.0, "lat": 38.928562666666664, "is_disabled": 0, "name": "407265687c66be28984a28d24edb4dc8", "fusion_lat": 0.0, "rental_uris": {"ios": "https://dc.lft.to/lastmile_qr_scan", "android": "https://dc.lft.to/lastmile_qr_scan"}, "lon": -77.03595, "type": "electric_scooter"}, {"bike_id": "a1c28103204902b0f5d0d7b645867962", "is_reserved": 0, "fusion_lon": 0.0, "lat": 38.905591666666666, "is_disabled": 0, "name": "a1c28103204902b0f5d0d7b645867962", "fusion_lat": 0.0, "rental_uris": {"ios": "https://dc.lft.to/lastmile_qr_scan", "android": "https://dc.lft.to/lastmile_qr_scan"}, "lon": -77.00580833333333, "type": "electric_scooter"}, {"bike_id": "73df71e17f9d28a521d93cadaa82c50d", "is_reserved": 0, "fusion_lon": 0.0, "lat": 38.883441, "is_disabled": 0, "name": "73df71e17f9d28a521d93cadaa82c50d", "fusion_lat": 0.0, "rental_uris": {"ios": "https://dc.lft.to/lastmile_qr_scan", "android": "https://dc.lft.to/lastmile_qr_scan"}, "lon": -77.01766933333333, "type": "electric_scooter"}, {"bike_id": "2f2bd8a25dc3cfcf8166e2246d5c508b", "is_reserved": 0, "fusion_lon": 0.0, "lat": 38.91842616666667, "is_disabled": 0, "name": "2f2bd8a25dc3cfcf8166e2246d5c508b", "fusion_lat": 0.0, "rental_uris": {"ios": "https://dc.lft.to/lastmile_qr_scan", "android": "https://dc.lft.to/lastmile_qr_scan"}, "lon": -77.03898716666667, "type": "electric_scooter"}, {"bike_id": "58b08c3874f584057d5183f04c7e8c1b", "is_reserved": 0, "fusion_lon": 0.0, "lat": 38.89758066666667, "is_disabled": 0, "name": "58b08c3874f584057d5183f04c7e8c1b", "fusion_lat": 0.0, "rental_uris": {"ios": "https://dc.lft.to/lastmile_qr_scan", "android": "https://dc.lft.to/lastmile_qr_scan"}, "lon": -77.02681383333334, "type": "electric_scooter"}, {"bike_id": "02a8e72f581ed848778957448b9d3bce", "is_reserved": 0, "fusion_lon": 0.0, "lat": 38.88497516666666, "is_disabled": 0, "name": "02a8e72f581ed848778957448b9d3bce", "fusion_lat": 0.0, "rental_uris": {"ios": "https://dc.lft.to/lastmile_qr_scan", "android": "https://dc.lft.to/lastmile_qr_scan"}, "lon": -77.00565666666667, "type": "electric_scooter"}, {"bike_id": "d96c2892d7ff86fc78c4a567aa63ac66", "is_reserved": 0, "fusion_lon": 0.0, "lat": 38.934454, "is_disabled": 0, "name": "d96c2892d7ff86fc78c4a567aa63ac66", "fusion_lat": 0.0, "rental_uris": {"ios": "https://dc.lft.to/lastmile_qr_scan", "android": "https://dc.lft.to/lastmile_qr_scan"}, "lon": -77.02842333333334, "type": "electric_scooter"}, {"bike_id": "dbdbb7a45653d9433113dff58addf09e", "is_reserved": 0, "fusion_lon": 0.0, "lat": 38.87172416666667, "is_disabled": 0, "name": "dbdbb7a45653d9433113dff58addf09e", "fusion_lat": 0.0, "rental_uris": {"ios": "https://dc.lft.to/lastmile_qr_scan", "android": "https://dc.lft.to/lastmile_qr_scan"}, "lon": -77.00625533333333, "type": "electric_scooter"}, {"bike_id": "f999d9ebb3d86912b351e479a280bbbb", "is_reserved": 0, "fusion_lon": 0.0, "lat": 38.89770016666667, "is_disabled": 0, "name": "f999d9ebb3d86912b351e479a280bbbb", "fusion_lat": 0.0, "rental_uris": {"ios": "https://dc.lft.to/lastmile_qr_scan", "android": "https://dc.lft.to/lastmile_qr_scan"}, "lon": -76.90430783333333, "type": "electric_bike"}, {"bike_id": "0e7f4f6942cb580fe21055d97417cc93", "is_reserved": 0, "fusion_lon": 0.0, "lat": 38.9283295, "is_disabled": 0, "name": "0e7f4f6942cb580fe21055d97417cc93", "fusion_lat": 0.0, "rental_uris": {"ios": "https://dc.lft.to/lastmile_qr_scan", "android": "https://dc.lft.to/lastmile_qr_scan"}, "lon": -77.055048, "type": "electric_scooter"}, {"bike_id": "e683f002741a25bc7899ba02e98e97f9", "is_reserved": 0, "fusion_lon": 0.0, "lat": 38.916842, "is_disabled": 0, "name": "e683f002741a25bc7899ba02e98e97f9", "fusion_lat": 0.0, "rental_uris": {"ios": "https://dc.lft.to/lastmile_qr_scan", "android": "https://dc.lft.to/lastmile_qr_scan"}, "lon": -77.02287933333334, "type": "electric_scooter"}, {"bike_id": "a9bf740c42e579ef27bc9046bc68f947", "is_reserved": 0, "fusion_lon": 0.0, "lat": 38.86630666666667, "is_disabled": 0, "name": "a9bf740c42e579ef27bc9046bc68f947", "fusion_lat": 0.0, "rental_uris": {"ios": "https://dc.lft.to/lastmile_qr_scan", "android": "https://dc.lft.to/lastmile_qr_scan"}, "lon": -76.98718083333333, "type": "electric_scooter"}, {"bike_id": "5667fbc3b14f02191f65923dbcb262d4", "is_reserved": 0, "fusion_lon": 0.0, "lat": 38.86726316666667, "is_disabled": 0, "name": "5667fbc3b14f02191f65923dbcb262d4", "fusion_lat": 0.0, "rental_uris": {"ios": "https://dc.lft.to/lastmile_qr_scan", "android": "https://dc.lft.to/lastmile_qr_scan"}, "lon": -76.987839, "type": "electric_scooter"}, {"bike_id": "bb7baa24db49f0693e467175f6da44e1", "is_reserved": 0, "fusion_lon": 0.0, "lat": 38.88037766666667, "is_disabled": 0, "name": "bb7baa24db49f0693e467175f6da44e1", "fusion_lat": 0.0, "rental_uris": {"ios": "https://dc.lft.to/lastmile_qr_scan", "android": "https://dc.lft.to/lastmile_qr_scan"}, "lon": -77.02504583333334, "type": "electric_scooter"}, {"bike_id": "18593cd7a8fc207051cf580005e8c91a", "is_reserved": 0, "fusion_lon": 0.0, "lat": 38.906652333333334, "is_disabled": 0, "name": "18593cd7a8fc207051cf580005e8c91a", "fusion_lat": 0.0, "rental_uris": {"ios": "https://dc.lft.to/lastmile_qr_scan", "android": "https://dc.lft.to/lastmile_qr_scan"}, "lon": -77.0270765, "type": "electric_scooter"}, {"bike_id": "631cdbc6cd2ad3b73ab6e8c68d7c7235", "is_reserved": 0, "fusion_lon": 0.0, "lat": 38.89009033333333, "is_disabled": 0, "name": "631cdbc6cd2ad3b73ab6e8c68d7c7235", "fusion_lat": 0.0, "rental_uris": {"ios": "https://dc.lft.to/lastmile_qr_scan", "android": "https://dc.lft.to/lastmile_qr_scan"}, "lon": -76.93743816666667, "type": "electric_scooter"}, {"bike_id": "326a65c54e7a6a77a4779d867f07a4a9", "is_reserved": 0, "fusion_lon": 0.0, "lat": 38.932535666666666, "is_disabled": 0, "name": "326a65c54e7a6a77a4779d867f07a4a9", "fusion_lat": 0.0, "rental_uris": {"ios": "https://dc.lft.to/lastmile_qr_scan", "android": "https://dc.lft.to/lastmile_qr_scan"}, "lon": -77.032824, "type": "electric_scooter"}, {"bike_id": "aa5850d604bf9f3697de9900828e3758", "is_reserved": 0, "fusion_lon": 0.0, "lat": 38.87637333333333, "is_disabled": 0, "name": "aa5850d604bf9f3697de9900828e3758", "fusion_lat": 0.0, "rental_uris": {"ios": "https://dc.lft.to/lastmile_qr_scan", "android": "https://dc.lft.to/lastmile_qr_scan"}, "lon": -76.99585883333333, "type": "electric_scooter"}, {"bike_id": "1a09817507f7e16e57380d86ee4941a8", "is_reserved": 0, "fusion_lon": 0.0, "lat": 38.918420833333336, "is_disabled": 0, "name": "1a09817507f7e16e57380d86ee4941a8", "fusion_lat": 0.0, "rental_uris": {"ios": "https://dc.lft.to/lastmile_qr_scan", "android": "https://dc.lft.to/lastmile_qr_scan"}, "lon": -77.0389645, "type": "electric_scooter"}, {"bike_id": "8056d5bd151b6c330f7a474fe6463188", "is_reserved": 0, "fusion_lon": 0.0, "lat": 38.9345415, "is_disabled": 0, "name": "8056d5bd151b6c330f7a474fe6463188", "fusion_lat": 0.0, "rental_uris": {"ios": "https://dc.lft.to/lastmile_qr_scan", "android": "https://dc.lft.to/lastmile_qr_scan"}, "lon": -77.03125616666667, "type": "electric_scooter"}, {"bike_id": "759024490f97eb70f84b371757984fe4", "is_reserved": 0, "fusion_lon": 0.0, "lat": 38.9148085, "is_disabled": 0, "name": "759024490f97eb70f84b371757984fe4", "fusion_lat": 0.0, "rental_uris": {"ios": "https://dc.lft.to/lastmile_qr_scan", "android": "https://dc.lft.to/lastmile_qr_scan"}, "lon": -77.02179533333333, "type": "electric_scooter"}, {"bike_id": "9fde01c63e0f18697817610c71a9311d", "is_reserved": 0, "fusion_lon": 0.0, "lat": 38.916760333333336, "is_disabled": 0, "name": "9fde01c63e0f18697817610c71a9311d", "fusion_lat": 0.0, "rental_uris": {"ios": "https://dc.lft.to/lastmile_qr_scan", "android": "https://dc.lft.to/lastmile_qr_scan"}, "lon": -77.02946933333334, "type": "electric_scooter"}, {"bike_id": "5d8ee6c9522fbb3ee5b1ab3c48c1f92b", "is_reserved": 0, "fusion_lon": 0.0, "lat": 38.8982845, "is_disabled": 0, "name": "5d8ee6c9522fbb3ee5b1ab3c48c1f92b", "fusion_lat": 0.0, "rental_uris": {"ios": "https://dc.lft.to/lastmile_qr_scan", "android": "https://dc.lft.to/lastmile_qr_scan"}, "lon": -77.03308783333334, "type": "electric_scooter"}, {"bike_id": "5b8b16dced0f9c62ee9f4b40330b091b", "is_reserved": 0, "fusion_lon": 0.0, "lat": 38.884906, "is_disabled": 0, "name": "5b8b16dced0f9c62ee9f4b40330b091b", "fusion_lat": 0.0, "rental_uris": {"ios": "https://dc.lft.to/lastmile_qr_scan", "android": "https://dc.lft.to/lastmile_qr_scan"}, "lon": -77.00711833333334, "type": "electric_scooter"}, {"bike_id": "e3266bb011d4de5c7e084d090bfff467", "is_reserved": 0, "fusion_lon": 0.0, "lat": 38.913393166666665, "is_disabled": 0, "name": "e3266bb011d4de5c7e084d090bfff467", "fusion_lat": 0.0, "rental_uris": {"ios": "https://dc.lft.to/lastmile_qr_scan", "android": "https://dc.lft.to/lastmile_qr_scan"}, "lon": -77.00338166666667, "type": "electric_scooter"}, {"bike_id": "76f35593719688724dad6af4e07a3bac", "is_reserved": 0, "fusion_lon": 0.0, "lat": 38.8916765, "is_disabled": 0, "name": "76f35593719688724dad6af4e07a3bac", "fusion_lat": 0.0, "rental_uris": {"ios": "https://dc.lft.to/lastmile_qr_scan", "android": "https://dc.lft.to/lastmile_qr_scan"}, "lon": -77.01544166666666, "type": "electric_scooter"}, {"bike_id": "e0b658ad19aa0d718c2b2e2e1ec31ca1", "is_reserved": 0, "fusion_lon": 0.0, "lat": 38.902856166666666, "is_disabled": 0, "name": "e0b658ad19aa0d718c2b2e2e1ec31ca1", "fusion_lat": 0.0, "rental_uris": {"ios": "https://dc.lft.to/lastmile_qr_scan", "android": "https://dc.lft.to/lastmile_qr_scan"}, "lon": -77.0383585, "type": "electric_scooter"}, {"bike_id": "ce977bb26d23e616f229cebafe3304d0", "is_reserved": 0, "fusion_lon": 0.0, "lat": 38.9592225, "is_disabled": 0, "name": "ce977bb26d23e616f229cebafe3304d0", "fusion_lat": 0.0, "rental_uris": {"ios": "https://dc.lft.to/lastmile_qr_scan", "android": "https://dc.lft.to/lastmile_qr_scan"}, "lon": -77.03323666666667, "type": "electric_scooter"}, {"bike_id": "7d6085f1f82e0e60463271ad72213542", "is_reserved": 0, "fusion_lon": 0.0, "lat": 38.908087333333334, "is_disabled": 0, "name": "7d6085f1f82e0e60463271ad72213542", "fusion_lat": 0.0, "rental_uris": {"ios": "https://dc.lft.to/lastmile_qr_scan", "android": "https://dc.lft.to/lastmile_qr_scan"}, "lon": -77.034277, "type": "electric_scooter"}, {"bike_id": "8d332ddfd5e585e1660395294dc4e0a2", "is_reserved": 0, "fusion_lon": 0.0, "lat": 38.865587166666664, "is_disabled": 0, "name": "8d332ddfd5e585e1660395294dc4e0a2", "fusion_lat": 0.0, "rental_uris": {"ios": "https://dc.lft.to/lastmile_qr_scan", "android": "https://dc.lft.to/lastmile_qr_scan"}, "lon": -76.9895015, "type": "electric_scooter"}, {"bike_id": "eda3995e9391c1e579e5f0bacbc596eb", "is_reserved": 0, "fusion_lon": 0.0, "lat": 38.90369233333333, "is_disabled": 0, "name": "eda3995e9391c1e579e5f0bacbc596eb", "fusion_lat": 0.0, "rental_uris": {"ios": "https://dc.lft.to/lastmile_qr_scan", "android": "https://dc.lft.to/lastmile_qr_scan"}, "lon": -77.0437295, "type": "electric_scooter"}, {"bike_id": "643c28cbd362c23b913433297ad5e19f", "is_reserved": 0, "fusion_lon": 0.0, "lat": 38.9167775, "is_disabled": 0, "name": "643c28cbd362c23b913433297ad5e19f", "fusion_lat": 0.0, "rental_uris": {"ios": "https://dc.lft.to/lastmile_qr_scan", "android": "https://dc.lft.to/lastmile_qr_scan"}, "lon": -77.029465, "type": "electric_scooter"}, {"bike_id": "fdeea4c03b990697b3f2f8b7da88d451", "is_reserved": 0, "fusion_lon": 0.0, "lat": 38.90533, "is_disabled": 0, "name": "fdeea4c03b990697b3f2f8b7da88d451", "fusion_lat": 0.0, "rental_uris": {"ios": "https://dc.lft.to/lastmile_qr_scan", "android": "https://dc.lft.to/lastmile_qr_scan"}, "lon": -77.0270185, "type": "electric_scooter"}, {"bike_id": "4affc66b3c5500df23f863d51d618e24", "is_reserved": 0, "fusion_lon": 0.0, "lat": 38.903224, "is_disabled": 0, "name": "4affc66b3c5500df23f863d51d618e24", "fusion_lat": 0.0, "rental_uris": {"ios": "https://dc.lft.to/lastmile_qr_scan", "android": "https://dc.lft.to/lastmile_qr_scan"}, "lon": -77.03797016666667, "type": "electric_scooter"}, {"bike_id": "ece2dfd7d07692ca29203e6640b93a70", "is_reserved": 0, "fusion_lon": 0.0, "lat": 38.922625333333336, "is_disabled": 0, "name": "ece2dfd7d07692ca29203e6640b93a70", "fusion_lat": 0.0, "rental_uris": {"ios": "https://dc.lft.to/lastmile_qr_scan", "android": "https://dc.lft.to/lastmile_qr_scan"}, "lon": -77.04214166666667, "type": "electric_scooter"}, {"bike_id": "08f4c35ee67844c178ef6b02a50b9ba4", "is_reserved": 0, "fusion_lon": 0.0, "lat": 38.8380225, "is_disabled": 0, "name": "08f4c35ee67844c178ef6b02a50b9ba4", "fusion_lat": 0.0, "rental_uris": {"ios": "https://dc.lft.to/lastmile_qr_scan", "android": "https://dc.lft.to/lastmile_qr_scan"}, "lon": -76.9983305, "type": "electric_bike"}, {"bike_id": "21aa84b1d1969f1f03de6c1f52cf5c5b", "is_reserved": 0, "fusion_lon": 0.0, "lat": 39.01591116666667, "is_disabled": 0, "name": "21aa84b1d1969f1f03de6c1f52cf5c5b", "fusion_lat": 0.0, "rental_uris": {"ios": "https://dc.lft.to/lastmile_qr_scan", "android": "https://dc.lft.to/lastmile_qr_scan"}, "lon": -77.044245, "type": "electric_bike"}, {"bike_id": "7f2064993a71de936c94e03f4e45a9a4", "is_reserved": 0, "fusion_lon": 0.0, "lat": 38.905338, "is_disabled": 0, "name": "7f2064993a71de936c94e03f4e45a9a4", "fusion_lat": 0.0, "rental_uris": {"ios": "https://dc.lft.to/lastmile_qr_scan", "android": "https://dc.lft.to/lastmile_qr_scan"}, "lon": -77.00206983333334, "type": "electric_bike"}, {"bike_id": "9d4d4c2b5331d83ee19f490b77af4d47", "is_reserved": 0, "fusion_lon": 0.0, "lat": 38.90094766666667, "is_disabled": 0, "name": "9d4d4c2b5331d83ee19f490b77af4d47", "fusion_lat": 0.0, "rental_uris": {"ios": "https://dc.lft.to/lastmile_qr_scan", "android": "https://dc.lft.to/lastmile_qr_scan"}, "lon": -77.04787816666666, "type": "electric_scooter"}, {"bike_id": "3261a3bb9a4167252e443eb8667490f1", "is_reserved": 0, "fusion_lon": 0.0, "lat": 38.9058285, "is_disabled": 0, "name": "3261a3bb9a4167252e443eb8667490f1", "fusion_lat": 0.0, "rental_uris": {"ios": "https://dc.lft.to/lastmile_qr_scan", "android": "https://dc.lft.to/lastmile_qr_scan"}, "lon": -77.034539, "type": "electric_scooter"}, {"bike_id": "df990029257b56df79328bc4f0644c0f", "is_reserved": 0, "fusion_lon": 0.0, "lat": 38.902090666666666, "is_disabled": 0, "name": "df990029257b56df79328bc4f0644c0f", "fusion_lat": 0.0, "rental_uris": {"ios": "https://dc.lft.to/lastmile_qr_scan", "android": "https://dc.lft.to/lastmile_qr_scan"}, "lon": -77.023749, "type": "electric_scooter"},