{"data": {"bikes": [{"name": "70a753f6005793ad7d4d74557f646e63", "type": "electric_scooter", "fusion_lon": 0.0, "lon": -76.93341916666667, "is_disabled": 0, "lat": 38.90863933333333, "fusion_lat": 0.0, "is_reserved": 0, "rental_uris": {"android": "https://dc.lft.to/lastmile_qr_scan", "ios": "https://dc.lft.to/lastmile_qr_scan"}, "bike_id": "70a753f6005793ad7d4d74557f646e63"}, {"name": "def7e9f069904e2039d38601fb781b8f", "type": "electric_scooter", "fusion_lon": 0.0, "lon": -77.0540395, "is_disabled": 0, "lat": 38.90128816666667, "fusion_lat": 0.0, "is_reserved": 0, "rental_uris": {"android": "https://dc.lft.to/lastmile_qr_scan", "ios": "https://dc.lft.to/lastmile_qr_scan"}, "bike_id": "def7e9f069904e2039d38601fb781b8f"}, {"name": "e00c2e119961fdbb966a2e6f1717a0cd", "type": "electric_scooter", "fusion_lon": 0.0, "lon": -77.03107416666667, "is_disabled": 0, "lat": 38.90447866666667, "fusion_lat": 0.0, "is_reserved": 0, "rental_uris": {"android": "https://dc.lft.to/lastmile_qr_scan", "ios": "https://dc.lft.to/lastmile_qr_scan"}, "bike_id": "e00c2e119961fdbb966a2e6f1717a0cd"}, {"name": "96b33866d214f65b6631660881cca28e", "type": "electric_scooter", "fusion_lon": 0.0, "lon": -77.0498835, "is_disabled": 0, "lat": 38.89226566666667, "fusion_lat": 0.0, "is_reserved": 0, "rental_uris": {"android": "https://dc.lft.to/lastmile_qr_scan", "ios": "https://dc.lft.to/lastmile_qr_scan"}, "bike_id": "96b33866d214f65b6631660881cca28e"}, {"name": "7de533067eea87de9a43b64a85d88dda", "type": "electric_scooter", "fusion_lon": 0.0, "lon": -77.07187066666667, "is_disabled": 0, "lat": 38.9069885, "fusion_lat": 0.0, "is_reserved": 0, "rental_uris": {"android": "https://dc.lft.to/lastmile_qr_scan", "ios": "https://dc.lft.to/lastmile_qr_scan"}, "bike_id": "7de533067eea87de9a43b64a85d88dda"}, {"name": "5b19a00625a05af048ea597b7a0cdd68", "type": "electric_bike", "fusion_lon": 0.0, "lon": -76.99906866666667, "is_disabled": 0, "lat": 38.942726666666665, "fusion_lat": 0.0, "is_reserved": 0, "rental_uris": {"android": "https://dc.lft.to/lastmile_qr_scan", "ios": "https://dc.lft.to/lastmile_qr_scan"}, "bike_id": "5b19a00625a05af048ea597b7a0cdd68"}, {"name": "df1209307af7f00a842eeac8d2b22348", "type": "electric_scooter", "fusion_lon": 0.0, "lon": -77.0012515, "is_disabled": 0, "lat": 38.878844, "fusion_lat": 0.0, "is_reserved": 0, "rental_uris": {"android": "https://dc.lft.to/lastmile_qr_scan", "ios": "https://dc.lft.to/lastmile_qr_scan"}, "bike_id": "df1209307af7f00a842eeac8d2b22348"}, {"name": "6d84e8ed71b90e55a58c26a031c10c31", "type": "electric_scooter", "fusion_lon": 0.0, "lon": -77.007683, "is_disabled": 0, "lat": 38.90744883333333, "fusion_lat": 0.0, "is_reserved": 0, "rental_uris": {"android": "https://dc.lft.to/lastmile_qr_scan", "ios": "https://dc.lft.to/lastmile_qr_scan"}, "bike_id": "6d84e8ed71b90e55a58c26a031c10c31"}, {"name": "28f0e6c4973074d5d74d52b21d9e5867", "type": "electric_scooter", "fusion_lon": 0.0, "lon": -77.03266616666667, "is_disabled": 0, "lat": 38.9325295, "fusion_lat": 0.0, "is_reserved": 0, "rental_uris": {"android": "https://dc.lft.to/lastmile_qr_scan", "ios": "https://dc.lft.to/lastmile_qr_scan"}, "bike_id": "28f0e6c4973074d5d74d52b21d9e5867"}, {"name": "635c86e4cbc12aa92f0f486f6e39c4a9", "type": "electric_scooter", "fusion_lon": 0.0, "lon": -77.05055916666667, "is_disabled": 0, "lat": 38.901841, "fusion_lat": 0.0, "is_reserved": 0, "rental_uris": {"android": "https://dc.lft.to/lastmile_qr_scan", "ios": "https://dc.lft.to/lastmile_qr_scan"}, "bike_id": "635c86e4cbc12aa92f0f486f6e39c4a9"}, {"name": "3f269d5f0f04a3154d4eafff27eb65f0", "type": "electric_scooter", "fusion_lon": 0.0, "lon": -77.038943, "is_disabled": 0, "lat": 38.914731833333335, "fusion_lat": 0.0, "is_reserved": 0, "rental_uris": {"android": "https://dc.lft.to/lastmile_qr_scan", "ios": "https://dc.lft.to/lastmile_qr_scan"}, "bike_id": "3f269d5f0f04a3154d4eafff27eb65f0"}, {"name": "5d42322cf6aab50e38ccec1dbad55cb2", "type": "electric_scooter", "fusion_lon": 0.0, "lon": -76.98612766666666, "is_disabled": 0, "lat": 38.903484, "fusion_lat": 0.0, "is_reserved": 0, "rental_uris": {"android": "https://dc.lft.to/lastmile_qr_scan", "ios": "https://dc.lft.to/lastmile_qr_scan"}, "bike_id": "5d42322cf6aab50e38ccec1dbad55cb2"}, {"name": "16021b9efef91d75818aabd471ee0cfe", "type": "electric_scooter", "fusion_lon": 0.0, "lon": -77.007677, "is_disabled": 0, "lat": 38.91564266666666, "fusion_lat": 0.0, "is_reserved": 0, "rental_uris": {"android": "https://dc.lft.to/lastmile_qr_scan", "ios": "https://dc.lft.to/lastmile_qr_scan"}, "bike_id": "16021b9efef91d75818aabd471ee0cfe"}, {"name": "ca7dc44d68358cb51ee167e25ef35a76", "type": "electric_scooter", "fusion_lon": 0.0, "lon": -77.03986216666667, "is_disabled": 0, "lat": 38.90609666666667, "fusion_lat": 0.0, "is_reserved": 0, "rental_uris": {"android": "https://dc.lft.to/lastmile_qr_scan", "ios": "https://dc.lft.to/lastmile_qr_scan"}, "bike_id": "ca7dc44d68358cb51ee167e25ef35a76"}, {"name": "3a5c31fd6ef859ed83f6abec59db99bc", "type": "electric_scooter", "fusion_lon": 0.0, "lon": -77.05136583333334, "is_disabled": 0, "lat": 38.896649, "fusion_lat": 0.0, "is_reserved": 0, "rental_uris": {"android": "https://dc.lft.to/lastmile_qr_scan", "ios": "https://dc.lft.to/lastmile_qr_scan"}, "bike_id": "3a5c31fd6ef859ed83f6abec59db99bc"}, {"name": "dbfa397788635de86867d9b1cb2c1d14", "type": "electric_scooter", "fusion_lon": 0.0, "lon": -77.066098, "is_disabled": 0, "lat": 38.905235, "fusion_lat": 0.0, "is_reserved": 0, "rental_uris": {"android": "https://dc.lft.to/lastmile_qr_scan", "ios": "https://dc.lft.to/lastmile_qr_scan"}, "bike_id": "dbfa397788635de86867d9b1cb2c1d14"}, {"name": "2cd03959e52f9e5f9a19bb3d05e13060", "type": "electric_scooter", "fusion_lon": 0.0, "lon": -77.0238425, "is_disabled": 0, "lat": 38.89228, "fusion_lat": 0.0, "is_reserved": 0, "rental_uris": {"android": "https://dc.lft.to/lastmile_qr_scan", "ios": "https://dc.lft.to/lastmile_qr_scan"}, "bike_id": "2cd03959e52f9e5f9a19bb3d05e13060"}, {"name": "f82194938137545a5b7157f79ac0a20f", "type": "electric_scooter", "fusion_lon": 0.0, "lon": -77.01782866666667, "is_disabled": 0, "lat": 38.87765233333333, "fusion_lat": 0.0, "is_reserved": 0, "rental_uris": {"android": "https://dc.lft.to/lastmile_qr_scan", "ios": "https://dc.lft.to/lastmile_qr_scan"}, "bike_id": "f82194938137545a5b7157f79ac0a20f"}, {"name": "fc37803e6965cb2ca48f3b739d319206", "type": "electric_scooter", "fusion_lon": 0.0, "lon": -76.98605683333334, "is_disabled": 0, "lat": 38.860115666666665, "fusion_lat": 0.0, "is_reserved": 0, "rental_uris": {"android": "https://dc.lft.to/lastmile_qr_scan", "ios": "https://dc.lft.to/lastmile_qr_scan"}, "bike_id": "fc37803e6965cb2ca48f3b739d319206"}, {"name": "0e63316ba56f0f3ec6c68e8ef1a936dd", "type": "electric_scooter", "fusion_lon": 0.0, "lon": -77.0393155, "is_disabled": 0, "lat": 38.901402833333336, "fusion_lat": 0.0, "is_reserved": 0, "rental_uris": {"android": "https://dc.lft.to/lastmile_qr_scan", "ios": "https://dc.lft.to/lastmile_qr_scan"}, "bike_id": "0e63316ba56f0f3ec6c68e8ef1a936dd"}, {"name": "7e66168603137b956dbab308c5340c34", "type": "electric_scooter", "fusion_lon": 0.0, "lon": -77.0168845, "is_disabled": 0, "lat": 38.90250183333333, "fusion_lat": 0.0, "is_reserved": 0, "rental_uris": {"android": "https://dc.lft.to/lastmile_qr_scan", "ios": "https://dc.lft.to/lastmile_qr_scan"}, "bike_id": "7e66168603137b956dbab308c5340c34"}, {"name": "f8309edc273418362d772e8424e8986f", "type": "electric_scooter", "fusion_lon": 0.0, "lon": -77.02803166666666, "is_disabled": 0, "lat": 38.93057966666667, "fusion_lat": 0.0, "is_reserved": 0, "rental_uris": {"android": "https://dc.lft.to/lastmile_qr_scan", "ios": "https://dc.lft.to/lastmile_qr_scan"}, "bike_id": "f8309edc273418362d772e8424e8986f"}, {"name": "7f3639ffd05abba7138aa167e7f7c568", "type": "electric_scooter", "fusion_lon": 0.0, "lon": -77.00102683333333, "is_disabled": 0, "lat": 38.8812415, "fusion_lat": 0.0, "is_reserved": 0, "rental_uris": {"android": "https://dc.lft.to/lastmile_qr_scan", "ios": "https://dc.lft.to/lastmile_qr_scan"}, "bike_id": "7f3639ffd05abba7138aa167e7f7c568"}, {"name": "0346bc5252ca870a230434e90ac69eea", "type": "electric_scooter", "fusion_lon": 0.0, "lon": -76.97917666666666, "is_disabled": 0, "lat": 38.9245545, "fusion_lat": 0.0, "is_reserved": 0, "rental_uris": {"android": "https://dc.lft.to/lastmile_qr_scan", "ios": "https://dc.lft.to/lastmile_qr_scan"}, "bike_id": "0346bc5252ca870a230434e90ac69eea"}, {"name": "238d001f6b6a6cf7d45f9a3863e7520a", "type": "electric_scooter", "fusion_lon": 0.0, "lon": -77.04046033333333, "is_disabled": 0, "lat": 38.924251166666664, "fusion_lat": 0.0, "is_reserved": 0, "rental_uris": {"android": "https://dc.lft.to/lastmile_qr_scan", "ios": "https://dc.lft.to/lastmile_qr_scan"}, "bike_id": "238d001f6b6a6cf7d45f9a3863e7520a"}, {"name": "214ea665e0b576fe4f37546ee68d4a3a", "type": "electric_scooter", "fusion_lon": 0.0, "lon": -77.0340645, "is_disabled": 0, "lat": 38.9243685, "fusion_lat": 0.0, "is_reserved": 0, "rental_uris": {"android": "https://dc.lft.to/lastmile_qr_scan", "ios": "https://dc.lft.to/lastmile_qr_scan"}, "bike_id": "214ea665e0b576fe4f37546ee68d4a3a"}, {"name": "63f3d26a62bd589e06ec62427225239b", "type": "electric_scooter", "fusion_lon": 0.0, "lon": -76.985647, "is_disabled": 0, "lat": 38.86683333333333, "fusion_lat": 0.0, "is_reserved": 0, "rental_uris": {"android": "https://dc.lft.to/lastmile_qr_scan", "ios": "https://dc.lft.to/lastmile_qr_scan"}, "bike_id": "63f3d26a62bd589e06ec62427225239b"}, {"name": "d90d0ee88299a2be8e6fb38b1142f3ff", "type": "electric_scooter", "fusion_lon": 0.0, "lon": -77.04346183333334, "is_disabled": 0, "lat": 38.9056415, "fusion_lat": 0.0, "is_reserved": 0, "rental_uris": {"android": "https://dc.lft.to/lastmile_qr_scan", "ios": "https://dc.lft.to/lastmile_qr_scan"}, "bike_id": "d90d0ee88299a2be8e6fb38b1142f3ff"}, {"name": "3c93d7b6d2bfffca15c9e7c333185af4", "type": "electric_scooter", "fusion_lon": 0.0, "lon": -77.0362665, "is_disabled": 0, "lat": 38.9368045, "fusion_lat": 0.0, "is_reserved": 0, "rental_uris": {"android": "https://dc.lft.to/lastmile_qr_scan", "ios": "https://dc.lft.to/lastmile_qr_scan"}, "bike_id": "3c93d7b6d2bfffca15c9e7c333185af4"}, {"name": "f6bc83be19fb3306b4351e2a5cc20f79", "type": "electric_scooter", "fusion_lon": 0.0, "lon": -76.97439266666666, "is_disabled": 0, "lat": 38.90234066666667, "fusion_lat": 0.0, "is_reserved": 0, "rental_uris": {"android": "https://dc.lft.to/lastmile_qr_scan", "ios": "https://dc.lft.to/lastmile_qr_scan"}, "bike_id": "f6bc83be19fb3306b4351e2a5cc20f79"}, {"name": "5715f1bb4b559d458b434332f33847ce", "type": "electric_scooter", "fusion_lon": 0.0, "lon": -77.072712, "is_disabled": 0, "lat": 38.90904166666667, "fusion_lat": 0.0, "is_reserved": 0, "rental_uris": {"android": "https://dc.lft.to/lastmile_qr_scan", "ios": "https://dc.lft.to/lastmile_qr_scan"}, "bike_id": "5715f1bb4b559d458b434332f33847ce"}, {"name": "07327ec1db8449fadcc8535e0e1fb623", "type": "electric_scooter", "fusion_lon": 0.0, "lon": -77.08441133333334, "is_disabled": 0, "lat": 38.939820166666664, "fusion_lat": 0.0, "is_reserved": 0, "rental_uris": {"android": "https://dc.lft.to/lastmile_qr_scan", "ios": "https://dc.lft.to/lastmile_qr_scan"}, "bike_id": "07327ec1db8449fadcc8535e0e1fb623"}, {"name": "9b6c566ff79c4ff3b496a8aeda1078c4", "type": "electric_scooter", "fusion_lon": 0.0, "lon": -77.04012583333333, "is_disabled": 0, "lat": 38.89633583333333, "fusion_lat": 0.0, "is_reserved": 0, "rental_uris": {"android": "https://dc.lft.to/lastmile_qr_scan", "ios": "https://dc.lft.to/lastmile_qr_scan"}, "bike_id": "9b6c566ff79c4ff3b496a8aeda1078c4"}, {"name": "1f3b936714b78cbc1f9d34c94a550c04", "type": "electric_scooter", "fusion_lon": 0.0, "lon": -77.0404275, "is_disabled": 0, "lat": 38.900322333333335, "fusion_lat": 0.0, "is_reserved": 0, "rental_uris": {"android": "https://dc.lft.to/lastmile_qr_scan", "ios": "https://dc.lft.to/lastmile_qr_scan"}, "bike_id": "1f3b936714b78cbc1f9d34c94a550c04"}, {"name": "5dfed1a6e472d3881896a3d1b4b90d31", "type": "electric_scooter", "fusion_lon": 0.0, "lon": -77.03557, "is_disabled": 0, "lat": 38.90140366666667, "fusion_lat": 0.0, "is_reserved": 0, "rental_uris": {"android": "https://dc.lft.to/lastmile_qr_scan", "ios": "https://dc.lft.to/lastmile_qr_scan"}, "bike_id": "5dfed1a6e472d3881896a3d1b4b90d31"}, {"name": "de079bdd08ab890e5686e2848c7d4df4", "type": "electric_scooter", "fusion_lon": 0.0, "lon": -77.03886616666666, "is_disabled": 0, "lat": 38.918484, "fusion_lat": 0.0, "is_reserved": 0, "rental_uris": {"android": "https://dc.lft.to/lastmile_qr_scan", "ios": "https://dc.lft.to/lastmile_qr_scan"}, "bike_id": "de079bdd08ab890e5686e2848c7d4df4"}, {"name": "927c1e9b8499fdb8aec4440f824cbb43", "type": "electric_scooter", "fusion_lon": 0.0, "lon": -77.02151966666666, "is_disabled": 0, "lat": 38.89718216666667, "fusion_lat": 0.0, "is_reserved": 0, "rental_uris": {"android": "https://dc.lft.to/lastmile_qr_scan", "ios": "https://dc.lft.to/lastmile_qr_scan"}, "bike_id": "927c1e9b8499fdb8aec4440f824cbb43"}, {"name": "75d629d70f38c80ed99359dd9ef121fc", "type": "electric_scooter", "fusion_lon": 0.0, "lon": -77.0220955, "is_disabled": 0, "lat": 38.892259833333334, "fusion_lat": 0.0, "is_reserved": 0, "rental_uris": {"android": "https://dc.lft.to/lastmile_qr_scan", "ios": "https://dc.lft.to/lastmile_qr_scan"}, "bike_id": "75d629d70f38c80ed99359dd9ef121fc"}, {"name": "16d7873f464e88a2166854f347e0dac2", "type": "electric_scooter", "fusion_lon": 0.0, "lon": -77.02416083333334, "is_disabled": 0, "lat": 38.94181066666667, "fusion_lat": 0.0, "is_reserved": 0, "rental_uris": {"android": "https://dc.lft.to/lastmile_qr_scan", "ios": "https://dc.lft.to/lastmile_qr_scan"}, "bike_id": "16d7873f464e88a2166854f347e0dac2"}, {"name": "8f7926d7491a4b59e5531ebf1838e5ec", "type": "electric_scooter", "fusion_lon": 0.0, "lon": -77.038783, "is_disabled": 0, "lat": 38.9326825, "fusion_lat": 0.0, "is_reserved": 0, "rental_uris": {"android": "https://dc.lft.to/lastmile_qr_scan", "ios": "https://dc.lft.to/lastmile_qr_scan"}, "bike_id": "8f7926d7491a4b59e5531ebf1838e5ec"}, {"name": "636038d1345dc7ad4c8bbba87aa238db", "type": "electric_scooter", "fusion_lon": 0.0, "lon": -77.00350116666667, "is_disabled": 0, "lat": 38.88700033333333, "fusion_lat": 0.0, "is_reserved": 0, "rental_uris": {"android": "https://dc.lft.to/lastmile_qr_scan", "ios": "https://dc.lft.to/lastmile_qr_scan"}, "bike_id": "636038d1345dc7ad4c8bbba87aa238db"}, {"name": "7f7f9dba94fa53a26c53b4b6e316c357", "type": "electric_scooter", "fusion_lon": 0.0, "lon": -77.02382766666666, "is_disabled": 0, "lat": 38.89229, "fusion_lat": 0.0, "is_reserved": 0, "rental_uris": {"android": "https://dc.lft.to/lastmile_qr_scan", "ios": "https://dc.lft.to/lastmile_qr_scan"}, "bike_id": "7f7f9dba94fa53a26c53b4b6e316c357"}, {"name": "085587ba7dc079a235177a44a3b1dd47", "type": "electric_scooter", "fusion_lon": 0.0, "lon": -77.0238165, "is_disabled": 0, "lat": 38.891973, "fusion_lat": 0.0, "is_reserved": 0, "rental_uris": {"android": "https://dc.lft.to/lastmile_qr_scan", "ios": "https://dc.lft.to/lastmile_qr_scan"}, "bike_id": "085587ba7dc079a235177a44a3b1dd47"}, {"name": "ff84ae093021284c2da592b2e6d219bb", "type": "electric_bike", "fusion_lon": 0.0, "lon": -77.04270083333333, "is_disabled": 0, "lat": 38.830973166666666, "fusion_lat": 0.0, "is_reserved": 0, "rental_uris": {"android": "https://dc.lft.to/lastmile_qr_scan", "ios": "https://dc.lft.to/lastmile_qr_scan"}, "bike_id": "ff84ae093021284c2da592b2e6d219bb"}, {"name": "54657ced6021c5f5cf8a5723bc01f075", "type": "electric_scooter", "fusion_lon": 0.0, "lon": -77.01780116666667, "is_disabled": 0, "lat": 38.91959683333333, "fusion_lat": 0.0, "is_reserved": 0, "rental_uris": {"android": "https://dc.lft.to/lastmile_qr_scan", "ios": "https://dc.lft.to/lastmile_qr_scan"}, "bike_id": "54657ced6021c5f5cf8a5723bc01f075"}, {"name": "9c459c614df7ba707e99d9ff5222adfa", "type": "electric_scooter", "fusion_lon": 0.0, "lon": -77.02110466666667, "is_disabled": 0, "lat": 38.92754733333334, "fusion_lat": 0.0, "is_reserved": 0, "rental_uris": {"android": "https://dc.lft.to/lastmile_qr_scan", "ios": "https://dc.lft.to/lastmile_qr_scan"}, "bike_id": "9c459c614df7ba707e99d9ff5222adfa"}, {"name": "922f9a19d59f28911ce55f552bb2ec2d", "type": "electric_scooter", "fusion_lon": 0.0, "lon": -77.02393883333333, "is_disabled": 0, "lat": 38.90688566666667, "fusion_lat": 0.0, "is_reserved": 0, "rental_uris": {"android": "https://dc.lft.to/lastmile_qr_scan", "ios": "https://dc.lft.to/lastmile_qr_scan"}, "bike_id": "922f9a19d59f28911ce55f552bb2ec2d"}, {"name": "ee1ee98e5e3c39e6747f207de884dd2d", "type": "electric_scooter", "fusion_lon": 0.0, "lon": -76.92902533333333, "is_disabled": 0, "lat": 38.90187266666667, "fusion_lat": 0.0, "is_reserved": 0, "rental_uris": {"android": "https://dc.lft.to/lastmile_qr_scan", "ios": "https://dc.lft.to/lastmile_qr_scan"}, "bike_id": "ee1ee98e5e3c39e6747f207de884dd2d"}, {"name": "313b57a4cd3d3fa2bd4a7b94e7191235", "type": "electric_scooter", "fusion_lon": 0.0, "lon": -77.011493, "is_disabled": 0, "lat": 38.898556166666665, "fusion_lat": 0.0, "is_reserved": 0, "rental_uris": {"android": "https://dc.lft.to/lastmile_qr_scan", "ios": "https://dc.lft.to/lastmile_qr_scan"}, "bike_id": "313b57a4cd3d3fa2bd4a7b94e7191235"}, {"name": "faa52d669e009cfe296e85bf56a11d0a", "type": "electric_scooter", "fusion_lon": 0.0, "lon": -76.94828066666666, "is_disabled": 0, "lat": 38.884079166666666, "fusion_lat": 0.0, "is_reserved": 0, "rental_uris": {"android": "https://dc.lft.to/lastmile_qr_scan", "ios": "https://dc.lft.to/lastmile_qr_scan"}, "bike_id": "faa52d669e009cfe296e85bf56a11d0a"}, {"name": "b3c54e2b5a75fc0f2d9c6b6d207c6245", "type": "electric_scooter", "fusion_lon": 0.0, "lon": -77.0413775, "is_disabled": 0, "lat": 38.921842, "fusion_lat": 0.0, "is_reserved": 0, "rental_uris": {"android": "https://dc.lft.to/lastmile_qr_scan", "ios": "https://dc.lft.to/lastmile_qr_scan"}, "bike_id": "b3c54e2b5a75fc0f2d9c6b6d207c6245"}, {"name": "39204431e6e96d0f792408ae733628ce", "type": "electric_scooter", "fusion_lon": 0.0, "lon": -77.031359, "is_disabled": 0, "lat": 38.9044845, "fusion_lat": 0.0, "is_reserved": 0, "rental_uris": {"android": "https://dc.lft.to/lastmile_qr_scan", "ios": "https://dc.lft.to/lastmile_qr_scan"}, "bike_id": "39204431e6e96d0f792408ae733628ce"}, {"name": "83da7f0d4e8b6dd8b589cb194acb08dc", "type": "electric_scooter", "fusion_lon": 0.0, "lon": -77.02043816666666, "is_disabled": 0, "lat": 38.92087716666666, "fusion_lat": 0.0, "is_reserved": 0, "rental_uris": {"android": "https://dc.lft.to/lastmile_qr_scan", "ios": "https://dc.lft.to/lastmile_qr_scan"}, "bike_id": "83da7f0d4e8b6dd8b589cb194acb08dc"}, {"name": "3e1b28ac0feea85fa3b3c3c2a1eaea9b", "type": "electric_scooter", "fusion_lon": 0.0, "lon": -76.98542283333333, "is_disabled": 0, "lat": 38.866891833333334, "fusion_lat": 0.0, "is_reserved": 0, "rental_uris": {"android": "https://dc.lft.to/lastmile_qr_scan", "ios": "https://dc.lft.to/lastmile_qr_scan"}, "bike_id": "3e1b28ac0feea85fa3b3c3c2a1eaea9b"}, {"name": "2296b438fd4eb3526edb96051a8908ca", "type": "electric_scooter", "fusion_lon": 0.0, "lon": -77.02688716666667, "is_disabled": 0, "lat": 38.92670283333333, "fusion_lat": 0.0, "is_reserved": 0, "rental_uris": {"android": "https://dc.lft.to/lastmile_qr_scan", "ios": "https://dc.lft.to/lastmile_qr_scan"}, "bike_id": "2296b438fd4eb3526edb96051a8908ca"}, {"name": "446ca040c668447fbabd09acaeffeaf2", "type": "electric_scooter", "fusion_lon": 0.0, "lon": -76.99784633333333, "is_disabled": 0, "lat": 38.961523166666666, "fusion_lat": 0.0, "is_reserved": 0, "rental_uris": {"android": "https://dc.lft.to/lastmile_qr_scan", "ios": "https://dc.lft.to/lastmile_qr_scan"}, "bike_id": "446ca040c668447fbabd09acaeffeaf2"}, {"name": "a8f0594869bd72a8e10eecff90965f8b", "type": "electric_scooter", "fusion_lon": 0.0, "lon": -77.0049245, "is_disabled": 0, "lat": 38.87465366666667, "fusion_lat": 0.0, "is_reserved": 0, "rental_uris": {"android": "https://dc.lft.to/lastmile_qr_scan", "ios": "https://dc.lft.to/lastmile_qr_scan"}, "bike_id": "a8f0594869bd72a8e10eecff90965f8b"}, {"name": "8e4bebe7257e3c50f7fa49a90a817ea7", "type": "electric_scooter", "fusion_lon": 0.0, "lon": -77.04187583333334, "is_disabled": 0, "lat": 38.92050583333334, "fusion_lat": 0.0, "is_reserved": 0, "rental_uris": {"android": "https://dc.lft.to/lastmile_qr_scan", "ios": "https://dc.lft.to/lastmile_qr_scan"}, "bike_id": "8e4bebe7257e3c50f7fa49a90a817ea7"}, {"name": "83c3fc7c0d78a30ef3d0d48617aa2471", "type": "electric_scooter", "fusion_lon": 0.0, "lon": -77.04343, "is_disabled": 0, "lat": 38.904164, "fusion_lat": 0.0, "is_reserved": 0, "rental_uris": {"android": "https://dc.lft.to/lastmile_qr_scan", "ios": "https://dc.lft.to/lastmile_qr_scan"}, "bike_id": "83c3fc7c0d78a30ef3d0d48617aa2471"}, {"name": "c675d576741ea9acb2b351637da4a4b2", "type": "electric_scooter", "fusion_lon": 0.0, "lon": -77.02481966666667, "is_disabled": 0, "lat": 38.939658666666666, "fusion_lat": 0.0, "is_reserved": 0, "rental_uris": {"android": "https://dc.lft.to/lastmile_qr_scan", "ios": "https://dc.lft.to/lastmile_qr_scan"}, "bike_id": "c675d576741ea9acb2b351637da4a4b2"}, {"name": "699dd919719fc22777f83e3129fd7d43", "type": "electric_scooter", "fusion_lon": 0.0, "lon": -77.06193516666667, "is_disabled": 0, "lat": 38.918487999999996, "fusion_lat": 0.0, "is_reserved": 0, "rental_uris": {"android": "https://dc.lft.to/lastmile_qr_scan", "ios": "https://dc.lft.to/lastmile_qr_scan"}, "bike_id": "699dd919719fc22777f83e3129fd7d43"}, {"name": "e2bff8ae9e5cb963506e5678dd6067ac", "type": "electric_scooter", "fusion_lon": 0.0, "lon": -77.023421, "is_disabled": 0, "lat": 38.92968783333333, "fusion_lat": 0.0, "is_reserved": 0, "rental_uris": {"android": "https://dc.lft.to/lastmile_qr_scan", "ios": "https://dc.lft.to/lastmile_qr_scan"}, "bike_id": "e2bff8ae9e5cb963506e5678dd6067ac"}, {"name": "2f69059111ea3401d2c564fa74a08ff4", "type": "electric_scooter", "fusion_lon": 0.0, "lon": -77.09057333333334, "is_disabled": 0, "lat": 38.942507, "fusion_lat": 0.0, "is_reserved": 0, "rental_uris": {"android": "https://dc.lft.to/lastmile_qr_scan", "ios": "https://dc.lft.to/lastmile_qr_scan"}, "bike_id": "2f69059111ea3401d2c564fa74a08ff4"}, {"name": "eaecf12e1b5ccd0b7502eebc1f499604", "type": "electric_scooter", "fusion_lon": 0.0, "lon": -77.04683116666666, "is_disabled": 0, "lat": 38.90230183333333, "fusion_lat": 0.0, "is_reserved": 0, "rental_uris": {"android": "https://dc.lft.to/lastmile_qr_scan", "ios": "https://dc.lft.to/lastmile_qr_scan"}, "bike_id": "eaecf12e1b5ccd0b7502eebc1f499604"}, {"name": "da2eaaa6d10945014aeae8a86d4abf80", "type": "electric_scooter", "fusion_lon": 0.0, "lon": -77.01911783333334, "is_disabled": 0, "lat": 38.8770045, "fusion_lat": 0.0, "is_reserved": 0, "rental_uris": {"android": "https://dc.lft.to/lastmile_qr_scan", "ios": "https://dc.lft.to/lastmile_qr_scan"}, "bike_id": "da2eaaa6d10945014aeae8a86d4abf80"}, {"name": "e8d4a87c1a1b5a1d8c3d2c0a10607aa4", "type": "electric_scooter", "fusion_lon": 0.0, "lon": -77.03305466666667, "is_disabled": 0, "lat": 38.95635683333333, "fusion_lat": 0.0, "is_reserved": 0, "rental_uris": {"android": "https://dc.lft.to/lastmile_qr_scan", "ios": "https://dc.lft.to/lastmile_qr_scan"}, "bike_id": "e8d4a87c1a1b5a1d8c3d2c0a10607aa4"}, {"name": "95409262c1da85ef6c00d4284649e748", "type": "electric_scooter", "fusion_lon": 0.0, "lon": -77.04705816666667, "is_disabled": 0, "lat": 38.92171316666666, "fusion_lat": 0.0, "is_reserved": 0, "rental_uris": {"android": "https://dc.lft.to/lastmile_qr_scan", "ios": "https://dc.lft.to/lastmile_qr_scan"}, "bike_id": "95409262c1da85ef6c00d4284649e748"}, {"name": "df7c83d5f18c405acd6aec8036e1b242", "type": "electric_scooter", "fusion_lon": 0.0, "lon": -77.01796566666667, "is_disabled": 0, "lat": 38.91398933333333, "fusion_lat": 0.0, "is_reserved": 0, "rental_uris": {"android": "https://dc.lft.to/lastmile_qr_scan", "ios": "https://dc.lft.to/lastmile_qr_scan"}, "bike_id": "df7c83d5f18c405acd6aec8036e1b242"}, {"name": "8b25be43941ca5bde076459bfeefe85b", "type": "electric_scooter", "fusion_lon": 0.0, "lon": -77.00680083333333, "is_disabled": 0, "lat": 38.899979333333334, "fusion_lat": 0.0, "is_reserved": 0, "rental_uris": {"android": "https://dc.lft.to/lastmile_qr_scan", "ios": "https://dc.lft.to/lastmile_qr_scan"}, "bike_id": "8b25be43941ca5bde076459bfeefe85b"}, {"name": "6e1c8f9d25797aea7a2691b46a2c8a6e", "type": "electric_scooter", "fusion_lon": 0.0, "lon": -77.01998883333333, "is_disabled": 0, "lat": 38.914227333333336, "fusion_lat": 0.0, "is_reserved": 0, "rental_uris": {"android": "https://dc.lft.to/lastmile_qr_scan", "ios": "https://dc.lft.to/lastmile_qr_scan"}, "bike_id": "6e1c8f9d25797aea7a2691b46a2c8a6e"}, {"name": "7d4228899dc0f057c7f1ca1d71e9308d", "type": "electric_scooter", "fusion_lon": 0.0, "lon": -76.99988883333333, "is_disabled": 0, "lat": 38.874917333333336, "fusion_lat": 0.0, "is_reserved": 0, "rental_uris": {"android": "https://dc.lft.to/lastmile_qr_scan", "ios": "https://dc.lft.to/lastmile_qr_scan"}, "bike_id": "7d4228899dc0f057c7f1ca1d71e9308d"}, {"name": "3ee2c37f861e51c2b2f2f6ab0af6ea81", "type": "electric_scooter", "fusion_lon": 0.0, "lon": -77.02559983333333, "is_disabled": 0, "lat": 38.94164683333333, "fusion_lat": 0.0, "is_reserved": 0, "rental_uris": {"android": "https://dc.lft.to/lastmile_qr_scan", "ios": "https://dc.lft.to/lastmile_qr_scan"}, "bike_id": "3ee2c37f861e51c2b2f2f6ab0af6ea81"}, {"name": "94c9b45f9f41353cfe81c053c27f34b8", "type": "electric_scooter", "fusion_lon": 0.0, "lon": -76.980775, "is_disabled": 0, "lat": 38.901729, "fusion_lat": 0.0, "is_reserved": 0, "rental_uris": {"android": "https://dc.lft.to/lastmile_qr_scan", "ios": "https://dc.lft.to/lastmile_qr_scan"}, "bike_id": "94c9b45f9f41353cfe81c053c27f34b8"}, {"name": "62d1bfef126cde89093af2ee8c1447e5", "type": "electric_scooter", "fusion_lon": 0.0, "lon": -77.019019, "is_disabled": 0, "lat": 38.9234915, "fusion_lat": 0.0, "is_reserved": 0, "rental_uris": {"android": "https://dc.lft.to/lastmile_qr_scan", "ios": "https://dc.lft.to/lastmile_qr_scan"}, "bike_id": "62d1bfef126cde89093af2ee8c1447e5"}, {"name": "1d7600313bd1c8eaf3a17c2e2daa29bf", "type": "electric_scooter", "fusion_lon": 0.0, "lon": -77.04490166666666, "is_disabled": 0, "lat": 38.91275533333334, "fusion_lat": 0.0, "is_reserved": 0, "rental_uris": {"android": "https://dc.lft.to/lastmile_qr_scan", "ios": "https://dc.lft.to/lastmile_qr_scan"}, "bike_id": "1d7600313bd1c8eaf3a17c2e2daa29bf"}, {"name": "425700facb77a71b9e3e7155886e883a", "type": "electric_scooter", "fusion_lon": 0.0, "lon": -76.99486383333333, "is_disabled": 0, "lat": 38.862422333333335, "fusion_lat": 0.0, "is_reserved": 0, "rental_uris": {"android": "https://dc.lft.to/lastmile_qr_scan", "ios": "https://dc.lft.to/lastmile_qr_scan"}, "bike_id": "425700facb77a71b9e3e7155886e883a"}, {"name": "2e29236ad15edf53c0865c03ece8bed0", "type": "electric_scooter", "fusion_lon": 0.0, "lon": -76.990386, "is_disabled": 0, "lat": 38.863889, "fusion_lat": 0.0, "is_reserved": 0, "rental_uris": {"android": "https://dc.lft.to/lastmile_qr_scan", "ios": "https://dc.lft.to/lastmile_qr_scan"}, "bike_id": "2e29236ad15edf53c0865c03ece8bed0"}, {"name": "0cbb193e97e81d9e32ad1776fb43a21d", "type": "electric_scooter", "fusion_lon": 0.0, "lon": -77.03491033333333, "is_disabled": 0, "lat": 38.909705333333335, "fusion_lat": 0.0, "is_reserved": 0, "rental_uris": {"android": "https://dc.lft.to/lastmile_qr_scan", "ios": "https://dc.lft.to/lastmile_qr_scan"}, "bike_id": "0cbb193e97e81d9e32ad1776fb43a21d"}, {"name": "cb4cfa0c0d7151a253a9bb3d3b4ff83b", "type": "electric_scooter", "fusion_lon": 0.0, "lon": -77.0386215, "is_disabled": 0, "lat": 38.90273466666667, "fusion_lat": 0.0, "is_reserved": 0, "rental_uris": {"android": "https://dc.lft.to/lastmile_qr_scan", "ios": "https://dc.lft.to/lastmile_qr_scan"}, "bike_id": "cb4cfa0c0d7151a253a9bb3d3b4ff83b"}, {"name": "baab7aa5169636aac007aae71fea3416", "type": "electric_scooter", "fusion_lon": 0.0, "lon": -77.04011166666666, "is_disabled": 0, "lat": 38.896307166666666, "fusion_lat": 0.0, "is_reserved": 0, "rental_uris": {"android": "https://dc.lft.to/lastmile_qr_scan", "ios": "https://dc.lft.to/lastmile_qr_scan"}, "bike_id": "baab7aa5169636aac007aae71fea3416"}, {"name": "e608dcc259048fd2a3fb0b905f1f514d", "type": "electric_scooter", "fusion_lon": 0.0, "lon": -76.99600516666666, "is_disabled": 0, "lat": 38.92846733333333, "fusion_lat": 0.0, "is_reserved": 0, "rental_uris": {"android": "https://dc.lft.to/lastmile_qr_scan", "ios": "https://dc.lft.to/lastmile_qr_scan"}, "bike_id": "e608dcc259048fd2a3fb0b905f1f514d"}, {"name": "3c9c04310af9a3a516ced45d722cccd3", "type": "electric_scooter", "fusion_lon": 0.0, "lon": -76.99254616666667, "is_disabled": 0, "lat": 38.89811733333333, "fusion_lat": 0.0, "is_reserved": 0, "rental_uris": {"android": "https://dc.lft.to/lastmile_qr_scan", "ios": "https://dc.lft.to/lastmile_qr_scan"}, "bike_id": "3c9c04310af9a3a516ced45d722cccd3"}, {"name": "178289a408c2fae8ae67251048715dd6", "type": "electric_bike", "fusion_lon": 0.0, "lon": -76.987563, "is_disabled": 0, "lat": 38.857737666666665, "fusion_lat": 0.0, "is_reserved": 0, "rental_uris": {"android": "https://dc.lft.to/lastmile_qr_scan", "ios": "https://dc.lft.to/lastmile_qr_scan"}, "bike_id": "178289a408c2fae8ae67251048715dd6"}, {"name": "266e8a0fa79428d54357650155a9e0e7", "type": "electric_scooter", "fusion_lon": 0.0, "lon": -76.98892266666667, "is_disabled": 0, "lat": 38.8666255, "fusion_lat": 0.0, "is_reserved": 0, "rental_uris": {"android": "https://dc.lft.to/lastmile_qr_scan", "ios": "https://dc.lft.to/lastmile_qr_scan"}, "bike_id": "266e8a0fa79428d54357650155a9e0e7"}, {"name": "dddec5a7812b5168a616686d1e241056", "type": "electric_scooter", "fusion_lon": 0.0, "lon": -77.02381866666667, "is_disabled": 0, "lat": 38.90951866666666, "fusion_lat": 0.0, "is_reserved": 0, "rental_uris": {"android": "https://dc.lft.to/lastmile_qr_scan", "ios": "https://dc.lft.to/lastmile_qr_scan"}, "bike_id": "dddec5a7812b5168a616686d1e241056"}, {"name": "6d967a99d13d7949042246170ff2a9af", "type": "electric_scooter", "fusion_lon": 0.0, "lon": -77.03518766666667, "is_disabled": 0, "lat": 38.918337333333334, "fusion_lat": 0.0, "is_reserved": 0, "rental_uris": {"android": "https://dc.lft.to/lastmile_qr_scan", "ios": "https://dc.lft.to/lastmile_qr_scan"}, "bike_id": "6d967a99d13d7949042246170ff2a9af"}, {"name": "aeeb3bf573ca60c565c65d7065e202f5", "type": "electric_scooter", "fusion_lon": 0.0, "lon": -77.0283535, "is_disabled": 0, "lat": 38.88731083333333, "fusion_lat": 0.0, "is_reserved": 0, "rental_uris": {"android": "https://dc.lft.to/lastmile_qr_scan", "ios": "https://dc.lft.to/lastmile_qr_scan"}, "bike_id": "aeeb3bf573ca60c565c65d7065e202f5"}, {"name": "126a4c93ee40d21ebbc9355e24648231", "type": "electric_scooter", "fusion_lon": 0.0, "lon": -77.02928733333333, "is_disabled": 0, "lat": 38.902385833333334, "fusion_lat": 0.0, "is_reserved": 0, "rental_uris": {"android": "https://dc.lft.to/lastmile_qr_scan", "ios": "https://dc.lft.to/lastmile_qr_scan"}, "bike_id": "126a4c93ee40d21ebbc9355e24648231"}, {"name": "de4e9b4973e79604acfc0580674dc738", "type": "electric_scooter", "fusion_lon": 0.0, "lon": -77.02285616666667, "is_disabled": 0, "lat": 38.89515033333333, "fusion_lat": 0.0, "is_reserved": 0, "rental_uris": {"android": "https://dc.lft.to/lastmile_qr_scan", "ios": "https://dc.lft.to/lastmile_qr_scan"}, "bike_id": "de4e9b4973e79604acfc0580674dc738"}, {"name": "816d387b319a9929a86a311be6c001fe", "type": "electric_scooter", "fusion_lon": 0.0, "lon": -77.02317616666667, "is_disabled": 0, "lat": 38.9073305, "fusion_lat": 0.0, "is_reserved": 0, "rental_uris": {"android": "https://dc.lft.to/lastmile_qr_scan", "ios": "https://dc.lft.to/lastmile_qr_scan"}, "bike_id": "816d387b319a9929a86a311be6c001fe"}, {"name": "df6ba2a5cc2618bc36c49e32614423c9", "type": "electric_bike", "fusion_lon": 0.0, "lon": -77.06309333333333, "is_disabled": 0, "lat": 38.7985355, "fusion_lat": 0.0, "is_reserved": 0, "rental_uris": {"android": "https://dc.lft.to/lastmile_qr_scan", "ios": "https://dc.lft.to/lastmile_qr_scan"}, "bike_id": "df6ba2a5cc2618bc36c49e32614423c9"}, {"name": "906fafd62ba2956a00f1e98b7c99c005", "type": "electric_scooter", "fusion_lon": 0.0, "lon": -77.01354516666666, "is_disabled": 0, "lat": 38.912785166666666, "fusion_lat": 0.0, "is_reserved": 0, "rental_uris": {"android": "https://dc.lft.to/lastmile_qr_scan", "ios": "https://dc.lft.to/lastmile_qr_scan"}, "bike_id": "906fafd62ba2956a00f1e98b7c99c005"}, {"name": "917b45b9143067e83b38f207e157392d", "type": "electric_scooter", "fusion_lon": 0.0, "lon": -77.02395083333333, "is_disabled": 0, "lat": 38.91974833333333, "fusion_lat": 0.0, "is_reserved": 0, "rental_uris": {"android": "https://dc.lft.to/lastmile_qr_scan", "ios": "https://dc.lft.to/lastmile_qr_scan"}, "bike_id": "917b45b9143067e83b38f207e157392d"}, {"name": "81402f988fb9e0e671b2e2df407edd27", "type": "electric_scooter", "fusion_lon": 0.0, "lon": -77.05018316666667, "is_disabled": 0, "lat": 38.903203, "fusion_lat": 0.0, "is_reserved": 0, "rental_uris": {"android": "https://dc.lft.to/lastmile_qr_scan", "ios": "https://dc.lft.to/lastmile_qr_scan"}, "bike_id": "81402f988fb9e0e671b2e2df407edd27"}, {"name": "5e968db65abdfb9768c4b61730367ec8", "type": "electric_scooter", "fusion_lon": 0.0, "lon": -76.97727866666666, "is_disabled": 0, "lat": 38.872449333333336, "fusion_lat": 0.0, "is_reserved": 0, "rental_uris": {"android": "https://dc.lft.to/lastmile_qr_scan", "ios": "https://dc.lft.to/lastmile_qr_scan"}, "bike_id": "5e968db65abdfb9768c4b61730367ec8"}, {"name": "f3ccf0d68e2b92d76707a06099553c8e", "type": "electric_scooter", "fusion_lon": 0.0, "lon": -77.02599516666666, "is_disabled": 0, "lat": 38.944081833333335, "fusion_lat": 0.0, "is_reserved": 0, "rental_uris": {"android": "https://dc.lft.to/lastmile_qr_scan", "ios": "https://dc.lft.to/lastmile_qr_scan"}, "bike_id": "f3ccf0d68e2b92d76707a06099553c8e"}, {"name": "6f88790c5ef7af46e44c52b046810012", "type": "electric_scooter", "fusion_lon": 0.0, "lon": -77.00697416666667, "is_disabled": 0, "lat": 38.95245766666667, "fusion_lat": 0.0, "is_reserved": 0, "rental_uris": {"android": "https://dc.lft.to/lastmile_qr_scan", "ios": "https://dc.lft.to/lastmile_qr_scan"}, "bike_id": "6f88790c5ef7af46e44c52b046810012"}, {"name": "5e3757779c65f4213447e3cb06d6b591", "type": "electric_scooter", "fusion_lon": 0.0, "lon": -76.99780683333333, "is_disabled": 0, "lat": 38.84435366666666, "fusion_lat": 0.0, "is_reserved": 0, "rental_uris": {"android": "https://dc.lft.to/lastmile_qr_scan", "ios": "https://dc.lft.to/lastmile_qr_scan"}, "bike_id": "5e3757779c65f4213447e3cb06d6b591"}, {"name": "451be2780920bb12587029982ba5d511", "type": "electric_scooter", "fusion_lon": 0.0, "lon": -77.03117166666667, "is_disabled": 0, "lat": 38.898470833333334, "fusion_lat": 0.0, "is_reserved": 0, "rental_uris": {"android": "https://dc.lft.to/lastmile_qr_scan", "ios": "https://dc.lft.to/lastmile_qr_scan"}, "bike_id": "451be2780920bb12587029982ba5d511"}, {"name": "b799e692bceac1af22e83741af899088", "type": "electric_scooter", "fusion_lon": 0.0, "lon": -77.05003883333333, "is_disabled": 0, "lat": 38.905526333333334, "fusion_lat": 0.0, "is_reserved": 0, "rental_uris": {"android": "https://dc.lft.to/lastmile_qr_scan", "ios": "https://dc.lft.to/lastmile_qr_scan"}, "bike_id": "b799e692bceac1af22e83741af899088"}, {"name": "aea8eeed9b25fdd73bb0bb6f962799b4", "type": "electric_scooter", "fusion_lon": 0.0, "lon": -77.0325045, "is_disabled": 0, "lat": 38.90144883333333, "fusion_lat": 0.0, "is_reserved": 0, "rental_uris": {"android": "https://dc.lft.to/lastmile_qr_scan", "ios": "https://dc.lft.to/lastmile_qr_scan"}, "bike_id": "aea8eeed9b25fdd73bb0bb6f962799b4"}, {"name": "e17f62f4b7ac16f91cac60adb02cd70b", "type": "electric_scooter", "fusion_lon": 0.0, "lon": -77.04175816666667, "is_disabled": 0, "lat": 38.917050833333334, "fusion_lat": 0.0, "is_reserved": 0, "rental_uris": {"android": "https://dc.lft.to/lastmile_qr_scan", "ios": "https://dc.lft.to/lastmile_qr_scan"}, "bike_id": "e17f62f4b7ac16f91cac60adb02cd70b"}, {"name": "f35885f91c9aa51881550fc8e58bc645", "type": "electric_scooter", "fusion_lon": 0.0, "lon": -76.99601166666666, "is_disabled": 0, "lat": 38.856904166666666, "fusion_lat": 0.0, "is_reserved": 0, "rental_uris": {"android": "https://dc.lft.to/lastmile_qr_scan", "ios": "https://dc.lft.to/lastmile_qr_scan"}, "bike_id": "f35885f91c9aa51881550fc8e58bc645"}, {"name": "087865ce8e86db5687221dc1d5bf4ef1", "type": "electric_scooter", "fusion_lon": 0.0, "lon": -76.98087583333333, "is_disabled": 0, "lat": 38.922463666666665, "fusion_lat": 0.0, "is_reserved": 0, "rental_uris": {"android": "https://dc.lft.to/lastmile_qr_scan", "ios": "https://dc.lft.to/lastmile_qr_scan"}, "bike_id": "087865ce8e86db5687221dc1d5bf4ef1"}, {"name": "b11eeddbdc784cc201a738a61a14efb2", "type": "electric_scooter", "fusion_lon": 0.0, "lon": -77.0234445, "is_disabled": 0, "lat": 38.893904666666664, "fusion_lat": 0.0, "is_reserved": 0, "rental_uris": {"android": "https://dc.lft.to/lastmile_qr_scan", "ios": "https://dc.lft.to/lastmile_qr_scan"}, "bike_id": "b11eeddbdc784cc201a738a61a14efb2"}, {"name": "65696d5ebfbbf16a62ade5db2a2f200a", "type": "electric_scooter", "fusion_lon": 0.0, "lon": -77.04345633333334, "is_disabled": 0, "lat": 38.928169833333335, "fusion_lat": 0.0, "is_reserved": 0, "rental_uris": {"android": "https://dc.lft.to/lastmile_qr_scan", "ios": "https://dc.lft.to/lastmile_qr_scan"}, "bike_id": "65696d5ebfbbf16a62ade5db2a2f200a"}, {"name": "9ca9b09666451bb0dcc3e13dd8666b54", "type": "electric_scooter", "fusion_lon": 0.0, "lon": -76.99500466666667, "is_disabled": 0, "lat": 38.909853, "fusion_lat": 0.0, "is_reserved": 0, "rental_uris": {"android": "https://dc.lft.to/lastmile_qr_scan", "ios": "https://dc.lft.to/lastmile_qr_scan"}, "bike_id": "9ca9b09666451bb0dcc3e13dd8666b54"}, {"name": "cbd303cc8e58cebbc916025133aa3641", "type": "electric_scooter", "fusion_lon": 0.0, "lon": -77.04500383333334, "is_disabled": 0, "lat": 38.899474833333336, "fusion_lat": 0.0, "is_reserved": 0, "rental_uris": {"android": "https://dc.lft.to/lastmile_qr_scan", "ios": "https://dc.lft.to/lastmile_qr_scan"}, "bike_id": "cbd303cc8e58cebbc916025133aa3641"}, {"name": "79d8198a5a0e8cdde5bf878b96143dc5", "type": "electric_scooter", "fusion_lon": 0.0, "lon": -77.02058, "is_disabled": 0, "lat": 38.90419216666667, "fusion_lat": 0.0, "is_reserved": 0, "rental_uris": {"android": "https://dc.lft.to/lastmile_qr_scan", "ios": "https://dc.lft.to/lastmile_qr_scan"}, "bike_id": "79d8198a5a0e8cdde5bf878b96143dc5"}, {"name": "62d81f345102d90a629ea60bda2e9427", "type": "electric_scooter", "fusion_lon": 0.0, "lon": -77.00763066666667, "is_disabled": 0, "lat": 38.90729566666667, "fusion_lat": 0.0, "is_reserved": 0, "rental_uris": {"android": "https://dc.lft.to/lastmile_qr_scan", "ios": "https://dc.lft.to/lastmile_qr_scan"}, "bike_id": "62d81f345102d90a629ea60bda2e9427"}, {"name": "015de0bbeb7ee06a5016059c63f327ed", "type": "electric_scooter", "fusion_lon": 0.0, "lon": -77.04890633333333, "is_disabled": 0, "lat": 38.897582, "fusion_lat": 0.0, "is_reserved": 0, "rental_uris": {"android": "https://dc.lft.to/lastmile_qr_scan", "ios": "https://dc.lft.to/lastmile_qr_scan"}, "bike_id": "015de0bbeb7ee06a5016059c63f327ed"}, {"name": "6b27ff6c2509584244b984f3b025a9e3", "type": "electric_scooter", "fusion_lon": 0.0, "lon": -77.01747766666666, "is_disabled": 0, "lat": 38.8864135, "fusion_lat": 0.0, "is_reserved": 0, "rental_uris": {"android": "https://dc.lft.to/lastmile_qr_scan", "ios": "https://dc.lft.to/lastmile_qr_scan"}, "bike_id": "6b27ff6c2509584244b984f3b025a9e3"}, {"name": "54c8a0e838aa7e75dabe973d8ec4b6ab", "type": "electric_scooter", "fusion_lon": 0.0, "lon": -77.0363475, "is_disabled": 0, "lat": 38.930702, "fusion_lat": 0.0, "is_reserved": 0, "rental_uris": {"android": "https://dc.lft.to/lastmile_qr_scan", "ios": "https://dc.lft.to/lastmile_qr_scan"}, "bike_id": "54c8a0e838aa7e75dabe973d8ec4b6ab"}, {"name": "49d61c7e9e59fa24f397a82ca8639e75", "type": "electric_scooter", "fusion_lon": 0.0, "lon": -77.02200116666667, "is_disabled": 0, "lat": 38.924815, "fusion_lat": 0.0, "is_reserved": 0, "rental_uris": {"android": "https://dc.lft.to/lastmile_qr_scan", "ios": "https://dc.lft.to/lastmile_qr_scan"}, "bike_id": "49d61c7e9e59fa24f397a82ca8639e75"}, {"name": "8aa77c4be7027eaae5a5291157ba8377", "type": "electric_scooter", "fusion_lon": 0.0, "lon": -77.02533633333333, "is_disabled": 0, "lat": 38.92085733333333, "fusion_lat": 0.0, "is_reserved": 0, "rental_uris": {"android": "https://dc.lft.to/lastmile_qr_scan", "ios": "https://dc.lft.to/lastmile_qr_scan"}, "bike_id": "8aa77c4be7027eaae5a5291157ba8377"}, {"name": "97307310867417cfe58f231e67652e74", "type": "electric_bike", "fusion_lon": 0.0, "lon": -76.96052333333333, "is_disabled": 0, "lat": 38.967363, "fusion_lat": 0.0, "is_reserved": 0, "rental_uris": {"android": "https://dc.lft.to/lastmile_qr_scan", "ios": "https://dc.lft.to/lastmile_qr_scan"}, "bike_id": "97307310867417cfe58f231e67652e74"}, {"name": "33099e117362f61209defbeaab44a984", "type": "electric_scooter", "fusion_lon": 0.0, "lon": -77.01167416666667, "is_disabled": 0, "lat": 38.896210333333336, "fusion_lat": 0.0, "is_reserved": 0, "rental_uris": {"android": "https://dc.lft.to/lastmile_qr_scan", "ios": "https://dc.lft.to/lastmile_qr_scan"}, "bike_id": "33099e117362f61209defbeaab44a984"}, {"name": "1dbb23a29641ed8a25adb9b9d2f39753", "type": "electric_scooter", "fusion_lon": 0.0, "lon": -77.0321895, "is_disabled": 0, "lat": 38.90754483333333, "fusion_lat": 0.0, "is_reserved": 0, "rental_uris": {"android": "https://dc.lft.to/lastmile_qr_scan", "ios": "https://dc.lft.to/lastmile_qr_scan"}, "bike_id": "1dbb23a29641ed8a25adb9b9d2f39753"}, {"name": "9efdc21e6b69925a7d9d031bb5ccd53d", "type": "electric_bike", "fusion_lon": 0.0, "lon": -76.96914516666666, "is_disabled": 0, "lat": 38.846140166666665, "fusion_lat": 0.0, "is_reserved": 0, "rental_uris": {"android": "https://dc.lft.to/lastmile_qr_scan", "ios": "https://dc.lft.to/lastmile_qr_scan"}, "bike_id": "9efdc21e6b69925a7d9d031bb5ccd53d"}, {"name": "555cdc4bc45b9719cbc083310bb41981", "type": "electric_scooter", "fusion_lon": 0.0, "lon": -76.98724316666667, "is_disabled": 0, "lat": 38.8559665, "fusion_lat": 0.0, "is_reserved": 0, "rental_uris": {"android": "https://dc.lft.to/lastmile_qr_scan", "ios": "https://dc.lft.to/lastmile_qr_scan"}, "bike_id": "555cdc4bc45b9719cbc083310bb41981"}, {"name": "762fcd31296b17d3610a28de6ce3829a", "type": "electric_scooter", "fusion_lon": 0.0, "lon": -77.02859466666666, "is_disabled": 0, "lat": 38.887447333333334, "fusion_lat": 0.0, "is_reserved": 0, "rental_uris": {"android": "https://dc.lft.to/lastmile_qr_scan", "ios": "https://dc.lft.to/lastmile_qr_scan"}, "bike_id": "762fcd31296b17d3610a28de6ce3829a"}, {"name": "17538db3b76d2ac8b039d510fd64eac1", "type": "electric_scooter", "fusion_lon": 0.0, "lon": -77.00600983333334, "is_disabled": 0, "lat": 38.87559816666667, "fusion_lat": 0.0, "is_reserved": 0, "rental_uris": {"android": "https://dc.lft.to/lastmile_qr_scan", "ios": "https://dc.lft.to/lastmile_qr_scan"}, "bike_id": "17538db3b76d2ac8b039d510fd64eac1"}, {"name": "252e061c3de041f5b39ac0f40484898f", "type": "electric_scooter", "fusion_lon": 0.0, "lon": -77.04500316666666, "is_disabled": 0, "lat": 38.91357583333333, "fusion_lat": 0.0, "is_reserved": 0, "rental_uris": {"android": "https://dc.lft.to/lastmile_qr_scan", "ios": "https://dc.lft.to/lastmile_qr_scan"}, "bike_id": "252e061c3de041f5b39ac0f40484898f"}, {"name": "e1f8a7b6fadb2c6a303cb37f00c46331", "type": "electric_scooter", "fusion_lon": 0.0, "lon": -77.02282266666667, "is_disabled": 0, "lat": 38.92728483333333, "fusion_lat": 0.0, "is_reserved": 0, "rental_uris": {"android": "https://dc.lft.to/lastmile_qr_scan", "ios": "https://dc.lft.to/lastmile_qr_scan"}, "bike_id": "e1f8a7b6fadb2c6a303cb37f00c46331"}, {"name": "e6fd8e8b5d8bf5c3e263cbb39bc3d99d", "type": "electric_scooter", "fusion_lon": 0.0, "lon": -77.0230365, "is_disabled": 0, "lat": 38.91227816666667, "fusion_lat": 0.0, "is_reserved": 0, "rental_uris": {"android": "https://dc.lft.to/lastmile_qr_scan", "ios": "https://dc.lft.to/lastmile_qr_scan"}, "bike_id": "e6fd8e8b5d8bf5c3e263cbb39bc3d99d"}, {"name": "3f9abc0fdbc6af563005a29b99203cec", "type": "electric_scooter", "fusion_lon": 0.0, "lon": -77.02509166666667, "is_disabled": 0, "lat": 38.91807333333333, "fusion_lat": 0.0, "is_reserved": 0, "rental_uris": {"android": "https://dc.lft.to/lastmile_qr_scan", "ios": "https://dc.lft.to/lastmile_qr_scan"}, "bike_id": "3f9abc0fdbc6af563005a29b99203cec"}, {"name": "6796a0f3d6c7b5d0d0399812fa25de44", "type": "electric_scooter", "fusion_lon": 0.0, "lon": -77.017872, "is_disabled": 0, "lat": 38.91961933333333, "fusion_lat": 0.0, "is_reserved": 0, "rental_uris": {"android": "https://dc.lft.to/lastmile_qr_scan", "ios": "https://dc.lft.to/lastmile_qr_scan"}, "bike_id": "6796a0f3d6c7b5d0d0399812fa25de44"}, {"name": "229e7aa3790a7e55816f0605f8e6bc25", "type": "electric_scooter", "fusion_lon": 0.0, "lon": -77.045834, "is_disabled": 0, "lat": 38.9214875, "fusion_lat": 0.0, "is_reserved": 0, "rental_uris": {"android": "https://dc.lft.to/lastmile_qr_scan", "ios": "https://dc.lft.to/lastmile_qr_scan"}, "bike_id": "229e7aa3790a7e55816f0605f8e6bc25"}, {"name": "8effec61f533b3ed235acc1b529bd144", "type": "electric_scooter", "fusion_lon": 0.0, "lon": -77.00795316666667, "is_disabled": 0, "lat": 38.8315065, "fusion_lat": 0.0, "is_reserved": 0, "rental_uris": {"android": "https://dc.lft.to/lastmile_qr_scan", "ios": "https://dc.lft.to/lastmile_qr_scan"}, "bike_id": "8effec61f533b3ed235acc1b529bd144"}, {"name": "5239d40fa97a9e5f71cc64d615fdac62", "type": "electric_scooter", "fusion_lon": 0.0, "lon": -77.043501, "is_disabled": 0, "lat": 38.903974, "fusion_lat": 0.0, "is_reserved": 0, "rental_uris": {"android": "https://dc.lft.to/lastmile_qr_scan", "ios": "https://dc.lft.to/lastmile_qr_scan"}, "bike_id": "5239d40fa97a9e5f71cc64d615fdac62"}, {"name": "095bef5e54345d87ffbb4fa93ce8dd21", "type": "electric_scooter", "fusion_lon": 0.0, "lon": -77.04350533333333, "is_disabled": 0, "lat": 38.9061925, "fusion_lat": 0.0, "is_reserved": 0, "rental_uris": {"android": "https://dc.lft.to/lastmile_qr_scan", "ios": "https://dc.lft.to/lastmile_qr_scan"}, "bike_id": "095bef5e54345d87ffbb4fa93ce8dd21"}, {"name": "d6f4ebd23dc700ae0b10e28ecdb8b95e", "type": "electric_scooter", "fusion_lon": 0.0, "lon": -77.02169016666667, "is_disabled": 0, "lat": 38.926300499999996, "fusion_lat": 0.0, "is_reserved": 0, "rental_uris": {"android": "https://dc.lft.to/lastmile_qr_scan", "ios": "https://dc.lft.to/lastmile_qr_scan"}, "bike_id": "d6f4ebd23dc700ae0b10e28ecdb8b95e"}, {"name": "78458ff0815f6116178b933ae87b4711", "type": "electric_scooter", "fusion_lon": 0.0, "lon": -77.02714, "is_disabled": 0, "lat": 38.917201166666665, "fusion_lat": 0.0, "is_reserved": 0, "rental_uris": {"android": "https://dc.lft.to/lastmile_qr_scan", "ios": "https://dc.lft.to/lastmile_qr_scan"}, "bike_id": "78458ff0815f6116178b933ae87b4711"}, {"name": "a50f0a57ef2bbe107704bbb3d8a0430a", "type": "electric_scooter", "fusion_lon": 0.0, "lon": -77.01780383333333, "is_disabled": 0, "lat": 38.874630833333335, "fusion_lat": 0.0, "is_reserved": 0, "rental_uris": {"android": "https://dc.lft.to/lastmile_qr_scan", "ios": "https://dc.lft.to/lastmile_qr_scan"}, "bike_id": "a50f0a57ef2bbe107704bbb3d8a0430a"}, {"name": "89d4e3f0b685d2d55edc64bc15bcdf20", "type": "electric_scooter", "fusion_lon": 0.0, "lon": -77.02502116666666, "is_disabled": 0, "lat": 38.8975685, "fusion_lat": 0.0, "is_reserved": 0, "rental_uris": {"android": "https://dc.lft.to/lastmile_qr_scan", "ios": "https://dc.lft.to/lastmile_qr_scan"}, "bike_id": "89d4e3f0b685d2d55edc64bc15bcdf20"}, {"name": "a1d47cf2d1d6ad4101175d7ca9549fea", "type": "electric_scooter", "fusion_lon": 0.0, "lon": -76.92606466666666, "is_disabled": 0, "lat": 38.89783533333333, "fusion_lat": 0.0, "is_reserved": 0, "rental_uris": {"android": "https://dc.lft.to/lastmile_qr_scan", "ios": "https://dc.lft.to/lastmile_qr_scan"}, "bike_id": "a1d47cf2d1d6ad4101175d7ca9549fea"}, {"name": "a66d5df61772dbb020f0b1454fea0372", "type": "electric_scooter", "fusion_lon": 0.0, "lon": -77.04530033333333, "is_disabled": 0, "lat": 38.8947405, "fusion_lat": 0.0, "is_reserved": 0, "rental_uris": {"android": "https://dc.lft.to/lastmile_qr_scan", "ios": "https://dc.lft.to/lastmile_qr_scan"}, "bike_id": "a66d5df61772dbb020f0b1454fea0372"}, {"name": "8f71683ec42f16bebba14e77dd67135c", "type": "electric_scooter", "fusion_lon": 0.0, "lon": -77.03213566666666, "is_disabled": 0, "lat": 38.92279283333333, "fusion_lat": 0.0, "is_reserved": 0, "rental_uris": {"android": "https://dc.lft.to/lastmile_qr_scan", "ios": "https://dc.lft.to/lastmile_qr_scan"}, "bike_id": "8f71683ec42f16bebba14e77dd67135c"}, {"name": "acc0968715d956a9531fd2fd4119e8f9", "type": "electric_scooter", "fusion_lon": 0.0, "lon": -77.03130783333333, "is_disabled": 0, "lat": 38.911078, "fusion_lat": 0.0, "is_reserved": 0, "rental_uris": {"android": "https://dc.lft.to/lastmile_qr_scan", "ios": "https://dc.lft.to/lastmile_qr_scan"}, "bike_id": "acc0968715d956a9531fd2fd4119e8f9"}, {"name": "945247e09107952da4b81ae3dc265793", "type": "electric_scooter", "fusion_lon": 0.0, "lon": -77.02599383333333, "is_disabled": 0, "lat": 38.9182555, "fusion_lat": 0.0, "is_reserved": 0, "rental_uris": {"android": "https://dc.lft.to/lastmile_qr_scan", "ios": "https://dc.lft.to/lastmile_qr_scan"}, "bike_id": "945247e09107952da4b81ae3dc265793"}, {"name": "d336a966b11011a6dca693ac02548542", "type": "electric_scooter", "fusion_lon": 0.0, "lon": -77.0385785, "is_disabled": 0, "lat": 38.90325883333333, "fusion_lat": 0.0, "is_reserved": 0, "rental_uris": {"android": "https://dc.lft.to/lastmile_qr_scan", "ios": "https://dc.lft.to/lastmile_qr_scan"}, "bike_id": "d336a966b11011a6dca693ac02548542"}, {"name": "466c6c751a026366c33dae8bf9b503be", "type": "electric_scooter", "fusion_lon": 0.0, "lon": -77.0368105, "is_disabled": 0, "lat": 38.9095825, "fusion_lat": 0.0, "is_reserved": 0, "rental_uris": {"android": "https://dc.lft.to/lastmile_qr_scan", "ios": "https://dc.lft.to/lastmile_qr_scan"}, "bike_id": "466c6c751a026366c33dae8bf9b503be"}, {"name": "2a203230a47da1c10833e99a105f53bf", "type": "electric_scooter", "fusion_lon": 0.0, "lon": -77.03467616666667, "is_disabled": 0, "lat": 38.902690166666666, "fusion_lat": 0.0, "is_reserved": 0, "rental_uris": {"android": "https://dc.lft.to/lastmile_qr_scan", "ios": "https://dc.lft.to/lastmile_qr_scan"}, "bike_id": "2a203230a47da1c10833e99a105f53bf"}, {"name": "0dd700b6c2f7dacbbeb412ca08501fe3", "type": "electric_scooter", "fusion_lon": 0.0, "lon": -77.0356235, "is_disabled": 0, "lat": 38.91863133333333, "fusion_lat": 0.0, "is_reserved": 0, "rental_uris": {"android": "https://dc.lft.to/lastmile_qr_scan", "ios": "https://dc.lft.to/lastmile_qr_scan"}, "bike_id": "0dd700b6c2f7dacbbeb412ca08501fe3"}, {"name": "af8725b0b746e27832be6d0c5155fad5", "type": "electric_scooter", "fusion_lon": 0.0, "lon": -76.960174, "is_disabled": 0, "lat": 38.86931366666666, "fusion_lat": 0.0, "is_reserved": 0, "rental_uris": {"android": "https://dc.lft.to/lastmile_qr_scan", "ios": "https://dc.lft.to/lastmile_qr_scan"}, "bike_id": "af8725b0b746e27832be6d0c5155fad5"}, {"name": "acf28a348f4a01d1c4f25ca028cff6e1", "type": "electric_bike", "fusion_lon": 0.0, "lon": -76.904176, "is_disabled": 0, "lat": 38.94055733333333, "fusion_lat": 0.0, "is_reserved": 0, "rental_uris": {"android": "https://dc.lft.to/lastmile_qr_scan", "ios": "https://dc.lft.to/lastmile_qr_scan"}, "bike_id": "acf28a348f4a01d1c4f25ca028cff6e1"}, {"name": "bd551087d9466a00dbd84b6570c0d5d8", "type": "electric_scooter", "fusion_lon": 0.0, "lon": -77.0241375, "is_disabled": 0, "lat": 38.892232666666665, "fusion_lat": 0.0, "is_reserved": 0, "rental_uris": {"android": "https://dc.lft.to/lastmile_qr_scan", "ios": "https://dc.lft.to/lastmile_qr_scan"}, "bike_id": "bd551087d9466a00dbd84b6570c0d5d8"}, {"name": "e786cca2e87e34ace239c61a6d524f3c", "type": "electric_scooter", "fusion_lon": 0.0, "lon": -76.94636983333334, "is_disabled": 0, "lat": 38.898672166666664, "fusion_lat": 0.0, "is_reserved": 0, "rental_uris": {"android": "https://dc.lft.to/lastmile_qr_scan", "ios": "https://dc.lft.to/lastmile_qr_scan"}, "bike_id": "e786cca2e87e34ace239c61a6d524f3c"}, {"name": "14a7120937c439e203d79a7bfedaadb6", "type": "electric_scooter", "fusion_lon": 0.0, "lon": -77.04377466666666, "is_disabled": 0, "lat": 38.8922205, "fusion_lat": 0.0, "is_reserved": 0, "rental_uris": {"android": "https://dc.lft.to/lastmile_qr_scan", "ios": "https://dc.lft.to/lastmile_qr_scan"}, "bike_id": "14a7120937c439e203d79a7bfedaadb6"}, {"name": "c70dd3b88398c25235711776cd29982d", "type": "electric_scooter", "fusion_lon": 0.0, "lon": -77.05128266666667, "is_disabled": 0, "lat": 38.92519716666666, "fusion_lat": 0.0, "is_reserved": 0, "rental_uris": {"android": "https://dc.lft.to/lastmile_qr_scan", "ios": "https://dc.lft.to/lastmile_qr_scan"}, "bike_id": "c70dd3b88398c25235711776cd29982d"}, {"name": "fb28f2bf571f1cbf9001f93cda15ea6f", "type": "electric_scooter", "fusion_lon": 0.0, "lon": -77.01750366666667, "is_disabled": 0, "lat": 38.9013395, "fusion_lat": 0.0, "is_reserved": 0, "rental_uris": {"android": "https://dc.lft.to/lastmile_qr_scan", "ios": "https://dc.lft.to/lastmile_qr_scan"}, "bike_id": "fb28f2bf571f1cbf9001f93cda15ea6f"}, {"name": "c4403fea8b8fa12f4bccbf84d747463f", "type": "electric_scooter", "fusion_lon": 0.0, "lon": -77.0271675, "is_disabled": 0, "lat": 38.91548733333333, "fusion_lat": 0.0, "is_reserved": 0, "rental_uris": {"android": "https://dc.lft.to/lastmile_qr_scan", "ios": "https://dc.lft.to/lastmile_qr_scan"}, "bike_id": "c4403fea8b8fa12f4bccbf84d747463f"}, {"name": "8c546b891348dae59cf6291ac4329152", "type": "electric_scooter", "fusion_lon": 0.0, "lon": -76.97333683333333, "is_disabled": 0, "lat": 38.86517416666667, "fusion_lat": 0.0, "is_reserved": 0, "rental_uris": {"android": "https://dc.lft.to/lastmile_qr_scan", "ios": "https://dc.lft.to/lastmile_qr_scan"}, "bike_id": "8c546b891348dae59cf6291ac4329152"}, {"name": "887535d944cceddf2336599cab49cf45", "type": "electric_scooter", "fusion_lon": 0.0, "lon": -77.02136666666667, "is_disabled": 0, "lat": 38.923082666666666, "fusion_lat": 0.0, "is_reserved": 0, "rental_uris": {"android": "https://dc.lft.to/lastmile_qr_scan", "ios": "https://dc.lft.to/lastmile_qr_scan"}, "bike_id": "887535d944cceddf2336599cab49cf45"}, {"name": "7b0ba9f6199272d5b999d80b8031e06c", "type": "electric_scooter", "fusion_lon": 0.0, "lon": -77.02531683333333, "is_disabled": 0, "lat": 38.9208635, "fusion_lat": 0.0, "is_reserved": 0, "rental_uris": {"android": "https://dc.lft.to/lastmile_qr_scan", "ios": "https://dc.lft.to/lastmile_qr_scan"}, "bike_id": "7b0ba9f6199272d5b999d80b8031e06c"}, {"name": "a84e2a419a5fa6da65fcebffd2787817", "type": "electric_scooter", "fusion_lon": 0.0, "lon": -77.03916316666667, "is_disabled": 0, "lat": 38.90139416666667, "fusion_lat": 0.0, "is_reserved": 0, "rental_uris": {"android": "https://dc.lft.to/lastmile_qr_scan", "ios": "https://dc.lft.to/lastmile_qr_scan"}, "bike_id": "a84e2a419a5fa6da65fcebffd2787817"}, {"name": "24f9f35617f7915fd8a4f07c21258f13", "type": "electric_bike", "fusion_lon": 0.0, "lon": -76.99740716666666, "is_disabled": 0, "lat": 39.04233816666667, "fusion_lat": 0.0, "is_reserved": 0, "rental_uris": {"android": "https://dc.lft.to/lastmile_qr_scan", "ios": "https://dc.lft.to/lastmile_qr_scan"}, "bike_id": "24f9f35617f7915fd8a4f07c21258f13"}, {"name": "95f34b3160930454d5d86a9366c4d743", "type": "electric_scooter", "fusion_lon": 0.0, "lon": -77.01229216666667, "is_disabled": 0, "lat": 38.88635166666667, "fusion_lat": 0.0, "is_reserved": 0, "rental_uris": {"android": "https://dc.lft.to/lastmile_qr_scan", "ios": "https://dc.lft.to/lastmile_qr_scan"}, "bike_id": "95f34b3160930454d5d86a9366c4d743"}, {"name": "3c6f94b4404b04417d79130e6169abb5", "type": "electric_scooter", "fusion_lon": 0.0, "lon": -77.04253416666667, "is_disabled": 0, "lat": 38.912627, "fusion_lat": 0.0, "is_reserved": 0, "rental_uris": {"android": "https://dc.lft.to/lastmile_qr_scan", "ios": "https://dc.lft.to/lastmile_qr_scan"}, "bike_id": "3c6f94b4404b04417d79130e6169abb5"}, {"name": "bd6cb55815c337f53401ddd6f5e0c287", "type": "electric_scooter", "fusion_lon": 0.0, "lon": -76.9825195, "is_disabled": 0, "lat": 38.90456116666667, "fusion_lat": 0.0, "is_reserved": 0, "rental_uris": {"android": "https://dc.lft.to/lastmile_qr_scan", "ios": "https://dc.lft.to/lastmile_qr_scan"}, "bike_id": "bd6cb55815c337f53401ddd6f5e0c287"}, {"name": "f2805b309e401bcf9d7b6b8805e3d8de", "type": "electric_scooter", "fusion_lon": 0.0, "lon": -77.04877433333333, "is_disabled": 0, "lat": 38.898442, "fusion_lat": 0.0, "is_reserved": 0, "rental_uris": {"android": "https://dc.lft.to/lastmile_qr_scan", "ios": "https://dc.lft.to/lastmile_qr_scan"}, "bike_id": "f2805b309e401bcf9d7b6b8805e3d8de"}, {"name": "94c9ba8f90ed53e1f578a34d73be9f2b", "type": "electric_scooter", "fusion_lon": 0.0, "lon": -77.05178666666667, "is_disabled": 0, "lat": 38.92425516666667, "fusion_lat": 0.0, "is_reserved": 0, "rental_uris": {"android": "https://dc.lft.to/lastmile_qr_scan", "ios": "https://dc.lft.to/lastmile_qr_scan"}, "bike_id": "94c9ba8f90ed53e1f578a34d73be9f2b"}, {"name": "65d219514725305f144dc1050b555ef9", "type": "electric_scooter", "fusion_lon": 0.0, "lon": -77.00061466666666, "is_disabled": 0, "lat": 38.874435, "fusion_lat": 0.0, "is_reserved": 0, "rental_uris": {"android": "https://dc.lft.to/lastmile_qr_scan", "ios": "https://dc.lft.to/lastmile_qr_scan"}, "bike_id": "65d219514725305f144dc1050b555ef9"}, {"name": "3eb3b9ce3dec75530cab4ab80416d5ef", "type": "electric_scooter", "fusion_lon": 0.0, "lon": -77.0525295, "is_disabled": 0, "lat": 38.9278025, "fusion_lat": 0.0, "is_reserved": 0, "rental_uris": {"android": "https://dc.lft.to/lastmile_qr_scan", "ios": "https://dc.lft.to/lastmile_qr_scan"}, "bike_id": "3eb3b9ce3dec75530cab4ab80416d5ef"}, {"name": "17e364f0676b33682c3aa1047c3120b0", "type": "electric_scooter", "fusion_lon": 0.0, "lon": -76.9882385, "is_disabled": 0, "lat": 38.890778833333336, "fusion_lat": 0.0, "is_reserved": 0, "rental_uris": {"android": "https://dc.lft.to/lastmile_qr_scan", "ios": "https://dc.lft.to/lastmile_qr_scan"}, "bike_id": "17e364f0676b33682c3aa1047c3120b0"}, {"name": "cf27f959950c70d33187846a16ad4760", "type": "electric_scooter", "fusion_lon": 0.0, "lon": -76.97337416666667, "is_disabled": 0, "lat": 38.865097, "fusion_lat": 0.0, "is_reserved": 0, "rental_uris": {"android": "https://dc.lft.to/lastmile_qr_scan", "ios": "https://dc.lft.to/lastmile_qr_scan"}, "bike_id": "cf27f959950c70d33187846a16ad4760"}, {"name": "527c89c2b85bb11d7ee4534c41d46204", "type": "electric_scooter", "fusion_lon": 0.0, "lon": -77.01361283333334, "is_disabled": 0, "lat": 38.91944, "fusion_lat": 0.0, "is_reserved": 0, "rental_uris": {"android": "https://dc.lft.to/lastmile_qr_scan", "ios": "https://dc.lft.to/lastmile_qr_scan"}, "bike_id": "527c89c2b85bb11d7ee4534c41d46204"}, {"name": "70a5a54a04c4796013a25b3c288b3227", "type": "electric_scooter", "fusion_lon": 0.0, "lon": -77.0463835, "is_disabled": 0, "lat": 38.892209, "fusion_lat": 0.0, "is_reserved": 0, "rental_uris": {"android": "https://dc.lft.to/lastmile_qr_scan", "ios": "https://dc.lft.to/lastmile_qr_scan"}, "bike_id": "70a5a54a04c4796013a25b3c288b3227"}, {"name": "d1e688d1317965d2a29c41f237adb784", "type": "electric_scooter", "fusion_lon": 0.0, "lon": -77.02510966666667, "is_disabled": 0, "lat": 38.904253, "fusion_lat": 0.0, "is_reserved": 0, "rental_uris": {"android": "https://dc.lft.to/lastmile_qr_scan", "ios": "https://dc.lft.to/lastmile_qr_scan"}, "bike_id": "d1e688d1317965d2a29c41f237adb784"}, {"name": "3fab56bea36b94222ee78d7f9f303eae", "type": "electric_scooter", "fusion_lon": 0.0, "lon": -77.056736, "is_disabled": 0, "lat": 38.904904, "fusion_lat": 0.0, "is_reserved": 0, "rental_uris": {"android": "https://dc.lft.to/lastmile_qr_scan", "ios": "https://dc.lft.to/lastmile_qr_scan"}, "bike_id": "3fab56bea36b94222ee78d7f9f303eae"}, {"name": "e8007961dee1fe2d214aaa77d76f7d36", "type": "electric_scooter", "fusion_lon": 0.0, "lon": -76.98851283333333, "is_disabled": 0, "lat": 38.90193, "fusion_lat": 0.0, "is_reserved": 0, "rental_uris": {"android": "https://dc.lft.to/lastmile_qr_scan", "ios": "https://dc.lft.to/lastmile_qr_scan"}, "bike_id": "e8007961dee1fe2d214aaa77d76f7d36"}, {"name": "5d911da652e6cef1865017b4cffa67f5", "type": "electric_scooter", "fusion_lon": 0.0, "lon": -77.022866, "is_disabled": 0, "lat": 38.917742833333335, "fusion_lat": 0.0, "is_reserved": 0, "rental_uris": {"android": "https://dc.lft.to/lastmile_qr_scan", "ios": "https://dc.lft.to/lastmile_qr_scan"}, "bike_id": "5d911da652e6cef1865017b4cffa67f5"}, {"name": "08d980e836ab1c508cca3d4dc4ff786b", "type": "electric_bike", "fusion_lon": 0.0, "lon": -76.97402666666666, "is_disabled": 0, "lat": 38.845252333333335, "fusion_lat": 0.0, "is_reserved": 0, "rental_uris": {"android": "https://dc.lft.to/lastmile_qr_scan", "ios": "https://dc.lft.to/lastmile_qr_scan"}, "bike_id": "08d980e836ab1c508cca3d4dc4ff786b"}, {"name": "3ba71bd0e160aa7db87417cbd0bffa4c", "type": "electric_scooter", "fusion_lon": 0.0, "lon": -77.02605083333333, "is_disabled": 0, "lat": 38.9003425, "fusion_lat": 0.0, "is_reserved": 0, "rental_uris": {"android": "https://dc.lft.to/lastmile_qr_scan", "ios": "https://dc.lft.to/lastmile_qr_scan"}, "bike_id": "3ba71bd0e160aa7db87417cbd0bffa4c"}, {"name": "159b2ae639f70917a31a840daf8cade9", "type": "electric_scooter", "fusion_lon": 0.0, "lon": -76.99969316666666, "is_disabled": 0, "lat": 38.90833466666667, "fusion_lat": 0.0, "is_reserved": 0, "rental_uris": {"android": "https://dc.lft.to/lastmile_qr_scan", "ios": "https://dc.lft.to/lastmile_qr_scan"}, "bike_id": "159b2ae639f70917a31a840daf8cade9"}, {"name": "55d7d7fd41d34438e3f74027fc84fec3", "type": "electric_scooter", "fusion_lon": 0.0, "lon": -76.946522, "is_disabled": 0, "lat": 38.89829483333333, "fusion_lat": 0.0, "is_reserved": 0, "rental_uris": {"android": "https://dc.lft.to/lastmile_qr_scan", "ios": "https://dc.lft.to/lastmile_qr_scan"}, "bike_id": "55d7d7fd41d34438e3f74027fc84fec3"}, {"name": "94b48c4ea2ce48eec08ca303a9b26139", "type": "electric_scooter", "fusion_lon": 0.0, "lon": -77.07157583333333, "is_disabled": 0, "lat": 38.90868283333333, "fusion_lat": 0.0, "is_reserved": 0, "rental_uris": {"android": "https://dc.lft.to/lastmile_qr_scan", "ios": "https://dc.lft.to/lastmile_qr_scan"}, "bike_id": "94b48c4ea2ce48eec08ca303a9b26139"}, {"name": "3ffda421547736bb1634336cbf45b12e", "type": "electric_scooter", "fusion_lon": 0.0, "lon": -77.02377383333334, "is_disabled": 0, "lat": 38.95306433333333, "fusion_lat": 0.0, "is_reserved": 0, "rental_uris": {"android": "https://dc.lft.to/lastmile_qr_scan", "ios": "https://dc.lft.to/lastmile_qr_scan"}, "bike_id": "3ffda421547736bb1634336cbf45b12e"}, {"name": "b0ebc3d1a06674ce3c6d3de4a98166ac", "type": "electric_bike", "fusion_lon": 0.0, "lon": -76.97225916666666, "is_disabled": 0, "lat": 38.90035433333333, "fusion_lat": 0.0, "is_reserved": 0, "rental_uris": {"android": "https://dc.lft.to/lastmile_qr_scan", "ios": "https://dc.lft.to/lastmile_qr_scan"}, "bike_id": "b0ebc3d1a06674ce3c6d3de4a98166ac"}, {"name": "739a193a27bae9552aacc2dd44bb3f8c", "type": "electric_scooter", "fusion_lon": 0.0, "lon": -77.03957416666667, "is_disabled": 0, "lat": 38.895205, "fusion_lat": 0.0, "is_reserved": 0, "rental_uris": {"android": "https://dc.lft.to/lastmile_qr_scan", "ios": "https://dc.lft.to/lastmile_qr_scan"}, "bike_id": "739a193a27bae9552aacc2dd44bb3f8c"}, {"name": "6c8cd7b4e795d3ee84a722d92951c0be", "type": "electric_scooter", "fusion_lon": 0.0, "lon": -77.01952533333333, "is_disabled": 0, "lat": 38.92366783333333, "fusion_lat": 0.0, "is_reserved": 0, "rental_uris": {"android": "https://dc.lft.to/lastmile_qr_scan", "ios": "https://dc.lft.to/lastmile_qr_scan"}, "bike_id": "6c8cd7b4e795d3ee84a722d92951c0be"}, {"name": "9fe43daa5f2529741e06e6401e65cb5e", "type": "electric_scooter", "fusion_lon": 0.0, "lon": -77.0403625, "is_disabled": 0, "lat": 38.901405833333335, "fusion_lat": 0.0, "is_reserved": 0, "rental_uris": {"android": "https://dc.lft.to/lastmile_qr_scan", "ios": "https://dc.lft.to/lastmile_qr_scan"}, "bike_id": "9fe43daa5f2529741e06e6401e65cb5e"}, {"name": "4512283516d0377a2a20ffad7b8d3c2a", "type": "electric_scooter", "fusion_lon": 0.0, "lon": -77.04688716666666, "is_disabled": 0, "lat": 38.902356166666664, "fusion_lat": 0.0, "is_reserved": 0, "rental_uris": {"android": "https://dc.lft.to/lastmile_qr_scan", "ios": "https://dc.lft.to/lastmile_qr_scan"}, "bike_id": "4512283516d0377a2a20ffad7b8d3c2a"}, {"name": "619d42de4e97046112bcfbde9533c45c", "type": "electric_scooter", "fusion_lon": 0.0, "lon": -77.048859, "is_disabled": 0, "lat": 38.8988075, "fusion_lat": 0.0, "is_reserved": 0, "rental_uris": {"android": "https://dc.lft.to/lastmile_qr_scan", "ios": "https://dc.lft.to/lastmile_qr_scan"}, "bike_id": "619d42de4e97046112bcfbde9533c45c"}, {"name": "12091be73a787bc296ea070420e81358", "type": "electric_scooter", "fusion_lon": 0.0, "lon": -77.00410183333334, "is_disabled": 0, "lat": 38.87713333333333, "fusion_lat": 0.0, "is_reserved": 0, "rental_uris": {"android": "https://dc.lft.to/lastmile_qr_scan", "ios": "https://dc.lft.to/lastmile_qr_scan"}, "bike_id": "12091be73a787bc296ea070420e81358"}, {"name": "c9c105834a7419bbcc72f9a95a619ae2", "type": "electric_scooter", "fusion_lon": 0.0, "lon": -77.03689533333333, "is_disabled": 0, "lat": 38.90955116666667, "fusion_lat": 0.0, "is_reserved": 0, "rental_uris": {"android": "https://dc.lft.to/lastmile_qr_scan", "ios": "https://dc.lft.to/lastmile_qr_scan"}, "bike_id": "c9c105834a7419bbcc72f9a95a619ae2"}, {"name": "4b22c899ff94866fef0f6cc3511e6ea1", "type": "electric_scooter", "fusion_lon": 0.0, "lon": -77.03849883333334, "is_disabled": 0, "lat": 38.9126595, "fusion_lat": 0.0, "is_reserved": 0, "rental_uris": {"android": "https://dc.lft.to/lastmile_qr_scan", "ios": "https://dc.lft.to/lastmile_qr_scan"}, "bike_id": "4b22c899ff94866fef0f6cc3511e6ea1"}, {"name": "035f6b03f915add9e1652979ad723a16", "type": "electric_scooter", "fusion_lon": 0.0, "lon": -77.04897716666666, "is_disabled": 0, "lat": 38.897575, "fusion_lat": 0.0, "is_reserved": 0, "rental_uris": {"android": "https://dc.lft.to/lastmile_qr_scan", "ios": "https://dc.lft.to/lastmile_qr_scan"}, "bike_id": "035f6b03f915add9e1652979ad723a16"}, {"name": "76d4858a9b4c8dcce59d8c16625872c6", "type": "electric_scooter", "fusion_lon": 0.0, "lon": -77.03408533333334, "is_disabled": 0, "lat": 38.9226695, "fusion_lat": 0.0, "is_reserved": 0, "rental_uris": {"android": "https://dc.lft.to/lastmile_qr_scan", "ios": "https://dc.lft.to/lastmile_qr_scan"}, "bike_id": "76d4858a9b4c8dcce59d8c16625872c6"}, {"name": "36d4ed94b4841232973ba161a42becb4", "type": "electric_scooter", "fusion_lon": 0.0, "lon": -77.03841966666667, "is_disabled": 0, "lat": 38.904766333333335, "fusion_lat": 0.0, "is_reserved": 0, "rental_uris": {"android": "https://dc.lft.to/lastmile_qr_scan", "ios": "https://dc.lft.to/lastmile_qr_scan"}, "bike_id": "36d4ed94b4841232973ba161a42becb4"}, {"name": "89fe854dd6eee45d145964503990e813", "type": "electric_scooter", "fusion_lon": 0.0, "lon": -77.01543233333334, "is_disabled": 0, "lat": 38.8916715, "fusion_lat": 0.0, "is_reserved": 0, "rental_uris": {"android": "https://dc.lft.to/lastmile_qr_scan", "ios": "https://dc.lft.to/lastmile_qr_scan"}, "bike_id": "89fe854dd6eee45d145964503990e813"}, {"name": "c71f0daf0b6e11935bbdd8a58a21d7ce", "type": "electric_scooter", "fusion_lon": 0.0, "lon": -77.015095, "is_disabled": 0, "lat": 38.913248833333334, "fusion_lat": 0.0, "is_reserved": 0, "rental_uris": {"android": "https://dc.lft.to/lastmile_qr_scan", "ios": "https://dc.lft.to/lastmile_qr_scan"}, "bike_id": "c71f0daf0b6e11935bbdd8a58a21d7ce"}, {"name": "8422812e3a0161fec893780206fea895", "type": "electric_scooter", "fusion_lon": 0.0, "lon": -76.93970716666666, "is_disabled": 0, "lat": 38.8934245, "fusion_lat": 0.0, "is_reserved": 0, "rental_uris": {"android": "https://dc.lft.to/lastmile_qr_scan", "ios": "https://dc.lft.to/lastmile_qr_scan"}, "bike_id": "8422812e3a0161fec893780206fea895"}, {"name": "3d785a203c1648f88cec5b552a2dd1f4", "type": "electric_scooter", "fusion_lon": 0.0, "lon": -77.03815033333333, "is_disabled": 0, "lat": 38.90978066666667, "fusion_lat": 0.0, "is_reserved": 0, "rental_uris": {"android": "https://dc.lft.to/lastmile_qr_scan", "ios": "https://dc.lft.to/lastmile_qr_scan"}, "bike_id": "3d785a203c1648f88cec5b552a2dd1f4"}, {"name": "2f5e8ab7276f397d4084c5edd828fb71", "type": "electric_scooter", "fusion_lon": 0.0, "lon": -77.03880033333333, "is_disabled": 0, "lat": 38.932647, "fusion_lat": 0.0, "is_reserved": 0, "rental_uris": {"android": "https://dc.lft.to/lastmile_qr_scan", "ios": "https://dc.lft.to/lastmile_qr_scan"}, "bike_id": "2f5e8ab7276f397d4084c5edd828fb71"}, {"name": "2ef4dfbe3002172e470b394aa689a229", "type": "electric_scooter", "fusion_lon": 0.0, "lon": -77.0068225, "is_disabled": 0, "lat": 38.87167916666667, "fusion_lat": 0.0, "is_reserved": 0, "rental_uris": {"android": "https://dc.lft.to/lastmile_qr_scan", "ios": "https://dc.lft.to/lastmile_qr_scan"}, "bike_id": "2ef4dfbe3002172e470b394aa689a229"}, {"name": "db19cb1a4d171fe14b2f474541723d46", "type": "electric_scooter", "fusion_lon": 0.0, "lon": -77.0247165, "is_disabled": 0, "lat": 38.9188585, "fusion_lat": 0.0, "is_reserved": 0, "rental_uris": {"android": "https://dc.lft.to/lastmile_qr_scan", "ios": "https://dc.lft.to/lastmile_qr_scan"}, "bike_id": "db19cb1a4d171fe14b2f474541723d46"}, {"name": "f805d8248b76e5b09324b42650885fb2", "type": "electric_scooter", "fusion_lon": 0.0, "lon": -77.0051595, "is_disabled": 0, "lat": 38.874728833333336, "fusion_lat": 0.0, "is_reserved": 0, "rental_uris": {"android": "https://dc.lft.to/lastmile_qr_scan", "ios": "https://dc.lft.to/lastmile_qr_scan"}, "bike_id": "f805d8248b76e5b09324b42650885fb2"}, {"name": "40d96580fc337bb7977fffeb674f0104", "type": "electric_scooter", "fusion_lon": 0.0, "lon": -77.02415716666667, "is_disabled": 0, "lat": 38.89222766666666, "fusion_lat": 0.0, "is_reserved": 0, "rental_uris": {"android": "https://dc.lft.to/lastmile_qr_scan", "ios": "https://dc.lft.to/lastmile_qr_scan"}, "bike_id": "40d96580fc337bb7977fffeb674f0104"}, {"name": "47f77cdba8d140d0c9710c007dbe255e", "type": "electric_scooter", "fusion_lon": 0.0, "lon": -77.064096, "is_disabled": 0, "lat": 38.94442516666667, "fusion_lat": 0.0, "is_reserved": 0, "rental_uris": {"android": "https://dc.lft.to/lastmile_qr_scan", "ios": "https://dc.lft.to/lastmile_qr_scan"}, "bike_id": "47f77cdba8d140d0c9710c007dbe255e"}, {"name": "1c34cb202adbe1df351cd085e10ebc9b", "type": "electric_scooter", "fusion_lon": 0.0, "lon": -77.02968933333334, "is_disabled": 0, "lat": 38.90723966666667, "fusion_lat": 0.0, "is_reserved": 0, "rental_uris": {"android": "https://dc.lft.to/lastmile_qr_scan", "ios": "https://dc.lft.to/lastmile_qr_scan"}, "bike_id": "1c34cb202adbe1df351cd085e10ebc9b"}, {"name": "96700fdaa7f249182bd97c6aeac9ae39", "type": "electric_bike", "fusion_lon": 0.0, "lon": -76.91805716666667, "is_disabled": 0, "lat": 38.99998433333333, "fusion_lat": 0.0, "is_reserved": 0, "rental_uris": {"android": "https://dc.lft.to/lastmile_qr_scan", "ios": "https://dc.lft.to/lastmile_qr_scan"}, "bike_id": "96700fdaa7f249182bd97c6aeac9ae39"}, {"name": "83129333e6512343c2a4edf769264ab9", "type": "electric_scooter", "fusion_lon": 0.0, "lon": -76.94703216666667, "is_disabled": 0, "lat": 38.893649, "fusion_lat": 0.0, "is_reserved": 0, "rental_uris": {"android": "https://dc.lft.to/lastmile_qr_scan", "ios": "https://dc.lft.to/lastmile_qr_scan"}, "bike_id": "83129333e6512343c2a4edf769264ab9"}, {"name": "50fb96f77c39dd70865208352252a123", "type": "electric_scooter", "fusion_lon": 0.0, "lon": -77.04331866666666, "is_disabled": 0, "lat": 38.92617466666667, "fusion_lat": 0.0, "is_reserved": 0, "rental_uris": {"android": "https://dc.lft.to/lastmile_qr_scan", "ios": "https://dc.lft.to/lastmile_qr_scan"}, "bike_id": "50fb96f77c39dd70865208352252a123"}, {"name": "62ad46d0eb1d0805d59f8b36bd7037ae", "type": "electric_scooter", "fusion_lon": 0.0, "lon": -76.98508516666666, "is_disabled": 0, "lat": 38.860569166666664, "fusion_lat": 0.0, "is_reserved": 0, "rental_uris": {"android": "https://dc.lft.to/lastmile_qr_scan", "ios": "https://dc.lft.to/lastmile_qr_scan"}, "bike_id": "62ad46d0eb1d0805d59f8b36bd7037ae"}, {"name": "f2cdd5f81c9590dcfa45cb66c3a46a9e", "type": "electric_scooter", "fusion_lon": 0.0, "lon": -77.0436035, "is_disabled": 0, "lat": 38.910486, "fusion_lat": 0.0, "is_reserved": 0, "rental_uris": {"android": "https://dc.lft.to/lastmile_qr_scan", "ios": "https://dc.lft.to/lastmile_qr_scan"}, "bike_id": "f2cdd5f81c9590dcfa45cb66c3a46a9e"}, {"name": "a68ad025d371aeca6029dd5954d85fe0", "type": "electric_scooter", "fusion_lon": 0.0, "lon": -77.0098565, "is_disabled": 0, "lat": 38.872882, "fusion_lat": 0.0, "is_reserved": 0, "rental_uris": {"android": "https://dc.lft.to/lastmile_qr_scan", "ios": "https://dc.lft.to/lastmile_qr_scan"}, "bike_id": "a68ad025d371aeca6029dd5954d85fe0"}, {"name": "ac40565732601c20a2fead1631ec4f69", "type": "electric_scooter", "fusion_lon": 0.0, "lon": -77.02218833333333, "is_disabled": 0, "lat": 38.91413466666667, "fusion_lat": 0.0, "is_reserved": 0, "rental_uris": {"android": "https://dc.lft.to/lastmile_qr_scan", "ios": "https://dc.lft.to/lastmile_qr_scan"}, "bike_id": "ac40565732601c20a2fead1631ec4f69"}, {"name": "ddf4662a779ba892b59f197974ce40ff", "type": "electric_bike", "fusion_lon": 0.0, "lon": -77.234133, "is_disabled": 0, "lat": 38.87578383333334, "fusion_lat": 0.0, "is_reserved": 0, "rental_uris": {"android": "https://dc.lft.to/lastmile_qr_scan", "ios": "https://dc.lft.to/lastmile_qr_scan"}, "bike_id": "ddf4662a779ba892b59f197974ce40ff"}, {"name": "750697acab3b6e7c8bdfe758976285d0", "type": "electric_scooter", "fusion_lon": 0.0, "lon": -77.02165583333333, "is_disabled": 0, "lat": 38.900028, "fusion_lat": 0.0, "is_reserved": 0, "rental_uris": {"android": "https://dc.lft.to/lastmile_qr_scan", "ios": "https://dc.lft.to/lastmile_qr_scan"}, "bike_id": "750697acab3b6e7c8bdfe758976285d0"}, {"name": "4c111345f670ec469b4bd9b5dbd2534e", "type": "electric_scooter", "fusion_lon": 0.0, "lon": -77.0321305, "is_disabled": 0, "lat": 38.91644133333333, "fusion_lat": 0.0, "is_reserved": 0, "rental_uris": {"android": "https://dc.lft.to/lastmile_qr_scan", "ios": "https://dc.lft.to/lastmile_qr_scan"}, "bike_id": "4c111345f670ec469b4bd9b5dbd2534e"}, {"name": "89e7ddbbbe1aaa7a9d7be819a1619372", "type": "electric_scooter", "fusion_lon": 0.0, "lon": -77.03131733333333, "is_disabled": 0, "lat": 38.91608016666667, "fusion_lat": 0.0, "is_reserved": 0, "rental_uris": {"android": "https://dc.lft.to/lastmile_qr_scan", "ios": "https://dc.lft.to/lastmile_qr_scan"}, "bike_id": "89e7ddbbbe1aaa7a9d7be819a1619372"}, {"name": "1eea2714d6c375e5bf4d68ed20a83480", "type": "electric_scooter", "fusion_lon": 0.0, "lon": -77.0366325, "is_disabled": 0, "lat": 38.92240483333333, "fusion_lat": 0.0, "is_reserved": 0, "rental_uris": {"android": "https://dc.lft.to/lastmile_qr_scan", "ios": "https://dc.lft.to/lastmile_qr_scan"}, "bike_id": "1eea2714d6c375e5bf4d68ed20a83480"}, {"name": "6971ca9c61b794031604e460acfafb80", "type": "electric_bike", "fusion_lon": 0.0, "lon": -76.9605565, "is_disabled": 0, "lat": 38.884010833333335, "fusion_lat": 0.0, "is_reserved": 0, "rental_uris": {"android": "https://dc.lft.to/lastmile_qr_scan", "ios": "https://dc.lft.to/lastmile_qr_scan"}, "bike_id": "6971ca9c61b794031604e460acfafb80"}, {"name": "6e2eab007437181085389777e970742e", "type": "electric_scooter", "fusion_lon": 0.0, "lon": -76.94701, "is_disabled": 0, "lat": 38.89727716666667, "fusion_lat": 0.0, "is_reserved": 0, "rental_uris": {"android": "https://dc.lft.to/lastmile_qr_scan", "ios": "https://dc.lft.to/lastmile_qr_scan"}, "bike_id": "6e2eab007437181085389777e970742e"}, {"name": "d910d85130c75ad3fabd358cb8a65776", "type": "electric_scooter", "fusion_lon": 0.0, "lon": -77.04360433333333, "is_disabled": 0, "lat": 38.905621833333335, "fusion_lat": 0.0, "is_reserved": 0, "rental_uris": {"android": "https://dc.lft.to/lastmile_qr_scan", "ios": "https://dc.lft.to/lastmile_qr_scan"}, "bike_id": "d910d85130c75ad3fabd358cb8a65776"}, {"name": "b93ea2b72b2f288bfcf152af2e95b7cc", "type": "electric_scooter", "fusion_lon": 0.0, "lon": -77.03856016666667, "is_disabled": 0, "lat": 38.90270116666667, "fusion_lat": 0.0, "is_reserved": 0, "rental_uris": {"android": "https://dc.lft.to/lastmile_qr_scan", "ios": "https://dc.lft.to/lastmile_qr_scan"}, "bike_id": "b93ea2b72b2f288bfcf152af2e95b7cc"}, {"name": "be956f5dc87cda0e27054ba2c03c4a28", "type": "electric_scooter", "fusion_lon": 0.0, "lon": -77.01200183333333, "is_disabled": 0, "lat": 38.9156595, "fusion_lat": 0.0, "is_reserved": 0, "rental_uris": {"android": "https://dc.lft.to/lastmile_qr_scan", "ios": "https://dc.lft.to/lastmile_qr_scan"}, "bike_id": "be956f5dc87cda0e27054ba2c03c4a28"}, {"name": "5c15ca4a401db2f4ce48f9c19f779ce7", "type": "electric_scooter", "fusion_lon": 0.0, "lon": -77.0586025, "is_disabled": 0, "lat": 38.936092333333335, "fusion_lat": 0.0, "is_reserved": 0, "rental_uris": {"android": "https://dc.lft.to/lastmile_qr_scan", "ios": "https://dc.lft.to/lastmile_qr_scan"}, "bike_id": "5c15ca4a401db2f4ce48f9c19f779ce7"}, {"name": "11b0340b8f4a185ac5a6a83676d85f03", "type": "electric_scooter", "fusion_lon": 0.0, "lon": -76.99227333333333, "is_disabled": 0, "lat": 38.90793466666667, "fusion_lat": 0.0, "is_reserved": 0, "rental_uris": {"android": "https://dc.lft.to/lastmile_qr_scan", "ios": "https://dc.lft.to/lastmile_qr_scan"}, "bike_id": "11b0340b8f4a185ac5a6a83676d85f03"}, {"name": "2091d2a85a250ce628b77314b63774dd", "type": "electric_scooter", "fusion_lon": 0.0, "lon": -77.05022316666667, "is_disabled": 0, "lat": 38.901398666666665, "fusion_lat": 0.0, "is_reserved": 0, "rental_uris": {"android": "https://dc.lft.to/lastmile_qr_scan", "ios": "https://dc.lft.to/lastmile_qr_scan"}, "bike_id": "2091d2a85a250ce628b77314b63774dd"}, {"name": "09690b597f50d4bfcf8c8e40f2ed36c6", "type": "electric_scooter", "fusion_lon": 0.0, "lon": -76.99040283333333, "is_disabled": 0, "lat": 38.8638875, "fusion_lat": 0.0, "is_reserved": 0, "rental_uris": {"android": "https://dc.lft.to/lastmile_qr_scan", "ios": "https://dc.lft.to/lastmile_qr_scan"}, "bike_id": "09690b597f50d4bfcf8c8e40f2ed36c6"}, {"name": "f6517e72aae2a0a78a3a4d63e2b07023", "type": "electric_bike", "fusion_lon": 0.0, "lon": -77.11753666666667, "is_disabled": 0, "lat": 39.0510665, "fusion_lat": 0.0, "is_reserved": 0, "rental_uris": {"android": "https://dc.lft.to/lastmile_qr_scan", "ios": "https://dc.lft.to/lastmile_qr_scan"}, "bike_id": "f6517e72aae2a0a78a3a4d63e2b07023"}, {"name": "6e6aa597e588e818c2b60b6d5cc7f43f", "type": "electric_scooter", "fusion_lon": 0.0, "lon": -76.99039983333333, "is_disabled": 0, "lat": 38.863888, "fusion_lat": 0.0, "is_reserved": 0, "rental_uris": {"android": "https://dc.lft.to/lastmile_qr_scan", "ios": "https://dc.lft.to/lastmile_qr_scan"}, "bike_id": "6e6aa597e588e818c2b60b6d5cc7f43f"}, {"name": "d932751688d264bc28babf669a9decb2", "type": "electric_scooter", "fusion_lon": 0.0, "lon": -77.03298683333334, "is_disabled": 0, "lat": 38.89916783333334, "fusion_lat": 0.0, "is_reserved": 0, "rental_uris": {"android": "https://dc.lft.to/lastmile_qr_scan", "ios": "https://dc.lft.to/lastmile_qr_scan"}, "bike_id": "d932751688d264bc28babf669a9decb2"}, {"name": "8bafb3d7ff546294823d389ac6c6ead9", "type": "electric_scooter", "fusion_lon": 0.0, "lon": -77.03299933333334, "is_disabled": 0, "lat": 38.90974166666667, "fusion_lat": 0.0, "is_reserved": 0, "rental_uris": {"android": "https://dc.lft.to/lastmile_qr_scan", "ios": "https://dc.lft.to/lastmile_qr_scan"}, "bike_id": "8bafb3d7ff546294823d389ac6c6ead9"}, {"name": "98345b92c5715e7f7907ad57e8d64e6c", "type": "electric_scooter", "fusion_lon": 0.0, "lon": -77.0076435, "is_disabled": 0, "lat": 38.87793666666666, "fusion_lat": 0.0, "is_reserved": 0, "rental_uris": {"android": "https://dc.lft.to/lastmile_qr_scan", "ios": "https://dc.lft.to/lastmile_qr_scan"}, "bike_id": "98345b92c5715e7f7907ad57e8d64e6c"}, {"name": "031db527044e31eabd93dfc6d8827d3d", "type": "electric_scooter", "fusion_lon": 0.0, "lon": -77.04219733333333, "is_disabled": 0, "lat": 38.926313666666665, "fusion_lat": 0.0, "is_reserved": 0, "rental_uris": {"android": "https://dc.lft.to/lastmile_qr_scan", "ios": "https://dc.lft.to/lastmile_qr_scan"}, "bike_id": "031db527044e31eabd93dfc6d8827d3d"}, {"name": "b4aa44d14fb4c625da57914865d9194a", "type": "electric_scooter", "fusion_lon": 0.0, "lon": -77.05684366666667, "is_disabled": 0, "lat": 38.93156233333333, "fusion_lat": 0.0, "is_reserved": 0, "rental_uris": {"android": "https://dc.lft.to/lastmile_qr_scan", "ios": "https://dc.lft.to/lastmile_qr_scan"}, "bike_id": "b4aa44d14fb4c625da57914865d9194a"}, {"name": "bc34328ac0c428bbbc41086d27361bb3", "type": "electric_scooter", "fusion_lon": 0.0, "lon": -77.02787916666666, "is_disabled": 0, "lat": 38.9170805, "fusion_lat": 0.0, "is_reserved": 0, "rental_uris": {"android": "https://dc.lft.to/lastmile_qr_scan", "ios": "https://dc.lft.to/lastmile_qr_scan"}, "bike_id": "bc34328ac0c428bbbc41086d27361bb3"}, {"name": "40e2c5a0eacb5becede72559009f3a7d", "type": "electric_bike", "fusion_lon": 0.0, "lon": -77.10687366666667, "is_disabled": 0, "lat": 38.864491, "fusion_lat": 0.0, "is_reserved": 0, "rental_uris": {"android": "https://dc.lft.to/lastmile_qr_scan", "ios": "https://dc.lft.to/lastmile_qr_scan"}, "bike_id": "40e2c5a0eacb5becede72559009f3a7d"}, {"name": "c2a4081dc148273a8873bffff011e686", "type": "electric_scooter", "fusion_lon": 0.0, "lon": -77.05584466666667, "is_disabled": 0, "lat": 38.93433116666667, "fusion_lat": 0.0, "is_reserved": 0, "rental_uris": {"android": "https://dc.lft.to/lastmile_qr_scan", "ios": "https://dc.lft.to/lastmile_qr_scan"}, "bike_id": "c2a4081dc148273a8873bffff011e686"}, {"name": "3e27950c9708efbcb0670c00894487d1", "type": "electric_scooter", "fusion_lon": 0.0, "lon": -77.05724733333334, "is_disabled": 0, "lat": 38.93369033333333, "fusion_lat": 0.0, "is_reserved": 0, "rental_uris": {"android": "https://dc.lft.to/lastmile_qr_scan", "ios": "https://dc.lft.to/lastmile_qr_scan"}, "bike_id": "3e27950c9708efbcb0670c00894487d1"}, {"name": "a0874a43e2aaca6281fd4b9ad5a8164c", "type": "electric_scooter", "fusion_lon": 0.0, "lon": -76.98664283333333, "is_disabled": 0, "lat": 38.91068966666667, "fusion_lat": 0.0, "is_reserved": 0, "rental_uris": {"android": "https://dc.lft.to/lastmile_qr_scan", "ios": "https://dc.lft.to/lastmile_qr_scan"}, "bike_id": "a0874a43e2aaca6281fd4b9ad5a8164c"}, {"name": "7b507ba8b5667ff277976d5d49aeb165", "type": "electric_scooter", "fusion_lon": 0.0, "lon": -77.02326133333334, "is_disabled": 0, "lat": 38.90724566666667, "fusion_lat": 0.0, "is_reserved": 0, "rental_uris": {"android": "https://dc.lft.to/lastmile_qr_scan", "ios": "https://dc.lft.to/lastmile_qr_scan"}, "bike_id": "7b507ba8b5667ff277976d5d49aeb165"}, {"name": "5f791f4aa0ccb77399a43b12b8638be8", "type": "electric_scooter", "fusion_lon": 0.0, "lon": -77.02610716666666, "is_disabled": 0, "lat": 38.89846433333334, "fusion_lat": 0.0, "is_reserved": 0, "rental_uris": {"android": "https://dc.lft.to/lastmile_qr_scan", "ios": "https://dc.lft.to/lastmile_qr_scan"}, "bike_id": "5f791f4aa0ccb77399a43b12b8638be8"}, {"name": "b7c5140b8d2504574d8ee12f9312c375", "type": "electric_scooter", "fusion_lon": 0.0, "lon": -77.04701966666667, "is_disabled": 0, "lat": 38.921571, "fusion_lat": 0.0, "is_reserved": 0, "rental_uris": {"android": "https://dc.lft.to/lastmile_qr_scan", "ios": "https://dc.lft.to/lastmile_qr_scan"}, "bike_id": "b7c5140b8d2504574d8ee12f9312c375"}, {"name": "aef2754480a19c7c874cd5da7028af57", "type": "electric_scooter", "fusion_lon": 0.0, "lon": -76.9870135, "is_disabled": 0, "lat": 38.8672115, "fusion_lat": 0.0, "is_reserved": 0, "rental_uris": {"android": "https://dc.lft.to/lastmile_qr_scan", "ios": "https://dc.lft.to/lastmile_qr_scan"}, "bike_id": "aef2754480a19c7c874cd5da7028af57"}, {"name": "523f25a6206e6f7e4c748b090f265e8b", "type": "electric_scooter", "fusion_lon": 0.0, "lon": -77.00713966666666, "is_disabled": 0, "lat": 38.88489516666667, "fusion_lat": 0.0, "is_reserved": 0, "rental_uris": {"android": "https://dc.lft.to/lastmile_qr_scan", "ios": "https://dc.lft.to/lastmile_qr_scan"}, "bike_id": "523f25a6206e6f7e4c748b090f265e8b"}, {"name": "49abd9ed1f15581bc1c815e279768dc9", "type": "electric_scooter", "fusion_lon": 0.0, "lon": -77.03130316666666, "is_disabled": 0, "lat": 38.89984316666666, "fusion_lat": 0.0, "is_reserved": 0, "rental_uris": {"android": "https://dc.lft.to/lastmile_qr_scan", "ios": "https://dc.lft.to/lastmile_qr_scan"}, "bike_id": "49abd9ed1f15581bc1c815e279768dc9"}, {"name": "1c624511146a198405ff66d3b9e392d0", "type": "electric_scooter", "fusion_lon": 0.0, "lon": -77.03286166666666, "is_disabled": 0, "lat": 38.937554666666664, "fusion_lat": 0.0, "is_reserved": 0, "rental_uris": {"android": "https://dc.lft.to/lastmile_qr_scan", "ios": "https://dc.lft.to/lastmile_qr_scan"}, "bike_id": "1c624511146a198405ff66d3b9e392d0"}, {"name": "03787ba37c0f80bc5f4ddb64444c1544", "type": "electric_scooter", "fusion_lon": 0.0, "lon": -77.00215533333333, "is_disabled": 0, "lat": 38.914592666666664, "fusion_lat": 0.0, "is_reserved": 0, "rental_uris": {"android": "https://dc.lft.to/lastmile_qr_scan", "ios": "https://dc.lft.to/lastmile_qr_scan"}, "bike_id": "03787ba37c0f80bc5f4ddb64444c1544"}, {"name": "55e4fc4b60583fae2258fc25610dd903", "type": "electric_bike", "fusion_lon": 0.0, "lon": -77.14060533333334, "is_disabled": 0, "lat": 38.98765983333333, "fusion_lat": 0.0, "is_reserved": 0, "rental_uris": {"android": "https://dc.lft.to/lastmile_qr_scan", "ios": "https://dc.lft.to/lastmile_qr_scan"}, "bike_id": "55e4fc4b60583fae2258fc25610dd903"}, {"name": "4e8af19e68e38d201a961b956aeaa677", "type": "electric_scooter", "fusion_lon": 0.0, "lon": -77.0330525, "is_disabled": 0, "lat": 38.928656333333336, "fusion_lat": 0.0, "is_reserved": 0, "rental_uris": {"android": "https://dc.lft.to/lastmile_qr_scan", "ios": "https://dc.lft.to/lastmile_qr_scan"}, "bike_id": "4e8af19e68e38d201a961b956aeaa677"}, {"name": "5eae143538568696a2e456efc333d6b9", "type": "electric_scooter", "fusion_lon": 0.0, "lon": -77.0030475, "is_disabled": 0, "lat": 38.92033416666666, "fusion_lat": 0.0, "is_reserved": 0, "rental_uris": {"android": "https://dc.lft.to/lastmile_qr_scan", "ios": "https://dc.lft.to/lastmile_qr_scan"}, "bike_id": "5eae143538568696a2e456efc333d6b9"}, {"name": "41b6d75685382928b3c2de022576da3e", "type": "electric_scooter", "fusion_lon": 0.0, "lon": -77.04993, "is_disabled": 0, "lat": 38.892262833333334, "fusion_lat": 0.0, "is_reserved": 0, "rental_uris": {"android": "https://dc.lft.to/lastmile_qr_scan", "ios": "https://dc.lft.to/lastmile_qr_scan"}, "bike_id": "41b6d75685382928b3c2de022576da3e"}, {"name": "faebcfa6b8d262c9dcadcfec1ed73284", "type": "electric_scooter", "fusion_lon": 0.0, "lon": -77.03294, "is_disabled": 0, "lat": 38.928771833333336, "fusion_lat": 0.0, "is_reserved": 0, "rental_uris": {"android": "https://dc.lft.to/lastmile_qr_scan", "ios": "https://dc.lft.to/lastmile_qr_scan"}, "bike_id": "faebcfa6b8d262c9dcadcfec1ed73284"}, {"name": "708b513276348853d8e3a70dffdc9cf9", "type": "electric_scooter", "fusion_lon": 0.0, "lon": -76.9558645, "is_disabled": 0, "lat": 38.88610966666667, "fusion_lat": 0.0, "is_reserved": 0, "rental_uris": {"android": "https://dc.lft.to/lastmile_qr_scan", "ios": "https://dc.lft.to/lastmile_qr_scan"}, "bike_id": "708b513276348853d8e3a70dffdc9cf9"}, {"name": "9b2227f7f573d16380dfce8c3824e501", "type": "electric_scooter", "fusion_lon": 0.0, "lon": -76.99605916666667, "is_disabled": 0, "lat": 38.89088533333333, "fusion_lat": 0.0, "is_reserved": 0, "rental_uris": {"android": "https://dc.lft.to/lastmile_qr_scan", "ios": "https://dc.lft.to/lastmile_qr_scan"}, "bike_id": "9b2227f7f573d16380dfce8c3824e501"}, {"name": "44ca5bb6394f5f3bd7d280ccdfe65cf3", "type": "electric_scooter", "fusion_lon": 0.0, "lon": -77.0469345, "is_disabled": 0, "lat": 38.89223233333333, "fusion_lat": 0.0, "is_reserved": 0, "rental_uris": {"android": "https://dc.lft.to/lastmile_qr_scan", "ios": "https://dc.lft.to/lastmile_qr_scan"}, "bike_id": "44ca5bb6394f5f3bd7d280ccdfe65cf3"}, {"name": "2942ae5061193abdc5bdf5684408ce7a", "type": "electric_scooter", "fusion_lon": 0.0, "lon": -77.04480416666667, "is_disabled": 0, "lat": 38.89524433333333, "fusion_lat": 0.0, "is_reserved": 0, "rental_uris": {"android": "https://dc.lft.to/lastmile_qr_scan", "ios": "https://dc.lft.to/lastmile_qr_scan"}, "bike_id": "2942ae5061193abdc5bdf5684408ce7a"}, {"name": "b105f229cc302808b3731a2d71ed2959", "type": "electric_scooter", "fusion_lon": 0.0, "lon": -77.043054, "is_disabled": 0, "lat": 38.931795, "fusion_lat": 0.0, "is_reserved": 0, "rental_uris": {"android": "https://dc.lft.to/lastmile_qr_scan", "ios": "https://dc.lft.to/lastmile_qr_scan"}, "bike_id": "b105f229cc302808b3731a2d71ed2959"}, {"name": "0fc54fd81fcb0d60b97049acbda5695c", "type": "electric_scooter", "fusion_lon": 0.0, "lon": -77.02392966666666, "is_disabled": 0, "lat": 38.91988416666667, "fusion_lat": 0.0, "is_reserved": 0, "rental_uris": {"android": "https://dc.lft.to/lastmile_qr_scan", "ios": "https://dc.lft.to/lastmile_qr_scan"}, "bike_id": "0fc54fd81fcb0d60b97049acbda5695c"}, {"name": "8b0b7c0ef1177e4e7d8e9cea1491e25b", "type": "electric_scooter", "fusion_lon": 0.0, "lon": -76.99847833333334, "is_disabled": 0, "lat": 38.90057816666667, "fusion_lat": 0.0, "is_reserved": 0, "rental_uris": {"android": "https://dc.lft.to/lastmile_qr_scan", "ios": "https://dc.lft.to/lastmile_qr_scan"}, "bike_id": "8b0b7c0ef1177e4e7d8e9cea1491e25b"}, {"name": "78d46957c29b129177a87ee5134c4c6f", "type": "electric_scooter", "fusion_lon": 0.0, "lon": -77.03282266666666, "is_disabled": 0, "lat": 38.94812266666667, "fusion_lat": 0.0, "is_reserved": 0, "rental_uris": {"android": "https://dc.lft.to/lastmile_qr_scan", "ios": "https://dc.lft.to/lastmile_qr_scan"}, "bike_id": "78d46957c29b129177a87ee5134c4c6f"}, {"name": "26b57962f14563e8b0a689553e3ea230", "type": "electric_scooter", "fusion_lon": 0.0, "lon": -76.957563, "is_disabled": 0, "lat": 38.88426483333333, "fusion_lat": 0.0, "is_reserved": 0, "rental_uris": {"android": "https://dc.lft.to/lastmile_qr_scan", "ios": "https://dc.lft.to/lastmile_qr_scan"}, "bike_id": "26b57962f14563e8b0a689553e3ea230"}, {"name": "8dcb1d4cd3be9bea69c4fc3d112bb7e4", "type": "electric_scooter", "fusion_lon": 0.0, "lon": -76.9886955, "is_disabled": 0, "lat": 38.85770266666667, "fusion_lat": 0.0, "is_reserved": 0, "rental_uris": {"android": "https://dc.lft.to/lastmile_qr_scan", "ios": "https://dc.lft.to/lastmile_qr_scan"}, "bike_id": "8dcb1d4cd3be9bea69c4fc3d112bb7e4"}, {"name": "35a09ccdf938995c4fabe7463268abdd", "type": "electric_scooter", "fusion_lon": 0.0, "lon": -76.99800616666667, "is_disabled": 0, "lat": 38.90135466666667, "fusion_lat": 0.0, "is_reserved": 0, "rental_uris": {"android": "https://dc.lft.to/lastmile_qr_scan", "ios": "https://dc.lft.to/lastmile_qr_scan"}, "bike_id": "35a09ccdf938995c4fabe7463268abdd"}, {"name": "c4201fb7b049e4c18190ba89857f7ac8", "type": "electric_scooter", "fusion_lon": 0.0, "lon": -77.04366533333334, "is_disabled": 0, "lat": 38.904281833333336, "fusion_lat": 0.0, "is_reserved": 0, "rental_uris": {"android": "https://dc.lft.to/lastmile_qr_scan", "ios": "https://dc.lft.to/lastmile_qr_scan"}, "bike_id": "c4201fb7b049e4c18190ba89857f7ac8"}, {"name": "cdccdae456d00602cbd211f43aac7f5e", "type": "electric_scooter", "fusion_lon": 0.0, "lon": -76.99531416666667, "is_disabled": 0, "lat": 38.926675, "fusion_lat": 0.0, "is_reserved": 0, "rental_uris": {"android": "https://dc.lft.to/lastmile_qr_scan", "ios": "https://dc.lft.to/lastmile_qr_scan"}, "bike_id": "cdccdae456d00602cbd211f43aac7f5e"}, {"name": "1277eea9ad0b41322baedde684dbde8e", "type": "electric_scooter", "fusion_lon": 0.0, "lon": -77.01780933333333, "is_disabled": 0, "lat": 38.877236, "fusion_lat": 0.0, "is_reserved": 0, "rental_uris": {"android": "https://dc.lft.to/lastmile_qr_scan", "ios": "https://dc.lft.to/lastmile_qr_scan"}, "bike_id": "1277eea9ad0b41322baedde684dbde8e"}, {"name": "71bab90e6dfb05b7b80a02606f727bfa", "type": "electric_scooter", "fusion_lon": 0.0, "lon": -77.02506316666667, "is_disabled": 0, "lat": 38.918114833333334, "fusion_lat": 0.0, "is_reserved": 0, "rental_uris": {"android": "https://dc.lft.to/lastmile_qr_scan", "ios": "https://dc.lft.to/lastmile_qr_scan"}, "bike_id": "71bab90e6dfb05b7b80a02606f727bfa"}, {"name": "6fadbf5a62a9aacf23c0e6dab4b8bc8d", "type": "electric_scooter", "fusion_lon": 0.0, "lon": -77.02209116666667, "is_disabled": 0, "lat": 38.924656166666665, "fusion_lat": 0.0, "is_reserved": 0, "rental_uris": {"android": "https://dc.lft.to/lastmile_qr_scan", "ios": "https://dc.lft.to/lastmile_qr_scan"}, "bike_id": "6fadbf5a62a9aacf23c0e6dab4b8bc8d"}, {"name": "52cd6fe9ff0c19839dd37837e9f0ed4f", "type": "electric_scooter", "fusion_lon": 0.0, "lon": -77.00534683333333, "is_disabled": 0, "lat": 38.8770775, "fusion_lat": 0.0, "is_reserved": 0, "rental_uris": {"android": "https://dc.lft.to/lastmile_qr_scan", "ios": "https://dc.lft.to/lastmile_qr_scan"}, "bike_id": "52cd6fe9ff0c19839dd37837e9f0ed4f"}, {"name": "24d62bb697e7c7a82ded092dd6436faa", "type": "electric_scooter", "fusion_lon": 0.0, "lon": -77.028206, "is_disabled": 0, "lat": 38.91678866666667, "fusion_lat": 0.0, "is_reserved": 0, "rental_uris": {"android": "https://dc.lft.to/lastmile_qr_scan", "ios": "https://dc.lft.to/lastmile_qr_scan"}, "bike_id": "24d62bb697e7c7a82ded092dd6436faa"}, {"name": "53c036b0418624261cf7838ec414ef6f", "type": "electric_scooter", "fusion_lon": 0.0, "lon": -77.048313, "is_disabled": 0, "lat": 38.918503, "fusion_lat": 0.0, "is_reserved": 0, "rental_uris": {"android": "https://dc.lft.to/lastmile_qr_scan", "ios": "https://dc.lft.to/lastmile_qr_scan"}, "bike_id": "53c036b0418624261cf7838ec414ef6f"}, {"name": "1d8171ea9d5aee4e89a7620618a31f3e", "type": "electric_scooter", "fusion_lon": 0.0, "lon": -77.04683916666667, "is_disabled": 0, "lat": 38.89506383333333, "fusion_lat": 0.0, "is_reserved": 0, "rental_uris": {"android": "https://dc.lft.to/lastmile_qr_scan", "ios": "https://dc.lft.to/lastmile_qr_scan"}, "bike_id": "1d8171ea9d5aee4e89a7620618a31f3e"}, {"name": "7c9656b5f1efbe4037401220d8620887", "type": "electric_scooter", "fusion_lon": 0.0, "lon": -77.0312225, "is_disabled": 0, "lat": 38.9593675, "fusion_lat": 0.0, "is_reserved": 0, "rental_uris": {"android": "https://dc.lft.to/lastmile_qr_scan", "ios": "https://dc.lft.to/lastmile_qr_scan"}, "bike_id": "7c9656b5f1efbe4037401220d8620887"}, {"name": "4c6c0b51503f4bf5deafa766a233165a", "type": "electric_scooter", "fusion_lon": 0.0, "lon": -77.07759033333333, "is_disabled": 0, "lat": 38.91163866666667, "fusion_lat": 0.0, "is_reserved": 0, "rental_uris": {"android": "https://dc.lft.to/lastmile_qr_scan", "ios": "https://dc.lft.to/lastmile_qr_scan"}, "bike_id": "4c6c0b51503f4bf5deafa766a233165a"}, {"name": "3699d12b7de631259bd866c435ef4e0b", "type": "electric_scooter", "fusion_lon": 0.0, "lon": -76.97609366666667, "is_disabled": 0, "lat": 38.940192333333336, "fusion_lat": 0.0, "is_reserved": 0, "rental_uris": {"android": "https://dc.lft.to/lastmile_qr_scan", "ios": "https://dc.lft.to/lastmile_qr_scan"}, "bike_id": "3699d12b7de631259bd866c435ef4e0b"}, {"name": "8ef5736d6b4e8b2968ecc1e48fb12800", "type": "electric_scooter", "fusion_lon": 0.0, "lon": -77.032371, "is_disabled": 0, "lat": 38.901360333333336, "fusion_lat": 0.0, "is_reserved": 0, "rental_uris": {"android": "https://dc.lft.to/lastmile_qr_scan", "ios": "https://dc.lft.to/lastmile_qr_scan"}, "bike_id": "8ef5736d6b4e8b2968ecc1e48fb12800"}, {"name": "53b5cdb1ffb1127304f2b98b767727e6", "type": "electric_bike", "fusion_lon": 0.0, "lon": -76.98846016666667, "is_disabled": 0, "lat": 38.84276066666666, "fusion_lat": 0.0, "is_reserved": 0, "rental_uris": {"android": "https://dc.lft.to/lastmile_qr_scan", "ios": "https://dc.lft.to/lastmile_qr_scan"}, "bike_id": "53b5cdb1ffb1127304f2b98b767727e6"}, {"name": "0f86cb2fc2af57e153e92fbb2ddabd42", "type": "electric_scooter", "fusion_lon": 0.0, "lon": -77.02484983333333, "is_disabled": 0, "lat": 38.88293566666667, "fusion_lat": 0.0, "is_reserved": 0, "rental_uris": {"android": "https://dc.lft.to/lastmile_qr_scan", "ios": "https://dc.lft.to/lastmile_qr_scan"}, "bike_id": "0f86cb2fc2af57e153e92fbb2ddabd42"}, {"name": "32dc7664f80a8b43d553fe2757169185", "type": "electric_scooter", "fusion_lon": 0.0, "lon": -77.0321565, "is_disabled": 0, "lat": 38.912835333333334, "fusion_lat": 0.0, "is_reserved": 0, "rental_uris": {"android": "https://dc.lft.to/lastmile_qr_scan", "ios": "https://dc.lft.to/lastmile_qr_scan"}, "bike_id": "32dc7664f80a8b43d553fe2757169185"}, {"name": "9428b84d4db8593ebb2d284916f68708", "type": "electric_scooter", "fusion_lon": 0.0, "lon": -77.0159395, "is_disabled": 0, "lat": 38.927145, "fusion_lat": 0.0, "is_reserved": 0, "rental_uris": {"android": "https://dc.lft.to/lastmile_qr_scan", "ios": "https://dc.lft.to/lastmile_qr_scan"}, "bike_id": "9428b84d4db8593ebb2d284916f68708"}, {"name": "d1f48c5f75dedced2eb28dcb9b7b2d0e", "type": "electric_scooter", "fusion_lon": 0.0, "lon": -77.03354966666667, "is_disabled": 0, "lat": 38.8924805, "fusion_lat": 0.0, "is_reserved": 0, "rental_uris": {"android": "https://dc.lft.to/lastmile_qr_scan", "ios": "https://dc.lft.to/lastmile_qr_scan"}, "bike_id": "d1f48c5f75dedced2eb28dcb9b7b2d0e"}, {"name": "98718521f688f8ede7392d0352d0e1f0", "type": "electric_scooter", "fusion_lon": 0.0, "lon": -77.02682016666667, "is_disabled": 0, "lat": 38.95504066666667, "fusion_lat": 0.0, "is_reserved": 0, "rental_uris": {"android": "https://dc.lft.to/lastmile_qr_scan", "ios": "https://dc.lft.to/lastmile_qr_scan"}, "bike_id": "98718521f688f8ede7392d0352d0e1f0"}, {"name": "839dd2cafd97c86c35338633b286fc2a", "type": "electric_bike", "fusion_lon": 0.0, "lon": -77.229276, "is_disabled": 0, "lat": 38.931924, "fusion_lat": 0.0, "is_reserved": 0, "rental_uris": {"android": "https://dc.lft.to/lastmile_qr_scan", "ios": "https://dc.lft.to/lastmile_qr_scan"}, "bike_id": "839dd2cafd97c86c35338633b286fc2a"}, {"name": "66a3b6aaa4a8bf0912e5c2bfd11340a1", "type": "electric_scooter", "fusion_lon": 0.0, "lon": -77.05133533333333, "is_disabled": 0, "lat": 38.8967235, "fusion_lat": 0.0, "is_reserved": 0, "rental_uris": {"android": "https://dc.lft.to/lastmile_qr_scan", "ios": "https://dc.lft.to/lastmile_qr_scan"}, "bike_id": "66a3b6aaa4a8bf0912e5c2bfd11340a1"}, {"name": "62199f8db41d70cfe8c3357fb3780958", "type": "electric_scooter", "fusion_lon": 0.0, "lon": -77.011965, "is_disabled": 0, "lat": 38.9276355, "fusion_lat": 0.0, "is_reserved": 0, "rental_uris": {"android": "https://dc.lft.to/lastmile_qr_scan", "ios": "https://dc.lft.to/lastmile_qr_scan"}, "bike_id": "62199f8db41d70cfe8c3357fb3780958"}, {"name": "139b0ad888c89e6bc1326fd06151ba72", "type": "electric_scooter", "fusion_lon": 0.0, "lon": -77.04916616666667, "is_disabled": 0, "lat": 38.905143333333335, "fusion_lat": 0.0, "is_reserved": 0, "rental_uris": {"android": "https://dc.lft.to/lastmile_qr_scan", "ios": "https://dc.lft.to/lastmile_qr_scan"}, "bike_id": "139b0ad888c89e6bc1326fd06151ba72"}, {"name": "7abb9e42ff8d01028aec4e6be55ea13d", "type": "electric_scooter", "fusion_lon": 0.0, "lon": -76.9977685, "is_disabled": 0, "lat": 38.844386, "fusion_lat": 0.0, "is_reserved": 0, "rental_uris": {"android": "https://dc.lft.to/lastmile_qr_scan", "ios": "https://dc.lft.to/lastmile_qr_scan"}, "bike_id": "7abb9e42ff8d01028aec4e6be55ea13d"},