{"data": {"bikes": [{"is_reserved": 0, "lat": 38.887806166666664, "is_disabled": 0, "type": "electric_scooter", "fusion_lat": 0.0, "bike_id": "784b0023f2e2f2ecf8aabf9f8b3a8d9d", "rental_uris": {"ios": "https://dc.lft.to/lastmile_qr_scan", "android": "https://dc.lft.to/lastmile_qr_scan"}, "fusion_lon": 0.0, "name": "784b0023f2e2f2ecf8aabf9f8b3a8d9d", "lon": -76.9512435}, {"is_reserved": 0, "lat": 38.91490183333333, "is_disabled": 0, "type": "electric_scooter", "fusion_lat": 0.0, "bike_id": "620471dffa07077e6f1898587911f61d", "rental_uris": {"ios": "https://dc.lft.to/lastmile_qr_scan", "android": "https://dc.lft.to/lastmile_qr_scan"}, "fusion_lon": 0.0, "name": "620471dffa07077e6f1898587911f61d", "lon": -77.0312265}, {"is_reserved": 0, "lat": 38.91814566666667, "is_disabled": 0, "type": "electric_scooter", "fusion_lat": 0.0, "bike_id": "29e897e58c0675cf164848b827eb7960", "rental_uris": {"ios": "https://dc.lft.to/lastmile_qr_scan", "android": "https://dc.lft.to/lastmile_qr_scan"}, "fusion_lon": 0.0, "name": "29e897e58c0675cf164848b827eb7960", "lon": -77.03825883333333}, {"is_reserved": 0, "lat": 38.903291333333335, "is_disabled": 0, "type": "electric_bike", "fusion_lat": 0.0, "bike_id": "03cf03e4736f0e53e1c2bd3695623e1b", "rental_uris": {"ios": "https://dc.lft.to/lastmile_qr_scan", "android": "https://dc.lft.to/lastmile_qr_scan"}, "fusion_lon": 0.0, "name": "03cf03e4736f0e53e1c2bd3695623e1b", "lon": -76.97595966666667}, {"is_reserved": 0, "lat": 38.90491816666667, "is_disabled": 0, "type": "electric_scooter", "fusion_lat": 0.0, "bike_id": "a96d92b3fd8567ccf4bcc3e87d71e79b", "rental_uris": {"ios": "https://dc.lft.to/lastmile_qr_scan", "android": "https://dc.lft.to/lastmile_qr_scan"}, "fusion_lon": 0.0, "name": "a96d92b3fd8567ccf4bcc3e87d71e79b", "lon": -76.94955416666667}, {"is_reserved": 0, "lat": 38.9241815, "is_disabled": 0, "type": "electric_scooter", "fusion_lat": 0.0, "bike_id": "7cdbbdad3e738219bc47725184d4c407", "rental_uris": {"ios": "https://dc.lft.to/lastmile_qr_scan", "android": "https://dc.lft.to/lastmile_qr_scan"}, "fusion_lon": 0.0, "name": "7cdbbdad3e738219bc47725184d4c407", "lon": -77.0505665}, {"is_reserved": 0, "lat": 38.9105875, "is_disabled": 0, "type": "electric_scooter", "fusion_lat": 0.0, "bike_id": "f2f24447672d1ad1f5d12518a2d6daf7", "rental_uris": {"ios": "https://dc.lft.to/lastmile_qr_scan", "android": "https://dc.lft.to/lastmile_qr_scan"}, "fusion_lon": 0.0, "name": "f2f24447672d1ad1f5d12518a2d6daf7", "lon": -77.04333916666667}, {"is_reserved": 0, "lat": 38.91114183333333, "is_disabled": 0, "type": "electric_scooter", "fusion_lat": 0.0, "bike_id": "16355300593e0e12d9b8cd6cfd5346da", "rental_uris": {"ios": "https://dc.lft.to/lastmile_qr_scan", "android": "https://dc.lft.to/lastmile_qr_scan"}, "fusion_lon": 0.0, "name": "16355300593e0e12d9b8cd6cfd5346da", "lon": -77.04471883333333}, {"is_reserved": 0, "lat": 38.869905333333335, "is_disabled": 0, "type": "electric_bike", "fusion_lat": 0.0, "bike_id": "a26f3701c875dd5220bbc229bda4ffd9", "rental_uris": {"ios": "https://dc.lft.to/lastmile_qr_scan", "android": "https://dc.lft.to/lastmile_qr_scan"}, "fusion_lon": 0.0, "name": "a26f3701c875dd5220bbc229bda4ffd9", "lon": -76.959803}, {"is_reserved": 0, "lat": 38.9172915, "is_disabled": 0, "type": "electric_scooter", "fusion_lat": 0.0, "bike_id": "98736d335ed44017eecfeafc29303d9e", "rental_uris": {"ios": "https://dc.lft.to/lastmile_qr_scan", "android": "https://dc.lft.to/lastmile_qr_scan"}, "fusion_lon": 0.0, "name": "98736d335ed44017eecfeafc29303d9e", "lon": -77.04171633333333}, {"is_reserved": 0, "lat": 38.871913666666664, "is_disabled": 0, "type": "electric_scooter", "fusion_lat": 0.0, "bike_id": "4de080d83e0eb3b5a6f18beb9a19edd9", "rental_uris": {"ios": "https://dc.lft.to/lastmile_qr_scan", "android": "https://dc.lft.to/lastmile_qr_scan"}, "fusion_lon": 0.0, "name": "4de080d83e0eb3b5a6f18beb9a19edd9", "lon": -77.00617916666667}, {"is_reserved": 0, "lat": 38.92011733333333, "is_disabled": 0, "type": "electric_scooter", "fusion_lat": 0.0, "bike_id": "d4933349d3146491bdd1d08a7445b760", "rental_uris": {"ios": "https://dc.lft.to/lastmile_qr_scan", "android": "https://dc.lft.to/lastmile_qr_scan"}, "fusion_lon": 0.0, "name": "d4933349d3146491bdd1d08a7445b760", "lon": -77.03119366666667}, {"is_reserved": 0, "lat": 38.902512333333334, "is_disabled": 0, "type": "electric_bike", "fusion_lat": 0.0, "bike_id": "a63366a744553cd3474fe7261964b25b", "rental_uris": {"ios": "https://dc.lft.to/lastmile_qr_scan", "android": "https://dc.lft.to/lastmile_qr_scan"}, "fusion_lon": 0.0, "name": "a63366a744553cd3474fe7261964b25b", "lon": -77.02609933333333}, {"is_reserved": 0, "lat": 38.91402883333333, "is_disabled": 0, "type": "electric_scooter", "fusion_lat": 0.0, "bike_id": "29410941d24c223a29ef9338c59f7d3f", "rental_uris": {"ios": "https://dc.lft.to/lastmile_qr_scan", "android": "https://dc.lft.to/lastmile_qr_scan"}, "fusion_lon": 0.0, "name": "29410941d24c223a29ef9338c59f7d3f", "lon": -77.03225483333334}, {"is_reserved": 0, "lat": 38.900702333333335, "is_disabled": 0, "type": "electric_scooter", "fusion_lat": 0.0, "bike_id": "7e34ce06f0bc283c2b7469990e554d89", "rental_uris": {"ios": "https://dc.lft.to/lastmile_qr_scan", "android": "https://dc.lft.to/lastmile_qr_scan"}, "fusion_lon": 0.0, "name": "7e34ce06f0bc283c2b7469990e554d89", "lon": -77.00204483333333}, {"is_reserved": 0, "lat": 38.9168875, "is_disabled": 0, "type": "electric_scooter", "fusion_lat": 0.0, "bike_id": "96341ed590b334b1bd67d5f56713af09", "rental_uris": {"ios": "https://dc.lft.to/lastmile_qr_scan", "android": "https://dc.lft.to/lastmile_qr_scan"}, "fusion_lon": 0.0, "name": "96341ed590b334b1bd67d5f56713af09", "lon": -77.03403933333334}, {"is_reserved": 0, "lat": 38.91240783333333, "is_disabled": 0, "type": "electric_scooter", "fusion_lat": 0.0, "bike_id": "e8f6e7cf62f34a220fbc2c1de3a13312", "rental_uris": {"ios": "https://dc.lft.to/lastmile_qr_scan", "android": "https://dc.lft.to/lastmile_qr_scan"}, "fusion_lon": 0.0, "name": "e8f6e7cf62f34a220fbc2c1de3a13312", "lon": -77.00429066666666}, {"is_reserved": 0, "lat": 38.917055833333336, "is_disabled": 0, "type": "electric_scooter", "fusion_lat": 0.0, "bike_id": "1778c802a39169ebef45a81ec5940063", "rental_uris": {"ios": "https://dc.lft.to/lastmile_qr_scan", "android": "https://dc.lft.to/lastmile_qr_scan"}, "fusion_lon": 0.0, "name": "1778c802a39169ebef45a81ec5940063", "lon": -77.03864016666667}, {"is_reserved": 0, "lat": 38.91299133333333, "is_disabled": 0, "type": "electric_scooter", "fusion_lat": 0.0, "bike_id": "323d09ac3c46e1c7986d5b80b0e3888b", "rental_uris": {"ios": "https://dc.lft.to/lastmile_qr_scan", "android": "https://dc.lft.to/lastmile_qr_scan"}, "fusion_lon": 0.0, "name": "323d09ac3c46e1c7986d5b80b0e3888b", "lon": -77.061619}, {"is_reserved": 0, "lat": 38.876254833333334, "is_disabled": 0, "type": "electric_scooter", "fusion_lat": 0.0, "bike_id": "3e617b5c03856cdbcd8c03991ac4d8b6", "rental_uris": {"ios": "https://dc.lft.to/lastmile_qr_scan", "android": "https://dc.lft.to/lastmile_qr_scan"}, "fusion_lon": 0.0, "name": "3e617b5c03856cdbcd8c03991ac4d8b6", "lon": -76.9652795}, {"is_reserved": 0, "lat": 38.89184933333333, "is_disabled": 0, "type": "electric_scooter", "fusion_lat": 0.0, "bike_id": "93c33166464be7a57d8392ab4712a8b6", "rental_uris": {"ios": "https://dc.lft.to/lastmile_qr_scan", "android": "https://dc.lft.to/lastmile_qr_scan"}, "fusion_lon": 0.0, "name": "93c33166464be7a57d8392ab4712a8b6", "lon": -77.00333983333333}, {"is_reserved": 0, "lat": 38.91760333333333, "is_disabled": 0, "type": "electric_scooter", "fusion_lat": 0.0, "bike_id": "8be53b8de327d81590b00478c4911e1f", "rental_uris": {"ios": "https://dc.lft.to/lastmile_qr_scan", "android": "https://dc.lft.to/lastmile_qr_scan"}, "fusion_lon": 0.0, "name": "8be53b8de327d81590b00478c4911e1f", "lon": -77.04543183333334}, {"is_reserved": 0, "lat": 38.91109383333333, "is_disabled": 0, "type": "electric_scooter", "fusion_lat": 0.0, "bike_id": "ff950596a415eb09edeb8ae606e55aa5", "rental_uris": {"ios": "https://dc.lft.to/lastmile_qr_scan", "android": "https://dc.lft.to/lastmile_qr_scan"}, "fusion_lon": 0.0, "name": "ff950596a415eb09edeb8ae606e55aa5", "lon": -77.017825}, {"is_reserved": 0, "lat": 38.908209, "is_disabled": 0, "type": "electric_scooter", "fusion_lat": 0.0, "bike_id": "12609807592f99e7ab2e594dc5e3cab7", "rental_uris": {"ios": "https://dc.lft.to/lastmile_qr_scan", "android": "https://dc.lft.to/lastmile_qr_scan"}, "fusion_lon": 0.0, "name": "12609807592f99e7ab2e594dc5e3cab7", "lon": -77.038542}, {"is_reserved": 0, "lat": 38.870822833333335, "is_disabled": 0, "type": "electric_bike", "fusion_lat": 0.0, "bike_id": "92c75135589448e2f31c6f0b16c3e7d0", "rental_uris": {"ios": "https://dc.lft.to/lastmile_qr_scan", "android": "https://dc.lft.to/lastmile_qr_scan"}, "fusion_lon": 0.0, "name": "92c75135589448e2f31c6f0b16c3e7d0", "lon": -77.012079}, {"is_reserved": 0, "lat": 38.89842133333333, "is_disabled": 0, "type": "electric_scooter", "fusion_lat": 0.0, "bike_id": "50487ffe732d428900f0b2ec20d87af2", "rental_uris": {"ios": "https://dc.lft.to/lastmile_qr_scan", "android": "https://dc.lft.to/lastmile_qr_scan"}, "fusion_lon": 0.0, "name": "50487ffe732d428900f0b2ec20d87af2", "lon": -77.02902783333333}, {"is_reserved": 0, "lat": 38.89914433333333, "is_disabled": 0, "type": "electric_scooter", "fusion_lat": 0.0, "bike_id": "a634b6958a55ef157d61beb9175268e6", "rental_uris": {"ios": "https://dc.lft.to/lastmile_qr_scan", "android": "https://dc.lft.to/lastmile_qr_scan"}, "fusion_lon": 0.0, "name": "a634b6958a55ef157d61beb9175268e6", "lon": -77.01347616666666}, {"is_reserved": 0, "lat": 38.910636, "is_disabled": 0, "type": "electric_scooter", "fusion_lat": 0.0, "bike_id": "53a5569e3f017b4aa78996af79089b2f", "rental_uris": {"ios": "https://dc.lft.to/lastmile_qr_scan", "android": "https://dc.lft.to/lastmile_qr_scan"}, "fusion_lon": 0.0, "name": "53a5569e3f017b4aa78996af79089b2f", "lon": -77.02190766666666}, {"is_reserved": 0, "lat": 38.93540333333333, "is_disabled": 0, "type": "electric_scooter", "fusion_lat": 0.0, "bike_id": "c196a741c652e86d901f9b0147027fee", "rental_uris": {"ios": "https://dc.lft.to/lastmile_qr_scan", "android": "https://dc.lft.to/lastmile_qr_scan"}, "fusion_lon": 0.0, "name": "c196a741c652e86d901f9b0147027fee", "lon": -77.08173733333334}, {"is_reserved": 0, "lat": 38.9174085, "is_disabled": 0, "type": "electric_scooter", "fusion_lat": 0.0, "bike_id": "df3caef4b083441092ba02af9f28589e", "rental_uris": {"ios": "https://dc.lft.to/lastmile_qr_scan", "android": "https://dc.lft.to/lastmile_qr_scan"}, "fusion_lon": 0.0, "name": "df3caef4b083441092ba02af9f28589e", "lon": -77.03204716666667}, {"is_reserved": 0, "lat": 38.919649, "is_disabled": 0, "type": "electric_scooter", "fusion_lat": 0.0, "bike_id": "87e9b2e2092ae555b919c6841530cdea", "rental_uris": {"ios": "https://dc.lft.to/lastmile_qr_scan", "android": "https://dc.lft.to/lastmile_qr_scan"}, "fusion_lon": 0.0, "name": "87e9b2e2092ae555b919c6841530cdea", "lon": -77.02357916666666}, {"is_reserved": 0, "lat": 38.911197, "is_disabled": 0, "type": "electric_scooter", "fusion_lat": 0.0, "bike_id": "ed10e067bdfff1b4b46ea4bf2a7b12dc", "rental_uris": {"ios": "https://dc.lft.to/lastmile_qr_scan", "android": "https://dc.lft.to/lastmile_qr_scan"}, "fusion_lon": 0.0, "name": "ed10e067bdfff1b4b46ea4bf2a7b12dc", "lon": -77.04402883333333}, {"is_reserved": 0, "lat": 38.892542, "is_disabled": 0, "type": "electric_scooter", "fusion_lat": 0.0, "bike_id": "471fb49f531ce676bed0408ab61617cc", "rental_uris": {"ios": "https://dc.lft.to/lastmile_qr_scan", "android": "https://dc.lft.to/lastmile_qr_scan"}, "fusion_lon": 0.0, "name": "471fb49f531ce676bed0408ab61617cc", "lon": -77.024034}, {"is_reserved": 0, "lat": 38.88745766666667, "is_disabled": 0, "type": "electric_scooter", "fusion_lat": 0.0, "bike_id": "9c381b99f0655932be324f8c371670b9", "rental_uris": {"ios": "https://dc.lft.to/lastmile_qr_scan", "android": "https://dc.lft.to/lastmile_qr_scan"}, "fusion_lon": 0.0, "name": "9c381b99f0655932be324f8c371670b9", "lon": -77.01530733333334}, {"is_reserved": 0, "lat": 38.909456666666664, "is_disabled": 0, "type": "electric_scooter", "fusion_lat": 0.0, "bike_id": "f27f8b17b8372eb22c9b1e43cdfec1f1", "rental_uris": {"ios": "https://dc.lft.to/lastmile_qr_scan", "android": "https://dc.lft.to/lastmile_qr_scan"}, "fusion_lon": 0.0, "name": "f27f8b17b8372eb22c9b1e43cdfec1f1", "lon": -77.034401}, {"is_reserved": 0, "lat": 38.8770965, "is_disabled": 0, "type": "electric_scooter", "fusion_lat": 0.0, "bike_id": "4bfddb134e403ce8a52b0964c02cb41a", "rental_uris": {"ios": "https://dc.lft.to/lastmile_qr_scan", "android": "https://dc.lft.to/lastmile_qr_scan"}, "fusion_lon": 0.0, "name": "4bfddb134e403ce8a52b0964c02cb41a", "lon": -77.01763916666667}, {"is_reserved": 0, "lat": 38.9184705, "is_disabled": 0, "type": "electric_scooter", "fusion_lat": 0.0, "bike_id": "b87a4994d1be04223cd7aaeb9634dd0e", "rental_uris": {"ios": "https://dc.lft.to/lastmile_qr_scan", "android": "https://dc.lft.to/lastmile_qr_scan"}, "fusion_lon": 0.0, "name": "b87a4994d1be04223cd7aaeb9634dd0e", "lon": -76.965378}, {"is_reserved": 0, "lat": 38.89214966666667, "is_disabled": 0, "type": "electric_scooter", "fusion_lat": 0.0, "bike_id": "e1f468e760ca4c71a9c50650086cb1f6", "rental_uris": {"ios": "https://dc.lft.to/lastmile_qr_scan", "android": "https://dc.lft.to/lastmile_qr_scan"}, "fusion_lon": 0.0, "name": "e1f468e760ca4c71a9c50650086cb1f6", "lon": -77.02365116666667}, {"is_reserved": 0, "lat": 38.90518183333333, "is_disabled": 0, "type": "electric_scooter", "fusion_lat": 0.0, "bike_id": "c4dbc50e41bb04ac24fc256d2b8130ba", "rental_uris": {"ios": "https://dc.lft.to/lastmile_qr_scan", "android": "https://dc.lft.to/lastmile_qr_scan"}, "fusion_lon": 0.0, "name": "c4dbc50e41bb04ac24fc256d2b8130ba", "lon": -77.040711}, {"is_reserved": 0, "lat": 38.92568816666667, "is_disabled": 0, "type": "electric_scooter", "fusion_lat": 0.0, "bike_id": "3b52d146de25b24c0882dc104aee1b0a", "rental_uris": {"ios": "https://dc.lft.to/lastmile_qr_scan", "android": "https://dc.lft.to/lastmile_qr_scan"}, "fusion_lon": 0.0, "name": "3b52d146de25b24c0882dc104aee1b0a", "lon": -77.02899683333334}, {"is_reserved": 0, "lat": 38.90560966666666, "is_disabled": 0, "type": "electric_scooter", "fusion_lat": 0.0, "bike_id": "9c3bb5f3022fb0cc6c11f4f3c5ca82a3", "rental_uris": {"ios": "https://dc.lft.to/lastmile_qr_scan", "android": "https://dc.lft.to/lastmile_qr_scan"}, "fusion_lon": 0.0, "name": "9c3bb5f3022fb0cc6c11f4f3c5ca82a3", "lon": -77.04195766666666}, {"is_reserved": 0, "lat": 38.9204595, "is_disabled": 0, "type": "electric_scooter", "fusion_lat": 0.0, "bike_id": "13fc95f5aedb41f48c957591b6d415fc", "rental_uris": {"ios": "https://dc.lft.to/lastmile_qr_scan", "android": "https://dc.lft.to/lastmile_qr_scan"}, "fusion_lon": 0.0, "name": "13fc95f5aedb41f48c957591b6d415fc", "lon": -77.0160575}, {"is_reserved": 0, "lat": 38.90871416666667, "is_disabled": 0, "type": "electric_scooter", "fusion_lat": 0.0, "bike_id": "966ff42a8fb6829d471e0a13b48de1c2", "rental_uris": {"ios": "https://dc.lft.to/lastmile_qr_scan", "android": "https://dc.lft.to/lastmile_qr_scan"}, "fusion_lon": 0.0, "name": "966ff42a8fb6829d471e0a13b48de1c2", "lon": -77.02690766666667}, {"is_reserved": 0, "lat": 38.85198416666667, "is_disabled": 0, "type": "electric_bike", "fusion_lat": 0.0, "bike_id": "22a8e2b6f2f08f8ea893ffc090b5d231", "rental_uris": {"ios": "https://dc.lft.to/lastmile_qr_scan", "android": "https://dc.lft.to/lastmile_qr_scan"}, "fusion_lon": 0.0, "name": "22a8e2b6f2f08f8ea893ffc090b5d231", "lon": -77.10127233333333}, {"is_reserved": 0, "lat": 38.898767, "is_disabled": 0, "type": "electric_scooter", "fusion_lat": 0.0, "bike_id": "504aaab23cd54b99355f6da3c9521fed", "rental_uris": {"ios": "https://dc.lft.to/lastmile_qr_scan", "android": "https://dc.lft.to/lastmile_qr_scan"}, "fusion_lon": 0.0, "name": "504aaab23cd54b99355f6da3c9521fed", "lon": -76.93183633333334}, {"is_reserved": 0, "lat": 38.90560683333333, "is_disabled": 0, "type": "electric_scooter", "fusion_lat": 0.0, "bike_id": "c76fc9a13b825f4192dbbfe6682142e8", "rental_uris": {"ios": "https://dc.lft.to/lastmile_qr_scan", "android": "https://dc.lft.to/lastmile_qr_scan"}, "fusion_lon": 0.0, "name": "c76fc9a13b825f4192dbbfe6682142e8", "lon": -77.03997366666667}, {"is_reserved": 0, "lat": 38.89834366666667, "is_disabled": 0, "type": "electric_scooter", "fusion_lat": 0.0, "bike_id": "e3b683b50d8047d1d92dabddeddd2f1c", "rental_uris": {"ios": "https://dc.lft.to/lastmile_qr_scan", "android": "https://dc.lft.to/lastmile_qr_scan"}, "fusion_lon": 0.0, "name": "e3b683b50d8047d1d92dabddeddd2f1c", "lon": -77.00735783333333}, {"is_reserved": 0, "lat": 38.925498833333336, "is_disabled": 0, "type": "electric_scooter", "fusion_lat": 0.0, "bike_id": "c41eba98ea84769bb776af747f3dfd72", "rental_uris": {"ios": "https://dc.lft.to/lastmile_qr_scan", "android": "https://dc.lft.to/lastmile_qr_scan"}, "fusion_lon": 0.0, "name": "c41eba98ea84769bb776af747f3dfd72", "lon": -77.00068466666667}, {"is_reserved": 0, "lat": 38.908499166666665, "is_disabled": 0, "type": "electric_scooter", "fusion_lat": 0.0, "bike_id": "909c1b80e43d6004de3aeb137e2a3eee", "rental_uris": {"ios": "https://dc.lft.to/lastmile_qr_scan", "android": "https://dc.lft.to/lastmile_qr_scan"}, "fusion_lon": 0.0, "name": "909c1b80e43d6004de3aeb137e2a3eee", "lon": -76.99954533333333}, {"is_reserved": 0, "lat": 38.922525, "is_disabled": 0, "type": "electric_scooter", "fusion_lat": 0.0, "bike_id": "b0a67afb5581103a55a6a4dc7051ca9d", "rental_uris": {"ios": "https://dc.lft.to/lastmile_qr_scan", "android": "https://dc.lft.to/lastmile_qr_scan"}, "fusion_lon": 0.0, "name": "b0a67afb5581103a55a6a4dc7051ca9d", "lon": -77.03466483333334}, {"is_reserved": 0, "lat": 38.92787583333333, "is_disabled": 0, "type": "electric_scooter", "fusion_lat": 0.0, "bike_id": "dee9a6fbe65a1e87fca608733b79e209", "rental_uris": {"ios": "https://dc.lft.to/lastmile_qr_scan", "android": "https://dc.lft.to/lastmile_qr_scan"}, "fusion_lon": 0.0, "name": "dee9a6fbe65a1e87fca608733b79e209", "lon": -77.05290033333333}, {"is_reserved": 0, "lat": 38.91412116666667, "is_disabled": 0, "type": "electric_scooter", "fusion_lat": 0.0, "bike_id": "d95b6773487f6205cbb53b25f58cecb8", "rental_uris": {"ios": "https://dc.lft.to/lastmile_qr_scan", "android": "https://dc.lft.to/lastmile_qr_scan"}, "fusion_lon": 0.0, "name": "d95b6773487f6205cbb53b25f58cecb8", "lon": -77.00969283333333}, {"is_reserved": 0, "lat": 38.89044466666667, "is_disabled": 0, "type": "electric_scooter", "fusion_lat": 0.0, "bike_id": "991b1a3bdb81f2827ab2930b02cf5ebc", "rental_uris": {"ios": "https://dc.lft.to/lastmile_qr_scan", "android": "https://dc.lft.to/lastmile_qr_scan"}, "fusion_lon": 0.0, "name": "991b1a3bdb81f2827ab2930b02cf5ebc", "lon": -76.9375025}, {"is_reserved": 0, "lat": 38.887521, "is_disabled": 0, "type": "electric_scooter", "fusion_lat": 0.0, "bike_id": "558db87c140350b40d3f9bc8c6416c20", "rental_uris": {"ios": "https://dc.lft.to/lastmile_qr_scan", "android": "https://dc.lft.to/lastmile_qr_scan"}, "fusion_lon": 0.0, "name": "558db87c140350b40d3f9bc8c6416c20", "lon": -76.9985325}, {"is_reserved": 0, "lat": 38.909341, "is_disabled": 0, "type": "electric_scooter", "fusion_lat": 0.0, "bike_id": "5258404076eefcd7ac082421f5c5ad81", "rental_uris": {"ios": "https://dc.lft.to/lastmile_qr_scan", "android": "https://dc.lft.to/lastmile_qr_scan"}, "fusion_lon": 0.0, "name": "5258404076eefcd7ac082421f5c5ad81", "lon": -77.05517483333334}, {"is_reserved": 0, "lat": 38.90854266666667, "is_disabled": 0, "type": "electric_scooter", "fusion_lat": 0.0, "bike_id": "6202f1977636acc675053bbdd96eea51", "rental_uris": {"ios": "https://dc.lft.to/lastmile_qr_scan", "android": "https://dc.lft.to/lastmile_qr_scan"}, "fusion_lon": 0.0, "name": "6202f1977636acc675053bbdd96eea51", "lon": -77.0325395}, {"is_reserved": 0, "lat": 38.9602845, "is_disabled": 0, "type": "electric_bike", "fusion_lat": 0.0, "bike_id": "2635f5065c4e61ac5d1754fe314d560e", "rental_uris": {"ios": "https://dc.lft.to/lastmile_qr_scan", "android": "https://dc.lft.to/lastmile_qr_scan"}, "fusion_lon": 0.0, "name": "2635f5065c4e61ac5d1754fe314d560e", "lon": -77.033264}, {"is_reserved": 0, "lat": 38.85784966666667, "is_disabled": 0, "type": "electric_bike", "fusion_lat": 0.0, "bike_id": "c896e4578a37914f8184d06fa610ecc3", "rental_uris": {"ios": "https://dc.lft.to/lastmile_qr_scan", "android": "https://dc.lft.to/lastmile_qr_scan"}, "fusion_lon": 0.0, "name": "c896e4578a37914f8184d06fa610ecc3", "lon": -77.09957516666667}, {"is_reserved": 0, "lat": 38.95191466666667, "is_disabled": 0, "type": "electric_scooter", "fusion_lat": 0.0, "bike_id": "3a1e1d3b808dba0004b44e7443d84a6e", "rental_uris": {"ios": "https://dc.lft.to/lastmile_qr_scan", "android": "https://dc.lft.to/lastmile_qr_scan"}, "fusion_lon": 0.0, "name": "3a1e1d3b808dba0004b44e7443d84a6e", "lon": -77.06658416666667}, {"is_reserved": 0, "lat": 38.903602, "is_disabled": 0, "type": "electric_scooter", "fusion_lat": 0.0, "bike_id": "ffc65159de2f090713f9f127416998c4", "rental_uris": {"ios": "https://dc.lft.to/lastmile_qr_scan", "android": "https://dc.lft.to/lastmile_qr_scan"}, "fusion_lon": 0.0, "name": "ffc65159de2f090713f9f127416998c4", "lon": -77.03171483333334}, {"is_reserved": 0, "lat": 38.90536216666667, "is_disabled": 0, "type": "electric_scooter", "fusion_lat": 0.0, "bike_id": "ccadbbfdb1005fa022dc2a3248544e79", "rental_uris": {"ios": "https://dc.lft.to/lastmile_qr_scan", "android": "https://dc.lft.to/lastmile_qr_scan"}, "fusion_lon": 0.0, "name": "ccadbbfdb1005fa022dc2a3248544e79", "lon": -77.05026233333334}, {"is_reserved": 0, "lat": 38.90730516666667, "is_disabled": 0, "type": "electric_scooter", "fusion_lat": 0.0, "bike_id": "457e6310f4f5e1d1994a1292113f7fe3", "rental_uris": {"ios": "https://dc.lft.to/lastmile_qr_scan", "android": "https://dc.lft.to/lastmile_qr_scan"}, "fusion_lon": 0.0, "name": "457e6310f4f5e1d1994a1292113f7fe3", "lon": -77.04335533333334}, {"is_reserved": 0, "lat": 38.9277285, "is_disabled": 0, "type": "electric_scooter", "fusion_lat": 0.0, "bike_id": "8194a5900f3369bb7530520f29e60d79", "rental_uris": {"ios": "https://dc.lft.to/lastmile_qr_scan", "android": "https://dc.lft.to/lastmile_qr_scan"}, "fusion_lon": 0.0, "name": "8194a5900f3369bb7530520f29e60d79", "lon": -77.02746366666666}, {"is_reserved": 0, "lat": 38.91405833333334, "is_disabled": 0, "type": "electric_scooter", "fusion_lat": 0.0, "bike_id": "d257353ccdf3d2780facbcbcb9ef9420", "rental_uris": {"ios": "https://dc.lft.to/lastmile_qr_scan", "android": "https://dc.lft.to/lastmile_qr_scan"}, "fusion_lon": 0.0, "name": "d257353ccdf3d2780facbcbcb9ef9420", "lon": -77.04134683333334}, {"is_reserved": 0, "lat": 38.897251, "is_disabled": 0, "type": "electric_scooter", "fusion_lat": 0.0, "bike_id": "48dafdd83579bdeb4ef328c6e21e8617", "rental_uris": {"ios": "https://dc.lft.to/lastmile_qr_scan", "android": "https://dc.lft.to/lastmile_qr_scan"}, "fusion_lon": 0.0, "name": "48dafdd83579bdeb4ef328c6e21e8617", "lon": -77.0552135}, {"is_reserved": 0, "lat": 38.872057833333336, "is_disabled": 0, "type": "electric_scooter", "fusion_lat": 0.0, "bike_id": "cfc7b0b7301fd23773fb1ac9c710417a", "rental_uris": {"ios": "https://dc.lft.to/lastmile_qr_scan", "android": "https://dc.lft.to/lastmile_qr_scan"}, "fusion_lon": 0.0, "name": "cfc7b0b7301fd23773fb1ac9c710417a", "lon": -77.00917033333333}, {"is_reserved": 0, "lat": 38.852168166666665, "is_disabled": 0, "type": "electric_bike", "fusion_lat": 0.0, "bike_id": "27c421b9c7f01bcfa587987d1613d825", "rental_uris": {"ios": "https://dc.lft.to/lastmile_qr_scan", "android": "https://dc.lft.to/lastmile_qr_scan"}, "fusion_lon": 0.0, "name": "27c421b9c7f01bcfa587987d1613d825", "lon": -77.12955066666666}, {"is_reserved": 0, "lat": 38.9038475, "is_disabled": 0, "type": "electric_scooter", "fusion_lat": 0.0, "bike_id": "4da6be3907e30816291c96b6bab0303b", "rental_uris": {"ios": "https://dc.lft.to/lastmile_qr_scan", "android": "https://dc.lft.to/lastmile_qr_scan"}, "fusion_lon": 0.0, "name": "4da6be3907e30816291c96b6bab0303b", "lon": -77.00878866666666}, {"is_reserved": 0, "lat": 38.89842933333333, "is_disabled": 0, "type": "electric_scooter", "fusion_lat": 0.0, "bike_id": "68d52743b43ca21199bb89cb86c215d5", "rental_uris": {"ios": "https://dc.lft.to/lastmile_qr_scan", "android": "https://dc.lft.to/lastmile_qr_scan"}, "fusion_lon": 0.0, "name": "68d52743b43ca21199bb89cb86c215d5", "lon": -77.04374116666666}, {"is_reserved": 0, "lat": 38.93077816666667, "is_disabled": 0, "type": "electric_scooter", "fusion_lat": 0.0, "bike_id": "07c45b28b8521cdb0223c54848bda0bc", "rental_uris": {"ios": "https://dc.lft.to/lastmile_qr_scan", "android": "https://dc.lft.to/lastmile_qr_scan"}, "fusion_lon": 0.0, "name": "07c45b28b8521cdb0223c54848bda0bc", "lon": -77.02791933333333}, {"is_reserved": 0, "lat": 38.90254433333333, "is_disabled": 0, "type": "electric_scooter", "fusion_lat": 0.0, "bike_id": "ae3930f236d5e8b592684e3b130314ef", "rental_uris": {"ios": "https://dc.lft.to/lastmile_qr_scan", "android": "https://dc.lft.to/lastmile_qr_scan"}, "fusion_lon": 0.0, "name": "ae3930f236d5e8b592684e3b130314ef", "lon": -77.024808}, {"is_reserved": 0, "lat": 38.9011495, "is_disabled": 0, "type": "electric_scooter", "fusion_lat": 0.0, "bike_id": "7c1188b10b8e49daa09a7287b848abb2", "rental_uris": {"ios": "https://dc.lft.to/lastmile_qr_scan", "android": "https://dc.lft.to/lastmile_qr_scan"}, "fusion_lon": 0.0, "name": "7c1188b10b8e49daa09a7287b848abb2", "lon": -77.05908733333334}, {"is_reserved": 0, "lat": 38.89882566666667, "is_disabled": 0, "type": "electric_scooter", "fusion_lat": 0.0, "bike_id": "f2be2aab6edf8602f5d127d4e843ed3d", "rental_uris": {"ios": "https://dc.lft.to/lastmile_qr_scan", "android": "https://dc.lft.to/lastmile_qr_scan"}, "fusion_lon": 0.0, "name": "f2be2aab6edf8602f5d127d4e843ed3d", "lon": -77.02721316666667}, {"is_reserved": 0, "lat": 38.9001585, "is_disabled": 0, "type": "electric_scooter", "fusion_lat": 0.0, "bike_id": "47e2c0d55e5dfc141349a00871581df5", "rental_uris": {"ios": "https://dc.lft.to/lastmile_qr_scan", "android": "https://dc.lft.to/lastmile_qr_scan"}, "fusion_lon": 0.0, "name": "47e2c0d55e5dfc141349a00871581df5", "lon": -77.03944283333334}, {"is_reserved": 0, "lat": 38.86523316666667, "is_disabled": 0, "type": "electric_scooter", "fusion_lat": 0.0, "bike_id": "cfcef7ae5632c33148ed5520525761ee", "rental_uris": {"ios": "https://dc.lft.to/lastmile_qr_scan", "android": "https://dc.lft.to/lastmile_qr_scan"}, "fusion_lon": 0.0, "name": "cfcef7ae5632c33148ed5520525761ee", "lon": -76.99029183333333}, {"is_reserved": 0, "lat": 38.85709166666667, "is_disabled": 0, "type": "electric_bike", "fusion_lat": 0.0, "bike_id": "932b46da7c0f94252e8039aab1233077", "rental_uris": {"ios": "https://dc.lft.to/lastmile_qr_scan", "android": "https://dc.lft.to/lastmile_qr_scan"}, "fusion_lon": 0.0, "name": "932b46da7c0f94252e8039aab1233077", "lon": -76.97092683333334}, {"is_reserved": 0, "lat": 38.9310495, "is_disabled": 0, "type": "electric_scooter", "fusion_lat": 0.0, "bike_id": "dcb7d593ab3d60d1c79dce8f821ba52f", "rental_uris": {"ios": "https://dc.lft.to/lastmile_qr_scan", "android": "https://dc.lft.to/lastmile_qr_scan"}, "fusion_lon": 0.0, "name": "dcb7d593ab3d60d1c79dce8f821ba52f", "lon": -77.01231283333334}, {"is_reserved": 0, "lat": 38.86216983333333, "is_disabled": 0, "type": "electric_bike", "fusion_lat": 0.0, "bike_id": "3544893e20fcb69cb5a4f9bc9b7924ce", "rental_uris": {"ios": "https://dc.lft.to/lastmile_qr_scan", "android": "https://dc.lft.to/lastmile_qr_scan"}, "fusion_lon": 0.0, "name": "3544893e20fcb69cb5a4f9bc9b7924ce", "lon": -77.05109716666666}, {"is_reserved": 0, "lat": 38.901271333333334, "is_disabled": 0, "type": "electric_scooter", "fusion_lat": 0.0, "bike_id": "2c32f20cebb1422ea25fe0b8118a6d16", "rental_uris": {"ios": "https://dc.lft.to/lastmile_qr_scan", "android": "https://dc.lft.to/lastmile_qr_scan"}, "fusion_lon": 0.0, "name": "2c32f20cebb1422ea25fe0b8118a6d16", "lon": -77.03372283333333}, {"is_reserved": 0, "lat": 38.844251666666665, "is_disabled": 0, "type": "electric_scooter", "fusion_lat": 0.0, "bike_id": "7e7ca9eeef4bffd312a6e89543c7b952", "rental_uris": {"ios": "https://dc.lft.to/lastmile_qr_scan", "android": "https://dc.lft.to/lastmile_qr_scan"}, "fusion_lon": 0.0, "name": "7e7ca9eeef4bffd312a6e89543c7b952", "lon": -76.99775133333333}, {"is_reserved": 0, "lat": 38.84367316666667, "is_disabled": 0, "type": "electric_bike", "fusion_lat": 0.0, "bike_id": "9b2fdf4ece03e0ce4f6e2ab4d2ad723d", "rental_uris": {"ios": "https://dc.lft.to/lastmile_qr_scan", "android": "https://dc.lft.to/lastmile_qr_scan"}, "fusion_lon": 0.0, "name": "9b2fdf4ece03e0ce4f6e2ab4d2ad723d", "lon": -76.97822883333333}, {"is_reserved": 0, "lat": 38.898401666666665, "is_disabled": 0, "type": "electric_scooter", "fusion_lat": 0.0, "bike_id": "af55555468e4361164635161da898479", "rental_uris": {"ios": "https://dc.lft.to/lastmile_qr_scan", "android": "https://dc.lft.to/lastmile_qr_scan"}, "fusion_lon": 0.0, "name": "af55555468e4361164635161da898479", "lon": -76.94631883333334}, {"is_reserved": 0, "lat": 38.844313166666666, "is_disabled": 0, "type": "electric_scooter", "fusion_lat": 0.0, "bike_id": "d3d16e20a36196cc961a353999a4ae5f", "rental_uris": {"ios": "https://dc.lft.to/lastmile_qr_scan", "android": "https://dc.lft.to/lastmile_qr_scan"}, "fusion_lon": 0.0, "name": "d3d16e20a36196cc961a353999a4ae5f", "lon": -76.99776583333333}, {"is_reserved": 0, "lat": 38.904607166666665, "is_disabled": 0, "type": "electric_scooter", "fusion_lat": 0.0, "bike_id": "d3a3ed095ab39cc3da191083efb5bf84", "rental_uris": {"ios": "https://dc.lft.to/lastmile_qr_scan", "android": "https://dc.lft.to/lastmile_qr_scan"}, "fusion_lon": 0.0, "name": "d3a3ed095ab39cc3da191083efb5bf84", "lon": -77.04615983333333}, {"is_reserved": 0, "lat": 38.916471666666666, "is_disabled": 0, "type": "electric_scooter", "fusion_lat": 0.0, "bike_id": "43dd2cf835bac9383dec3b0699b92454", "rental_uris": {"ios": "https://dc.lft.to/lastmile_qr_scan", "android": "https://dc.lft.to/lastmile_qr_scan"}, "fusion_lon": 0.0, "name": "43dd2cf835bac9383dec3b0699b92454", "lon": -77.02181883333333}, {"is_reserved": 0, "lat": 38.914258333333336, "is_disabled": 0, "type": "electric_scooter", "fusion_lat": 0.0, "bike_id": "1df36d45424ed0fdf4a2d260371fddbe", "rental_uris": {"ios": "https://dc.lft.to/lastmile_qr_scan", "android": "https://dc.lft.to/lastmile_qr_scan"}, "fusion_lon": 0.0, "name": "1df36d45424ed0fdf4a2d260371fddbe", "lon": -77.02813616666667}, {"is_reserved": 0, "lat": 38.8904365, "is_disabled": 0, "type": "electric_scooter", "fusion_lat": 0.0, "bike_id": "8db984e824a96f71cb28980392750e40", "rental_uris": {"ios": "https://dc.lft.to/lastmile_qr_scan", "android": "https://dc.lft.to/lastmile_qr_scan"}, "fusion_lon": 0.0, "name": "8db984e824a96f71cb28980392750e40", "lon": -76.93753033333333}, {"is_reserved": 0, "lat": 38.884293, "is_disabled": 0, "type": "electric_scooter", "fusion_lat": 0.0, "bike_id": "992a7ad426d6cab29a66b73f10cdfcd1", "rental_uris": {"ios": "https://dc.lft.to/lastmile_qr_scan", "android": "https://dc.lft.to/lastmile_qr_scan"}, "fusion_lon": 0.0, "name": "992a7ad426d6cab29a66b73f10cdfcd1", "lon": -76.95756166666666}, {"is_reserved": 0, "lat": 38.90759383333334, "is_disabled": 0, "type": "electric_scooter", "fusion_lat": 0.0, "bike_id": "36404ec0381c1546dc25026439bd7d78", "rental_uris": {"ios": "https://dc.lft.to/lastmile_qr_scan", "android": "https://dc.lft.to/lastmile_qr_scan"}, "fusion_lon": 0.0, "name": "36404ec0381c1546dc25026439bd7d78", "lon": -77.03463566666667}, {"is_reserved": 0, "lat": 38.89222316666667, "is_disabled": 0, "type": "electric_scooter", "fusion_lat": 0.0, "bike_id": "19f15d43659f669cc2fb106019eb9343", "rental_uris": {"ios": "https://dc.lft.to/lastmile_qr_scan", "android": "https://dc.lft.to/lastmile_qr_scan"}, "fusion_lon": 0.0, "name": "19f15d43659f669cc2fb106019eb9343", "lon": -77.02777666666667}, {"is_reserved": 0, "lat": 38.942936833333334, "is_disabled": 0, "type": "electric_scooter", "fusion_lat": 0.0, "bike_id": "32d761fee3b6775f110d75b950f932be", "rental_uris": {"ios": "https://dc.lft.to/lastmile_qr_scan", "android": "https://dc.lft.to/lastmile_qr_scan"}, "fusion_lon": 0.0, "name": "32d761fee3b6775f110d75b950f932be", "lon": -77.02168116666667}, {"is_reserved": 0, "lat": 38.8545015, "is_disabled": 0, "type": "electric_scooter", "fusion_lat": 0.0, "bike_id": "0c189a982213df3b01718b3e8a12b450", "rental_uris": {"ios": "https://dc.lft.to/lastmile_qr_scan", "android": "https://dc.lft.to/lastmile_qr_scan"}, "fusion_lon": 0.0, "name": "0c189a982213df3b01718b3e8a12b450", "lon": -76.98576583333333}, {"is_reserved": 0, "lat": 38.96223483333333, "is_disabled": 0, "type": "electric_bike", "fusion_lat": 0.0, "bike_id": "79d998d01efa3356b13c4dd278703cf2", "rental_uris": {"ios": "https://dc.lft.to/lastmile_qr_scan", "android": "https://dc.lft.to/lastmile_qr_scan"}, "fusion_lon": 0.0, "name": "79d998d01efa3356b13c4dd278703cf2", "lon": -77.02626}, {"is_reserved": 0, "lat": 38.95421266666666, "is_disabled": 0, "type": "electric_scooter", "fusion_lat": 0.0, "bike_id": "f834ccb304c88fbf98fe195b3b76779b", "rental_uris": {"ios": "https://dc.lft.to/lastmile_qr_scan", "android": "https://dc.lft.to/lastmile_qr_scan"}, "fusion_lon": 0.0, "name": "f834ccb304c88fbf98fe195b3b76779b", "lon": -77.02756683333334}, {"is_reserved": 0, "lat": 38.8873945, "is_disabled": 0, "type": "electric_scooter", "fusion_lat": 0.0, "bike_id": "bc0513d50c91c4cdc487b0df0537ead6", "rental_uris": {"ios": "https://dc.lft.to/lastmile_qr_scan", "android": "https://dc.lft.to/lastmile_qr_scan"}, "fusion_lon": 0.0, "name": "bc0513d50c91c4cdc487b0df0537ead6", "lon": -77.01533483333333}, {"is_reserved": 0, "lat": 38.91647716666667, "is_disabled": 0, "type": "electric_scooter", "fusion_lat": 0.0, "bike_id": "16a64dc4b2564889195bbe0d1c021ecc", "rental_uris": {"ios": "https://dc.lft.to/lastmile_qr_scan", "android": "https://dc.lft.to/lastmile_qr_scan"}, "fusion_lon": 0.0, "name": "16a64dc4b2564889195bbe0d1c021ecc", "lon": -77.0218025}, {"is_reserved": 0, "lat": 38.93166733333333, "is_disabled": 0, "type": "electric_scooter", "fusion_lat": 0.0, "bike_id": "b0c0eb167d21088d3825c24eaf2fe551", "rental_uris": {"ios": "https://dc.lft.to/lastmile_qr_scan", "android": "https://dc.lft.to/lastmile_qr_scan"}, "fusion_lon": 0.0, "name": "b0c0eb167d21088d3825c24eaf2fe551", "lon": -77.02815233333334}, {"is_reserved": 0, "lat": 38.914098833333334, "is_disabled": 0, "type": "electric_scooter", "fusion_lat": 0.0, "bike_id": "1a874df8f4d8f99cdd5970386ee8b59c", "rental_uris": {"ios": "https://dc.lft.to/lastmile_qr_scan", "android": "https://dc.lft.to/lastmile_qr_scan"}, "fusion_lon": 0.0, "name": "1a874df8f4d8f99cdd5970386ee8b59c", "lon": -77.04395416666667}, {"is_reserved": 0, "lat": 38.953556666666664, "is_disabled": 0, "type": "electric_bike", "fusion_lat": 0.0, "bike_id": "01dc771a1b5fdb6ff971b94bfd5e8796", "rental_uris": {"ios": "https://dc.lft.to/lastmile_qr_scan", "android": "https://dc.lft.to/lastmile_qr_scan"}, "fusion_lon": 0.0, "name": "01dc771a1b5fdb6ff971b94bfd5e8796", "lon": -76.98096283333334}, {"is_reserved": 0, "lat": 38.893564, "is_disabled": 0, "type": "electric_scooter", "fusion_lat": 0.0, "bike_id": "7266e0bdf5cd8ee4d51eab3b44704017", "rental_uris": {"ios": "https://dc.lft.to/lastmile_qr_scan", "android": "https://dc.lft.to/lastmile_qr_scan"}, "fusion_lon": 0.0, "name": "7266e0bdf5cd8ee4d51eab3b44704017", "lon": -77.0478625}, {"is_reserved": 0, "lat": 38.895527, "is_disabled": 0, "type": "electric_scooter", "fusion_lat": 0.0, "bike_id": "9eecbe68ca3bde713a3a69a8121004e9", "rental_uris": {"ios": "https://dc.lft.to/lastmile_qr_scan", "android": "https://dc.lft.to/lastmile_qr_scan"}, "fusion_lon": 0.0, "name": "9eecbe68ca3bde713a3a69a8121004e9", "lon": -77.020037}, {"is_reserved": 0, "lat": 38.87627066666667, "is_disabled": 0, "type": "electric_scooter", "fusion_lat": 0.0, "bike_id": "001dfa9b2441fa42a7364670e75f4c7b", "rental_uris": {"ios": "https://dc.lft.to/lastmile_qr_scan", "android": "https://dc.lft.to/lastmile_qr_scan"}, "fusion_lon": 0.0, "name": "001dfa9b2441fa42a7364670e75f4c7b", "lon": -76.96527583333334}, {"is_reserved": 0, "lat": 38.90851933333333, "is_disabled": 0, "type": "electric_scooter", "fusion_lat": 0.0, "bike_id": "7afbe9f8b402ef51283be7413549b2e2", "rental_uris": {"ios": "https://dc.lft.to/lastmile_qr_scan", "android": "https://dc.lft.to/lastmile_qr_scan"}, "fusion_lon": 0.0, "name": "7afbe9f8b402ef51283be7413549b2e2", "lon": -77.04272116666667}, {"is_reserved": 0, "lat": 38.8933495, "is_disabled": 0, "type": "electric_scooter", "fusion_lat": 0.0, "bike_id": "32b1b0f8b1122a9aaf79bbd20d719e3f", "rental_uris": {"ios": "https://dc.lft.to/lastmile_qr_scan", "android": "https://dc.lft.to/lastmile_qr_scan"}, "fusion_lon": 0.0, "name": "32b1b0f8b1122a9aaf79bbd20d719e3f", "lon": -76.93136183333333}, {"is_reserved": 0, "lat": 38.893450333333334, "is_disabled": 0, "type": "electric_scooter", "fusion_lat": 0.0, "bike_id": "d3d1fd4ee48b345dc95eee3ef6bacca8", "rental_uris": {"ios": "https://dc.lft.to/lastmile_qr_scan", "android": "https://dc.lft.to/lastmile_qr_scan"}, "fusion_lon": 0.0, "name": "d3d1fd4ee48b345dc95eee3ef6bacca8", "lon": -76.9493615}, {"is_reserved": 0, "lat": 38.9000885, "is_disabled": 0, "type": "electric_scooter", "fusion_lat": 0.0, "bike_id": "9287f2fa5a48a24bf90371176f86df2d", "rental_uris": {"ios": "https://dc.lft.to/lastmile_qr_scan", "android": "https://dc.lft.to/lastmile_qr_scan"}, "fusion_lon": 0.0, "name": "9287f2fa5a48a24bf90371176f86df2d", "lon": -77.0324925}, {"is_reserved": 0, "lat": 38.89221783333333, "is_disabled": 0, "type": "electric_scooter", "fusion_lat": 0.0, "bike_id": "64893c9b8c6ec5f0abd43480f458a704", "rental_uris": {"ios": "https://dc.lft.to/lastmile_qr_scan", "android": "https://dc.lft.to/lastmile_qr_scan"}, "fusion_lon": 0.0, "name": "64893c9b8c6ec5f0abd43480f458a704", "lon": -77.046886}, {"is_reserved": 0, "lat": 38.924905, "is_disabled": 0, "type": "electric_scooter", "fusion_lat": 0.0, "bike_id": "f4772f2a4bd17198d0a38b5fe64e9b3b", "rental_uris": {"ios": "https://dc.lft.to/lastmile_qr_scan", "android": "https://dc.lft.to/lastmile_qr_scan"}, "fusion_lon": 0.0, "name": "f4772f2a4bd17198d0a38b5fe64e9b3b", "lon": -77.021764}, {"is_reserved": 0, "lat": 38.8921575, "is_disabled": 0, "type": "electric_scooter", "fusion_lat": 0.0, "bike_id": "741e3f8cbec84cf696bfa9814f3d05e1", "rental_uris": {"ios": "https://dc.lft.to/lastmile_qr_scan", "android": "https://dc.lft.to/lastmile_qr_scan"}, "fusion_lon": 0.0, "name": "741e3f8cbec84cf696bfa9814f3d05e1", "lon": -77.0262545}, {"is_reserved": 0, "lat": 38.84605466666667, "is_disabled": 0, "type": "electric_bike", "fusion_lat": 0.0, "bike_id": "92816e928ad30ddadf6e5a6d023d5cf5", "rental_uris": {"ios": "https://dc.lft.to/lastmile_qr_scan", "android": "https://dc.lft.to/lastmile_qr_scan"}, "fusion_lon": 0.0, "name": "92816e928ad30ddadf6e5a6d023d5cf5", "lon": -76.96900683333334}, {"is_reserved": 0, "lat": 38.8428805, "is_disabled": 0, "type": "electric_bike", "fusion_lat": 0.0, "bike_id": "3c9a33aafe14ff8690576f4ffdabb974", "rental_uris": {"ios": "https://dc.lft.to/lastmile_qr_scan", "android": "https://dc.lft.to/lastmile_qr_scan"}, "fusion_lon": 0.0, "name": "3c9a33aafe14ff8690576f4ffdabb974", "lon": -77.0448305}, {"is_reserved": 0, "lat": 38.923018, "is_disabled": 0, "type": "electric_scooter", "fusion_lat": 0.0, "bike_id": "c93173ba761b54760b6a85a62fcb3c52", "rental_uris": {"ios": "https://dc.lft.to/lastmile_qr_scan", "android": "https://dc.lft.to/lastmile_qr_scan"}, "fusion_lon": 0.0, "name": "c93173ba761b54760b6a85a62fcb3c52", "lon": -77.042678}, {"is_reserved": 0, "lat": 38.908539, "is_disabled": 0, "type": "electric_scooter", "fusion_lat": 0.0, "bike_id": "38c6f1eb91aa2226a11e16e4de562481", "rental_uris": {"ios": "https://dc.lft.to/lastmile_qr_scan", "android": "https://dc.lft.to/lastmile_qr_scan"}, "fusion_lon": 0.0, "name": "38c6f1eb91aa2226a11e16e4de562481", "lon": -77.04264216666667}, {"is_reserved": 0, "lat": 38.95074016666667, "is_disabled": 0, "type": "electric_scooter", "fusion_lat": 0.0, "bike_id": "6d5b9d0fb0fa71ed08d1494decf6124d", "rental_uris": {"ios": "https://dc.lft.to/lastmile_qr_scan", "android": "https://dc.lft.to/lastmile_qr_scan"}, "fusion_lon": 0.0, "name": "6d5b9d0fb0fa71ed08d1494decf6124d", "lon": -77.03099283333333}, {"is_reserved": 0, "lat": 38.878395166666664, "is_disabled": 0, "type": "electric_scooter", "fusion_lat": 0.0, "bike_id": "5a2a568eef78c77750b08da5e075dacf", "rental_uris": {"ios": "https://dc.lft.to/lastmile_qr_scan", "android": "https://dc.lft.to/lastmile_qr_scan"}, "fusion_lon": 0.0, "name": "5a2a568eef78c77750b08da5e075dacf", "lon": -76.98603216666666}, {"is_reserved": 0, "lat": 38.907999333333336, "is_disabled": 0, "type": "electric_scooter", "fusion_lat": 0.0, "bike_id": "5fc8fb3ab6b4bce2968afb61fd1bab0f", "rental_uris": {"ios": "https://dc.lft.to/lastmile_qr_scan", "android": "https://dc.lft.to/lastmile_qr_scan"}, "fusion_lon": 0.0, "name": "5fc8fb3ab6b4bce2968afb61fd1bab0f", "lon": -77.08402783333334}, {"is_reserved": 0, "lat": 38.90070816666667, "is_disabled": 0, "type": "electric_scooter", "fusion_lat": 0.0, "bike_id": "6a2a4eb25d2fa4ec1376891fb5f48727", "rental_uris": {"ios": "https://dc.lft.to/lastmile_qr_scan", "android": "https://dc.lft.to/lastmile_qr_scan"}, "fusion_lon": 0.0, "name": "6a2a4eb25d2fa4ec1376891fb5f48727", "lon": -76.9983675}, {"is_reserved": 0, "lat": 38.903791166666664, "is_disabled": 0, "type": "electric_scooter", "fusion_lat": 0.0, "bike_id": "d3f163453c688762dcafb4a9e28bec89", "rental_uris": {"ios": "https://dc.lft.to/lastmile_qr_scan", "android": "https://dc.lft.to/lastmile_qr_scan"}, "fusion_lon": 0.0, "name": "d3f163453c688762dcafb4a9e28bec89", "lon": -77.053081}, {"is_reserved": 0, "lat": 38.862084833333334, "is_disabled": 0, "type": "electric_bike", "fusion_lat": 0.0, "bike_id": "fec10b3f68d5fb0775d63e82966e4c8d", "rental_uris": {"ios": "https://dc.lft.to/lastmile_qr_scan", "android": "https://dc.lft.to/lastmile_qr_scan"}, "fusion_lon": 0.0, "name": "fec10b3f68d5fb0775d63e82966e4c8d", "lon": -76.99777316666666}, {"is_reserved": 0, "lat": 38.96867016666667, "is_disabled": 0, "type": "electric_bike", "fusion_lat": 0.0, "bike_id": "348b4323acc9edd68e80cabe8b09f816", "rental_uris": {"ios": "https://dc.lft.to/lastmile_qr_scan", "android": "https://dc.lft.to/lastmile_qr_scan"}, "fusion_lon": 0.0, "name": "348b4323acc9edd68e80cabe8b09f816", "lon": -77.06497783333333}, {"is_reserved": 0, "lat": 38.906519333333335, "is_disabled": 0, "type": "electric_scooter", "fusion_lat": 0.0, "bike_id": "555abcaffe62b9b1dda9abe38639d45f", "rental_uris": {"ios": "https://dc.lft.to/lastmile_qr_scan", "android": "https://dc.lft.to/lastmile_qr_scan"}, "fusion_lon": 0.0, "name": "555abcaffe62b9b1dda9abe38639d45f", "lon": -77.03875333333333}, {"is_reserved": 0, "lat": 38.928729833333335, "is_disabled": 0, "type": "electric_scooter", "fusion_lat": 0.0, "bike_id": "71b601635e11fe25d1dcc9884589d02c", "rental_uris": {"ios": "https://dc.lft.to/lastmile_qr_scan", "android": "https://dc.lft.to/lastmile_qr_scan"}, "fusion_lon": 0.0, "name": "71b601635e11fe25d1dcc9884589d02c", "lon": -77.013615}, {"is_reserved": 0, "lat": 38.914023666666665, "is_disabled": 0, "type": "electric_scooter", "fusion_lat": 0.0, "bike_id": "913e6157b9d1d996da05181fe235017c", "rental_uris": {"ios": "https://dc.lft.to/lastmile_qr_scan", "android": "https://dc.lft.to/lastmile_qr_scan"}, "fusion_lon": 0.0, "name": "913e6157b9d1d996da05181fe235017c", "lon": -77.032226}, {"is_reserved": 0, "lat": 38.9025965, "is_disabled": 0, "type": "electric_scooter", "fusion_lat": 0.0, "bike_id": "778c866ce772611001a652a4e8f0d8b0", "rental_uris": {"ios": "https://dc.lft.to/lastmile_qr_scan", "android": "https://dc.lft.to/lastmile_qr_scan"}, "fusion_lon": 0.0, "name": "778c866ce772611001a652a4e8f0d8b0", "lon": -77.04508383333334}, {"is_reserved": 0, "lat": 38.897529, "is_disabled": 0, "type": "electric_scooter", "fusion_lat": 0.0, "bike_id": "43454200e3ada8c5ef417dd0deb8dbb2", "rental_uris": {"ios": "https://dc.lft.to/lastmile_qr_scan", "android": "https://dc.lft.to/lastmile_qr_scan"}, "fusion_lon": 0.0, "name": "43454200e3ada8c5ef417dd0deb8dbb2", "lon": -76.94191383333333}, {"is_reserved": 0, "lat": 38.908563, "is_disabled": 0, "type": "electric_scooter", "fusion_lat": 0.0, "bike_id": "5aac78c87adf749ce5c61120411ecef8", "rental_uris": {"ios": "https://dc.lft.to/lastmile_qr_scan", "android": "https://dc.lft.to/lastmile_qr_scan"}, "fusion_lon": 0.0, "name": "5aac78c87adf749ce5c61120411ecef8", "lon": -77.04478466666667}, {"is_reserved": 0, "lat": 38.910184, "is_disabled": 0, "type": "electric_scooter", "fusion_lat": 0.0, "bike_id": "c5585550b86ec15aff80db296688128c", "rental_uris": {"ios": "https://dc.lft.to/lastmile_qr_scan", "android": "https://dc.lft.to/lastmile_qr_scan"}, "fusion_lon": 0.0, "name": "c5585550b86ec15aff80db296688128c", "lon": -77.0384555}, {"is_reserved": 0, "lat": 38.900281, "is_disabled": 0, "type": "electric_scooter", "fusion_lat": 0.0, "bike_id": "4e3544d3f7a48bec3a373ef57bc28f66", "rental_uris": {"ios": "https://dc.lft.to/lastmile_qr_scan", "android": "https://dc.lft.to/lastmile_qr_scan"}, "fusion_lon": 0.0, "name": "4e3544d3f7a48bec3a373ef57bc28f66", "lon": -76.98835283333334}, {"is_reserved": 0, "lat": 38.92221133333334, "is_disabled": 0, "type": "electric_scooter", "fusion_lat": 0.0, "bike_id": "feb40982cc4de065a958474820e97056", "rental_uris": {"ios": "https://dc.lft.to/lastmile_qr_scan", "android": "https://dc.lft.to/lastmile_qr_scan"}, "fusion_lon": 0.0, "name": "feb40982cc4de065a958474820e97056", "lon": -77.035136}, {"is_reserved": 0, "lat": 38.8551305, "is_disabled": 0, "type": "electric_bike", "fusion_lat": 0.0, "bike_id": "8462ea4cda0aff9d4763e3fc10935fac", "rental_uris": {"ios": "https://dc.lft.to/lastmile_qr_scan", "android": "https://dc.lft.to/lastmile_qr_scan"}, "fusion_lon": 0.0, "name": "8462ea4cda0aff9d4763e3fc10935fac", "lon": -77.120307}, {"is_reserved": 0, "lat": 38.893417, "is_disabled": 0, "type": "electric_scooter", "fusion_lat": 0.0, "bike_id": "277b8aab3fd5ff139a1030ed33a54cb3", "rental_uris": {"ios": "https://dc.lft.to/lastmile_qr_scan", "android": "https://dc.lft.to/lastmile_qr_scan"}, "fusion_lon": 0.0, "name": "277b8aab3fd5ff139a1030ed33a54cb3", "lon": -77.00200833333334}, {"is_reserved": 0, "lat": 38.90497966666667, "is_disabled": 0, "type": "electric_scooter", "fusion_lat": 0.0, "bike_id": "db698013242837ac65aad7d7ee0c8937", "rental_uris": {"ios": "https://dc.lft.to/lastmile_qr_scan", "android": "https://dc.lft.to/lastmile_qr_scan"}, "fusion_lon": 0.0, "name": "db698013242837ac65aad7d7ee0c8937", "lon": -76.97930883333333}, {"is_reserved": 0, "lat": 38.922405, "is_disabled": 0, "type": "electric_scooter", "fusion_lat": 0.0, "bike_id": "3acc70a59666fd6885947c03e7f3e179", "rental_uris": {"ios": "https://dc.lft.to/lastmile_qr_scan", "android": "https://dc.lft.to/lastmile_qr_scan"}, "fusion_lon": 0.0, "name": "3acc70a59666fd6885947c03e7f3e179", "lon": -77.03411833333334}, {"is_reserved": 0, "lat": 38.893549166666666, "is_disabled": 0, "type": "electric_scooter", "fusion_lat": 0.0, "bike_id": "4f1a8b25e48528508a2793e9e814d42c", "rental_uris": {"ios": "https://dc.lft.to/lastmile_qr_scan", "android": "https://dc.lft.to/lastmile_qr_scan"}, "fusion_lon": 0.0, "name": "4f1a8b25e48528508a2793e9e814d42c", "lon": -77.04185883333334}, {"is_reserved": 0, "lat": 38.921612333333336, "is_disabled": 0, "type": "electric_scooter", "fusion_lat": 0.0, "bike_id": "bea5b8e0a0e98f640a349371fd998241", "rental_uris": {"ios": "https://dc.lft.to/lastmile_qr_scan", "android": "https://dc.lft.to/lastmile_qr_scan"}, "fusion_lon": 0.0, "name": "bea5b8e0a0e98f640a349371fd998241", "lon": -77.03316833333334}, {"is_reserved": 0, "lat": 38.89285733333333, "is_disabled": 0, "type": "electric_scooter", "fusion_lat": 0.0, "bike_id": "266ae8ffb994241a9f9cceaa41eeeec7", "rental_uris": {"ios": "https://dc.lft.to/lastmile_qr_scan", "android": "https://dc.lft.to/lastmile_qr_scan"}, "fusion_lon": 0.0, "name": "266ae8ffb994241a9f9cceaa41eeeec7", "lon": -77.04185966666667}, {"is_reserved": 0, "lat": 38.9039935, "is_disabled": 0, "type": "electric_scooter", "fusion_lat": 0.0, "bike_id": "24a890c3706d016441ef3aaf6a46f339", "rental_uris": {"ios": "https://dc.lft.to/lastmile_qr_scan", "android": "https://dc.lft.to/lastmile_qr_scan"}, "fusion_lon": 0.0, "name": "24a890c3706d016441ef3aaf6a46f339", "lon": -77.04351083333333}, {"is_reserved": 0, "lat": 38.86203966666667, "is_disabled": 0, "type": "electric_scooter", "fusion_lat": 0.0, "bike_id": "e83e416a94f0756a252694bdd6252a74", "rental_uris": {"ios": "https://dc.lft.to/lastmile_qr_scan", "android": "https://dc.lft.to/lastmile_qr_scan"}, "fusion_lon": 0.0, "name": "e83e416a94f0756a252694bdd6252a74", "lon": -76.99117933333333}, {"is_reserved": 0, "lat": 38.941819, "is_disabled": 0, "type": "electric_scooter", "fusion_lat": 0.0, "bike_id": "c539158245c09aad0e9b8adfbfbcbe97", "rental_uris": {"ios": "https://dc.lft.to/lastmile_qr_scan", "android": "https://dc.lft.to/lastmile_qr_scan"}, "fusion_lon": 0.0, "name": "c539158245c09aad0e9b8adfbfbcbe97", "lon": -77.02487983333333}, {"is_reserved": 0, "lat": 38.903976, "is_disabled": 0, "type": "electric_scooter", "fusion_lat": 0.0, "bike_id": "fe1ff24b301cbf3eed724b538d4aacd6", "rental_uris": {"ios": "https://dc.lft.to/lastmile_qr_scan", "android": "https://dc.lft.to/lastmile_qr_scan"}, "fusion_lon": 0.0, "name": "fe1ff24b301cbf3eed724b538d4aacd6", "lon": -77.03301666666667}, {"is_reserved": 0, "lat": 38.91683466666667, "is_disabled": 0, "type": "electric_scooter", "fusion_lat": 0.0, "bike_id": "cc6dc681b5b4f8c14b0a1f9fc3617841", "rental_uris": {"ios": "https://dc.lft.to/lastmile_qr_scan", "android": "https://dc.lft.to/lastmile_qr_scan"}, "fusion_lon": 0.0, "name": "cc6dc681b5b4f8c14b0a1f9fc3617841", "lon": -77.02895966666667}, {"is_reserved": 0, "lat": 38.92757833333334, "is_disabled": 0, "type": "electric_bike", "fusion_lat": 0.0, "bike_id": "e59a6168394a58140681ef674a8eb5e2", "rental_uris": {"ios": "https://dc.lft.to/lastmile_qr_scan", "android": "https://dc.lft.to/lastmile_qr_scan"}, "fusion_lon": 0.0, "name": "e59a6168394a58140681ef674a8eb5e2", "lon": -77.0687695}, {"is_reserved": 0, "lat": 38.917036333333336, "is_disabled": 0, "type": "electric_scooter", "fusion_lat": 0.0, "bike_id": "c23d1064b0077c9d26d23ee56e2fc4c9", "rental_uris": {"ios": "https://dc.lft.to/lastmile_qr_scan", "android": "https://dc.lft.to/lastmile_qr_scan"}, "fusion_lon": 0.0, "name": "c23d1064b0077c9d26d23ee56e2fc4c9", "lon": -77.01023183333334}, {"is_reserved": 0, "lat": 38.909732, "is_disabled": 0, "type": "electric_scooter", "fusion_lat": 0.0, "bike_id": "b4c128497e168a8c811db9519c8b00ab", "rental_uris": {"ios": "https://dc.lft.to/lastmile_qr_scan", "android": "https://dc.lft.to/lastmile_qr_scan"}, "fusion_lon": 0.0, "name": "b4c128497e168a8c811db9519c8b00ab", "lon": -77.03431216666667}, {"is_reserved": 0, "lat": 38.8731355, "is_disabled": 0, "type": "electric_scooter", "fusion_lat": 0.0, "bike_id": "8d5cda847c062e58e16556d469815f57", "rental_uris": {"ios": "https://dc.lft.to/lastmile_qr_scan", "android": "https://dc.lft.to/lastmile_qr_scan"}, "fusion_lon": 0.0, "name": "8d5cda847c062e58e16556d469815f57", "lon": -77.0056835}, {"is_reserved": 0, "lat": 38.906725333333334, "is_disabled": 0, "type": "electric_scooter", "fusion_lat": 0.0, "bike_id": "6f4c8c350d33cbe1e807b99ee7a5788a", "rental_uris": {"ios": "https://dc.lft.to/lastmile_qr_scan", "android": "https://dc.lft.to/lastmile_qr_scan"}, "fusion_lon": 0.0, "name": "6f4c8c350d33cbe1e807b99ee7a5788a", "lon": -77.03820133333333}, {"is_reserved": 0, "lat": 38.8984185, "is_disabled": 0, "type": "electric_scooter", "fusion_lat": 0.0, "bike_id": "dfccb11af75c98a095020f9f275a67a1", "rental_uris": {"ios": "https://dc.lft.to/lastmile_qr_scan", "android": "https://dc.lft.to/lastmile_qr_scan"}, "fusion_lon": 0.0, "name": "dfccb11af75c98a095020f9f275a67a1", "lon": -77.02909366666667}, {"is_reserved": 0, "lat": 38.947108166666666, "is_disabled": 0, "type": "electric_scooter", "fusion_lat": 0.0, "bike_id": "b6e2fd715d2cd7491e62f1682caf1d07", "rental_uris": {"ios": "https://dc.lft.to/lastmile_qr_scan", "android": "https://dc.lft.to/lastmile_qr_scan"}, "fusion_lon": 0.0, "name": "b6e2fd715d2cd7491e62f1682caf1d07", "lon": -77.03294666666666}, {"is_reserved": 0, "lat": 38.940840666666666, "is_disabled": 0, "type": "electric_scooter", "fusion_lat": 0.0, "bike_id": "a1416fdf151da31b0f1c2cc3b3746fd4", "rental_uris": {"ios": "https://dc.lft.to/lastmile_qr_scan", "android": "https://dc.lft.to/lastmile_qr_scan"}, "fusion_lon": 0.0, "name": "a1416fdf151da31b0f1c2cc3b3746fd4", "lon": -77.027257}, {"is_reserved": 0, "lat": 38.92346516666667, "is_disabled": 0, "type": "electric_scooter", "fusion_lat": 0.0, "bike_id": "8b3de7c40b8ff48019abe720318caff4", "rental_uris": {"ios": "https://dc.lft.to/lastmile_qr_scan", "android": "https://dc.lft.to/lastmile_qr_scan"}, "fusion_lon": 0.0, "name": "8b3de7c40b8ff48019abe720318caff4", "lon": -77.032882}, {"is_reserved": 0, "lat": 38.893516, "is_disabled": 0, "type": "electric_scooter", "fusion_lat": 0.0, "bike_id": "3a0b6bed885791d874ba01d806b1cf2b", "rental_uris": {"ios": "https://dc.lft.to/lastmile_qr_scan", "android": "https://dc.lft.to/lastmile_qr_scan"}, "fusion_lon": 0.0, "name": "3a0b6bed885791d874ba01d806b1cf2b", "lon": -77.04141683333333}, {"is_reserved": 0, "lat": 38.90009766666667, "is_disabled": 0, "type": "electric_scooter", "fusion_lat": 0.0, "bike_id": "1bf73a45898b3a97dd5009a60a14c2a5", "rental_uris": {"ios": "https://dc.lft.to/lastmile_qr_scan", "android": "https://dc.lft.to/lastmile_qr_scan"}, "fusion_lon": 0.0, "name": "1bf73a45898b3a97dd5009a60a14c2a5", "lon": -77.033489}, {"is_reserved": 0, "lat": 38.90292733333333, "is_disabled": 0, "type": "electric_scooter", "fusion_lat": 0.0, "bike_id": "4104eb40423d19bdf1df643cdd3bb4cb", "rental_uris": {"ios": "https://dc.lft.to/lastmile_qr_scan", "android": "https://dc.lft.to/lastmile_qr_scan"}, "fusion_lon": 0.0, "name": "4104eb40423d19bdf1df643cdd3bb4cb", "lon": -77.03855266666666}, {"is_reserved": 0, "lat": 38.9397005, "is_disabled": 0, "type": "electric_scooter", "fusion_lat": 0.0, "bike_id": "963f8586f5766baca7f60fe4140a72e7", "rental_uris": {"ios": "https://dc.lft.to/lastmile_qr_scan", "android": "https://dc.lft.to/lastmile_qr_scan"}, "fusion_lon": 0.0, "name": "963f8586f5766baca7f60fe4140a72e7", "lon": -77.032597}, {"is_reserved": 0, "lat": 38.91947666666667, "is_disabled": 0, "type": "electric_scooter", "fusion_lat": 0.0, "bike_id": "cabab5ecc7876c310a04cb882770e983", "rental_uris": {"ios": "https://dc.lft.to/lastmile_qr_scan", "android": "https://dc.lft.to/lastmile_qr_scan"}, "fusion_lon": 0.0, "name": "cabab5ecc7876c310a04cb882770e983", "lon": -77.04630366666666}, {"is_reserved": 0, "lat": 38.91658316666667, "is_disabled": 0, "type": "electric_scooter", "fusion_lat": 0.0, "bike_id": "52353360d1fd72cb6c859fe4df767e58", "rental_uris": {"ios": "https://dc.lft.to/lastmile_qr_scan", "android": "https://dc.lft.to/lastmile_qr_scan"}, "fusion_lon": 0.0, "name": "52353360d1fd72cb6c859fe4df767e58", "lon": -77.03844883333333}, {"is_reserved": 0, "lat": 38.94547166666667, "is_disabled": 0, "type": "electric_bike", "fusion_lat": 0.0, "bike_id": "6794b355f0fd823118a5b73693d6a423", "rental_uris": {"ios": "https://dc.lft.to/lastmile_qr_scan", "android": "https://dc.lft.to/lastmile_qr_scan"}, "fusion_lon": 0.0, "name": "6794b355f0fd823118a5b73693d6a423", "lon": -76.89535033333334}, {"is_reserved": 0, "lat": 38.862460166666665, "is_disabled": 0, "type": "electric_scooter", "fusion_lat": 0.0, "bike_id": "2419dcf6594f79d53551183a3633bb60", "rental_uris": {"ios": "https://dc.lft.to/lastmile_qr_scan", "android": "https://dc.lft.to/lastmile_qr_scan"}, "fusion_lon": 0.0, "name": "2419dcf6594f79d53551183a3633bb60", "lon": -76.9948905}, {"is_reserved": 0, "lat": 38.89650916666667, "is_disabled": 0, "type": "electric_scooter", "fusion_lat": 0.0, "bike_id": "7dfc9b2e6b45744b216d2f0ede67bc73", "rental_uris": {"ios": "https://dc.lft.to/lastmile_qr_scan", "android": "https://dc.lft.to/lastmile_qr_scan"}, "fusion_lon": 0.0, "name": "7dfc9b2e6b45744b216d2f0ede67bc73", "lon": -77.02685516666666}, {"is_reserved": 0, "lat": 38.88487083333333, "is_disabled": 0, "type": "electric_scooter", "fusion_lat": 0.0, "bike_id": "03077eebba70beaacbb3ddb5c7cc3179", "rental_uris": {"ios": "https://dc.lft.to/lastmile_qr_scan", "android": "https://dc.lft.to/lastmile_qr_scan"}, "fusion_lon": 0.0, "name": "03077eebba70beaacbb3ddb5c7cc3179", "lon": -77.00725933333334}, {"is_reserved": 0, "lat": 38.8946035, "is_disabled": 0, "type": "electric_scooter", "fusion_lat": 0.0, "bike_id": "23f62bc6202bec73ca7eeb9565cd91f1", "rental_uris": {"ios": "https://dc.lft.to/lastmile_qr_scan", "android": "https://dc.lft.to/lastmile_qr_scan"}, "fusion_lon": 0.0, "name": "23f62bc6202bec73ca7eeb9565cd91f1", "lon": -77.02255733333334}, {"is_reserved": 0, "lat": 38.88104716666667, "is_disabled": 0, "type": "electric_scooter", "fusion_lat": 0.0, "bike_id": "1cf166813a74e7143bc95e03f5bdac20", "rental_uris": {"ios": "https://dc.lft.to/lastmile_qr_scan", "android": "https://dc.lft.to/lastmile_qr_scan"}, "fusion_lon": 0.0, "name": "1cf166813a74e7143bc95e03f5bdac20", "lon": -77.01668833333333}, {"is_reserved": 0, "lat": 38.890585, "is_disabled": 0, "type": "electric_scooter", "fusion_lat": 0.0, "bike_id": "b268a91341f4a76237eaac897b4c4754", "rental_uris": {"ios": "https://dc.lft.to/lastmile_qr_scan", "android": "https://dc.lft.to/lastmile_qr_scan"}, "fusion_lon": 0.0, "name": "b268a91341f4a76237eaac897b4c4754", "lon": -77.02288383333334}, {"is_reserved": 0, "lat": 38.88596183333333, "is_disabled": 0, "type": "electric_scooter", "fusion_lat": 0.0, "bike_id": "100e56ad27ea7be01bde50ca623f8e01", "rental_uris": {"ios": "https://dc.lft.to/lastmile_qr_scan", "android": "https://dc.lft.to/lastmile_qr_scan"}, "fusion_lon": 0.0, "name": "100e56ad27ea7be01bde50ca623f8e01", "lon": -77.03064183333333}, {"is_reserved": 0, "lat": 38.89838066666667, "is_disabled": 0, "type": "electric_scooter", "fusion_lat": 0.0, "bike_id": "4c28f9db83fea87bd000601099367a43", "rental_uris": {"ios": "https://dc.lft.to/lastmile_qr_scan", "android": "https://dc.lft.to/lastmile_qr_scan"}, "fusion_lon": 0.0, "name": "4c28f9db83fea87bd000601099367a43", "lon": -77.0266915}, {"is_reserved": 0, "lat": 38.9445065, "is_disabled": 0, "type": "electric_scooter", "fusion_lat": 0.0, "bike_id": "a285daa1a4a610e130f73a6a7e95ea80", "rental_uris": {"ios": "https://dc.lft.to/lastmile_qr_scan", "android": "https://dc.lft.to/lastmile_qr_scan"}, "fusion_lon": 0.0, "name": "a285daa1a4a610e130f73a6a7e95ea80", "lon": -77.06350516666667}, {"is_reserved": 0, "lat": 38.911093, "is_disabled": 0, "type": "electric_scooter", "fusion_lat": 0.0, "bike_id": "5b285a25adca148ea8ea869809751b2a", "rental_uris": {"ios": "https://dc.lft.to/lastmile_qr_scan", "android": "https://dc.lft.to/lastmile_qr_scan"}, "fusion_lon": 0.0, "name": "5b285a25adca148ea8ea869809751b2a", "lon": -77.044638}, {"is_reserved": 0, "lat": 38.9027535, "is_disabled": 0, "type": "electric_scooter", "fusion_lat": 0.0, "bike_id": "ecfab304e7850c863e2252f6865b57c9", "rental_uris": {"ios": "https://dc.lft.to/lastmile_qr_scan", "android": "https://dc.lft.to/lastmile_qr_scan"}, "fusion_lon": 0.0, "name": "ecfab304e7850c863e2252f6865b57c9", "lon": -77.04506716666667}, {"is_reserved": 0, "lat": 38.8625, "is_disabled": 0, "type": "electric_scooter", "fusion_lat": 0.0, "bike_id": "699fe82f14ac1062ede01a42877e72ea", "rental_uris": {"ios": "https://dc.lft.to/lastmile_qr_scan", "android": "https://dc.lft.to/lastmile_qr_scan"}, "fusion_lon": 0.0, "name": "699fe82f14ac1062ede01a42877e72ea", "lon": -76.9926875}, {"is_reserved": 0, "lat": 38.87140733333333, "is_disabled": 0, "type": "electric_scooter", "fusion_lat": 0.0, "bike_id": "62662e9e4d80ed9a7adf7f286d493a40", "rental_uris": {"ios": "https://dc.lft.to/lastmile_qr_scan", "android": "https://dc.lft.to/lastmile_qr_scan"}, "fusion_lon": 0.0, "name": "62662e9e4d80ed9a7adf7f286d493a40", "lon": -76.9933135}, {"is_reserved": 0, "lat": 38.89016266666667, "is_disabled": 0, "type": "electric_scooter", "fusion_lat": 0.0, "bike_id": "3ac388d3d736dd614ecc2ac2c0fb924e", "rental_uris": {"ios": "https://dc.lft.to/lastmile_qr_scan", "android": "https://dc.lft.to/lastmile_qr_scan"}, "fusion_lon": 0.0, "name": "3ac388d3d736dd614ecc2ac2c0fb924e", "lon": -76.93740183333334}, {"is_reserved": 0, "lat": 38.93240766666667, "is_disabled": 0, "type": "electric_scooter", "fusion_lat": 0.0, "bike_id": "ebb555bd502d1584ede05c0b82178423", "rental_uris": {"ios": "https://dc.lft.to/lastmile_qr_scan", "android": "https://dc.lft.to/lastmile_qr_scan"}, "fusion_lon": 0.0, "name": "ebb555bd502d1584ede05c0b82178423", "lon": -77.0295275}, {"is_reserved": 0, "lat": 38.90250233333333, "is_disabled": 0, "type": "electric_scooter", "fusion_lat": 0.0, "bike_id": "20d25b85553443a6c86f64952e0ebc49", "rental_uris": {"ios": "https://dc.lft.to/lastmile_qr_scan", "android": "https://dc.lft.to/lastmile_qr_scan"}, "fusion_lon": 0.0, "name": "20d25b85553443a6c86f64952e0ebc49", "lon": -77.02650983333334}, {"is_reserved": 0, "lat": 38.867465, "is_disabled": 0, "type": "electric_scooter", "fusion_lat": 0.0, "bike_id": "18d3457e8fbaf029384c678be962f77b", "rental_uris": {"ios": "https://dc.lft.to/lastmile_qr_scan", "android": "https://dc.lft.to/lastmile_qr_scan"}, "fusion_lon": 0.0, "name": "18d3457e8fbaf029384c678be962f77b", "lon": -77.03855816666666}, {"is_reserved": 0, "lat": 38.975186666666666, "is_disabled": 0, "type": "electric_scooter", "fusion_lat": 0.0, "bike_id": "1e20660d80cbb506e96ada053b2723fa", "rental_uris": {"ios": "https://dc.lft.to/lastmile_qr_scan", "android": "https://dc.lft.to/lastmile_qr_scan"}, "fusion_lon": 0.0, "name": "1e20660d80cbb506e96ada053b2723fa", "lon": -77.01737533333333}, {"is_reserved": 0, "lat": 38.915099833333336, "is_disabled": 0, "type": "electric_scooter", "fusion_lat": 0.0, "bike_id": "cd5af187708421f7d854196d8a89ff89", "rental_uris": {"ios": "https://dc.lft.to/lastmile_qr_scan", "android": "https://dc.lft.to/lastmile_qr_scan"}, "fusion_lon": 0.0, "name": "cd5af187708421f7d854196d8a89ff89", "lon": -77.0190125}, {"is_reserved": 0, "lat": 38.90606483333333, "is_disabled": 0, "type": "electric_scooter", "fusion_lat": 0.0, "bike_id": "e0f9b4c3566ee7fc058e7cde02709d97", "rental_uris": {"ios": "https://dc.lft.to/lastmile_qr_scan", "android": "https://dc.lft.to/lastmile_qr_scan"}, "fusion_lon": 0.0, "name": "e0f9b4c3566ee7fc058e7cde02709d97", "lon": -77.00687283333333}, {"is_reserved": 0, "lat": 38.954799333333334, "is_disabled": 0, "type": "electric_bike", "fusion_lat": 0.0, "bike_id": "d04b516079e450e3b3c35979209e25e6", "rental_uris": {"ios": "https://dc.lft.to/lastmile_qr_scan", "android": "https://dc.lft.to/lastmile_qr_scan"}, "fusion_lon": 0.0, "name": "d04b516079e450e3b3c35979209e25e6", "lon": -76.98864333333333}, {"is_reserved": 0, "lat": 38.893887, "is_disabled": 0, "type": "electric_bike", "fusion_lat": 0.0, "bike_id": "9a7eeab8e5643a71b61e6c1689dccea4", "rental_uris": {"ios": "https://dc.lft.to/lastmile_qr_scan", "android": "https://dc.lft.to/lastmile_qr_scan"}, "fusion_lon": 0.0, "name": "9a7eeab8e5643a71b61e6c1689dccea4", "lon": -76.94798766666666}, {"is_reserved": 0, "lat": 38.926491166666665, "is_disabled": 0, "type": "electric_scooter", "fusion_lat": 0.0, "bike_id": "a34237832a2806c9b213bed02112fe58", "rental_uris": {"ios": "https://dc.lft.to/lastmile_qr_scan", "android": "https://dc.lft.to/lastmile_qr_scan"}, "fusion_lon": 0.0, "name": "a34237832a2806c9b213bed02112fe58", "lon": -77.05354966666667}, {"is_reserved": 0, "lat": 38.870629666666666, "is_disabled": 0, "type": "electric_bike", "fusion_lat": 0.0, "bike_id": "52b55522ff4c8a4eec01f759f8521f95", "rental_uris": {"ios": "https://dc.lft.to/lastmile_qr_scan", "android": "https://dc.lft.to/lastmile_qr_scan"}, "fusion_lon": 0.0, "name": "52b55522ff4c8a4eec01f759f8521f95", "lon": -76.978372}, {"is_reserved": 0, "lat": 38.909657333333335, "is_disabled": 0, "type": "electric_scooter", "fusion_lat": 0.0, "bike_id": "7d72e783b8a105b291db9c7219c933b3", "rental_uris": {"ios": "https://dc.lft.to/lastmile_qr_scan", "android": "https://dc.lft.to/lastmile_qr_scan"}, "fusion_lon": 0.0, "name": "7d72e783b8a105b291db9c7219c933b3", "lon": -77.04455483333334}, {"is_reserved": 0, "lat": 38.85564166666666, "is_disabled": 0, "type": "electric_bike", "fusion_lat": 0.0, "bike_id": "64e6ff45add9855e7b00b25da3c0f9b6", "rental_uris": {"ios": "https://dc.lft.to/lastmile_qr_scan", "android": "https://dc.lft.to/lastmile_qr_scan"}, "fusion_lon": 0.0, "name": "64e6ff45add9855e7b00b25da3c0f9b6", "lon": -77.08186616666667}, {"is_reserved": 0, "lat": 38.905116666666665, "is_disabled": 0, "type": "electric_scooter", "fusion_lat": 0.0, "bike_id": "3022bc9e4fa20455ac1a42f05fdd10af", "rental_uris": {"ios": "https://dc.lft.to/lastmile_qr_scan", "android": "https://dc.lft.to/lastmile_qr_scan"}, "fusion_lon": 0.0, "name": "3022bc9e4fa20455ac1a42f05fdd10af", "lon": -77.00130766666666}, {"is_reserved": 0, "lat": 38.92068033333334, "is_disabled": 0, "type": "electric_scooter", "fusion_lat": 0.0, "bike_id": "34efef3c0c63ce4daa6e0424940840a1", "rental_uris": {"ios": "https://dc.lft.to/lastmile_qr_scan", "android": "https://dc.lft.to/lastmile_qr_scan"}, "fusion_lon": 0.0, "name": "34efef3c0c63ce4daa6e0424940840a1", "lon": -77.043991}, {"is_reserved": 0, "lat": 38.922299333333335, "is_disabled": 0, "type": "electric_scooter", "fusion_lat": 0.0, "bike_id": "3ac5611592c246a17a07d31981b6a1c5", "rental_uris": {"ios": "https://dc.lft.to/lastmile_qr_scan", "android": "https://dc.lft.to/lastmile_qr_scan"}, "fusion_lon": 0.0, "name": "3ac5611592c246a17a07d31981b6a1c5", "lon": -77.03343433333333}, {"is_reserved": 0, "lat": 38.905624333333336, "is_disabled": 0, "type": "electric_scooter", "fusion_lat": 0.0, "bike_id": "a1ef0a123fce961a3a51023e53fcbc4c", "rental_uris": {"ios": "https://dc.lft.to/lastmile_qr_scan", "android": "https://dc.lft.to/lastmile_qr_scan"}, "fusion_lon": 0.0, "name": "a1ef0a123fce961a3a51023e53fcbc4c", "lon": -77.04158}, {"is_reserved": 0, "lat": 38.90346516666666, "is_disabled": 0, "type": "electric_scooter", "fusion_lat": 0.0, "bike_id": "221bbaeb3dd66b9e04eb38490f251fbf", "rental_uris": {"ios": "https://dc.lft.to/lastmile_qr_scan", "android": "https://dc.lft.to/lastmile_qr_scan"}, "fusion_lon": 0.0, "name": "221bbaeb3dd66b9e04eb38490f251fbf", "lon": -77.04342316666667}, {"is_reserved": 0, "lat": 38.91812633333333, "is_disabled": 0, "type": "electric_scooter", "fusion_lat": 0.0, "bike_id": "024d824a337af643223d9e97939845ca", "rental_uris": {"ios": "https://dc.lft.to/lastmile_qr_scan", "android": "https://dc.lft.to/lastmile_qr_scan"}, "fusion_lon": 0.0, "name": "024d824a337af643223d9e97939845ca", "lon": -77.02472733333333}, {"is_reserved": 0, "lat": 38.908351, "is_disabled": 0, "type": "electric_scooter", "fusion_lat": 0.0, "bike_id": "060080831f979329ddc19fd84725dfab", "rental_uris": {"ios": "https://dc.lft.to/lastmile_qr_scan", "android": "https://dc.lft.to/lastmile_qr_scan"}, "fusion_lon": 0.0, "name": "060080831f979329ddc19fd84725dfab", "lon": -77.03554633333333}, {"is_reserved": 0, "lat": 38.87545716666666, "is_disabled": 0, "type": "electric_scooter", "fusion_lat": 0.0, "bike_id": "a62a3f8658d3261421d3007ee31f0883", "rental_uris": {"ios": "https://dc.lft.to/lastmile_qr_scan", "android": "https://dc.lft.to/lastmile_qr_scan"}, "fusion_lon": 0.0, "name": "a62a3f8658d3261421d3007ee31f0883", "lon": -77.00536683333333}, {"is_reserved": 0, "lat": 38.90738916666667, "is_disabled": 0, "type": "electric_scooter", "fusion_lat": 0.0, "bike_id": "def0bfef9627784315aa71033511d827", "rental_uris": {"ios": "https://dc.lft.to/lastmile_qr_scan", "android": "https://dc.lft.to/lastmile_qr_scan"}, "fusion_lon": 0.0, "name": "def0bfef9627784315aa71033511d827", "lon": -76.95186233333334}, {"is_reserved": 0, "lat": 38.92510733333334, "is_disabled": 0, "type": "electric_scooter", "fusion_lat": 0.0, "bike_id": "b32e0fe48ed70573d6b66187ed401c67", "rental_uris": {"ios": "https://dc.lft.to/lastmile_qr_scan", "android": "https://dc.lft.to/lastmile_qr_scan"}, "fusion_lon": 0.0, "name": "b32e0fe48ed70573d6b66187ed401c67", "lon": -77.0236095}, {"is_reserved": 0, "lat": 38.865129333333336, "is_disabled": 0, "type": "electric_scooter", "fusion_lat": 0.0, "bike_id": "fc7792f60b16db3933f9856bf6004424", "rental_uris": {"ios": "https://dc.lft.to/lastmile_qr_scan", "android": "https://dc.lft.to/lastmile_qr_scan"}, "fusion_lon": 0.0, "name": "fc7792f60b16db3933f9856bf6004424", "lon": -76.989787}, {"is_reserved": 0, "lat": 38.890166, "is_disabled": 0, "type": "electric_scooter", "fusion_lat": 0.0, "bike_id": "4c6880f8f1cef40eb0eeac06b69d4eb8", "rental_uris": {"ios": "https://dc.lft.to/lastmile_qr_scan", "android": "https://dc.lft.to/lastmile_qr_scan"}, "fusion_lon": 0.0, "name": "4c6880f8f1cef40eb0eeac06b69d4eb8", "lon": -76.93739783333334}, {"is_reserved": 0, "lat": 38.907822333333336, "is_disabled": 0, "type": "electric_scooter", "fusion_lat": 0.0, "bike_id": "1e6dcfeecc54cb2b0e24d9deb80453d1", "rental_uris": {"ios": "https://dc.lft.to/lastmile_qr_scan", "android": "https://dc.lft.to/lastmile_qr_scan"}, "fusion_lon": 0.0, "name": "1e6dcfeecc54cb2b0e24d9deb80453d1", "lon": -77.01777933333334}, {"is_reserved": 0, "lat": 38.885007, "is_disabled": 0, "type": "electric_scooter", "fusion_lat": 0.0, "bike_id": "29bc9d62969610a12f0b84485d96a3e6", "rental_uris": {"ios": "https://dc.lft.to/lastmile_qr_scan", "android": "https://dc.lft.to/lastmile_qr_scan"}, "fusion_lon": 0.0, "name": "29bc9d62969610a12f0b84485d96a3e6", "lon": -77.005694}, {"is_reserved": 0, "lat": 38.908249833333336, "is_disabled": 0, "type": "electric_scooter", "fusion_lat": 0.0, "bike_id": "c654ac193f0065fa2026aaa2e691f35b", "rental_uris": {"ios": "https://dc.lft.to/lastmile_qr_scan", "android": "https://dc.lft.to/lastmile_qr_scan"}, "fusion_lon": 0.0, "name": "c654ac193f0065fa2026aaa2e691f35b", "lon": -76.99445883333334}, {"is_reserved": 0, "lat": 38.895201, "is_disabled": 0, "type": "electric_scooter", "fusion_lat": 0.0, "bike_id": "a00b995e6afbbd6da00d02099e1cd4a6", "rental_uris": {"ios": "https://dc.lft.to/lastmile_qr_scan", "android": "https://dc.lft.to/lastmile_qr_scan"}, "fusion_lon": 0.0, "name": "a00b995e6afbbd6da00d02099e1cd4a6", "lon": -77.043335}, {"is_reserved": 0, "lat": 38.9155865, "is_disabled": 0, "type": "electric_scooter", "fusion_lat": 0.0, "bike_id": "e62d4d8ef0890b8ecdb4bdaf01348b2f", "rental_uris": {"ios": "https://dc.lft.to/lastmile_qr_scan", "android": "https://dc.lft.to/lastmile_qr_scan"}, "fusion_lon": 0.0, "name": "e62d4d8ef0890b8ecdb4bdaf01348b2f", "lon": -77.02721783333334}, {"is_reserved": 0, "lat": 38.905213333333336, "is_disabled": 0, "type": "electric_scooter", "fusion_lat": 0.0, "bike_id": "f57a2e282fad6ff8dfb5a087c66ac7c1", "rental_uris": {"ios": "https://dc.lft.to/lastmile_qr_scan", "android": "https://dc.lft.to/lastmile_qr_scan"}, "fusion_lon": 0.0, "name": "f57a2e282fad6ff8dfb5a087c66ac7c1", "lon": -77.05144216666666}, {"is_reserved": 0, "lat": 38.91297433333333, "is_disabled": 0, "type": "electric_scooter", "fusion_lat": 0.0, "bike_id": "51e75b7a1788034bfe93a3b211e507cc", "rental_uris": {"ios": "https://dc.lft.to/lastmile_qr_scan", "android": "https://dc.lft.to/lastmile_qr_scan"}, "fusion_lon": 0.0, "name": "51e75b7a1788034bfe93a3b211e507cc", "lon": -77.04161266666667}, {"is_reserved": 0, "lat": 38.905293666666665, "is_disabled": 0, "type": "electric_scooter", "fusion_lat": 0.0, "bike_id": "91ebe95756d57ce5961b91672ad6a957", "rental_uris": {"ios": "https://dc.lft.to/lastmile_qr_scan", "android": "https://dc.lft.to/lastmile_qr_scan"}, "fusion_lon": 0.0, "name": "91ebe95756d57ce5961b91672ad6a957", "lon": -77.0522205}, {"is_reserved": 0, "lat": 38.892216833333336, "is_disabled": 0, "type": "electric_scooter", "fusion_lat": 0.0, "bike_id": "6805c6e0c0f730abac776f59a6fdda4d", "rental_uris": {"ios": "https://dc.lft.to/lastmile_qr_scan", "android": "https://dc.lft.to/lastmile_qr_scan"}, "fusion_lon": 0.0, "name": "6805c6e0c0f730abac776f59a6fdda4d", "lon": -77.02221266666666}, {"is_reserved": 0, "lat": 38.92257883333333, "is_disabled": 0, "type": "electric_bike", "fusion_lat": 0.0, "bike_id": "d9c3acf7a8db823fc5ec5faced5e3c7f", "rental_uris": {"ios": "https://dc.lft.to/lastmile_qr_scan", "android": "https://dc.lft.to/lastmile_qr_scan"}, "fusion_lon": 0.0, "name": "d9c3acf7a8db823fc5ec5faced5e3c7f", "lon": -76.98150883333334}, {"is_reserved": 0, "lat": 39.029348, "is_disabled": 0, "type": "electric_bike", "fusion_lat": 0.0, "bike_id": "ed345d85fd995c181f80c2154764ad9f", "rental_uris": {"ios": "https://dc.lft.to/lastmile_qr_scan", "android": "https://dc.lft.to/lastmile_qr_scan"}, "fusion_lon": 0.0, "name": "ed345d85fd995c181f80c2154764ad9f", "lon": -77.04926316666666}, {"is_reserved": 0, "lat": 38.92118033333333, "is_disabled": 0, "type": "electric_scooter", "fusion_lat": 0.0, "bike_id": "ffea7e00902fc2b19e7a8544f0660d7b", "rental_uris": {"ios": "https://dc.lft.to/lastmile_qr_scan", "android": "https://dc.lft.to/lastmile_qr_scan"}, "fusion_lon": 0.0, "name": "ffea7e00902fc2b19e7a8544f0660d7b", "lon": -77.04418716666666}, {"is_reserved": 0, "lat": 38.9311855, "is_disabled": 0, "type": "electric_scooter", "fusion_lat": 0.0, "bike_id": "217343411bf50d952966def909e04928", "rental_uris": {"ios": "https://dc.lft.to/lastmile_qr_scan", "android": "https://dc.lft.to/lastmile_qr_scan"}, "fusion_lon": 0.0, "name": "217343411bf50d952966def909e04928", "lon": -77.02979333333333}, {"is_reserved": 0, "lat": 38.91577316666667, "is_disabled": 0, "type": "electric_scooter", "fusion_lat": 0.0, "bike_id": "4a1dc251e857d2c963de6ac11aa87dda", "rental_uris": {"ios": "https://dc.lft.to/lastmile_qr_scan", "android": "https://dc.lft.to/lastmile_qr_scan"}, "fusion_lon": 0.0, "name": "4a1dc251e857d2c963de6ac11aa87dda", "lon": -77.046808}, {"is_reserved": 0, "lat": 38.8982685, "is_disabled": 0, "type": "electric_scooter", "fusion_lat": 0.0, "bike_id": "f342d165955e7ff2eab8fefa71a9ada6", "rental_uris": {"ios": "https://dc.lft.to/lastmile_qr_scan", "android": "https://dc.lft.to/lastmile_qr_scan"}, "fusion_lon": 0.0, "name": "f342d165955e7ff2eab8fefa71a9ada6", "lon": -77.02962366666667}, {"is_reserved": 0, "lat": 38.919222, "is_disabled": 0, "type": "electric_scooter", "fusion_lat": 0.0, "bike_id": "2134faf9d3569eda18dbc8078734297e", "rental_uris": {"ios": "https://dc.lft.to/lastmile_qr_scan", "android": "https://dc.lft.to/lastmile_qr_scan"}, "fusion_lon": 0.0, "name": "2134faf9d3569eda18dbc8078734297e", "lon": -77.01808633333333}, {"is_reserved": 0, "lat": 38.913003, "is_disabled": 0, "type": "electric_scooter", "fusion_lat": 0.0, "bike_id": "b38e56f2fc3fd3eb1dc8f90534ba1f84", "rental_uris": {"ios": "https://dc.lft.to/lastmile_qr_scan", "android": "https://dc.lft.to/lastmile_qr_scan"}, "fusion_lon": 0.0, "name": "b38e56f2fc3fd3eb1dc8f90534ba1f84", "lon": -77.07418383333334}, {"is_reserved": 0, "lat": 38.971797333333335, "is_disabled": 0, "type": "electric_bike", "fusion_lat": 0.0, "bike_id": "6254900702eaf298e95c6e1e69a05d36", "rental_uris": {"ios": "https://dc.lft.to/lastmile_qr_scan", "android": "https://dc.lft.to/lastmile_qr_scan"}, "fusion_lon": 0.0, "name": "6254900702eaf298e95c6e1e69a05d36", "lon": -76.993746}, {"is_reserved": 0, "lat": 38.854708333333335, "is_disabled": 0, "type": "electric_scooter", "fusion_lat": 0.0, "bike_id": "ca2c6455fe7f3ebb223263b6bdf6f64a", "rental_uris": {"ios": "https://dc.lft.to/lastmile_qr_scan", "android": "https://dc.lft.to/lastmile_qr_scan"}, "fusion_lon": 0.0, "name": "ca2c6455fe7f3ebb223263b6bdf6f64a", "lon": -76.97162033333333}, {"is_reserved": 0, "lat": 38.881361, "is_disabled": 0, "type": "electric_scooter", "fusion_lat": 0.0, "bike_id": "95673d3a21be96b934e2e23bf9a6423d", "rental_uris": {"ios": "https://dc.lft.to/lastmile_qr_scan", "android": "https://dc.lft.to/lastmile_qr_scan"}, "fusion_lon": 0.0, "name": "95673d3a21be96b934e2e23bf9a6423d", "lon": -76.93290583333334}, {"is_reserved": 0, "lat": 38.902524166666666, "is_disabled": 0, "type": "electric_scooter", "fusion_lat": 0.0, "bike_id": "809eed08270cb319093162f266044fa9", "rental_uris": {"ios": "https://dc.lft.to/lastmile_qr_scan", "android": "https://dc.lft.to/lastmile_qr_scan"}, "fusion_lon": 0.0, "name": "809eed08270cb319093162f266044fa9", "lon": -77.0282245}, {"is_reserved": 0, "lat": 38.900025166666666, "is_disabled": 0, "type": "electric_scooter", "fusion_lat": 0.0, "bike_id": "5165174939ca437d6f18d510a1c780d7", "rental_uris": {"ios": "https://dc.lft.to/lastmile_qr_scan", "android": "https://dc.lft.to/lastmile_qr_scan"}, "fusion_lon": 0.0, "name": "5165174939ca437d6f18d510a1c780d7", "lon": -77.021966}, {"is_reserved": 0, "lat": 38.90164983333333, "is_disabled": 0, "type": "electric_scooter", "fusion_lat": 0.0, "bike_id": "240ee9b0f5413005c384496b70a0b56a", "rental_uris": {"ios": "https://dc.lft.to/lastmile_qr_scan", "android": "https://dc.lft.to/lastmile_qr_scan"}, "fusion_lon": 0.0, "name": "240ee9b0f5413005c384496b70a0b56a", "lon": -76.9806945}, {"is_reserved": 0, "lat": 38.9023625, "is_disabled": 0, "type": "electric_scooter", "fusion_lat": 0.0, "bike_id": "d7b288db66b4d81ee65fef9ec2a4aa36", "rental_uris": {"ios": "https://dc.lft.to/lastmile_qr_scan", "android": "https://dc.lft.to/lastmile_qr_scan"}, "fusion_lon": 0.0, "name": "d7b288db66b4d81ee65fef9ec2a4aa36", "lon": -77.03327866666666}, {"is_reserved": 0, "lat": 38.9396825, "is_disabled": 0, "type": "electric_scooter", "fusion_lat": 0.0, "bike_id": "3f6925b13cb314c3c9667c174673d813", "rental_uris": {"ios": "https://dc.lft.to/lastmile_qr_scan", "android": "https://dc.lft.to/lastmile_qr_scan"}, "fusion_lon": 0.0, "name": "3f6925b13cb314c3c9667c174673d813", "lon": -77.03254466666667}, {"is_reserved": 0, "lat": 38.922420833333334, "is_disabled": 0, "type": "electric_scooter", "fusion_lat": 0.0, "bike_id": "6ca541a18f3b1b1ed0a615bd05c88ad3", "rental_uris": {"ios": "https://dc.lft.to/lastmile_qr_scan", "android": "https://dc.lft.to/lastmile_qr_scan"}, "fusion_lon": 0.0, "name": "6ca541a18f3b1b1ed0a615bd05c88ad3", "lon": -77.022345}, {"is_reserved": 0, "lat": 38.8022585, "is_disabled": 0, "type": "electric_bike", "fusion_lat": 0.0, "bike_id": "fe1ffd903cb49107a0147b8d3bc5a157", "rental_uris": {"ios": "https://dc.lft.to/lastmile_qr_scan", "android": "https://dc.lft.to/lastmile_qr_scan"}, "fusion_lon": 0.0, "name": "fe1ffd903cb49107a0147b8d3bc5a157", "lon": -77.079165}, {"is_reserved": 0, "lat": 38.858965833333336, "is_disabled": 0, "type": "electric_bike", "fusion_lat": 0.0, "bike_id": "1b7c6ac71c6cf53ab8274d58009554a8", "rental_uris": {"ios": "https://dc.lft.to/lastmile_qr_scan", "android": "https://dc.lft.to/lastmile_qr_scan"}, "fusion_lon": 0.0, "name": "1b7c6ac71c6cf53ab8274d58009554a8", "lon": -76.96700066666666}, {"is_reserved": 0, "lat": 38.9225655, "is_disabled": 0, "type": "electric_scooter", "fusion_lat": 0.0, "bike_id": "c5a10749c42a0b8f591c9e43af567e19", "rental_uris": {"ios": "https://dc.lft.to/lastmile_qr_scan", "android": "https://dc.lft.to/lastmile_qr_scan"}, "fusion_lon": 0.0, "name": "c5a10749c42a0b8f591c9e43af567e19", "lon": -77.02967733333334}, {"is_reserved": 0, "lat": 38.886824, "is_disabled": 0, "type": "electric_bike", "fusion_lat": 0.0, "bike_id": "16a94909c7c22887c6d6ecfa4e5b4f90", "rental_uris": {"ios": "https://dc.lft.to/lastmile_qr_scan", "android": "https://dc.lft.to/lastmile_qr_scan"}, "fusion_lon": 0.0, "name": "16a94909c7c22887c6d6ecfa4e5b4f90", "lon": -77.16085516666666}, {"is_reserved": 0, "lat": 38.924505333333336, "is_disabled": 0, "type": "electric_scooter", "fusion_lat": 0.0, "bike_id": "d3f579498392f0c5dd917a2c429da526", "rental_uris": {"ios": "https://dc.lft.to/lastmile_qr_scan", "android": "https://dc.lft.to/lastmile_qr_scan"}, "fusion_lon": 0.0, "name": "d3f579498392f0c5dd917a2c429da526", "lon": -77.04114416666667}, {"is_reserved": 0, "lat": 38.866615333333336, "is_disabled": 0, "type": "electric_scooter", "fusion_lat": 0.0, "bike_id": "3a62e05dd9c9f2c426cf08dd78743bf6", "rental_uris": {"ios": "https://dc.lft.to/lastmile_qr_scan", "android": "https://dc.lft.to/lastmile_qr_scan"}, "fusion_lon": 0.0, "name": "3a62e05dd9c9f2c426cf08dd78743bf6", "lon": -76.98877266666666}, {"is_reserved": 0, "lat": 38.90115016666667, "is_disabled": 0, "type": "electric_scooter", "fusion_lat": 0.0, "bike_id": "eefcb40911857acc1363e5fbdf7be846", "rental_uris": {"ios": "https://dc.lft.to/lastmile_qr_scan", "android": "https://dc.lft.to/lastmile_qr_scan"}, "fusion_lon": 0.0, "name": "eefcb40911857acc1363e5fbdf7be846", "lon": -77.04485666666666}, {"is_reserved": 0, "lat": 38.9206245, "is_disabled": 0, "type": "electric_scooter", "fusion_lat": 0.0, "bike_id": "c2f5c9fb6558a034b58bca649e948dc1", "rental_uris": {"ios": "https://dc.lft.to/lastmile_qr_scan", "android": "https://dc.lft.to/lastmile_qr_scan"}, "fusion_lon": 0.0, "name": "c2f5c9fb6558a034b58bca649e948dc1", "lon": -76.99535916666666}, {"is_reserved": 0, "lat": 38.89937333333334, "is_disabled": 0, "type": "electric_scooter", "fusion_lat": 0.0, "bike_id": "a71088f8fa27bf8170a56c9a9d457d54", "rental_uris": {"ios": "https://dc.lft.to/lastmile_qr_scan", "android": "https://dc.lft.to/lastmile_qr_scan"}, "fusion_lon": 0.0, "name": "a71088f8fa27bf8170a56c9a9d457d54", "lon": -77.01432383333334}, {"is_reserved": 0, "lat": 38.9195925, "is_disabled": 0, "type": "electric_scooter", "fusion_lat": 0.0, "bike_id": "12c15998ea00ba625e4f49993ee05e57", "rental_uris": {"ios": "https://dc.lft.to/lastmile_qr_scan", "android": "https://dc.lft.to/lastmile_qr_scan"}, "fusion_lon": 0.0, "name": "12c15998ea00ba625e4f49993ee05e57", "lon": -77.02348566666667}, {"is_reserved": 0, "lat": 38.8915905, "is_disabled": 0, "type": "electric_scooter", "fusion_lat": 0.0, "bike_id": "35d056ef7bc532cbdaf3c9a9f4f9e639", "rental_uris": {"ios": "https://dc.lft.to/lastmile_qr_scan", "android": "https://dc.lft.to/lastmile_qr_scan"}, "fusion_lon": 0.0, "name": "35d056ef7bc532cbdaf3c9a9f4f9e639", "lon": -76.9950195}, {"is_reserved": 0, "lat": 38.924802166666666, "is_disabled": 0, "type": "electric_scooter", "fusion_lat": 0.0, "bike_id": "884345a21d6b39b948b7186e6ac807b7", "rental_uris": {"ios": "https://dc.lft.to/lastmile_qr_scan", "android": "https://dc.lft.to/lastmile_qr_scan"}, "fusion_lon": 0.0, "name": "884345a21d6b39b948b7186e6ac807b7", "lon": -77.03179666666666}, {"is_reserved": 0, "lat": 38.928149, "is_disabled": 0, "type": "electric_scooter", "fusion_lat": 0.0, "bike_id": "f2f73311219f5d1da261f25cf16e272a", "rental_uris": {"ios": "https://dc.lft.to/lastmile_qr_scan", "android": "https://dc.lft.to/lastmile_qr_scan"}, "fusion_lon": 0.0, "name": "f2f73311219f5d1da261f25cf16e272a", "lon": -77.02904866666667}, {"is_reserved": 0, "lat": 38.827835666666665, "is_disabled": 0, "type": "electric_scooter", "fusion_lat": 0.0, "bike_id": "c970ce5315d91f8dc640fc907c838973", "rental_uris": {"ios": "https://dc.lft.to/lastmile_qr_scan", "android": "https://dc.lft.to/lastmile_qr_scan"}, "fusion_lon": 0.0, "name": "c970ce5315d91f8dc640fc907c838973", "lon": -77.00918416666667}, {"is_reserved": 0, "lat": 38.90793166666667, "is_disabled": 0, "type": "electric_scooter", "fusion_lat": 0.0, "bike_id": "6e08acdbd878df7e7c29ec5ec8629f44", "rental_uris": {"ios": "https://dc.lft.to/lastmile_qr_scan", "android": "https://dc.lft.to/lastmile_qr_scan"}, "fusion_lon": 0.0, "name": "6e08acdbd878df7e7c29ec5ec8629f44", "lon": -77.0426485}, {"is_reserved": 0, "lat": 38.910184, "is_disabled": 0, "type": "electric_bike", "fusion_lat": 0.0, "bike_id": "661abb799ee436335d935407052d70b2", "rental_uris": {"ios": "https://dc.lft.to/lastmile_qr_scan", "android": "https://dc.lft.to/lastmile_qr_scan"}, "fusion_lon": 0.0, "name": "661abb799ee436335d935407052d70b2", "lon": -76.99813116666667}, {"is_reserved": 0, "lat": 38.90653116666667, "is_disabled": 0, "type": "electric_scooter", "fusion_lat": 0.0, "bike_id": "8905917f9d15e73d57ccd8c2d94be01d", "rental_uris": {"ios": "https://dc.lft.to/lastmile_qr_scan", "android": "https://dc.lft.to/lastmile_qr_scan"}, "fusion_lon": 0.0, "name": "8905917f9d15e73d57ccd8c2d94be01d", "lon": -77.00577583333333}, {"is_reserved": 0, "lat": 38.8719345, "is_disabled": 0, "type": "electric_scooter", "fusion_lat": 0.0, "bike_id": "ad263ede1ebd9155c36a007c3fbbad69", "rental_uris": {"ios": "https://dc.lft.to/lastmile_qr_scan", "android": "https://dc.lft.to/lastmile_qr_scan"}, "fusion_lon": 0.0, "name": "ad263ede1ebd9155c36a007c3fbbad69", "lon": -77.00618383333334}, {"is_reserved": 0, "lat": 38.90971183333333, "is_disabled": 0, "type": "electric_scooter", "fusion_lat": 0.0, "bike_id": "5e278feff1fef40e7315de42b02d027e", "rental_uris": {"ios": "https://dc.lft.to/lastmile_qr_scan", "android": "https://dc.lft.to/lastmile_qr_scan"}, "fusion_lon": 0.0, "name": "5e278feff1fef40e7315de42b02d027e", "lon": -77.03213016666666}, {"is_reserved": 0, "lat": 38.949566833333336, "is_disabled": 0, "type": "electric_scooter", "fusion_lat": 0.0, "bike_id": "6a22779204b8cc90350117797f780abb", "rental_uris": {"ios": "https://dc.lft.to/lastmile_qr_scan", "android": "https://dc.lft.to/lastmile_qr_scan"}, "fusion_lon": 0.0, "name": "6a22779204b8cc90350117797f780abb", "lon": -77.0271875}, {"is_reserved": 0, "lat": 38.928717166666665, "is_disabled": 0, "type": "electric_scooter", "fusion_lat": 0.0, "bike_id": "e3345e941fe2f5b1f853e937f4f68eca", "rental_uris": {"ios": "https://dc.lft.to/lastmile_qr_scan", "android": "https://dc.lft.to/lastmile_qr_scan"}, "fusion_lon": 0.0, "name": "e3345e941fe2f5b1f853e937f4f68eca", "lon": -77.0296185}, {"is_reserved": 0, "lat": 38.892210166666665, "is_disabled": 0, "type": "electric_scooter", "fusion_lat": 0.0, "bike_id": "970080cd3397b7ba910b8be1309a5c12", "rental_uris": {"ios": "https://dc.lft.to/lastmile_qr_scan", "android": "https://dc.lft.to/lastmile_qr_scan"}, "fusion_lon": 0.0, "name": "970080cd3397b7ba910b8be1309a5c12", "lon": -77.04802283333333}, {"is_reserved": 0, "lat": 38.897074333333336, "is_disabled": 0, "type": "electric_scooter", "fusion_lat": 0.0, "bike_id": "7d832573af64ec2ac1fd13ded87e1af9", "rental_uris": {"ios": "https://dc.lft.to/lastmile_qr_scan", "android": "https://dc.lft.to/lastmile_qr_scan"}, "fusion_lon": 0.0, "name": "7d832573af64ec2ac1fd13ded87e1af9", "lon": -77.0266715}, {"is_reserved": 0, "lat": 38.9122325, "is_disabled": 0, "type": "electric_scooter", "fusion_lat": 0.0, "bike_id": "e31df66d4ab9ad089a36809c5bee07fc", "rental_uris": {"ios": "https://dc.lft.to/lastmile_qr_scan", "android": "https://dc.lft.to/lastmile_qr_scan"}, "fusion_lon": 0.0, "name": "e31df66d4ab9ad089a36809c5bee07fc", "lon": -77.0320345}, {"is_reserved": 0, "lat": 38.930191666666666, "is_disabled": 0, "type": "electric_scooter", "fusion_lat": 0.0, "bike_id": "82dcfe9c8cf6ae328536e85d124e3a2d", "rental_uris": {"ios": "https://dc.lft.to/lastmile_qr_scan", "android": "https://dc.lft.to/lastmile_qr_scan"}, "fusion_lon": 0.0, "name": "82dcfe9c8cf6ae328536e85d124e3a2d", "lon": -77.02002316666666}, {"is_reserved": 0, "lat": 38.92515383333333, "is_disabled": 0, "type": "electric_scooter", "fusion_lat": 0.0, "bike_id": "460c4f03d95955ae6533ab48ab034293", "rental_uris": {"ios": "https://dc.lft.to/lastmile_qr_scan", "android": "https://dc.lft.to/lastmile_qr_scan"}, "fusion_lon": 0.0, "name": "460c4f03d95955ae6533ab48ab034293", "lon": -77.038148}, {"is_reserved": 0, "lat": 38.90669, "is_disabled": 0, "type": "electric_scooter", "fusion_lat": 0.0, "bike_id": "99a37b0813bf14777cecbdc96f478d5d", "rental_uris": {"ios": "https://dc.lft.to/lastmile_qr_scan", "android": "https://dc.lft.to/lastmile_qr_scan"}, "fusion_lon": 0.0, "name": "99a37b0813bf14777cecbdc96f478d5d", "lon": -77.02701833333333}, {"is_reserved": 0, "lat": 38.93829483333333, "is_disabled": 0, "type": "electric_scooter", "fusion_lat": 0.0, "bike_id": "7d067fb6a5159d701c0dcb3420fff625", "rental_uris": {"ios": "https://dc.lft.to/lastmile_qr_scan", "android": "https://dc.lft.to/lastmile_qr_scan"}, "fusion_lon": 0.0, "name": "7d067fb6a5159d701c0dcb3420fff625", "lon": -76.98616383333334}, {"is_reserved": 0, "lat": 38.903572, "is_disabled": 0, "type": "electric_scooter", "fusion_lat": 0.0, "bike_id": "3c5fc8d1c4d0d475549441eaf60dc2f2", "rental_uris": {"ios": "https://dc.lft.to/lastmile_qr_scan", "android": "https://dc.lft.to/lastmile_qr_scan"}, "fusion_lon": 0.0, "name": "3c5fc8d1c4d0d475549441eaf60dc2f2", "lon": -76.996035}, {"is_reserved": 0, "lat": 38.91478383333333, "is_disabled": 0, "type": "electric_scooter", "fusion_lat": 0.0, "bike_id": "451f12042a6b67e3ec9a2bb9a520d767", "rental_uris": {"ios": "https://dc.lft.to/lastmile_qr_scan", "android": "https://dc.lft.to/lastmile_qr_scan"}, "fusion_lon": 0.0, "name": "451f12042a6b67e3ec9a2bb9a520d767", "lon": -77.03212016666667}, {"is_reserved": 0, "lat": 38.927179333333335, "is_disabled": 0, "type": "electric_scooter", "fusion_lat": 0.0, "bike_id": "ae3637c34052fb8b0cebf004cbba56c9", "rental_uris": {"ios": "https://dc.lft.to/lastmile_qr_scan", "android": "https://dc.lft.to/lastmile_qr_scan"}, "fusion_lon": 0.0, "name": "ae3637c34052fb8b0cebf004cbba56c9", "lon": -77.036641}, {"is_reserved": 0, "lat": 38.91522616666666, "is_disabled": 0, "type": "electric_scooter", "fusion_lat": 0.0, "bike_id": "038041fc10f424d628b0a91c79a0226a", "rental_uris": {"ios": "https://dc.lft.to/lastmile_qr_scan", "android": "https://dc.lft.to/lastmile_qr_scan"}, "fusion_lon": 0.0, "name": "038041fc10f424d628b0a91c79a0226a", "lon": -77.01849716666666}, {"is_reserved": 0, "lat": 38.928672666666664, "is_disabled": 0, "type": "electric_scooter", "fusion_lat": 0.0, "bike_id": "ceaaa388f8883ad14ef2d6e8bcf12ebb", "rental_uris": {"ios": "https://dc.lft.to/lastmile_qr_scan", "android": "https://dc.lft.to/lastmile_qr_scan"}, "fusion_lon": 0.0, "name": "ceaaa388f8883ad14ef2d6e8bcf12ebb", "lon": -77.0316455}, {"is_reserved": 0, "lat": 38.9253235, "is_disabled": 0, "type": "electric_scooter", "fusion_lat": 0.0, "bike_id": "1fa9af55e58af519d22cd6d6ebaa8d0a", "rental_uris": {"ios": "https://dc.lft.to/lastmile_qr_scan", "android": "https://dc.lft.to/lastmile_qr_scan"}, "fusion_lon": 0.0, "name": "1fa9af55e58af519d22cd6d6ebaa8d0a", "lon": -77.02559333333333}, {"is_reserved": 0, "lat": 38.899675, "is_disabled": 0, "type": "electric_scooter", "fusion_lat": 0.0, "bike_id": "fbaea6f119ee7818e0370f7624b480d9", "rental_uris": {"ios": "https://dc.lft.to/lastmile_qr_scan", "android": "https://dc.lft.to/lastmile_qr_scan"}, "fusion_lon": 0.0, "name": "fbaea6f119ee7818e0370f7624b480d9", "lon": -77.019825}, {"is_reserved": 0, "lat": 38.8866425, "is_disabled": 0, "type": "electric_scooter", "fusion_lat": 0.0, "bike_id": "34e4ffa56720f12b5a4db63f90cda708", "rental_uris": {"ios": "https://dc.lft.to/lastmile_qr_scan", "android": "https://dc.lft.to/lastmile_qr_scan"}, "fusion_lon": 0.0, "name": "34e4ffa56720f12b5a4db63f90cda708", "lon": -76.93612283333333}, {"is_reserved": 0, "lat": 38.909051166666664, "is_disabled": 0, "type": "electric_scooter", "fusion_lat": 0.0, "bike_id": "7d4a74db9a5a78055530f225f50f6780", "rental_uris": {"ios": "https://dc.lft.to/lastmile_qr_scan", "android": "https://dc.lft.to/lastmile_qr_scan"}, "fusion_lon": 0.0, "name": "7d4a74db9a5a78055530f225f50f6780", "lon": -76.9977475}, {"is_reserved": 0, "lat": 38.9156255, "is_disabled": 0, "type": "electric_scooter", "fusion_lat": 0.0, "bike_id": "a1eb8abdec0185eb55a615b2b8c39d64", "rental_uris": {"ios": "https://dc.lft.to/lastmile_qr_scan", "android": "https://dc.lft.to/lastmile_qr_scan"}, "fusion_lon": 0.0, "name": "a1eb8abdec0185eb55a615b2b8c39d64", "lon": -77.02505683333334}, {"is_reserved": 0, "lat": 38.905104666666666, "is_disabled": 0, "type": "electric_scooter", "fusion_lat": 0.0, "bike_id": "26f94e281fe84676329cf688eb6585ce", "rental_uris": {"ios": "https://dc.lft.to/lastmile_qr_scan", "android": "https://dc.lft.to/lastmile_qr_scan"}, "fusion_lon": 0.0, "name": "26f94e281fe84676329cf688eb6585ce", "lon": -77.05107666666666}, {"is_reserved": 0, "lat": 38.87998983333333, "is_disabled": 0, "type": "electric_scooter", "fusion_lat": 0.0, "bike_id": "588fb33ed4c879b8510c04d5a9f82b03", "rental_uris": {"ios": "https://dc.lft.to/lastmile_qr_scan", "android": "https://dc.lft.to/lastmile_qr_scan"}, "fusion_lon": 0.0, "name": "588fb33ed4c879b8510c04d5a9f82b03", "lon": -76.9854445}, {"is_reserved": 0, "lat": 38.91589, "is_disabled": 0, "type": "electric_scooter", "fusion_lat": 0.0, "bike_id": "ba9383bb93dddbe018696892c236c68f", "rental_uris": {"ios": "https://dc.lft.to/lastmile_qr_scan", "android": "https://dc.lft.to/lastmile_qr_scan"}, "fusion_lon": 0.0, "name": "ba9383bb93dddbe018696892c236c68f", "lon": -77.041564}, {"is_reserved": 0, "lat": 38.87166533333333, "is_disabled": 0, "type": "electric_bike", "fusion_lat": 0.0, "bike_id": "120bf51423260a61c806691632ce05a7", "rental_uris": {"ios": "https://dc.lft.to/lastmile_qr_scan", "android": "https://dc.lft.to/lastmile_qr_scan"}, "fusion_lon": 0.0, "name": "120bf51423260a61c806691632ce05a7", "lon": -77.012752}, {"is_reserved": 0, "lat": 38.8763215, "is_disabled": 0, "type": "electric_scooter", "fusion_lat": 0.0, "bike_id": "45935ecea3e6eeca36bb196bc0924188", "rental_uris": {"ios": "https://dc.lft.to/lastmile_qr_scan", "android": "https://dc.lft.to/lastmile_qr_scan"}, "fusion_lon": 0.0, "name": "45935ecea3e6eeca36bb196bc0924188", "lon": -77.0046175}, {"is_reserved": 0, "lat": 38.9136725, "is_disabled": 0, "type": "electric_scooter", "fusion_lat": 0.0, "bike_id": "eda7b7d44fec5a7ef12c759b0feabfa9", "rental_uris": {"ios": "https://dc.lft.to/lastmile_qr_scan", "android": "https://dc.lft.to/lastmile_qr_scan"}, "fusion_lon": 0.0, "name": "eda7b7d44fec5a7ef12c759b0feabfa9", "lon": -77.04487666666667}, {"is_reserved": 0, "lat": 38.930795333333336, "is_disabled": 0, "type": "electric_scooter", "fusion_lat": 0.0, "bike_id": "0190dffef7f122ad76685dc033dfec04", "rental_uris": {"ios": "https://dc.lft.to/lastmile_qr_scan", "android": "https://dc.lft.to/lastmile_qr_scan"}, "fusion_lon": 0.0, "name": "0190dffef7f122ad76685dc033dfec04", "lon": -77.02809016666667}, {"is_reserved": 0, "lat": 38.90439933333333, "is_disabled": 0, "type": "electric_scooter", "fusion_lat": 0.0, "bike_id": "71e9a0b533becbe2d5d89a868c57b444", "rental_uris": {"ios": "https://dc.lft.to/lastmile_qr_scan", "android": "https://dc.lft.to/lastmile_qr_scan"}, "fusion_lon": 0.0, "name": "71e9a0b533becbe2d5d89a868c57b444", "lon": -76.97913583333333}, {"is_reserved": 0, "lat": 38.8822995, "is_disabled": 0, "type": "electric_scooter", "fusion_lat": 0.0, "bike_id": "f2c008747df0ffabec695a4c7dce3749", "rental_uris": {"ios": "https://dc.lft.to/lastmile_qr_scan", "android": "https://dc.lft.to/lastmile_qr_scan"}, "fusion_lon": 0.0, "name": "f2c008747df0ffabec695a4c7dce3749", "lon": -76.9908815}, {"is_reserved": 0, "lat": 38.89221666666667, "is_disabled": 0, "type": "electric_scooter", "fusion_lat": 0.0, "bike_id": "a03aa43cbaeb68aa449807cc5dcab910", "rental_uris": {"ios": "https://dc.lft.to/lastmile_qr_scan", "android": "https://dc.lft.to/lastmile_qr_scan"}, "fusion_lon": 0.0, "name": "a03aa43cbaeb68aa449807cc5dcab910", "lon": -77.003067}, {"is_reserved": 0, "lat": 38.89320333333333, "is_disabled": 0, "type": "electric_scooter", "fusion_lat": 0.0, "bike_id": "74feef1c026be1bb694b86f6093ccd4e", "rental_uris": {"ios": "https://dc.lft.to/lastmile_qr_scan", "android": "https://dc.lft.to/lastmile_qr_scan"}, "fusion_lon": 0.0, "name": "74feef1c026be1bb694b86f6093ccd4e", "lon": -77.0558235}, {"is_reserved": 0, "lat": 38.909583833333336, "is_disabled": 0, "type": "electric_scooter", "fusion_lat": 0.0, "bike_id": "a2aa8a2d9bece8f8822d1dd93acf92cf", "rental_uris": {"ios": "https://dc.lft.to/lastmile_qr_scan", "android": "https://dc.lft.to/lastmile_qr_scan"}, "fusion_lon": 0.0, "name": "a2aa8a2d9bece8f8822d1dd93acf92cf", "lon": -77.046179}, {"is_reserved": 0, "lat": 38.866524166666665, "is_disabled": 0, "type": "electric_scooter", "fusion_lat": 0.0, "bike_id": "2a682af6bd836988f8bc1f863155d995", "rental_uris": {"ios": "https://dc.lft.to/lastmile_qr_scan", "android": "https://dc.lft.to/lastmile_qr_scan"}, "fusion_lon": 0.0, "name": "2a682af6bd836988f8bc1f863155d995", "lon": -76.98880533333333}, {"is_reserved": 0, "lat": 38.89649, "is_disabled": 0, "type": "electric_scooter", "fusion_lat": 0.0, "bike_id": "3a59357effddd643d38fb86d07894a66", "rental_uris": {"ios": "https://dc.lft.to/lastmile_qr_scan", "android": "https://dc.lft.to/lastmile_qr_scan"}, "fusion_lon": 0.0, "name": "3a59357effddd643d38fb86d07894a66", "lon": -77.0501025}, {"is_reserved": 0, "lat": 38.854255, "is_disabled": 0, "type": "electric_bike", "fusion_lat": 0.0, "bike_id": "36ecdc98f5f862285e6bb8672420428b", "rental_uris": {"ios": "https://dc.lft.to/lastmile_qr_scan", "android": "https://dc.lft.to/lastmile_qr_scan"}, "fusion_lon": 0.0, "name": "36ecdc98f5f862285e6bb8672420428b", "lon": -76.90976233333333}, {"is_reserved": 0, "lat": 38.881237666666664, "is_disabled": 0, "type": "electric_scooter", "fusion_lat": 0.0, "bike_id": "03e1ebfa20d2c7eeb4f4abdd37da2d1b", "rental_uris": {"ios": "https://dc.lft.to/lastmile_qr_scan", "android": "https://dc.lft.to/lastmile_qr_scan"}, "fusion_lon": 0.0, "name": "03e1ebfa20d2c7eeb4f4abdd37da2d1b", "lon": -77.02679116666667}, {"is_reserved": 0, "lat": 38.90133, "is_disabled": 0, "type": "electric_scooter", "fusion_lat": 0.0, "bike_id": "9082b973ea4e409065b153b6dd530cd1", "rental_uris": {"ios": "https://dc.lft.to/lastmile_qr_scan", "android": "https://dc.lft.to/lastmile_qr_scan"}, "fusion_lon": 0.0, "name": "9082b973ea4e409065b153b6dd530cd1", "lon": -77.04182883333333}, {"is_reserved": 0, "lat": 38.8747575, "is_disabled": 0, "type": "electric_scooter", "fusion_lat": 0.0, "bike_id": "9158bdaed676910a5e61af61d0d575f5", "rental_uris": {"ios": "https://dc.lft.to/lastmile_qr_scan", "android": "https://dc.lft.to/lastmile_qr_scan"}, "fusion_lon": 0.0, "name": "9158bdaed676910a5e61af61d0d575f5", "lon": -77.004849}, {"is_reserved": 0, "lat": 38.9286845, "is_disabled": 0, "type": "electric_scooter", "fusion_lat": 0.0, "bike_id": "7564d23689568d2872d1d2627c9445f0", "rental_uris": {"ios": "https://dc.lft.to/lastmile_qr_scan", "android": "https://dc.lft.to/lastmile_qr_scan"}, "fusion_lon": 0.0, "name": "7564d23689568d2872d1d2627c9445f0", "lon": -77.0333585}, {"is_reserved": 0, "lat": 38.917783666666665, "is_disabled": 0, "type": "electric_scooter", "fusion_lat": 0.0, "bike_id": "86bc67f7c7a21878b80e12597b435023", "rental_uris": {"ios": "https://dc.lft.to/lastmile_qr_scan", "android": "https://dc.lft.to/lastmile_qr_scan"}, "fusion_lon": 0.0, "name": "86bc67f7c7a21878b80e12597b435023", "lon": -77.04097766666666}, {"is_reserved": 0, "lat": 38.91687133333333, "is_disabled": 0, "type": "electric_scooter", "fusion_lat": 0.0, "bike_id": "aa572af3815c0e75d7235b83e036da1f", "rental_uris": {"ios": "https://dc.lft.to/lastmile_qr_scan", "android": "https://dc.lft.to/lastmile_qr_scan"}, "fusion_lon": 0.0, "name": "aa572af3815c0e75d7235b83e036da1f", "lon": -77.028061}, {"is_reserved": 0, "lat": 38.92024, "is_disabled": 0, "type": "electric_scooter", "fusion_lat": 0.0, "bike_id": "80348d7459e153e4e69e5a6d11c3ceb1", "rental_uris": {"ios": "https://dc.lft.to/lastmile_qr_scan", "android": "https://dc.lft.to/lastmile_qr_scan"}, "fusion_lon": 0.0, "name": "80348d7459e153e4e69e5a6d11c3ceb1", "lon": -76.99570883333334}, {"is_reserved": 0, "lat": 38.89220133333333, "is_disabled": 0, "type": "electric_scooter", "fusion_lat": 0.0, "bike_id": "d776f4f1fffc6c1644b1143ac9f42a00", "rental_uris": {"ios": "https://dc.lft.to/lastmile_qr_scan", "android": "https://dc.lft.to/lastmile_qr_scan"}, "fusion_lon": 0.0, "name": "d776f4f1fffc6c1644b1143ac9f42a00", "lon": -77.0433045},