{"data": {"bikes": [{"fusion_lon": 0.0, "lat": 38.90009216666667, "lon": -77.02199016666667, "bike_id": "50ca78e4bbca97a2e42f259cbc56326e", "rental_uris": {"android": "https://dc.lft.to/lastmile_qr_scan", "ios": "https://dc.lft.to/lastmile_qr_scan"}, "fusion_lat": 0.0, "name": "50ca78e4bbca97a2e42f259cbc56326e", "is_reserved": 0, "is_disabled": 0, "type": "electric_scooter"}, {"fusion_lon": 0.0, "lat": 38.92871983333333, "lon": -77.03317766666666, "bike_id": "d42da4b8833bf7922e440b955fc01ed2", "rental_uris": {"android": "https://dc.lft.to/lastmile_qr_scan", "ios": "https://dc.lft.to/lastmile_qr_scan"}, "fusion_lat": 0.0, "name": "d42da4b8833bf7922e440b955fc01ed2", "is_reserved": 0, "is_disabled": 0, "type": "electric_scooter"}, {"fusion_lon": 0.0, "lat": 38.90368983333333, "lon": -77.036731, "bike_id": "d5e5c2ed120651a19f9fc6eb33b5ba1b", "rental_uris": {"android": "https://dc.lft.to/lastmile_qr_scan", "ios": "https://dc.lft.to/lastmile_qr_scan"}, "fusion_lat": 0.0, "name": "d5e5c2ed120651a19f9fc6eb33b5ba1b", "is_reserved": 0, "is_disabled": 0, "type": "electric_scooter"}, {"fusion_lon": 0.0, "lat": 38.865654666666664, "lon": -76.97837233333334, "bike_id": "7047159a98369873852145b9071ee9e2", "rental_uris": {"android": "https://dc.lft.to/lastmile_qr_scan", "ios": "https://dc.lft.to/lastmile_qr_scan"}, "fusion_lat": 0.0, "name": "7047159a98369873852145b9071ee9e2", "is_reserved": 0, "is_disabled": 0, "type": "electric_scooter"}, {"fusion_lon": 0.0, "lat": 38.92395666666667, "lon": -76.99593016666667, "bike_id": "a0f52356595b2ae30eba053e556e1079", "rental_uris": {"android": "https://dc.lft.to/lastmile_qr_scan", "ios": "https://dc.lft.to/lastmile_qr_scan"}, "fusion_lat": 0.0, "name": "a0f52356595b2ae30eba053e556e1079", "is_reserved": 0, "is_disabled": 0, "type": "electric_scooter"}, {"fusion_lon": 0.0, "lat": 38.915607666666666, "lon": -77.00718016666667, "bike_id": "c483532b1ccf4d8749e9128c0dabed5e", "rental_uris": {"android": "https://dc.lft.to/lastmile_qr_scan", "ios": "https://dc.lft.to/lastmile_qr_scan"}, "fusion_lat": 0.0, "name": "c483532b1ccf4d8749e9128c0dabed5e", "is_reserved": 0, "is_disabled": 0, "type": "electric_scooter"}, {"fusion_lon": 0.0, "lat": 38.898311666666665, "lon": -76.94642683333333, "bike_id": "766cca5e9905228ca49eff0f0a2738ce", "rental_uris": {"android": "https://dc.lft.to/lastmile_qr_scan", "ios": "https://dc.lft.to/lastmile_qr_scan"}, "fusion_lat": 0.0, "name": "766cca5e9905228ca49eff0f0a2738ce", "is_reserved": 0, "is_disabled": 0, "type": "electric_scooter"}, {"fusion_lon": 0.0, "lat": 38.91123183333333, "lon": -77.04422283333334, "bike_id": "435c036b0d3f924f7d21f2bbac561389", "rental_uris": {"android": "https://dc.lft.to/lastmile_qr_scan", "ios": "https://dc.lft.to/lastmile_qr_scan"}, "fusion_lat": 0.0, "name": "435c036b0d3f924f7d21f2bbac561389", "is_reserved": 0, "is_disabled": 0, "type": "electric_scooter"}, {"fusion_lon": 0.0, "lat": 38.80384216666667, "lon": -76.988128, "bike_id": "49fc3ee42746bce1f2be58f347635fe0", "rental_uris": {"android": "https://dc.lft.to/lastmile_qr_scan", "ios": "https://dc.lft.to/lastmile_qr_scan"}, "fusion_lat": 0.0, "name": "49fc3ee42746bce1f2be58f347635fe0", "is_reserved": 0, "is_disabled": 0, "type": "electric_bike"}, {"fusion_lon": 0.0, "lat": 38.887133166666665, "lon": -76.98341933333333, "bike_id": "d14eb0f46cc1c6e7715903edd172b4f9", "rental_uris": {"android": "https://dc.lft.to/lastmile_qr_scan", "ios": "https://dc.lft.to/lastmile_qr_scan"}, "fusion_lat": 0.0, "name": "d14eb0f46cc1c6e7715903edd172b4f9", "is_reserved": 0, "is_disabled": 0, "type": "electric_scooter"}, {"fusion_lon": 0.0, "lat": 38.88024733333334, "lon": -76.9432425, "bike_id": "d68d175475fd76a9e9670892f7bb1673", "rental_uris": {"android": "https://dc.lft.to/lastmile_qr_scan", "ios": "https://dc.lft.to/lastmile_qr_scan"}, "fusion_lat": 0.0, "name": "d68d175475fd76a9e9670892f7bb1673", "is_reserved": 0, "is_disabled": 0, "type": "electric_scooter"}, {"fusion_lon": 0.0, "lat": 38.90556083333333, "lon": -76.983755, "bike_id": "fa81329d26f7ed24ab7c71c1713dde33", "rental_uris": {"android": "https://dc.lft.to/lastmile_qr_scan", "ios": "https://dc.lft.to/lastmile_qr_scan"}, "fusion_lat": 0.0, "name": "fa81329d26f7ed24ab7c71c1713dde33", "is_reserved": 0, "is_disabled": 0, "type": "electric_scooter"}, {"fusion_lon": 0.0, "lat": 38.941804, "lon": -77.03087833333333, "bike_id": "ed0e14dc7f620a5dfdd6ac8755e3cd20", "rental_uris": {"android": "https://dc.lft.to/lastmile_qr_scan", "ios": "https://dc.lft.to/lastmile_qr_scan"}, "fusion_lat": 0.0, "name": "ed0e14dc7f620a5dfdd6ac8755e3cd20", "is_reserved": 0, "is_disabled": 0, "type": "electric_scooter"}, {"fusion_lon": 0.0, "lat": 38.917959, "lon": -77.03435333333333, "bike_id": "6748ff529d751137562902c196feec8f", "rental_uris": {"android": "https://dc.lft.to/lastmile_qr_scan", "ios": "https://dc.lft.to/lastmile_qr_scan"}, "fusion_lat": 0.0, "name": "6748ff529d751137562902c196feec8f", "is_reserved": 0, "is_disabled": 0, "type": "electric_scooter"}, {"fusion_lon": 0.0, "lat": 38.94404883333333, "lon": -77.01866166666667, "bike_id": "17a506df8dff6e3b08a0a2b8bb697d80", "rental_uris": {"android": "https://dc.lft.to/lastmile_qr_scan", "ios": "https://dc.lft.to/lastmile_qr_scan"}, "fusion_lat": 0.0, "name": "17a506df8dff6e3b08a0a2b8bb697d80", "is_reserved": 0, "is_disabled": 0, "type": "electric_scooter"}, {"fusion_lon": 0.0, "lat": 38.915803833333335, "lon": -77.03658616666667, "bike_id": "707c39da176402ba7bcebac1d4db9c16", "rental_uris": {"android": "https://dc.lft.to/lastmile_qr_scan", "ios": "https://dc.lft.to/lastmile_qr_scan"}, "fusion_lat": 0.0, "name": "707c39da176402ba7bcebac1d4db9c16", "is_reserved": 0, "is_disabled": 0, "type": "electric_scooter"}, {"fusion_lon": 0.0, "lat": 38.872943166666666, "lon": -77.01587016666667, "bike_id": "e8586600b3e83ae0118095117de0495e", "rental_uris": {"android": "https://dc.lft.to/lastmile_qr_scan", "ios": "https://dc.lft.to/lastmile_qr_scan"}, "fusion_lat": 0.0, "name": "e8586600b3e83ae0118095117de0495e", "is_reserved": 0, "is_disabled": 0, "type": "electric_scooter"}, {"fusion_lon": 0.0, "lat": 38.899582, "lon": -77.04514683333333, "bike_id": "24a8c8047af65b41cee00d614f659cd5", "rental_uris": {"android": "https://dc.lft.to/lastmile_qr_scan", "ios": "https://dc.lft.to/lastmile_qr_scan"}, "fusion_lat": 0.0, "name": "24a8c8047af65b41cee00d614f659cd5", "is_reserved": 0, "is_disabled": 0, "type": "electric_bike"}, {"fusion_lon": 0.0, "lat": 38.884408666666666, "lon": -76.9576695, "bike_id": "56c57cf5f92b61823c4e42e7182441a8", "rental_uris": {"android": "https://dc.lft.to/lastmile_qr_scan", "ios": "https://dc.lft.to/lastmile_qr_scan"}, "fusion_lat": 0.0, "name": "56c57cf5f92b61823c4e42e7182441a8", "is_reserved": 0, "is_disabled": 0, "type": "electric_scooter"}, {"fusion_lon": 0.0, "lat": 38.8652435, "lon": -76.96904416666666, "bike_id": "e6afb2bf3d0deb3a8af77159daa253dd", "rental_uris": {"android": "https://dc.lft.to/lastmile_qr_scan", "ios": "https://dc.lft.to/lastmile_qr_scan"}, "fusion_lat": 0.0, "name": "e6afb2bf3d0deb3a8af77159daa253dd", "is_reserved": 0, "is_disabled": 0, "type": "electric_scooter"}, {"fusion_lon": 0.0, "lat": 38.908821, "lon": -77.043261, "bike_id": "18ed86dabc85854144dc82402b8bfd32", "rental_uris": {"android": "https://dc.lft.to/lastmile_qr_scan", "ios": "https://dc.lft.to/lastmile_qr_scan"}, "fusion_lat": 0.0, "name": "18ed86dabc85854144dc82402b8bfd32", "is_reserved": 0, "is_disabled": 0, "type": "electric_scooter"}, {"fusion_lon": 0.0, "lat": 38.915788, "lon": -77.0680465, "bike_id": "560f98905c871529b31e577458918a59", "rental_uris": {"android": "https://dc.lft.to/lastmile_qr_scan", "ios": "https://dc.lft.to/lastmile_qr_scan"}, "fusion_lat": 0.0, "name": "560f98905c871529b31e577458918a59", "is_reserved": 0, "is_disabled": 0, "type": "electric_scooter"}, {"fusion_lon": 0.0, "lat": 38.90307416666667, "lon": -76.9750195, "bike_id": "f500ebf664124309dda3de71020b11dd", "rental_uris": {"android": "https://dc.lft.to/lastmile_qr_scan", "ios": "https://dc.lft.to/lastmile_qr_scan"}, "fusion_lat": 0.0, "name": "f500ebf664124309dda3de71020b11dd", "is_reserved": 0, "is_disabled": 0, "type": "electric_scooter"}, {"fusion_lon": 0.0, "lat": 38.89921116666667, "lon": -77.04479116666667, "bike_id": "8d3e9b673a0eec62f3b67419523ba64e", "rental_uris": {"android": "https://dc.lft.to/lastmile_qr_scan", "ios": "https://dc.lft.to/lastmile_qr_scan"}, "fusion_lat": 0.0, "name": "8d3e9b673a0eec62f3b67419523ba64e", "is_reserved": 0, "is_disabled": 0, "type": "electric_scooter"}, {"fusion_lon": 0.0, "lat": 38.884309333333334, "lon": -76.99724416666666, "bike_id": "31754ec0b5b5a18a05219bd1c8768e86", "rental_uris": {"android": "https://dc.lft.to/lastmile_qr_scan", "ios": "https://dc.lft.to/lastmile_qr_scan"}, "fusion_lat": 0.0, "name": "31754ec0b5b5a18a05219bd1c8768e86", "is_reserved": 0, "is_disabled": 0, "type": "electric_scooter"}, {"fusion_lon": 0.0, "lat": 38.89977566666666, "lon": -77.016042, "bike_id": "1df9e62a4de40ca850319dff23505f2d", "rental_uris": {"android": "https://dc.lft.to/lastmile_qr_scan", "ios": "https://dc.lft.to/lastmile_qr_scan"}, "fusion_lat": 0.0, "name": "1df9e62a4de40ca850319dff23505f2d", "is_reserved": 0, "is_disabled": 0, "type": "electric_scooter"}, {"fusion_lon": 0.0, "lat": 38.919467, "lon": -77.018221, "bike_id": "311a17944ae182397bcaa642d4513872", "rental_uris": {"android": "https://dc.lft.to/lastmile_qr_scan", "ios": "https://dc.lft.to/lastmile_qr_scan"}, "fusion_lat": 0.0, "name": "311a17944ae182397bcaa642d4513872", "is_reserved": 0, "is_disabled": 0, "type": "electric_scooter"}, {"fusion_lon": 0.0, "lat": 38.924470166666666, "lon": -76.9682685, "bike_id": "61fa121a7b4cb62f45dd158daea047fc", "rental_uris": {"android": "https://dc.lft.to/lastmile_qr_scan", "ios": "https://dc.lft.to/lastmile_qr_scan"}, "fusion_lat": 0.0, "name": "61fa121a7b4cb62f45dd158daea047fc", "is_reserved": 0, "is_disabled": 0, "type": "electric_scooter"}, {"fusion_lon": 0.0, "lat": 38.9216915, "lon": -77.0192085, "bike_id": "e0c91f62692d4ca3e7c527df33102023", "rental_uris": {"android": "https://dc.lft.to/lastmile_qr_scan", "ios": "https://dc.lft.to/lastmile_qr_scan"}, "fusion_lat": 0.0, "name": "e0c91f62692d4ca3e7c527df33102023", "is_reserved": 0, "is_disabled": 0, "type": "electric_scooter"}, {"fusion_lon": 0.0, "lat": 38.923385833333334, "lon": -77.01901066666667, "bike_id": "56f2e40b511c5092840605b94d7bd9ab", "rental_uris": {"android": "https://dc.lft.to/lastmile_qr_scan", "ios": "https://dc.lft.to/lastmile_qr_scan"}, "fusion_lat": 0.0, "name": "56f2e40b511c5092840605b94d7bd9ab", "is_reserved": 0, "is_disabled": 0, "type": "electric_scooter"}, {"fusion_lon": 0.0, "lat": 38.926864, "lon": -77.0149665, "bike_id": "61715f6f0696071ee19a3e2a32f87bfd", "rental_uris": {"android": "https://dc.lft.to/lastmile_qr_scan", "ios": "https://dc.lft.to/lastmile_qr_scan"}, "fusion_lat": 0.0, "name": "61715f6f0696071ee19a3e2a32f87bfd", "is_reserved": 0, "is_disabled": 0, "type": "electric_scooter"}, {"fusion_lon": 0.0, "lat": 38.90129666666667, "lon": -77.04348733333333, "bike_id": "ca819a2710880bf4595b03853f8523b5", "rental_uris": {"android": "https://dc.lft.to/lastmile_qr_scan", "ios": "https://dc.lft.to/lastmile_qr_scan"}, "fusion_lat": 0.0, "name": "ca819a2710880bf4595b03853f8523b5", "is_reserved": 0, "is_disabled": 0, "type": "electric_scooter"}, {"fusion_lon": 0.0, "lat": 38.9048565, "lon": -77.005571, "bike_id": "e69568fdf56d2d67e4b0284eed1aa232", "rental_uris": {"android": "https://dc.lft.to/lastmile_qr_scan", "ios": "https://dc.lft.to/lastmile_qr_scan"}, "fusion_lat": 0.0, "name": "e69568fdf56d2d67e4b0284eed1aa232", "is_reserved": 0, "is_disabled": 0, "type": "electric_scooter"}, {"fusion_lon": 0.0, "lat": 38.901422, "lon": -77.022024, "bike_id": "80a7412534c7c92a185711b7ec970b9b", "rental_uris": {"android": "https://dc.lft.to/lastmile_qr_scan", "ios": "https://dc.lft.to/lastmile_qr_scan"}, "fusion_lat": 0.0, "name": "80a7412534c7c92a185711b7ec970b9b", "is_reserved": 0, "is_disabled": 0, "type": "electric_scooter"}, {"fusion_lon": 0.0, "lat": 38.90241433333333, "lon": -77.05918716666666, "bike_id": "52d7e130c652a16703d93e7433b818f6", "rental_uris": {"android": "https://dc.lft.to/lastmile_qr_scan", "ios": "https://dc.lft.to/lastmile_qr_scan"}, "fusion_lat": 0.0, "name": "52d7e130c652a16703d93e7433b818f6", "is_reserved": 0, "is_disabled": 0, "type": "electric_scooter"}, {"fusion_lon": 0.0, "lat": 38.94195083333334, "lon": -77.02477316666666, "bike_id": "2707c2cbc3bc0d5000130393d0847831", "rental_uris": {"android": "https://dc.lft.to/lastmile_qr_scan", "ios": "https://dc.lft.to/lastmile_qr_scan"}, "fusion_lat": 0.0, "name": "2707c2cbc3bc0d5000130393d0847831", "is_reserved": 0, "is_disabled": 0, "type": "electric_scooter"}, {"fusion_lon": 0.0, "lat": 38.90573066666666, "lon": -77.03436766666667, "bike_id": "8106f63e050cecd6ec56d0ff51697145", "rental_uris": {"android": "https://dc.lft.to/lastmile_qr_scan", "ios": "https://dc.lft.to/lastmile_qr_scan"}, "fusion_lat": 0.0, "name": "8106f63e050cecd6ec56d0ff51697145", "is_reserved": 0, "is_disabled": 0, "type": "electric_scooter"}, {"fusion_lon": 0.0, "lat": 38.914903, "lon": -77.01856183333334, "bike_id": "1493cc9d9fed209adb4153cfeac5f604", "rental_uris": {"android": "https://dc.lft.to/lastmile_qr_scan", "ios": "https://dc.lft.to/lastmile_qr_scan"}, "fusion_lat": 0.0, "name": "1493cc9d9fed209adb4153cfeac5f604", "is_reserved": 0, "is_disabled": 0, "type": "electric_scooter"}, {"fusion_lon": 0.0, "lat": 38.90457166666667, "lon": -77.02573266666667, "bike_id": "a026d695fcefb94fa714f64febbc7d33", "rental_uris": {"android": "https://dc.lft.to/lastmile_qr_scan", "ios": "https://dc.lft.to/lastmile_qr_scan"}, "fusion_lat": 0.0, "name": "a026d695fcefb94fa714f64febbc7d33", "is_reserved": 0, "is_disabled": 0, "type": "electric_scooter"}, {"fusion_lon": 0.0, "lat": 38.924099166666664, "lon": -77.02701716666667, "bike_id": "ef6ce013ba6a7d4358e8a739ffe69cf9", "rental_uris": {"android": "https://dc.lft.to/lastmile_qr_scan", "ios": "https://dc.lft.to/lastmile_qr_scan"}, "fusion_lat": 0.0, "name": "ef6ce013ba6a7d4358e8a739ffe69cf9", "is_reserved": 0, "is_disabled": 0, "type": "electric_scooter"}, {"fusion_lon": 0.0, "lat": 38.934456833333336, "lon": -77.089672, "bike_id": "67c64a103bba78c719268377aa216bc2", "rental_uris": {"android": "https://dc.lft.to/lastmile_qr_scan", "ios": "https://dc.lft.to/lastmile_qr_scan"}, "fusion_lat": 0.0, "name": "67c64a103bba78c719268377aa216bc2", "is_reserved": 0, "is_disabled": 0, "type": "electric_scooter"}, {"fusion_lon": 0.0, "lat": 38.92239933333333, "lon": -77.04272116666667, "bike_id": "3565eab8cc8402f9d9b93c721da09787", "rental_uris": {"android": "https://dc.lft.to/lastmile_qr_scan", "ios": "https://dc.lft.to/lastmile_qr_scan"}, "fusion_lat": 0.0, "name": "3565eab8cc8402f9d9b93c721da09787", "is_reserved": 0, "is_disabled": 0, "type": "electric_scooter"}, {"fusion_lon": 0.0, "lat": 38.97310866666667, "lon": -77.02697333333333, "bike_id": "cac26cd352b377b6a2d856f95a870d7e", "rental_uris": {"android": "https://dc.lft.to/lastmile_qr_scan", "ios": "https://dc.lft.to/lastmile_qr_scan"}, "fusion_lat": 0.0, "name": "cac26cd352b377b6a2d856f95a870d7e", "is_reserved": 0, "is_disabled": 0, "type": "electric_scooter"}, {"fusion_lon": 0.0, "lat": 38.924191666666665, "lon": -77.02013533333333, "bike_id": "d1512b4dc7110ef16cb80d5e75de3422", "rental_uris": {"android": "https://dc.lft.to/lastmile_qr_scan", "ios": "https://dc.lft.to/lastmile_qr_scan"}, "fusion_lat": 0.0, "name": "d1512b4dc7110ef16cb80d5e75de3422", "is_reserved": 0, "is_disabled": 0, "type": "electric_scooter"}, {"fusion_lon": 0.0, "lat": 38.92465583333333, "lon": -77.04200266666666, "bike_id": "e80aafe3c4f41edda1c10e265b01ee48", "rental_uris": {"android": "https://dc.lft.to/lastmile_qr_scan", "ios": "https://dc.lft.to/lastmile_qr_scan"}, "fusion_lat": 0.0, "name": "e80aafe3c4f41edda1c10e265b01ee48", "is_reserved": 0, "is_disabled": 0, "type": "electric_scooter"}, {"fusion_lon": 0.0, "lat": 38.90250116666667, "lon": -77.04606016666666, "bike_id": "532031d67a73486b9de0c45a63db6d5c", "rental_uris": {"android": "https://dc.lft.to/lastmile_qr_scan", "ios": "https://dc.lft.to/lastmile_qr_scan"}, "fusion_lat": 0.0, "name": "532031d67a73486b9de0c45a63db6d5c", "is_reserved": 0, "is_disabled": 0, "type": "electric_scooter"}, {"fusion_lon": 0.0, "lat": 38.91930833333333, "lon": -77.0347385, "bike_id": "8be26b743775baa03b8855bf9c5b3bdf", "rental_uris": {"android": "https://dc.lft.to/lastmile_qr_scan", "ios": "https://dc.lft.to/lastmile_qr_scan"}, "fusion_lat": 0.0, "name": "8be26b743775baa03b8855bf9c5b3bdf", "is_reserved": 0, "is_disabled": 0, "type": "electric_scooter"}, {"fusion_lon": 0.0, "lat": 38.94260666666667, "lon": -77.0284455, "bike_id": "9e4c1ba3cf00c5e9fbe42292921e30e5", "rental_uris": {"android": "https://dc.lft.to/lastmile_qr_scan", "ios": "https://dc.lft.to/lastmile_qr_scan"}, "fusion_lat": 0.0, "name": "9e4c1ba3cf00c5e9fbe42292921e30e5", "is_reserved": 0, "is_disabled": 0, "type": "electric_scooter"}, {"fusion_lon": 0.0, "lat": 38.90665666666666, "lon": -77.02697416666666, "bike_id": "9c46aaffb974c4e453435650f66081d4", "rental_uris": {"android": "https://dc.lft.to/lastmile_qr_scan", "ios": "https://dc.lft.to/lastmile_qr_scan"}, "fusion_lat": 0.0, "name": "9c46aaffb974c4e453435650f66081d4", "is_reserved": 0, "is_disabled": 0, "type": "electric_scooter"}, {"fusion_lon": 0.0, "lat": 38.89664833333333, "lon": -76.98105733333334, "bike_id": "619d128ff6c9fc148b2a25940e92d82f", "rental_uris": {"android": "https://dc.lft.to/lastmile_qr_scan", "ios": "https://dc.lft.to/lastmile_qr_scan"}, "fusion_lat": 0.0, "name": "619d128ff6c9fc148b2a25940e92d82f", "is_reserved": 0, "is_disabled": 0, "type": "electric_scooter"}, {"fusion_lon": 0.0, "lat": 38.897093, "lon": -76.991208, "bike_id": "7a46e04c268adaeed83259bfcd83f178", "rental_uris": {"android": "https://dc.lft.to/lastmile_qr_scan", "ios": "https://dc.lft.to/lastmile_qr_scan"}, "fusion_lat": 0.0, "name": "7a46e04c268adaeed83259bfcd83f178", "is_reserved": 0, "is_disabled": 0, "type": "electric_scooter"}, {"fusion_lon": 0.0, "lat": 38.91564433333333, "lon": -77.0444505, "bike_id": "2ca99d586fee5bc33dd4ed05b2959dc4", "rental_uris": {"android": "https://dc.lft.to/lastmile_qr_scan", "ios": "https://dc.lft.to/lastmile_qr_scan"}, "fusion_lat": 0.0, "name": "2ca99d586fee5bc33dd4ed05b2959dc4", "is_reserved": 0, "is_disabled": 0, "type": "electric_scooter"}, {"fusion_lon": 0.0, "lat": 38.934969833333334, "lon": -76.98198366666666, "bike_id": "0032433f7cf5fc86161837c1959ff6fa", "rental_uris": {"android": "https://dc.lft.to/lastmile_qr_scan", "ios": "https://dc.lft.to/lastmile_qr_scan"}, "fusion_lat": 0.0, "name": "0032433f7cf5fc86161837c1959ff6fa", "is_reserved": 0, "is_disabled": 0, "type": "electric_scooter"}, {"fusion_lon": 0.0, "lat": 38.93263683333333, "lon": -76.99620916666667, "bike_id": "6abf9f4ff7242d6d67f0ef3c60e399b7", "rental_uris": {"android": "https://dc.lft.to/lastmile_qr_scan", "ios": "https://dc.lft.to/lastmile_qr_scan"}, "fusion_lat": 0.0, "name": "6abf9f4ff7242d6d67f0ef3c60e399b7", "is_reserved": 0, "is_disabled": 0, "type": "electric_scooter"}, {"fusion_lon": 0.0, "lat": 38.912668, "lon": -77.04452816666667, "bike_id": "9608b8c16291fc8b540ae349b243a32d", "rental_uris": {"android": "https://dc.lft.to/lastmile_qr_scan", "ios": "https://dc.lft.to/lastmile_qr_scan"}, "fusion_lat": 0.0, "name": "9608b8c16291fc8b540ae349b243a32d", "is_reserved": 0, "is_disabled": 0, "type": "electric_scooter"}, {"fusion_lon": 0.0, "lat": 38.898813833333335, "lon": -77.0328085, "bike_id": "66f4a82e5ecceb03fce4671c7a761163", "rental_uris": {"android": "https://dc.lft.to/lastmile_qr_scan", "ios": "https://dc.lft.to/lastmile_qr_scan"}, "fusion_lat": 0.0, "name": "66f4a82e5ecceb03fce4671c7a761163", "is_reserved": 0, "is_disabled": 0, "type": "electric_scooter"}, {"fusion_lon": 0.0, "lat": 38.89576483333333, "lon": -77.03186683333334, "bike_id": "7511445b9b1bf001948894d028a7566d", "rental_uris": {"android": "https://dc.lft.to/lastmile_qr_scan", "ios": "https://dc.lft.to/lastmile_qr_scan"}, "fusion_lat": 0.0, "name": "7511445b9b1bf001948894d028a7566d", "is_reserved": 0, "is_disabled": 0, "type": "electric_scooter"}, {"fusion_lon": 0.0, "lat": 38.92064966666667, "lon": -77.02411516666666, "bike_id": "eafe4911511c724247f46cd296f832aa", "rental_uris": {"android": "https://dc.lft.to/lastmile_qr_scan", "ios": "https://dc.lft.to/lastmile_qr_scan"}, "fusion_lat": 0.0, "name": "eafe4911511c724247f46cd296f832aa", "is_reserved": 0, "is_disabled": 0, "type": "electric_scooter"}, {"fusion_lon": 0.0, "lat": 38.933534333333334, "lon": -77.0858015, "bike_id": "8773c75252826deabf9c08bf8316283c", "rental_uris": {"android": "https://dc.lft.to/lastmile_qr_scan", "ios": "https://dc.lft.to/lastmile_qr_scan"}, "fusion_lat": 0.0, "name": "8773c75252826deabf9c08bf8316283c", "is_reserved": 0, "is_disabled": 0, "type": "electric_scooter"}, {"fusion_lon": 0.0, "lat": 38.92883033333333, "lon": -77.03490733333334, "bike_id": "43f8cc3b749b2599db37af899553dd6b", "rental_uris": {"android": "https://dc.lft.to/lastmile_qr_scan", "ios": "https://dc.lft.to/lastmile_qr_scan"}, "fusion_lat": 0.0, "name": "43f8cc3b749b2599db37af899553dd6b", "is_reserved": 0, "is_disabled": 0, "type": "electric_scooter"}, {"fusion_lon": 0.0, "lat": 38.90303333333333, "lon": -77.05048216666667, "bike_id": "7669d4ac51ae7bd1621055c54d152c1d", "rental_uris": {"android": "https://dc.lft.to/lastmile_qr_scan", "ios": "https://dc.lft.to/lastmile_qr_scan"}, "fusion_lat": 0.0, "name": "7669d4ac51ae7bd1621055c54d152c1d", "is_reserved": 0, "is_disabled": 0, "type": "electric_scooter"}, {"fusion_lon": 0.0, "lat": 38.928234833333335, "lon": -77.0227755, "bike_id": "1cc2e286cfe8a49fc433de02d692757f", "rental_uris": {"android": "https://dc.lft.to/lastmile_qr_scan", "ios": "https://dc.lft.to/lastmile_qr_scan"}, "fusion_lat": 0.0, "name": "1cc2e286cfe8a49fc433de02d692757f", "is_reserved": 0, "is_disabled": 0, "type": "electric_scooter"}, {"fusion_lon": 0.0, "lat": 38.904395666666666, "lon": -77.05335, "bike_id": "68a75b19c718f488a1f9ce90d988c2d9", "rental_uris": {"android": "https://dc.lft.to/lastmile_qr_scan", "ios": "https://dc.lft.to/lastmile_qr_scan"}, "fusion_lat": 0.0, "name": "68a75b19c718f488a1f9ce90d988c2d9", "is_reserved": 0, "is_disabled": 0, "type": "electric_scooter"}, {"fusion_lon": 0.0, "lat": 38.935045833333334, "lon": -77.03712316666666, "bike_id": "b5c23a68dcee6e0687027d4ae461f882", "rental_uris": {"android": "https://dc.lft.to/lastmile_qr_scan", "ios": "https://dc.lft.to/lastmile_qr_scan"}, "fusion_lat": 0.0, "name": "b5c23a68dcee6e0687027d4ae461f882", "is_reserved": 0, "is_disabled": 0, "type": "electric_scooter"}, {"fusion_lon": 0.0, "lat": 38.922118833333336, "lon": -77.0203625, "bike_id": "3333365e0ea3736b0ea71b5451a459fd", "rental_uris": {"android": "https://dc.lft.to/lastmile_qr_scan", "ios": "https://dc.lft.to/lastmile_qr_scan"}, "fusion_lat": 0.0, "name": "3333365e0ea3736b0ea71b5451a459fd", "is_reserved": 0, "is_disabled": 0, "type": "electric_scooter"}, {"fusion_lon": 0.0, "lat": 38.9039475, "lon": -76.98101333333334, "bike_id": "07896e3dcf9602f28b79086ae0847065", "rental_uris": {"android": "https://dc.lft.to/lastmile_qr_scan", "ios": "https://dc.lft.to/lastmile_qr_scan"}, "fusion_lat": 0.0, "name": "07896e3dcf9602f28b79086ae0847065", "is_reserved": 0, "is_disabled": 0, "type": "electric_scooter"}, {"fusion_lon": 0.0, "lat": 38.902178666666664, "lon": -77.02371083333334, "bike_id": "d4a0720468d9e60c2a17fb37acdbe145", "rental_uris": {"android": "https://dc.lft.to/lastmile_qr_scan", "ios": "https://dc.lft.to/lastmile_qr_scan"}, "fusion_lat": 0.0, "name": "d4a0720468d9e60c2a17fb37acdbe145", "is_reserved": 0, "is_disabled": 0, "type": "electric_scooter"}, {"fusion_lon": 0.0, "lat": 38.920336666666664, "lon": -77.03395166666667, "bike_id": "d5ebfec01b8a3d0ce063bef11a1c668f", "rental_uris": {"android": "https://dc.lft.to/lastmile_qr_scan", "ios": "https://dc.lft.to/lastmile_qr_scan"}, "fusion_lat": 0.0, "name": "d5ebfec01b8a3d0ce063bef11a1c668f", "is_reserved": 0, "is_disabled": 0, "type": "electric_scooter"}, {"fusion_lon": 0.0, "lat": 38.89408916666667, "lon": -76.86849416666666, "bike_id": "32856ea1aa548fe1a5413906c6d796c5", "rental_uris": {"android": "https://dc.lft.to/lastmile_qr_scan", "ios": "https://dc.lft.to/lastmile_qr_scan"}, "fusion_lat": 0.0, "name": "32856ea1aa548fe1a5413906c6d796c5", "is_reserved": 0, "is_disabled": 0, "type": "electric_bike"}, {"fusion_lon": 0.0, "lat": 38.920159166666664, "lon": -77.04406266666666, "bike_id": "179d735dad44b78d30919b7f29b7d358", "rental_uris": {"android": "https://dc.lft.to/lastmile_qr_scan", "ios": "https://dc.lft.to/lastmile_qr_scan"}, "fusion_lat": 0.0, "name": "179d735dad44b78d30919b7f29b7d358", "is_reserved": 0, "is_disabled": 0, "type": "electric_scooter"}, {"fusion_lon": 0.0, "lat": 38.93589516666667, "lon": -77.05845616666667, "bike_id": "ebd3f8e90a5adfe73f7f07e1caf5edf8", "rental_uris": {"android": "https://dc.lft.to/lastmile_qr_scan", "ios": "https://dc.lft.to/lastmile_qr_scan"}, "fusion_lat": 0.0, "name": "ebd3f8e90a5adfe73f7f07e1caf5edf8", "is_reserved": 0, "is_disabled": 0, "type": "electric_scooter"}, {"fusion_lon": 0.0, "lat": 38.9214245, "lon": -77.042208, "bike_id": "b9a10af031e83f83608110946a47b32c", "rental_uris": {"android": "https://dc.lft.to/lastmile_qr_scan", "ios": "https://dc.lft.to/lastmile_qr_scan"}, "fusion_lat": 0.0, "name": "b9a10af031e83f83608110946a47b32c", "is_reserved": 0, "is_disabled": 0, "type": "electric_scooter"}, {"fusion_lon": 0.0, "lat": 38.90235633333333, "lon": -77.03172883333333, "bike_id": "87637c97c06703366d310d2eec6de5d9", "rental_uris": {"android": "https://dc.lft.to/lastmile_qr_scan", "ios": "https://dc.lft.to/lastmile_qr_scan"}, "fusion_lat": 0.0, "name": "87637c97c06703366d310d2eec6de5d9", "is_reserved": 0, "is_disabled": 0, "type": "electric_scooter"}, {"fusion_lon": 0.0, "lat": 38.907680166666665, "lon": -77.02458783333333, "bike_id": "9221d6351734ff75e4eb741101fd87c1", "rental_uris": {"android": "https://dc.lft.to/lastmile_qr_scan", "ios": "https://dc.lft.to/lastmile_qr_scan"}, "fusion_lat": 0.0, "name": "9221d6351734ff75e4eb741101fd87c1", "is_reserved": 0, "is_disabled": 0, "type": "electric_scooter"}, {"fusion_lon": 0.0, "lat": 38.8718575, "lon": -77.00645183333333, "bike_id": "e29b51394eb553b8f5b8edbe1a633cb4", "rental_uris": {"android": "https://dc.lft.to/lastmile_qr_scan", "ios": "https://dc.lft.to/lastmile_qr_scan"}, "fusion_lat": 0.0, "name": "e29b51394eb553b8f5b8edbe1a633cb4", "is_reserved": 0, "is_disabled": 0, "type": "electric_scooter"}, {"fusion_lon": 0.0, "lat": 38.90230866666667, "lon": -77.04360283333334, "bike_id": "bebf83a97487efe06f181a0bb5bb12fc", "rental_uris": {"android": "https://dc.lft.to/lastmile_qr_scan", "ios": "https://dc.lft.to/lastmile_qr_scan"}, "fusion_lat": 0.0, "name": "bebf83a97487efe06f181a0bb5bb12fc", "is_reserved": 0, "is_disabled": 0, "type": "electric_scooter"}, {"fusion_lon": 0.0, "lat": 38.87674233333333, "lon": -77.0199935, "bike_id": "254e7abd4e409636afe983fc122326e1", "rental_uris": {"android": "https://dc.lft.to/lastmile_qr_scan", "ios": "https://dc.lft.to/lastmile_qr_scan"}, "fusion_lat": 0.0, "name": "254e7abd4e409636afe983fc122326e1", "is_reserved": 0, "is_disabled": 0, "type": "electric_scooter"}, {"fusion_lon": 0.0, "lat": 38.88971033333333, "lon": -76.98040233333333, "bike_id": "01e8aa3ab7cd0108e0d4f3dbd56e0913", "rental_uris": {"android": "https://dc.lft.to/lastmile_qr_scan", "ios": "https://dc.lft.to/lastmile_qr_scan"}, "fusion_lat": 0.0, "name": "01e8aa3ab7cd0108e0d4f3dbd56e0913", "is_reserved": 0, "is_disabled": 0, "type": "electric_scooter"}, {"fusion_lon": 0.0, "lat": 38.923301, "lon": -77.0539265, "bike_id": "793aaa6f98b3f67678018ba143e9bd9c", "rental_uris": {"android": "https://dc.lft.to/lastmile_qr_scan", "ios": "https://dc.lft.to/lastmile_qr_scan"}, "fusion_lat": 0.0, "name": "793aaa6f98b3f67678018ba143e9bd9c", "is_reserved": 0, "is_disabled": 0, "type": "electric_scooter"}, {"fusion_lon": 0.0, "lat": 38.91319266666667, "lon": -77.04542433333333, "bike_id": "c6ca59cc0745266304fa68073ee5d4c3", "rental_uris": {"android": "https://dc.lft.to/lastmile_qr_scan", "ios": "https://dc.lft.to/lastmile_qr_scan"}, "fusion_lat": 0.0, "name": "c6ca59cc0745266304fa68073ee5d4c3", "is_reserved": 0, "is_disabled": 0, "type": "electric_scooter"}, {"fusion_lon": 0.0, "lat": 38.902203, "lon": -77.04564183333333, "bike_id": "6b040fc85fd27a3c268e25fb3834e178", "rental_uris": {"android": "https://dc.lft.to/lastmile_qr_scan", "ios": "https://dc.lft.to/lastmile_qr_scan"}, "fusion_lat": 0.0, "name": "6b040fc85fd27a3c268e25fb3834e178", "is_reserved": 0, "is_disabled": 0, "type": "electric_scooter"}, {"fusion_lon": 0.0, "lat": 38.9048305, "lon": -77.048258, "bike_id": "0515d68b273c1ac5d4119fcaa5608e4d", "rental_uris": {"android": "https://dc.lft.to/lastmile_qr_scan", "ios": "https://dc.lft.to/lastmile_qr_scan"}, "fusion_lat": 0.0, "name": "0515d68b273c1ac5d4119fcaa5608e4d", "is_reserved": 0, "is_disabled": 0, "type": "electric_scooter"}, {"fusion_lon": 0.0, "lat": 38.84674533333333, "lon": -77.13921933333333, "bike_id": "ffed8c3b1882b3a34fe0a6a5cd029e97", "rental_uris": {"android": "https://dc.lft.to/lastmile_qr_scan", "ios": "https://dc.lft.to/lastmile_qr_scan"}, "fusion_lat": 0.0, "name": "ffed8c3b1882b3a34fe0a6a5cd029e97", "is_reserved": 0, "is_disabled": 0, "type": "electric_bike"}, {"fusion_lon": 0.0, "lat": 38.902506833333334, "lon": -77.0172835, "bike_id": "9b55cb4fd69bb70790a6652a51bb1753", "rental_uris": {"android": "https://dc.lft.to/lastmile_qr_scan", "ios": "https://dc.lft.to/lastmile_qr_scan"}, "fusion_lat": 0.0, "name": "9b55cb4fd69bb70790a6652a51bb1753", "is_reserved": 0, "is_disabled": 0, "type": "electric_scooter"}, {"fusion_lon": 0.0, "lat": 38.8969595, "lon": -77.0298335, "bike_id": "eaf361743d8aaf9b38a834e934682eaf", "rental_uris": {"android": "https://dc.lft.to/lastmile_qr_scan", "ios": "https://dc.lft.to/lastmile_qr_scan"}, "fusion_lat": 0.0, "name": "eaf361743d8aaf9b38a834e934682eaf", "is_reserved": 0, "is_disabled": 0, "type": "electric_scooter"}, {"fusion_lon": 0.0, "lat": 38.895156, "lon": -77.04478266666666, "bike_id": "ae28c18c5dcbc34f301698e46e9da642", "rental_uris": {"android": "https://dc.lft.to/lastmile_qr_scan", "ios": "https://dc.lft.to/lastmile_qr_scan"}, "fusion_lat": 0.0, "name": "ae28c18c5dcbc34f301698e46e9da642", "is_reserved": 0, "is_disabled": 0, "type": "electric_scooter"}, {"fusion_lon": 0.0, "lat": 38.90562383333334, "lon": -77.03492566666667, "bike_id": "98da1b098905a3f5e96a0afe8275afbe", "rental_uris": {"android": "https://dc.lft.to/lastmile_qr_scan", "ios": "https://dc.lft.to/lastmile_qr_scan"}, "fusion_lat": 0.0, "name": "98da1b098905a3f5e96a0afe8275afbe", "is_reserved": 0, "is_disabled": 0, "type": "electric_scooter"}, {"fusion_lon": 0.0, "lat": 38.92839033333333, "lon": -76.99585666666667, "bike_id": "eccb3121907856189310bbeec60d64b8", "rental_uris": {"android": "https://dc.lft.to/lastmile_qr_scan", "ios": "https://dc.lft.to/lastmile_qr_scan"}, "fusion_lat": 0.0, "name": "eccb3121907856189310bbeec60d64b8", "is_reserved": 0, "is_disabled": 0, "type": "electric_scooter"}, {"fusion_lon": 0.0, "lat": 38.8926065, "lon": -77.00218216666667, "bike_id": "9c6ada98cdd380854a4d78220a29bb57", "rental_uris": {"android": "https://dc.lft.to/lastmile_qr_scan", "ios": "https://dc.lft.to/lastmile_qr_scan"}, "fusion_lat": 0.0, "name": "9c6ada98cdd380854a4d78220a29bb57", "is_reserved": 0, "is_disabled": 0, "type": "electric_scooter"}, {"fusion_lon": 0.0, "lat": 38.878625166666666, "lon": -76.99160366666666, "bike_id": "b562164d63bfe022d73f600691be3174", "rental_uris": {"android": "https://dc.lft.to/lastmile_qr_scan", "ios": "https://dc.lft.to/lastmile_qr_scan"}, "fusion_lat": 0.0, "name": "b562164d63bfe022d73f600691be3174", "is_reserved": 0, "is_disabled": 0, "type": "electric_scooter"}, {"fusion_lon": 0.0, "lat": 38.88119616666667, "lon": -76.9929375, "bike_id": "4ee31114b5b93a228fb67705595f0185", "rental_uris": {"android": "https://dc.lft.to/lastmile_qr_scan", "ios": "https://dc.lft.to/lastmile_qr_scan"}, "fusion_lat": 0.0, "name": "4ee31114b5b93a228fb67705595f0185", "is_reserved": 0, "is_disabled": 0, "type": "electric_scooter"}, {"fusion_lon": 0.0, "lat": 38.90084983333333, "lon": -77.02585983333333, "bike_id": "7233ff541d922e2b258055246d0ec614", "rental_uris": {"android": "https://dc.lft.to/lastmile_qr_scan", "ios": "https://dc.lft.to/lastmile_qr_scan"}, "fusion_lat": 0.0, "name": "7233ff541d922e2b258055246d0ec614", "is_reserved": 0, "is_disabled": 0, "type": "electric_scooter"}, {"fusion_lon": 0.0, "lat": 38.91111, "lon": -77.04369666666666, "bike_id": "74f070cd168a0dfa8948eb94755bdc7a", "rental_uris": {"android": "https://dc.lft.to/lastmile_qr_scan", "ios": "https://dc.lft.to/lastmile_qr_scan"}, "fusion_lat": 0.0, "name": "74f070cd168a0dfa8948eb94755bdc7a", "is_reserved": 0, "is_disabled": 0, "type": "electric_scooter"}, {"fusion_lon": 0.0, "lat": 38.93237366666666, "lon": -77.02945216666667, "bike_id": "b6f812900d3e7e4d63616e57097a09cc", "rental_uris": {"android": "https://dc.lft.to/lastmile_qr_scan", "ios": "https://dc.lft.to/lastmile_qr_scan"}, "fusion_lat": 0.0, "name": "b6f812900d3e7e4d63616e57097a09cc", "is_reserved": 0, "is_disabled": 0, "type": "electric_scooter"}, {"fusion_lon": 0.0, "lat": 38.90725366666667, "lon": -77.0109495, "bike_id": "da44a03b7dee4ef69d9275fd4201e6ab", "rental_uris": {"android": "https://dc.lft.to/lastmile_qr_scan", "ios": "https://dc.lft.to/lastmile_qr_scan"}, "fusion_lat": 0.0, "name": "da44a03b7dee4ef69d9275fd4201e6ab", "is_reserved": 0, "is_disabled": 0, "type": "electric_scooter"}, {"fusion_lon": 0.0, "lat": 38.898797333333334, "lon": -77.03271966666667, "bike_id": "e81398868750c406614cc6fbb619a574", "rental_uris": {"android": "https://dc.lft.to/lastmile_qr_scan", "ios": "https://dc.lft.to/lastmile_qr_scan"}, "fusion_lat": 0.0, "name": "e81398868750c406614cc6fbb619a574", "is_reserved": 0, "is_disabled": 0, "type": "electric_scooter"}, {"fusion_lon": 0.0, "lat": 38.9057, "lon": -77.02195, "bike_id": "f582e729f9e1d6f6ef1c3c06771a8e8e", "rental_uris": {"android": "https://dc.lft.to/lastmile_qr_scan", "ios": "https://dc.lft.to/lastmile_qr_scan"}, "fusion_lat": 0.0, "name": "f582e729f9e1d6f6ef1c3c06771a8e8e", "is_reserved": 0, "is_disabled": 0, "type": "electric_scooter"}, {"fusion_lon": 0.0, "lat": 38.900697666666666, "lon": -76.9274595, "bike_id": "f50d50794ebb42ac9648164d6e549a13", "rental_uris": {"android": "https://dc.lft.to/lastmile_qr_scan", "ios": "https://dc.lft.to/lastmile_qr_scan"}, "fusion_lat": 0.0, "name": "f50d50794ebb42ac9648164d6e549a13", "is_reserved": 0, "is_disabled": 0, "type": "electric_scooter"}, {"fusion_lon": 0.0, "lat": 38.891895166666664, "lon": -76.99848766666666, "bike_id": "f374c69b1f5e174b0c334b6e4f63ed5b", "rental_uris": {"android": "https://dc.lft.to/lastmile_qr_scan", "ios": "https://dc.lft.to/lastmile_qr_scan"}, "fusion_lat": 0.0, "name": "f374c69b1f5e174b0c334b6e4f63ed5b", "is_reserved": 0, "is_disabled": 0, "type": "electric_scooter"}, {"fusion_lon": 0.0, "lat": 38.93154933333334, "lon": -77.036575, "bike_id": "d6686da37b48e6cebc077ef444485f52", "rental_uris": {"android": "https://dc.lft.to/lastmile_qr_scan", "ios": "https://dc.lft.to/lastmile_qr_scan"}, "fusion_lat": 0.0, "name": "d6686da37b48e6cebc077ef444485f52", "is_reserved": 0, "is_disabled": 0, "type": "electric_scooter"}, {"fusion_lon": 0.0, "lat": 38.924325833333334, "lon": -77.05209083333334, "bike_id": "6abb15830eb482638e85bf4fc145faf2", "rental_uris": {"android": "https://dc.lft.to/lastmile_qr_scan", "ios": "https://dc.lft.to/lastmile_qr_scan"}, "fusion_lat": 0.0, "name": "6abb15830eb482638e85bf4fc145faf2", "is_reserved": 0, "is_disabled": 0, "type": "electric_scooter"}, {"fusion_lon": 0.0, "lat": 38.926732333333334, "lon": -77.0258225, "bike_id": "d5fb04a60ffecabd622d6583ba9aac48", "rental_uris": {"android": "https://dc.lft.to/lastmile_qr_scan", "ios": "https://dc.lft.to/lastmile_qr_scan"}, "fusion_lat": 0.0, "name": "d5fb04a60ffecabd622d6583ba9aac48", "is_reserved": 0, "is_disabled": 0, "type": "electric_scooter"}, {"fusion_lon": 0.0, "lat": 38.8983825, "lon": -77.028611, "bike_id": "81e711638f86761498ee96be7cb12317", "rental_uris": {"android": "https://dc.lft.to/lastmile_qr_scan", "ios": "https://dc.lft.to/lastmile_qr_scan"}, "fusion_lat": 0.0, "name": "81e711638f86761498ee96be7cb12317", "is_reserved": 0, "is_disabled": 0, "type": "electric_scooter"}, {"fusion_lon": 0.0, "lat": 38.892268, "lon": -77.03200666666666, "bike_id": "068ae0d9d56deaedbdd70dbebb4253d8", "rental_uris": {"android": "https://dc.lft.to/lastmile_qr_scan", "ios": "https://dc.lft.to/lastmile_qr_scan"}, "fusion_lat": 0.0, "name": "068ae0d9d56deaedbdd70dbebb4253d8", "is_reserved": 0, "is_disabled": 0, "type": "electric_scooter"}, {"fusion_lon": 0.0, "lat": 38.857063833333335, "lon": -76.98131383333333, "bike_id": "6c3838d039f8880d12a3e0ec95f19a5f", "rental_uris": {"android": "https://dc.lft.to/lastmile_qr_scan", "ios": "https://dc.lft.to/lastmile_qr_scan"}, "fusion_lat": 0.0, "name": "6c3838d039f8880d12a3e0ec95f19a5f", "is_reserved": 0, "is_disabled": 0, "type": "electric_scooter"}, {"fusion_lon": 0.0, "lat": 38.9213385, "lon": -77.01820633333334, "bike_id": "c0f6e3a818dfccf5b72cf282afa46927", "rental_uris": {"android": "https://dc.lft.to/lastmile_qr_scan", "ios": "https://dc.lft.to/lastmile_qr_scan"}, "fusion_lat": 0.0, "name": "c0f6e3a818dfccf5b72cf282afa46927", "is_reserved": 0, "is_disabled": 0, "type": "electric_scooter"}, {"fusion_lon": 0.0, "lat": 38.92236183333333, "lon": -77.03666166666666, "bike_id": "c218d37a7485a3b774958775822b71b3", "rental_uris": {"android": "https://dc.lft.to/lastmile_qr_scan", "ios": "https://dc.lft.to/lastmile_qr_scan"}, "fusion_lat": 0.0, "name": "c218d37a7485a3b774958775822b71b3", "is_reserved": 0, "is_disabled": 0, "type": "electric_scooter"}, {"fusion_lon": 0.0, "lat": 38.9094575, "lon": -77.03448516666667, "bike_id": "9c734293c542277f5b06841dc9220ae3", "rental_uris": {"android": "https://dc.lft.to/lastmile_qr_scan", "ios": "https://dc.lft.to/lastmile_qr_scan"}, "fusion_lat": 0.0, "name": "9c734293c542277f5b06841dc9220ae3", "is_reserved": 0, "is_disabled": 0, "type": "electric_scooter"}, {"fusion_lon": 0.0, "lat": 38.88039116666667, "lon": -76.9272705, "bike_id": "c2108a5257083b2871c688deffcc4fc5", "rental_uris": {"android": "https://dc.lft.to/lastmile_qr_scan", "ios": "https://dc.lft.to/lastmile_qr_scan"}, "fusion_lat": 0.0, "name": "c2108a5257083b2871c688deffcc4fc5", "is_reserved": 0, "is_disabled": 0, "type": "electric_scooter"}, {"fusion_lon": 0.0, "lat": 38.9003485, "lon": -76.99745666666666, "bike_id": "310fb1fb4d1c8b499079d933527632d0", "rental_uris": {"android": "https://dc.lft.to/lastmile_qr_scan", "ios": "https://dc.lft.to/lastmile_qr_scan"}, "fusion_lat": 0.0, "name": "310fb1fb4d1c8b499079d933527632d0", "is_reserved": 0, "is_disabled": 0, "type": "electric_scooter"}, {"fusion_lon": 0.0, "lat": 38.901121, "lon": -77.03176666666667, "bike_id": "4135fda56ba33326f7ecb738787af7d9", "rental_uris": {"android": "https://dc.lft.to/lastmile_qr_scan", "ios": "https://dc.lft.to/lastmile_qr_scan"}, "fusion_lat": 0.0, "name": "4135fda56ba33326f7ecb738787af7d9", "is_reserved": 0, "is_disabled": 0, "type": "electric_scooter"}, {"fusion_lon": 0.0, "lat": 38.923423, "lon": -77.01897566666666, "bike_id": "b97ceed2f7a52d451d706967b9e375f9", "rental_uris": {"android": "https://dc.lft.to/lastmile_qr_scan", "ios": "https://dc.lft.to/lastmile_qr_scan"}, "fusion_lat": 0.0, "name": "b97ceed2f7a52d451d706967b9e375f9", "is_reserved": 0, "is_disabled": 0, "type": "electric_scooter"}, {"fusion_lon": 0.0, "lat": 38.85791616666667, "lon": -76.989138, "bike_id": "b9e57680870add8212599dad92288b4d", "rental_uris": {"android": "https://dc.lft.to/lastmile_qr_scan", "ios": "https://dc.lft.to/lastmile_qr_scan"}, "fusion_lat": 0.0, "name": "b9e57680870add8212599dad92288b4d", "is_reserved": 0, "is_disabled": 0, "type": "electric_scooter"}, {"fusion_lon": 0.0, "lat": 38.89453916666667, "lon": -77.02432033333334, "bike_id": "92a022a7b5d1dd27f17787390590bc9a", "rental_uris": {"android": "https://dc.lft.to/lastmile_qr_scan", "ios": "https://dc.lft.to/lastmile_qr_scan"}, "fusion_lat": 0.0, "name": "92a022a7b5d1dd27f17787390590bc9a", "is_reserved": 0, "is_disabled": 0, "type": "electric_scooter"}, {"fusion_lon": 0.0, "lat": 38.900685833333334, "lon": -77.0496905, "bike_id": "ada5441d8dd3031e503e61cbe0da06fa", "rental_uris": {"android": "https://dc.lft.to/lastmile_qr_scan", "ios": "https://dc.lft.to/lastmile_qr_scan"}, "fusion_lat": 0.0, "name": "ada5441d8dd3031e503e61cbe0da06fa", "is_reserved": 0, "is_disabled": 0, "type": "electric_scooter"}, {"fusion_lon": 0.0, "lat": 38.908083, "lon": -77.03378316666667, "bike_id": "35664bc2dd9fbe23886f51afbdf1a82a", "rental_uris": {"android": "https://dc.lft.to/lastmile_qr_scan", "ios": "https://dc.lft.to/lastmile_qr_scan"}, "fusion_lat": 0.0, "name": "35664bc2dd9fbe23886f51afbdf1a82a", "is_reserved": 0, "is_disabled": 0, "type": "electric_scooter"}, {"fusion_lon": 0.0, "lat": 38.92464916666667, "lon": -77.0523725, "bike_id": "7c10b1a3a9f9c92b77650f08845c7267", "rental_uris": {"android": "https://dc.lft.to/lastmile_qr_scan", "ios": "https://dc.lft.to/lastmile_qr_scan"}, "fusion_lat": 0.0, "name": "7c10b1a3a9f9c92b77650f08845c7267", "is_reserved": 0, "is_disabled": 0, "type": "electric_scooter"}, {"fusion_lon": 0.0, "lat": 38.88822616666667, "lon": -76.97702033333333, "bike_id": "7013735c80ab14fe1f78e3fd9249bf12", "rental_uris": {"android": "https://dc.lft.to/lastmile_qr_scan", "ios": "https://dc.lft.to/lastmile_qr_scan"}, "fusion_lat": 0.0, "name": "7013735c80ab14fe1f78e3fd9249bf12", "is_reserved": 0, "is_disabled": 0, "type": "electric_scooter"}, {"fusion_lon": 0.0, "lat": 38.901727666666666, "lon": -76.980754, "bike_id": "ca90d32dd7dbbab450e83f9bb40b4e67", "rental_uris": {"android": "https://dc.lft.to/lastmile_qr_scan", "ios": "https://dc.lft.to/lastmile_qr_scan"}, "fusion_lat": 0.0, "name": "ca90d32dd7dbbab450e83f9bb40b4e67", "is_reserved": 0, "is_disabled": 0, "type": "electric_scooter"}, {"fusion_lon": 0.0, "lat": 39.0292595, "lon": -77.01357283333333, "bike_id": "4f6d9e834124ff2f01ef6a93eae57245", "rental_uris": {"android": "https://dc.lft.to/lastmile_qr_scan", "ios": "https://dc.lft.to/lastmile_qr_scan"}, "fusion_lat": 0.0, "name": "4f6d9e834124ff2f01ef6a93eae57245", "is_reserved": 0, "is_disabled": 0, "type": "electric_bike"}, {"fusion_lon": 0.0, "lat": 38.926743, "lon": -77.02745783333333, "bike_id": "8e614bc347a799fa02a23ba5c26c1724", "rental_uris": {"android": "https://dc.lft.to/lastmile_qr_scan", "ios": "https://dc.lft.to/lastmile_qr_scan"}, "fusion_lat": 0.0, "name": "8e614bc347a799fa02a23ba5c26c1724", "is_reserved": 0, "is_disabled": 0, "type": "electric_scooter"}, {"fusion_lon": 0.0, "lat": 38.924635333333335, "lon": -77.02196766666667, "bike_id": "032004e73fc2d1437f60753074abe86f", "rental_uris": {"android": "https://dc.lft.to/lastmile_qr_scan", "ios": "https://dc.lft.to/lastmile_qr_scan"}, "fusion_lat": 0.0, "name": "032004e73fc2d1437f60753074abe86f", "is_reserved": 0, "is_disabled": 0, "type": "electric_scooter"}, {"fusion_lon": 0.0, "lat": 38.90696066666667, "lon": -77.00976016666667, "bike_id": "eead3214579e7f22028318d8c764977d", "rental_uris": {"android": "https://dc.lft.to/lastmile_qr_scan", "ios": "https://dc.lft.to/lastmile_qr_scan"}, "fusion_lat": 0.0, "name": "eead3214579e7f22028318d8c764977d", "is_reserved": 0, "is_disabled": 0, "type": "electric_scooter"}, {"fusion_lon": 0.0, "lat": 38.89956, "lon": -77.01701016666667, "bike_id": "76db75a21912fa551c5fa4880ff36b90", "rental_uris": {"android": "https://dc.lft.to/lastmile_qr_scan", "ios": "https://dc.lft.to/lastmile_qr_scan"}, "fusion_lat": 0.0, "name": "76db75a21912fa551c5fa4880ff36b90", "is_reserved": 0, "is_disabled": 0, "type": "electric_scooter"}, {"fusion_lon": 0.0, "lat": 38.880464833333335, "lon": -77.00528083333333, "bike_id": "196235b8eb79b80b8338cdcb4f006222", "rental_uris": {"android": "https://dc.lft.to/lastmile_qr_scan", "ios": "https://dc.lft.to/lastmile_qr_scan"}, "fusion_lat": 0.0, "name": "196235b8eb79b80b8338cdcb4f006222", "is_reserved": 0, "is_disabled": 0, "type": "electric_scooter"}, {"fusion_lon": 0.0, "lat": 38.90908533333333, "lon": -76.98978116666666, "bike_id": "d81a59cc802be9b50f33b6d23115c9ef", "rental_uris": {"android": "https://dc.lft.to/lastmile_qr_scan", "ios": "https://dc.lft.to/lastmile_qr_scan"}, "fusion_lat": 0.0, "name": "d81a59cc802be9b50f33b6d23115c9ef", "is_reserved": 0, "is_disabled": 0, "type": "electric_scooter"}, {"fusion_lon": 0.0, "lat": 38.88503266666667, "lon": -77.00567833333334, "bike_id": "e8fe31b5b28951441d6afd1426834e15", "rental_uris": {"android": "https://dc.lft.to/lastmile_qr_scan", "ios": "https://dc.lft.to/lastmile_qr_scan"}, "fusion_lat": 0.0, "name": "e8fe31b5b28951441d6afd1426834e15", "is_reserved": 0, "is_disabled": 0, "type": "electric_scooter"}, {"fusion_lon": 0.0, "lat": 38.88718683333333, "lon": -76.98335966666667, "bike_id": "2c9e07c51a3caebf99258c651ad452f6", "rental_uris": {"android": "https://dc.lft.to/lastmile_qr_scan", "ios": "https://dc.lft.to/lastmile_qr_scan"}, "fusion_lat": 0.0, "name": "2c9e07c51a3caebf99258c651ad452f6", "is_reserved": 0, "is_disabled": 0, "type": "electric_scooter"}, {"fusion_lon": 0.0, "lat": 38.89977116666667, "lon": -77.04619683333334, "bike_id": "ec25e0a3bb9b904e50c93562bf07ff5b", "rental_uris": {"android": "https://dc.lft.to/lastmile_qr_scan", "ios": "https://dc.lft.to/lastmile_qr_scan"}, "fusion_lat": 0.0, "name": "ec25e0a3bb9b904e50c93562bf07ff5b", "is_reserved": 0, "is_disabled": 0, "type": "electric_scooter"}, {"fusion_lon": 0.0, "lat": 38.940932, "lon": -77.02983866666666, "bike_id": "52142d831ff11ac269285207484761a7", "rental_uris": {"android": "https://dc.lft.to/lastmile_qr_scan", "ios": "https://dc.lft.to/lastmile_qr_scan"}, "fusion_lat": 0.0, "name": "52142d831ff11ac269285207484761a7", "is_reserved": 0, "is_disabled": 0, "type": "electric_scooter"}, {"fusion_lon": 0.0, "lat": 38.938642, "lon": -77.02468533333334, "bike_id": "b02ad710482b0ad15db7b13d5b9cd452", "rental_uris": {"android": "https://dc.lft.to/lastmile_qr_scan", "ios": "https://dc.lft.to/lastmile_qr_scan"}, "fusion_lat": 0.0, "name": "b02ad710482b0ad15db7b13d5b9cd452", "is_reserved": 0, "is_disabled": 0, "type": "electric_scooter"}, {"fusion_lon": 0.0, "lat": 38.92247533333333, "lon": -77.02883366666667, "bike_id": "af53995d5056817056f7849d7ee561c9", "rental_uris": {"android": "https://dc.lft.to/lastmile_qr_scan", "ios": "https://dc.lft.to/lastmile_qr_scan"}, "fusion_lat": 0.0, "name": "af53995d5056817056f7849d7ee561c9", "is_reserved": 0, "is_disabled": 0, "type": "electric_scooter"}, {"fusion_lon": 0.0, "lat": 38.9243525, "lon": -77.02017216666667, "bike_id": "3b455cfca6cc59642ef3140c4b86ae0a", "rental_uris": {"android": "https://dc.lft.to/lastmile_qr_scan", "ios": "https://dc.lft.to/lastmile_qr_scan"}, "fusion_lat": 0.0, "name": "3b455cfca6cc59642ef3140c4b86ae0a", "is_reserved": 0, "is_disabled": 0, "type": "electric_scooter"}, {"fusion_lon": 0.0, "lat": 38.946101166666665, "lon": -77.08021866666667, "bike_id": "7126aa630a45ade5822f6dea1ee0ea47", "rental_uris": {"android": "https://dc.lft.to/lastmile_qr_scan", "ios": "https://dc.lft.to/lastmile_qr_scan"}, "fusion_lat": 0.0, "name": "7126aa630a45ade5822f6dea1ee0ea47", "is_reserved": 0, "is_disabled": 0, "type": "electric_scooter"}, {"fusion_lon": 0.0, "lat": 38.90540416666666, "lon": -77.039883, "bike_id": "14198a39e93d1bd7c4f07b44ef51cf7c", "rental_uris": {"android": "https://dc.lft.to/lastmile_qr_scan", "ios": "https://dc.lft.to/lastmile_qr_scan"}, "fusion_lat": 0.0, "name": "14198a39e93d1bd7c4f07b44ef51cf7c", "is_reserved": 0, "is_disabled": 0, "type": "electric_scooter"}, {"fusion_lon": 0.0, "lat": 38.894493, "lon": -77.021114, "bike_id": "8584cf427597af0db579878c2e9514c6", "rental_uris": {"android": "https://dc.lft.to/lastmile_qr_scan", "ios": "https://dc.lft.to/lastmile_qr_scan"}, "fusion_lat": 0.0, "name": "8584cf427597af0db579878c2e9514c6", "is_reserved": 0, "is_disabled": 0, "type": "electric_scooter"}, {"fusion_lon": 0.0, "lat": 38.901261166666664, "lon": -77.04189933333333, "bike_id": "5f8e24c1de98295a215dce061c416ea0", "rental_uris": {"android": "https://dc.lft.to/lastmile_qr_scan", "ios": "https://dc.lft.to/lastmile_qr_scan"}, "fusion_lat": 0.0, "name": "5f8e24c1de98295a215dce061c416ea0", "is_reserved": 0, "is_disabled": 0, "type": "electric_scooter"}, {"fusion_lon": 0.0, "lat": 38.88120283333333, "lon": -77.0045095, "bike_id": "62cf774fd4e3d9a6c2aed0976c4edf20", "rental_uris": {"android": "https://dc.lft.to/lastmile_qr_scan", "ios": "https://dc.lft.to/lastmile_qr_scan"}, "fusion_lat": 0.0, "name": "62cf774fd4e3d9a6c2aed0976c4edf20", "is_reserved": 0, "is_disabled": 0, "type": "electric_scooter"}, {"fusion_lon": 0.0, "lat": 38.91063366666667, "lon": -77.05473016666667, "bike_id": "da48504f8f9471630d7ea5cb6dab17df", "rental_uris": {"android": "https://dc.lft.to/lastmile_qr_scan", "ios": "https://dc.lft.to/lastmile_qr_scan"}, "fusion_lat": 0.0, "name": "da48504f8f9471630d7ea5cb6dab17df", "is_reserved": 0, "is_disabled": 0, "type": "electric_scooter"}, {"fusion_lon": 0.0, "lat": 38.89350316666667, "lon": -77.00333916666666, "bike_id": "d6489fd241405c6d7e072ec859d93b76", "rental_uris": {"android": "https://dc.lft.to/lastmile_qr_scan", "ios": "https://dc.lft.to/lastmile_qr_scan"}, "fusion_lat": 0.0, "name": "d6489fd241405c6d7e072ec859d93b76", "is_reserved": 0, "is_disabled": 0, "type": "electric_scooter"}, {"fusion_lon": 0.0, "lat": 38.928545166666666, "lon": -77.03442483333333, "bike_id": "d8a61a764f985598bf9f47dbc75d7b6d", "rental_uris": {"android": "https://dc.lft.to/lastmile_qr_scan", "ios": "https://dc.lft.to/lastmile_qr_scan"}, "fusion_lat": 0.0, "name": "d8a61a764f985598bf9f47dbc75d7b6d", "is_reserved": 0, "is_disabled": 0, "type": "electric_scooter"}, {"fusion_lon": 0.0, "lat": 38.930526, "lon": -77.02326233333334, "bike_id": "fdd629d765996af0c09efa9f595014b0", "rental_uris": {"android": "https://dc.lft.to/lastmile_qr_scan", "ios": "https://dc.lft.to/lastmile_qr_scan"}, "fusion_lat": 0.0, "name": "fdd629d765996af0c09efa9f595014b0", "is_reserved": 0, "is_disabled": 0, "type": "electric_scooter"}, {"fusion_lon": 0.0, "lat": 38.8922265, "lon": -77.03135216666666, "bike_id": "0d86d68476b670ced00534dcde8eee52", "rental_uris": {"android": "https://dc.lft.to/lastmile_qr_scan", "ios": "https://dc.lft.to/lastmile_qr_scan"}, "fusion_lat": 0.0, "name": "0d86d68476b670ced00534dcde8eee52", "is_reserved": 0, "is_disabled": 0, "type": "electric_scooter"}, {"fusion_lon": 0.0, "lat": 38.923622, "lon": -77.0205455, "bike_id": "61f98fbd6bd64edca2394d5465a793a7", "rental_uris": {"android": "https://dc.lft.to/lastmile_qr_scan", "ios": "https://dc.lft.to/lastmile_qr_scan"}, "fusion_lat": 0.0, "name": "61f98fbd6bd64edca2394d5465a793a7", "is_reserved": 0, "is_disabled": 0, "type": "electric_scooter"}, {"fusion_lon": 0.0, "lat": 38.91543983333333, "lon": -77.04446966666667, "bike_id": "eecb9715c3eb07c243083ca5b456c303", "rental_uris": {"android": "https://dc.lft.to/lastmile_qr_scan", "ios": "https://dc.lft.to/lastmile_qr_scan"}, "fusion_lat": 0.0, "name": "eecb9715c3eb07c243083ca5b456c303", "is_reserved": 0, "is_disabled": 0, "type": "electric_scooter"}, {"fusion_lon": 0.0, "lat": 38.90834683333333, "lon": -77.07308283333333, "bike_id": "b2505b1e26d471700e611d1c6fefa570", "rental_uris": {"android": "https://dc.lft.to/lastmile_qr_scan", "ios": "https://dc.lft.to/lastmile_qr_scan"}, "fusion_lat": 0.0, "name": "b2505b1e26d471700e611d1c6fefa570", "is_reserved": 0, "is_disabled": 0, "type": "electric_scooter"}, {"fusion_lon": 0.0, "lat": 38.900552833333336, "lon": -77.0433805, "bike_id": "ffefa8ed2b613a393f730a003eccc930", "rental_uris": {"android": "https://dc.lft.to/lastmile_qr_scan", "ios": "https://dc.lft.to/lastmile_qr_scan"}, "fusion_lat": 0.0, "name": "ffefa8ed2b613a393f730a003eccc930", "is_reserved": 0, "is_disabled": 0, "type": "electric_scooter"}, {"fusion_lon": 0.0, "lat": 38.9191425, "lon": -77.03033766666667, "bike_id": "e82de99df0c7fc61a8f3f1b7d30ebf5a", "rental_uris": {"android": "https://dc.lft.to/lastmile_qr_scan", "ios": "https://dc.lft.to/lastmile_qr_scan"}, "fusion_lat": 0.0, "name": "e82de99df0c7fc61a8f3f1b7d30ebf5a", "is_reserved": 0, "is_disabled": 0, "type": "electric_scooter"}, {"fusion_lon": 0.0, "lat": 38.88955583333333, "lon": -76.98818316666667, "bike_id": "efe810bb32a5464b794faa614ad1c2aa", "rental_uris": {"android": "https://dc.lft.to/lastmile_qr_scan", "ios": "https://dc.lft.to/lastmile_qr_scan"}, "fusion_lat": 0.0, "name": "efe810bb32a5464b794faa614ad1c2aa", "is_reserved": 0, "is_disabled": 0, "type": "electric_scooter"}, {"fusion_lon": 0.0, "lat": 38.9001615, "lon": -76.978361, "bike_id": "754c70e6b439404a212cc1f2242ab755", "rental_uris": {"android": "https://dc.lft.to/lastmile_qr_scan", "ios": "https://dc.lft.to/lastmile_qr_scan"}, "fusion_lat": 0.0, "name": "754c70e6b439404a212cc1f2242ab755", "is_reserved": 0, "is_disabled": 0, "type": "electric_scooter"}, {"fusion_lon": 0.0, "lat": 38.9053025, "lon": -77.04000166666667, "bike_id": "4bd2694a1c77fb300d9d6d6414c50c09", "rental_uris": {"android": "https://dc.lft.to/lastmile_qr_scan", "ios": "https://dc.lft.to/lastmile_qr_scan"}, "fusion_lat": 0.0, "name": "4bd2694a1c77fb300d9d6d6414c50c09", "is_reserved": 0, "is_disabled": 0, "type": "electric_scooter"}, {"fusion_lon": 0.0, "lat": 38.92242016666667, "lon": -77.02427666666667, "bike_id": "bc266f23bc1d92dbd1ecd4624828479c", "rental_uris": {"android": "https://dc.lft.to/lastmile_qr_scan", "ios": "https://dc.lft.to/lastmile_qr_scan"}, "fusion_lat": 0.0, "name": "bc266f23bc1d92dbd1ecd4624828479c", "is_reserved": 0, "is_disabled": 0, "type": "electric_scooter"}, {"fusion_lon": 0.0, "lat": 38.898339, "lon": -76.94641116666666, "bike_id": "6e15c5b04a371d60cc530dd87d6a5ec7", "rental_uris": {"android": "https://dc.lft.to/lastmile_qr_scan", "ios": "https://dc.lft.to/lastmile_qr_scan"}, "fusion_lat": 0.0, "name": "6e15c5b04a371d60cc530dd87d6a5ec7", "is_reserved": 0, "is_disabled": 0, "type": "electric_scooter"}, {"fusion_lon": 0.0, "lat": 38.893802, "lon": -77.03007583333333, "bike_id": "8a138b8b9eb75fda6ec132f0254b1ca9", "rental_uris": {"android": "https://dc.lft.to/lastmile_qr_scan", "ios": "https://dc.lft.to/lastmile_qr_scan"}, "fusion_lat": 0.0, "name": "8a138b8b9eb75fda6ec132f0254b1ca9", "is_reserved": 0, "is_disabled": 0, "type": "electric_scooter"}, {"fusion_lon": 0.0, "lat": 38.89223466666667, "lon": -77.04643466666667, "bike_id": "b053d1a43995eed84a3e6a082b4f2d3d", "rental_uris": {"android": "https://dc.lft.to/lastmile_qr_scan", "ios": "https://dc.lft.to/lastmile_qr_scan"}, "fusion_lat": 0.0, "name": "b053d1a43995eed84a3e6a082b4f2d3d", "is_reserved": 0, "is_disabled": 0, "type": "electric_scooter"}, {"fusion_lon": 0.0, "lat": 38.87941816666667, "lon": -77.00369383333333, "bike_id": "3ffbc2d2edee03d23ff73ee117c8e4c0", "rental_uris": {"android": "https://dc.lft.to/lastmile_qr_scan", "ios": "https://dc.lft.to/lastmile_qr_scan"}, "fusion_lat": 0.0, "name": "3ffbc2d2edee03d23ff73ee117c8e4c0", "is_reserved": 0, "is_disabled": 0, "type": "electric_scooter"}, {"fusion_lon": 0.0, "lat": 38.8987535, "lon": -76.9318665, "bike_id": "2150f883b70832c7dcdd9c45acef3293", "rental_uris": {"android": "https://dc.lft.to/lastmile_qr_scan", "ios": "https://dc.lft.to/lastmile_qr_scan"}, "fusion_lat": 0.0, "name": "2150f883b70832c7dcdd9c45acef3293", "is_reserved": 0, "is_disabled": 0, "type": "electric_bike"}, {"fusion_lon": 0.0, "lat": 38.901867333333335, "lon": -77.02185183333333, "bike_id": "f236d7f7ca84b1782fbb824828210016", "rental_uris": {"android": "https://dc.lft.to/lastmile_qr_scan", "ios": "https://dc.lft.to/lastmile_qr_scan"}, "fusion_lat": 0.0, "name": "f236d7f7ca84b1782fbb824828210016", "is_reserved": 0, "is_disabled": 0, "type": "electric_scooter"}, {"fusion_lon": 0.0, "lat": 38.89005733333333, "lon": -76.93739833333333, "bike_id": "e690c20043cbeabfce6a45db1cb43a15", "rental_uris": {"android": "https://dc.lft.to/lastmile_qr_scan", "ios": "https://dc.lft.to/lastmile_qr_scan"}, "fusion_lat": 0.0, "name": "e690c20043cbeabfce6a45db1cb43a15", "is_reserved": 0, "is_disabled": 0, "type": "electric_scooter"}, {"fusion_lon": 0.0, "lat": 38.883910166666666, "lon": -77.02595916666667, "bike_id": "8a6e4c93795998bbe38e55748650e911", "rental_uris": {"android": "https://dc.lft.to/lastmile_qr_scan", "ios": "https://dc.lft.to/lastmile_qr_scan"}, "fusion_lat": 0.0, "name": "8a6e4c93795998bbe38e55748650e911", "is_reserved": 0, "is_disabled": 0, "type": "electric_scooter"}, {"fusion_lon": 0.0, "lat": 38.93852916666667, "lon": -77.02522916666666, "bike_id": "7ddda239e164432c4b84fe4767c8e36a", "rental_uris": {"android": "https://dc.lft.to/lastmile_qr_scan", "ios": "https://dc.lft.to/lastmile_qr_scan"}, "fusion_lat": 0.0, "name": "7ddda239e164432c4b84fe4767c8e36a", "is_reserved": 0, "is_disabled": 0, "type": "electric_scooter"}, {"fusion_lon": 0.0, "lat": 38.89619616666667, "lon": -77.003419, "bike_id": "718ec4ecea73ede7edcc3ec71a6c2ba2", "rental_uris": {"android": "https://dc.lft.to/lastmile_qr_scan", "ios": "https://dc.lft.to/lastmile_qr_scan"}, "fusion_lat": 0.0, "name": "718ec4ecea73ede7edcc3ec71a6c2ba2", "is_reserved": 0, "is_disabled": 0, "type": "electric_scooter"}, {"fusion_lon": 0.0, "lat": 38.93855083333333, "lon": -77.02472466666667, "bike_id": "3e4e0a4f43beb5735b3d4e1be621d994", "rental_uris": {"android": "https://dc.lft.to/lastmile_qr_scan", "ios": "https://dc.lft.to/lastmile_qr_scan"}, "fusion_lat": 0.0, "name": "3e4e0a4f43beb5735b3d4e1be621d994", "is_reserved": 0, "is_disabled": 0, "type": "electric_bike"}, {"fusion_lon": 0.0, "lat": 38.89577516666667, "lon": -76.94842433333334, "bike_id": "13357c002f1861f92859e2bad7858994", "rental_uris": {"android": "https://dc.lft.to/lastmile_qr_scan", "ios": "https://dc.lft.to/lastmile_qr_scan"}, "fusion_lat": 0.0, "name": "13357c002f1861f92859e2bad7858994", "is_reserved": 0, "is_disabled": 0, "type": "electric_scooter"}, {"fusion_lon": 0.0, "lat": 38.942025, "lon": -77.0183445, "bike_id": "65ae1d0e7b0cbfdff82769bda4bc218a", "rental_uris": {"android": "https://dc.lft.to/lastmile_qr_scan", "ios": "https://dc.lft.to/lastmile_qr_scan"}, "fusion_lat": 0.0, "name": "65ae1d0e7b0cbfdff82769bda4bc218a", "is_reserved": 0, "is_disabled": 0, "type": "electric_scooter"}, {"fusion_lon": 0.0, "lat": 38.905641, "lon": -77.00605266666666, "bike_id": "3f86c2f9145f7ed95a3a1e16b2c11ca4", "rental_uris": {"android": "https://dc.lft.to/lastmile_qr_scan", "ios": "https://dc.lft.to/lastmile_qr_scan"}, "fusion_lat": 0.0, "name": "3f86c2f9145f7ed95a3a1e16b2c11ca4", "is_reserved": 0, "is_disabled": 0, "type": "electric_scooter"}, {"fusion_lon": 0.0, "lat": 38.87290866666667, "lon": -77.0098915, "bike_id": "4bb63ecc81b21ed45b2f6c6ae8e2318e", "rental_uris": {"android": "https://dc.lft.to/lastmile_qr_scan", "ios": "https://dc.lft.to/lastmile_qr_scan"}, "fusion_lat": 0.0, "name": "4bb63ecc81b21ed45b2f6c6ae8e2318e", "is_reserved": 0, "is_disabled": 0, "type": "electric_scooter"}, {"fusion_lon": 0.0, "lat": 38.942359333333336, "lon": -77.02572366666666, "bike_id": "715705772e17b9ca4f1b30aa039878f0", "rental_uris": {"android": "https://dc.lft.to/lastmile_qr_scan", "ios": "https://dc.lft.to/lastmile_qr_scan"}, "fusion_lat": 0.0, "name": "715705772e17b9ca4f1b30aa039878f0", "is_reserved": 0, "is_disabled": 0, "type": "electric_scooter"}, {"fusion_lon": 0.0, "lat": 38.92544216666667, "lon": -77.00068266666666, "bike_id": "628c33a4ee3d690c396fd839e75d61fd", "rental_uris": {"android": "https://dc.lft.to/lastmile_qr_scan", "ios": "https://dc.lft.to/lastmile_qr_scan"}, "fusion_lat": 0.0, "name": "628c33a4ee3d690c396fd839e75d61fd", "is_reserved": 0, "is_disabled": 0, "type": "electric_scooter"}, {"fusion_lon": 0.0, "lat": 38.928203833333335, "lon": -77.02301, "bike_id": "6c94fd0c7e5f83a7428ec4b042b8e353", "rental_uris": {"android": "https://dc.lft.to/lastmile_qr_scan", "ios": "https://dc.lft.to/lastmile_qr_scan"}, "fusion_lat": 0.0, "name": "6c94fd0c7e5f83a7428ec4b042b8e353", "is_reserved": 0, "is_disabled": 0, "type": "electric_scooter"}, {"fusion_lon": 0.0, "lat": 38.87519783333333, "lon": -77.01230616666666, "bike_id": "4643b5b13a9b3129d78fdbeef26b045c", "rental_uris": {"android": "https://dc.lft.to/lastmile_qr_scan", "ios": "https://dc.lft.to/lastmile_qr_scan"}, "fusion_lat": 0.0, "name": "4643b5b13a9b3129d78fdbeef26b045c", "is_reserved": 0, "is_disabled": 0, "type": "electric_scooter"}, {"fusion_lon": 0.0, "lat": 38.90570316666667, "lon": -77.029889, "bike_id": "04faff87cc778d741b9595acfff79467", "rental_uris": {"android": "https://dc.lft.to/lastmile_qr_scan", "ios": "https://dc.lft.to/lastmile_qr_scan"}, "fusion_lat": 0.0, "name": "04faff87cc778d741b9595acfff79467", "is_reserved": 0, "is_disabled": 0, "type": "electric_scooter"}, {"fusion_lon": 0.0, "lat": 38.9180195, "lon": -77.03433833333334, "bike_id": "529a6f40e60fca205229cc3e5e9313ec", "rental_uris": {"android": "https://dc.lft.to/lastmile_qr_scan", "ios": "https://dc.lft.to/lastmile_qr_scan"}, "fusion_lat": 0.0, "name": "529a6f40e60fca205229cc3e5e9313ec", "is_reserved": 0, "is_disabled": 0, "type": "electric_scooter"}, {"fusion_lon": 0.0, "lat": 38.89477316666667, "lon": -77.02340966666667, "bike_id": "e1a1a159055be6b40d8a2e801cf6784d", "rental_uris": {"android": "https://dc.lft.to/lastmile_qr_scan", "ios": "https://dc.lft.to/lastmile_qr_scan"}, "fusion_lat": 0.0, "name": "e1a1a159055be6b40d8a2e801cf6784d", "is_reserved": 0, "is_disabled": 0, "type": "electric_bike"}, {"fusion_lon": 0.0, "lat": 38.8988455, "lon": -77.03279066666667, "bike_id": "1325fbb462cce4692bdacfb64382c0e8", "rental_uris": {"android": "https://dc.lft.to/lastmile_qr_scan", "ios": "https://dc.lft.to/lastmile_qr_scan"}, "fusion_lat": 0.0, "name": "1325fbb462cce4692bdacfb64382c0e8", "is_reserved": 0, "is_disabled": 0, "type": "electric_scooter"}, {"fusion_lon": 0.0, "lat": 38.92495016666667, "lon": -77.02401316666666, "bike_id": "d8d556490115fca7eb8711171034ae68", "rental_uris": {"android": "https://dc.lft.to/lastmile_qr_scan", "ios": "https://dc.lft.to/lastmile_qr_scan"}, "fusion_lat": 0.0, "name": "d8d556490115fca7eb8711171034ae68", "is_reserved": 0, "is_disabled": 0, "type": "electric_scooter"}, {"fusion_lon": 0.0, "lat": 38.903528, "lon": -77.043842, "bike_id": "bdfd8f15cf6c3758f1b950b0d0924d40", "rental_uris": {"android": "https://dc.lft.to/lastmile_qr_scan", "ios": "https://dc.lft.to/lastmile_qr_scan"}, "fusion_lat": 0.0, "name": "bdfd8f15cf6c3758f1b950b0d0924d40", "is_reserved": 0, "is_disabled": 0, "type": "electric_scooter"}, {"fusion_lon": 0.0, "lat": 38.9279385, "lon": -77.0371805, "bike_id": "675b1847fca7b8ff5dfef7394dc545bb", "rental_uris": {"android": "https://dc.lft.to/lastmile_qr_scan", "ios": "https://dc.lft.to/lastmile_qr_scan"}, "fusion_lat": 0.0, "name": "675b1847fca7b8ff5dfef7394dc545bb", "is_reserved": 0, "is_disabled": 0, "type": "electric_scooter"}, {"fusion_lon": 0.0, "lat": 38.921300333333335, "lon": -77.041296, "bike_id": "6970275e92f4383efec61ec2fd7d3530", "rental_uris": {"android": "https://dc.lft.to/lastmile_qr_scan", "ios": "https://dc.lft.to/lastmile_qr_scan"}, "fusion_lat": 0.0, "name": "6970275e92f4383efec61ec2fd7d3530", "is_reserved": 0, "is_disabled": 0, "type": "electric_scooter"}, {"fusion_lon": 0.0, "lat": 38.94173133333334, "lon": -77.0315325, "bike_id": "76f78e52d55a625a04811cd99b28d63f", "rental_uris": {"android": "https://dc.lft.to/lastmile_qr_scan", "ios": "https://dc.lft.to/lastmile_qr_scan"}, "fusion_lat": 0.0, "name": "76f78e52d55a625a04811cd99b28d63f", "is_reserved": 0, "is_disabled": 0, "type": "electric_scooter"}, {"fusion_lon": 0.0, "lat": 38.90141216666667, "lon": -77.03370916666667, "bike_id": "c21f482f28e53eb7e84a4f9074196461", "rental_uris": {"android": "https://dc.lft.to/lastmile_qr_scan", "ios": "https://dc.lft.to/lastmile_qr_scan"}, "fusion_lat": 0.0, "name": "c21f482f28e53eb7e84a4f9074196461", "is_reserved": 0, "is_disabled": 0, "type": "electric_scooter"}, {"fusion_lon": 0.0, "lat": 38.9941045, "lon": -77.01798833333334, "bike_id": "fd04b23f67f37b43848f3a85072b5986", "rental_uris": {"android": "https://dc.lft.to/lastmile_qr_scan", "ios": "https://dc.lft.to/lastmile_qr_scan"}, "fusion_lat": 0.0, "name": "fd04b23f67f37b43848f3a85072b5986", "is_reserved": 0, "is_disabled": 0, "type": "electric_bike"}, {"fusion_lon": 0.0, "lat": 38.88715583333333, "lon": -76.98339266666666, "bike_id": "8ad80d4cfa5168866f92800946af3bd3", "rental_uris": {"android": "https://dc.lft.to/lastmile_qr_scan", "ios": "https://dc.lft.to/lastmile_qr_scan"}, "fusion_lat": 0.0, "name": "8ad80d4cfa5168866f92800946af3bd3", "is_reserved": 0, "is_disabled": 0, "type": "electric_scooter"}, {"fusion_lon": 0.0, "lat": 38.94472, "lon": -76.98686516666666, "bike_id": "7ef4f250c3687165592ccbbd67aed559", "rental_uris": {"android": "https://dc.lft.to/lastmile_qr_scan", "ios": "https://dc.lft.to/lastmile_qr_scan"}, "fusion_lat": 0.0, "name": "7ef4f250c3687165592ccbbd67aed559", "is_reserved": 0, "is_disabled": 0, "type": "electric_bike"}, {"fusion_lon": 0.0, "lat": 38.92719816666666, "lon": -77.05373966666667, "bike_id": "b179fe7981f49e23bc94e2f09650fd4f", "rental_uris": {"android": "https://dc.lft.to/lastmile_qr_scan", "ios": "https://dc.lft.to/lastmile_qr_scan"}, "fusion_lat": 0.0, "name": "b179fe7981f49e23bc94e2f09650fd4f", "is_reserved": 0, "is_disabled": 0, "type": "electric_scooter"}, {"fusion_lon": 0.0, "lat": 38.893581166666664, "lon": -77.00333516666667, "bike_id": "30897ca01fbc53c99d9299141e54f650", "rental_uris": {"android": "https://dc.lft.to/lastmile_qr_scan", "ios": "https://dc.lft.to/lastmile_qr_scan"}, "fusion_lat": 0.0, "name": "30897ca01fbc53c99d9299141e54f650", "is_reserved": 0, "is_disabled": 0, "type": "electric_scooter"}, {"fusion_lon": 0.0, "lat": 38.92350183333333, "lon": -77.01892733333334, "bike_id": "f48e4c359d2075c93c635e77ed0a3599", "rental_uris": {"android": "https://dc.lft.to/lastmile_qr_scan", "ios": "https://dc.lft.to/lastmile_qr_scan"}, "fusion_lat": 0.0, "name": "f48e4c359d2075c93c635e77ed0a3599", "is_reserved": 0, "is_disabled": 0, "type": "electric_scooter"}, {"fusion_lon": 0.0, "lat": 38.884865, "lon": -77.02633216666666, "bike_id": "cc4754e4c7a9735d4ca68f50a090ca7b", "rental_uris": {"android": "https://dc.lft.to/lastmile_qr_scan", "ios": "https://dc.lft.to/lastmile_qr_scan"}, "fusion_lat": 0.0, "name": "cc4754e4c7a9735d4ca68f50a090ca7b", "is_reserved": 0, "is_disabled": 0, "type": "electric_scooter"}, {"fusion_lon": 0.0, "lat": 38.9013115, "lon": -77.04309483333333, "bike_id": "48cf99b25ddcb8157c3eba726e4be7fb", "rental_uris": {"android": "https://dc.lft.to/lastmile_qr_scan", "ios": "https://dc.lft.to/lastmile_qr_scan"}, "fusion_lat": 0.0, "name": "48cf99b25ddcb8157c3eba726e4be7fb", "is_reserved": 0, "is_disabled": 0, "type": "electric_scooter"}, {"fusion_lon": 0.0, "lat": 38.919136333333334, "lon": -77.0295015, "bike_id": "5c80805592ac1278ea7cc963861ff819", "rental_uris": {"android": "https://dc.lft.to/lastmile_qr_scan", "ios": "https://dc.lft.to/lastmile_qr_scan"}, "fusion_lat": 0.0, "name": "5c80805592ac1278ea7cc963861ff819", "is_reserved": 0, "is_disabled": 0, "type": "electric_scooter"}, {"fusion_lon": 0.0, "lat": 38.895566333333335, "lon": -77.04150783333333, "bike_id": "8cdf0b66f0864a29b4e344ea2b10c17c", "rental_uris": {"android": "https://dc.lft.to/lastmile_qr_scan", "ios": "https://dc.lft.to/lastmile_qr_scan"}, "fusion_lat": 0.0, "name": "8cdf0b66f0864a29b4e344ea2b10c17c", "is_reserved": 0, "is_disabled": 0, "type": "electric_scooter"}, {"fusion_lon": 0.0, "lat": 38.92327216666666, "lon": -77.01957466666667, "bike_id": "94808cdae66d08c4fa3d3839a60604c8", "rental_uris": {"android": "https://dc.lft.to/lastmile_qr_scan", "ios": "https://dc.lft.to/lastmile_qr_scan"}, "fusion_lat": 0.0, "name": "94808cdae66d08c4fa3d3839a60604c8", "is_reserved": 0, "is_disabled": 0, "type": "electric_scooter"}, {"fusion_lon": 0.0, "lat": 38.92989583333333, "lon": -77.01207133333334, "bike_id": "d43308f5a0ac4bb709d2f43519fde486", "rental_uris": {"android": "https://dc.lft.to/lastmile_qr_scan", "ios": "https://dc.lft.to/lastmile_qr_scan"}, "fusion_lat": 0.0, "name": "d43308f5a0ac4bb709d2f43519fde486", "is_reserved": 0, "is_disabled": 0, "type": "electric_scooter"}, {"fusion_lon": 0.0, "lat": 38.90058633333334, "lon": -77.00753983333334, "bike_id": "07c7b368af1c6abef613444445d6e8e4", "rental_uris": {"android": "https://dc.lft.to/lastmile_qr_scan", "ios": "https://dc.lft.to/lastmile_qr_scan"}, "fusion_lat": 0.0, "name": "07c7b368af1c6abef613444445d6e8e4", "is_reserved": 0, "is_disabled": 0, "type": "electric_scooter"}, {"fusion_lon": 0.0, "lat": 38.91982433333333, "lon": -77.071134, "bike_id": "a483a627a4e90f5e5c1548867674a104", "rental_uris": {"android": "https://dc.lft.to/lastmile_qr_scan", "ios": "https://dc.lft.to/lastmile_qr_scan"}, "fusion_lat": 0.0, "name": "a483a627a4e90f5e5c1548867674a104", "is_reserved": 0, "is_disabled": 0, "type": "electric_scooter"}, {"fusion_lon": 0.0, "lat": 38.906819, "lon": -77.04491966666667, "bike_id": "3c17dfa05ab02cca6be6f94c9c54be0d", "rental_uris": {"android": "https://dc.lft.to/lastmile_qr_scan", "ios": "https://dc.lft.to/lastmile_qr_scan"}, "fusion_lat": 0.0, "name": "3c17dfa05ab02cca6be6f94c9c54be0d", "is_reserved": 0, "is_disabled": 0, "type": "electric_scooter"}, {"fusion_lon": 0.0, "lat": 38.90360166666667, "lon": -77.03859766666666, "bike_id": "dad453067f838b44bdb66d16818b4ff6", "rental_uris": {"android": "https://dc.lft.to/lastmile_qr_scan", "ios": "https://dc.lft.to/lastmile_qr_scan"}, "fusion_lat": 0.0, "name": "dad453067f838b44bdb66d16818b4ff6", "is_reserved": 0, "is_disabled": 0, "type": "electric_scooter"}, {"fusion_lon": 0.0, "lat": 38.900082, "lon": -77.04655566666666, "bike_id": "caaabab2bc075379538e718083cb7714", "rental_uris": {"android": "https://dc.lft.to/lastmile_qr_scan", "ios": "https://dc.lft.to/lastmile_qr_scan"}, "fusion_lat": 0.0, "name": "caaabab2bc075379538e718083cb7714", "is_reserved": 0, "is_disabled": 0, "type": "electric_scooter"}, {"fusion_lon": 0.0, "lat": 38.9049925, "lon": -77.06007416666667, "bike_id": "d4a57bd4d5c429859a96e63b5cfce8f7", "rental_uris": {"android": "https://dc.lft.to/lastmile_qr_scan", "ios": "https://dc.lft.to/lastmile_qr_scan"}, "fusion_lat": 0.0, "name": "d4a57bd4d5c429859a96e63b5cfce8f7", "is_reserved": 0, "is_disabled": 0, "type": "electric_bike"}, {"fusion_lon": 0.0, "lat": 38.92426583333334, "lon": -77.02014366666667, "bike_id": "eefb2f59772dd7c4dd10fc42ddc0c332", "rental_uris": {"android": "https://dc.lft.to/lastmile_qr_scan", "ios": "https://dc.lft.to/lastmile_qr_scan"}, "fusion_lat": 0.0, "name": "eefb2f59772dd7c4dd10fc42ddc0c332", "is_reserved": 0, "is_disabled": 0, "type": "electric_scooter"}, {"fusion_lon": 0.0, "lat": 38.919228333333336, "lon": -77.03489583333334, "bike_id": "151961ae573138aedbe4d60872f9c4f8", "rental_uris": {"android": "https://dc.lft.to/lastmile_qr_scan", "ios": "https://dc.lft.to/lastmile_qr_scan"}, "fusion_lat": 0.0, "name": "151961ae573138aedbe4d60872f9c4f8", "is_reserved": 0, "is_disabled": 0, "type": "electric_scooter"}, {"fusion_lon": 0.0, "lat": 38.994521666666664, "lon": -77.02893783333333, "bike_id": "2a6be481618dc836c078d5b8d48ae674", "rental_uris": {"android": "https://dc.lft.to/lastmile_qr_scan", "ios": "https://dc.lft.to/lastmile_qr_scan"}, "fusion_lat": 0.0, "name": "2a6be481618dc836c078d5b8d48ae674", "is_reserved": 0, "is_disabled": 0, "type": "electric_bike"}, {"fusion_lon": 0.0, "lat": 38.908444333333335, "lon": -77.04016833333333, "bike_id": "30a0a44dd760587fe8b5f1e03a34f5e0", "rental_uris": {"android": "https://dc.lft.to/lastmile_qr_scan", "ios": "https://dc.lft.to/lastmile_qr_scan"}, "fusion_lat": 0.0, "name": "30a0a44dd760587fe8b5f1e03a34f5e0", "is_reserved": 0, "is_disabled": 0, "type": "electric_scooter"}, {"fusion_lon": 0.0, "lat": 38.921483333333335, "lon": -77.034078, "bike_id": "3482c4b83dfaa44cc38d32d15ef2e6bf", "rental_uris": {"android": "https://dc.lft.to/lastmile_qr_scan", "ios": "https://dc.lft.to/lastmile_qr_scan"}, "fusion_lat": 0.0, "name": "3482c4b83dfaa44cc38d32d15ef2e6bf", "is_reserved": 0, "is_disabled": 0, "type": "electric_scooter"}, {"fusion_lon": 0.0, "lat": 38.89424, "lon": -76.99771816666667, "bike_id": "27d57d98238b2e733cf8983c44c4d197", "rental_uris": {"android": "https://dc.lft.to/lastmile_qr_scan", "ios": "https://dc.lft.to/lastmile_qr_scan"}, "fusion_lat": 0.0, "name": "27d57d98238b2e733cf8983c44c4d197", "is_reserved": 0, "is_disabled": 0, "type": "electric_scooter"}, {"fusion_lon": 0.0, "lat": 38.830686, "lon": -77.00200216666667, "bike_id": "ff6c7c8dfb8dd6f3ab64ab3ded8a2f9f", "rental_uris": {"android": "https://dc.lft.to/lastmile_qr_scan", "ios": "https://dc.lft.to/lastmile_qr_scan"}, "fusion_lat": 0.0, "name": "ff6c7c8dfb8dd6f3ab64ab3ded8a2f9f", "is_reserved": 0, "is_disabled": 0, "type": "electric_scooter"}, {"fusion_lon": 0.0, "lat": 38.888378333333335, "lon": -76.97721866666667, "bike_id": "eeee7025b7eb04ad1f4560f509f0a72b", "rental_uris": {"android": "https://dc.lft.to/lastmile_qr_scan", "ios": "https://dc.lft.to/lastmile_qr_scan"}, "fusion_lat": 0.0, "name": "eeee7025b7eb04ad1f4560f509f0a72b", "is_reserved": 0, "is_disabled": 0, "type": "electric_scooter"}, {"fusion_lon": 0.0, "lat": 38.92447166666667, "lon": -77.04032233333334, "bike_id": "cb2f51c2996532262e4b4afe9b264264", "rental_uris": {"android": "https://dc.lft.to/lastmile_qr_scan", "ios": "https://dc.lft.to/lastmile_qr_scan"}, "fusion_lat": 0.0, "name": "cb2f51c2996532262e4b4afe9b264264", "is_reserved": 0, "is_disabled": 0, "type": "electric_scooter"}, {"fusion_lon": 0.0, "lat": 38.90218316666667, "lon": -77.0390775, "bike_id": "f3944eda098ddc9717c58ec29a50809d", "rental_uris": {"android": "https://dc.lft.to/lastmile_qr_scan", "ios": "https://dc.lft.to/lastmile_qr_scan"}, "fusion_lat": 0.0, "name": "f3944eda098ddc9717c58ec29a50809d", "is_reserved": 0, "is_disabled": 0, "type": "electric_bike"}, {"fusion_lon": 0.0, "lat": 38.9923215, "lon": -77.023808, "bike_id": "c7e2467a952cf6379d79360c7e908d2e", "rental_uris": {"android": "https://dc.lft.to/lastmile_qr_scan", "ios": "https://dc.lft.to/lastmile_qr_scan"}, "fusion_lat": 0.0, "name": "c7e2467a952cf6379d79360c7e908d2e", "is_reserved": 0, "is_disabled": 0, "type": "electric_bike"}, {"fusion_lon": 0.0, "lat": 38.92869816666666, "lon": -77.03324816666667, "bike_id": "1929042f6d6d32c20bbb04045fb96495", "rental_uris": {"android": "https://dc.lft.to/lastmile_qr_scan", "ios": "https://dc.lft.to/lastmile_qr_scan"}, "fusion_lat": 0.0, "name": "1929042f6d6d32c20bbb04045fb96495", "is_reserved": 0, "is_disabled": 0, "type": "electric_scooter"}, {"fusion_lon": 0.0, "lat": 38.913533, "lon": -77.019947, "bike_id": "f75bb6f6cba46881829b96fd35168881", "rental_uris": {"android": "https://dc.lft.to/lastmile_qr_scan", "ios": "https://dc.lft.to/lastmile_qr_scan"}, "fusion_lat": 0.0, "name": "f75bb6f6cba46881829b96fd35168881", "is_reserved": 0, "is_disabled": 0, "type": "electric_scooter"}, {"fusion_lon": 0.0, "lat": 38.90293616666666, "lon": -77.04686, "bike_id": "faebb750b47735dbb8b09517d2df3070", "rental_uris": {"android": "https://dc.lft.to/lastmile_qr_scan", "ios": "https://dc.lft.to/lastmile_qr_scan"}, "fusion_lat": 0.0, "name": "faebb750b47735dbb8b09517d2df3070", "is_reserved": 0, "is_disabled": 0, "type": "electric_scooter"}, {"fusion_lon": 0.0, "lat": 38.90530066666667, "lon": -77.034204, "bike_id": "95cd5ca2a05eaeaf15f4efc08d4d9c39", "rental_uris": {"android": "https://dc.lft.to/lastmile_qr_scan", "ios": "https://dc.lft.to/lastmile_qr_scan"}, "fusion_lat": 0.0, "name": "95cd5ca2a05eaeaf15f4efc08d4d9c39", "is_reserved": 0, "is_disabled": 0, "type": "electric_scooter"}, {"fusion_lon": 0.0, "lat": 38.892248, "lon": -77.03197533333334, "bike_id": "1a8d33f0f1c59ff2788eab41a857991a", "rental_uris": {"android": "https://dc.lft.to/lastmile_qr_scan", "ios": "https://dc.lft.to/lastmile_qr_scan"}, "fusion_lat": 0.0, "name": "1a8d33f0f1c59ff2788eab41a857991a", "is_reserved": 0, "is_disabled": 0, "type": "electric_scooter"}, {"fusion_lon": 0.0, "lat": 38.960257166666665, "lon": -77.03011683333334, "bike_id": "ed3e274a9d3590806a1246d589cdf517", "rental_uris": {"android": "https://dc.lft.to/lastmile_qr_scan", "ios": "https://dc.lft.to/lastmile_qr_scan"}, "fusion_lat": 0.0, "name": "ed3e274a9d3590806a1246d589cdf517", "is_reserved": 0, "is_disabled": 0, "type": "electric_scooter"}, {"fusion_lon": 0.0, "lat": 38.926862666666665, "lon": -77.02965166666667, "bike_id": "ba93b5c7aabbda07ca7af8b8cc605292", "rental_uris": {"android": "https://dc.lft.to/lastmile_qr_scan", "ios": "https://dc.lft.to/lastmile_qr_scan"}, "fusion_lat": 0.0, "name": "ba93b5c7aabbda07ca7af8b8cc605292", "is_reserved": 0, "is_disabled": 0, "type": "electric_scooter"}, {"fusion_lon": 0.0, "lat": 38.84810316666667, "lon": -76.9527255, "bike_id": "6abc31255ed55b6221a47529d6bf39f6", "rental_uris": {"android": "https://dc.lft.to/lastmile_qr_scan", "ios": "https://dc.lft.to/lastmile_qr_scan"}, "fusion_lat": 0.0, "name": "6abc31255ed55b6221a47529d6bf39f6", "is_reserved": 0, "is_disabled": 0, "type": "electric_bike"}, {"fusion_lon": 0.0, "lat": 38.918737, "lon": -76.96437933333333, "bike_id": "ee35383aa19959b428b639248d294536", "rental_uris": {"android": "https://dc.lft.to/lastmile_qr_scan", "ios": "https://dc.lft.to/lastmile_qr_scan"}, "fusion_lat": 0.0, "name": "ee35383aa19959b428b639248d294536", "is_reserved": 0, "is_disabled": 0, "type": "electric_bike"}, {"fusion_lon": 0.0, "lat": 38.88490016666667, "lon": -77.00712733333333, "bike_id": "242031d1b19173fda440acfa72b4411f", "rental_uris": {"android": "https://dc.lft.to/lastmile_qr_scan", "ios": "https://dc.lft.to/lastmile_qr_scan"}, "fusion_lat": 0.0, "name": "242031d1b19173fda440acfa72b4411f", "is_reserved": 0, "is_disabled": 0, "type": "electric_scooter"}, {"fusion_lon": 0.0, "lat": 38.900496833333335, "lon": -77.03941083333333, "bike_id": "acf89afe7f818967fa272eaa3f274a7c", "rental_uris": {"android": "https://dc.lft.to/lastmile_qr_scan", "ios": "https://dc.lft.to/lastmile_qr_scan"}, "fusion_lat": 0.0, "name": "acf89afe7f818967fa272eaa3f274a7c", "is_reserved": 0, "is_disabled": 0, "type": "electric_scooter"}, {"fusion_lon": 0.0, "lat": 38.897238, "lon": -77.0319955, "bike_id": "efb33c9bd45a505c84edd345a4303884", "rental_uris": {"android": "https://dc.lft.to/lastmile_qr_scan", "ios": "https://dc.lft.to/lastmile_qr_scan"}, "fusion_lat": 0.0, "name": "efb33c9bd45a505c84edd345a4303884", "is_reserved": 0, "is_disabled": 0, "type": "electric_scooter"}, {"fusion_lon": 0.0, "lat": 38.892270333333336, "lon": -77.03203266666667, "bike_id": "b806c81614e856f587beac3d14b909a4", "rental_uris": {"android": "https://dc.lft.to/lastmile_qr_scan", "ios": "https://dc.lft.to/lastmile_qr_scan"}, "fusion_lat": 0.0, "name": "b806c81614e856f587beac3d14b909a4", "is_reserved": 0, "is_disabled": 0, "type": "electric_scooter"}, {"fusion_lon": 0.0, "lat": 38.9222535, "lon": -77.02114783333333, "bike_id": "ff3a0215cca6e6506bde7ba977c55a65", "rental_uris": {"android": "https://dc.lft.to/lastmile_qr_scan", "ios": "https://dc.lft.to/lastmile_qr_scan"}, "fusion_lat": 0.0, "name": "ff3a0215cca6e6506bde7ba977c55a65", "is_reserved": 0, "is_disabled": 0, "type": "electric_scooter"}, {"fusion_lon": 0.0, "lat": 38.922474, "lon": -77.035231, "bike_id": "0d3a6038576fdcff4e9b905ac672c80c", "rental_uris": {"android": "https://dc.lft.to/lastmile_qr_scan", "ios": "https://dc.lft.to/lastmile_qr_scan"}, "fusion_lat": 0.0, "name": "0d3a6038576fdcff4e9b905ac672c80c", "is_reserved": 0, "is_disabled": 0, "type": "electric_scooter"}, {"fusion_lon": 0.0, "lat": 38.909205166666666, "lon": -77.07281516666667, "bike_id": "dbfcfa4c074dea985e50d835b4e0e039", "rental_uris": {"android": "https://dc.lft.to/lastmile_qr_scan", "ios": "https://dc.lft.to/lastmile_qr_scan"}, "fusion_lat": 0.0, "name": "dbfcfa4c074dea985e50d835b4e0e039", "is_reserved": 0, "is_disabled": 0, "type": "electric_scooter"}, {"fusion_lon": 0.0, "lat": 38.88478466666667, "lon": -77.025695, "bike_id": "9321ea443fb97672b794e2076ac5a271", "rental_uris": {"android": "https://dc.lft.to/lastmile_qr_scan", "ios": "https://dc.lft.to/lastmile_qr_scan"}, "fusion_lat": 0.0, "name": "9321ea443fb97672b794e2076ac5a271", "is_reserved": 0, "is_disabled": 0, "type": "electric_scooter"}, {"fusion_lon": 0.0, "lat": 38.902355666666665, "lon": -77.01734033333334, "bike_id": "e9fce32ebea3295e7fbd896145ccb252", "rental_uris": {"android": "https://dc.lft.to/lastmile_qr_scan", "ios": "https://dc.lft.to/lastmile_qr_scan"}, "fusion_lat": 0.0, "name": "e9fce32ebea3295e7fbd896145ccb252", "is_reserved": 0, "is_disabled": 0, "type": "electric_scooter"}, {"fusion_lon": 0.0, "lat": 38.8965405, "lon": -77.05015716666666, "bike_id": "a4f7096b9325e2b063e48ea33b75d947", "rental_uris": {"android": "https://dc.lft.to/lastmile_qr_scan", "ios": "https://dc.lft.to/lastmile_qr_scan"}, "fusion_lat": 0.0, "name": "a4f7096b9325e2b063e48ea33b75d947", "is_reserved": 0, "is_disabled": 0, "type": "electric_scooter"}, {"fusion_lon": 0.0, "lat": 38.916874666666665, "lon": -77.02902033333334, "bike_id": "bd27af37cf90b62b15a41e146c50860c", "rental_uris": {"android": "https://dc.lft.to/lastmile_qr_scan", "ios": "https://dc.lft.to/lastmile_qr_scan"}, "fusion_lat": 0.0, "name": "bd27af37cf90b62b15a41e146c50860c", "is_reserved": 0, "is_disabled": 0, "type": "electric_scooter"}, {"fusion_lon": 0.0, "lat": 38.8827165, "lon": -76.9323505, "bike_id": "3f3a3e7e51aa0a6accec0aa5660fb3a9", "rental_uris": {"android": "https://dc.lft.to/lastmile_qr_scan", "ios": "https://dc.lft.to/lastmile_qr_scan"}, "fusion_lat": 0.0, "name": "3f3a3e7e51aa0a6accec0aa5660fb3a9", "is_reserved": 0, "is_disabled": 0, "type": "electric_bike"}, {"fusion_lon": 0.0, "lat": 38.84700633333333, "lon": -76.996098, "bike_id": "d1a686eab234d877debcda575837b751", "rental_uris": {"android": "https://dc.lft.to/lastmile_qr_scan", "ios": "https://dc.lft.to/lastmile_qr_scan"}, "fusion_lat": 0.0, "name": "d1a686eab234d877debcda575837b751", "is_reserved": 0, "is_disabled": 0, "type": "electric_bike"}, {"fusion_lon": 0.0, "lat": 38.896891333333336, "lon": -76.932263, "bike_id": "8e5b90bc9fdbb093601a7726f9795d98", "rental_uris": {"android": "https://dc.lft.to/lastmile_qr_scan", "ios": "https://dc.lft.to/lastmile_qr_scan"}, "fusion_lat": 0.0, "name": "8e5b90bc9fdbb093601a7726f9795d98", "is_reserved": 0, "is_disabled": 0, "type": "electric_bike"}, {"fusion_lon": 0.0, "lat": 38.900694666666666, "lon": -77.009142, "bike_id": "2d1ce5b9e6170817e2824f9154587e3f", "rental_uris": {"android": "https://dc.lft.to/lastmile_qr_scan", "ios": "https://dc.lft.to/lastmile_qr_scan"}, "fusion_lat": 0.0, "name": "2d1ce5b9e6170817e2824f9154587e3f", "is_reserved": 0, "is_disabled": 0, "type": "electric_scooter"}, {"fusion_lon": 0.0, "lat": 38.9213415, "lon": -77.01810983333333, "bike_id": "ec39fdf918004552ea081c1513d06fa5", "rental_uris": {"android": "https://dc.lft.to/lastmile_qr_scan", "ios": "https://dc.lft.to/lastmile_qr_scan"}, "fusion_lat": 0.0, "name": "ec39fdf918004552ea081c1513d06fa5", "is_reserved": 0, "is_disabled": 0, "type": "electric_scooter"}, {"fusion_lon": 0.0, "lat": 38.89614533333334, "lon": -77.03040383333334, "bike_id": "9ab635d38d8fef21c0e22b7ea89906f1", "rental_uris": {"android": "https://dc.lft.to/lastmile_qr_scan", "ios": "https://dc.lft.to/lastmile_qr_scan"}, "fusion_lat": 0.0, "name": "9ab635d38d8fef21c0e22b7ea89906f1", "is_reserved": 0, "is_disabled": 0, "type": "electric_scooter"}, {"fusion_lon": 0.0, "lat": 38.92152216666667, "lon": -77.0423775, "bike_id": "7c08d9d72ff34ecbeed0cd5f1bf9894e", "rental_uris": {"android": "https://dc.lft.to/lastmile_qr_scan", "ios": "https://dc.lft.to/lastmile_qr_scan"}, "fusion_lat": 0.0, "name": "7c08d9d72ff34ecbeed0cd5f1bf9894e", "is_reserved": 0, "is_disabled": 0, "type": "electric_scooter"}, {"fusion_lon": 0.0, "lat": 38.892239000000004, "lon": -77.0464165, "bike_id": "8ae2f2675fc63314cf42622f46b10fbc", "rental_uris": {"android": "https://dc.lft.to/lastmile_qr_scan", "ios": "https://dc.lft.to/lastmile_qr_scan"}, "fusion_lat": 0.0, "name": "8ae2f2675fc63314cf42622f46b10fbc", "is_reserved": 0, "is_disabled": 0, "type": "electric_scooter"}, {"fusion_lon": 0.0, "lat": 38.921386, "lon": -77.0215485, "bike_id": "d7f549b3c654a5755e83e4762c007e79", "rental_uris": {"android": "https://dc.lft.to/lastmile_qr_scan", "ios": "https://dc.lft.to/lastmile_qr_scan"}, "fusion_lat": 0.0, "name": "d7f549b3c654a5755e83e4762c007e79", "is_reserved": 0, "is_disabled": 0, "type": "electric_scooter"}, {"fusion_lon": 0.0, "lat": 38.92986966666667, "lon": -77.03473083333333, "bike_id": "04a9c2e92a3b519d094b1cc944451373", "rental_uris": {"android": "https://dc.lft.to/lastmile_qr_scan", "ios": "https://dc.lft.to/lastmile_qr_scan"}, "fusion_lat": 0.0, "name": "04a9c2e92a3b519d094b1cc944451373", "is_reserved": 0, "is_disabled": 0, "type": "electric_scooter"}, {"fusion_lon": 0.0, "lat": 38.9179495, "lon": -77.03436416666666, "bike_id": "a2074e4df40a4c69350ff0242a62ad6d", "rental_uris": {"android": "https://dc.lft.to/lastmile_qr_scan", "ios": "https://dc.lft.to/lastmile_qr_scan"}, "fusion_lat": 0.0, "name": "a2074e4df40a4c69350ff0242a62ad6d", "is_reserved": 0, "is_disabled": 0, "type": "electric_scooter"}, {"fusion_lon": 0.0, "lat": 38.92396633333333, "lon": -77.01956866666667, "bike_id": "4762ec780311a3b5e740cdfab0421479", "rental_uris": {"android": "https://dc.lft.to/lastmile_qr_scan", "ios": "https://dc.lft.to/lastmile_qr_scan"}, "fusion_lat": 0.0, "name": "4762ec780311a3b5e740cdfab0421479", "is_reserved": 0, "is_disabled": 0, "type": "electric_scooter"}, {"fusion_lon": 0.0, "lat": 38.89450516666667, "lon": -77.02664983333334, "bike_id": "5fbde0b18100f4686bbfd0d8b05f6ab2", "rental_uris": {"android": "https://dc.lft.to/lastmile_qr_scan", "ios": "https://dc.lft.to/lastmile_qr_scan"}, "fusion_lat": 0.0, "name": "5fbde0b18100f4686bbfd0d8b05f6ab2", "is_reserved": 0, "is_disabled": 0, "type": "electric_scooter"}, {"fusion_lon": 0.0, "lat": 38.923408333333334, "lon": -77.02080066666667, "bike_id": "b45ef5291c1427241750de1533b2d1c2", "rental_uris": {"android": "https://dc.lft.to/lastmile_qr_scan", "ios": "https://dc.lft.to/lastmile_qr_scan"}, "fusion_lat": 0.0, "name": "b45ef5291c1427241750de1533b2d1c2", "is_reserved": 0, "is_disabled": 0, "type": "electric_scooter"}, {"fusion_lon": 0.0, "lat": 38.89221516666667, "lon": -77.04151633333333, "bike_id": "670fec67c404adb5461c4144749b168d", "rental_uris": {"android": "https://dc.lft.to/lastmile_qr_scan", "ios": "https://dc.lft.to/lastmile_qr_scan"}, "fusion_lat": 0.0, "name": "670fec67c404adb5461c4144749b168d", "is_reserved": 0, "is_disabled": 0, "type": "electric_scooter"}, {"fusion_lon": 0.0, "lat": 38.908580666666666, "lon": -77.08078066666667, "bike_id": "9be9ea7a5d58c5b42db3c2ef723fc65e", "rental_uris": {"android": "https://dc.lft.to/lastmile_qr_scan", "ios": "https://dc.lft.to/lastmile_qr_scan"}, "fusion_lat": 0.0, "name": "9be9ea7a5d58c5b42db3c2ef723fc65e", "is_reserved": 0, "is_disabled": 0, "type": "electric_bike"}, {"fusion_lon": 0.0, "lat": 38.975515, "lon": -77.02670666666667, "bike_id": "5257ff99b9a038675edaec71a1a534d3", "rental_uris": {"android": "https://dc.lft.to/lastmile_qr_scan", "ios": "https://dc.lft.to/lastmile_qr_scan"}, "fusion_lat": 0.0, "name": "5257ff99b9a038675edaec71a1a534d3", "is_reserved": 0, "is_disabled": 0, "type": "electric_scooter"}, {"fusion_lon": 0.0, "lat": 38.92233016666667, "lon": -77.02117833333334, "bike_id": "9096b14949b399791c739f688c99d34c", "rental_uris": {"android": "https://dc.lft.to/lastmile_qr_scan", "ios": "https://dc.lft.to/lastmile_qr_scan"}, "fusion_lat": 0.0, "name": "9096b14949b399791c739f688c99d34c", "is_reserved": 0, "is_disabled": 0, "type": "electric_scooter"}, {"fusion_lon": 0.0, "lat": 38.94199283333333, "lon": -77.02594516666667, "bike_id": "b6bbff71f0791a093ce28f0b7dcb4cf3", "rental_uris": {"android": "https://dc.lft.to/lastmile_qr_scan", "ios": "https://dc.lft.to/lastmile_qr_scan"}, "fusion_lat": 0.0, "name": "b6bbff71f0791a093ce28f0b7dcb4cf3", "is_reserved": 0, "is_disabled": 0, "type": "electric_scooter"}, {"fusion_lon": 0.0, "lat": 38.892406, "lon": -77.03350116666667, "bike_id": "1d2ac27b3a94732f9275043c3ae5280a", "rental_uris": {"android": "https://dc.lft.to/lastmile_qr_scan", "ios": "https://dc.lft.to/lastmile_qr_scan"}, "fusion_lat": 0.0, "name": "1d2ac27b3a94732f9275043c3ae5280a", "is_reserved": 0, "is_disabled": 0, "type": "electric_scooter"}, {"fusion_lon": 0.0, "lat": 38.97258, "lon": -76.99279633333333, "bike_id": "eb2ec519af5a0eebd691b96864dd5024", "rental_uris": {"android": "https://dc.lft.to/lastmile_qr_scan", "ios": "https://dc.lft.to/lastmile_qr_scan"}, "fusion_lat": 0.0, "name": "eb2ec519af5a0eebd691b96864dd5024", "is_reserved": 0, "is_disabled": 0, "type": "electric_bike"}, {"fusion_lon": 0.0, "lat": 38.855761333333334, "lon": -77.05339916666667, "bike_id": "687dbea8583c651358a2f253b1ec433b", "rental_uris": {"android": "https://dc.lft.to/lastmile_qr_scan", "ios": "https://dc.lft.to/lastmile_qr_scan"}, "fusion_lat": 0.0, "name": "687dbea8583c651358a2f253b1ec433b", "is_reserved": 0, "is_disabled": 0, "type": "electric_bike"}, {"fusion_lon": 0.0, "lat": 38.90802466666667, "lon": -77.0840025, "bike_id": "2e76c92c0596ce0b1ddc9ded8161bf76", "rental_uris": {"android": "https://dc.lft.to/lastmile_qr_scan", "ios": "https://dc.lft.to/lastmile_qr_scan"}, "fusion_lat": 0.0, "name": "2e76c92c0596ce0b1ddc9ded8161bf76", "is_reserved": 0, "is_disabled": 0, "type": "electric_scooter"}, {"fusion_lon": 0.0, "lat": 38.91799483333333, "lon": -77.0271265, "bike_id": "f5581ed4f3cba2af2f87e002ada75d6b", "rental_uris": {"android": "https://dc.lft.to/lastmile_qr_scan", "ios": "https://dc.lft.to/lastmile_qr_scan"}, "fusion_lat": 0.0, "name": "f5581ed4f3cba2af2f87e002ada75d6b", "is_reserved": 0, "is_disabled": 0, "type": "electric_scooter"}, {"fusion_lon": 0.0, "lat": 38.924224333333335, "lon": -77.020085, "bike_id": "205ecca2fe473c66975b59d5ec79fae3", "rental_uris": {"android": "https://dc.lft.to/lastmile_qr_scan", "ios": "https://dc.lft.to/lastmile_qr_scan"}, "fusion_lat": 0.0, "name": "205ecca2fe473c66975b59d5ec79fae3", "is_reserved": 0, "is_disabled": 0, "type": "electric_scooter"}, {"fusion_lon": 0.0, "lat": 38.9086415, "lon": -77.076418, "bike_id": "2a4eccc14b7c5b7e7d61468c77db9aa5", "rental_uris": {"android": "https://dc.lft.to/lastmile_qr_scan", "ios": "https://dc.lft.to/lastmile_qr_scan"}, "fusion_lat": 0.0, "name": "2a4eccc14b7c5b7e7d61468c77db9aa5", "is_reserved": 0, "is_disabled": 0, "type": "electric_scooter"}, {"fusion_lon": 0.0, "lat": 38.9166925, "lon": -77.03846166666666, "bike_id": "c63697e93cac50a6463f4ec601e3586d", "rental_uris": {"android": "https://dc.lft.to/lastmile_qr_scan", "ios": "https://dc.lft.to/lastmile_qr_scan"}, "fusion_lat": 0.0, "name": "c63697e93cac50a6463f4ec601e3586d", "is_reserved": 0, "is_disabled": 0, "type": "electric_scooter"}, {"fusion_lon": 0.0, "lat": 38.89014816666667, "lon": -76.93740683333333, "bike_id": "6ddf5fc48a753a95236989843eb6b42d", "rental_uris": {"android": "https://dc.lft.to/lastmile_qr_scan", "ios": "https://dc.lft.to/lastmile_qr_scan"}, "fusion_lat": 0.0, "name": "6ddf5fc48a753a95236989843eb6b42d", "is_reserved": 0, "is_disabled": 0, "type": "electric_scooter"}, {"fusion_lon": 0.0, "lat": 38.921215833333335, "lon": -77.0443215, "bike_id": "9ed0c5349e395aa0ac4a8148b1df39d3", "rental_uris": {"android": "https://dc.lft.to/lastmile_qr_scan", "ios": "https://dc.lft.to/lastmile_qr_scan"}, "fusion_lat": 0.0, "name": "9ed0c5349e395aa0ac4a8148b1df39d3", "is_reserved": 0, "is_disabled": 0, "type": "electric_scooter"}, {"fusion_lon": 0.0, "lat": 38.9158165, "lon": -77.0679585, "bike_id": "8b244f700b3e9d7539d6721cba1957c0", "rental_uris": {"android": "https://dc.lft.to/lastmile_qr_scan", "ios": "https://dc.lft.to/lastmile_qr_scan"}, "fusion_lat": 0.0, "name": "8b244f700b3e9d7539d6721cba1957c0", "is_reserved": 0, "is_disabled": 0, "type": "electric_scooter"}, {"fusion_lon": 0.0, "lat": 38.924206833333336, "lon": -77.0194475, "bike_id": "6fd8d36e46a3c782c5ecd34fb19eeb9c", "rental_uris": {"android": "https://dc.lft.to/lastmile_qr_scan", "ios": "https://dc.lft.to/lastmile_qr_scan"}, "fusion_lat": 0.0, "name": "6fd8d36e46a3c782c5ecd34fb19eeb9c", "is_reserved": 0, "is_disabled": 0, "type": "electric_scooter"}, {"fusion_lon": 0.0, "lat": 38.91579866666667, "lon": -77.03657416666667, "bike_id": "af0581b9759cfc4e9490e3c69477ee08", "rental_uris": {"android": "https://dc.lft.to/lastmile_qr_scan", "ios": "https://dc.lft.to/lastmile_qr_scan"}, "fusion_lat": 0.0, "name": "af0581b9759cfc4e9490e3c69477ee08", "is_reserved": 0, "is_disabled": 0, "type": "electric_scooter"}, {"fusion_lon": 0.0, "lat": 38.869476, "lon": -77.13309683333334, "bike_id": "8e584e84ea2705c05013d8857fd72c9e", "rental_uris": {"android": "https://dc.lft.to/lastmile_qr_scan", "ios": "https://dc.lft.to/lastmile_qr_scan"}, "fusion_lat": 0.0, "name": "8e584e84ea2705c05013d8857fd72c9e", "is_reserved": 0, "is_disabled": 0, "type": "electric_bike"}, {"fusion_lon": 0.0, "lat": 38.90025833333333, "lon": -76.98756533333334, "bike_id": "37a7ac79f7209e89b8fe6499c3f076d9", "rental_uris": {"android": "https://dc.lft.to/lastmile_qr_scan", "ios": "https://dc.lft.to/lastmile_qr_scan"}, "fusion_lat": 0.0, "name": "37a7ac79f7209e89b8fe6499c3f076d9", "is_reserved": 0, "is_disabled": 0, "type": "electric_scooter"}, {"fusion_lon": 0.0, "lat": 38.908427, "lon": -77.04943916666667, "bike_id": "0451444271ca4143ef60f87eb83118e7", "rental_uris": {"android": "https://dc.lft.to/lastmile_qr_scan", "ios": "https://dc.lft.to/lastmile_qr_scan"}, "fusion_lat": 0.0, "name": "0451444271ca4143ef60f87eb83118e7", "is_reserved": 0, "is_disabled": 0, "type": "electric_scooter"}, {"fusion_lon": 0.0, "lat": 38.9221515, "lon": -77.01821566666666, "bike_id": "dcc942dabc9cfdc8ae61c2832203f607", "rental_uris": {"android": "https://dc.lft.to/lastmile_qr_scan", "ios": "https://dc.lft.to/lastmile_qr_scan"}, "fusion_lat": 0.0, "name": "dcc942dabc9cfdc8ae61c2832203f607", "is_reserved": 0, "is_disabled": 0, "type": "electric_scooter"}, {"fusion_lon": 0.0, "lat": 38.89605666666667, "lon": -77.04512166666666, "bike_id": "749ec18a791531c4cddfa2376a8b9135", "rental_uris": {"android": "https://dc.lft.to/lastmile_qr_scan", "ios": "https://dc.lft.to/lastmile_qr_scan"}, "fusion_lat": 0.0, "name": "749ec18a791531c4cddfa2376a8b9135", "is_reserved": 0, "is_disabled": 0, "type": "electric_scooter"}, {"fusion_lon": 0.0, "lat": 38.900295166666666, "lon": -76.98756683333333, "bike_id": "74dafd30637e57cdf84e816b86f01075", "rental_uris": {"android": "https://dc.lft.to/lastmile_qr_scan", "ios": "https://dc.lft.to/lastmile_qr_scan"}, "fusion_lat": 0.0, "name": "74dafd30637e57cdf84e816b86f01075", "is_reserved": 0, "is_disabled": 0, "type": "electric_scooter"}, {"fusion_lon": 0.0, "lat": 38.91085116666667, "lon": -77.04473283333333, "bike_id": "73e2211a3fc084ebf3d641c55e57e6e2", "rental_uris": {"android": "https://dc.lft.to/lastmile_qr_scan", "ios": "https://dc.lft.to/lastmile_qr_scan"}, "fusion_lat": 0.0, "name": "73e2211a3fc084ebf3d641c55e57e6e2", "is_reserved": 0, "is_disabled": 0, "type": "electric_scooter"}, {"fusion_lon": 0.0, "lat": 38.92236333333334, "lon": -77.0214765, "bike_id": "58fc44a3a8e06c2ae010d0c2f368ee0f", "rental_uris": {"android": "https://dc.lft.to/lastmile_qr_scan", "ios": "https://dc.lft.to/lastmile_qr_scan"}, "fusion_lat": 0.0, "name": "58fc44a3a8e06c2ae010d0c2f368ee0f", "is_reserved": 0, "is_disabled": 0, "type": "electric_scooter"}, {"fusion_lon": 0.0, "lat": 38.916579666666664, "lon": -77.03852333333333, "bike_id": "ed9eca3b6135e1b1e64fca2481fc34f0", "rental_uris": {"android": "https://dc.lft.to/lastmile_qr_scan", "ios": "https://dc.lft.to/lastmile_qr_scan"}, "fusion_lat": 0.0, "name": "ed9eca3b6135e1b1e64fca2481fc34f0", "is_reserved": 0, "is_disabled": 0, "type": "electric_scooter"}, {"fusion_lon": 0.0, "lat": 38.92967466666666, "lon": -77.0278915, "bike_id": "7095640398cdff0070ac7b6b2b84dccf", "rental_uris": {"android": "https://dc.lft.to/lastmile_qr_scan", "ios": "https://dc.lft.to/lastmile_qr_scan"}, "fusion_lat": 0.0, "name": "7095640398cdff0070ac7b6b2b84dccf", "is_reserved": 0, "is_disabled": 0, "type": "electric_scooter"}, {"fusion_lon": 0.0, "lat": 38.922351, "lon": -77.02120433333333, "bike_id": "b9b29a6837d9953a9465a0d8df1f03a4", "rental_uris": {"android": "https://dc.lft.to/lastmile_qr_scan", "ios": "https://dc.lft.to/lastmile_qr_scan"}, "fusion_lat": 0.0, "name": "b9b29a6837d9953a9465a0d8df1f03a4", "is_reserved": 0, "is_disabled": 0, "type": "electric_scooter"}, {"fusion_lon": 0.0, "lat": 38.953103666666664, "lon": -76.98181883333334, "bike_id": "05ea5fec63575ac03b021ad6b8e48f1b", "rental_uris": {"android": "https://dc.lft.to/lastmile_qr_scan", "ios": "https://dc.lft.to/lastmile_qr_scan"}, "fusion_lat": 0.0, "name": "05ea5fec63575ac03b021ad6b8e48f1b", "is_reserved": 0, "is_disabled": 0, "type": "electric_bike"}, {"fusion_lon": 0.0, "lat": 38.8957435, "lon": -77.00613866666667, "bike_id": "2dd1b9245361159631d8dac27d978dc7", "rental_uris": {"android": "https://dc.lft.to/lastmile_qr_scan", "ios": "https://dc.lft.to/lastmile_qr_scan"}, "fusion_lat": 0.0, "name": "2dd1b9245361159631d8dac27d978dc7", "is_reserved": 0, "is_disabled": 0, "type": "electric_scooter"}, {"fusion_lon": 0.0, "lat": 39.0037695, "lon": -77.0128725, "bike_id": "a21febc455cd5de7f5c9ad503e85a6f2", "rental_uris": {"android": "https://dc.lft.to/lastmile_qr_scan", "ios": "https://dc.lft.to/lastmile_qr_scan"}, "fusion_lat": 0.0, "name": "a21febc455cd5de7f5c9ad503e85a6f2", "is_reserved": 0, "is_disabled": 0, "type": "electric_bike"}, {"fusion_lon": 0.0, "lat": 38.89467833333333, "lon": -76.99710166666667, "bike_id": "e7593bd8c0cfb7ac37de5bf73b8194c8", "rental_uris": {"android": "https://dc.lft.to/lastmile_qr_scan", "ios": "https://dc.lft.to/lastmile_qr_scan"}, "fusion_lat": 0.0, "name": "e7593bd8c0cfb7ac37de5bf73b8194c8", "is_reserved": 0, "is_disabled": 0, "type": "electric_scooter"}, {"fusion_lon": 0.0, "lat": 38.83744033333333, "lon": -76.99866483333334, "bike_id": "68d1bd7bf70eb21cdacbbd1263d6fbbf", "rental_uris": {"android": "https://dc.lft.to/lastmile_qr_scan", "ios": "https://dc.lft.to/lastmile_qr_scan"}, "fusion_lat": 0.0, "name": "68d1bd7bf70eb21cdacbbd1263d6fbbf", "is_reserved": 0, "is_disabled": 0, "type": "electric_scooter"}, {"fusion_lon": 0.0, "lat": 38.914306833333335, "lon": -77.02809883333333, "bike_id": "d76983bcc1bc19ff498f7a3b1bf8edbc", "rental_uris": {"android": "https://dc.lft.to/lastmile_qr_scan", "ios": "https://dc.lft.to/lastmile_qr_scan"}, "fusion_lat": 0.0, "name": "d76983bcc1bc19ff498f7a3b1bf8edbc", "is_reserved": 0, "is_disabled": 0, "type": "electric_scooter"}, {"fusion_lon": 0.0, "lat": 38.894924333333336, "lon": -76.94894983333333, "bike_id": "80b1596b55cb78010f47add3e5b02f4f", "rental_uris": {"android": "https://dc.lft.to/lastmile_qr_scan", "ios": "https://dc.lft.to/lastmile_qr_scan"}, "fusion_lat": 0.0, "name": "80b1596b55cb78010f47add3e5b02f4f", "is_reserved": 0, "is_disabled": 0, "type": "electric_scooter"}, {"fusion_lon": 0.0, "lat": 38.931445333333336, "lon": -77.0383075, "bike_id": "cf85a2410e8ffd4a8e9ce6b1dd2c0361", "rental_uris": {"android": "https://dc.lft.to/lastmile_qr_scan", "ios": "https://dc.lft.to/lastmile_qr_scan"}, "fusion_lat": 0.0, "name": "cf85a2410e8ffd4a8e9ce6b1dd2c0361", "is_reserved": 0, "is_disabled": 0, "type": "electric_scooter"}, {"fusion_lon": 0.0, "lat": 38.9026995, "lon": -77.03131033333334, "bike_id": "8fc7fb205a098688146f11e5c89cac0b", "rental_uris": {"android": "https://dc.lft.to/lastmile_qr_scan", "ios": "https://dc.lft.to/lastmile_qr_scan"}, "fusion_lat": 0.0, "name": "8fc7fb205a098688146f11e5c89cac0b", "is_reserved": 0, "is_disabled": 0, "type": "electric_scooter"},