{"data": {"bikes": [{"lat": 38.885899, "fusion_lat": 0.0, "type": "electric_scooter", "bike_id": "9974b4ae0a186acd8e745d852f5aabaf", "rental_uris": {"ios": "https://dc.lft.to/lastmile_qr_scan", "android": "https://dc.lft.to/lastmile_qr_scan"}, "fusion_lon": 0.0, "lon": -77.02202866666667, "name": "9974b4ae0a186acd8e745d852f5aabaf", "is_reserved": 0, "is_disabled": 0}, {"lat": 38.93131616666667, "fusion_lat": 0.0, "type": "electric_bike", "bike_id": "54bb1e181f7b11cfaaa51522e379f35e", "rental_uris": {"ios": "https://dc.lft.to/lastmile_qr_scan", "android": "https://dc.lft.to/lastmile_qr_scan"}, "fusion_lon": 0.0, "lon": -77.01965183333333, "name": "54bb1e181f7b11cfaaa51522e379f35e", "is_reserved": 0, "is_disabled": 0}, {"lat": 38.87556266666667, "fusion_lat": 0.0, "type": "electric_scooter", "bike_id": "2abac5fa6baa528be973a64c01ec4e8b", "rental_uris": {"ios": "https://dc.lft.to/lastmile_qr_scan", "android": "https://dc.lft.to/lastmile_qr_scan"}, "fusion_lon": 0.0, "lon": -77.00556183333333, "name": "2abac5fa6baa528be973a64c01ec4e8b", "is_reserved": 0, "is_disabled": 0}, {"lat": 38.93473983333333, "fusion_lat": 0.0, "type": "electric_scooter", "bike_id": "3f6fea9382deb89da7349ac80c7e7b10", "rental_uris": {"ios": "https://dc.lft.to/lastmile_qr_scan", "android": "https://dc.lft.to/lastmile_qr_scan"}, "fusion_lon": 0.0, "lon": -77.0727525, "name": "3f6fea9382deb89da7349ac80c7e7b10", "is_reserved": 0, "is_disabled": 0}, {"lat": 38.9348145, "fusion_lat": 0.0, "type": "electric_scooter", "bike_id": "5a1ab98a9f238e45db1be0ab7286b765", "rental_uris": {"ios": "https://dc.lft.to/lastmile_qr_scan", "android": "https://dc.lft.to/lastmile_qr_scan"}, "fusion_lon": 0.0, "lon": -77.03621033333333, "name": "5a1ab98a9f238e45db1be0ab7286b765", "is_reserved": 0, "is_disabled": 0}, {"lat": 38.92280866666667, "fusion_lat": 0.0, "type": "electric_scooter", "bike_id": "b7891bc6a473d281dfa881192b3239d2", "rental_uris": {"ios": "https://dc.lft.to/lastmile_qr_scan", "android": "https://dc.lft.to/lastmile_qr_scan"}, "fusion_lon": 0.0, "lon": -77.03656583333333, "name": "b7891bc6a473d281dfa881192b3239d2", "is_reserved": 0, "is_disabled": 0}, {"lat": 38.90853233333333, "fusion_lat": 0.0, "type": "electric_scooter", "bike_id": "23443fa45eb5a831bcaeb1e5f5fd8ee4", "rental_uris": {"ios": "https://dc.lft.to/lastmile_qr_scan", "android": "https://dc.lft.to/lastmile_qr_scan"}, "fusion_lon": 0.0, "lon": -77.02692966666666, "name": "23443fa45eb5a831bcaeb1e5f5fd8ee4", "is_reserved": 0, "is_disabled": 0}, {"lat": 38.839652666666666, "fusion_lat": 0.0, "type": "electric_scooter", "bike_id": "2f3b9bf1d9f8979b8f5a85bdf14cca4c", "rental_uris": {"ios": "https://dc.lft.to/lastmile_qr_scan", "android": "https://dc.lft.to/lastmile_qr_scan"}, "fusion_lon": 0.0, "lon": -76.99839966666667, "name": "2f3b9bf1d9f8979b8f5a85bdf14cca4c", "is_reserved": 0, "is_disabled": 0}, {"lat": 38.90811433333333, "fusion_lat": 0.0, "type": "electric_scooter", "bike_id": "052087a6ef92212e2c559c069dadc927", "rental_uris": {"ios": "https://dc.lft.to/lastmile_qr_scan", "android": "https://dc.lft.to/lastmile_qr_scan"}, "fusion_lon": 0.0, "lon": -77.0449545, "name": "052087a6ef92212e2c559c069dadc927", "is_reserved": 0, "is_disabled": 0}, {"lat": 38.911079666666666, "fusion_lat": 0.0, "type": "electric_scooter", "bike_id": "3525dd73aec551c5fa0f65d2851e70ab", "rental_uris": {"ios": "https://dc.lft.to/lastmile_qr_scan", "android": "https://dc.lft.to/lastmile_qr_scan"}, "fusion_lon": 0.0, "lon": -77.04550066666667, "name": "3525dd73aec551c5fa0f65d2851e70ab", "is_reserved": 0, "is_disabled": 0}, {"lat": 38.90406566666667, "fusion_lat": 0.0, "type": "electric_scooter", "bike_id": "30cb9760e94f36685bc28292e56de8c5", "rental_uris": {"ios": "https://dc.lft.to/lastmile_qr_scan", "android": "https://dc.lft.to/lastmile_qr_scan"}, "fusion_lon": 0.0, "lon": -76.97340283333334, "name": "30cb9760e94f36685bc28292e56de8c5", "is_reserved": 0, "is_disabled": 0}, {"lat": 38.89989333333333, "fusion_lat": 0.0, "type": "electric_scooter", "bike_id": "400930cd8d0602729d3fca9cefbd7df5", "rental_uris": {"ios": "https://dc.lft.to/lastmile_qr_scan", "android": "https://dc.lft.to/lastmile_qr_scan"}, "fusion_lon": 0.0, "lon": -77.01133133333333, "name": "400930cd8d0602729d3fca9cefbd7df5", "is_reserved": 0, "is_disabled": 0}, {"lat": 38.9051325, "fusion_lat": 0.0, "type": "electric_scooter", "bike_id": "eeb7d0f499f2ca7de79fc7a924685d62", "rental_uris": {"ios": "https://dc.lft.to/lastmile_qr_scan", "android": "https://dc.lft.to/lastmile_qr_scan"}, "fusion_lon": 0.0, "lon": -77.03004333333334, "name": "eeb7d0f499f2ca7de79fc7a924685d62", "is_reserved": 0, "is_disabled": 0}, {"lat": 38.86231733333334, "fusion_lat": 0.0, "type": "electric_scooter", "bike_id": "ec2f31f217ecf2116d1050e07636a5b2", "rental_uris": {"ios": "https://dc.lft.to/lastmile_qr_scan", "android": "https://dc.lft.to/lastmile_qr_scan"}, "fusion_lon": 0.0, "lon": -76.9955475, "name": "ec2f31f217ecf2116d1050e07636a5b2", "is_reserved": 0, "is_disabled": 0}, {"lat": 38.91234733333334, "fusion_lat": 0.0, "type": "electric_scooter", "bike_id": "52e09ad9d3458e5167bd36bc7e5eaa76", "rental_uris": {"ios": "https://dc.lft.to/lastmile_qr_scan", "android": "https://dc.lft.to/lastmile_qr_scan"}, "fusion_lon": 0.0, "lon": -77.04878166666667, "name": "52e09ad9d3458e5167bd36bc7e5eaa76", "is_reserved": 0, "is_disabled": 0}, {"lat": 38.89891383333333, "fusion_lat": 0.0, "type": "electric_scooter", "bike_id": "c75b898e42b18e604ac1535e09e08501", "rental_uris": {"ios": "https://dc.lft.to/lastmile_qr_scan", "android": "https://dc.lft.to/lastmile_qr_scan"}, "fusion_lon": 0.0, "lon": -77.0489415, "name": "c75b898e42b18e604ac1535e09e08501", "is_reserved": 0, "is_disabled": 0}, {"lat": 38.95705066666667, "fusion_lat": 0.0, "type": "electric_scooter", "bike_id": "0c393ab4d81876c8c753669ee220595f", "rental_uris": {"ios": "https://dc.lft.to/lastmile_qr_scan", "android": "https://dc.lft.to/lastmile_qr_scan"}, "fusion_lon": 0.0, "lon": -77.024122, "name": "0c393ab4d81876c8c753669ee220595f", "is_reserved": 0, "is_disabled": 0}, {"lat": 38.90639816666667, "fusion_lat": 0.0, "type": "electric_scooter", "bike_id": "cbdedc862a06954c6c4560839eddece7", "rental_uris": {"ios": "https://dc.lft.to/lastmile_qr_scan", "android": "https://dc.lft.to/lastmile_qr_scan"}, "fusion_lon": 0.0, "lon": -77.01425383333333, "name": "cbdedc862a06954c6c4560839eddece7", "is_reserved": 0, "is_disabled": 0}, {"lat": 38.90413083333333, "fusion_lat": 0.0, "type": "electric_scooter", "bike_id": "3c372dae8756bac8bc63515f4b2a90e8", "rental_uris": {"ios": "https://dc.lft.to/lastmile_qr_scan", "android": "https://dc.lft.to/lastmile_qr_scan"}, "fusion_lon": 0.0, "lon": -76.97335366666667, "name": "3c372dae8756bac8bc63515f4b2a90e8", "is_reserved": 0, "is_disabled": 0}, {"lat": 38.82032866666667, "fusion_lat": 0.0, "type": "electric_bike", "bike_id": "d4731677cbd667c62501775ec79ab318", "rental_uris": {"ios": "https://dc.lft.to/lastmile_qr_scan", "android": "https://dc.lft.to/lastmile_qr_scan"}, "fusion_lon": 0.0, "lon": -77.05345883333334, "name": "d4731677cbd667c62501775ec79ab318", "is_reserved": 0, "is_disabled": 0}, {"lat": 38.912574, "fusion_lat": 0.0, "type": "electric_scooter", "bike_id": "3ce7a139d474784d961f3131a4ea92c0", "rental_uris": {"ios": "https://dc.lft.to/lastmile_qr_scan", "android": "https://dc.lft.to/lastmile_qr_scan"}, "fusion_lon": 0.0, "lon": -77.03262116666667, "name": "3ce7a139d474784d961f3131a4ea92c0", "is_reserved": 0, "is_disabled": 0}, {"lat": 38.9189365, "fusion_lat": 0.0, "type": "electric_scooter", "bike_id": "9fc1c6ae093cb91ea9fadaf9b8480db6", "rental_uris": {"ios": "https://dc.lft.to/lastmile_qr_scan", "android": "https://dc.lft.to/lastmile_qr_scan"}, "fusion_lon": 0.0, "lon": -77.04718316666667, "name": "9fc1c6ae093cb91ea9fadaf9b8480db6", "is_reserved": 0, "is_disabled": 0}, {"lat": 39.07040533333333, "fusion_lat": 0.0, "type": "electric_bike", "bike_id": "6467f5bff9dd08185da175ecc4f2c314", "rental_uris": {"ios": "https://dc.lft.to/lastmile_qr_scan", "android": "https://dc.lft.to/lastmile_qr_scan"}, "fusion_lon": 0.0, "lon": -77.11524266666666, "name": "6467f5bff9dd08185da175ecc4f2c314", "is_reserved": 0, "is_disabled": 0}, {"lat": 38.8922315, "fusion_lat": 0.0, "type": "electric_scooter", "bike_id": "eab468bffdf46a25d45f850c985dbb7c", "rental_uris": {"ios": "https://dc.lft.to/lastmile_qr_scan", "android": "https://dc.lft.to/lastmile_qr_scan"}, "fusion_lon": 0.0, "lon": -77.04338633333333, "name": "eab468bffdf46a25d45f850c985dbb7c", "is_reserved": 0, "is_disabled": 0}, {"lat": 38.9389, "fusion_lat": 0.0, "type": "electric_scooter", "bike_id": "ba444c65efec42a914d2d690a73ab91f", "rental_uris": {"ios": "https://dc.lft.to/lastmile_qr_scan", "android": "https://dc.lft.to/lastmile_qr_scan"}, "fusion_lon": 0.0, "lon": -77.01762933333333, "name": "ba444c65efec42a914d2d690a73ab91f", "is_reserved": 0, "is_disabled": 0}, {"lat": 38.96081566666667, "fusion_lat": 0.0, "type": "electric_scooter", "bike_id": "cfddc89a0c6b72892cd94539f0fb65da", "rental_uris": {"ios": "https://dc.lft.to/lastmile_qr_scan", "android": "https://dc.lft.to/lastmile_qr_scan"}, "fusion_lon": 0.0, "lon": -77.0288145, "name": "cfddc89a0c6b72892cd94539f0fb65da", "is_reserved": 0, "is_disabled": 0}, {"lat": 38.89224133333333, "fusion_lat": 0.0, "type": "electric_scooter", "bike_id": "1ed3da6c26e989623cdd0d66284e76f3", "rental_uris": {"ios": "https://dc.lft.to/lastmile_qr_scan", "android": "https://dc.lft.to/lastmile_qr_scan"}, "fusion_lon": 0.0, "lon": -77.03171016666667, "name": "1ed3da6c26e989623cdd0d66284e76f3", "is_reserved": 0, "is_disabled": 0}, {"lat": 38.911067, "fusion_lat": 0.0, "type": "electric_scooter", "bike_id": "1e9c6d740e1c00fb3ee148b8cecfbce2", "rental_uris": {"ios": "https://dc.lft.to/lastmile_qr_scan", "android": "https://dc.lft.to/lastmile_qr_scan"}, "fusion_lon": 0.0, "lon": -77.0322155, "name": "1e9c6d740e1c00fb3ee148b8cecfbce2", "is_reserved": 0, "is_disabled": 0}, {"lat": 38.939342, "fusion_lat": 0.0, "type": "electric_scooter", "bike_id": "2c1155fb992fc79828c35cbfb5409665", "rental_uris": {"ios": "https://dc.lft.to/lastmile_qr_scan", "android": "https://dc.lft.to/lastmile_qr_scan"}, "fusion_lon": 0.0, "lon": -77.025775, "name": "2c1155fb992fc79828c35cbfb5409665", "is_reserved": 0, "is_disabled": 0}, {"lat": 38.91482, "fusion_lat": 0.0, "type": "electric_scooter", "bike_id": "d7569d043cf16cf4c87d4e5a7de4461e", "rental_uris": {"ios": "https://dc.lft.to/lastmile_qr_scan", "android": "https://dc.lft.to/lastmile_qr_scan"}, "fusion_lon": 0.0, "lon": -77.040856, "name": "d7569d043cf16cf4c87d4e5a7de4461e", "is_reserved": 0, "is_disabled": 0}, {"lat": 38.920702, "fusion_lat": 0.0, "type": "electric_scooter", "bike_id": "36e30341722d5c23e04db133ffdec5f9", "rental_uris": {"ios": "https://dc.lft.to/lastmile_qr_scan", "android": "https://dc.lft.to/lastmile_qr_scan"}, "fusion_lon": 0.0, "lon": -77.02392766666667, "name": "36e30341722d5c23e04db133ffdec5f9", "is_reserved": 0, "is_disabled": 0}, {"lat": 38.923555666666665, "fusion_lat": 0.0, "type": "electric_scooter", "bike_id": "f767d561a8851977f52a1f97144b25e2", "rental_uris": {"ios": "https://dc.lft.to/lastmile_qr_scan", "android": "https://dc.lft.to/lastmile_qr_scan"}, "fusion_lon": 0.0, "lon": -77.03231383333333, "name": "f767d561a8851977f52a1f97144b25e2", "is_reserved": 0, "is_disabled": 0}, {"lat": 38.9162035, "fusion_lat": 0.0, "type": "electric_scooter", "bike_id": "a2138701a9272ab86d89e417565e8f50", "rental_uris": {"ios": "https://dc.lft.to/lastmile_qr_scan", "android": "https://dc.lft.to/lastmile_qr_scan"}, "fusion_lon": 0.0, "lon": -77.0385945, "name": "a2138701a9272ab86d89e417565e8f50", "is_reserved": 0, "is_disabled": 0}, {"lat": 38.8626665, "fusion_lat": 0.0, "type": "electric_scooter", "bike_id": "87e340d3b6a0893a3ec60a813c7c3665", "rental_uris": {"ios": "https://dc.lft.to/lastmile_qr_scan", "android": "https://dc.lft.to/lastmile_qr_scan"}, "fusion_lon": 0.0, "lon": -76.99534416666667, "name": "87e340d3b6a0893a3ec60a813c7c3665", "is_reserved": 0, "is_disabled": 0}, {"lat": 38.892186833333334, "fusion_lat": 0.0, "type": "electric_scooter", "bike_id": "b9c9164a41823046d8a0e5db41919da3", "rental_uris": {"ios": "https://dc.lft.to/lastmile_qr_scan", "android": "https://dc.lft.to/lastmile_qr_scan"}, "fusion_lon": 0.0, "lon": -77.0446655, "name": "b9c9164a41823046d8a0e5db41919da3", "is_reserved": 0, "is_disabled": 0}, {"lat": 38.92636816666667, "fusion_lat": 0.0, "type": "electric_scooter", "bike_id": "0c9e3d1b68717b1937ff72325989ffd2", "rental_uris": {"ios": "https://dc.lft.to/lastmile_qr_scan", "android": "https://dc.lft.to/lastmile_qr_scan"}, "fusion_lon": 0.0, "lon": -77.03717033333334, "name": "0c9e3d1b68717b1937ff72325989ffd2", "is_reserved": 0, "is_disabled": 0}, {"lat": 38.89222866666667, "fusion_lat": 0.0, "type": "electric_scooter", "bike_id": "c3cc73ce030e6939bb01cc0f6ae77a2d", "rental_uris": {"ios": "https://dc.lft.to/lastmile_qr_scan", "android": "https://dc.lft.to/lastmile_qr_scan"}, "fusion_lon": 0.0, "lon": -77.04330133333333, "name": "c3cc73ce030e6939bb01cc0f6ae77a2d", "is_reserved": 0, "is_disabled": 0}, {"lat": 38.91708066666666, "fusion_lat": 0.0, "type": "electric_scooter", "bike_id": "ce14dbdff11914251bca81c6c58e524f", "rental_uris": {"ios": "https://dc.lft.to/lastmile_qr_scan", "android": "https://dc.lft.to/lastmile_qr_scan"}, "fusion_lon": 0.0, "lon": -77.032442, "name": "ce14dbdff11914251bca81c6c58e524f", "is_reserved": 0, "is_disabled": 0}, {"lat": 38.91453383333333, "fusion_lat": 0.0, "type": "electric_bike", "bike_id": "4b8ffdae22960e134ef8d4b2187001d6", "rental_uris": {"ios": "https://dc.lft.to/lastmile_qr_scan", "android": "https://dc.lft.to/lastmile_qr_scan"}, "fusion_lon": 0.0, "lon": -76.972462, "name": "4b8ffdae22960e134ef8d4b2187001d6", "is_reserved": 0, "is_disabled": 0}, {"lat": 38.905633, "fusion_lat": 0.0, "type": "electric_scooter", "bike_id": "0840ce9dd87caa5d8e7d18890458aed5", "rental_uris": {"ios": "https://dc.lft.to/lastmile_qr_scan", "android": "https://dc.lft.to/lastmile_qr_scan"}, "fusion_lon": 0.0, "lon": -77.03471883333333, "name": "0840ce9dd87caa5d8e7d18890458aed5", "is_reserved": 0, "is_disabled": 0}, {"lat": 38.883703, "fusion_lat": 0.0, "type": "electric_scooter", "bike_id": "7f91d9f468b7f6b2c0bb4793799f56c0", "rental_uris": {"ios": "https://dc.lft.to/lastmile_qr_scan", "android": "https://dc.lft.to/lastmile_qr_scan"}, "fusion_lon": 0.0, "lon": -76.995101, "name": "7f91d9f468b7f6b2c0bb4793799f56c0", "is_reserved": 0, "is_disabled": 0}, {"lat": 38.90769916666667, "fusion_lat": 0.0, "type": "electric_scooter", "bike_id": "3b08852a0d4a51dde334dfb830e8fa33", "rental_uris": {"ios": "https://dc.lft.to/lastmile_qr_scan", "android": "https://dc.lft.to/lastmile_qr_scan"}, "fusion_lon": 0.0, "lon": -77.03857666666667, "name": "3b08852a0d4a51dde334dfb830e8fa33", "is_reserved": 0, "is_disabled": 0}, {"lat": 38.966105, "fusion_lat": 0.0, "type": "electric_scooter", "bike_id": "eb355aa6f702afae7e94a5051c67c2b8", "rental_uris": {"ios": "https://dc.lft.to/lastmile_qr_scan", "android": "https://dc.lft.to/lastmile_qr_scan"}, "fusion_lon": 0.0, "lon": -77.020104, "name": "eb355aa6f702afae7e94a5051c67c2b8", "is_reserved": 0, "is_disabled": 0}, {"lat": 38.930579, "fusion_lat": 0.0, "type": "electric_scooter", "bike_id": "9791658ddc9725b4c839515e82b76da0", "rental_uris": {"ios": "https://dc.lft.to/lastmile_qr_scan", "android": "https://dc.lft.to/lastmile_qr_scan"}, "fusion_lon": 0.0, "lon": -77.03943, "name": "9791658ddc9725b4c839515e82b76da0", "is_reserved": 0, "is_disabled": 0}, {"lat": 38.921381833333335, "fusion_lat": 0.0, "type": "electric_scooter", "bike_id": "8210122b2caeb73872ce38bf5ca0a274", "rental_uris": {"ios": "https://dc.lft.to/lastmile_qr_scan", "android": "https://dc.lft.to/lastmile_qr_scan"}, "fusion_lon": 0.0, "lon": -77.043569, "name": "8210122b2caeb73872ce38bf5ca0a274", "is_reserved": 0, "is_disabled": 0}, {"lat": 38.934553, "fusion_lat": 0.0, "type": "electric_scooter", "bike_id": "3f9e3ae3b64ecf053a6f60d245e9447e", "rental_uris": {"ios": "https://dc.lft.to/lastmile_qr_scan", "android": "https://dc.lft.to/lastmile_qr_scan"}, "fusion_lon": 0.0, "lon": -77.02770933333333, "name": "3f9e3ae3b64ecf053a6f60d245e9447e", "is_reserved": 0, "is_disabled": 0}, {"lat": 38.90839616666667, "fusion_lat": 0.0, "type": "electric_scooter", "bike_id": "87bfd41f8663a284ea51cd6837927d52", "rental_uris": {"ios": "https://dc.lft.to/lastmile_qr_scan", "android": "https://dc.lft.to/lastmile_qr_scan"}, "fusion_lon": 0.0, "lon": -77.03442716666666, "name": "87bfd41f8663a284ea51cd6837927d52", "is_reserved": 0, "is_disabled": 0}, {"lat": 38.887472333333335, "fusion_lat": 0.0, "type": "electric_scooter", "bike_id": "144bcd36c18977fbd3d0c81a27f008a0", "rental_uris": {"ios": "https://dc.lft.to/lastmile_qr_scan", "android": "https://dc.lft.to/lastmile_qr_scan"}, "fusion_lon": 0.0, "lon": -77.02572466666666, "name": "144bcd36c18977fbd3d0c81a27f008a0", "is_reserved": 0, "is_disabled": 0}, {"lat": 38.836313, "fusion_lat": 0.0, "type": "electric_bike", "bike_id": "84de2d5cf9e39d73973af1a1e137c07a", "rental_uris": {"ios": "https://dc.lft.to/lastmile_qr_scan", "android": "https://dc.lft.to/lastmile_qr_scan"}, "fusion_lon": 0.0, "lon": -77.06950166666667, "name": "84de2d5cf9e39d73973af1a1e137c07a", "is_reserved": 0, "is_disabled": 0}, {"lat": 38.89929583333333, "fusion_lat": 0.0, "type": "electric_scooter", "bike_id": "51d00fac0919a1b037b40419cb333d58", "rental_uris": {"ios": "https://dc.lft.to/lastmile_qr_scan", "android": "https://dc.lft.to/lastmile_qr_scan"}, "fusion_lon": 0.0, "lon": -77.01274966666666, "name": "51d00fac0919a1b037b40419cb333d58", "is_reserved": 0, "is_disabled": 0}, {"lat": 38.93106433333333, "fusion_lat": 0.0, "type": "electric_scooter", "bike_id": "b362f3ec2d7f8b8cc430f7c317ebd862", "rental_uris": {"ios": "https://dc.lft.to/lastmile_qr_scan", "android": "https://dc.lft.to/lastmile_qr_scan"}, "fusion_lon": 0.0, "lon": -77.0302215, "name": "b362f3ec2d7f8b8cc430f7c317ebd862", "is_reserved": 0, "is_disabled": 0}, {"lat": 38.89189183333333, "fusion_lat": 0.0, "type": "electric_scooter", "bike_id": "22523538e6e89250dd38eb0398416255", "rental_uris": {"ios": "https://dc.lft.to/lastmile_qr_scan", "android": "https://dc.lft.to/lastmile_qr_scan"}, "fusion_lon": 0.0, "lon": -77.03183016666667, "name": "22523538e6e89250dd38eb0398416255", "is_reserved": 0, "is_disabled": 0}, {"lat": 38.900152, "fusion_lat": 0.0, "type": "electric_scooter", "bike_id": "1fb6f128fc8027d110032fcd2e595079", "rental_uris": {"ios": "https://dc.lft.to/lastmile_qr_scan", "android": "https://dc.lft.to/lastmile_qr_scan"}, "fusion_lon": 0.0, "lon": -76.98843916666667, "name": "1fb6f128fc8027d110032fcd2e595079", "is_reserved": 0, "is_disabled": 0}, {"lat": 38.9093605, "fusion_lat": 0.0, "type": "electric_scooter", "bike_id": "f0ae426aa09cb6d2c21440eeaceca996", "rental_uris": {"ios": "https://dc.lft.to/lastmile_qr_scan", "android": "https://dc.lft.to/lastmile_qr_scan"}, "fusion_lon": 0.0, "lon": -77.04690783333334, "name": "f0ae426aa09cb6d2c21440eeaceca996", "is_reserved": 0, "is_disabled": 0}, {"lat": 38.88368533333333, "fusion_lat": 0.0, "type": "electric_scooter", "bike_id": "cc6605cf9c7ad75b50d7227ab2225526", "rental_uris": {"ios": "https://dc.lft.to/lastmile_qr_scan", "android": "https://dc.lft.to/lastmile_qr_scan"}, "fusion_lon": 0.0, "lon": -76.9950705, "name": "cc6605cf9c7ad75b50d7227ab2225526", "is_reserved": 0, "is_disabled": 0}, {"lat": 38.87658416666667, "fusion_lat": 0.0, "type": "electric_scooter", "bike_id": "0fc9ca65170a140e6e618dcf8f53921f", "rental_uris": {"ios": "https://dc.lft.to/lastmile_qr_scan", "android": "https://dc.lft.to/lastmile_qr_scan"}, "fusion_lon": 0.0, "lon": -77.00308516666666, "name": "0fc9ca65170a140e6e618dcf8f53921f", "is_reserved": 0, "is_disabled": 0}, {"lat": 38.941979, "fusion_lat": 0.0, "type": "electric_scooter", "bike_id": "56cc448a1da0f303f518c65d66a1251b", "rental_uris": {"ios": "https://dc.lft.to/lastmile_qr_scan", "android": "https://dc.lft.to/lastmile_qr_scan"}, "fusion_lon": 0.0, "lon": -77.02478283333333, "name": "56cc448a1da0f303f518c65d66a1251b", "is_reserved": 0, "is_disabled": 0}, {"lat": 38.903892666666664, "fusion_lat": 0.0, "type": "electric_scooter", "bike_id": "e8554b43e39274a9b70a6ca87dd48f4c", "rental_uris": {"ios": "https://dc.lft.to/lastmile_qr_scan", "android": "https://dc.lft.to/lastmile_qr_scan"}, "fusion_lon": 0.0, "lon": -77.05360316666666, "name": "e8554b43e39274a9b70a6ca87dd48f4c", "is_reserved": 0, "is_disabled": 0}, {"lat": 38.873948666666664, "fusion_lat": 0.0, "type": "electric_scooter", "bike_id": "299063b61e4493ceed79aaf49ffea894", "rental_uris": {"ios": "https://dc.lft.to/lastmile_qr_scan", "android": "https://dc.lft.to/lastmile_qr_scan"}, "fusion_lon": 0.0, "lon": -77.00032966666667, "name": "299063b61e4493ceed79aaf49ffea894", "is_reserved": 0, "is_disabled": 0}, {"lat": 38.918429833333334, "fusion_lat": 0.0, "type": "electric_scooter", "bike_id": "77eb3200c0497f078a949954dafab5b6", "rental_uris": {"ios": "https://dc.lft.to/lastmile_qr_scan", "android": "https://dc.lft.to/lastmile_qr_scan"}, "fusion_lon": 0.0, "lon": -77.02294983333333, "name": "77eb3200c0497f078a949954dafab5b6", "is_reserved": 0, "is_disabled": 0}, {"lat": 38.93882983333334, "fusion_lat": 0.0, "type": "electric_scooter", "bike_id": "c811ee9e724252f5d8247949b1c017cf", "rental_uris": {"ios": "https://dc.lft.to/lastmile_qr_scan", "android": "https://dc.lft.to/lastmile_qr_scan"}, "fusion_lon": 0.0, "lon": -77.02492583333333, "name": "c811ee9e724252f5d8247949b1c017cf", "is_reserved": 0, "is_disabled": 0}, {"lat": 38.930987, "fusion_lat": 0.0, "type": "electric_scooter", "bike_id": "fc4711937d0559295ef44b8885adc972", "rental_uris": {"ios": "https://dc.lft.to/lastmile_qr_scan", "android": "https://dc.lft.to/lastmile_qr_scan"}, "fusion_lon": 0.0, "lon": -77.02664866666667, "name": "fc4711937d0559295ef44b8885adc972", "is_reserved": 0, "is_disabled": 0}, {"lat": 38.91347716666667, "fusion_lat": 0.0, "type": "electric_scooter", "bike_id": "4a729f900de1479e1165b720465340ad", "rental_uris": {"ios": "https://dc.lft.to/lastmile_qr_scan", "android": "https://dc.lft.to/lastmile_qr_scan"}, "fusion_lon": 0.0, "lon": -77.04347733333333, "name": "4a729f900de1479e1165b720465340ad", "is_reserved": 0, "is_disabled": 0}, {"lat": 38.896087333333334, "fusion_lat": 0.0, "type": "electric_scooter", "bike_id": "f024f8cfc3036fd431fe10a657b1ec60", "rental_uris": {"ios": "https://dc.lft.to/lastmile_qr_scan", "android": "https://dc.lft.to/lastmile_qr_scan"}, "fusion_lon": 0.0, "lon": -77.02326983333333, "name": "f024f8cfc3036fd431fe10a657b1ec60", "is_reserved": 0, "is_disabled": 0}, {"lat": 38.91411183333334, "fusion_lat": 0.0, "type": "electric_scooter", "bike_id": "f91cb4bab88997c974544eefc15046a7", "rental_uris": {"ios": "https://dc.lft.to/lastmile_qr_scan", "android": "https://dc.lft.to/lastmile_qr_scan"}, "fusion_lon": 0.0, "lon": -77.02236183333333, "name": "f91cb4bab88997c974544eefc15046a7", "is_reserved": 0, "is_disabled": 0}, {"lat": 38.934318, "fusion_lat": 0.0, "type": "electric_scooter", "bike_id": "c415b0bce8427d133d3a61875132a21c", "rental_uris": {"ios": "https://dc.lft.to/lastmile_qr_scan", "android": "https://dc.lft.to/lastmile_qr_scan"}, "fusion_lon": 0.0, "lon": -77.0453185, "name": "c415b0bce8427d133d3a61875132a21c", "is_reserved": 0, "is_disabled": 0}, {"lat": 38.918648166666664, "fusion_lat": 0.0, "type": "electric_scooter", "bike_id": "6b3f67bc4b1706c94f9224e89236b084", "rental_uris": {"ios": "https://dc.lft.to/lastmile_qr_scan", "android": "https://dc.lft.to/lastmile_qr_scan"}, "fusion_lon": 0.0, "lon": -77.04764833333333, "name": "6b3f67bc4b1706c94f9224e89236b084", "is_reserved": 0, "is_disabled": 0}, {"lat": 38.936328, "fusion_lat": 0.0, "type": "electric_scooter", "bike_id": "658fe88845a35cdbf1ebd9fc2e9f0834", "rental_uris": {"ios": "https://dc.lft.to/lastmile_qr_scan", "android": "https://dc.lft.to/lastmile_qr_scan"}, "fusion_lon": 0.0, "lon": -77.05884233333333, "name": "658fe88845a35cdbf1ebd9fc2e9f0834", "is_reserved": 0, "is_disabled": 0}, {"lat": 38.956751, "fusion_lat": 0.0, "type": "electric_scooter", "bike_id": "d3f2d7a44d7eb927f240918dc71f92dc", "rental_uris": {"ios": "https://dc.lft.to/lastmile_qr_scan", "android": "https://dc.lft.to/lastmile_qr_scan"}, "fusion_lon": 0.0, "lon": -77.01359933333333, "name": "d3f2d7a44d7eb927f240918dc71f92dc", "is_reserved": 0, "is_disabled": 0}, {"lat": 38.936990333333334, "fusion_lat": 0.0, "type": "electric_scooter", "bike_id": "7d214723c384bace13dafd24d1573c6a", "rental_uris": {"ios": "https://dc.lft.to/lastmile_qr_scan", "android": "https://dc.lft.to/lastmile_qr_scan"}, "fusion_lon": 0.0, "lon": -77.05600466666667, "name": "7d214723c384bace13dafd24d1573c6a", "is_reserved": 0, "is_disabled": 0}, {"lat": 38.94520633333333, "fusion_lat": 0.0, "type": "electric_bike", "bike_id": "6db2b56e0178262e52fac0bd95f739ce", "rental_uris": {"ios": "https://dc.lft.to/lastmile_qr_scan", "android": "https://dc.lft.to/lastmile_qr_scan"}, "fusion_lon": 0.0, "lon": -77.07798666666666, "name": "6db2b56e0178262e52fac0bd95f739ce", "is_reserved": 0, "is_disabled": 0}, {"lat": 38.87180683333333, "fusion_lat": 0.0, "type": "electric_scooter", "bike_id": "a6737a6bb20f3c561ef613aad9467a66", "rental_uris": {"ios": "https://dc.lft.to/lastmile_qr_scan", "android": "https://dc.lft.to/lastmile_qr_scan"}, "fusion_lon": 0.0, "lon": -77.00646066666667, "name": "a6737a6bb20f3c561ef613aad9467a66", "is_reserved": 0, "is_disabled": 0}, {"lat": 38.90641266666667, "fusion_lat": 0.0, "type": "electric_scooter", "bike_id": "d62cdf0e81b452f9bbc998072c146b4c", "rental_uris": {"ios": "https://dc.lft.to/lastmile_qr_scan", "android": "https://dc.lft.to/lastmile_qr_scan"}, "fusion_lon": 0.0, "lon": -77.01766033333334, "name": "d62cdf0e81b452f9bbc998072c146b4c", "is_reserved": 0, "is_disabled": 0}, {"lat": 38.90864333333333, "fusion_lat": 0.0, "type": "electric_scooter", "bike_id": "430427720f24e54ec53f2b3fbea8ed80", "rental_uris": {"ios": "https://dc.lft.to/lastmile_qr_scan", "android": "https://dc.lft.to/lastmile_qr_scan"}, "fusion_lon": 0.0, "lon": -76.998104, "name": "430427720f24e54ec53f2b3fbea8ed80", "is_reserved": 0, "is_disabled": 0}, {"lat": 38.89471283333334, "fusion_lat": 0.0, "type": "electric_scooter", "bike_id": "cce6537b2867a3d7017fea05a62be9ae", "rental_uris": {"ios": "https://dc.lft.to/lastmile_qr_scan", "android": "https://dc.lft.to/lastmile_qr_scan"}, "fusion_lon": 0.0, "lon": -76.9961685, "name": "cce6537b2867a3d7017fea05a62be9ae", "is_reserved": 0, "is_disabled": 0}, {"lat": 38.90698416666667, "fusion_lat": 0.0, "type": "electric_scooter", "bike_id": "f1a147a37005133e88df23536ea0a79b", "rental_uris": {"ios": "https://dc.lft.to/lastmile_qr_scan", "android": "https://dc.lft.to/lastmile_qr_scan"}, "fusion_lon": 0.0, "lon": -77.041949, "name": "f1a147a37005133e88df23536ea0a79b", "is_reserved": 0, "is_disabled": 0}, {"lat": 38.900158833333336, "fusion_lat": 0.0, "type": "electric_scooter", "bike_id": "7c8cfea34f8b3ddfe1bbeb6dbefa28ca", "rental_uris": {"ios": "https://dc.lft.to/lastmile_qr_scan", "android": "https://dc.lft.to/lastmile_qr_scan"}, "fusion_lon": 0.0, "lon": -77.00188683333333, "name": "7c8cfea34f8b3ddfe1bbeb6dbefa28ca", "is_reserved": 0, "is_disabled": 0}, {"lat": 38.904118833333335, "fusion_lat": 0.0, "type": "electric_scooter", "bike_id": "04f265f9d1c7586e32ffdb67d0f927cf", "rental_uris": {"ios": "https://dc.lft.to/lastmile_qr_scan", "android": "https://dc.lft.to/lastmile_qr_scan"}, "fusion_lon": 0.0, "lon": -76.973316, "name": "04f265f9d1c7586e32ffdb67d0f927cf", "is_reserved": 0, "is_disabled": 0}, {"lat": 38.897346, "fusion_lat": 0.0, "type": "electric_scooter", "bike_id": "7b4bc3030e04331080732bd62fd1ef0b", "rental_uris": {"ios": "https://dc.lft.to/lastmile_qr_scan", "android": "https://dc.lft.to/lastmile_qr_scan"}, "fusion_lon": 0.0, "lon": -77.02324666666667, "name": "7b4bc3030e04331080732bd62fd1ef0b", "is_reserved": 0, "is_disabled": 0}, {"lat": 38.935570166666665, "fusion_lat": 0.0, "type": "electric_scooter", "bike_id": "b92904d1814ca72e5b6bfecf8ef42558", "rental_uris": {"ios": "https://dc.lft.to/lastmile_qr_scan", "android": "https://dc.lft.to/lastmile_qr_scan"}, "fusion_lon": 0.0, "lon": -77.0746245, "name": "b92904d1814ca72e5b6bfecf8ef42558", "is_reserved": 0, "is_disabled": 0}, {"lat": 38.923424833333335, "fusion_lat": 0.0, "type": "electric_scooter", "bike_id": "64c3dc8016e6746687af921997cfa5bd", "rental_uris": {"ios": "https://dc.lft.to/lastmile_qr_scan", "android": "https://dc.lft.to/lastmile_qr_scan"}, "fusion_lon": 0.0, "lon": -77.034848, "name": "64c3dc8016e6746687af921997cfa5bd", "is_reserved": 0, "is_disabled": 0}, {"lat": 38.83606233333333, "fusion_lat": 0.0, "type": "electric_bike", "bike_id": "e6a8932d8e6061a1359ae46798e378af", "rental_uris": {"ios": "https://dc.lft.to/lastmile_qr_scan", "android": "https://dc.lft.to/lastmile_qr_scan"}, "fusion_lon": 0.0, "lon": -77.003827, "name": "e6a8932d8e6061a1359ae46798e378af", "is_reserved": 0, "is_disabled": 0}, {"lat": 38.935339166666665, "fusion_lat": 0.0, "type": "electric_scooter", "bike_id": "3498443c52e980041663ee16562355b7", "rental_uris": {"ios": "https://dc.lft.to/lastmile_qr_scan", "android": "https://dc.lft.to/lastmile_qr_scan"}, "fusion_lon": 0.0, "lon": -77.03474583333333, "name": "3498443c52e980041663ee16562355b7", "is_reserved": 0, "is_disabled": 0}, {"lat": 38.90835516666667, "fusion_lat": 0.0, "type": "electric_scooter", "bike_id": "4600ddf5d4ce11ddaed719263008a8cc", "rental_uris": {"ios": "https://dc.lft.to/lastmile_qr_scan", "android": "https://dc.lft.to/lastmile_qr_scan"}, "fusion_lon": 0.0, "lon": -77.0321315, "name": "4600ddf5d4ce11ddaed719263008a8cc", "is_reserved": 0, "is_disabled": 0}, {"lat": 38.910266, "fusion_lat": 0.0, "type": "electric_scooter", "bike_id": "b61e1ca609b6f08bfa3f76ca548122f1", "rental_uris": {"ios": "https://dc.lft.to/lastmile_qr_scan", "android": "https://dc.lft.to/lastmile_qr_scan"}, "fusion_lon": 0.0, "lon": -77.03290616666666, "name": "b61e1ca609b6f08bfa3f76ca548122f1", "is_reserved": 0, "is_disabled": 0}, {"lat": 38.90204883333333, "fusion_lat": 0.0, "type": "electric_scooter", "bike_id": "eee4362be8df1266e72d06c4a7b53ae8", "rental_uris": {"ios": "https://dc.lft.to/lastmile_qr_scan", "android": "https://dc.lft.to/lastmile_qr_scan"}, "fusion_lon": 0.0, "lon": -77.021856, "name": "eee4362be8df1266e72d06c4a7b53ae8", "is_reserved": 0, "is_disabled": 0}, {"lat": 38.863947, "fusion_lat": 0.0, "type": "electric_bike", "bike_id": "4449edb6296bae61aba280981e06ce50", "rental_uris": {"ios": "https://dc.lft.to/lastmile_qr_scan", "android": "https://dc.lft.to/lastmile_qr_scan"}, "fusion_lon": 0.0, "lon": -77.20113133333334, "name": "4449edb6296bae61aba280981e06ce50", "is_reserved": 0, "is_disabled": 0}, {"lat": 38.84193033333333, "fusion_lat": 0.0, "type": "electric_bike", "bike_id": "232de8e7caa923ac85e0952cd9679db1", "rental_uris": {"ios": "https://dc.lft.to/lastmile_qr_scan", "android": "https://dc.lft.to/lastmile_qr_scan"}, "fusion_lon": 0.0, "lon": -77.0675615, "name": "232de8e7caa923ac85e0952cd9679db1", "is_reserved": 0, "is_disabled": 0}, {"lat": 38.90972933333333, "fusion_lat": 0.0, "type": "electric_scooter", "bike_id": "c0437cfe7635f6007c11b0321b26befe", "rental_uris": {"ios": "https://dc.lft.to/lastmile_qr_scan", "android": "https://dc.lft.to/lastmile_qr_scan"}, "fusion_lon": 0.0, "lon": -77.05195366666666, "name": "c0437cfe7635f6007c11b0321b26befe", "is_reserved": 0, "is_disabled": 0}, {"lat": 38.88532883333333, "fusion_lat": 0.0, "type": "electric_scooter", "bike_id": "dc64c0fe8b0bc9c28dd3e9ced1d198eb", "rental_uris": {"ios": "https://dc.lft.to/lastmile_qr_scan", "android": "https://dc.lft.to/lastmile_qr_scan"}, "fusion_lon": 0.0, "lon": -77.02184183333334, "name": "dc64c0fe8b0bc9c28dd3e9ced1d198eb", "is_reserved": 0, "is_disabled": 0}, {"lat": 38.97352133333333, "fusion_lat": 0.0, "type": "electric_scooter", "bike_id": "c509ee862b7a6f179d0258ea8eb1880b", "rental_uris": {"ios": "https://dc.lft.to/lastmile_qr_scan", "android": "https://dc.lft.to/lastmile_qr_scan"}, "fusion_lon": 0.0, "lon": -77.02788933333333, "name": "c509ee862b7a6f179d0258ea8eb1880b", "is_reserved": 0, "is_disabled": 0}, {"lat": 38.89826016666667, "fusion_lat": 0.0, "type": "electric_scooter", "bike_id": "af4e503aea583cc50127c651ff6c9a5f", "rental_uris": {"ios": "https://dc.lft.to/lastmile_qr_scan", "android": "https://dc.lft.to/lastmile_qr_scan"}, "fusion_lon": 0.0, "lon": -76.9465205, "name": "af4e503aea583cc50127c651ff6c9a5f", "is_reserved": 0, "is_disabled": 0}, {"lat": 38.87925666666667, "fusion_lat": 0.0, "type": "electric_scooter", "bike_id": "4ba36a463cea84b3a3651c47e76cc265", "rental_uris": {"ios": "https://dc.lft.to/lastmile_qr_scan", "android": "https://dc.lft.to/lastmile_qr_scan"}, "fusion_lon": 0.0, "lon": -77.02388616666667, "name": "4ba36a463cea84b3a3651c47e76cc265", "is_reserved": 0, "is_disabled": 0}, {"lat": 38.9188925, "fusion_lat": 0.0, "type": "electric_scooter", "bike_id": "31dac0f45745cbccf92a6e2b067c09cf", "rental_uris": {"ios": "https://dc.lft.to/lastmile_qr_scan", "android": "https://dc.lft.to/lastmile_qr_scan"}, "fusion_lon": 0.0, "lon": -77.03829183333333, "name": "31dac0f45745cbccf92a6e2b067c09cf", "is_reserved": 0, "is_disabled": 0}, {"lat": 38.90514433333333, "fusion_lat": 0.0, "type": "electric_scooter", "bike_id": "faf392a4e058cd14c2668884c4c5a7ac", "rental_uris": {"ios": "https://dc.lft.to/lastmile_qr_scan", "android": "https://dc.lft.to/lastmile_qr_scan"}, "fusion_lon": 0.0, "lon": -77.030035, "name": "faf392a4e058cd14c2668884c4c5a7ac", "is_reserved": 0, "is_disabled": 0}, {"lat": 38.930916, "fusion_lat": 0.0, "type": "electric_scooter", "bike_id": "cbc717d1d572a21beaa54564fa84a93c", "rental_uris": {"ios": "https://dc.lft.to/lastmile_qr_scan", "android": "https://dc.lft.to/lastmile_qr_scan"}, "fusion_lon": 0.0, "lon": -77.023675, "name": "cbc717d1d572a21beaa54564fa84a93c", "is_reserved": 0, "is_disabled": 0}, {"lat": 38.90956766666667, "fusion_lat": 0.0, "type": "electric_scooter", "bike_id": "66f719314ebd516286122b54a5e22330", "rental_uris": {"ios": "https://dc.lft.to/lastmile_qr_scan", "android": "https://dc.lft.to/lastmile_qr_scan"}, "fusion_lon": 0.0, "lon": -77.0400405, "name": "66f719314ebd516286122b54a5e22330", "is_reserved": 0, "is_disabled": 0}, {"lat": 38.8324395, "fusion_lat": 0.0, "type": "electric_bike", "bike_id": "96405d0095696d6b2a16e0a56544e6e3", "rental_uris": {"ios": "https://dc.lft.to/lastmile_qr_scan", "android": "https://dc.lft.to/lastmile_qr_scan"}, "fusion_lon": 0.0, "lon": -77.00719616666666, "name": "96405d0095696d6b2a16e0a56544e6e3", "is_reserved": 0, "is_disabled": 0}, {"lat": 38.9072385, "fusion_lat": 0.0, "type": "electric_scooter", "bike_id": "bfbc77ff0da1864737e6a7f2f7796ecd", "rental_uris": {"ios": "https://dc.lft.to/lastmile_qr_scan", "android": "https://dc.lft.to/lastmile_qr_scan"}, "fusion_lon": 0.0, "lon": -77.02528566666666, "name": "bfbc77ff0da1864737e6a7f2f7796ecd", "is_reserved": 0, "is_disabled": 0}, {"lat": 38.91504, "fusion_lat": 0.0, "type": "electric_scooter", "bike_id": "a59cd5ae096f70b37872a41ed9a2ac38", "rental_uris": {"ios": "https://dc.lft.to/lastmile_qr_scan", "android": "https://dc.lft.to/lastmile_qr_scan"}, "fusion_lon": 0.0, "lon": -77.03822266666667, "name": "a59cd5ae096f70b37872a41ed9a2ac38", "is_reserved": 0, "is_disabled": 0}, {"lat": 38.91625283333333, "fusion_lat": 0.0, "type": "electric_scooter", "bike_id": "37f3bd6861214ea11e6fa3ff5c7be035", "rental_uris": {"ios": "https://dc.lft.to/lastmile_qr_scan", "android": "https://dc.lft.to/lastmile_qr_scan"}, "fusion_lon": 0.0, "lon": -77.04807233333334, "name": "37f3bd6861214ea11e6fa3ff5c7be035", "is_reserved": 0, "is_disabled": 0}, {"lat": 38.93523666666667, "fusion_lat": 0.0, "type": "electric_scooter", "bike_id": "64f87be60910e5201b76222f9f190c1f", "rental_uris": {"ios": "https://dc.lft.to/lastmile_qr_scan", "android": "https://dc.lft.to/lastmile_qr_scan"}, "fusion_lon": 0.0, "lon": -77.0325515, "name": "64f87be60910e5201b76222f9f190c1f", "is_reserved": 0, "is_disabled": 0}, {"lat": 38.95218966666667, "fusion_lat": 0.0, "type": "electric_scooter", "bike_id": "35644dbae0d56ff58567885a9b8176c1", "rental_uris": {"ios": "https://dc.lft.to/lastmile_qr_scan", "android": "https://dc.lft.to/lastmile_qr_scan"}, "fusion_lon": 0.0, "lon": -77.01754283333334, "name": "35644dbae0d56ff58567885a9b8176c1", "is_reserved": 0, "is_disabled": 0}, {"lat": 38.94734483333333, "fusion_lat": 0.0, "type": "electric_scooter", "bike_id": "168a4275f060c1c457ca760e389bec89", "rental_uris": {"ios": "https://dc.lft.to/lastmile_qr_scan", "android": "https://dc.lft.to/lastmile_qr_scan"}, "fusion_lon": 0.0, "lon": -77.01616916666667, "name": "168a4275f060c1c457ca760e389bec89", "is_reserved": 0, "is_disabled": 0}, {"lat": 38.90713266666667, "fusion_lat": 0.0, "type": "electric_scooter", "bike_id": "e71149c490cf9376320561247da7a8f5", "rental_uris": {"ios": "https://dc.lft.to/lastmile_qr_scan", "android": "https://dc.lft.to/lastmile_qr_scan"}, "fusion_lon": 0.0, "lon": -77.04662133333333, "name": "e71149c490cf9376320561247da7a8f5", "is_reserved": 0, "is_disabled": 0}, {"lat": 38.931942666666664, "fusion_lat": 0.0, "type": "electric_scooter", "bike_id": "2bc5a85d7e26d856615937028197daeb", "rental_uris": {"ios": "https://dc.lft.to/lastmile_qr_scan", "android": "https://dc.lft.to/lastmile_qr_scan"}, "fusion_lon": 0.0, "lon": -77.02980966666667, "name": "2bc5a85d7e26d856615937028197daeb", "is_reserved": 0, "is_disabled": 0}, {"lat": 38.89512283333333, "fusion_lat": 0.0, "type": "electric_scooter", "bike_id": "54021be5962f5df11a086bc69502a5ff", "rental_uris": {"ios": "https://dc.lft.to/lastmile_qr_scan", "android": "https://dc.lft.to/lastmile_qr_scan"}, "fusion_lon": 0.0, "lon": -77.02189983333334, "name": "54021be5962f5df11a086bc69502a5ff", "is_reserved": 0, "is_disabled": 0}, {"lat": 38.906567833333334, "fusion_lat": 0.0, "type": "electric_scooter", "bike_id": "96e2d1cd84a5de3821cc156caa7d168e", "rental_uris": {"ios": "https://dc.lft.to/lastmile_qr_scan", "android": "https://dc.lft.to/lastmile_qr_scan"}, "fusion_lon": 0.0, "lon": -77.00012, "name": "96e2d1cd84a5de3821cc156caa7d168e", "is_reserved": 0, "is_disabled": 0}, {"lat": 38.9102115, "fusion_lat": 0.0, "type": "electric_scooter", "bike_id": "0d3141d1342b86d27096e61b15568f52", "rental_uris": {"ios": "https://dc.lft.to/lastmile_qr_scan", "android": "https://dc.lft.to/lastmile_qr_scan"}, "fusion_lon": 0.0, "lon": -77.02939416666666, "name": "0d3141d1342b86d27096e61b15568f52", "is_reserved": 0, "is_disabled": 0}, {"lat": 38.914153666666664, "fusion_lat": 0.0, "type": "electric_scooter", "bike_id": "87ee4b4359790ab9e406671a52338ae2", "rental_uris": {"ios": "https://dc.lft.to/lastmile_qr_scan", "android": "https://dc.lft.to/lastmile_qr_scan"}, "fusion_lon": 0.0, "lon": -77.03543966666666, "name": "87ee4b4359790ab9e406671a52338ae2", "is_reserved": 0, "is_disabled": 0}, {"lat": 38.9016865, "fusion_lat": 0.0, "type": "electric_scooter", "bike_id": "1de5ac116a6198df0cf93ca5be1f2c2d", "rental_uris": {"ios": "https://dc.lft.to/lastmile_qr_scan", "android": "https://dc.lft.to/lastmile_qr_scan"}, "fusion_lon": 0.0, "lon": -77.01614633333334, "name": "1de5ac116a6198df0cf93ca5be1f2c2d", "is_reserved": 0, "is_disabled": 0}, {"lat": 38.906907833333335, "fusion_lat": 0.0, "type": "electric_scooter", "bike_id": "4fed6505db50c227553ee9722c0efa40", "rental_uris": {"ios": "https://dc.lft.to/lastmile_qr_scan", "android": "https://dc.lft.to/lastmile_qr_scan"}, "fusion_lon": 0.0, "lon": -77.0381275, "name": "4fed6505db50c227553ee9722c0efa40", "is_reserved": 0, "is_disabled": 0}, {"lat": 38.8922105, "fusion_lat": 0.0, "type": "electric_scooter", "bike_id": "689c807dd780359cec5de02ab990f646", "rental_uris": {"ios": "https://dc.lft.to/lastmile_qr_scan", "android": "https://dc.lft.to/lastmile_qr_scan"}, "fusion_lon": 0.0, "lon": -77.03165316666667, "name": "689c807dd780359cec5de02ab990f646", "is_reserved": 0, "is_disabled": 0}, {"lat": 38.909676166666664, "fusion_lat": 0.0, "type": "electric_scooter", "bike_id": "2de64ea88704db5f0d8839694f6b0759", "rental_uris": {"ios": "https://dc.lft.to/lastmile_qr_scan", "android": "https://dc.lft.to/lastmile_qr_scan"}, "fusion_lon": 0.0, "lon": -77.02386083333333, "name": "2de64ea88704db5f0d8839694f6b0759", "is_reserved": 0, "is_disabled": 0}, {"lat": 38.831428333333335, "fusion_lat": 0.0, "type": "electric_bike", "bike_id": "b9f8c714603eb2963e1cbcb1e1f95ee7", "rental_uris": {"ios": "https://dc.lft.to/lastmile_qr_scan", "android": "https://dc.lft.to/lastmile_qr_scan"}, "fusion_lon": 0.0, "lon": -76.99403883333333, "name": "b9f8c714603eb2963e1cbcb1e1f95ee7", "is_reserved": 0, "is_disabled": 0}, {"lat": 38.922395333333334, "fusion_lat": 0.0, "type": "electric_scooter", "bike_id": "ea06ed31b5546336c68420601508fe88", "rental_uris": {"ios": "https://dc.lft.to/lastmile_qr_scan", "android": "https://dc.lft.to/lastmile_qr_scan"}, "fusion_lon": 0.0, "lon": -77.04493433333333, "name": "ea06ed31b5546336c68420601508fe88", "is_reserved": 0, "is_disabled": 0}, {"lat": 38.91318733333333, "fusion_lat": 0.0, "type": "electric_scooter", "bike_id": "aa54f990d2708c1c6aaa22f02badc844", "rental_uris": {"ios": "https://dc.lft.to/lastmile_qr_scan", "android": "https://dc.lft.to/lastmile_qr_scan"}, "fusion_lon": 0.0, "lon": -77.03666433333333, "name": "aa54f990d2708c1c6aaa22f02badc844", "is_reserved": 0, "is_disabled": 0}, {"lat": 38.89246633333333, "fusion_lat": 0.0, "type": "electric_scooter", "bike_id": "96f686929ea94eac4f1a4a5649e8c96e", "rental_uris": {"ios": "https://dc.lft.to/lastmile_qr_scan", "android": "https://dc.lft.to/lastmile_qr_scan"}, "fusion_lon": 0.0, "lon": -76.9883815, "name": "96f686929ea94eac4f1a4a5649e8c96e", "is_reserved": 0, "is_disabled": 0}, {"lat": 38.93674983333333, "fusion_lat": 0.0, "type": "electric_scooter", "bike_id": "3db14f02841e91f15680d23a1a82a474", "rental_uris": {"ios": "https://dc.lft.to/lastmile_qr_scan", "android": "https://dc.lft.to/lastmile_qr_scan"}, "fusion_lon": 0.0, "lon": -77.0359025, "name": "3db14f02841e91f15680d23a1a82a474", "is_reserved": 0, "is_disabled": 0}, {"lat": 38.91737333333333, "fusion_lat": 0.0, "type": "electric_scooter", "bike_id": "828aece6647c94d3394e9cbce2d6486b", "rental_uris": {"ios": "https://dc.lft.to/lastmile_qr_scan", "android": "https://dc.lft.to/lastmile_qr_scan"}, "fusion_lon": 0.0, "lon": -77.01691216666667, "name": "828aece6647c94d3394e9cbce2d6486b", "is_reserved": 0, "is_disabled": 0}, {"lat": 38.928107, "fusion_lat": 0.0, "type": "electric_scooter", "bike_id": "aa6a164c878419929d75b54b7c8cfb74", "rental_uris": {"ios": "https://dc.lft.to/lastmile_qr_scan", "android": "https://dc.lft.to/lastmile_qr_scan"}, "fusion_lon": 0.0, "lon": -77.05407866666667, "name": "aa6a164c878419929d75b54b7c8cfb74", "is_reserved": 0, "is_disabled": 0}, {"lat": 38.96469833333333, "fusion_lat": 0.0, "type": "electric_bike", "bike_id": "4923115f72b3a29af78f325ea754835f", "rental_uris": {"ios": "https://dc.lft.to/lastmile_qr_scan", "android": "https://dc.lft.to/lastmile_qr_scan"}, "fusion_lon": 0.0, "lon": -77.03566233333333, "name": "4923115f72b3a29af78f325ea754835f", "is_reserved": 0, "is_disabled": 0}, {"lat": 38.9245095, "fusion_lat": 0.0, "type": "electric_scooter", "bike_id": "56091c976fb61318bdd363595de6e5fc", "rental_uris": {"ios": "https://dc.lft.to/lastmile_qr_scan", "android": "https://dc.lft.to/lastmile_qr_scan"}, "fusion_lon": 0.0, "lon": -77.04022333333333, "name": "56091c976fb61318bdd363595de6e5fc", "is_reserved": 0, "is_disabled": 0}, {"lat": 38.92534283333333, "fusion_lat": 0.0, "type": "electric_scooter", "bike_id": "7ea386daa59cccc18e49dad9fef4a395", "rental_uris": {"ios": "https://dc.lft.to/lastmile_qr_scan", "android": "https://dc.lft.to/lastmile_qr_scan"}, "fusion_lon": 0.0, "lon": -77.03884666666667, "name": "7ea386daa59cccc18e49dad9fef4a395", "is_reserved": 0, "is_disabled": 0}, {"lat": 38.97367633333333, "fusion_lat": 0.0, "type": "electric_scooter", "bike_id": "2419bd958b128f946fe0c5e4330f6ea1", "rental_uris": {"ios": "https://dc.lft.to/lastmile_qr_scan", "android": "https://dc.lft.to/lastmile_qr_scan"}, "fusion_lon": 0.0, "lon": -77.018627, "name": "2419bd958b128f946fe0c5e4330f6ea1", "is_reserved": 0, "is_disabled": 0}, {"lat": 38.898214, "fusion_lat": 0.0, "type": "electric_scooter", "bike_id": "723b5c8e36577a0944272bef20a6a98e", "rental_uris": {"ios": "https://dc.lft.to/lastmile_qr_scan", "android": "https://dc.lft.to/lastmile_qr_scan"}, "fusion_lon": 0.0, "lon": -77.04091333333334, "name": "723b5c8e36577a0944272bef20a6a98e", "is_reserved": 0, "is_disabled": 0}, {"lat": 38.90930633333333, "fusion_lat": 0.0, "type": "electric_scooter", "bike_id": "a722b5ddab5d0356d1a3dc0454cfb9b4", "rental_uris": {"ios": "https://dc.lft.to/lastmile_qr_scan", "android": "https://dc.lft.to/lastmile_qr_scan"}, "fusion_lon": 0.0, "lon": -77.03990533333334, "name": "a722b5ddab5d0356d1a3dc0454cfb9b4", "is_reserved": 0, "is_disabled": 0}, {"lat": 38.90568833333333, "fusion_lat": 0.0, "type": "electric_scooter", "bike_id": "f36860c6141cc1c04581df11775a8efe", "rental_uris": {"ios": "https://dc.lft.to/lastmile_qr_scan", "android": "https://dc.lft.to/lastmile_qr_scan"}, "fusion_lon": 0.0, "lon": -77.0469135, "name": "f36860c6141cc1c04581df11775a8efe", "is_reserved": 0, "is_disabled": 0}, {"lat": 38.92636383333333, "fusion_lat": 0.0, "type": "electric_scooter", "bike_id": "696be90d8aba1e3cbebbb06528d07346", "rental_uris": {"ios": "https://dc.lft.to/lastmile_qr_scan", "android": "https://dc.lft.to/lastmile_qr_scan"}, "fusion_lon": 0.0, "lon": -77.03509466666667, "name": "696be90d8aba1e3cbebbb06528d07346", "is_reserved": 0, "is_disabled": 0}, {"lat": 38.91701066666667, "fusion_lat": 0.0, "type": "electric_scooter", "bike_id": "45a07c866b0f141e45575a11793b1b47", "rental_uris": {"ios": "https://dc.lft.to/lastmile_qr_scan", "android": "https://dc.lft.to/lastmile_qr_scan"}, "fusion_lon": 0.0, "lon": -77.04202783333334, "name": "45a07c866b0f141e45575a11793b1b47", "is_reserved": 0, "is_disabled": 0}, {"lat": 38.9086355, "fusion_lat": 0.0, "type": "electric_scooter", "bike_id": "4ae85efee23a5aff6210457199cceda0", "rental_uris": {"ios": "https://dc.lft.to/lastmile_qr_scan", "android": "https://dc.lft.to/lastmile_qr_scan"}, "fusion_lon": 0.0, "lon": -77.02390066666666, "name": "4ae85efee23a5aff6210457199cceda0", "is_reserved": 0, "is_disabled": 0}, {"lat": 38.89814633333334, "fusion_lat": 0.0, "type": "electric_bike", "bike_id": "cc88222101a965a97c3ca0424567a719", "rental_uris": {"ios": "https://dc.lft.to/lastmile_qr_scan", "android": "https://dc.lft.to/lastmile_qr_scan"}, "fusion_lon": 0.0, "lon": -76.99071766666667, "name": "cc88222101a965a97c3ca0424567a719", "is_reserved": 0, "is_disabled": 0}, {"lat": 38.897903666666664, "fusion_lat": 0.0, "type": "electric_scooter", "bike_id": "08c18f740f77d860a2ccad1476161e0b", "rental_uris": {"ios": "https://dc.lft.to/lastmile_qr_scan", "android": "https://dc.lft.to/lastmile_qr_scan"}, "fusion_lon": 0.0, "lon": -77.00913083333333, "name": "08c18f740f77d860a2ccad1476161e0b", "is_reserved": 0, "is_disabled": 0}, {"lat": 38.92258916666667, "fusion_lat": 0.0, "type": "electric_scooter", "bike_id": "13ba17a3f57c589de498bbba69e49be8", "rental_uris": {"ios": "https://dc.lft.to/lastmile_qr_scan", "android": "https://dc.lft.to/lastmile_qr_scan"}, "fusion_lon": 0.0, "lon": -77.01946983333333, "name": "13ba17a3f57c589de498bbba69e49be8", "is_reserved": 0, "is_disabled": 0}, {"lat": 38.92256583333333, "fusion_lat": 0.0, "type": "electric_scooter", "bike_id": "065b98f6de2229015be35ebd19a56823", "rental_uris": {"ios": "https://dc.lft.to/lastmile_qr_scan", "android": "https://dc.lft.to/lastmile_qr_scan"}, "fusion_lon": 0.0, "lon": -77.02111533333333, "name": "065b98f6de2229015be35ebd19a56823", "is_reserved": 0, "is_disabled": 0}, {"lat": 38.913621166666665, "fusion_lat": 0.0, "type": "electric_scooter", "bike_id": "09372e816cf885687e3f944c84e435bf", "rental_uris": {"ios": "https://dc.lft.to/lastmile_qr_scan", "android": "https://dc.lft.to/lastmile_qr_scan"}, "fusion_lon": 0.0, "lon": -77.02052183333333, "name": "09372e816cf885687e3f944c84e435bf", "is_reserved": 0, "is_disabled": 0}, {"lat": 38.89362416666667, "fusion_lat": 0.0, "type": "electric_bike", "bike_id": "198ea604ddd5bd9ef747db08025148cf", "rental_uris": {"ios": "https://dc.lft.to/lastmile_qr_scan", "android": "https://dc.lft.to/lastmile_qr_scan"}, "fusion_lon": 0.0, "lon": -76.98561416666666, "name": "198ea604ddd5bd9ef747db08025148cf", "is_reserved": 0, "is_disabled": 0}, {"lat": 38.916274666666666, "fusion_lat": 0.0, "type": "electric_scooter", "bike_id": "9b965dd3d27220b0e26dc6ee1f0df422", "rental_uris": {"ios": "https://dc.lft.to/lastmile_qr_scan", "android": "https://dc.lft.to/lastmile_qr_scan"}, "fusion_lon": 0.0, "lon": -77.03162816666666, "name": "9b965dd3d27220b0e26dc6ee1f0df422", "is_reserved": 0, "is_disabled": 0}, {"lat": 38.934824666666664, "fusion_lat": 0.0, "type": "electric_scooter", "bike_id": "5c9565990b0b5d9c565686614f756698", "rental_uris": {"ios": "https://dc.lft.to/lastmile_qr_scan", "android": "https://dc.lft.to/lastmile_qr_scan"}, "fusion_lon": 0.0, "lon": -77.02979383333333, "name": "5c9565990b0b5d9c565686614f756698", "is_reserved": 0, "is_disabled": 0}, {"lat": 38.900132166666666, "fusion_lat": 0.0, "type": "electric_scooter", "bike_id": "b84f204f45301e4b7c6e13a1d9b40867", "rental_uris": {"ios": "https://dc.lft.to/lastmile_qr_scan", "android": "https://dc.lft.to/lastmile_qr_scan"}, "fusion_lon": 0.0, "lon": -76.98851166666667, "name": "b84f204f45301e4b7c6e13a1d9b40867", "is_reserved": 0, "is_disabled": 0}, {"lat": 38.87040616666667, "fusion_lat": 0.0, "type": "electric_bike", "bike_id": "1de17dd2ed8bafdca9acd039e15dbfa8", "rental_uris": {"ios": "https://dc.lft.to/lastmile_qr_scan", "android": "https://dc.lft.to/lastmile_qr_scan"}, "fusion_lon": 0.0, "lon": -77.22912466666666, "name": "1de17dd2ed8bafdca9acd039e15dbfa8", "is_reserved": 0, "is_disabled": 0}, {"lat": 38.92137616666667, "fusion_lat": 0.0, "type": "electric_bike", "bike_id": "3edbec2ccea131457f87b64dbea49b93", "rental_uris": {"ios": "https://dc.lft.to/lastmile_qr_scan", "android": "https://dc.lft.to/lastmile_qr_scan"}, "fusion_lon": 0.0, "lon": -76.98881583333333, "name": "3edbec2ccea131457f87b64dbea49b93", "is_reserved": 0, "is_disabled": 0}, {"lat": 38.91172533333334, "fusion_lat": 0.0, "type": "electric_bike", "bike_id": "3bd86e4e1542ad35f416a8f82ae2d837", "rental_uris": {"ios": "https://dc.lft.to/lastmile_qr_scan", "android": "https://dc.lft.to/lastmile_qr_scan"}, "fusion_lon": 0.0, "lon": -77.00273566666667, "name": "3bd86e4e1542ad35f416a8f82ae2d837", "is_reserved": 0, "is_disabled": 0}, {"lat": 38.924857833333334, "fusion_lat": 0.0, "type": "electric_scooter", "bike_id": "aa770dad03150a49d5d786ca5ca8aae2", "rental_uris": {"ios": "https://dc.lft.to/lastmile_qr_scan", "android": "https://dc.lft.to/lastmile_qr_scan"}, "fusion_lon": 0.0, "lon": -77.02849366666666, "name": "aa770dad03150a49d5d786ca5ca8aae2", "is_reserved": 0, "is_disabled": 0}, {"lat": 38.902678, "fusion_lat": 0.0, "type": "electric_scooter", "bike_id": "dc59ea2e526ea14192b56da388d56f05", "rental_uris": {"ios": "https://dc.lft.to/lastmile_qr_scan", "android": "https://dc.lft.to/lastmile_qr_scan"}, "fusion_lon": 0.0, "lon": -77.04594616666667, "name": "dc59ea2e526ea14192b56da388d56f05", "is_reserved": 0, "is_disabled": 0}, {"lat": 38.91554466666667, "fusion_lat": 0.0, "type": "electric_scooter", "bike_id": "a24d28f1ecd51019e4eb25dd2e1ba1b1", "rental_uris": {"ios": "https://dc.lft.to/lastmile_qr_scan", "android": "https://dc.lft.to/lastmile_qr_scan"}, "fusion_lon": 0.0, "lon": -77.03257483333333, "name": "a24d28f1ecd51019e4eb25dd2e1ba1b1", "is_reserved": 0, "is_disabled": 0}, {"lat": 38.9026685, "fusion_lat": 0.0, "type": "electric_scooter", "bike_id": "91b95b3f0e627cbdcd64391cc3e5a3c2", "rental_uris": {"ios": "https://dc.lft.to/lastmile_qr_scan", "android": "https://dc.lft.to/lastmile_qr_scan"}, "fusion_lon": 0.0, "lon": -77.05319033333333, "name": "91b95b3f0e627cbdcd64391cc3e5a3c2", "is_reserved": 0, "is_disabled": 0}, {"lat": 38.91109133333333, "fusion_lat": 0.0, "type": "electric_scooter", "bike_id": "a8121d506cf56aa807a0a2d51844bee9", "rental_uris": {"ios": "https://dc.lft.to/lastmile_qr_scan", "android": "https://dc.lft.to/lastmile_qr_scan"}, "fusion_lon": 0.0, "lon": -77.03728283333334, "name": "a8121d506cf56aa807a0a2d51844bee9", "is_reserved": 0, "is_disabled": 0}, {"lat": 38.91202033333333, "fusion_lat": 0.0, "type": "electric_scooter", "bike_id": "c4cb874e16f2f878064c0380a6236902", "rental_uris": {"ios": "https://dc.lft.to/lastmile_qr_scan", "android": "https://dc.lft.to/lastmile_qr_scan"}, "fusion_lon": 0.0, "lon": -77.021968, "name": "c4cb874e16f2f878064c0380a6236902", "is_reserved": 0, "is_disabled": 0}, {"lat": 38.90237233333333, "fusion_lat": 0.0, "type": "electric_scooter", "bike_id": "c5d9ace114a094e36ca460d9c15e2bf0", "rental_uris": {"ios": "https://dc.lft.to/lastmile_qr_scan", "android": "https://dc.lft.to/lastmile_qr_scan"}, "fusion_lon": 0.0, "lon": -77.02371016666666, "name": "c5d9ace114a094e36ca460d9c15e2bf0", "is_reserved": 0, "is_disabled": 0}, {"lat": 38.84054066666667, "fusion_lat": 0.0, "type": "electric_scooter", "bike_id": "9425fcb3a0b3b40dac3b04b7e4146a61", "rental_uris": {"ios": "https://dc.lft.to/lastmile_qr_scan", "android": "https://dc.lft.to/lastmile_qr_scan"}, "fusion_lon": 0.0, "lon": -76.97667466666667, "name": "9425fcb3a0b3b40dac3b04b7e4146a61", "is_reserved": 0, "is_disabled": 0}, {"lat": 38.92143983333333, "fusion_lat": 0.0, "type": "electric_scooter", "bike_id": "6c890daa758a87395d9e578a1ac0c0ff", "rental_uris": {"ios": "https://dc.lft.to/lastmile_qr_scan", "android": "https://dc.lft.to/lastmile_qr_scan"}, "fusion_lon": 0.0, "lon": -77.0470015, "name": "6c890daa758a87395d9e578a1ac0c0ff", "is_reserved": 0, "is_disabled": 0}, {"lat": 38.91906083333333, "fusion_lat": 0.0, "type": "electric_scooter", "bike_id": "6e846da166fd5eb73cb8f07b541a2f65", "rental_uris": {"ios": "https://dc.lft.to/lastmile_qr_scan", "android": "https://dc.lft.to/lastmile_qr_scan"}, "fusion_lon": 0.0, "lon": -77.04625083333333, "name": "6e846da166fd5eb73cb8f07b541a2f65", "is_reserved": 0, "is_disabled": 0}, {"lat": 38.90645583333333, "fusion_lat": 0.0, "type": "electric_scooter", "bike_id": "f3dc95a3553256debe58d2832aa3c05a", "rental_uris": {"ios": "https://dc.lft.to/lastmile_qr_scan", "android": "https://dc.lft.to/lastmile_qr_scan"}, "fusion_lon": 0.0, "lon": -77.00871016666666, "name": "f3dc95a3553256debe58d2832aa3c05a", "is_reserved": 0, "is_disabled": 0}, {"lat": 38.91708116666667, "fusion_lat": 0.0, "type": "electric_scooter", "bike_id": "a1cb8bc1d87e5e254745d429ab276efa", "rental_uris": {"ios": "https://dc.lft.to/lastmile_qr_scan", "android": "https://dc.lft.to/lastmile_qr_scan"}, "fusion_lon": 0.0, "lon": -77.03864783333333, "name": "a1cb8bc1d87e5e254745d429ab276efa", "is_reserved": 0, "is_disabled": 0}, {"lat": 38.92236616666667, "fusion_lat": 0.0, "type": "electric_scooter", "bike_id": "5c9bddffd635b882587947e7c7fe8feb", "rental_uris": {"ios": "https://dc.lft.to/lastmile_qr_scan", "android": "https://dc.lft.to/lastmile_qr_scan"}, "fusion_lon": 0.0, "lon": -77.01834566666666, "name": "5c9bddffd635b882587947e7c7fe8feb", "is_reserved": 0, "is_disabled": 0}, {"lat": 38.8995115, "fusion_lat": 0.0, "type": "electric_scooter", "bike_id": "1543128e70da64e67805b890cb7322eb", "rental_uris": {"ios": "https://dc.lft.to/lastmile_qr_scan", "android": "https://dc.lft.to/lastmile_qr_scan"}, "fusion_lon": 0.0, "lon": -77.0449455, "name": "1543128e70da64e67805b890cb7322eb", "is_reserved": 0, "is_disabled": 0}, {"lat": 38.92670916666667, "fusion_lat": 0.0, "type": "electric_scooter", "bike_id": "efc0ba200dbd4b69ff3463c09c39e320", "rental_uris": {"ios": "https://dc.lft.to/lastmile_qr_scan", "android": "https://dc.lft.to/lastmile_qr_scan"}, "fusion_lon": 0.0, "lon": -77.02121566666666, "name": "efc0ba200dbd4b69ff3463c09c39e320", "is_reserved": 0, "is_disabled": 0}, {"lat": 38.922157166666665, "fusion_lat": 0.0, "type": "electric_scooter", "bike_id": "44d734e0f0a14adbe68291eaa2b9a713", "rental_uris": {"ios": "https://dc.lft.to/lastmile_qr_scan", "android": "https://dc.lft.to/lastmile_qr_scan"}, "fusion_lon": 0.0, "lon": -77.04189683333334, "name": "44d734e0f0a14adbe68291eaa2b9a713", "is_reserved": 0, "is_disabled": 0}, {"lat": 38.8972355, "fusion_lat": 0.0, "type": "electric_scooter", "bike_id": "f28162f32473fb5a061ba4e11968ed0c", "rental_uris": {"ios": "https://dc.lft.to/lastmile_qr_scan", "android": "https://dc.lft.to/lastmile_qr_scan"}, "fusion_lon": 0.0, "lon": -76.996773, "name": "f28162f32473fb5a061ba4e11968ed0c", "is_reserved": 0, "is_disabled": 0}, {"lat": 38.937572, "fusion_lat": 0.0, "type": "electric_scooter", "bike_id": "92680ac29093c4cb3725d395f51b76d6", "rental_uris": {"ios": "https://dc.lft.to/lastmile_qr_scan", "android": "https://dc.lft.to/lastmile_qr_scan"}, "fusion_lon": 0.0, "lon": -77.0329255, "name": "92680ac29093c4cb3725d395f51b76d6", "is_reserved": 0, "is_disabled": 0}, {"lat": 38.9191775, "fusion_lat": 0.0, "type": "electric_scooter", "bike_id": "d31a979a037aac054ae5388448ad7c00", "rental_uris": {"ios": "https://dc.lft.to/lastmile_qr_scan", "android": "https://dc.lft.to/lastmile_qr_scan"}, "fusion_lon": 0.0, "lon": -77.01902083333333, "name": "d31a979a037aac054ae5388448ad7c00", "is_reserved": 0, "is_disabled": 0}, {"lat": 38.90120733333333, "fusion_lat": 0.0, "type": "electric_scooter", "bike_id": "6ead46165bc4edad24069238307d4006", "rental_uris": {"ios": "https://dc.lft.to/lastmile_qr_scan", "android": "https://dc.lft.to/lastmile_qr_scan"}, "fusion_lon": 0.0, "lon": -77.01825433333333, "name": "6ead46165bc4edad24069238307d4006", "is_reserved": 0, "is_disabled": 0}, {"lat": 38.91556, "fusion_lat": 0.0, "type": "electric_scooter", "bike_id": "15310d2d86a5310636ece0c8fcd24c3f", "rental_uris": {"ios": "https://dc.lft.to/lastmile_qr_scan", "android": "https://dc.lft.to/lastmile_qr_scan"}, "fusion_lon": 0.0, "lon": -77.0386945, "name": "15310d2d86a5310636ece0c8fcd24c3f", "is_reserved": 0, "is_disabled": 0}, {"lat": 38.925888666666665, "fusion_lat": 0.0, "type": "electric_scooter", "bike_id": "477ff79d1b329532971296e055212d58", "rental_uris": {"ios": "https://dc.lft.to/lastmile_qr_scan", "android": "https://dc.lft.to/lastmile_qr_scan"}, "fusion_lon": 0.0, "lon": -77.09676366666666, "name": "477ff79d1b329532971296e055212d58", "is_reserved": 0, "is_disabled": 0}, {"lat": 38.881152166666666, "fusion_lat": 0.0, "type": "electric_bike", "bike_id": "7230070066c3e24f9e40e981d173487e", "rental_uris": {"ios": "https://dc.lft.to/lastmile_qr_scan", "android": "https://dc.lft.to/lastmile_qr_scan"}, "fusion_lon": 0.0, "lon": -77.01659066666667, "name": "7230070066c3e24f9e40e981d173487e", "is_reserved": 0, "is_disabled": 0}, {"lat": 38.875767333333336, "fusion_lat": 0.0, "type": "electric_bike", "bike_id": "88812d6a5d0d1b950fece6369eb92000", "rental_uris": {"ios": "https://dc.lft.to/lastmile_qr_scan", "android": "https://dc.lft.to/lastmile_qr_scan"}, "fusion_lon": 0.0, "lon": -77.23405433333333, "name": "88812d6a5d0d1b950fece6369eb92000", "is_reserved": 0, "is_disabled": 0}, {"lat": 38.934447666666664, "fusion_lat": 0.0, "type": "electric_scooter", "bike_id": "4e6cc40b6bb0a4d883db98b8a778adac", "rental_uris": {"ios": "https://dc.lft.to/lastmile_qr_scan", "android": "https://dc.lft.to/lastmile_qr_scan"}, "fusion_lon": 0.0, "lon": -77.0906275, "name": "4e6cc40b6bb0a4d883db98b8a778adac", "is_reserved": 0, "is_disabled": 0}, {"lat": 38.96168133333333, "fusion_lat": 0.0, "type": "electric_scooter", "bike_id": "01100d106c999218a5c2759da4450f46", "rental_uris": {"ios": "https://dc.lft.to/lastmile_qr_scan", "android": "https://dc.lft.to/lastmile_qr_scan"}, "fusion_lon": 0.0, "lon": -77.073486, "name": "01100d106c999218a5c2759da4450f46", "is_reserved": 0, "is_disabled": 0}, {"lat": 38.896849833333334, "fusion_lat": 0.0, "type": "electric_scooter", "bike_id": "154e1420d564822f8be2c7dcca680e80", "rental_uris": {"ios": "https://dc.lft.to/lastmile_qr_scan", "android": "https://dc.lft.to/lastmile_qr_scan"}, "fusion_lon": 0.0, "lon": -76.9371485, "name": "154e1420d564822f8be2c7dcca680e80", "is_reserved": 0, "is_disabled": 0}, {"lat": 38.918019666666666, "fusion_lat": 0.0, "type": "electric_scooter", "bike_id": "6c0badb20c50f25375fb2796a5b92389", "rental_uris": {"ios": "https://dc.lft.to/lastmile_qr_scan", "android": "https://dc.lft.to/lastmile_qr_scan"}, "fusion_lon": 0.0, "lon": -77.02490466666667, "name": "6c0badb20c50f25375fb2796a5b92389", "is_reserved": 0, "is_disabled": 0}, {"lat": 38.899380666666666, "fusion_lat": 0.0, "type": "electric_scooter", "bike_id": "e7f593291ddb7c7ab5afeb5c4f1e7b98", "rental_uris": {"ios": "https://dc.lft.to/lastmile_qr_scan", "android": "https://dc.lft.to/lastmile_qr_scan"}, "fusion_lon": 0.0, "lon": -77.04150983333334, "name": "e7f593291ddb7c7ab5afeb5c4f1e7b98", "is_reserved": 0, "is_disabled": 0}, {"lat": 38.892292833333336, "fusion_lat": 0.0, "type": "electric_scooter", "bike_id": "5e5d8a6e77d20b01250267e9573e5e06", "rental_uris": {"ios": "https://dc.lft.to/lastmile_qr_scan", "android": "https://dc.lft.to/lastmile_qr_scan"}, "fusion_lon": 0.0, "lon": -77.0280045, "name": "5e5d8a6e77d20b01250267e9573e5e06", "is_reserved": 0, "is_disabled": 0}, {"lat": 38.91065366666667, "fusion_lat": 0.0, "type": "electric_scooter", "bike_id": "2ea81e04762346aa50e03b5966449bdb", "rental_uris": {"ios": "https://dc.lft.to/lastmile_qr_scan", "android": "https://dc.lft.to/lastmile_qr_scan"}, "fusion_lon": 0.0, "lon": -77.053889, "name": "2ea81e04762346aa50e03b5966449bdb", "is_reserved": 0, "is_disabled": 0}, {"lat": 38.917167666666664, "fusion_lat": 0.0, "type": "electric_scooter", "bike_id": "239cea60f3d47b07810583fe6ebddd59", "rental_uris": {"ios": "https://dc.lft.to/lastmile_qr_scan", "android": "https://dc.lft.to/lastmile_qr_scan"}, "fusion_lon": 0.0, "lon": -77.03637333333333, "name": "239cea60f3d47b07810583fe6ebddd59", "is_reserved": 0, "is_disabled": 0}, {"lat": 38.9005735, "fusion_lat": 0.0, "type": "electric_scooter", "bike_id": "6d838727fd2d9316c94836b1de33b4c7", "rental_uris": {"ios": "https://dc.lft.to/lastmile_qr_scan", "android": "https://dc.lft.to/lastmile_qr_scan"}, "fusion_lon": 0.0, "lon": -77.05076583333333, "name": "6d838727fd2d9316c94836b1de33b4c7", "is_reserved": 0, "is_disabled": 0}, {"lat": 38.92351516666667, "fusion_lat": 0.0, "type": "electric_scooter", "bike_id": "5a62bb7b3bf3bbc1ea99c4872fa809a3", "rental_uris": {"ios": "https://dc.lft.to/lastmile_qr_scan", "android": "https://dc.lft.to/lastmile_qr_scan"}, "fusion_lon": 0.0, "lon": -77.00333216666667, "name": "5a62bb7b3bf3bbc1ea99c4872fa809a3", "is_reserved": 0, "is_disabled": 0}, {"lat": 38.8924175, "fusion_lat": 0.0, "type": "electric_scooter", "bike_id": "a62a2c3699030f0ca0b2424ec133be35", "rental_uris": {"ios": "https://dc.lft.to/lastmile_qr_scan", "android": "https://dc.lft.to/lastmile_qr_scan"}, "fusion_lon": 0.0, "lon": -77.05028233333333, "name": "a62a2c3699030f0ca0b2424ec133be35", "is_reserved": 0, "is_disabled": 0}, {"lat": 38.9152285, "fusion_lat": 0.0, "type": "electric_scooter", "bike_id": "48825a39ae532bad422040f04b8587f8", "rental_uris": {"ios": "https://dc.lft.to/lastmile_qr_scan", "android": "https://dc.lft.to/lastmile_qr_scan"}, "fusion_lon": 0.0, "lon": -77.04870166666667, "name": "48825a39ae532bad422040f04b8587f8", "is_reserved": 0, "is_disabled": 0}, {"lat": 38.8989935, "fusion_lat": 0.0, "type": "electric_scooter", "bike_id": "b732951d5c2d2f8c12d8042c396a38f6", "rental_uris": {"ios": "https://dc.lft.to/lastmile_qr_scan", "android": "https://dc.lft.to/lastmile_qr_scan"}, "fusion_lon": 0.0, "lon": -76.99964116666666, "name": "b732951d5c2d2f8c12d8042c396a38f6", "is_reserved": 0, "is_disabled": 0}, {"lat": 38.917246, "fusion_lat": 0.0, "type": "electric_scooter", "bike_id": "51a1cc33524366776ec3d445b4199e2c", "rental_uris": {"ios": "https://dc.lft.to/lastmile_qr_scan", "android": "https://dc.lft.to/lastmile_qr_scan"}, "fusion_lon": 0.0, "lon": -77.02593216666666, "name": "51a1cc33524366776ec3d445b4199e2c", "is_reserved": 0, "is_disabled": 0}, {"lat": 38.913901, "fusion_lat": 0.0, "type": "electric_scooter", "bike_id": "67ecc75524e4c8f9530b918270895c4c", "rental_uris": {"ios": "https://dc.lft.to/lastmile_qr_scan", "android": "https://dc.lft.to/lastmile_qr_scan"}, "fusion_lon": 0.0, "lon": -77.01658066666667, "name": "67ecc75524e4c8f9530b918270895c4c", "is_reserved": 0, "is_disabled": 0}, {"lat": 38.906526666666664, "fusion_lat": 0.0, "type": "electric_scooter", "bike_id": "4027c767e060da7718b587b0ab2acf39", "rental_uris": {"ios": "https://dc.lft.to/lastmile_qr_scan", "android": "https://dc.lft.to/lastmile_qr_scan"}, "fusion_lon": 0.0, "lon": -77.03862283333333, "name": "4027c767e060da7718b587b0ab2acf39", "is_reserved": 0, "is_disabled": 0}, {"lat": 38.89918216666667, "fusion_lat": 0.0, "type": "electric_scooter", "bike_id": "a8e016ee079f7c724d9576fa65277266", "rental_uris": {"ios": "https://dc.lft.to/lastmile_qr_scan", "android": "https://dc.lft.to/lastmile_qr_scan"}, "fusion_lon": 0.0, "lon": -76.933805, "name": "a8e016ee079f7c724d9576fa65277266", "is_reserved": 0, "is_disabled": 0}, {"lat": 39.01484216666667, "fusion_lat": 0.0, "type": "electric_bike", "bike_id": "f195bedbecb31b7d692a0211a87fec09", "rental_uris": {"ios": "https://dc.lft.to/lastmile_qr_scan", "android": "https://dc.lft.to/lastmile_qr_scan"}, "fusion_lon": 0.0, "lon": -77.09952316666667, "name": "f195bedbecb31b7d692a0211a87fec09", "is_reserved": 0, "is_disabled": 0}, {"lat": 38.919267166666664, "fusion_lat": 0.0, "type": "electric_scooter", "bike_id": "7942c096c0a8643eb56ba0591cf8c774", "rental_uris": {"ios": "https://dc.lft.to/lastmile_qr_scan", "android": "https://dc.lft.to/lastmile_qr_scan"}, "fusion_lon": 0.0, "lon": -77.02523916666667, "name": "7942c096c0a8643eb56ba0591cf8c774", "is_reserved": 0, "is_disabled": 0}, {"lat": 38.938198166666666, "fusion_lat": 0.0, "type": "electric_scooter", "bike_id": "b7fed164dd88087026b093eaa1adf3db", "rental_uris": {"ios": "https://dc.lft.to/lastmile_qr_scan", "android": "https://dc.lft.to/lastmile_qr_scan"}, "fusion_lon": 0.0, "lon": -76.98924866666667, "name": "b7fed164dd88087026b093eaa1adf3db", "is_reserved": 0, "is_disabled": 0}, {"lat": 38.917538, "fusion_lat": 0.0, "type": "electric_scooter", "bike_id": "0bf1deee11cfc9b82dbc5183d9b69244", "rental_uris": {"ios": "https://dc.lft.to/lastmile_qr_scan", "android": "https://dc.lft.to/lastmile_qr_scan"}, "fusion_lon": 0.0, "lon": -77.02809716666667, "name": "0bf1deee11cfc9b82dbc5183d9b69244", "is_reserved": 0, "is_disabled": 0}, {"lat": 38.92140883333333, "fusion_lat": 0.0, "type": "electric_scooter", "bike_id": "ebc47d0396a97746aea2cfbbb4fe7103", "rental_uris": {"ios": "https://dc.lft.to/lastmile_qr_scan", "android": "https://dc.lft.to/lastmile_qr_scan"}, "fusion_lon": 0.0, "lon": -77.04133283333333, "name": "ebc47d0396a97746aea2cfbbb4fe7103", "is_reserved": 0, "is_disabled": 0}, {"lat": 38.91021333333333, "fusion_lat": 0.0, "type": "electric_scooter", "bike_id": "b07faeba41b3b09cd64636125fa53302", "rental_uris": {"ios": "https://dc.lft.to/lastmile_qr_scan", "android": "https://dc.lft.to/lastmile_qr_scan"}, "fusion_lon": 0.0, "lon": -76.99729283333333, "name": "b07faeba41b3b09cd64636125fa53302", "is_reserved": 0, "is_disabled": 0}, {"lat": 38.87906316666667, "fusion_lat": 0.0, "type": "electric_scooter", "bike_id": "11ade1a5e5773c84af0372874bfbbcd2", "rental_uris": {"ios": "https://dc.lft.to/lastmile_qr_scan", "android": "https://dc.lft.to/lastmile_qr_scan"}, "fusion_lon": 0.0, "lon": -77.00588983333333, "name": "11ade1a5e5773c84af0372874bfbbcd2", "is_reserved": 0, "is_disabled": 0}, {"lat": 38.90964016666667, "fusion_lat": 0.0, "type": "electric_scooter", "bike_id": "6ae54d64a531ded383b74bc16ea5acec", "rental_uris": {"ios": "https://dc.lft.to/lastmile_qr_scan", "android": "https://dc.lft.to/lastmile_qr_scan"}, "fusion_lon": 0.0, "lon": -77.03992866666667, "name": "6ae54d64a531ded383b74bc16ea5acec", "is_reserved": 0, "is_disabled": 0}, {"lat": 38.92101433333333, "fusion_lat": 0.0, "type": "electric_scooter", "bike_id": "feae69a0137c8c07cb3c6256392a5371", "rental_uris": {"ios": "https://dc.lft.to/lastmile_qr_scan", "android": "https://dc.lft.to/lastmile_qr_scan"}, "fusion_lon": 0.0, "lon": -77.04687283333334, "name": "feae69a0137c8c07cb3c6256392a5371", "is_reserved": 0, "is_disabled": 0}, {"lat": 38.90864333333333, "fusion_lat": 0.0, "type": "electric_scooter", "bike_id": "df3e6e748d47bf8dfc58b414e567928c", "rental_uris": {"ios": "https://dc.lft.to/lastmile_qr_scan", "android": "https://dc.lft.to/lastmile_qr_scan"}, "fusion_lon": 0.0, "lon": -77.02383666666667, "name": "df3e6e748d47bf8dfc58b414e567928c", "is_reserved": 0, "is_disabled": 0}, {"lat": 38.917048666666666, "fusion_lat": 0.0, "type": "electric_scooter", "bike_id": "35cd34afe6bcf6dd502f3bddf40dd3c9", "rental_uris": {"ios": "https://dc.lft.to/lastmile_qr_scan", "android": "https://dc.lft.to/lastmile_qr_scan"}, "fusion_lon": 0.0, "lon": -77.03860333333333, "name": "35cd34afe6bcf6dd502f3bddf40dd3c9", "is_reserved": 0, "is_disabled": 0}, {"lat": 38.90892616666667, "fusion_lat": 0.0, "type": "electric_scooter", "bike_id": "bdd7481525c9d30d90cf8a5f5ad9878e", "rental_uris": {"ios": "https://dc.lft.to/lastmile_qr_scan", "android": "https://dc.lft.to/lastmile_qr_scan"}, "fusion_lon": 0.0, "lon": -76.991556, "name": "bdd7481525c9d30d90cf8a5f5ad9878e", "is_reserved": 0, "is_disabled": 0}, {"lat": 38.91598116666667, "fusion_lat": 0.0, "type": "electric_scooter", "bike_id": "dfa46034043cc73bb6763c7e13d9c79b", "rental_uris": {"ios": "https://dc.lft.to/lastmile_qr_scan", "android": "https://dc.lft.to/lastmile_qr_scan"}, "fusion_lon": 0.0, "lon": -77.01482883333334, "name": "dfa46034043cc73bb6763c7e13d9c79b", "is_reserved": 0, "is_disabled": 0}, {"lat": 38.9321745, "fusion_lat": 0.0, "type": "electric_scooter", "bike_id": "ba607fbecafe2c0a83625857381fa5dc", "rental_uris": {"ios": "https://dc.lft.to/lastmile_qr_scan", "android": "https://dc.lft.to/lastmile_qr_scan"}, "fusion_lon": 0.0, "lon": -77.03517816666667, "name": "ba607fbecafe2c0a83625857381fa5dc", "is_reserved": 0, "is_disabled": 0}, {"lat": 38.88762666666667, "fusion_lat": 0.0, "type": "electric_scooter", "bike_id": "cd14e6e9258fbe635cede29bca86ca5d", "rental_uris": {"ios": "https://dc.lft.to/lastmile_qr_scan", "android": "https://dc.lft.to/lastmile_qr_scan"}, "fusion_lon": 0.0, "lon": -76.98300266666666, "name": "cd14e6e9258fbe635cede29bca86ca5d", "is_reserved": 0, "is_disabled": 0}, {"lat": 38.91109333333333, "fusion_lat": 0.0, "type": "electric_scooter", "bike_id": "3fe23b98547aecb6e3247ea3e238f23f", "rental_uris": {"ios": "https://dc.lft.to/lastmile_qr_scan", "android": "https://dc.lft.to/lastmile_qr_scan"}, "fusion_lon": 0.0, "lon": -77.0308065, "name": "3fe23b98547aecb6e3247ea3e238f23f", "is_reserved": 0, "is_disabled": 0}, {"lat": 38.914135333333334, "fusion_lat": 0.0, "type": "electric_scooter", "bike_id": "d96b66ff0a69f4e76e56af07e5d225ed", "rental_uris": {"ios": "https://dc.lft.to/lastmile_qr_scan", "android": "https://dc.lft.to/lastmile_qr_scan"}, "fusion_lon": 0.0, "lon": -77.02234066666666, "name": "d96b66ff0a69f4e76e56af07e5d225ed", "is_reserved": 0, "is_disabled": 0}, {"lat": 38.9203595, "fusion_lat": 0.0, "type": "electric_scooter", "bike_id": "19204da3137496120c2a9ff8a477f520", "rental_uris": {"ios": "https://dc.lft.to/lastmile_qr_scan", "android": "https://dc.lft.to/lastmile_qr_scan"}, "fusion_lon": 0.0, "lon": -77.01222616666666, "name": "19204da3137496120c2a9ff8a477f520", "is_reserved": 0, "is_disabled": 0}, {"lat": 38.90212483333333, "fusion_lat": 0.0, "type": "electric_scooter", "bike_id": "233670982fadb410d9dd2e8c69aa7dcc", "rental_uris": {"ios": "https://dc.lft.to/lastmile_qr_scan", "android": "https://dc.lft.to/lastmile_qr_scan"}, "fusion_lon": 0.0, "lon": -76.974331, "name": "233670982fadb410d9dd2e8c69aa7dcc", "is_reserved": 0, "is_disabled": 0}, {"lat": 38.9049405, "fusion_lat": 0.0, "type": "electric_scooter", "bike_id": "3e3a39488471c2ff890f9e175a61faac", "rental_uris": {"ios": "https://dc.lft.to/lastmile_qr_scan", "android": "https://dc.lft.to/lastmile_qr_scan"}, "fusion_lon": 0.0, "lon": -77.028087, "name": "3e3a39488471c2ff890f9e175a61faac", "is_reserved": 0, "is_disabled": 0}, {"lat": 38.898093333333335, "fusion_lat": 0.0, "type": "electric_scooter", "bike_id": "9e1400985b4587353c7facaa8b7dd719", "rental_uris": {"ios": "https://dc.lft.to/lastmile_qr_scan", "android": "https://dc.lft.to/lastmile_qr_scan"}, "fusion_lon": 0.0, "lon": -77.0419285, "name": "9e1400985b4587353c7facaa8b7dd719", "is_reserved": 0, "is_disabled": 0}, {"lat": 38.906741, "fusion_lat": 0.0, "type": "electric_scooter", "bike_id": "f5c93d3e8b75a71b4d307b60f21e6363", "rental_uris": {"ios": "https://dc.lft.to/lastmile_qr_scan", "android": "https://dc.lft.to/lastmile_qr_scan"}, "fusion_lon": 0.0, "lon": -77.03587033333334, "name": "f5c93d3e8b75a71b4d307b60f21e6363", "is_reserved": 0, "is_disabled": 0}, {"lat": 38.906562666666666, "fusion_lat": 0.0, "type": "electric_scooter", "bike_id": "8b43b6e8c242aa62674845371cc8fb39", "rental_uris": {"ios": "https://dc.lft.to/lastmile_qr_scan", "android": "https://dc.lft.to/lastmile_qr_scan"}, "fusion_lon": 0.0, "lon": -77.0386165, "name": "8b43b6e8c242aa62674845371cc8fb39", "is_reserved": 0, "is_disabled": 0}, {"lat": 38.93706483333333, "fusion_lat": 0.0, "type": "electric_scooter", "bike_id": "d0b782a155464eff47318a719c05e79e", "rental_uris": {"ios": "https://dc.lft.to/lastmile_qr_scan", "android": "https://dc.lft.to/lastmile_qr_scan"}, "fusion_lon": 0.0, "lon": -77.0897635, "name": "d0b782a155464eff47318a719c05e79e", "is_reserved": 0, "is_disabled": 0}, {"lat": 38.91886183333333, "fusion_lat": 0.0, "type": "electric_scooter", "bike_id": "7612c59deaae5cf51410d4d2b74ef165", "rental_uris": {"ios": "https://dc.lft.to/lastmile_qr_scan", "android": "https://dc.lft.to/lastmile_qr_scan"}, "fusion_lon": 0.0, "lon": -77.03526716666667, "name": "7612c59deaae5cf51410d4d2b74ef165", "is_reserved": 0, "is_disabled": 0}, {"lat": 38.89804933333333, "fusion_lat": 0.0, "type": "electric_scooter", "bike_id": "1d14fdcb2362fadcb16080f5c2989f34", "rental_uris": {"ios": "https://dc.lft.to/lastmile_qr_scan", "android": "https://dc.lft.to/lastmile_qr_scan"}, "fusion_lon": 0.0, "lon": -77.02801433333333, "name": "1d14fdcb2362fadcb16080f5c2989f34", "is_reserved": 0, "is_disabled": 0}, {"lat": 38.86498016666667, "fusion_lat": 0.0, "type": "electric_bike", "bike_id": "cf33b2b057b5aa4752cd32bd08448084", "rental_uris": {"ios": "https://dc.lft.to/lastmile_qr_scan", "android": "https://dc.lft.to/lastmile_qr_scan"}, "fusion_lon": 0.0, "lon": -77.0767285, "name": "cf33b2b057b5aa4752cd32bd08448084", "is_reserved": 0, "is_disabled": 0}, {"lat": 38.891917, "fusion_lat": 0.0, "type": "electric_scooter", "bike_id": "e64bcd0f1841af7834687a3fc35ae5a3", "rental_uris": {"ios": "https://dc.lft.to/lastmile_qr_scan", "android": "https://dc.lft.to/lastmile_qr_scan"}, "fusion_lon": 0.0, "lon": -76.9986065, "name": "e64bcd0f1841af7834687a3fc35ae5a3", "is_reserved": 0, "is_disabled": 0}, {"lat": 38.93466033333333, "fusion_lat": 0.0, "type": "electric_scooter", "bike_id": "19254f423fb0cc0e6bfae88172ba4b78", "rental_uris": {"ios": "https://dc.lft.to/lastmile_qr_scan", "android": "https://dc.lft.to/lastmile_qr_scan"}, "fusion_lon": 0.0, "lon": -77.07274183333334, "name": "19254f423fb0cc0e6bfae88172ba4b78", "is_reserved": 0, "is_disabled": 0}, {"lat": 38.9196425, "fusion_lat": 0.0, "type": "electric_scooter", "bike_id": "616907843b308d89b3cf1b0bfc78ac62", "rental_uris": {"ios": "https://dc.lft.to/lastmile_qr_scan", "android": "https://dc.lft.to/lastmile_qr_scan"}, "fusion_lon": 0.0, "lon": -77.02359416666667, "name": "616907843b308d89b3cf1b0bfc78ac62", "is_reserved": 0, "is_disabled": 0}, {"lat": 38.92067433333333, "fusion_lat": 0.0, "type": "electric_scooter", "bike_id": "9105267b8440abb158096774c4138b37", "rental_uris": {"ios": "https://dc.lft.to/lastmile_qr_scan", "android": "https://dc.lft.to/lastmile_qr_scan"}, "fusion_lon": 0.0, "lon": -77.02399, "name": "9105267b8440abb158096774c4138b37", "is_reserved": 0, "is_disabled": 0}, {"lat": 38.90962616666667, "fusion_lat": 0.0, "type": "electric_scooter", "bike_id": "5308d38aae3c71282f0111d856fdbc85", "rental_uris": {"ios": "https://dc.lft.to/lastmile_qr_scan", "android": "https://dc.lft.to/lastmile_qr_scan"}, "fusion_lon": 0.0, "lon": -77.03260716666666, "name": "5308d38aae3c71282f0111d856fdbc85", "is_reserved": 0, "is_disabled": 0}, {"lat": 38.92487783333333, "fusion_lat": 0.0, "type": "electric_scooter", "bike_id": "ad83c30b002029eb64928b99dbe3ab12", "rental_uris": {"ios": "https://dc.lft.to/lastmile_qr_scan", "android": "https://dc.lft.to/lastmile_qr_scan"}, "fusion_lon": 0.0, "lon": -77.05211216666666, "name": "ad83c30b002029eb64928b99dbe3ab12", "is_reserved": 0, "is_disabled": 0}, {"lat": 38.81911733333333, "fusion_lat": 0.0, "type": "electric_bike", "bike_id": "886031dfabeccaace61db5df63b6aaeb", "rental_uris": {"ios": "https://dc.lft.to/lastmile_qr_scan", "android": "https://dc.lft.to/lastmile_qr_scan"}, "fusion_lon": 0.0, "lon": -77.12650083333334, "name": "886031dfabeccaace61db5df63b6aaeb", "is_reserved": 0, "is_disabled": 0}, {"lat": 38.91271666666667, "fusion_lat": 0.0, "type": "electric_scooter", "bike_id": "c05b8191aa428ff042fb35c3ae084337", "rental_uris": {"ios": "https://dc.lft.to/lastmile_qr_scan", "android": "https://dc.lft.to/lastmile_qr_scan"}, "fusion_lon": 0.0, "lon": -77.02213483333334, "name": "c05b8191aa428ff042fb35c3ae084337", "is_reserved": 0, "is_disabled": 0}, {"lat": 38.910274, "fusion_lat": 0.0, "type": "electric_scooter", "bike_id": "700f2ccb31120c5e73225f7f49a3e0c5", "rental_uris": {"ios": "https://dc.lft.to/lastmile_qr_scan", "android": "https://dc.lft.to/lastmile_qr_scan"}, "fusion_lon": 0.0, "lon": -77.04648833333333, "name": "700f2ccb31120c5e73225f7f49a3e0c5", "is_reserved": 0, "is_disabled": 0}, {"lat": 38.910546, "fusion_lat": 0.0, "type": "electric_scooter", "bike_id": "310a21811e69f2d37efff1f55d59d08d", "rental_uris": {"ios": "https://dc.lft.to/lastmile_qr_scan", "android": "https://dc.lft.to/lastmile_qr_scan"}, "fusion_lon": 0.0, "lon": -77.02213466666667, "name": "310a21811e69f2d37efff1f55d59d08d", "is_reserved": 0, "is_disabled": 0}, {"lat": 38.920519166666665, "fusion_lat": 0.0, "type": "electric_scooter", "bike_id": "e0d9f7182173a9e00a9c5a5732f7c0ba", "rental_uris": {"ios": "https://dc.lft.to/lastmile_qr_scan", "android": "https://dc.lft.to/lastmile_qr_scan"}, "fusion_lon": 0.0, "lon": -77.04343716666666, "name": "e0d9f7182173a9e00a9c5a5732f7c0ba", "is_reserved": 0, "is_disabled": 0}, {"lat": 38.914345833333336, "fusion_lat": 0.0, "type": "electric_scooter", "bike_id": "96daf11f3972de5d251a56399f94ea06", "rental_uris": {"ios": "https://dc.lft.to/lastmile_qr_scan", "android": "https://dc.lft.to/lastmile_qr_scan"}, "fusion_lon": 0.0, "lon": -76.98444, "name": "96daf11f3972de5d251a56399f94ea06", "is_reserved": 0, "is_disabled": 0}, {"lat": 38.917470333333334, "fusion_lat": 0.0, "type": "electric_scooter", "bike_id": "e33145840a24580bbfd75774a2db5b19", "rental_uris": {"ios": "https://dc.lft.to/lastmile_qr_scan", "android": "https://dc.lft.to/lastmile_qr_scan"}, "fusion_lon": 0.0, "lon": -77.0123, "name": "e33145840a24580bbfd75774a2db5b19", "is_reserved": 0, "is_disabled": 0}, {"lat": 38.892255166666665, "fusion_lat": 0.0, "type": "electric_scooter", "bike_id": "58fad44fb1b4a3632ad2c671edfe3c00", "rental_uris": {"ios": "https://dc.lft.to/lastmile_qr_scan", "android": "https://dc.lft.to/lastmile_qr_scan"}, "fusion_lon": 0.0, "lon": -77.00288116666667, "name": "58fad44fb1b4a3632ad2c671edfe3c00", "is_reserved": 0, "is_disabled": 0}, {"lat": 38.919636833333335, "fusion_lat": 0.0, "type": "electric_scooter", "bike_id": "af5ab04f6442b72adc792cfa5880ef6a", "rental_uris": {"ios": "https://dc.lft.to/lastmile_qr_scan", "android": "https://dc.lft.to/lastmile_qr_scan"}, "fusion_lon": 0.0, "lon": -77.01491966666667, "name": "af5ab04f6442b72adc792cfa5880ef6a", "is_reserved": 0, "is_disabled": 0}, {"lat": 38.920291166666665, "fusion_lat": 0.0, "type": "electric_scooter", "bike_id": "6953bdde6a22757880abfca65ac9a151", "rental_uris": {"ios": "https://dc.lft.to/lastmile_qr_scan", "android": "https://dc.lft.to/lastmile_qr_scan"}, "fusion_lon": 0.0, "lon": -77.0716395, "name": "6953bdde6a22757880abfca65ac9a151", "is_reserved": 0, "is_disabled": 0}, {"lat": 38.88734766666666, "fusion_lat": 0.0, "type": "electric_scooter", "bike_id": "006d6cdc86cbb85ba9a54f549807a4f2", "rental_uris": {"ios": "https://dc.lft.to/lastmile_qr_scan", "android": "https://dc.lft.to/lastmile_qr_scan"}, "fusion_lon": 0.0, "lon": -77.03175666666667, "name": "006d6cdc86cbb85ba9a54f549807a4f2", "is_reserved": 0, "is_disabled": 0}, {"lat": 38.997735, "fusion_lat": 0.0, "type": "electric_bike", "bike_id": "d48e1ac30485c1f7c8c27b7413451ea6", "rental_uris": {"ios": "https://dc.lft.to/lastmile_qr_scan", "android": "https://dc.lft.to/lastmile_qr_scan"}, "fusion_lon": 0.0, "lon": -77.0470965, "name": "d48e1ac30485c1f7c8c27b7413451ea6", "is_reserved": 0, "is_disabled": 0}, {"lat": 38.891884166666664, "fusion_lat": 0.0, "type": "electric_scooter", "bike_id": "8550225a27bb3d85027e83a6f7b8cc90", "rental_uris": {"ios": "https://dc.lft.to/lastmile_qr_scan", "android": "https://dc.lft.to/lastmile_qr_scan"}, "fusion_lon": 0.0, "lon": -77.03182066666666, "name": "8550225a27bb3d85027e83a6f7b8cc90", "is_reserved": 0, "is_disabled": 0}, {"lat": 38.932747666666664, "fusion_lat": 0.0, "type": "electric_scooter", "bike_id": "1f4eebe576102873501cfe1971736657", "rental_uris": {"ios": "https://dc.lft.to/lastmile_qr_scan", "android": "https://dc.lft.to/lastmile_qr_scan"}, "fusion_lon": 0.0, "lon": -77.04074733333333, "name": "1f4eebe576102873501cfe1971736657", "is_reserved": 0, "is_disabled": 0}, {"lat": 38.92690533333333, "fusion_lat": 0.0, "type": "electric_scooter", "bike_id": "e508308a2e1100c7eb8b7c392f18453e", "rental_uris": {"ios": "https://dc.lft.to/lastmile_qr_scan", "android": "https://dc.lft.to/lastmile_qr_scan"}, "fusion_lon": 0.0, "lon": -77.0357525, "name": "e508308a2e1100c7eb8b7c392f18453e", "is_reserved": 0, "is_disabled": 0}, {"lat": 38.8863105, "fusion_lat": 0.0, "type": "electric_scooter", "bike_id": "48f80ed53447bd2da6d1595ea392e676", "rental_uris": {"ios": "https://dc.lft.to/lastmile_qr_scan", "android": "https://dc.lft.to/lastmile_qr_scan"}, "fusion_lon": 0.0, "lon": -77.02827266666667, "name": "48f80ed53447bd2da6d1595ea392e676", "is_reserved": 0, "is_disabled": 0}, {"lat": 38.9428395, "fusion_lat": 0.0, "type": "electric_scooter", "bike_id": "468d42eeebf8b835b4dfaadd1bf9ee78", "rental_uris": {"ios": "https://dc.lft.to/lastmile_qr_scan", "android": "https://dc.lft.to/lastmile_qr_scan"}, "fusion_lon": 0.0, "lon": -77.02931766666667, "name": "468d42eeebf8b835b4dfaadd1bf9ee78", "is_reserved": 0, "is_disabled": 0}, {"lat": 38.924137, "fusion_lat": 0.0, "type": "electric_bike", "bike_id": "a11a699d4184ec1e3524afe867a25a79", "rental_uris": {"ios": "https://dc.lft.to/lastmile_qr_scan", "android": "https://dc.lft.to/lastmile_qr_scan"}, "fusion_lon": 0.0, "lon": -77.05044, "name": "a11a699d4184ec1e3524afe867a25a79", "is_reserved": 0, "is_disabled": 0}, {"lat": 38.94407416666667, "fusion_lat": 0.0, "type": "electric_bike", "bike_id": "6408637bea737489c82fc1e844212065", "rental_uris": {"ios": "https://dc.lft.to/lastmile_qr_scan", "android": "https://dc.lft.to/lastmile_qr_scan"}, "fusion_lon": 0.0, "lon": -77.05519866666667, "name": "6408637bea737489c82fc1e844212065", "is_reserved": 0, "is_disabled": 0}, {"lat": 38.907301833333335, "fusion_lat": 0.0, "type": "electric_scooter", "bike_id": "5e6e53778878ec892c35d63043ea3f5b", "rental_uris": {"ios": "https://dc.lft.to/lastmile_qr_scan", "android": "https://dc.lft.to/lastmile_qr_scan"}, "fusion_lon": 0.0, "lon": -77.041703, "name": "5e6e53778878ec892c35d63043ea3f5b", "is_reserved": 0, "is_disabled": 0}, {"lat": 38.94981466666667, "fusion_lat": 0.0, "type": "electric_scooter", "bike_id": "0af5f8f1a2997ba9141465e360a1546e", "rental_uris": {"ios": "https://dc.lft.to/lastmile_qr_scan", "android": "https://dc.lft.to/lastmile_qr_scan"}, "fusion_lon": 0.0, "lon": -77.02983016666667, "name": "0af5f8f1a2997ba9141465e360a1546e", "is_reserved": 0, "is_disabled": 0}, {"lat": 38.91769, "fusion_lat": 0.0, "type": "electric_scooter", "bike_id": "a256f55c3ebc3152030c7b1792151e34", "rental_uris": {"ios": "https://dc.lft.to/lastmile_qr_scan", "android": "https://dc.lft.to/lastmile_qr_scan"}, "fusion_lon": 0.0, "lon": -77.02302116666667, "name": "a256f55c3ebc3152030c7b1792151e34", "is_reserved": 0, "is_disabled": 0}, {"lat": 38.907442333333336, "fusion_lat": 0.0, "type": "electric_scooter", "bike_id": "8dd8858c9f6ee0e7005a476fed27f868", "rental_uris": {"ios": "https://dc.lft.to/lastmile_qr_scan", "android": "https://dc.lft.to/lastmile_qr_scan"}, "fusion_lon": 0.0, "lon": -77.00150533333333, "name": "8dd8858c9f6ee0e7005a476fed27f868", "is_reserved": 0, "is_disabled": 0}, {"lat": 38.892185166666664, "fusion_lat": 0.0, "type": "electric_scooter", "bike_id": "813aabeb346711cc41c74d2ad61dc731", "rental_uris": {"ios": "https://dc.lft.to/lastmile_qr_scan", "android": "https://dc.lft.to/lastmile_qr_scan"}, "fusion_lon": 0.0, "lon": -77.02683116666667, "name": "813aabeb346711cc41c74d2ad61dc731", "is_reserved": 0, "is_disabled": 0}, {"lat": 38.922292166666665, "fusion_lat": 0.0, "type": "electric_scooter", "bike_id": "978d8468ac67fa736f80c4b6abcd9fa0", "rental_uris": {"ios": "https://dc.lft.to/lastmile_qr_scan", "android": "https://dc.lft.to/lastmile_qr_scan"}, "fusion_lon": 0.0, "lon": -77.02221783333333, "name": "978d8468ac67fa736f80c4b6abcd9fa0", "is_reserved": 0, "is_disabled": 0}, {"lat": 38.8995045, "fusion_lat": 0.0, "type": "electric_scooter", "bike_id": "92f5c2710751b7802c81a42797e29d20", "rental_uris": {"ios": "https://dc.lft.to/lastmile_qr_scan", "android": "https://dc.lft.to/lastmile_qr_scan"}, "fusion_lon": 0.0, "lon": -77.02103733333334, "name": "92f5c2710751b7802c81a42797e29d20", "is_reserved": 0, "is_disabled": 0}, {"lat": 38.82776233333333, "fusion_lat": 0.0, "type": "electric_bike", "bike_id": "e67c2d7aa93d2d254468f685b11f5184", "rental_uris": {"ios": "https://dc.lft.to/lastmile_qr_scan", "android": "https://dc.lft.to/lastmile_qr_scan"}, "fusion_lon": 0.0, "lon": -77.124959, "name": "e67c2d7aa93d2d254468f685b11f5184", "is_reserved": 0, "is_disabled": 0}, {"lat": 38.9060585, "fusion_lat": 0.0, "type": "electric_scooter", "bike_id": "370da5d4bf0f66014c11bc5db9c16d24", "rental_uris": {"ios": "https://dc.lft.to/lastmile_qr_scan", "android": "https://dc.lft.to/lastmile_qr_scan"}, "fusion_lon": 0.0, "lon": -77.06379066666666, "name": "370da5d4bf0f66014c11bc5db9c16d24", "is_reserved": 0, "is_disabled": 0}, {"lat": 38.9237975, "fusion_lat": 0.0, "type": "electric_scooter", "bike_id": "1d6d4da5bc3818f1be0bd9e170bb3b66", "rental_uris": {"ios": "https://dc.lft.to/lastmile_qr_scan", "android": "https://dc.lft.to/lastmile_qr_scan"}, "fusion_lon": 0.0, "lon": -77.02634983333333, "name": "1d6d4da5bc3818f1be0bd9e170bb3b66", "is_reserved": 0, "is_disabled": 0}, {"lat": 38.92438583333333, "fusion_lat": 0.0, "type": "electric_scooter", "bike_id": "e93e01893b448642f98eb585db33dcbc", "rental_uris": {"ios": "https://dc.lft.to/lastmile_qr_scan", "android": "https://dc.lft.to/lastmile_qr_scan"}, "fusion_lon": 0.0, "lon": -77.02032583333333, "name": "e93e01893b448642f98eb585db33dcbc", "is_reserved": 0, "is_disabled": 0}, {"lat": 38.90618583333333, "fusion_lat": 0.0, "type": "electric_scooter", "bike_id": "a77a0545b8f6c249d258c457564f3861", "rental_uris": {"ios": "https://dc.lft.to/lastmile_qr_scan", "android": "https://dc.lft.to/lastmile_qr_scan"}, "fusion_lon": 0.0, "lon": -77.012654, "name": "a77a0545b8f6c249d258c457564f3861", "is_reserved": 0, "is_disabled": 0}, {"lat": 38.87158433333333, "fusion_lat": 0.0, "type": "electric_scooter", "bike_id": "8922c2af2fbb07a0dbebbe41bfbdcd36", "rental_uris": {"ios": "https://dc.lft.to/lastmile_qr_scan", "android": "https://dc.lft.to/lastmile_qr_scan"}, "fusion_lon": 0.0, "lon": -77.013578, "name": "8922c2af2fbb07a0dbebbe41bfbdcd36", "is_reserved": 0, "is_disabled": 0}, {"lat": 38.904271, "fusion_lat": 0.0, "type": "electric_scooter", "bike_id": "c1432ad766b7aa6483d30fa6f5bad22b", "rental_uris": {"ios": "https://dc.lft.to/lastmile_qr_scan", "android": "https://dc.lft.to/lastmile_qr_scan"}, "fusion_lon": 0.0, "lon": -76.99945516666666, "name": "c1432ad766b7aa6483d30fa6f5bad22b", "is_reserved": 0, "is_disabled": 0}, {"lat": 38.911117833333336, "fusion_lat": 0.0, "type": "electric_scooter", "bike_id": "9124043ce3b4218a987a88b55177893c", "rental_uris": {"ios": "https://dc.lft.to/lastmile_qr_scan", "android": "https://dc.lft.to/lastmile_qr_scan"}, "fusion_lon": 0.0, "lon": -77.0455175, "name": "9124043ce3b4218a987a88b55177893c", "is_reserved": 0, "is_disabled": 0}, {"lat": 38.907351166666665, "fusion_lat": 0.0, "type": "electric_scooter", "bike_id": "d7349ecdf037b434e01aa36820266fc3", "rental_uris": {"ios": "https://dc.lft.to/lastmile_qr_scan", "android": "https://dc.lft.to/lastmile_qr_scan"}, "fusion_lon": 0.0, "lon": -77.0281145, "name": "d7349ecdf037b434e01aa36820266fc3", "is_reserved": 0, "is_disabled": 0}, {"lat": 38.93841233333333, "fusion_lat": 0.0, "type": "electric_scooter", "bike_id": "04f530104c78db362104f1d930ffc021", "rental_uris": {"ios": "https://dc.lft.to/lastmile_qr_scan", "android": "https://dc.lft.to/lastmile_qr_scan"}, "fusion_lon": 0.0, "lon": -77.03381283333333, "name": "04f530104c78db362104f1d930ffc021", "is_reserved": 0, "is_disabled": 0}, {"lat": 38.915062, "fusion_lat": 0.0, "type": "electric_scooter", "bike_id": "e1d4cef45fbae8ad8b32ecfb27f95a68", "rental_uris": {"ios": "https://dc.lft.to/lastmile_qr_scan", "android": "https://dc.lft.to/lastmile_qr_scan"}, "fusion_lon": 0.0, "lon": -77.01577333333333, "name": "e1d4cef45fbae8ad8b32ecfb27f95a68", "is_reserved": 0, "is_disabled": 0}, {"lat": 38.925901833333334, "fusion_lat": 0.0, "type": "electric_bike", "bike_id": "f60ce917b78c954a0357c40ea5c1fb36", "rental_uris": {"ios": "https://dc.lft.to/lastmile_qr_scan", "android": "https://dc.lft.to/lastmile_qr_scan"}, "fusion_lon": 0.0, "lon": -77.21014783333334, "name": "f60ce917b78c954a0357c40ea5c1fb36", "is_reserved": 0, "is_disabled": 0}, {"lat": 38.93437983333333, "fusion_lat": 0.0, "type": "electric_scooter", "bike_id": "481107f1b474a4bbf680a0e038cd6ef7", "rental_uris": {"ios": "https://dc.lft.to/lastmile_qr_scan", "android": "https://dc.lft.to/lastmile_qr_scan"}, "fusion_lon": 0.0, "lon": -77.02097966666666, "name": "481107f1b474a4bbf680a0e038cd6ef7", "is_reserved": 0, "is_disabled": 0}, {"lat": 38.941936166666665, "fusion_lat": 0.0, "type": "electric_scooter", "bike_id": "e2e617b4018c011a0ac5b1ae52619c36", "rental_uris": {"ios": "https://dc.lft.to/lastmile_qr_scan", "android": "https://dc.lft.to/lastmile_qr_scan"}, "fusion_lon": 0.0, "lon": -77.0384585, "name": "e2e617b4018c011a0ac5b1ae52619c36", "is_reserved": 0, "is_disabled": 0}, {"lat": 38.90108166666667, "fusion_lat": 0.0, "type": "electric_scooter", "bike_id": "dc0ea2baae03d2ecafb93758c9b3f398", "rental_uris": {"ios": "https://dc.lft.to/lastmile_qr_scan", "android": "https://dc.lft.to/lastmile_qr_scan"}, "fusion_lon": 0.0, "lon": -77.04182466666667, "name": "dc0ea2baae03d2ecafb93758c9b3f398", "is_reserved": 0, "is_disabled": 0}, {"lat": 38.9057735, "fusion_lat": 0.0, "type": "electric_scooter", "bike_id": "37a8daede00967db5ee1717209ce0dc4", "rental_uris": {"ios": "https://dc.lft.to/lastmile_qr_scan", "android": "https://dc.lft.to/lastmile_qr_scan"}, "fusion_lon": 0.0, "lon": -77.02207516666667, "name": "37a8daede00967db5ee1717209ce0dc4", "is_reserved": 0, "is_disabled": 0}, {"lat": 38.8872845, "fusion_lat": 0.0, "type": "electric_scooter", "bike_id": "ace90d574d61fa77037f1f842f63c27c", "rental_uris": {"ios": "https://dc.lft.to/lastmile_qr_scan", "android": "https://dc.lft.to/lastmile_qr_scan"}, "fusion_lon": 0.0, "lon": -76.983612, "name": "ace90d574d61fa77037f1f842f63c27c", "is_reserved": 0, "is_disabled": 0}, {"lat": 38.905898, "fusion_lat": 0.0, "type": "electric_scooter", "bike_id": "41e0ee904a2366f384d9718588682d7f", "rental_uris": {"ios": "https://dc.lft.to/lastmile_qr_scan", "android": "https://dc.lft.to/lastmile_qr_scan"}, "fusion_lon": 0.0, "lon": -77.02179616666666, "name": "41e0ee904a2366f384d9718588682d7f", "is_reserved": 0, "is_disabled": 0}, {"lat": 38.919057, "fusion_lat": 0.0, "type": "electric_scooter", "bike_id": "8b47950f34473c9ba41f3f2da1b66621", "rental_uris": {"ios": "https://dc.lft.to/lastmile_qr_scan", "android": "https://dc.lft.to/lastmile_qr_scan"}, "fusion_lon": 0.0, "lon": -77.02048183333333, "name": "8b47950f34473c9ba41f3f2da1b66621", "is_reserved": 0, "is_disabled": 0}, {"lat": 38.94289333333333, "fusion_lat": 0.0, "type": "electric_scooter", "bike_id": "c60350c7a585a1cdf231b55aeecd0b52", "rental_uris": {"ios": "https://dc.lft.to/lastmile_qr_scan", "android": "https://dc.lft.to/lastmile_qr_scan"}, "fusion_lon": 0.0, "lon": -77.021719, "name": "c60350c7a585a1cdf231b55aeecd0b52", "is_reserved": 0, "is_disabled": 0}, {"lat": 38.884292, "fusion_lat": 0.0, "type": "electric_scooter", "bike_id": "3055d65cd419ef9a58cc3a42b72edc82", "rental_uris": {"ios": "https://dc.lft.to/lastmile_qr_scan", "android": "https://dc.lft.to/lastmile_qr_scan"}, "fusion_lon": 0.0, "lon": -76.95761366666666, "name": "3055d65cd419ef9a58cc3a42b72edc82", "is_reserved": 0, "is_disabled": 0}, {"lat": 38.8981105, "fusion_lat": 0.0, "type": "electric_scooter", "bike_id": "4c03fa54ffdebcc2fe2e4bebb1cbe6dd", "rental_uris": {"ios": "https://dc.lft.to/lastmile_qr_scan", "android": "https://dc.lft.to/lastmile_qr_scan"}, "fusion_lon": 0.0, "lon": -77.0106885, "name": "4c03fa54ffdebcc2fe2e4bebb1cbe6dd", "is_reserved": 0, "is_disabled": 0}, {"lat": 38.959578666666665, "fusion_lat": 0.0, "type": "electric_bike", "bike_id": "866932b47cf5ae614f49cf4509edf506", "rental_uris": {"ios": "https://dc.lft.to/lastmile_qr_scan", "android": "https://dc.lft.to/lastmile_qr_scan"}, "fusion_lon": 0.0, "lon": -77.03059066666667, "name": "866932b47cf5ae614f49cf4509edf506", "is_reserved": 0, "is_disabled": 0}, {"lat": 38.900860333333334, "fusion_lat": 0.0, "type": "electric_scooter", "bike_id": "54dfcefbda49c203fc533a68dfd127be", "rental_uris": {"ios": "https://dc.lft.to/lastmile_qr_scan", "android": "https://dc.lft.to/lastmile_qr_scan"}, "fusion_lon": 0.0, "lon": -76.92955483333333, "name": "54dfcefbda49c203fc533a68dfd127be", "is_reserved": 0, "is_disabled": 0}, {"lat": 38.88409683333333, "fusion_lat": 0.0, "type": "electric_scooter", "bike_id": "a1979e90007a6e5b94766628b126ab1d", "rental_uris": {"ios": "https://dc.lft.to/lastmile_qr_scan", "android": "https://dc.lft.to/lastmile_qr_scan"}, "fusion_lon": 0.0, "lon": -77.03173283333334, "name": "a1979e90007a6e5b94766628b126ab1d", "is_reserved": 0, "is_disabled": 0}, {"lat": 38.968007166666666, "fusion_lat": 0.0, "type": "electric_scooter", "bike_id": "e91ef511b7858aebceb34b33d84624cc", "rental_uris": {"ios": "https://dc.lft.to/lastmile_qr_scan", "android": "https://dc.lft.to/lastmile_qr_scan"}, "fusion_lon": 0.0, "lon": -77.02435216666667, "name": "e91ef511b7858aebceb34b33d84624cc", "is_reserved": 0, "is_disabled": 0}, {"lat": 38.899096, "fusion_lat": 0.0, "type": "electric_scooter", "bike_id": "07744ac637de87ef9ba2fa390eb8fdae", "rental_uris": {"ios": "https://dc.lft.to/lastmile_qr_scan", "android": "https://dc.lft.to/lastmile_qr_scan"}, "fusion_lon": 0.0, "lon": -77.03337783333333, "name": "07744ac637de87ef9ba2fa390eb8fdae", "is_reserved": 0, "is_disabled": 0}, {"lat": 38.916095, "fusion_lat": 0.0, "type": "electric_scooter", "bike_id": "bd1465b77f233b3999bdcb16e396555e", "rental_uris": {"ios": "https://dc.lft.to/lastmile_qr_scan", "android": "https://dc.lft.to/lastmile_qr_scan"}, "fusion_lon": 0.0, "lon": -77.0230545, "name": "bd1465b77f233b3999bdcb16e396555e", "is_reserved": 0, "is_disabled": 0}, {"lat": 38.88428, "fusion_lat": 0.0, "type": "electric_scooter", "bike_id": "013d8d77ad23874016554cb15fe69b99", "rental_uris": {"ios": "https://dc.lft.to/lastmile_qr_scan", "android": "https://dc.lft.to/lastmile_qr_scan"}, "fusion_lon": 0.0, "lon": -76.95754616666666, "name": "013d8d77ad23874016554cb15fe69b99", "is_reserved": 0, "is_disabled": 0}, {"lat": 38.93630116666667, "fusion_lat": 0.0, "type": "electric_scooter", "bike_id": "17b9b9b3838cb176b6fe2afa060a1502", "rental_uris": {"ios": "https://dc.lft.to/lastmile_qr_scan", "android": "https://dc.lft.to/lastmile_qr_scan"}, "fusion_lon": 0.0, "lon": -77.02114766666666, "name": "17b9b9b3838cb176b6fe2afa060a1502", "is_reserved": 0, "is_disabled": 0}, {"lat": 38.89546416666666, "fusion_lat": 0.0, "type": "electric_scooter", "bike_id": "db7873fa2a2d6ec5540d614871d1a51a", "rental_uris": {"ios": "https://dc.lft.to/lastmile_qr_scan", "android": "https://dc.lft.to/lastmile_qr_scan"}, "fusion_lon": 0.0, "lon": -76.98339916666667, "name": "db7873fa2a2d6ec5540d614871d1a51a", "is_reserved": 0, "is_disabled": 0}, {"lat": 38.9533135, "fusion_lat": 0.0, "type": "electric_bike", "bike_id": "e38dc4ea5c80440570f26e6f143de85c", "rental_uris": {"ios": "https://dc.lft.to/lastmile_qr_scan", "android": "https://dc.lft.to/lastmile_qr_scan"}, "fusion_lon": 0.0, "lon": -76.9825445, "name": "e38dc4ea5c80440570f26e6f143de85c", "is_reserved": 0, "is_disabled": 0}, {"lat": 38.89735733333333, "fusion_lat": 0.0, "type": "electric_scooter", "bike_id": "04c6761317e237bf732b516f39f4fda7", "rental_uris": {"ios": "https://dc.lft.to/lastmile_qr_scan", "android": "https://dc.lft.to/lastmile_qr_scan"}, "fusion_lon": 0.0, "lon": -77.04364733333334, "name": "04c6761317e237bf732b516f39f4fda7", "is_reserved": 0, "is_disabled": 0}, {"lat": 38.9320365, "fusion_lat": 0.0, "type": "electric_scooter", "bike_id": "cf88852fa3f9e14f6609eb612bfd1ed0", "rental_uris": {"ios": "https://dc.lft.to/lastmile_qr_scan", "android": "https://dc.lft.to/lastmile_qr_scan"}, "fusion_lon": 0.0, "lon": -77.03661366666667, "name": "cf88852fa3f9e14f6609eb612bfd1ed0", "is_reserved": 0, "is_disabled": 0}, {"lat": 38.931926833333335, "fusion_lat": 0.0, "type": "electric_scooter", "bike_id": "7dbe78cc63a626fbf7be69b4a8f50362", "rental_uris": {"ios": "https://dc.lft.to/lastmile_qr_scan", "android": "https://dc.lft.to/lastmile_qr_scan"}, "fusion_lon": 0.0, "lon": -77.01987933333334, "name": "7dbe78cc63a626fbf7be69b4a8f50362", "is_reserved": 0, "is_disabled": 0}, {"lat": 38.837411833333334, "fusion_lat": 0.0, "type": "electric_bike", "bike_id": "088e2ff4c90bf36748412d451edc0a79", "rental_uris": {"ios": "https://dc.lft.to/lastmile_qr_scan", "android": "https://dc.lft.to/lastmile_qr_scan"}, "fusion_lon": 0.0, "lon": -76.99823433333333, "name": "088e2ff4c90bf36748412d451edc0a79", "is_reserved": 0, "is_disabled": 0}, {"lat": 38.90571833333333, "fusion_lat": 0.0, "type": "electric_scooter", "bike_id": "60b773d6deab21503be3a3d7d574763b", "rental_uris": {"ios": "https://dc.lft.to/lastmile_qr_scan", "android": "https://dc.lft.to/lastmile_qr_scan"}, "fusion_lon": 0.0, "lon": -77.00592416666667, "name": "60b773d6deab21503be3a3d7d574763b", "is_reserved": 0, "is_disabled": 0}, {"lat": 38.91709816666667, "fusion_lat": 0.0, "type": "electric_scooter", "bike_id": "6290f40e4e62a0221e34c560f6fb8ffd", "rental_uris": {"ios": "https://dc.lft.to/lastmile_qr_scan", "android": "https://dc.lft.to/lastmile_qr_scan"}, "fusion_lon": 0.0, "lon": -77.0335265, "name": "6290f40e4e62a0221e34c560f6fb8ffd", "is_reserved": 0, "is_disabled": 0}, {"lat": 38.91709083333333, "fusion_lat": 0.0, "type": "electric_scooter", "bike_id": "74ecd01487a7c7a49896c077c6d70726", "rental_uris": {"ios": "https://dc.lft.to/lastmile_qr_scan", "android": "https://dc.lft.to/lastmile_qr_scan"}, "fusion_lon": 0.0, "lon": -77.03869916666666, "name": "74ecd01487a7c7a49896c077c6d70726", "is_reserved": 0, "is_disabled": 0},