{"data": {"bikes": [{"bike_id": "1d1ddc22e5f55286e00beed184f1f120", "fusion_lon": 0.0, "lon": -77.04193833333333, "name": "1d1ddc22e5f55286e00beed184f1f120", "is_disabled": 0, "rental_uris": {"android": "https://dc.lft.to/lastmile_qr_scan", "ios": "https://dc.lft.to/lastmile_qr_scan"}, "type": "electric_scooter", "lat": 38.92266566666667, "is_reserved": 0, "fusion_lat": 0.0}, {"bike_id": "435cfbd5a3647b7de98a56b2e322f9a8", "fusion_lon": 0.0, "lon": -77.00572566666666, "name": "435cfbd5a3647b7de98a56b2e322f9a8", "is_disabled": 0, "rental_uris": {"android": "https://dc.lft.to/lastmile_qr_scan", "ios": "https://dc.lft.to/lastmile_qr_scan"}, "type": "electric_scooter", "lat": 38.90565483333334, "is_reserved": 0, "fusion_lat": 0.0}, {"bike_id": "b1f4ce723b34d108100c771439a3a310", "fusion_lon": 0.0, "lon": -77.05285466666666, "name": "b1f4ce723b34d108100c771439a3a310", "is_disabled": 0, "rental_uris": {"android": "https://dc.lft.to/lastmile_qr_scan", "ios": "https://dc.lft.to/lastmile_qr_scan"}, "type": "electric_scooter", "lat": 38.9271165, "is_reserved": 0, "fusion_lat": 0.0}, {"bike_id": "1b343963cfc628bd514073fd6e7f84af", "fusion_lon": 0.0, "lon": -77.03853266666667, "name": "1b343963cfc628bd514073fd6e7f84af", "is_disabled": 0, "rental_uris": {"android": "https://dc.lft.to/lastmile_qr_scan", "ios": "https://dc.lft.to/lastmile_qr_scan"}, "type": "electric_scooter", "lat": 38.9179555, "is_reserved": 0, "fusion_lat": 0.0}, {"bike_id": "9c332d9ec923f8dc5df447f77d6d8641", "fusion_lon": 0.0, "lon": -77.0459345, "name": "9c332d9ec923f8dc5df447f77d6d8641", "is_disabled": 0, "rental_uris": {"android": "https://dc.lft.to/lastmile_qr_scan", "ios": "https://dc.lft.to/lastmile_qr_scan"}, "type": "electric_scooter", "lat": 38.896092333333335, "is_reserved": 0, "fusion_lat": 0.0}, {"bike_id": "4a5529959cd38cf2042770e2661579d1", "fusion_lon": 0.0, "lon": -77.05424983333333, "name": "4a5529959cd38cf2042770e2661579d1", "is_disabled": 0, "rental_uris": {"android": "https://dc.lft.to/lastmile_qr_scan", "ios": "https://dc.lft.to/lastmile_qr_scan"}, "type": "electric_scooter", "lat": 38.92360433333333, "is_reserved": 0, "fusion_lat": 0.0}, {"bike_id": "17d13134f1f95558bc635d59e01bf2b8", "fusion_lon": 0.0, "lon": -77.02285866666666, "name": "17d13134f1f95558bc635d59e01bf2b8", "is_disabled": 0, "rental_uris": {"android": "https://dc.lft.to/lastmile_qr_scan", "ios": "https://dc.lft.to/lastmile_qr_scan"}, "type": "electric_scooter", "lat": 38.91566316666667, "is_reserved": 0, "fusion_lat": 0.0}, {"bike_id": "11cb5a27f89e0cdf1b7174317e50f624", "fusion_lon": 0.0, "lon": -77.05320383333333, "name": "11cb5a27f89e0cdf1b7174317e50f624", "is_disabled": 0, "rental_uris": {"android": "https://dc.lft.to/lastmile_qr_scan", "ios": "https://dc.lft.to/lastmile_qr_scan"}, "type": "electric_scooter", "lat": 38.90406133333333, "is_reserved": 0, "fusion_lat": 0.0}, {"bike_id": "ebed5d1683265921adcd301c8dfb18d4", "fusion_lon": 0.0, "lon": -77.00975266666667, "name": "ebed5d1683265921adcd301c8dfb18d4", "is_disabled": 0, "rental_uris": {"android": "https://dc.lft.to/lastmile_qr_scan", "ios": "https://dc.lft.to/lastmile_qr_scan"}, "type": "electric_scooter", "lat": 38.9156005, "is_reserved": 0, "fusion_lat": 0.0}, {"bike_id": "0e6261ad745ea3864d254f7b39eb3432", "fusion_lon": 0.0, "lon": -77.03483566666667, "name": "0e6261ad745ea3864d254f7b39eb3432", "is_disabled": 0, "rental_uris": {"android": "https://dc.lft.to/lastmile_qr_scan", "ios": "https://dc.lft.to/lastmile_qr_scan"}, "type": "electric_scooter", "lat": 38.932684, "is_reserved": 0, "fusion_lat": 0.0}, {"bike_id": "cc90edc968ae97d9d7a949ba81fe8346", "fusion_lon": 0.0, "lon": -77.04321383333334, "name": "cc90edc968ae97d9d7a949ba81fe8346", "is_disabled": 0, "rental_uris": {"android": "https://dc.lft.to/lastmile_qr_scan", "ios": "https://dc.lft.to/lastmile_qr_scan"}, "type": "electric_scooter", "lat": 38.90594983333333, "is_reserved": 0, "fusion_lat": 0.0}, {"bike_id": "b2ea3354d25628cf5e41e4cc3effa989", "fusion_lon": 0.0, "lon": -77.03829666666667, "name": "b2ea3354d25628cf5e41e4cc3effa989", "is_disabled": 0, "rental_uris": {"android": "https://dc.lft.to/lastmile_qr_scan", "ios": "https://dc.lft.to/lastmile_qr_scan"}, "type": "electric_scooter", "lat": 38.906793666666665, "is_reserved": 0, "fusion_lat": 0.0}, {"bike_id": "ea3c66fd7240128a082794b577d98303", "fusion_lon": 0.0, "lon": -77.038209, "name": "ea3c66fd7240128a082794b577d98303", "is_disabled": 0, "rental_uris": {"android": "https://dc.lft.to/lastmile_qr_scan", "ios": "https://dc.lft.to/lastmile_qr_scan"}, "type": "electric_scooter", "lat": 38.90550733333333, "is_reserved": 0, "fusion_lat": 0.0}, {"bike_id": "3e196e5191f004fbe27989acd949bbbb", "fusion_lon": 0.0, "lon": -77.04183383333333, "name": "3e196e5191f004fbe27989acd949bbbb", "is_disabled": 0, "rental_uris": {"android": "https://dc.lft.to/lastmile_qr_scan", "ios": "https://dc.lft.to/lastmile_qr_scan"}, "type": "electric_scooter", "lat": 38.90483416666667, "is_reserved": 0, "fusion_lat": 0.0}, {"bike_id": "e58001d6d52288faac44295aacfe4a5c", "fusion_lon": 0.0, "lon": -77.0349595, "name": "e58001d6d52288faac44295aacfe4a5c", "is_disabled": 0, "rental_uris": {"android": "https://dc.lft.to/lastmile_qr_scan", "ios": "https://dc.lft.to/lastmile_qr_scan"}, "type": "electric_bike", "lat": 38.9039585, "is_reserved": 0, "fusion_lat": 0.0}, {"bike_id": "00ae4a7d394c028d870566e8dca6488a", "fusion_lon": 0.0, "lon": -76.93226883333334, "name": "00ae4a7d394c028d870566e8dca6488a", "is_disabled": 0, "rental_uris": {"android": "https://dc.lft.to/lastmile_qr_scan", "ios": "https://dc.lft.to/lastmile_qr_scan"}, "type": "electric_scooter", "lat": 38.898786666666666, "is_reserved": 0, "fusion_lat": 0.0}, {"bike_id": "9ec1b40f6fcb7393dcebdff7873e4df8", "fusion_lon": 0.0, "lon": -77.03188316666666, "name": "9ec1b40f6fcb7393dcebdff7873e4df8", "is_disabled": 0, "rental_uris": {"android": "https://dc.lft.to/lastmile_qr_scan", "ios": "https://dc.lft.to/lastmile_qr_scan"}, "type": "electric_scooter", "lat": 38.91335333333333, "is_reserved": 0, "fusion_lat": 0.0}, {"bike_id": "7a3a668fe0290c740ce9909f4ed56442", "fusion_lon": 0.0, "lon": -77.045906, "name": "7a3a668fe0290c740ce9909f4ed56442", "is_disabled": 0, "rental_uris": {"android": "https://dc.lft.to/lastmile_qr_scan", "ios": "https://dc.lft.to/lastmile_qr_scan"}, "type": "electric_scooter", "lat": 38.902827333333335, "is_reserved": 0, "fusion_lat": 0.0}, {"bike_id": "5de25f3d1aa250ce0e326395e1442922", "fusion_lon": 0.0, "lon": -77.057294, "name": "5de25f3d1aa250ce0e326395e1442922", "is_disabled": 0, "rental_uris": {"android": "https://dc.lft.to/lastmile_qr_scan", "ios": "https://dc.lft.to/lastmile_qr_scan"}, "type": "electric_scooter", "lat": 38.92431533333333, "is_reserved": 0, "fusion_lat": 0.0}, {"bike_id": "32f3cca0dc96d984a0285232bb049ede", "fusion_lon": 0.0, "lon": -77.02968233333333, "name": "32f3cca0dc96d984a0285232bb049ede", "is_disabled": 0, "rental_uris": {"android": "https://dc.lft.to/lastmile_qr_scan", "ios": "https://dc.lft.to/lastmile_qr_scan"}, "type": "electric_scooter", "lat": 38.916760833333335, "is_reserved": 0, "fusion_lat": 0.0}, {"bike_id": "38a00a83b9fdd7d124b8c0e04814760f", "fusion_lon": 0.0, "lon": -77.01688716666666, "name": "38a00a83b9fdd7d124b8c0e04814760f", "is_disabled": 0, "rental_uris": {"android": "https://dc.lft.to/lastmile_qr_scan", "ios": "https://dc.lft.to/lastmile_qr_scan"}, "type": "electric_scooter", "lat": 38.9063925, "is_reserved": 0, "fusion_lat": 0.0}, {"bike_id": "a61d0d0108ffa899b81c03c1615b699e", "fusion_lon": 0.0, "lon": -76.94941966666667, "name": "a61d0d0108ffa899b81c03c1615b699e", "is_disabled": 0, "rental_uris": {"android": "https://dc.lft.to/lastmile_qr_scan", "ios": "https://dc.lft.to/lastmile_qr_scan"}, "type": "electric_scooter", "lat": 38.894942666666665, "is_reserved": 0, "fusion_lat": 0.0}, {"bike_id": "5a4464e45abc2aa4938092e028aabf59", "fusion_lon": 0.0, "lon": -77.03499133333334, "name": "5a4464e45abc2aa4938092e028aabf59", "is_disabled": 0, "rental_uris": {"android": "https://dc.lft.to/lastmile_qr_scan", "ios": "https://dc.lft.to/lastmile_qr_scan"}, "type": "electric_scooter", "lat": 38.9638065, "is_reserved": 0, "fusion_lat": 0.0}, {"bike_id": "131c2f3f69b9bf89f356f1a010f81d3d", "fusion_lon": 0.0, "lon": -77.02396883333333, "name": "131c2f3f69b9bf89f356f1a010f81d3d", "is_disabled": 0, "rental_uris": {"android": "https://dc.lft.to/lastmile_qr_scan", "ios": "https://dc.lft.to/lastmile_qr_scan"}, "type": "electric_scooter", "lat": 38.93702833333333, "is_reserved": 0, "fusion_lat": 0.0}, {"bike_id": "2b0b3549ad17c41d9f1eff633665d7f0", "fusion_lon": 0.0, "lon": -77.01773333333334, "name": "2b0b3549ad17c41d9f1eff633665d7f0", "is_disabled": 0, "rental_uris": {"android": "https://dc.lft.to/lastmile_qr_scan", "ios": "https://dc.lft.to/lastmile_qr_scan"}, "type": "electric_bike", "lat": 38.98268433333333, "is_reserved": 0, "fusion_lat": 0.0}, {"bike_id": "bcf3adc11136110c821fae966a87831d", "fusion_lon": 0.0, "lon": -76.95017, "name": "bcf3adc11136110c821fae966a87831d", "is_disabled": 0, "rental_uris": {"android": "https://dc.lft.to/lastmile_qr_scan", "ios": "https://dc.lft.to/lastmile_qr_scan"}, "type": "electric_scooter", "lat": 38.89386916666667, "is_reserved": 0, "fusion_lat": 0.0}, {"bike_id": "0eecfa4a852aa417708cbe921924d35f", "fusion_lon": 0.0, "lon": -77.02168033333334, "name": "0eecfa4a852aa417708cbe921924d35f", "is_disabled": 0, "rental_uris": {"android": "https://dc.lft.to/lastmile_qr_scan", "ios": "https://dc.lft.to/lastmile_qr_scan"}, "type": "electric_scooter", "lat": 38.919037833333334, "is_reserved": 0, "fusion_lat": 0.0}, {"bike_id": "c6311a91e44160839cc7bc65850ac58c", "fusion_lon": 0.0, "lon": -77.02941883333334, "name": "c6311a91e44160839cc7bc65850ac58c", "is_disabled": 0, "rental_uris": {"android": "https://dc.lft.to/lastmile_qr_scan", "ios": "https://dc.lft.to/lastmile_qr_scan"}, "type": "electric_scooter", "lat": 38.90517216666667, "is_reserved": 0, "fusion_lat": 0.0}, {"bike_id": "06797f7ee438ed06edf54592ce821c6d", "fusion_lon": 0.0, "lon": -77.04100483333333, "name": "06797f7ee438ed06edf54592ce821c6d", "is_disabled": 0, "rental_uris": {"android": "https://dc.lft.to/lastmile_qr_scan", "ios": "https://dc.lft.to/lastmile_qr_scan"}, "type": "electric_scooter", "lat": 38.917765833333334, "is_reserved": 0, "fusion_lat": 0.0}, {"bike_id": "816f5f688c3bf46c896315c6b8ae2831", "fusion_lon": 0.0, "lon": -76.99757166666667, "name": "816f5f688c3bf46c896315c6b8ae2831", "is_disabled": 0, "rental_uris": {"android": "https://dc.lft.to/lastmile_qr_scan", "ios": "https://dc.lft.to/lastmile_qr_scan"}, "type": "electric_scooter", "lat": 38.88764966666667, "is_reserved": 0, "fusion_lat": 0.0}, {"bike_id": "51f0c4ccf36511ae75dcf21af8ffae09", "fusion_lon": 0.0, "lon": -76.97808183333333, "name": "51f0c4ccf36511ae75dcf21af8ffae09", "is_disabled": 0, "rental_uris": {"android": "https://dc.lft.to/lastmile_qr_scan", "ios": "https://dc.lft.to/lastmile_qr_scan"}, "type": "electric_scooter", "lat": 38.894517, "is_reserved": 0, "fusion_lat": 0.0}, {"bike_id": "71158fecd0a411f404a59271f5a67d5d", "fusion_lon": 0.0, "lon": -76.98191316666667, "name": "71158fecd0a411f404a59271f5a67d5d", "is_disabled": 0, "rental_uris": {"android": "https://dc.lft.to/lastmile_qr_scan", "ios": "https://dc.lft.to/lastmile_qr_scan"}, "type": "electric_bike", "lat": 38.98502, "is_reserved": 0, "fusion_lat": 0.0}, {"bike_id": "9a5790b9d61cec098bd4cc63be32df04", "fusion_lon": 0.0, "lon": -77.09475016666667, "name": "9a5790b9d61cec098bd4cc63be32df04", "is_disabled": 0, "rental_uris": {"android": "https://dc.lft.to/lastmile_qr_scan", "ios": "https://dc.lft.to/lastmile_qr_scan"}, "type": "electric_bike", "lat": 38.807528, "is_reserved": 0, "fusion_lat": 0.0}, {"bike_id": "7535d0173b410824433e12fc7570f5a3", "fusion_lon": 0.0, "lon": -77.01905183333334, "name": "7535d0173b410824433e12fc7570f5a3", "is_disabled": 0, "rental_uris": {"android": "https://dc.lft.to/lastmile_qr_scan", "ios": "https://dc.lft.to/lastmile_qr_scan"}, "type": "electric_scooter", "lat": 38.923471166666666, "is_reserved": 0, "fusion_lat": 0.0}, {"bike_id": "5215c79e0070ef15b50aff742b0954a4", "fusion_lon": 0.0, "lon": -77.018413, "name": "5215c79e0070ef15b50aff742b0954a4", "is_disabled": 0, "rental_uris": {"android": "https://dc.lft.to/lastmile_qr_scan", "ios": "https://dc.lft.to/lastmile_qr_scan"}, "type": "electric_scooter", "lat": 38.903891, "is_reserved": 0, "fusion_lat": 0.0}, {"bike_id": "d8daf14a372645ae1990feaf1aa70c11", "fusion_lon": 0.0, "lon": -77.02086466666667, "name": "d8daf14a372645ae1990feaf1aa70c11", "is_disabled": 0, "rental_uris": {"android": "https://dc.lft.to/lastmile_qr_scan", "ios": "https://dc.lft.to/lastmile_qr_scan"}, "type": "electric_scooter", "lat": 38.94105283333333, "is_reserved": 0, "fusion_lat": 0.0}, {"bike_id": "5787a7d8265cbe136dbf99655231d47e", "fusion_lon": 0.0, "lon": -77.02322533333333, "name": "5787a7d8265cbe136dbf99655231d47e", "is_disabled": 0, "rental_uris": {"android": "https://dc.lft.to/lastmile_qr_scan", "ios": "https://dc.lft.to/lastmile_qr_scan"}, "type": "electric_scooter", "lat": 38.89729466666667, "is_reserved": 0, "fusion_lat": 0.0}, {"bike_id": "ff6c045837b1947594bb45870f63f05a", "fusion_lon": 0.0, "lon": -76.9427965, "name": "ff6c045837b1947594bb45870f63f05a", "is_disabled": 0, "rental_uris": {"android": "https://dc.lft.to/lastmile_qr_scan", "ios": "https://dc.lft.to/lastmile_qr_scan"}, "type": "electric_bike", "lat": 38.879690333333336, "is_reserved": 0, "fusion_lat": 0.0}, {"bike_id": "e9e5782e1621e2c5a42bfa9eb66cf74d", "fusion_lon": 0.0, "lon": -77.05000433333333, "name": "e9e5782e1621e2c5a42bfa9eb66cf74d", "is_disabled": 0, "rental_uris": {"android": "https://dc.lft.to/lastmile_qr_scan", "ios": "https://dc.lft.to/lastmile_qr_scan"}, "type": "electric_scooter", "lat": 38.89230766666667, "is_reserved": 0, "fusion_lat": 0.0}, {"bike_id": "d09d84265765308c7aaf94a6cd8dcda3", "fusion_lon": 0.0, "lon": -76.99352183333333, "name": "d09d84265765308c7aaf94a6cd8dcda3", "is_disabled": 0, "rental_uris": {"android": "https://dc.lft.to/lastmile_qr_scan", "ios": "https://dc.lft.to/lastmile_qr_scan"}, "type": "electric_bike", "lat": 38.845021, "is_reserved": 0, "fusion_lat": 0.0}, {"bike_id": "4f28b84376b7e2b8ef2e08e211a1be6e", "fusion_lon": 0.0, "lon": -77.0072495, "name": "4f28b84376b7e2b8ef2e08e211a1be6e", "is_disabled": 0, "rental_uris": {"android": "https://dc.lft.to/lastmile_qr_scan", "ios": "https://dc.lft.to/lastmile_qr_scan"}, "type": "electric_scooter", "lat": 38.884908333333335, "is_reserved": 0, "fusion_lat": 0.0}, {"bike_id": "a4e3d83150d7984e6e506f31ac5f8855", "fusion_lon": 0.0, "lon": -76.99820033333333, "name": "a4e3d83150d7984e6e506f31ac5f8855", "is_disabled": 0, "rental_uris": {"android": "https://dc.lft.to/lastmile_qr_scan", "ios": "https://dc.lft.to/lastmile_qr_scan"}, "type": "electric_scooter", "lat": 38.908241333333336, "is_reserved": 0, "fusion_lat": 0.0}, {"bike_id": "5c9b27cb2b778a8f2635f528e343cffc", "fusion_lon": 0.0, "lon": -77.05269733333333, "name": "5c9b27cb2b778a8f2635f528e343cffc", "is_disabled": 0, "rental_uris": {"android": "https://dc.lft.to/lastmile_qr_scan", "ios": "https://dc.lft.to/lastmile_qr_scan"}, "type": "electric_scooter", "lat": 38.925403333333335, "is_reserved": 0, "fusion_lat": 0.0}, {"bike_id": "849eb563d3048dbbe98f46bad2ab5a42", "fusion_lon": 0.0, "lon": -77.02374533333334, "name": "849eb563d3048dbbe98f46bad2ab5a42", "is_disabled": 0, "rental_uris": {"android": "https://dc.lft.to/lastmile_qr_scan", "ios": "https://dc.lft.to/lastmile_qr_scan"}, "type": "electric_scooter", "lat": 38.90555166666667, "is_reserved": 0, "fusion_lat": 0.0}, {"bike_id": "e861c4d213b41145fa6f960e92388f99", "fusion_lon": 0.0, "lon": -77.01753033333334, "name": "e861c4d213b41145fa6f960e92388f99", "is_disabled": 0, "rental_uris": {"android": "https://dc.lft.to/lastmile_qr_scan", "ios": "https://dc.lft.to/lastmile_qr_scan"}, "type": "electric_scooter", "lat": 38.88330283333333, "is_reserved": 0, "fusion_lat": 0.0}, {"bike_id": "7224713cc172ee9ecf9aaf00afe35082", "fusion_lon": 0.0, "lon": -77.03127983333333, "name": "7224713cc172ee9ecf9aaf00afe35082", "is_disabled": 0, "rental_uris": {"android": "https://dc.lft.to/lastmile_qr_scan", "ios": "https://dc.lft.to/lastmile_qr_scan"}, "type": "electric_scooter", "lat": 38.918015833333335, "is_reserved": 0, "fusion_lat": 0.0}, {"bike_id": "2766705b33ff377fef8b53b622021ccc", "fusion_lon": 0.0, "lon": -77.02229983333334, "name": "2766705b33ff377fef8b53b622021ccc", "is_disabled": 0, "rental_uris": {"android": "https://dc.lft.to/lastmile_qr_scan", "ios": "https://dc.lft.to/lastmile_qr_scan"}, "type": "electric_scooter", "lat": 38.87876516666667, "is_reserved": 0, "fusion_lat": 0.0}, {"bike_id": "63c6a65640bab5a27746bf6d9f179442", "fusion_lon": 0.0, "lon": -77.02710166666667, "name": "63c6a65640bab5a27746bf6d9f179442", "is_disabled": 0, "rental_uris": {"android": "https://dc.lft.to/lastmile_qr_scan", "ios": "https://dc.lft.to/lastmile_qr_scan"}, "type": "electric_scooter", "lat": 38.906655, "is_reserved": 0, "fusion_lat": 0.0}, {"bike_id": "6b6baddb52e660690bf2f823349763df", "fusion_lon": 0.0, "lon": -77.02182116666667, "name": "6b6baddb52e660690bf2f823349763df", "is_disabled": 0, "rental_uris": {"android": "https://dc.lft.to/lastmile_qr_scan", "ios": "https://dc.lft.to/lastmile_qr_scan"}, "type": "electric_scooter", "lat": 38.89620583333333, "is_reserved": 0, "fusion_lat": 0.0}, {"bike_id": "2cc13a45f17019271c17f81ebab2de3f", "fusion_lon": 0.0, "lon": -77.00736216666667, "name": "2cc13a45f17019271c17f81ebab2de3f", "is_disabled": 0, "rental_uris": {"android": "https://dc.lft.to/lastmile_qr_scan", "ios": "https://dc.lft.to/lastmile_qr_scan"}, "type": "electric_scooter", "lat": 38.898382, "is_reserved": 0, "fusion_lat": 0.0}, {"bike_id": "547cf43fcbcec3d67b97bc7914d64b49", "fusion_lon": 0.0, "lon": -77.04862316666667, "name": "547cf43fcbcec3d67b97bc7914d64b49", "is_disabled": 0, "rental_uris": {"android": "https://dc.lft.to/lastmile_qr_scan", "ios": "https://dc.lft.to/lastmile_qr_scan"}, "type": "electric_scooter", "lat": 38.89222983333333, "is_reserved": 0, "fusion_lat": 0.0}, {"bike_id": "979d64f1eeed0cd05b3f5ca065399d73", "fusion_lon": 0.0, "lon": -77.04984566666667, "name": "979d64f1eeed0cd05b3f5ca065399d73", "is_disabled": 0, "rental_uris": {"android": "https://dc.lft.to/lastmile_qr_scan", "ios": "https://dc.lft.to/lastmile_qr_scan"}, "type": "electric_scooter", "lat": 38.901224666666664, "is_reserved": 0, "fusion_lat": 0.0}, {"bike_id": "701ce9987c7d775df5f570641d38c62a", "fusion_lon": 0.0, "lon": -77.05902066666667, "name": "701ce9987c7d775df5f570641d38c62a", "is_disabled": 0, "rental_uris": {"android": "https://dc.lft.to/lastmile_qr_scan", "ios": "https://dc.lft.to/lastmile_qr_scan"}, "type": "electric_scooter", "lat": 38.90304583333333, "is_reserved": 0, "fusion_lat": 0.0}, {"bike_id": "62cc0d1fc548e27e7a704ea0f2f8f086", "fusion_lon": 0.0, "lon": -77.05762183333333, "name": "62cc0d1fc548e27e7a704ea0f2f8f086", "is_disabled": 0, "rental_uris": {"android": "https://dc.lft.to/lastmile_qr_scan", "ios": "https://dc.lft.to/lastmile_qr_scan"}, "type": "electric_scooter", "lat": 38.9052245, "is_reserved": 0, "fusion_lat": 0.0}, {"bike_id": "06493ff9b0030558a03365abc9111a11", "fusion_lon": 0.0, "lon": -77.0323315, "name": "06493ff9b0030558a03365abc9111a11", "is_disabled": 0, "rental_uris": {"android": "https://dc.lft.to/lastmile_qr_scan", "ios": "https://dc.lft.to/lastmile_qr_scan"}, "type": "electric_scooter", "lat": 38.917136, "is_reserved": 0, "fusion_lat": 0.0}, {"bike_id": "c559c7102b73a144f2ab5f9332a3184f", "fusion_lon": 0.0, "lon": -76.9970145, "name": "c559c7102b73a144f2ab5f9332a3184f", "is_disabled": 0, "rental_uris": {"android": "https://dc.lft.to/lastmile_qr_scan", "ios": "https://dc.lft.to/lastmile_qr_scan"}, "type": "electric_scooter", "lat": 38.92189116666667, "is_reserved": 0, "fusion_lat": 0.0}, {"bike_id": "5f2f2b8f120c4f3d2fe3038aae71be68", "fusion_lon": 0.0, "lon": -77.20840466666667, "name": "5f2f2b8f120c4f3d2fe3038aae71be68", "is_disabled": 0, "rental_uris": {"android": "https://dc.lft.to/lastmile_qr_scan", "ios": "https://dc.lft.to/lastmile_qr_scan"}, "type": "electric_bike", "lat": 38.924602, "is_reserved": 0, "fusion_lat": 0.0}, {"bike_id": "79418ae699db885e8e74724654d1b964", "fusion_lon": 0.0, "lon": -77.01945366666666, "name": "79418ae699db885e8e74724654d1b964", "is_disabled": 0, "rental_uris": {"android": "https://dc.lft.to/lastmile_qr_scan", "ios": "https://dc.lft.to/lastmile_qr_scan"}, "type": "electric_scooter", "lat": 38.9241775, "is_reserved": 0, "fusion_lat": 0.0}, {"bike_id": "c521b33dee5c2a7354b5188009589225", "fusion_lon": 0.0, "lon": -77.11293516666667, "name": "c521b33dee5c2a7354b5188009589225", "is_disabled": 0, "rental_uris": {"android": "https://dc.lft.to/lastmile_qr_scan", "ios": "https://dc.lft.to/lastmile_qr_scan"}, "type": "electric_bike", "lat": 38.831605, "is_reserved": 0, "fusion_lat": 0.0}, {"bike_id": "30dfa686331d162de8792d905e6e3e84", "fusion_lon": 0.0, "lon": -77.02183166666667, "name": "30dfa686331d162de8792d905e6e3e84", "is_disabled": 0, "rental_uris": {"android": "https://dc.lft.to/lastmile_qr_scan", "ios": "https://dc.lft.to/lastmile_qr_scan"}, "type": "electric_scooter", "lat": 38.910522, "is_reserved": 0, "fusion_lat": 0.0}, {"bike_id": "8c0219a555df8fb4e857ff89aabfce7a", "fusion_lon": 0.0, "lon": -77.018144, "name": "8c0219a555df8fb4e857ff89aabfce7a", "is_disabled": 0, "rental_uris": {"android": "https://dc.lft.to/lastmile_qr_scan", "ios": "https://dc.lft.to/lastmile_qr_scan"}, "type": "electric_scooter", "lat": 38.919963833333334, "is_reserved": 0, "fusion_lat": 0.0}, {"bike_id": "81a815972839534b3b170b144dc4edcf", "fusion_lon": 0.0, "lon": -77.00586616666666, "name": "81a815972839534b3b170b144dc4edcf", "is_disabled": 0, "rental_uris": {"android": "https://dc.lft.to/lastmile_qr_scan", "ios": "https://dc.lft.to/lastmile_qr_scan"}, "type": "electric_scooter", "lat": 38.90561433333333, "is_reserved": 0, "fusion_lat": 0.0}, {"bike_id": "3d46f2590383003afcfc134f2cc5cc5a", "fusion_lon": 0.0, "lon": -77.02834416666667, "name": "3d46f2590383003afcfc134f2cc5cc5a", "is_disabled": 0, "rental_uris": {"android": "https://dc.lft.to/lastmile_qr_scan", "ios": "https://dc.lft.to/lastmile_qr_scan"}, "type": "electric_scooter", "lat": 38.92481433333333, "is_reserved": 0, "fusion_lat": 0.0}, {"bike_id": "51c5247f25401e50b37fe450207ef9b6", "fusion_lon": 0.0, "lon": -77.02846333333333, "name": "51c5247f25401e50b37fe450207ef9b6", "is_disabled": 0, "rental_uris": {"android": "https://dc.lft.to/lastmile_qr_scan", "ios": "https://dc.lft.to/lastmile_qr_scan"}, "type": "electric_scooter", "lat": 38.922373, "is_reserved": 0, "fusion_lat": 0.0}, {"bike_id": "a78a5d61355494425d71132fc9d00fd5", "fusion_lon": 0.0, "lon": -77.0384165, "name": "a78a5d61355494425d71132fc9d00fd5", "is_disabled": 0, "rental_uris": {"android": "https://dc.lft.to/lastmile_qr_scan", "ios": "https://dc.lft.to/lastmile_qr_scan"}, "type": "electric_scooter", "lat": 38.89325183333333, "is_reserved": 0, "fusion_lat": 0.0}, {"bike_id": "e11e0eee51b69c60c505fe08f80e0a94", "fusion_lon": 0.0, "lon": -77.05118733333333, "name": "e11e0eee51b69c60c505fe08f80e0a94", "is_disabled": 0, "rental_uris": {"android": "https://dc.lft.to/lastmile_qr_scan", "ios": "https://dc.lft.to/lastmile_qr_scan"}, "type": "electric_scooter", "lat": 38.92343983333333, "is_reserved": 0, "fusion_lat": 0.0}, {"bike_id": "4905fb837f1c228dcf2367fdc0d45879", "fusion_lon": 0.0, "lon": -77.01952933333334, "name": "4905fb837f1c228dcf2367fdc0d45879", "is_disabled": 0, "rental_uris": {"android": "https://dc.lft.to/lastmile_qr_scan", "ios": "https://dc.lft.to/lastmile_qr_scan"}, "type": "electric_scooter", "lat": 38.922511166666666, "is_reserved": 0, "fusion_lat": 0.0}, {"bike_id": "1d2bf621c1d555793f74adb5e4c2b924", "fusion_lon": 0.0, "lon": -77.03444483333334, "name": "1d2bf621c1d555793f74adb5e4c2b924", "is_disabled": 0, "rental_uris": {"android": "https://dc.lft.to/lastmile_qr_scan", "ios": "https://dc.lft.to/lastmile_qr_scan"}, "type": "electric_scooter", "lat": 38.93427416666667, "is_reserved": 0, "fusion_lat": 0.0}, {"bike_id": "9cf43cc9fad04d345d3744fa6075e9bc", "fusion_lon": 0.0, "lon": -77.02792583333333, "name": "9cf43cc9fad04d345d3744fa6075e9bc", "is_disabled": 0, "rental_uris": {"android": "https://dc.lft.to/lastmile_qr_scan", "ios": "https://dc.lft.to/lastmile_qr_scan"}, "type": "electric_scooter", "lat": 38.95393083333333, "is_reserved": 0, "fusion_lat": 0.0}, {"bike_id": "5659b52dc92c514b09694153b7abeeec", "fusion_lon": 0.0, "lon": -77.04167516666666, "name": "5659b52dc92c514b09694153b7abeeec", "is_disabled": 0, "rental_uris": {"android": "https://dc.lft.to/lastmile_qr_scan", "ios": "https://dc.lft.to/lastmile_qr_scan"}, "type": "electric_scooter", "lat": 38.904396166666665, "is_reserved": 0, "fusion_lat": 0.0}, {"bike_id": "7585a3009a45d85a253e6fb2e291d0d1", "fusion_lon": 0.0, "lon": -77.02080116666667, "name": "7585a3009a45d85a253e6fb2e291d0d1", "is_disabled": 0, "rental_uris": {"android": "https://dc.lft.to/lastmile_qr_scan", "ios": "https://dc.lft.to/lastmile_qr_scan"}, "type": "electric_scooter", "lat": 38.8756085, "is_reserved": 0, "fusion_lat": 0.0}, {"bike_id": "3886f73c1d039fcdf21b2586ed51e78a", "fusion_lon": 0.0, "lon": -77.019844, "name": "3886f73c1d039fcdf21b2586ed51e78a", "is_disabled": 0, "rental_uris": {"android": "https://dc.lft.to/lastmile_qr_scan", "ios": "https://dc.lft.to/lastmile_qr_scan"}, "type": "electric_scooter", "lat": 38.88476766666667, "is_reserved": 0, "fusion_lat": 0.0}, {"bike_id": "a077f15c06360b6a9804986ea3311a3f", "fusion_lon": 0.0, "lon": -77.04178816666666, "name": "a077f15c06360b6a9804986ea3311a3f", "is_disabled": 0, "rental_uris": {"android": "https://dc.lft.to/lastmile_qr_scan", "ios": "https://dc.lft.to/lastmile_qr_scan"}, "type": "electric_scooter", "lat": 38.9055695, "is_reserved": 0, "fusion_lat": 0.0}, {"bike_id": "58b1811854dc08bc47c63975fab0a611", "fusion_lon": 0.0, "lon": -77.09482183333333, "name": "58b1811854dc08bc47c63975fab0a611", "is_disabled": 0, "rental_uris": {"android": "https://dc.lft.to/lastmile_qr_scan", "ios": "https://dc.lft.to/lastmile_qr_scan"}, "type": "electric_bike", "lat": 39.03050016666667, "is_reserved": 0, "fusion_lat": 0.0}, {"bike_id": "6368bd5db4cf657ed7fa77597e60b277", "fusion_lon": 0.0, "lon": -77.063393, "name": "6368bd5db4cf657ed7fa77597e60b277", "is_disabled": 0, "rental_uris": {"android": "https://dc.lft.to/lastmile_qr_scan", "ios": "https://dc.lft.to/lastmile_qr_scan"}, "type": "electric_scooter", "lat": 38.90682866666667, "is_reserved": 0, "fusion_lat": 0.0}, {"bike_id": "c2c34635df50f43b27218884b6b39e82", "fusion_lon": 0.0, "lon": -76.98828, "name": "c2c34635df50f43b27218884b6b39e82", "is_disabled": 0, "rental_uris": {"android": "https://dc.lft.to/lastmile_qr_scan", "ios": "https://dc.lft.to/lastmile_qr_scan"}, "type": "electric_scooter", "lat": 38.90026483333333, "is_reserved": 0, "fusion_lat": 0.0}, {"bike_id": "4bbfc487b9bdd3a0fde3df2d17781918", "fusion_lon": 0.0, "lon": -77.04661933333334, "name": "4bbfc487b9bdd3a0fde3df2d17781918", "is_disabled": 0, "rental_uris": {"android": "https://dc.lft.to/lastmile_qr_scan", "ios": "https://dc.lft.to/lastmile_qr_scan"}, "type": "electric_scooter", "lat": 38.90206533333333, "is_reserved": 0, "fusion_lat": 0.0}, {"bike_id": "9cbcf56ae97360ea1593efa8c536162f", "fusion_lon": 0.0, "lon": -77.029499, "name": "9cbcf56ae97360ea1593efa8c536162f", "is_disabled": 0, "rental_uris": {"android": "https://dc.lft.to/lastmile_qr_scan", "ios": "https://dc.lft.to/lastmile_qr_scan"}, "type": "electric_scooter", "lat": 38.904911166666665, "is_reserved": 0, "fusion_lat": 0.0}, {"bike_id": "1c789be6a80f870465c74a7215f1d66f", "fusion_lon": 0.0, "lon": -76.97333, "name": "1c789be6a80f870465c74a7215f1d66f", "is_disabled": 0, "rental_uris": {"android": "https://dc.lft.to/lastmile_qr_scan", "ios": "https://dc.lft.to/lastmile_qr_scan"}, "type": "electric_scooter", "lat": 38.90407783333333, "is_reserved": 0, "fusion_lat": 0.0}, {"bike_id": "5fd5c92ce67997f82264d20f13bb2fd2", "fusion_lon": 0.0, "lon": -76.9925885, "name": "5fd5c92ce67997f82264d20f13bb2fd2", "is_disabled": 0, "rental_uris": {"android": "https://dc.lft.to/lastmile_qr_scan", "ios": "https://dc.lft.to/lastmile_qr_scan"}, "type": "electric_scooter", "lat": 38.919780333333335, "is_reserved": 0, "fusion_lat": 0.0}, {"bike_id": "8cd0e1bb284b1842133adf5c3b7b1e6e", "fusion_lon": 0.0, "lon": -77.04879583333333, "name": "8cd0e1bb284b1842133adf5c3b7b1e6e", "is_disabled": 0, "rental_uris": {"android": "https://dc.lft.to/lastmile_qr_scan", "ios": "https://dc.lft.to/lastmile_qr_scan"}, "type": "electric_scooter", "lat": 38.9134085, "is_reserved": 0, "fusion_lat": 0.0}, {"bike_id": "c9d308a41e5db13a5b088e0e4b7facad", "fusion_lon": 0.0, "lon": -77.02335133333334, "name": "c9d308a41e5db13a5b088e0e4b7facad", "is_disabled": 0, "rental_uris": {"android": "https://dc.lft.to/lastmile_qr_scan", "ios": "https://dc.lft.to/lastmile_qr_scan"}, "type": "electric_scooter", "lat": 38.92471183333333, "is_reserved": 0, "fusion_lat": 0.0}, {"bike_id": "87353f9aaecdf74e52e0e1f9eb4161d7", "fusion_lon": 0.0, "lon": -77.03214916666667, "name": "87353f9aaecdf74e52e0e1f9eb4161d7", "is_disabled": 0, "rental_uris": {"android": "https://dc.lft.to/lastmile_qr_scan", "ios": "https://dc.lft.to/lastmile_qr_scan"}, "type": "electric_scooter", "lat": 38.91475716666667, "is_reserved": 0, "fusion_lat": 0.0}, {"bike_id": "e342a1185b8f9cfbd7397297b8c3ff02", "fusion_lon": 0.0, "lon": -77.04979566666667, "name": "e342a1185b8f9cfbd7397297b8c3ff02", "is_disabled": 0, "rental_uris": {"android": "https://dc.lft.to/lastmile_qr_scan", "ios": "https://dc.lft.to/lastmile_qr_scan"}, "type": "electric_bike", "lat": 39.06293333333333, "is_reserved": 0, "fusion_lat": 0.0}, {"bike_id": "93cb497347203261cc4a403abd5e6ea6", "fusion_lon": 0.0, "lon": -76.98414433333333, "name": "93cb497347203261cc4a403abd5e6ea6", "is_disabled": 0, "rental_uris": {"android": "https://dc.lft.to/lastmile_qr_scan", "ios": "https://dc.lft.to/lastmile_qr_scan"}, "type": "electric_bike", "lat": 38.855034333333336, "is_reserved": 0, "fusion_lat": 0.0}, {"bike_id": "2076bfd3acacc87fbeccd258217949f0", "fusion_lon": 0.0, "lon": -77.03209383333333, "name": "2076bfd3acacc87fbeccd258217949f0", "is_disabled": 0, "rental_uris": {"android": "https://dc.lft.to/lastmile_qr_scan", "ios": "https://dc.lft.to/lastmile_qr_scan"}, "type": "electric_scooter", "lat": 38.895288666666666, "is_reserved": 0, "fusion_lat": 0.0}, {"bike_id": "a69c3657b67e176b56c9af2180006fb9", "fusion_lon": 0.0, "lon": -77.02399433333333, "name": "a69c3657b67e176b56c9af2180006fb9", "is_disabled": 0, "rental_uris": {"android": "https://dc.lft.to/lastmile_qr_scan", "ios": "https://dc.lft.to/lastmile_qr_scan"}, "type": "electric_scooter", "lat": 38.901978, "is_reserved": 0, "fusion_lat": 0.0}, {"bike_id": "7a3e90f4be790d138805e7d6b87caa7e", "fusion_lon": 0.0, "lon": -77.0024205, "name": "7a3e90f4be790d138805e7d6b87caa7e", "is_disabled": 0, "rental_uris": {"android": "https://dc.lft.to/lastmile_qr_scan", "ios": "https://dc.lft.to/lastmile_qr_scan"}, "type": "electric_scooter", "lat": 38.885148, "is_reserved": 0, "fusion_lat": 0.0}, {"bike_id": "6b5031a3725b412475ac7918cffc912b", "fusion_lon": 0.0, "lon": -77.03967633333333, "name": "6b5031a3725b412475ac7918cffc912b", "is_disabled": 0, "rental_uris": {"android": "https://dc.lft.to/lastmile_qr_scan", "ios": "https://dc.lft.to/lastmile_qr_scan"}, "type": "electric_scooter", "lat": 38.90261316666667, "is_reserved": 0, "fusion_lat": 0.0}, {"bike_id": "66ff66ca6b3c7d2287cb5754ea48a261", "fusion_lon": 0.0, "lon": -77.02556316666667, "name": "66ff66ca6b3c7d2287cb5754ea48a261", "is_disabled": 0, "rental_uris": {"android": "https://dc.lft.to/lastmile_qr_scan", "ios": "https://dc.lft.to/lastmile_qr_scan"}, "type": "electric_scooter", "lat": 38.916317166666666, "is_reserved": 0, "fusion_lat": 0.0}, {"bike_id": "c43ab3937a54e0712405ce47b300173c", "fusion_lon": 0.0, "lon": -77.00885766666667, "name": "c43ab3937a54e0712405ce47b300173c", "is_disabled": 0, "rental_uris": {"android": "https://dc.lft.to/lastmile_qr_scan", "ios": "https://dc.lft.to/lastmile_qr_scan"}, "type": "electric_scooter", "lat": 38.924818333333334, "is_reserved": 0, "fusion_lat": 0.0}, {"bike_id": "98ab6c67b14749c3c4390696ec384c99", "fusion_lon": 0.0, "lon": -77.057529, "name": "98ab6c67b14749c3c4390696ec384c99", "is_disabled": 0, "rental_uris": {"android": "https://dc.lft.to/lastmile_qr_scan", "ios": "https://dc.lft.to/lastmile_qr_scan"}, "type": "electric_scooter", "lat": 38.9248945, "is_reserved": 0, "fusion_lat": 0.0}, {"bike_id": "03cca0a87c8851a0e83cf9b38656da89", "fusion_lon": 0.0, "lon": -76.98765483333334, "name": "03cca0a87c8851a0e83cf9b38656da89", "is_disabled": 0, "rental_uris": {"android": "https://dc.lft.to/lastmile_qr_scan", "ios": "https://dc.lft.to/lastmile_qr_scan"}, "type": "electric_bike", "lat": 38.8576905, "is_reserved": 0, "fusion_lat": 0.0}, {"bike_id": "48f03796303be9502f49dbfe43f79ca1", "fusion_lon": 0.0, "lon": -77.04896466666666, "name": "48f03796303be9502f49dbfe43f79ca1", "is_disabled": 0, "rental_uris": {"android": "https://dc.lft.to/lastmile_qr_scan", "ios": "https://dc.lft.to/lastmile_qr_scan"}, "type": "electric_scooter", "lat": 38.88999066666667, "is_reserved": 0, "fusion_lat": 0.0}, {"bike_id": "12305381a22461d2a9b547a01d15d536", "fusion_lon": 0.0, "lon": -77.02285116666667, "name": "12305381a22461d2a9b547a01d15d536", "is_disabled": 0, "rental_uris": {"android": "https://dc.lft.to/lastmile_qr_scan", "ios": "https://dc.lft.to/lastmile_qr_scan"}, "type": "electric_scooter", "lat": 38.890577666666665, "is_reserved": 0, "fusion_lat": 0.0}, {"bike_id": "244f820291398e9615e44bdb2f007feb", "fusion_lon": 0.0, "lon": -77.02978933333333, "name": "244f820291398e9615e44bdb2f007feb", "is_disabled": 0, "rental_uris": {"android": "https://dc.lft.to/lastmile_qr_scan", "ios": "https://dc.lft.to/lastmile_qr_scan"}, "type": "electric_scooter", "lat": 38.945936333333336, "is_reserved": 0, "fusion_lat": 0.0}, {"bike_id": "f1c4c0b20865ce23534efb6d8b1b7ff9", "fusion_lon": 0.0, "lon": -77.015855, "name": "f1c4c0b20865ce23534efb6d8b1b7ff9", "is_disabled": 0, "rental_uris": {"android": "https://dc.lft.to/lastmile_qr_scan", "ios": "https://dc.lft.to/lastmile_qr_scan"}, "type": "electric_scooter", "lat": 38.9501475, "is_reserved": 0, "fusion_lat": 0.0}, {"bike_id": "cac63c1899d8adb6ef3ac6ea2c3e2178", "fusion_lon": 0.0, "lon": -77.00071716666666, "name": "cac63c1899d8adb6ef3ac6ea2c3e2178", "is_disabled": 0, "rental_uris": {"android": "https://dc.lft.to/lastmile_qr_scan", "ios": "https://dc.lft.to/lastmile_qr_scan"}, "type": "electric_scooter", "lat": 38.9001235, "is_reserved": 0, "fusion_lat": 0.0}, {"bike_id": "c1523b7c431b3bfedc9046ed3e62d138", "fusion_lon": 0.0, "lon": -77.03735166666667, "name": "c1523b7c431b3bfedc9046ed3e62d138", "is_disabled": 0, "rental_uris": {"android": "https://dc.lft.to/lastmile_qr_scan", "ios": "https://dc.lft.to/lastmile_qr_scan"}, "type": "electric_scooter", "lat": 38.926848666666665, "is_reserved": 0, "fusion_lat": 0.0}, {"bike_id": "aa3a6c0f608949bcd4b18366ef6d3341", "fusion_lon": 0.0, "lon": -77.06210916666667, "name": "aa3a6c0f608949bcd4b18366ef6d3341", "is_disabled": 0, "rental_uris": {"android": "https://dc.lft.to/lastmile_qr_scan", "ios": "https://dc.lft.to/lastmile_qr_scan"}, "type": "electric_bike", "lat": 38.9203005, "is_reserved": 0, "fusion_lat": 0.0}, {"bike_id": "c90818741a483d9c7c1b2f1d8f170079", "fusion_lon": 0.0, "lon": -77.03858866666667, "name": "c90818741a483d9c7c1b2f1d8f170079", "is_disabled": 0, "rental_uris": {"android": "https://dc.lft.to/lastmile_qr_scan", "ios": "https://dc.lft.to/lastmile_qr_scan"}, "type": "electric_scooter", "lat": 38.90778983333333, "is_reserved": 0, "fusion_lat": 0.0}, {"bike_id": "55b4c4aaa464a30c975990cf0e244988", "fusion_lon": 0.0, "lon": -77.03574166666667, "name": "55b4c4aaa464a30c975990cf0e244988", "is_disabled": 0, "rental_uris": {"android": "https://dc.lft.to/lastmile_qr_scan", "ios": "https://dc.lft.to/lastmile_qr_scan"}, "type": "electric_scooter", "lat": 38.923311166666664, "is_reserved": 0, "fusion_lat": 0.0}, {"bike_id": "b02fe54ce5c7f31e0a2c73f7031860be", "fusion_lon": 0.0, "lon": -77.05050866666667, "name": "b02fe54ce5c7f31e0a2c73f7031860be", "is_disabled": 0, "rental_uris": {"android": "https://dc.lft.to/lastmile_qr_scan", "ios": "https://dc.lft.to/lastmile_qr_scan"}, "type": "electric_scooter", "lat": 38.923392166666666, "is_reserved": 0, "fusion_lat": 0.0}, {"bike_id": "770d894379ee251d897f8e54d7cd7801", "fusion_lon": 0.0, "lon": -77.01757283333333, "name": "770d894379ee251d897f8e54d7cd7801", "is_disabled": 0, "rental_uris": {"android": "https://dc.lft.to/lastmile_qr_scan", "ios": "https://dc.lft.to/lastmile_qr_scan"}, "type": "electric_scooter", "lat": 38.87869966666667, "is_reserved": 0, "fusion_lat": 0.0}, {"bike_id": "196da55a45fd9fd558434ca680de69f8", "fusion_lon": 0.0, "lon": -77.03940583333333, "name": "196da55a45fd9fd558434ca680de69f8", "is_disabled": 0, "rental_uris": {"android": "https://dc.lft.to/lastmile_qr_scan", "ios": "https://dc.lft.to/lastmile_qr_scan"}, "type": "electric_scooter", "lat": 38.9081495, "is_reserved": 0, "fusion_lat": 0.0}, {"bike_id": "2d75f421e938d64085abb7d3998d5eab", "fusion_lon": 0.0, "lon": -77.03184716666667, "name": "2d75f421e938d64085abb7d3998d5eab", "is_disabled": 0, "rental_uris": {"android": "https://dc.lft.to/lastmile_qr_scan", "ios": "https://dc.lft.to/lastmile_qr_scan"}, "type": "electric_scooter", "lat": 38.913476333333335, "is_reserved": 0, "fusion_lat": 0.0}, {"bike_id": "08157f84247a3f913b1facf14e06aa60", "fusion_lon": 0.0, "lon": -76.97738883333334, "name": "08157f84247a3f913b1facf14e06aa60", "is_disabled": 0, "rental_uris": {"android": "https://dc.lft.to/lastmile_qr_scan", "ios": "https://dc.lft.to/lastmile_qr_scan"}, "type": "electric_scooter", "lat": 38.868295, "is_reserved": 0, "fusion_lat": 0.0}, {"bike_id": "743cb9e4c85523b069554587242f2b25", "fusion_lon": 0.0, "lon": -77.01764683333333, "name": "743cb9e4c85523b069554587242f2b25", "is_disabled": 0, "rental_uris": {"android": "https://dc.lft.to/lastmile_qr_scan", "ios": "https://dc.lft.to/lastmile_qr_scan"}, "type": "electric_scooter", "lat": 38.917248666666666, "is_reserved": 0, "fusion_lat": 0.0}, {"bike_id": "44d31387ec3c74dcdb4472adf6d929e8", "fusion_lon": 0.0, "lon": -77.02693183333334, "name": "44d31387ec3c74dcdb4472adf6d929e8", "is_disabled": 0, "rental_uris": {"android": "https://dc.lft.to/lastmile_qr_scan", "ios": "https://dc.lft.to/lastmile_qr_scan"}, "type": "electric_scooter", "lat": 38.91129866666667, "is_reserved": 0, "fusion_lat": 0.0}, {"bike_id": "580a09793cded892ecf12f3f0cc0eade", "fusion_lon": 0.0, "lon": -77.02714033333334, "name": "580a09793cded892ecf12f3f0cc0eade", "is_disabled": 0, "rental_uris": {"android": "https://dc.lft.to/lastmile_qr_scan", "ios": "https://dc.lft.to/lastmile_qr_scan"}, "type": "electric_scooter", "lat": 38.90953833333333, "is_reserved": 0, "fusion_lat": 0.0}, {"bike_id": "90ef95d709a9ade2dc5f81f60383eb47", "fusion_lon": 0.0, "lon": -77.02976866666667, "name": "90ef95d709a9ade2dc5f81f60383eb47", "is_disabled": 0, "rental_uris": {"android": "https://dc.lft.to/lastmile_qr_scan", "ios": "https://dc.lft.to/lastmile_qr_scan"}, "type": "electric_scooter", "lat": 38.95193183333333, "is_reserved": 0, "fusion_lat": 0.0}, {"bike_id": "8eff1945faff8a86aedb4b233060c854", "fusion_lon": 0.0, "lon": -76.96503433333334, "name": "8eff1945faff8a86aedb4b233060c854", "is_disabled": 0, "rental_uris": {"android": "https://dc.lft.to/lastmile_qr_scan", "ios": "https://dc.lft.to/lastmile_qr_scan"}, "type": "electric_bike", "lat": 38.87552983333333, "is_reserved": 0, "fusion_lat": 0.0}, {"bike_id": "bc6efd1f3df2e19de1f29edec582df94", "fusion_lon": 0.0, "lon": -77.02195666666667, "name": "bc6efd1f3df2e19de1f29edec582df94", "is_disabled": 0, "rental_uris": {"android": "https://dc.lft.to/lastmile_qr_scan", "ios": "https://dc.lft.to/lastmile_qr_scan"}, "type": "electric_scooter", "lat": 38.895565166666664, "is_reserved": 0, "fusion_lat": 0.0}, {"bike_id": "810684193f9999eb9ec1c8b55e4c71e1", "fusion_lon": 0.0, "lon": -76.985183, "name": "810684193f9999eb9ec1c8b55e4c71e1", "is_disabled": 0, "rental_uris": {"android": "https://dc.lft.to/lastmile_qr_scan", "ios": "https://dc.lft.to/lastmile_qr_scan"}, "type": "electric_scooter", "lat": 38.86655016666667, "is_reserved": 0, "fusion_lat": 0.0}, {"bike_id": "671441c3d54c96bd5eab299991cda24e", "fusion_lon": 0.0, "lon": -77.03850333333334, "name": "671441c3d54c96bd5eab299991cda24e", "is_disabled": 0, "rental_uris": {"android": "https://dc.lft.to/lastmile_qr_scan", "ios": "https://dc.lft.to/lastmile_qr_scan"}, "type": "electric_scooter", "lat": 38.9037235, "is_reserved": 0, "fusion_lat": 0.0}, {"bike_id": "00d0d48d1309bfc41088601841b86a1a", "fusion_lon": 0.0, "lon": -77.029515, "name": "00d0d48d1309bfc41088601841b86a1a", "is_disabled": 0, "rental_uris": {"android": "https://dc.lft.to/lastmile_qr_scan", "ios": "https://dc.lft.to/lastmile_qr_scan"}, "type": "electric_scooter", "lat": 38.904924333333334, "is_reserved": 0, "fusion_lat": 0.0}, {"bike_id": "e106acc61b9dc18a5fe7c9974552b01e", "fusion_lon": 0.0, "lon": -77.05317266666667, "name": "e106acc61b9dc18a5fe7c9974552b01e", "is_disabled": 0, "rental_uris": {"android": "https://dc.lft.to/lastmile_qr_scan", "ios": "https://dc.lft.to/lastmile_qr_scan"}, "type": "electric_scooter", "lat": 38.90260716666667, "is_reserved": 0, "fusion_lat": 0.0}, {"bike_id": "77afd36161257017e71bcdaae725b2dc", "fusion_lon": 0.0, "lon": -77.03023766666666, "name": "77afd36161257017e71bcdaae725b2dc", "is_disabled": 0, "rental_uris": {"android": "https://dc.lft.to/lastmile_qr_scan", "ios": "https://dc.lft.to/lastmile_qr_scan"}, "type": "electric_scooter", "lat": 38.896137333333336, "is_reserved": 0, "fusion_lat": 0.0}, {"bike_id": "7aba9faf10041adad6ec6ebea4fd9c2c", "fusion_lon": 0.0, "lon": -76.9977565, "name": "7aba9faf10041adad6ec6ebea4fd9c2c", "is_disabled": 0, "rental_uris": {"android": "https://dc.lft.to/lastmile_qr_scan", "ios": "https://dc.lft.to/lastmile_qr_scan"}, "type": "electric_bike", "lat": 38.86208333333333, "is_reserved": 0, "fusion_lat": 0.0}, {"bike_id": "43fa76a992688b1026070aaceaa949b3", "fusion_lon": 0.0, "lon": -77.0240255, "name": "43fa76a992688b1026070aaceaa949b3", "is_disabled": 0, "rental_uris": {"android": "https://dc.lft.to/lastmile_qr_scan", "ios": "https://dc.lft.to/lastmile_qr_scan"}, "type": "electric_scooter", "lat": 38.8962925, "is_reserved": 0, "fusion_lat": 0.0}, {"bike_id": "49e04059ec4c1464c12bdc59c6bd4149", "fusion_lon": 0.0, "lon": -77.05326866666667, "name": "49e04059ec4c1464c12bdc59c6bd4149", "is_disabled": 0, "rental_uris": {"android": "https://dc.lft.to/lastmile_qr_scan", "ios": "https://dc.lft.to/lastmile_qr_scan"}, "type": "electric_scooter", "lat": 38.92797383333333, "is_reserved": 0, "fusion_lat": 0.0}, {"bike_id": "229391154bae1f16f2524ca912da15c6", "fusion_lon": 0.0, "lon": -77.03354183333333, "name": "229391154bae1f16f2524ca912da15c6", "is_disabled": 0, "rental_uris": {"android": "https://dc.lft.to/lastmile_qr_scan", "ios": "https://dc.lft.to/lastmile_qr_scan"}, "type": "electric_scooter", "lat": 38.93146083333333, "is_reserved": 0, "fusion_lat": 0.0}, {"bike_id": "a36fd654a4075be8222cd0d11ccfaaec", "fusion_lon": 0.0, "lon": -76.97187416666667, "name": "a36fd654a4075be8222cd0d11ccfaaec", "is_disabled": 0, "rental_uris": {"android": "https://dc.lft.to/lastmile_qr_scan", "ios": "https://dc.lft.to/lastmile_qr_scan"}, "type": "electric_bike", "lat": 38.933189166666665, "is_reserved": 0, "fusion_lat": 0.0}, {"bike_id": "a447e368464b03a5a8d46f2a54e12e1d", "fusion_lon": 0.0, "lon": -77.02708016666666, "name": "a447e368464b03a5a8d46f2a54e12e1d", "is_disabled": 0, "rental_uris": {"android": "https://dc.lft.to/lastmile_qr_scan", "ios": "https://dc.lft.to/lastmile_qr_scan"}, "type": "electric_scooter", "lat": 38.920577333333334, "is_reserved": 0, "fusion_lat": 0.0}, {"bike_id": "8698123f7fc79e761d716f36c971cc0d", "fusion_lon": 0.0, "lon": -77.01308616666667, "name": "8698123f7fc79e761d716f36c971cc0d", "is_disabled": 0, "rental_uris": {"android": "https://dc.lft.to/lastmile_qr_scan", "ios": "https://dc.lft.to/lastmile_qr_scan"}, "type": "electric_scooter", "lat": 38.914073, "is_reserved": 0, "fusion_lat": 0.0}, {"bike_id": "97a4d95d18c1ed8d7ad1da447fd14e7c", "fusion_lon": 0.0, "lon": -77.01189, "name": "97a4d95d18c1ed8d7ad1da447fd14e7c", "is_disabled": 0, "rental_uris": {"android": "https://dc.lft.to/lastmile_qr_scan", "ios": "https://dc.lft.to/lastmile_qr_scan"}, "type": "electric_scooter", "lat": 38.906488333333336, "is_reserved": 0, "fusion_lat": 0.0}, {"bike_id": "40a667e752f2b9db612ffc6d7b4022d3", "fusion_lon": 0.0, "lon": -77.00337166666667, "name": "40a667e752f2b9db612ffc6d7b4022d3", "is_disabled": 0, "rental_uris": {"android": "https://dc.lft.to/lastmile_qr_scan", "ios": "https://dc.lft.to/lastmile_qr_scan"}, "type": "electric_scooter", "lat": 38.88989933333333, "is_reserved": 0, "fusion_lat": 0.0}, {"bike_id": "c5aa843aad0ddd149df17446e74e4caa", "fusion_lon": 0.0, "lon": -77.0506565, "name": "c5aa843aad0ddd149df17446e74e4caa", "is_disabled": 0, "rental_uris": {"android": "https://dc.lft.to/lastmile_qr_scan", "ios": "https://dc.lft.to/lastmile_qr_scan"}, "type": "electric_scooter", "lat": 38.92338633333333, "is_reserved": 0, "fusion_lat": 0.0}, {"bike_id": "a916a49aa7bebaf5292bacc656a69448", "fusion_lon": 0.0, "lon": -77.02968416666667, "name": "a916a49aa7bebaf5292bacc656a69448", "is_disabled": 0, "rental_uris": {"android": "https://dc.lft.to/lastmile_qr_scan", "ios": "https://dc.lft.to/lastmile_qr_scan"}, "type": "electric_scooter", "lat": 38.9319345, "is_reserved": 0, "fusion_lat": 0.0}, {"bike_id": "25bd481bfd056bfc8660684cec74e8ef", "fusion_lon": 0.0, "lon": -76.98289383333334, "name": "25bd481bfd056bfc8660684cec74e8ef", "is_disabled": 0, "rental_uris": {"android": "https://dc.lft.to/lastmile_qr_scan", "ios": "https://dc.lft.to/lastmile_qr_scan"}, "type": "electric_scooter", "lat": 38.8998445, "is_reserved": 0, "fusion_lat": 0.0}, {"bike_id": "8d410d861e633042e7e7858bff669135", "fusion_lon": 0.0, "lon": -77.043489, "name": "8d410d861e633042e7e7858bff669135", "is_disabled": 0, "rental_uris": {"android": "https://dc.lft.to/lastmile_qr_scan", "ios": "https://dc.lft.to/lastmile_qr_scan"}, "type": "electric_scooter", "lat": 38.91296633333333, "is_reserved": 0, "fusion_lat": 0.0}, {"bike_id": "496f7610ee51390ab9853b004a73adff", "fusion_lon": 0.0, "lon": -77.07819933333333, "name": "496f7610ee51390ab9853b004a73adff", "is_disabled": 0, "rental_uris": {"android": "https://dc.lft.to/lastmile_qr_scan", "ios": "https://dc.lft.to/lastmile_qr_scan"}, "type": "electric_scooter", "lat": 38.912727833333335, "is_reserved": 0, "fusion_lat": 0.0}, {"bike_id": "0fd04cc7b25c23f277413c1648fce44f", "fusion_lon": 0.0, "lon": -77.03260983333334, "name": "0fd04cc7b25c23f277413c1648fce44f", "is_disabled": 0, "rental_uris": {"android": "https://dc.lft.to/lastmile_qr_scan", "ios": "https://dc.lft.to/lastmile_qr_scan"}, "type": "electric_scooter", "lat": 38.914039333333335, "is_reserved": 0, "fusion_lat": 0.0}, {"bike_id": "9cad57793292e14b2419b590c3897585", "fusion_lon": 0.0, "lon": -77.02957633333334, "name": "9cad57793292e14b2419b590c3897585", "is_disabled": 0, "rental_uris": {"android": "https://dc.lft.to/lastmile_qr_scan", "ios": "https://dc.lft.to/lastmile_qr_scan"}, "type": "electric_bike", "lat": 38.950537833333335, "is_reserved": 0, "fusion_lat": 0.0}, {"bike_id": "0321d4fb63078c947e1b8bef0830656b", "fusion_lon": 0.0, "lon": -77.0175205, "name": "0321d4fb63078c947e1b8bef0830656b", "is_disabled": 0, "rental_uris": {"android": "https://dc.lft.to/lastmile_qr_scan", "ios": "https://dc.lft.to/lastmile_qr_scan"}, "type": "electric_scooter", "lat": 38.88329016666667, "is_reserved": 0, "fusion_lat": 0.0}, {"bike_id": "f4b1e0210bec5753d4c6c98da5d85f5d", "fusion_lon": 0.0, "lon": -77.03171133333333, "name": "f4b1e0210bec5753d4c6c98da5d85f5d", "is_disabled": 0, "rental_uris": {"android": "https://dc.lft.to/lastmile_qr_scan", "ios": "https://dc.lft.to/lastmile_qr_scan"}, "type": "electric_scooter", "lat": 38.911032166666665, "is_reserved": 0, "fusion_lat": 0.0}, {"bike_id": "799c5518a61ed72f7c170c0f9f526a6b", "fusion_lon": 0.0, "lon": -77.03361866666667, "name": "799c5518a61ed72f7c170c0f9f526a6b", "is_disabled": 0, "rental_uris": {"android": "https://dc.lft.to/lastmile_qr_scan", "ios": "https://dc.lft.to/lastmile_qr_scan"}, "type": "electric_scooter", "lat": 38.92876716666667, "is_reserved": 0, "fusion_lat": 0.0}, {"bike_id": "58c1af37c31be6d374d64dfaadff5666", "fusion_lon": 0.0, "lon": -76.9773265, "name": "58c1af37c31be6d374d64dfaadff5666", "is_disabled": 0, "rental_uris": {"android": "https://dc.lft.to/lastmile_qr_scan", "ios": "https://dc.lft.to/lastmile_qr_scan"}, "type": "electric_scooter", "lat": 38.89511, "is_reserved": 0, "fusion_lat": 0.0}, {"bike_id": "4e3591f063cc9069061ed733c77b6b36", "fusion_lon": 0.0, "lon": -77.01580916666667, "name": "4e3591f063cc9069061ed733c77b6b36", "is_disabled": 0, "rental_uris": {"android": "https://dc.lft.to/lastmile_qr_scan", "ios": "https://dc.lft.to/lastmile_qr_scan"}, "type": "electric_scooter", "lat": 38.8917425, "is_reserved": 0, "fusion_lat": 0.0}, {"bike_id": "d45fab03d638d89a33f8bb23555e3da7", "fusion_lon": 0.0, "lon": -77.0279405, "name": "d45fab03d638d89a33f8bb23555e3da7", "is_disabled": 0, "rental_uris": {"android": "https://dc.lft.to/lastmile_qr_scan", "ios": "https://dc.lft.to/lastmile_qr_scan"}, "type": "electric_scooter", "lat": 38.92965266666667, "is_reserved": 0, "fusion_lat": 0.0}, {"bike_id": "42e08d8e5ba3943d1bbc43ea2d43e7f5", "fusion_lon": 0.0, "lon": -77.0447985, "name": "42e08d8e5ba3943d1bbc43ea2d43e7f5", "is_disabled": 0, "rental_uris": {"android": "https://dc.lft.to/lastmile_qr_scan", "ios": "https://dc.lft.to/lastmile_qr_scan"}, "type": "electric_bike", "lat": 38.90388883333333, "is_reserved": 0, "fusion_lat": 0.0}, {"bike_id": "472750a822d6fa2008482e8b3e38afa2", "fusion_lon": 0.0, "lon": -76.92330683333333, "name": "472750a822d6fa2008482e8b3e38afa2", "is_disabled": 0, "rental_uris": {"android": "https://dc.lft.to/lastmile_qr_scan", "ios": "https://dc.lft.to/lastmile_qr_scan"}, "type": "electric_bike", "lat": 38.871060166666666, "is_reserved": 0, "fusion_lat": 0.0}, {"bike_id": "c323c6db0e32c6e038253e9e53dcff81", "fusion_lon": 0.0, "lon": -77.02378016666667, "name": "c323c6db0e32c6e038253e9e53dcff81", "is_disabled": 0, "rental_uris": {"android": "https://dc.lft.to/lastmile_qr_scan", "ios": "https://dc.lft.to/lastmile_qr_scan"}, "type": "electric_scooter", "lat": 38.90364366666667, "is_reserved": 0, "fusion_lat": 0.0}, {"bike_id": "02e882a3ae3be412ebf43dab93e5daf6", "fusion_lon": 0.0, "lon": -76.96711783333333, "name": "02e882a3ae3be412ebf43dab93e5daf6", "is_disabled": 0, "rental_uris": {"android": "https://dc.lft.to/lastmile_qr_scan", "ios": "https://dc.lft.to/lastmile_qr_scan"}, "type": "electric_scooter", "lat": 38.8479695, "is_reserved": 0, "fusion_lat": 0.0}, {"bike_id": "0c59872cb6307911559083ddf201f509", "fusion_lon": 0.0, "lon": -77.0272555, "name": "0c59872cb6307911559083ddf201f509", "is_disabled": 0, "rental_uris": {"android": "https://dc.lft.to/lastmile_qr_scan", "ios": "https://dc.lft.to/lastmile_qr_scan"}, "type": "electric_bike", "lat": 38.945564833333336, "is_reserved": 0, "fusion_lat": 0.0}, {"bike_id": "6f27fe0574ace242c136b2023d186876", "fusion_lon": 0.0, "lon": -77.01306266666667, "name": "6f27fe0574ace242c136b2023d186876", "is_disabled": 0, "rental_uris": {"android": "https://dc.lft.to/lastmile_qr_scan", "ios": "https://dc.lft.to/lastmile_qr_scan"}, "type": "electric_scooter", "lat": 38.90142633333333, "is_reserved": 0, "fusion_lat": 0.0}, {"bike_id": "a2e1a7f684eded64b9fa8a131c9e4953", "fusion_lon": 0.0, "lon": -77.0414295, "name": "a2e1a7f684eded64b9fa8a131c9e4953", "is_disabled": 0, "rental_uris": {"android": "https://dc.lft.to/lastmile_qr_scan", "ios": "https://dc.lft.to/lastmile_qr_scan"}, "type": "electric_scooter", "lat": 38.92645016666667, "is_reserved": 0, "fusion_lat": 0.0}, {"bike_id": "762852b3a1939bd8b5994160a2dc1be1", "fusion_lon": 0.0, "lon": -77.054198, "name": "762852b3a1939bd8b5994160a2dc1be1", "is_disabled": 0, "rental_uris": {"android": "https://dc.lft.to/lastmile_qr_scan", "ios": "https://dc.lft.to/lastmile_qr_scan"}, "type": "electric_bike", "lat": 38.93516733333333, "is_reserved": 0, "fusion_lat": 0.0}, {"bike_id": "267e8e856b2b16479bc4f5f59febb6a0", "fusion_lon": 0.0, "lon": -77.073464, "name": "267e8e856b2b16479bc4f5f59febb6a0", "is_disabled": 0, "rental_uris": {"android": "https://dc.lft.to/lastmile_qr_scan", "ios": "https://dc.lft.to/lastmile_qr_scan"}, "type": "electric_bike", "lat": 38.93048866666667, "is_reserved": 0, "fusion_lat": 0.0}, {"bike_id": "76e6bc52a2c23ea00b4567ce38da9e9d", "fusion_lon": 0.0, "lon": -77.02884366666666, "name": "76e6bc52a2c23ea00b4567ce38da9e9d", "is_disabled": 0, "rental_uris": {"android": "https://dc.lft.to/lastmile_qr_scan", "ios": "https://dc.lft.to/lastmile_qr_scan"}, "type": "electric_scooter", "lat": 38.90428166666667, "is_reserved": 0, "fusion_lat": 0.0}, {"bike_id": "5d8c4fb87fb2efea4ba14a99b8b7e70c", "fusion_lon": 0.0, "lon": -77.0240975, "name": "5d8c4fb87fb2efea4ba14a99b8b7e70c", "is_disabled": 0, "rental_uris": {"android": "https://dc.lft.to/lastmile_qr_scan", "ios": "https://dc.lft.to/lastmile_qr_scan"}, "type": "electric_scooter", "lat": 38.90740666666667, "is_reserved": 0, "fusion_lat": 0.0}, {"bike_id": "48042e00cca19613b83ea594042208f3", "fusion_lon": 0.0, "lon": -77.03241966666667, "name": "48042e00cca19613b83ea594042208f3", "is_disabled": 0, "rental_uris": {"android": "https://dc.lft.to/lastmile_qr_scan", "ios": "https://dc.lft.to/lastmile_qr_scan"}, "type": "electric_scooter", "lat": 38.92355366666666, "is_reserved": 0, "fusion_lat": 0.0}, {"bike_id": "4cd0e84d0d819e558791f943968b53d4", "fusion_lon": 0.0, "lon": -77.0234325, "name": "4cd0e84d0d819e558791f943968b53d4", "is_disabled": 0, "rental_uris": {"android": "https://dc.lft.to/lastmile_qr_scan", "ios": "https://dc.lft.to/lastmile_qr_scan"}, "type": "electric_scooter", "lat": 38.94608133333333, "is_reserved": 0, "fusion_lat": 0.0}, {"bike_id": "eaf8bdfd442d098c53c0006ea105c378", "fusion_lon": 0.0, "lon": -77.02366366666666, "name": "eaf8bdfd442d098c53c0006ea105c378", "is_disabled": 0, "rental_uris": {"android": "https://dc.lft.to/lastmile_qr_scan", "ios": "https://dc.lft.to/lastmile_qr_scan"}, "type": "electric_scooter", "lat": 38.91737833333333, "is_reserved": 0, "fusion_lat": 0.0}, {"bike_id": "3c82650ebe5d02ec575af6e646b0ae23", "fusion_lon": 0.0, "lon": -77.0448135, "name": "3c82650ebe5d02ec575af6e646b0ae23", "is_disabled": 0, "rental_uris": {"android": "https://dc.lft.to/lastmile_qr_scan", "ios": "https://dc.lft.to/lastmile_qr_scan"}, "type": "electric_scooter", "lat": 38.9241965, "is_reserved": 0, "fusion_lat": 0.0}, {"bike_id": "e49ffc28c7c4d4b529d514e2575387b5", "fusion_lon": 0.0, "lon": -77.03871766666667, "name": "e49ffc28c7c4d4b529d514e2575387b5", "is_disabled": 0, "rental_uris": {"android": "https://dc.lft.to/lastmile_qr_scan", "ios": "https://dc.lft.to/lastmile_qr_scan"}, "type": "electric_scooter", "lat": 38.93244266666667, "is_reserved": 0, "fusion_lat": 0.0}, {"bike_id": "1bffd9cbd53f5ed5081e4fc9d499656d", "fusion_lon": 0.0, "lon": -77.02811216666667, "name": "1bffd9cbd53f5ed5081e4fc9d499656d", "is_disabled": 0, "rental_uris": {"android": "https://dc.lft.to/lastmile_qr_scan", "ios": "https://dc.lft.to/lastmile_qr_scan"}, "type": "electric_scooter", "lat": 38.89931983333334, "is_reserved": 0, "fusion_lat": 0.0}, {"bike_id": "02a1c129975127bc45bb989024404f66", "fusion_lon": 0.0, "lon": -76.99483733333334, "name": "02a1c129975127bc45bb989024404f66", "is_disabled": 0, "rental_uris": {"android": "https://dc.lft.to/lastmile_qr_scan", "ios": "https://dc.lft.to/lastmile_qr_scan"}, "type": "electric_scooter", "lat": 38.90981716666667, "is_reserved": 0, "fusion_lat": 0.0}, {"bike_id": "7087f27ac0ba5ffe337c834364eabf25", "fusion_lon": 0.0, "lon": -76.949412, "name": "7087f27ac0ba5ffe337c834364eabf25", "is_disabled": 0, "rental_uris": {"android": "https://dc.lft.to/lastmile_qr_scan", "ios": "https://dc.lft.to/lastmile_qr_scan"}, "type": "electric_scooter", "lat": 38.894929166666664, "is_reserved": 0, "fusion_lat": 0.0}, {"bike_id": "caf714743eb07bfdcaad86ae6b3ba3e4", "fusion_lon": 0.0, "lon": -77.03996133333334, "name": "caf714743eb07bfdcaad86ae6b3ba3e4", "is_disabled": 0, "rental_uris": {"android": "https://dc.lft.to/lastmile_qr_scan", "ios": "https://dc.lft.to/lastmile_qr_scan"}, "type": "electric_scooter", "lat": 38.903367333333335, "is_reserved": 0, "fusion_lat": 0.0}, {"bike_id": "874cf63527fa6eb5c80179abe14e253e", "fusion_lon": 0.0, "lon": -77.03898333333333, "name": "874cf63527fa6eb5c80179abe14e253e", "is_disabled": 0, "rental_uris": {"android": "https://dc.lft.to/lastmile_qr_scan", "ios": "https://dc.lft.to/lastmile_qr_scan"}, "type": "electric_scooter", "lat": 38.92199466666667, "is_reserved": 0, "fusion_lat": 0.0}, {"bike_id": "8d847405cef75eafe1fc8c25e0d8db15", "fusion_lon": 0.0, "lon": -77.04340683333334, "name": "8d847405cef75eafe1fc8c25e0d8db15", "is_disabled": 0, "rental_uris": {"android": "https://dc.lft.to/lastmile_qr_scan", "ios": "https://dc.lft.to/lastmile_qr_scan"}, "type": "electric_scooter", "lat": 38.90254, "is_reserved": 0, "fusion_lat": 0.0}, {"bike_id": "b20b66b51557e60a29fa700696db5315", "fusion_lon": 0.0, "lon": -76.99534233333333, "name": "b20b66b51557e60a29fa700696db5315", "is_disabled": 0, "rental_uris": {"android": "https://dc.lft.to/lastmile_qr_scan", "ios": "https://dc.lft.to/lastmile_qr_scan"}, "type": "electric_scooter", "lat": 38.86242933333333, "is_reserved": 0, "fusion_lat": 0.0}, {"bike_id": "2251cc177e0fe8e4670dd4387625177f", "fusion_lon": 0.0, "lon": -77.00213266666667, "name": "2251cc177e0fe8e4670dd4387625177f", "is_disabled": 0, "rental_uris": {"android": "https://dc.lft.to/lastmile_qr_scan", "ios": "https://dc.lft.to/lastmile_qr_scan"}, "type": "electric_scooter", "lat": 38.90077633333333, "is_reserved": 0, "fusion_lat": 0.0}, {"bike_id": "202e44692ccec3163b7a8cb007455f15", "fusion_lon": 0.0, "lon": -77.03617266666667, "name": "202e44692ccec3163b7a8cb007455f15", "is_disabled": 0, "rental_uris": {"android": "https://dc.lft.to/lastmile_qr_scan", "ios": "https://dc.lft.to/lastmile_qr_scan"}, "type": "electric_scooter", "lat": 38.905608666666666, "is_reserved": 0, "fusion_lat": 0.0}, {"bike_id": "30400c2a474db32d6a0e67c1013f2c41", "fusion_lon": 0.0, "lon": -77.03863916666667, "name": "30400c2a474db32d6a0e67c1013f2c41", "is_disabled": 0, "rental_uris": {"android": "https://dc.lft.to/lastmile_qr_scan", "ios": "https://dc.lft.to/lastmile_qr_scan"}, "type": "electric_scooter", "lat": 38.91705366666667, "is_reserved": 0, "fusion_lat": 0.0}, {"bike_id": "d9e5f28a1fc1d86dad69341730cb1002", "fusion_lon": 0.0, "lon": -76.97232983333333, "name": "d9e5f28a1fc1d86dad69341730cb1002", "is_disabled": 0, "rental_uris": {"android": "https://dc.lft.to/lastmile_qr_scan", "ios": "https://dc.lft.to/lastmile_qr_scan"}, "type": "electric_bike", "lat": 38.854511, "is_reserved": 0, "fusion_lat": 0.0}, {"bike_id": "2a98338f37aa27e9510c575c26b8e305", "fusion_lon": 0.0, "lon": -77.041354, "name": "2a98338f37aa27e9510c575c26b8e305", "is_disabled": 0, "rental_uris": {"android": "https://dc.lft.to/lastmile_qr_scan", "ios": "https://dc.lft.to/lastmile_qr_scan"}, "type": "electric_scooter", "lat": 38.92262816666667, "is_reserved": 0, "fusion_lat": 0.0}, {"bike_id": "e95c85a21eba0c7b8fabed0081081e6b", "fusion_lon": 0.0, "lon": -77.0083185, "name": "e95c85a21eba0c7b8fabed0081081e6b", "is_disabled": 0, "rental_uris": {"android": "https://dc.lft.to/lastmile_qr_scan", "ios": "https://dc.lft.to/lastmile_qr_scan"}, "type": "electric_bike", "lat": 38.829045, "is_reserved": 0, "fusion_lat": 0.0}, {"bike_id": "101aee9291d5c624b40d1a839e872865", "fusion_lon": 0.0, "lon": -77.01627883333333, "name": "101aee9291d5c624b40d1a839e872865", "is_disabled": 0, "rental_uris": {"android": "https://dc.lft.to/lastmile_qr_scan", "ios": "https://dc.lft.to/lastmile_qr_scan"}, "type": "electric_scooter", "lat": 38.895334166666665, "is_reserved": 0, "fusion_lat": 0.0}, {"bike_id": "f7e30372f479e30a19cc87d33cb3be96", "fusion_lon": 0.0, "lon": -77.068523, "name": "f7e30372f479e30a19cc87d33cb3be96", "is_disabled": 0, "rental_uris": {"android": "https://dc.lft.to/lastmile_qr_scan", "ios": "https://dc.lft.to/lastmile_qr_scan"}, "type": "electric_scooter", "lat": 38.95284183333333, "is_reserved": 0, "fusion_lat": 0.0}, {"bike_id": "52b6837002dd7336dea75cc0cfc6293e", "fusion_lon": 0.0, "lon": -76.97729366666667, "name": "52b6837002dd7336dea75cc0cfc6293e", "is_disabled": 0, "rental_uris": {"android": "https://dc.lft.to/lastmile_qr_scan", "ios": "https://dc.lft.to/lastmile_qr_scan"}, "type": "electric_scooter", "lat": 38.895126833333336, "is_reserved": 0, "fusion_lat": 0.0}, {"bike_id": "f9009dda869bb918d85cb24b06c28bde", "fusion_lon": 0.0, "lon": -76.939891, "name": "f9009dda869bb918d85cb24b06c28bde", "is_disabled": 0, "rental_uris": {"android": "https://dc.lft.to/lastmile_qr_scan", "ios": "https://dc.lft.to/lastmile_qr_scan"}, "type": "electric_scooter", "lat": 38.89975033333333, "is_reserved": 0, "fusion_lat": 0.0}, {"bike_id": "337da754ce06708c8eac92ebc1f626eb", "fusion_lon": 0.0, "lon": -77.023735, "name": "337da754ce06708c8eac92ebc1f626eb", "is_disabled": 0, "rental_uris": {"android": "https://dc.lft.to/lastmile_qr_scan", "ios": "https://dc.lft.to/lastmile_qr_scan"}, "type": "electric_scooter", "lat": 38.902047333333336, "is_reserved": 0, "fusion_lat": 0.0}, {"bike_id": "99cd7b08dc0a777422a85ab303cde877", "fusion_lon": 0.0, "lon": -77.02761366666667, "name": "99cd7b08dc0a777422a85ab303cde877", "is_disabled": 0, "rental_uris": {"android": "https://dc.lft.to/lastmile_qr_scan", "ios": "https://dc.lft.to/lastmile_qr_scan"}, "type": "electric_scooter", "lat": 38.954194333333334, "is_reserved": 0, "fusion_lat": 0.0}, {"bike_id": "fe6dfd1f00f2dc05247898fe6d0b20a1", "fusion_lon": 0.0, "lon": -77.0294265, "name": "fe6dfd1f00f2dc05247898fe6d0b20a1", "is_disabled": 0, "rental_uris": {"android": "https://dc.lft.to/lastmile_qr_scan", "ios": "https://dc.lft.to/lastmile_qr_scan"}, "type": "electric_scooter", "lat": 38.904959166666664, "is_reserved": 0, "fusion_lat": 0.0}, {"bike_id": "4ffa6165aac8d78c20508feb452cadf6", "fusion_lon": 0.0, "lon": -76.99168066666667, "name": "4ffa6165aac8d78c20508feb452cadf6", "is_disabled": 0, "rental_uris": {"android": "https://dc.lft.to/lastmile_qr_scan", "ios": "https://dc.lft.to/lastmile_qr_scan"}, "type": "electric_scooter", "lat": 38.8630565, "is_reserved": 0, "fusion_lat": 0.0}, {"bike_id": "bb5d833b2c6a59aa5d6f70fad323400c", "fusion_lon": 0.0, "lon": -77.0445195, "name": "bb5d833b2c6a59aa5d6f70fad323400c", "is_disabled": 0, "rental_uris": {"android": "https://dc.lft.to/lastmile_qr_scan", "ios": "https://dc.lft.to/lastmile_qr_scan"}, "type": "electric_scooter", "lat": 38.930191, "is_reserved": 0, "fusion_lat": 0.0}, {"bike_id": "afc1e9bb56d53350341f76ef5a4fc3b4", "fusion_lon": 0.0, "lon": -77.04334333333334, "name": "afc1e9bb56d53350341f76ef5a4fc3b4", "is_disabled": 0, "rental_uris": {"android": "https://dc.lft.to/lastmile_qr_scan", "ios": "https://dc.lft.to/lastmile_qr_scan"}, "type": "electric_scooter", "lat": 38.895215, "is_reserved": 0, "fusion_lat": 0.0}, {"bike_id": "c7049f7242b9d3fddb052ab4eb21b843", "fusion_lon": 0.0, "lon": -77.08595, "name": "c7049f7242b9d3fddb052ab4eb21b843", "is_disabled": 0, "rental_uris": {"android": "https://dc.lft.to/lastmile_qr_scan", "ios": "https://dc.lft.to/lastmile_qr_scan"}, "type": "electric_scooter", "lat": 38.90866033333333, "is_reserved": 0, "fusion_lat": 0.0}, {"bike_id": "5d9fcf1b8aeac9f86bdaa7b9998293e7", "fusion_lon": 0.0, "lon": -76.99946833333334, "name": "5d9fcf1b8aeac9f86bdaa7b9998293e7", "is_disabled": 0, "rental_uris": {"android": "https://dc.lft.to/lastmile_qr_scan", "ios": "https://dc.lft.to/lastmile_qr_scan"}, "type": "electric_scooter", "lat": 38.84288433333333, "is_reserved": 0, "fusion_lat": 0.0}, {"bike_id": "5dd68cd355730452af7bd65072baa25e", "fusion_lon": 0.0, "lon": -77.042775, "name": "5dd68cd355730452af7bd65072baa25e", "is_disabled": 0, "rental_uris": {"android": "https://dc.lft.to/lastmile_qr_scan", "ios": "https://dc.lft.to/lastmile_qr_scan"}, "type": "electric_scooter", "lat": 38.91035, "is_reserved": 0, "fusion_lat": 0.0}, {"bike_id": "c25f57a80bb5f5dd2bf1636956a83eca", "fusion_lon": 0.0, "lon": -77.04395333333333, "name": "c25f57a80bb5f5dd2bf1636956a83eca", "is_disabled": 0, "rental_uris": {"android": "https://dc.lft.to/lastmile_qr_scan", "ios": "https://dc.lft.to/lastmile_qr_scan"}, "type": "electric_scooter", "lat": 38.910829, "is_reserved": 0, "fusion_lat": 0.0}, {"bike_id": "b6823e31128abc74802e7dca1db0ec4a", "fusion_lon": 0.0, "lon": -77.03183333333334, "name": "b6823e31128abc74802e7dca1db0ec4a", "is_disabled": 0, "rental_uris": {"android": "https://dc.lft.to/lastmile_qr_scan", "ios": "https://dc.lft.to/lastmile_qr_scan"}, "type": "electric_scooter", "lat": 38.924830666666665, "is_reserved": 0, "fusion_lat": 0.0}, {"bike_id": "f0ad80649bdb7abbf0f4ad4dafe3b42d", "fusion_lon": 0.0, "lon": -76.96465833333333, "name": "f0ad80649bdb7abbf0f4ad4dafe3b42d", "is_disabled": 0, "rental_uris": {"android": "https://dc.lft.to/lastmile_qr_scan", "ios": "https://dc.lft.to/lastmile_qr_scan"}, "type": "electric_scooter", "lat": 38.93443233333333, "is_reserved": 0, "fusion_lat": 0.0}, {"bike_id": "17758aa763484027d34c0a394826d497", "fusion_lon": 0.0, "lon": -77.044538, "name": "17758aa763484027d34c0a394826d497", "is_disabled": 0, "rental_uris": {"android": "https://dc.lft.to/lastmile_qr_scan", "ios": "https://dc.lft.to/lastmile_qr_scan"}, "type": "electric_scooter", "lat": 38.91186033333334, "is_reserved": 0, "fusion_lat": 0.0}, {"bike_id": "17e76c57931b6270e43c714c520cb39c", "fusion_lon": 0.0, "lon": -77.02370716666667, "name": "17e76c57931b6270e43c714c520cb39c", "is_disabled": 0, "rental_uris": {"android": "https://dc.lft.to/lastmile_qr_scan", "ios": "https://dc.lft.to/lastmile_qr_scan"}, "type": "electric_scooter", "lat": 38.879158333333336, "is_reserved": 0, "fusion_lat": 0.0}, {"bike_id": "b876e9a6287c1e22e01ab8364dba5c62", "fusion_lon": 0.0, "lon": -76.95018866666666, "name": "b876e9a6287c1e22e01ab8364dba5c62", "is_disabled": 0, "rental_uris": {"android": "https://dc.lft.to/lastmile_qr_scan", "ios": "https://dc.lft.to/lastmile_qr_scan"}, "type": "electric_scooter", "lat": 38.893873, "is_reserved": 0, "fusion_lat": 0.0}, {"bike_id": "6d824075099301fa0abdce2af403f2f6", "fusion_lon": 0.0, "lon": -77.02473916666666, "name": "6d824075099301fa0abdce2af403f2f6", "is_disabled": 0, "rental_uris": {"android": "https://dc.lft.to/lastmile_qr_scan", "ios": "https://dc.lft.to/lastmile_qr_scan"}, "type": "electric_scooter", "lat": 38.90324366666667, "is_reserved": 0, "fusion_lat": 0.0}, {"bike_id": "d08f0b295de39a99495aba73d1b45230", "fusion_lon": 0.0, "lon": -76.9952965, "name": "d08f0b295de39a99495aba73d1b45230", "is_disabled": 0, "rental_uris": {"android": "https://dc.lft.to/lastmile_qr_scan", "ios": "https://dc.lft.to/lastmile_qr_scan"}, "type": "electric_scooter", "lat": 38.862442333333334, "is_reserved": 0, "fusion_lat": 0.0}, {"bike_id": "fb969c8b952f0b8bc9588b23a10ee4da", "fusion_lon": 0.0, "lon": -76.995983, "name": "fb969c8b952f0b8bc9588b23a10ee4da", "is_disabled": 0, "rental_uris": {"android": "https://dc.lft.to/lastmile_qr_scan", "ios": "https://dc.lft.to/lastmile_qr_scan"}, "type": "electric_bike", "lat": 38.95070466666667, "is_reserved": 0, "fusion_lat": 0.0}, {"bike_id": "a15aaa77ddd3135dcec7cf54d3ca1ef4", "fusion_lon": 0.0, "lon": -77.02208766666666, "name": "a15aaa77ddd3135dcec7cf54d3ca1ef4", "is_disabled": 0, "rental_uris": {"android": "https://dc.lft.to/lastmile_qr_scan", "ios": "https://dc.lft.to/lastmile_qr_scan"}, "type": "electric_scooter", "lat": 38.91556716666667, "is_reserved": 0, "fusion_lat": 0.0}, {"bike_id": "5481d47ca586480c1b95f2f0d5464d81", "fusion_lon": 0.0, "lon": -77.02802083333333, "name": "5481d47ca586480c1b95f2f0d5464d81", "is_disabled": 0, "rental_uris": {"android": "https://dc.lft.to/lastmile_qr_scan", "ios": "https://dc.lft.to/lastmile_qr_scan"}, "type": "electric_scooter", "lat": 38.916793166666665, "is_reserved": 0, "fusion_lat": 0.0}, {"bike_id": "21c40e3f16853c05835959ca0bc42ad9", "fusion_lon": 0.0, "lon": -77.07308933333333, "name": "21c40e3f16853c05835959ca0bc42ad9", "is_disabled": 0, "rental_uris": {"android": "https://dc.lft.to/lastmile_qr_scan", "ios": "https://dc.lft.to/lastmile_qr_scan"}, "type": "electric_scooter", "lat": 38.9356315, "is_reserved": 0, "fusion_lat": 0.0}, {"bike_id": "04fb1205ace4b4ff21073d42e71e10a1", "fusion_lon": 0.0, "lon": -77.00569166666666, "name": "04fb1205ace4b4ff21073d42e71e10a1", "is_disabled": 0, "rental_uris": {"android": "https://dc.lft.to/lastmile_qr_scan", "ios": "https://dc.lft.to/lastmile_qr_scan"}, "type": "electric_scooter", "lat": 38.9056665, "is_reserved": 0, "fusion_lat": 0.0}, {"bike_id": "de93bbdbfd6b5446d10fba8c005848ca", "fusion_lon": 0.0, "lon": -77.035389, "name": "de93bbdbfd6b5446d10fba8c005848ca", "is_disabled": 0, "rental_uris": {"android": "https://dc.lft.to/lastmile_qr_scan", "ios": "https://dc.lft.to/lastmile_qr_scan"}, "type": "electric_scooter", "lat": 38.9232045, "is_reserved": 0, "fusion_lat": 0.0}, {"bike_id": "c6d8b365d64985f4502b5fd5099692d7", "fusion_lon": 0.0, "lon": -77.00669166666667, "name": "c6d8b365d64985f4502b5fd5099692d7", "is_disabled": 0, "rental_uris": {"android": "https://dc.lft.to/lastmile_qr_scan", "ios": "https://dc.lft.to/lastmile_qr_scan"}, "type": "electric_bike", "lat": 38.9450585, "is_reserved": 0, "fusion_lat": 0.0}, {"bike_id": "62afc4b90604a8a7cce03b023243fe59", "fusion_lon": 0.0, "lon": -77.02519366666667, "name": "62afc4b90604a8a7cce03b023243fe59", "is_disabled": 0, "rental_uris": {"android": "https://dc.lft.to/lastmile_qr_scan", "ios": "https://dc.lft.to/lastmile_qr_scan"}, "type": "electric_scooter", "lat": 38.94618666666667, "is_reserved": 0, "fusion_lat": 0.0}, {"bike_id": "bd957157e2a27937ae5b43877afe0fc4", "fusion_lon": 0.0, "lon": -77.024915, "name": "bd957157e2a27937ae5b43877afe0fc4", "is_disabled": 0, "rental_uris": {"android": "https://dc.lft.to/lastmile_qr_scan", "ios": "https://dc.lft.to/lastmile_qr_scan"}, "type": "electric_bike", "lat": 38.895862666666666, "is_reserved": 0, "fusion_lat": 0.0}, {"bike_id": "86d0aab5c9265d223d6072d096e34732", "fusion_lon": 0.0, "lon": -77.01188583333334, "name": "86d0aab5c9265d223d6072d096e34732", "is_disabled": 0, "rental_uris": {"android": "https://dc.lft.to/lastmile_qr_scan", "ios": "https://dc.lft.to/lastmile_qr_scan"}, "type": "electric_scooter", "lat": 38.915471833333335, "is_reserved": 0, "fusion_lat": 0.0}, {"bike_id": "48638335909b07d7d6c2c31c1594afbc", "fusion_lon": 0.0, "lon": -77.05392616666667, "name": "48638335909b07d7d6c2c31c1594afbc", "is_disabled": 0, "rental_uris": {"android": "https://dc.lft.to/lastmile_qr_scan", "ios": "https://dc.lft.to/lastmile_qr_scan"}, "type": "electric_scooter", "lat": 38.9281055, "is_reserved": 0, "fusion_lat": 0.0}, {"bike_id": "706c07274772405f68c1948fbbb976a9", "fusion_lon": 0.0, "lon": -77.01948316666666, "name": "706c07274772405f68c1948fbbb976a9", "is_disabled": 0, "rental_uris": {"android": "https://dc.lft.to/lastmile_qr_scan", "ios": "https://dc.lft.to/lastmile_qr_scan"}, "type": "electric_scooter", "lat": 38.92418266666667, "is_reserved": 0, "fusion_lat": 0.0}, {"bike_id": "9dc3cb6e961a206555705ef4300148f3", "fusion_lon": 0.0, "lon": -76.98710633333333, "name": "9dc3cb6e961a206555705ef4300148f3", "is_disabled": 0, "rental_uris": {"android": "https://dc.lft.to/lastmile_qr_scan", "ios": "https://dc.lft.to/lastmile_qr_scan"}, "type": "electric_scooter", "lat": 38.86697233333334, "is_reserved": 0, "fusion_lat": 0.0}, {"bike_id": "f3e75f3f6e02235cc666961dce36148d", "fusion_lon": 0.0, "lon": -77.0365805, "name": "f3e75f3f6e02235cc666961dce36148d", "is_disabled": 0, "rental_uris": {"android": "https://dc.lft.to/lastmile_qr_scan", "ios": "https://dc.lft.to/lastmile_qr_scan"}, "type": "electric_scooter", "lat": 38.9297845, "is_reserved": 0, "fusion_lat": 0.0}, {"bike_id": "ee8a021f81ab4d8e38179a7451ce0a08", "fusion_lon": 0.0, "lon": -77.03284483333333, "name": "ee8a021f81ab4d8e38179a7451ce0a08", "is_disabled": 0, "rental_uris": {"android": "https://dc.lft.to/lastmile_qr_scan", "ios": "https://dc.lft.to/lastmile_qr_scan"}, "type": "electric_scooter", "lat": 38.929464833333334, "is_reserved": 0, "fusion_lat": 0.0}, {"bike_id": "bd7279823d1610793e7368e213bae47d", "fusion_lon": 0.0, "lon": -77.04342666666666, "name": "bd7279823d1610793e7368e213bae47d", "is_disabled": 0, "rental_uris": {"android": "https://dc.lft.to/lastmile_qr_scan", "ios": "https://dc.lft.to/lastmile_qr_scan"}, "type": "electric_scooter", "lat": 38.903284166666666, "is_reserved": 0, "fusion_lat": 0.0}, {"bike_id": "3b627dc7f10e365178f7b7699888d862", "fusion_lon": 0.0, "lon": -77.02474366666667, "name": "3b627dc7f10e365178f7b7699888d862", "is_disabled": 0, "rental_uris": {"android": "https://dc.lft.to/lastmile_qr_scan", "ios": "https://dc.lft.to/lastmile_qr_scan"}, "type": "electric_scooter", "lat": 38.918124666666664, "is_reserved": 0, "fusion_lat": 0.0}, {"bike_id": "bf09375733ca866b37309b3587548566", "fusion_lon": 0.0, "lon": -77.017761, "name": "bf09375733ca866b37309b3587548566", "is_disabled": 0, "rental_uris": {"android": "https://dc.lft.to/lastmile_qr_scan", "ios": "https://dc.lft.to/lastmile_qr_scan"}, "type": "electric_scooter", "lat": 38.907813833333336, "is_reserved": 0, "fusion_lat": 0.0}, {"bike_id": "41eec7889b57154f33cffc0a9f09eb62", "fusion_lon": 0.0, "lon": -77.02360083333333, "name": "41eec7889b57154f33cffc0a9f09eb62", "is_disabled": 0, "rental_uris": {"android": "https://dc.lft.to/lastmile_qr_scan", "ios": "https://dc.lft.to/lastmile_qr_scan"}, "type": "electric_scooter", "lat": 38.92511783333333, "is_reserved": 0, "fusion_lat": 0.0}, {"bike_id": "5ba58dd640970b52c9c140da4234b0d2", "fusion_lon": 0.0, "lon": -77.03561316666666, "name": "5ba58dd640970b52c9c140da4234b0d2", "is_disabled": 0, "rental_uris": {"android": "https://dc.lft.to/lastmile_qr_scan", "ios": "https://dc.lft.to/lastmile_qr_scan"}, "type": "electric_scooter", "lat": 38.9083335, "is_reserved": 0, "fusion_lat": 0.0}, {"bike_id": "dca235266cfb891e53378a550cf9bf39", "fusion_lon": 0.0, "lon": -77.00401216666667, "name": "dca235266cfb891e53378a550cf9bf39", "is_disabled": 0, "rental_uris": {"android": "https://dc.lft.to/lastmile_qr_scan", "ios": "https://dc.lft.to/lastmile_qr_scan"}, "type": "electric_scooter", "lat": 38.87656033333333, "is_reserved": 0, "fusion_lat": 0.0}, {"bike_id": "3c2bb0a52aad999315ee945dc58bb6fe", "fusion_lon": 0.0, "lon": -77.04398066666667, "name": "3c2bb0a52aad999315ee945dc58bb6fe", "is_disabled": 0, "rental_uris": {"android": "https://dc.lft.to/lastmile_qr_scan", "ios": "https://dc.lft.to/lastmile_qr_scan"}, "type": "electric_scooter", "lat": 38.920641833333335, "is_reserved": 0, "fusion_lat": 0.0}, {"bike_id": "2600ae4cf4c95f3a6955be43ad013bcd", "fusion_lon": 0.0, "lon": -77.08188183333333, "name": "2600ae4cf4c95f3a6955be43ad013bcd", "is_disabled": 0, "rental_uris": {"android": "https://dc.lft.to/lastmile_qr_scan", "ios": "https://dc.lft.to/lastmile_qr_scan"}, "type": "electric_bike", "lat": 38.855625833333335, "is_reserved": 0, "fusion_lat": 0.0}, {"bike_id": "1ef58c9db346d85555aee1af9e8f1e60", "fusion_lon": 0.0, "lon": -77.00568016666666, "name": "1ef58c9db346d85555aee1af9e8f1e60", "is_disabled": 0, "rental_uris": {"android": "https://dc.lft.to/lastmile_qr_scan", "ios": "https://dc.lft.to/lastmile_qr_scan"}, "type": "electric_scooter", "lat": 38.885019666666665, "is_reserved": 0, "fusion_lat": 0.0}, {"bike_id": "5262c36526035866d2c6df9e4a8db19c", "fusion_lon": 0.0, "lon": -76.98976216666667, "name": "5262c36526035866d2c6df9e4a8db19c", "is_disabled": 0, "rental_uris": {"android": "https://dc.lft.to/lastmile_qr_scan", "ios": "https://dc.lft.to/lastmile_qr_scan"}, "type": "electric_scooter", "lat": 38.865066666666664, "is_reserved": 0, "fusion_lat": 0.0}, {"bike_id": "a0f2734c845364db519fb9358ade6b35", "fusion_lon": 0.0, "lon": -76.95187, "name": "a0f2734c845364db519fb9358ade6b35", "is_disabled": 0, "rental_uris": {"android": "https://dc.lft.to/lastmile_qr_scan", "ios": "https://dc.lft.to/lastmile_qr_scan"}, "type": "electric_scooter", "lat": 38.90739716666667, "is_reserved": 0, "fusion_lat": 0.0}, {"bike_id": "af90a661c90afea9fedb838a66ca1f48", "fusion_lon": 0.0, "lon": -76.9373205, "name": "af90a661c90afea9fedb838a66ca1f48", "is_disabled": 0, "rental_uris": {"android": "https://dc.lft.to/lastmile_qr_scan", "ios": "https://dc.lft.to/lastmile_qr_scan"}, "type": "electric_scooter", "lat": 38.8901145, "is_reserved": 0, "fusion_lat": 0.0}, {"bike_id": "eb40282365bc963bcb78a374f95b5a6a", "fusion_lon": 0.0, "lon": -77.00137733333334, "name": "eb40282365bc963bcb78a374f95b5a6a", "is_disabled": 0, "rental_uris": {"android": "https://dc.lft.to/lastmile_qr_scan", "ios": "https://dc.lft.to/lastmile_qr_scan"}, "type": "electric_scooter", "lat": 38.905033333333336, "is_reserved": 0, "fusion_lat": 0.0}, {"bike_id": "f132d4fe199e9a0252d635a1e5be262e", "fusion_lon": 0.0, "lon": -77.041777, "name": "f132d4fe199e9a0252d635a1e5be262e", "is_disabled": 0, "rental_uris": {"android": "https://dc.lft.to/lastmile_qr_scan", "ios": "https://dc.lft.to/lastmile_qr_scan"}, "type": "electric_scooter", "lat": 38.9057765, "is_reserved": 0, "fusion_lat": 0.0}, {"bike_id": "4f1be31435b918dd14408dd48ef99eb8", "fusion_lon": 0.0, "lon": -77.02686966666667, "name": "4f1be31435b918dd14408dd48ef99eb8", "is_disabled": 0, "rental_uris": {"android": "https://dc.lft.to/lastmile_qr_scan", "ios": "https://dc.lft.to/lastmile_qr_scan"}, "type": "electric_scooter", "lat": 38.896240666666664, "is_reserved": 0, "fusion_lat": 0.0}, {"bike_id": "0d6271c4513f5c11a625511b5a900d30", "fusion_lon": 0.0, "lon": -77.00723983333333, "name": "0d6271c4513f5c11a625511b5a900d30", "is_disabled": 0, "rental_uris": {"android": "https://dc.lft.to/lastmile_qr_scan", "ios": "https://dc.lft.to/lastmile_qr_scan"}, "type": "electric_scooter", "lat": 38.88491466666667, "is_reserved": 0, "fusion_lat": 0.0}, {"bike_id": "a38f8347cca7bef0bce57d92b95d5e59", "fusion_lon": 0.0, "lon": -77.01654116666667, "name": "a38f8347cca7bef0bce57d92b95d5e59", "is_disabled": 0, "rental_uris": {"android": "https://dc.lft.to/lastmile_qr_scan", "ios": "https://dc.lft.to/lastmile_qr_scan"}, "type": "electric_scooter", "lat": 38.8811795, "is_reserved": 0, "fusion_lat": 0.0}, {"bike_id": "81867364765050d00991de72d241ccf5", "fusion_lon": 0.0, "lon": -77.03061883333334, "name": "81867364765050d00991de72d241ccf5", "is_disabled": 0, "rental_uris": {"android": "https://dc.lft.to/lastmile_qr_scan", "ios": "https://dc.lft.to/lastmile_qr_scan"}, "type": "electric_scooter", "lat": 38.886044, "is_reserved": 0, "fusion_lat": 0.0}, {"bike_id": "996a845933ae7a2073235a3037093893", "fusion_lon": 0.0, "lon": -77.04464366666667, "name": "996a845933ae7a2073235a3037093893", "is_disabled": 0, "rental_uris": {"android": "https://dc.lft.to/lastmile_qr_scan", "ios": "https://dc.lft.to/lastmile_qr_scan"}, "type": "electric_scooter", "lat": 38.9111315, "is_reserved": 0, "fusion_lat": 0.0}, {"bike_id": "d0257ad7ce41de2b1061cd65ad80b009", "fusion_lon": 0.0, "lon": -77.0414795, "name": "d0257ad7ce41de2b1061cd65ad80b009", "is_disabled": 0, "rental_uris": {"android": "https://dc.lft.to/lastmile_qr_scan", "ios": "https://dc.lft.to/lastmile_qr_scan"}, "type": "electric_scooter", "lat": 38.91553066666667, "is_reserved": 0, "fusion_lat": 0.0}, {"bike_id": "2b7a30d39995d6ee542f65f4b733991a", "fusion_lon": 0.0, "lon": -76.99053883333333, "name": "2b7a30d39995d6ee542f65f4b733991a", "is_disabled": 0, "rental_uris": {"android": "https://dc.lft.to/lastmile_qr_scan", "ios": "https://dc.lft.to/lastmile_qr_scan"}, "type": "electric_scooter", "lat": 38.863596333333334, "is_reserved": 0, "fusion_lat": 0.0}, {"bike_id": "056b2b773053be221f005c317bc8731f", "fusion_lon": 0.0, "lon": -76.98582816666666, "name": "056b2b773053be221f005c317bc8731f", "is_disabled": 0, "rental_uris": {"android": "https://dc.lft.to/lastmile_qr_scan", "ios": "https://dc.lft.to/lastmile_qr_scan"}, "type": "electric_bike", "lat": 38.9128165, "is_reserved": 0, "fusion_lat": 0.0}, {"bike_id": "460b1969249b7a925fcffb0e120f9ecd", "fusion_lon": 0.0, "lon": -77.0384005, "name": "460b1969249b7a925fcffb0e120f9ecd", "is_disabled": 0, "rental_uris": {"android": "https://dc.lft.to/lastmile_qr_scan", "ios": "https://dc.lft.to/lastmile_qr_scan"}, "type": "electric_scooter", "lat": 38.90276333333333, "is_reserved": 0, "fusion_lat": 0.0}, {"bike_id": "28614bb521b264cb7bf5fe7921d96843", "fusion_lon": 0.0, "lon": -77.03932983333333, "name": "28614bb521b264cb7bf5fe7921d96843", "is_disabled": 0, "rental_uris": {"android": "https://dc.lft.to/lastmile_qr_scan", "ios": "https://dc.lft.to/lastmile_qr_scan"}, "type": "electric_scooter", "lat": 38.902686, "is_reserved": 0, "fusion_lat": 0.0}, {"bike_id": "56339c89e58bef1f662c746e6a2406ad", "fusion_lon": 0.0, "lon": -77.01845783333333, "name": "56339c89e58bef1f662c746e6a2406ad", "is_disabled": 0, "rental_uris": {"android": "https://dc.lft.to/lastmile_qr_scan", "ios": "https://dc.lft.to/lastmile_qr_scan"}, "type": "electric_scooter", "lat": 38.9025535, "is_reserved": 0, "fusion_lat": 0.0}, {"bike_id": "67ece5635dba0adb3a4dc3881e5be335", "fusion_lon": 0.0, "lon": -77.02286216666667, "name": "67ece5635dba0adb3a4dc3881e5be335", "is_disabled": 0, "rental_uris": {"android": "https://dc.lft.to/lastmile_qr_scan", "ios": "https://dc.lft.to/lastmile_qr_scan"}, "type": "electric_scooter", "lat": 38.8906145, "is_reserved": 0, "fusion_lat": 0.0}, {"bike_id": "e3a0c4384cba2832188f25105f80de3e", "fusion_lon": 0.0, "lon": -77.01075433333334, "name": "e3a0c4384cba2832188f25105f80de3e", "is_disabled": 0, "rental_uris": {"android": "https://dc.lft.to/lastmile_qr_scan", "ios": "https://dc.lft.to/lastmile_qr_scan"}, "type": "electric_bike", "lat": 38.89801816666667, "is_reserved": 0, "fusion_lat": 0.0}, {"bike_id": "9c472ce89854771ad5bdbd23fa61361f", "fusion_lon": 0.0, "lon": -76.99030983333333, "name": "9c472ce89854771ad5bdbd23fa61361f", "is_disabled": 0, "rental_uris": {"android": "https://dc.lft.to/lastmile_qr_scan", "ios": "https://dc.lft.to/lastmile_qr_scan"}, "type": "electric_scooter", "lat": 38.863732166666665, "is_reserved": 0, "fusion_lat": 0.0}, {"bike_id": "17f256659eb90481b2a127114d1cf3e7", "fusion_lon": 0.0, "lon": -77.0325735, "name": "17f256659eb90481b2a127114d1cf3e7", "is_disabled": 0, "rental_uris": {"android": "https://dc.lft.to/lastmile_qr_scan", "ios": "https://dc.lft.to/lastmile_qr_scan"}, "type": "electric_scooter", "lat": 38.939695666666665, "is_reserved": 0, "fusion_lat": 0.0}, {"bike_id": "1bb097d3306233a0319ffa392fa105dc", "fusion_lon": 0.0, "lon": -77.0413985, "name": "1bb097d3306233a0319ffa392fa105dc", "is_disabled": 0, "rental_uris": {"android": "https://dc.lft.to/lastmile_qr_scan", "ios": "https://dc.lft.to/lastmile_qr_scan"}, "type": "electric_scooter", "lat": 38.89347016666667, "is_reserved": 0, "fusion_lat": 0.0}, {"bike_id": "590f77adc8aec5e3b54c0d8e12d6236b", "fusion_lon": 0.0, "lon": -77.03366683333333, "name": "590f77adc8aec5e3b54c0d8e12d6236b", "is_disabled": 0, "rental_uris": {"android": "https://dc.lft.to/lastmile_qr_scan", "ios": "https://dc.lft.to/lastmile_qr_scan"}, "type": "electric_scooter", "lat": 38.90005383333333, "is_reserved": 0, "fusion_lat": 0.0}, {"bike_id": "b914a0c2f99648853be502ddf06e01d8", "fusion_lon": 0.0, "lon": -77.02674166666667, "name": "b914a0c2f99648853be502ddf06e01d8", "is_disabled": 0, "rental_uris": {"android": "https://dc.lft.to/lastmile_qr_scan", "ios": "https://dc.lft.to/lastmile_qr_scan"}, "type": "electric_scooter", "lat": 38.898383, "is_reserved": 0, "fusion_lat": 0.0}, {"bike_id": "e96cd640db1d507a0a678e0aad873560", "fusion_lon": 0.0, "lon": -77.03316016666666, "name": "e96cd640db1d507a0a678e0aad873560", "is_disabled": 0, "rental_uris": {"android": "https://dc.lft.to/lastmile_qr_scan", "ios": "https://dc.lft.to/lastmile_qr_scan"}, "type": "electric_scooter", "lat": 38.9180425, "is_reserved": 0, "fusion_lat": 0.0}, {"bike_id": "3a9e5aec444c077e211c13aeacce2324", "fusion_lon": 0.0, "lon": -77.038658, "name": "3a9e5aec444c077e211c13aeacce2324", "is_disabled": 0, "rental_uris": {"android": "https://dc.lft.to/lastmile_qr_scan", "ios": "https://dc.lft.to/lastmile_qr_scan"}, "type": "electric_scooter", "lat": 38.917085, "is_reserved": 0, "fusion_lat": 0.0}, {"bike_id": "f2ff4b9f5b0bfab6366fa2cca4b7a165", "fusion_lon": 0.0, "lon": -77.0476115, "name": "f2ff4b9f5b0bfab6366fa2cca4b7a165", "is_disabled": 0, "rental_uris": {"android": "https://dc.lft.to/lastmile_qr_scan", "ios": "https://dc.lft.to/lastmile_qr_scan"}, "type": "electric_scooter", "lat": 38.905389, "is_reserved": 0, "fusion_lat": 0.0}, {"bike_id": "b8196201ddcbb188548ad018ae0f9ee5", "fusion_lon": 0.0, "lon": -76.8953585, "name": "b8196201ddcbb188548ad018ae0f9ee5", "is_disabled": 0, "rental_uris": {"android": "https://dc.lft.to/lastmile_qr_scan", "ios": "https://dc.lft.to/lastmile_qr_scan"}, "type": "electric_bike", "lat": 38.9455125, "is_reserved": 0, "fusion_lat": 0.0}, {"bike_id": "2c277738bd1d84221d51c8a2319d190e", "fusion_lon": 0.0, "lon": -76.993307, "name": "2c277738bd1d84221d51c8a2319d190e", "is_disabled": 0, "rental_uris": {"android": "https://dc.lft.to/lastmile_qr_scan", "ios": "https://dc.lft.to/lastmile_qr_scan"}, "type": "electric_scooter", "lat": 38.92441983333333, "is_reserved": 0, "fusion_lat": 0.0}, {"bike_id": "a7cb5f3b2fec8f5f9d2ad3ae3078ca9f", "fusion_lon": 0.0, "lon": -77.02979633333334, "name": "a7cb5f3b2fec8f5f9d2ad3ae3078ca9f", "is_disabled": 0, "rental_uris": {"android": "https://dc.lft.to/lastmile_qr_scan", "ios": "https://dc.lft.to/lastmile_qr_scan"}, "type": "electric_scooter", "lat": 38.934667833333336, "is_reserved": 0, "fusion_lat": 0.0}, {"bike_id": "b1352b6ac6db35fee07ff39b238cc0b0", "fusion_lon": 0.0, "lon": -77.052318, "name": "b1352b6ac6db35fee07ff39b238cc0b0", "is_disabled": 0, "rental_uris": {"android": "https://dc.lft.to/lastmile_qr_scan", "ios": "https://dc.lft.to/lastmile_qr_scan"}, "type": "electric_scooter", "lat": 38.92450783333334, "is_reserved": 0, "fusion_lat": 0.0}, {"bike_id": "1a8014908aee998ffd4bf07baa3438b5", "fusion_lon": 0.0, "lon": -76.97239066666667, "name": "1a8014908aee998ffd4bf07baa3438b5", "is_disabled": 0, "rental_uris": {"android": "https://dc.lft.to/lastmile_qr_scan", "ios": "https://dc.lft.to/lastmile_qr_scan"}, "type": "electric_bike", "lat": 38.949011666666664, "is_reserved": 0, "fusion_lat": 0.0}, {"bike_id": "0e157958f6ca46d00a6c154e5e9cc089", "fusion_lon": 0.0, "lon": -77.0858575, "name": "0e157958f6ca46d00a6c154e5e9cc089", "is_disabled": 0, "rental_uris": {"android": "https://dc.lft.to/lastmile_qr_scan", "ios": "https://dc.lft.to/lastmile_qr_scan"}, "type": "electric_bike", "lat": 38.84439733333333, "is_reserved": 0, "fusion_lat": 0.0}, {"bike_id": "f191255e59c0151ea7fd9679070054c8", "fusion_lon": 0.0, "lon": -77.10727166666666, "name": "f191255e59c0151ea7fd9679070054c8", "is_disabled": 0, "rental_uris": {"android": "https://dc.lft.to/lastmile_qr_scan", "ios": "https://dc.lft.to/lastmile_qr_scan"}, "type": "electric_bike", "lat": 38.964861, "is_reserved": 0, "fusion_lat": 0.0}, {"bike_id": "e5cfbb6fc63aeed65ab44c87a2d1f664", "fusion_lon": 0.0, "lon": -77.00131416666666, "name": "e5cfbb6fc63aeed65ab44c87a2d1f664", "is_disabled": 0, "rental_uris": {"android": "https://dc.lft.to/lastmile_qr_scan", "ios": "https://dc.lft.to/lastmile_qr_scan"}, "type": "electric_scooter", "lat": 38.905334333333336, "is_reserved": 0, "fusion_lat": 0.0}, {"bike_id": "1839227f8d3d05a8db072ea39a8ad56e", "fusion_lon": 0.0, "lon": -76.99932633333333, "name": "1839227f8d3d05a8db072ea39a8ad56e", "is_disabled": 0, "rental_uris": {"android": "https://dc.lft.to/lastmile_qr_scan", "ios": "https://dc.lft.to/lastmile_qr_scan"}, "type": "electric_scooter", "lat": 38.892013166666665, "is_reserved": 0, "fusion_lat": 0.0}, {"bike_id": "7b4b3b4028c83aef840627710251c715", "fusion_lon": 0.0, "lon": -77.03330516666666, "name": "7b4b3b4028c83aef840627710251c715", "is_disabled": 0, "rental_uris": {"android": "https://dc.lft.to/lastmile_qr_scan", "ios": "https://dc.lft.to/lastmile_qr_scan"}, "type": "electric_scooter", "lat": 38.90116733333333, "is_reserved": 0, "fusion_lat": 0.0}, {"bike_id": "aea4e6e0f98b51aaab8bd87c20f61857", "fusion_lon": 0.0, "lon": -77.04016366666667, "name": "aea4e6e0f98b51aaab8bd87c20f61857", "is_disabled": 0, "rental_uris": {"android": "https://dc.lft.to/lastmile_qr_scan", "ios": "https://dc.lft.to/lastmile_qr_scan"}, "type": "electric_bike", "lat": 38.79325716666666, "is_reserved": 0, "fusion_lat": 0.0}, {"bike_id": "1f6490c909c29afdd3dfe77392ccc9b4", "fusion_lon": 0.0, "lon": -77.02691816666666, "name": "1f6490c909c29afdd3dfe77392ccc9b4", "is_disabled": 0, "rental_uris": {"android": "https://dc.lft.to/lastmile_qr_scan", "ios": "https://dc.lft.to/lastmile_qr_scan"}, "type": "electric_scooter", "lat": 38.906808166666664, "is_reserved": 0, "fusion_lat": 0.0}, {"bike_id": "a800696af536dfc7deb058ba928106bb", "fusion_lon": 0.0, "lon": -77.03246216666666, "name": "a800696af536dfc7deb058ba928106bb", "is_disabled": 0, "rental_uris": {"android": "https://dc.lft.to/lastmile_qr_scan", "ios": "https://dc.lft.to/lastmile_qr_scan"}, "type": "electric_scooter", "lat": 38.919131166666666, "is_reserved": 0, "fusion_lat": 0.0}, {"bike_id": "7c179d31143affa0ffff907c0d7c2856", "fusion_lon": 0.0, "lon": -77.03320283333333, "name": "7c179d31143affa0ffff907c0d7c2856", "is_disabled": 0, "rental_uris": {"android": "https://dc.lft.to/lastmile_qr_scan", "ios": "https://dc.lft.to/lastmile_qr_scan"}, "type": "electric_scooter", "lat": 38.921479, "is_reserved": 0, "fusion_lat": 0.0}, {"bike_id": "749ae22a2884db56bd03bbf26d579611", "fusion_lon": 0.0, "lon": -77.04357783333333, "name": "749ae22a2884db56bd03bbf26d579611", "is_disabled": 0, "rental_uris": {"android": "https://dc.lft.to/lastmile_qr_scan", "ios": "https://dc.lft.to/lastmile_qr_scan"}, "type": "electric_scooter", "lat": 38.903979666666665, "is_reserved": 0, "fusion_lat": 0.0}, {"bike_id": "9b9ec04cf2b01a4e18e1879d597c0348", "fusion_lon": 0.0, "lon": -77.00588783333333, "name": "9b9ec04cf2b01a4e18e1879d597c0348", "is_disabled": 0, "rental_uris": {"android": "https://dc.lft.to/lastmile_qr_scan", "ios": "https://dc.lft.to/lastmile_qr_scan"}, "type": "electric_scooter", "lat": 38.873090166666664, "is_reserved": 0, "fusion_lat": 0.0}, {"bike_id": "bffdabe04a0f4a66f333b1fb2cead420", "fusion_lon": 0.0, "lon": -77.04419166666666, "name": "bffdabe04a0f4a66f333b1fb2cead420", "is_disabled": 0, "rental_uris": {"android": "https://dc.lft.to/lastmile_qr_scan", "ios": "https://dc.lft.to/lastmile_qr_scan"}, "type": "electric_scooter", "lat": 38.909111, "is_reserved": 0, "fusion_lat": 0.0}, {"bike_id": "d5827d9ab7815207a6934b8e3f505fd7", "fusion_lon": 0.0, "lon": -77.03189466666667, "name": "d5827d9ab7815207a6934b8e3f505fd7", "is_disabled": 0, "rental_uris": {"android": "https://dc.lft.to/lastmile_qr_scan", "ios": "https://dc.lft.to/lastmile_qr_scan"}, "type": "electric_scooter", "lat": 38.91342316666667, "is_reserved": 0, "fusion_lat": 0.0}, {"bike_id": "6b4d2050cf91dbcf4dd7b2f0bdfdba22", "fusion_lon": 0.0, "lon": -77.02722466666667, "name": "6b4d2050cf91dbcf4dd7b2f0bdfdba22", "is_disabled": 0, "rental_uris": {"android": "https://dc.lft.to/lastmile_qr_scan", "ios": "https://dc.lft.to/lastmile_qr_scan"}, "type": "electric_scooter", "lat": 38.91691683333333, "is_reserved": 0, "fusion_lat": 0.0}, {"bike_id": "6b567287ae45b57c79ffc580111da21f", "fusion_lon": 0.0, "lon": -77.03289716666667, "name": "6b567287ae45b57c79ffc580111da21f", "is_disabled": 0, "rental_uris": {"android": "https://dc.lft.to/lastmile_qr_scan", "ios": "https://dc.lft.to/lastmile_qr_scan"}, "type": "electric_scooter", "lat": 38.9471025, "is_reserved": 0, "fusion_lat": 0.0}, {"bike_id": "06cff443b012d3e9c1632e53469d9a12", "fusion_lon": 0.0, "lon": -77.04016083333333, "name": "06cff443b012d3e9c1632e53469d9a12", "is_disabled": 0, "rental_uris": {"android": "https://dc.lft.to/lastmile_qr_scan", "ios": "https://dc.lft.to/lastmile_qr_scan"}, "type": "electric_scooter", "lat": 38.918179, "is_reserved": 0, "fusion_lat": 0.0}, {"bike_id": "79634489e306686a74f4accde0f57b46", "fusion_lon": 0.0, "lon": -77.041833, "name": "79634489e306686a74f4accde0f57b46", "is_disabled": 0, "rental_uris": {"android": "https://dc.lft.to/lastmile_qr_scan", "ios": "https://dc.lft.to/lastmile_qr_scan"}, "type": "electric_scooter", "lat": 38.892844, "is_reserved": 0, "fusion_lat": 0.0}, {"bike_id": "2e02b9e24df4f407ab8c010f1e3943cc", "fusion_lon": 0.0, "lon": -77.02490833333333, "name": "2e02b9e24df4f407ab8c010f1e3943cc", "is_disabled": 0, "rental_uris": {"android": "https://dc.lft.to/lastmile_qr_scan", "ios": "https://dc.lft.to/lastmile_qr_scan"}, "type": "electric_scooter", "lat": 38.94185216666666, "is_reserved": 0, "fusion_lat": 0.0}, {"bike_id": "57250038efe24677883e31a580fdc33c", "fusion_lon": 0.0, "lon": -77.01027666666667, "name": "57250038efe24677883e31a580fdc33c", "is_disabled": 0, "rental_uris": {"android": "https://dc.lft.to/lastmile_qr_scan", "ios": "https://dc.lft.to/lastmile_qr_scan"}, "type": "electric_scooter", "lat": 38.91707366666667, "is_reserved": 0, "fusion_lat": 0.0}, {"bike_id": "b0fb051000f6ea2396b8a3f02011684f", "fusion_lon": 0.0, "lon": -76.9912855, "name": "b0fb051000f6ea2396b8a3f02011684f", "is_disabled": 0, "rental_uris": {"android": "https://dc.lft.to/lastmile_qr_scan", "ios": "https://dc.lft.to/lastmile_qr_scan"}, "type": "electric_scooter", "lat": 38.8620355, "is_reserved": 0, "fusion_lat": 0.0}, {"bike_id": "3952b2df4c53601796a44b7fa0c9feae", "fusion_lon": 0.0, "lon": -77.04891383333333, "name": "3952b2df4c53601796a44b7fa0c9feae", "is_disabled": 0, "rental_uris": {"android": "https://dc.lft.to/lastmile_qr_scan", "ios": "https://dc.lft.to/lastmile_qr_scan"}, "type": "electric_scooter", "lat": 38.90074416666667, "is_reserved": 0, "fusion_lat": 0.0}, {"bike_id": "20fd25c2312e197b661a3c05128e71c6", "fusion_lon": 0.0, "lon": -77.026057, "name": "20fd25c2312e197b661a3c05128e71c6", "is_disabled": 0, "rental_uris": {"android": "https://dc.lft.to/lastmile_qr_scan", "ios": "https://dc.lft.to/lastmile_qr_scan"}, "type": "electric_scooter", "lat": 38.894222, "is_reserved": 0, "fusion_lat": 0.0}, {"bike_id": "8876b73bcbf881cb4d519623209744aa", "fusion_lon": 0.0, "lon": -77.02716033333333, "name": "8876b73bcbf881cb4d519623209744aa", "is_disabled": 0, "rental_uris": {"android": "https://dc.lft.to/lastmile_qr_scan", "ios": "https://dc.lft.to/lastmile_qr_scan"}, "type": "electric_scooter", "lat": 38.90678283333333, "is_reserved": 0, "fusion_lat": 0.0}, {"bike_id": "8327ba2e1a758509136985733fd639df", "fusion_lon": 0.0, "lon": -77.02382283333333, "name": "8327ba2e1a758509136985733fd639df", "is_disabled": 0, "rental_uris": {"android": "https://dc.lft.to/lastmile_qr_scan", "ios": "https://dc.lft.to/lastmile_qr_scan"}, "type": "electric_scooter", "lat": 38.9112185, "is_reserved": 0, "fusion_lat": 0.0}, {"bike_id": "bbbbb5ddc0ce11e9a40b8be816013212", "fusion_lon": 0.0, "lon": -77.0366245, "name": "bbbbb5ddc0ce11e9a40b8be816013212", "is_disabled": 0, "rental_uris": {"android": "https://dc.lft.to/lastmile_qr_scan", "ios": "https://dc.lft.to/lastmile_qr_scan"}, "type": "electric_scooter", "lat": 38.923278, "is_reserved": 0, "fusion_lat": 0.0}, {"bike_id": "a2c8730be64cf8f43024894d19aba2e7", "fusion_lon": 0.0, "lon": -77.02711733333334, "name": "a2c8730be64cf8f43024894d19aba2e7", "is_disabled": 0, "rental_uris": {"android": "https://dc.lft.to/lastmile_qr_scan", "ios": "https://dc.lft.to/lastmile_qr_scan"}, "type": "electric_scooter", "lat": 38.90069866666666, "is_reserved": 0, "fusion_lat": 0.0}, {"bike_id": "98c4289e6cc22b35240026522dd1c62f", "fusion_lon": 0.0, "lon": -77.01611866666667, "name": "98c4289e6cc22b35240026522dd1c62f", "is_disabled": 0, "rental_uris": {"android": "https://dc.lft.to/lastmile_qr_scan", "ios": "https://dc.lft.to/lastmile_qr_scan"}, "type": "electric_scooter", "lat": 38.9126765, "is_reserved": 0, "fusion_lat": 0.0}, {"bike_id": "9ef71c7b7eb2111f1893d8ed5ca6e6fa", "fusion_lon": 0.0, "lon": -76.98172333333333, "name": "9ef71c7b7eb2111f1893d8ed5ca6e6fa", "is_disabled": 0, "rental_uris": {"android": "https://dc.lft.to/lastmile_qr_scan", "ios": "https://dc.lft.to/lastmile_qr_scan"}, "type": "electric_scooter", "lat": 38.85670483333333, "is_reserved": 0, "fusion_lat": 0.0}, {"bike_id": "4d07aade5757b545d0b9fd1ce6240663", "fusion_lon": 0.0, "lon": -77.04000883333333, "name": "4d07aade5757b545d0b9fd1ce6240663", "is_disabled": 0, "rental_uris": {"android": "https://dc.lft.to/lastmile_qr_scan", "ios": "https://dc.lft.to/lastmile_qr_scan"}, "type": "electric_scooter", "lat": 38.93422366666667, "is_reserved": 0, "fusion_lat": 0.0}, {"bike_id": "0ca717cb023068210728adb750d30f83", "fusion_lon": 0.0, "lon": -77.04601083333333, "name": "0ca717cb023068210728adb750d30f83", "is_disabled": 0, "rental_uris": {"android": "https://dc.lft.to/lastmile_qr_scan", "ios": "https://dc.lft.to/lastmile_qr_scan"}, "type": "electric_scooter", "lat": 38.9168655, "is_reserved": 0, "fusion_lat": 0.0}, {"bike_id": "99b5000f9b903cbd7975c33e19dd6340", "fusion_lon": 0.0, "lon": -76.93213383333334, "name": "99b5000f9b903cbd7975c33e19dd6340", "is_disabled": 0, "rental_uris": {"android": "https://dc.lft.to/lastmile_qr_scan", "ios": "https://dc.lft.to/lastmile_qr_scan"}, "type": "electric_scooter", "lat": 38.880676666666666, "is_reserved": 0, "fusion_lat": 0.0}, {"bike_id": "4f881141c3582ee5c775b5cae060a88a", "fusion_lon": 0.0, "lon": -77.03479183333333, "name": "4f881141c3582ee5c775b5cae060a88a", "is_disabled": 0, "rental_uris": {"android": "https://dc.lft.to/lastmile_qr_scan", "ios": "https://dc.lft.to/lastmile_qr_scan"}, "type": "electric_scooter", "lat": 38.90562716666667, "is_reserved": 0, "fusion_lat": 0.0}, {"bike_id": "0d0928b34187d4afdaf657de2489e366", "fusion_lon": 0.0, "lon": -76.99697933333333, "name": "0d0928b34187d4afdaf657de2489e366", "is_disabled": 0, "rental_uris": {"android": "https://dc.lft.to/lastmile_qr_scan", "ios": "https://dc.lft.to/lastmile_qr_scan"}, "type": "electric_bike", "lat": 38.83863983333333, "is_reserved": 0, "fusion_lat": 0.0}, {"bike_id": "d4baf1fe60623d5b822af814224c78ab", "fusion_lon": 0.0, "lon": -77.04385133333334, "name": "d4baf1fe60623d5b822af814224c78ab", "is_disabled": 0, "rental_uris": {"android": "https://dc.lft.to/lastmile_qr_scan", "ios": "https://dc.lft.to/lastmile_qr_scan"}, "type": "electric_scooter", "lat": 38.920492, "is_reserved": 0, "fusion_lat": 0.0}, {"bike_id": "b5ce7eea482737ea87601909dd11e0f0", "fusion_lon": 0.0, "lon": -77.03230683333334, "name": "b5ce7eea482737ea87601909dd11e0f0", "is_disabled": 0, "rental_uris": {"android": "https://dc.lft.to/lastmile_qr_scan", "ios": "https://dc.lft.to/lastmile_qr_scan"}, "type": "electric_scooter", "lat": 38.917044, "is_reserved": 0, "fusion_lat": 0.0}, {"bike_id": "a0a164f234d50bcb30f4baca0e697cf3", "fusion_lon": 0.0, "lon": -77.04663583333334, "name": "a0a164f234d50bcb30f4baca0e697cf3", "is_disabled": 0, "rental_uris": {"android": "https://dc.lft.to/lastmile_qr_scan", "ios": "https://dc.lft.to/lastmile_qr_scan"}, "type": "electric_scooter", "lat": 38.900429333333335, "is_reserved": 0, "fusion_lat": 0.0}, {"bike_id": "031dfd4164e298a3c55a52bf39361b08", "fusion_lon": 0.0, "lon": -77.02154316666666, "name": "031dfd4164e298a3c55a52bf39361b08", "is_disabled": 0, "rental_uris": {"android": "https://dc.lft.to/lastmile_qr_scan", "ios": "https://dc.lft.to/lastmile_qr_scan"},