{"data": {"bikes": [{"bike_id": "c99ea9a5903924218adaf3558ce39946", "type": "electric_scooter", "is_disabled": 0, "lat": 38.90683466666667, "rental_uris": {"ios": "https://dc.lft.to/lastmile_qr_scan", "android": "https://dc.lft.to/lastmile_qr_scan"}, "is_reserved": 0, "fusion_lon": 0.0, "fusion_lat": 0.0, "lon": -76.980021, "name": "c99ea9a5903924218adaf3558ce39946"}, {"bike_id": "f8c66319a2e3c9945529e113c7c0b1f1", "type": "electric_scooter", "is_disabled": 0, "lat": 38.921547, "rental_uris": {"ios": "https://dc.lft.to/lastmile_qr_scan", "android": "https://dc.lft.to/lastmile_qr_scan"}, "is_reserved": 0, "fusion_lon": 0.0, "fusion_lat": 0.0, "lon": -77.0351545, "name": "f8c66319a2e3c9945529e113c7c0b1f1"}, {"bike_id": "b68d8c51e793cdcc7377d4bd42c5e457", "type": "electric_scooter", "is_disabled": 0, "lat": 38.916704333333335, "rental_uris": {"ios": "https://dc.lft.to/lastmile_qr_scan", "android": "https://dc.lft.to/lastmile_qr_scan"}, "is_reserved": 0, "fusion_lon": 0.0, "fusion_lat": 0.0, "lon": -77.04385916666666, "name": "b68d8c51e793cdcc7377d4bd42c5e457"}, {"bike_id": "721db9d209abba77a2ed96acb185b6c3", "type": "electric_scooter", "is_disabled": 0, "lat": 38.892132, "rental_uris": {"ios": "https://dc.lft.to/lastmile_qr_scan", "android": "https://dc.lft.to/lastmile_qr_scan"}, "is_reserved": 0, "fusion_lon": 0.0, "fusion_lat": 0.0, "lon": -77.0302295, "name": "721db9d209abba77a2ed96acb185b6c3"}, {"bike_id": "ca7997b1fd0202d1dba2ca6a9ecb6b49", "type": "electric_scooter", "is_disabled": 0, "lat": 38.904664, "rental_uris": {"ios": "https://dc.lft.to/lastmile_qr_scan", "android": "https://dc.lft.to/lastmile_qr_scan"}, "is_reserved": 0, "fusion_lon": 0.0, "fusion_lat": 0.0, "lon": -77.028102, "name": "ca7997b1fd0202d1dba2ca6a9ecb6b49"}, {"bike_id": "82b110d5db6a40535ee1be3b2806a29b", "type": "electric_scooter", "is_disabled": 0, "lat": 38.928716333333334, "rental_uris": {"ios": "https://dc.lft.to/lastmile_qr_scan", "android": "https://dc.lft.to/lastmile_qr_scan"}, "is_reserved": 0, "fusion_lon": 0.0, "fusion_lat": 0.0, "lon": -77.02775483333333, "name": "82b110d5db6a40535ee1be3b2806a29b"}, {"bike_id": "131eeaabbd4f95058bed04fb481c65d8", "type": "electric_scooter", "is_disabled": 0, "lat": 38.900132666666664, "rental_uris": {"ios": "https://dc.lft.to/lastmile_qr_scan", "android": "https://dc.lft.to/lastmile_qr_scan"}, "is_reserved": 0, "fusion_lon": 0.0, "fusion_lat": 0.0, "lon": -77.002174, "name": "131eeaabbd4f95058bed04fb481c65d8"}, {"bike_id": "630c279073fa3e83e8f06eeeeb8fec95", "type": "electric_scooter", "is_disabled": 0, "lat": 38.92968033333333, "rental_uris": {"ios": "https://dc.lft.to/lastmile_qr_scan", "android": "https://dc.lft.to/lastmile_qr_scan"}, "is_reserved": 0, "fusion_lon": 0.0, "fusion_lat": 0.0, "lon": -77.04374633333333, "name": "630c279073fa3e83e8f06eeeeb8fec95"}, {"bike_id": "5ae0e715a1332660eed666fccf791bd9", "type": "electric_scooter", "is_disabled": 0, "lat": 38.93143933333333, "rental_uris": {"ios": "https://dc.lft.to/lastmile_qr_scan", "android": "https://dc.lft.to/lastmile_qr_scan"}, "is_reserved": 0, "fusion_lon": 0.0, "fusion_lat": 0.0, "lon": -77.03359, "name": "5ae0e715a1332660eed666fccf791bd9"}, {"bike_id": "198e70733a88bc370419f035d5cd6db9", "type": "electric_scooter", "is_disabled": 0, "lat": 38.91062133333333, "rental_uris": {"ios": "https://dc.lft.to/lastmile_qr_scan", "android": "https://dc.lft.to/lastmile_qr_scan"}, "is_reserved": 0, "fusion_lon": 0.0, "fusion_lat": 0.0, "lon": -77.0371375, "name": "198e70733a88bc370419f035d5cd6db9"}, {"bike_id": "4a1a6493eaf4bc2af0e17e33956b20a0", "type": "electric_scooter", "is_disabled": 0, "lat": 38.948549666666665, "rental_uris": {"ios": "https://dc.lft.to/lastmile_qr_scan", "android": "https://dc.lft.to/lastmile_qr_scan"}, "is_reserved": 0, "fusion_lon": 0.0, "fusion_lat": 0.0, "lon": -77.08021283333333, "name": "4a1a6493eaf4bc2af0e17e33956b20a0"}, {"bike_id": "6733553e9c55e10efb44741fb80e1501", "type": "electric_scooter", "is_disabled": 0, "lat": 38.91607583333333, "rental_uris": {"ios": "https://dc.lft.to/lastmile_qr_scan", "android": "https://dc.lft.to/lastmile_qr_scan"}, "is_reserved": 0, "fusion_lon": 0.0, "fusion_lat": 0.0, "lon": -77.04880433333334, "name": "6733553e9c55e10efb44741fb80e1501"}, {"bike_id": "556d4b0c4c79dbb1e7429f979c36a840", "type": "electric_bike", "is_disabled": 0, "lat": 38.93226933333333, "rental_uris": {"ios": "https://dc.lft.to/lastmile_qr_scan", "android": "https://dc.lft.to/lastmile_qr_scan"}, "is_reserved": 0, "fusion_lon": 0.0, "fusion_lat": 0.0, "lon": -77.1812115, "name": "556d4b0c4c79dbb1e7429f979c36a840"}, {"bike_id": "885b9e19a5bc8001d7bbcd3118602258", "type": "electric_scooter", "is_disabled": 0, "lat": 38.87664133333333, "rental_uris": {"ios": "https://dc.lft.to/lastmile_qr_scan", "android": "https://dc.lft.to/lastmile_qr_scan"}, "is_reserved": 0, "fusion_lon": 0.0, "fusion_lat": 0.0, "lon": -77.0044645, "name": "885b9e19a5bc8001d7bbcd3118602258"}, {"bike_id": "6851cc34564c85b779de6af723e86f82", "type": "electric_bike", "is_disabled": 0, "lat": 38.8824615, "rental_uris": {"ios": "https://dc.lft.to/lastmile_qr_scan", "android": "https://dc.lft.to/lastmile_qr_scan"}, "is_reserved": 0, "fusion_lon": 0.0, "fusion_lat": 0.0, "lon": -76.9625935, "name": "6851cc34564c85b779de6af723e86f82"}, {"bike_id": "d3266787fa600de1609829d867693f9e", "type": "electric_scooter", "is_disabled": 0, "lat": 38.93463116666667, "rental_uris": {"ios": "https://dc.lft.to/lastmile_qr_scan", "android": "https://dc.lft.to/lastmile_qr_scan"}, "is_reserved": 0, "fusion_lon": 0.0, "fusion_lat": 0.0, "lon": -77.02795716666667, "name": "d3266787fa600de1609829d867693f9e"}, {"bike_id": "c028e208e7f74c30a1ba14716a2205a4", "type": "electric_scooter", "is_disabled": 0, "lat": 38.9046895, "rental_uris": {"ios": "https://dc.lft.to/lastmile_qr_scan", "android": "https://dc.lft.to/lastmile_qr_scan"}, "is_reserved": 0, "fusion_lon": 0.0, "fusion_lat": 0.0, "lon": -76.97611, "name": "c028e208e7f74c30a1ba14716a2205a4"}, {"bike_id": "06e0740eda7725a375bbd47acf0bc8ff", "type": "electric_scooter", "is_disabled": 0, "lat": 38.9023825, "rental_uris": {"ios": "https://dc.lft.to/lastmile_qr_scan", "android": "https://dc.lft.to/lastmile_qr_scan"}, "is_reserved": 0, "fusion_lon": 0.0, "fusion_lat": 0.0, "lon": -77.00197866666667, "name": "06e0740eda7725a375bbd47acf0bc8ff"}, {"bike_id": "6d340a1d12a8645e2a57c69a59f45625", "type": "electric_scooter", "is_disabled": 0, "lat": 38.91423833333333, "rental_uris": {"ios": "https://dc.lft.to/lastmile_qr_scan", "android": "https://dc.lft.to/lastmile_qr_scan"}, "is_reserved": 0, "fusion_lon": 0.0, "fusion_lat": 0.0, "lon": -77.03221816666667, "name": "6d340a1d12a8645e2a57c69a59f45625"}, {"bike_id": "e13702d7adfe261a7ef90a1b4934b85d", "type": "electric_scooter", "is_disabled": 0, "lat": 38.8922195, "rental_uris": {"ios": "https://dc.lft.to/lastmile_qr_scan", "android": "https://dc.lft.to/lastmile_qr_scan"}, "is_reserved": 0, "fusion_lon": 0.0, "fusion_lat": 0.0, "lon": -77.04800316666666, "name": "e13702d7adfe261a7ef90a1b4934b85d"}, {"bike_id": "3d9bd8a3d39cb4e48a86969af57b847c", "type": "electric_scooter", "is_disabled": 0, "lat": 38.92167366666666, "rental_uris": {"ios": "https://dc.lft.to/lastmile_qr_scan", "android": "https://dc.lft.to/lastmile_qr_scan"}, "is_reserved": 0, "fusion_lon": 0.0, "fusion_lat": 0.0, "lon": -77.03837883333334, "name": "3d9bd8a3d39cb4e48a86969af57b847c"}, {"bike_id": "61570ebc3cb08d7bf11587669a4a1921", "type": "electric_scooter", "is_disabled": 0, "lat": 38.889759166666664, "rental_uris": {"ios": "https://dc.lft.to/lastmile_qr_scan", "android": "https://dc.lft.to/lastmile_qr_scan"}, "is_reserved": 0, "fusion_lon": 0.0, "fusion_lat": 0.0, "lon": -76.98240283333334, "name": "61570ebc3cb08d7bf11587669a4a1921"}, {"bike_id": "2c66c722d4d78d4380c9cc0a82c98b01", "type": "electric_scooter", "is_disabled": 0, "lat": 38.89696333333333, "rental_uris": {"ios": "https://dc.lft.to/lastmile_qr_scan", "android": "https://dc.lft.to/lastmile_qr_scan"}, "is_reserved": 0, "fusion_lon": 0.0, "fusion_lat": 0.0, "lon": -76.99963983333333, "name": "2c66c722d4d78d4380c9cc0a82c98b01"}, {"bike_id": "b2a0c1cbefab36226d5c68f5df434131", "type": "electric_scooter", "is_disabled": 0, "lat": 38.886574, "rental_uris": {"ios": "https://dc.lft.to/lastmile_qr_scan", "android": "https://dc.lft.to/lastmile_qr_scan"}, "is_reserved": 0, "fusion_lon": 0.0, "fusion_lat": 0.0, "lon": -77.03390033333334, "name": "b2a0c1cbefab36226d5c68f5df434131"}, {"bike_id": "08ae6b1cccf8072aac16445697cfacc9", "type": "electric_scooter", "is_disabled": 0, "lat": 38.918210333333334, "rental_uris": {"ios": "https://dc.lft.to/lastmile_qr_scan", "android": "https://dc.lft.to/lastmile_qr_scan"}, "is_reserved": 0, "fusion_lon": 0.0, "fusion_lat": 0.0, "lon": -77.02708766666667, "name": "08ae6b1cccf8072aac16445697cfacc9"}, {"bike_id": "3f3809a38172808d1e3c5dc5467b357e", "type": "electric_scooter", "is_disabled": 0, "lat": 38.88487333333333, "rental_uris": {"ios": "https://dc.lft.to/lastmile_qr_scan", "android": "https://dc.lft.to/lastmile_qr_scan"}, "is_reserved": 0, "fusion_lon": 0.0, "fusion_lat": 0.0, "lon": -77.03483333333334, "name": "3f3809a38172808d1e3c5dc5467b357e"}, {"bike_id": "e1f541cbe682319dcbd7baa90d7d126c", "type": "electric_scooter", "is_disabled": 0, "lat": 38.926655833333335, "rental_uris": {"ios": "https://dc.lft.to/lastmile_qr_scan", "android": "https://dc.lft.to/lastmile_qr_scan"}, "is_reserved": 0, "fusion_lon": 0.0, "fusion_lat": 0.0, "lon": -77.01479566666667, "name": "e1f541cbe682319dcbd7baa90d7d126c"}, {"bike_id": "fc52d2b3c4fbfe73d5c0bc3c0c920d65", "type": "electric_scooter", "is_disabled": 0, "lat": 38.900301666666664, "rental_uris": {"ios": "https://dc.lft.to/lastmile_qr_scan", "android": "https://dc.lft.to/lastmile_qr_scan"}, "is_reserved": 0, "fusion_lon": 0.0, "fusion_lat": 0.0, "lon": -76.99163283333333, "name": "fc52d2b3c4fbfe73d5c0bc3c0c920d65"}, {"bike_id": "2d86a16b2ff6912645a870ef4fe20148", "type": "electric_scooter", "is_disabled": 0, "lat": 38.862071, "rental_uris": {"ios": "https://dc.lft.to/lastmile_qr_scan", "android": "https://dc.lft.to/lastmile_qr_scan"}, "is_reserved": 0, "fusion_lon": 0.0, "fusion_lat": 0.0, "lon": -76.9947345, "name": "2d86a16b2ff6912645a870ef4fe20148"}, {"bike_id": "2efc2f5c643cf91d02519d3dc2b6c717", "type": "electric_bike", "is_disabled": 0, "lat": 38.882086666666666, "rental_uris": {"ios": "https://dc.lft.to/lastmile_qr_scan", "android": "https://dc.lft.to/lastmile_qr_scan"}, "is_reserved": 0, "fusion_lon": 0.0, "fusion_lat": 0.0, "lon": -77.00349333333334, "name": "2efc2f5c643cf91d02519d3dc2b6c717"}, {"bike_id": "f7032d681ebaafa32357efccbcb392e7", "type": "electric_scooter", "is_disabled": 0, "lat": 38.91568733333333, "rental_uris": {"ios": "https://dc.lft.to/lastmile_qr_scan", "android": "https://dc.lft.to/lastmile_qr_scan"}, "is_reserved": 0, "fusion_lon": 0.0, "fusion_lat": 0.0, "lon": -77.06757133333333, "name": "f7032d681ebaafa32357efccbcb392e7"}, {"bike_id": "41b5cf894b5ae62d7a21384cb94981ff", "type": "electric_scooter", "is_disabled": 0, "lat": 38.89883533333333, "rental_uris": {"ios": "https://dc.lft.to/lastmile_qr_scan", "android": "https://dc.lft.to/lastmile_qr_scan"}, "is_reserved": 0, "fusion_lon": 0.0, "fusion_lat": 0.0, "lon": -76.93181283333334, "name": "41b5cf894b5ae62d7a21384cb94981ff"}, {"bike_id": "50b89b7fbf0f656bf34643d590fb8d3b", "type": "electric_scooter", "is_disabled": 0, "lat": 38.9198895, "rental_uris": {"ios": "https://dc.lft.to/lastmile_qr_scan", "android": "https://dc.lft.to/lastmile_qr_scan"}, "is_reserved": 0, "fusion_lon": 0.0, "fusion_lat": 0.0, "lon": -77.022276, "name": "50b89b7fbf0f656bf34643d590fb8d3b"}, {"bike_id": "8279bb8cbe98d6ea8d3eba42cec79872", "type": "electric_scooter", "is_disabled": 0, "lat": 38.8874135, "rental_uris": {"ios": "https://dc.lft.to/lastmile_qr_scan", "android": "https://dc.lft.to/lastmile_qr_scan"}, "is_reserved": 0, "fusion_lon": 0.0, "fusion_lat": 0.0, "lon": -77.01536616666667, "name": "8279bb8cbe98d6ea8d3eba42cec79872"}, {"bike_id": "83ce75b55b6ade99b64a9b65d61cd3cf", "type": "electric_scooter", "is_disabled": 0, "lat": 38.9279405, "rental_uris": {"ios": "https://dc.lft.to/lastmile_qr_scan", "android": "https://dc.lft.to/lastmile_qr_scan"}, "is_reserved": 0, "fusion_lon": 0.0, "fusion_lat": 0.0, "lon": -77.02603316666666, "name": "83ce75b55b6ade99b64a9b65d61cd3cf"}, {"bike_id": "07a8b641f690bbaee5855200d010bf9b", "type": "electric_scooter", "is_disabled": 0, "lat": 38.902843833333336, "rental_uris": {"ios": "https://dc.lft.to/lastmile_qr_scan", "android": "https://dc.lft.to/lastmile_qr_scan"}, "is_reserved": 0, "fusion_lon": 0.0, "fusion_lat": 0.0, "lon": -77.03847666666667, "name": "07a8b641f690bbaee5855200d010bf9b"}, {"bike_id": "602c77c2cca65543eba4af650d20e7c0", "type": "electric_scooter", "is_disabled": 0, "lat": 38.903412833333334, "rental_uris": {"ios": "https://dc.lft.to/lastmile_qr_scan", "android": "https://dc.lft.to/lastmile_qr_scan"}, "is_reserved": 0, "fusion_lon": 0.0, "fusion_lat": 0.0, "lon": -77.061887, "name": "602c77c2cca65543eba4af650d20e7c0"}, {"bike_id": "fb96f5853bdb4aa354dd328473b54de7", "type": "electric_scooter", "is_disabled": 0, "lat": 38.90922533333333, "rental_uris": {"ios": "https://dc.lft.to/lastmile_qr_scan", "android": "https://dc.lft.to/lastmile_qr_scan"}, "is_reserved": 0, "fusion_lon": 0.0, "fusion_lat": 0.0, "lon": -77.0608395, "name": "fb96f5853bdb4aa354dd328473b54de7"}, {"bike_id": "d343b302593ab5953aa02a7d4d286902", "type": "electric_scooter", "is_disabled": 0, "lat": 38.91339933333333, "rental_uris": {"ios": "https://dc.lft.to/lastmile_qr_scan", "android": "https://dc.lft.to/lastmile_qr_scan"}, "is_reserved": 0, "fusion_lon": 0.0, "fusion_lat": 0.0, "lon": -77.0448685, "name": "d343b302593ab5953aa02a7d4d286902"}, {"bike_id": "8df4bf8448d44c21fb9ce2cc3fa10d26", "type": "electric_bike", "is_disabled": 0, "lat": 38.866209, "rental_uris": {"ios": "https://dc.lft.to/lastmile_qr_scan", "android": "https://dc.lft.to/lastmile_qr_scan"}, "is_reserved": 0, "fusion_lon": 0.0, "fusion_lat": 0.0, "lon": -76.94571766666667, "name": "8df4bf8448d44c21fb9ce2cc3fa10d26"}, {"bike_id": "8fe69a4f4dc7a8a2423c371eaded43fa", "type": "electric_scooter", "is_disabled": 0, "lat": 38.929134166666664, "rental_uris": {"ios": "https://dc.lft.to/lastmile_qr_scan", "android": "https://dc.lft.to/lastmile_qr_scan"}, "is_reserved": 0, "fusion_lon": 0.0, "fusion_lat": 0.0, "lon": -77.020922, "name": "8fe69a4f4dc7a8a2423c371eaded43fa"}, {"bike_id": "aa8cf179f5f189453410a4e9dac4ce88", "type": "electric_scooter", "is_disabled": 0, "lat": 38.8966425, "rental_uris": {"ios": "https://dc.lft.to/lastmile_qr_scan", "android": "https://dc.lft.to/lastmile_qr_scan"}, "is_reserved": 0, "fusion_lon": 0.0, "fusion_lat": 0.0, "lon": -77.02376983333333, "name": "aa8cf179f5f189453410a4e9dac4ce88"}, {"bike_id": "08d0b203b15b391023e495d09cf27365", "type": "electric_scooter", "is_disabled": 0, "lat": 38.92165266666667, "rental_uris": {"ios": "https://dc.lft.to/lastmile_qr_scan", "android": "https://dc.lft.to/lastmile_qr_scan"}, "is_reserved": 0, "fusion_lon": 0.0, "fusion_lat": 0.0, "lon": -77.033236, "name": "08d0b203b15b391023e495d09cf27365"}, {"bike_id": "9f9b695d3c4d2d622732fd75737f3e7f", "type": "electric_scooter", "is_disabled": 0, "lat": 38.915489666666666, "rental_uris": {"ios": "https://dc.lft.to/lastmile_qr_scan", "android": "https://dc.lft.to/lastmile_qr_scan"}, "is_reserved": 0, "fusion_lon": 0.0, "fusion_lat": 0.0, "lon": -77.02028666666666, "name": "9f9b695d3c4d2d622732fd75737f3e7f"}, {"bike_id": "a516132c6676b91d19bc0c08e6b85108", "type": "electric_scooter", "is_disabled": 0, "lat": 38.88734383333333, "rental_uris": {"ios": "https://dc.lft.to/lastmile_qr_scan", "android": "https://dc.lft.to/lastmile_qr_scan"}, "is_reserved": 0, "fusion_lon": 0.0, "fusion_lat": 0.0, "lon": -77.02837333333333, "name": "a516132c6676b91d19bc0c08e6b85108"}, {"bike_id": "135b38903b6cd1b7c661b2aa27fc7ff5", "type": "electric_scooter", "is_disabled": 0, "lat": 38.91416366666667, "rental_uris": {"ios": "https://dc.lft.to/lastmile_qr_scan", "android": "https://dc.lft.to/lastmile_qr_scan"}, "is_reserved": 0, "fusion_lon": 0.0, "fusion_lat": 0.0, "lon": -77.01231616666666, "name": "135b38903b6cd1b7c661b2aa27fc7ff5"}, {"bike_id": "359ea5535300e8ea2c617408ae0e1a01", "type": "electric_scooter", "is_disabled": 0, "lat": 38.838300833333335, "rental_uris": {"ios": "https://dc.lft.to/lastmile_qr_scan", "android": "https://dc.lft.to/lastmile_qr_scan"}, "is_reserved": 0, "fusion_lon": 0.0, "fusion_lat": 0.0, "lon": -77.002701, "name": "359ea5535300e8ea2c617408ae0e1a01"}, {"bike_id": "6979ea50a357e1db8b5821bad1e292c3", "type": "electric_scooter", "is_disabled": 0, "lat": 38.9175555, "rental_uris": {"ios": "https://dc.lft.to/lastmile_qr_scan", "android": "https://dc.lft.to/lastmile_qr_scan"}, "is_reserved": 0, "fusion_lon": 0.0, "fusion_lat": 0.0, "lon": -77.0249185, "name": "6979ea50a357e1db8b5821bad1e292c3"}, {"bike_id": "bdf0622d6c77dc56eb3e19abd88fa6f9", "type": "electric_scooter", "is_disabled": 0, "lat": 38.9046765, "rental_uris": {"ios": "https://dc.lft.to/lastmile_qr_scan", "android": "https://dc.lft.to/lastmile_qr_scan"}, "is_reserved": 0, "fusion_lon": 0.0, "fusion_lat": 0.0, "lon": -77.007318, "name": "bdf0622d6c77dc56eb3e19abd88fa6f9"}, {"bike_id": "aa7862d1848e04d38cb17606b53d14cf", "type": "electric_scooter", "is_disabled": 0, "lat": 38.93309266666667, "rental_uris": {"ios": "https://dc.lft.to/lastmile_qr_scan", "android": "https://dc.lft.to/lastmile_qr_scan"}, "is_reserved": 0, "fusion_lon": 0.0, "fusion_lat": 0.0, "lon": -77.03261933333333, "name": "aa7862d1848e04d38cb17606b53d14cf"}, {"bike_id": "01a53c83c7a713ef72b46b41cad8cf29", "type": "electric_scooter", "is_disabled": 0, "lat": 38.91550516666667, "rental_uris": {"ios": "https://dc.lft.to/lastmile_qr_scan", "android": "https://dc.lft.to/lastmile_qr_scan"}, "is_reserved": 0, "fusion_lon": 0.0, "fusion_lat": 0.0, "lon": -77.02417416666667, "name": "01a53c83c7a713ef72b46b41cad8cf29"}, {"bike_id": "aade2e10b2226bdbbfc99a686e788663", "type": "electric_scooter", "is_disabled": 0, "lat": 38.912726166666666, "rental_uris": {"ios": "https://dc.lft.to/lastmile_qr_scan", "android": "https://dc.lft.to/lastmile_qr_scan"}, "is_reserved": 0, "fusion_lon": 0.0, "fusion_lat": 0.0, "lon": -77.03657383333334, "name": "aade2e10b2226bdbbfc99a686e788663"}, {"bike_id": "81dcbcdaeebe55533955dd7d22d4dc5b", "type": "electric_scooter", "is_disabled": 0, "lat": 38.93328366666667, "rental_uris": {"ios": "https://dc.lft.to/lastmile_qr_scan", "android": "https://dc.lft.to/lastmile_qr_scan"}, "is_reserved": 0, "fusion_lon": 0.0, "fusion_lat": 0.0, "lon": -77.02752216666667, "name": "81dcbcdaeebe55533955dd7d22d4dc5b"}, {"bike_id": "424525e331b542b35ace78d965e8d593", "type": "electric_scooter", "is_disabled": 0, "lat": 38.89511566666667, "rental_uris": {"ios": "https://dc.lft.to/lastmile_qr_scan", "android": "https://dc.lft.to/lastmile_qr_scan"}, "is_reserved": 0, "fusion_lon": 0.0, "fusion_lat": 0.0, "lon": -77.04344033333334, "name": "424525e331b542b35ace78d965e8d593"}, {"bike_id": "e94f984d956718ca68d44a850613e538", "type": "electric_scooter", "is_disabled": 0, "lat": 38.899734333333335, "rental_uris": {"ios": "https://dc.lft.to/lastmile_qr_scan", "android": "https://dc.lft.to/lastmile_qr_scan"}, "is_reserved": 0, "fusion_lon": 0.0, "fusion_lat": 0.0, "lon": -77.02711933333333, "name": "e94f984d956718ca68d44a850613e538"}, {"bike_id": "636bd8732ad6506bd574551509c0141c", "type": "electric_scooter", "is_disabled": 0, "lat": 38.922307, "rental_uris": {"ios": "https://dc.lft.to/lastmile_qr_scan", "android": "https://dc.lft.to/lastmile_qr_scan"}, "is_reserved": 0, "fusion_lon": 0.0, "fusion_lat": 0.0, "lon": -76.97534433333334, "name": "636bd8732ad6506bd574551509c0141c"}, {"bike_id": "13fd5450d8abb198b771711c968d406b", "type": "electric_scooter", "is_disabled": 0, "lat": 38.90359083333333, "rental_uris": {"ios": "https://dc.lft.to/lastmile_qr_scan", "android": "https://dc.lft.to/lastmile_qr_scan"}, "is_reserved": 0, "fusion_lon": 0.0, "fusion_lat": 0.0, "lon": -76.9921835, "name": "13fd5450d8abb198b771711c968d406b"}, {"bike_id": "d5c09e905ffd6f1ddd46ab6dd6edc048", "type": "electric_scooter", "is_disabled": 0, "lat": 38.91141016666667, "rental_uris": {"ios": "https://dc.lft.to/lastmile_qr_scan", "android": "https://dc.lft.to/lastmile_qr_scan"}, "is_reserved": 0, "fusion_lon": 0.0, "fusion_lat": 0.0, "lon": -77.0449685, "name": "d5c09e905ffd6f1ddd46ab6dd6edc048"}, {"bike_id": "1debfdfba48e14227380a82da4fce657", "type": "electric_scooter", "is_disabled": 0, "lat": 38.956363833333334, "rental_uris": {"ios": "https://dc.lft.to/lastmile_qr_scan", "android": "https://dc.lft.to/lastmile_qr_scan"}, "is_reserved": 0, "fusion_lon": 0.0, "fusion_lat": 0.0, "lon": -77.03634283333334, "name": "1debfdfba48e14227380a82da4fce657"}, {"bike_id": "0677981f79b7ab0bfb725b9644c06b53", "type": "electric_bike", "is_disabled": 0, "lat": 39.051185833333335, "rental_uris": {"ios": "https://dc.lft.to/lastmile_qr_scan", "android": "https://dc.lft.to/lastmile_qr_scan"}, "is_reserved": 0, "fusion_lon": 0.0, "fusion_lat": 0.0, "lon": -77.11732966666666, "name": "0677981f79b7ab0bfb725b9644c06b53"}, {"bike_id": "d4127f2dfccb020d075a82fcad60e20c", "type": "electric_scooter", "is_disabled": 0, "lat": 38.923928, "rental_uris": {"ios": "https://dc.lft.to/lastmile_qr_scan", "android": "https://dc.lft.to/lastmile_qr_scan"}, "is_reserved": 0, "fusion_lon": 0.0, "fusion_lat": 0.0, "lon": -77.0446555, "name": "d4127f2dfccb020d075a82fcad60e20c"}, {"bike_id": "53160390a67b943dda450ecd0dfe794e", "type": "electric_scooter", "is_disabled": 0, "lat": 38.905714, "rental_uris": {"ios": "https://dc.lft.to/lastmile_qr_scan", "android": "https://dc.lft.to/lastmile_qr_scan"}, "is_reserved": 0, "fusion_lon": 0.0, "fusion_lat": 0.0, "lon": -77.02206833333334, "name": "53160390a67b943dda450ecd0dfe794e"}, {"bike_id": "31c5033c0f5f0b96a9707b99812121d3", "type": "electric_scooter", "is_disabled": 0, "lat": 38.933612, "rental_uris": {"ios": "https://dc.lft.to/lastmile_qr_scan", "android": "https://dc.lft.to/lastmile_qr_scan"}, "is_reserved": 0, "fusion_lon": 0.0, "fusion_lat": 0.0, "lon": -77.04114733333333, "name": "31c5033c0f5f0b96a9707b99812121d3"}, {"bike_id": "2da1239173025a0d244d46b45f068ca2", "type": "electric_scooter", "is_disabled": 0, "lat": 38.910556166666666, "rental_uris": {"ios": "https://dc.lft.to/lastmile_qr_scan", "android": "https://dc.lft.to/lastmile_qr_scan"}, "is_reserved": 0, "fusion_lon": 0.0, "fusion_lat": 0.0, "lon": -77.04084033333334, "name": "2da1239173025a0d244d46b45f068ca2"}, {"bike_id": "814a0a29d3c1a57497b4f2912b4b976e", "type": "electric_scooter", "is_disabled": 0, "lat": 38.91694283333333, "rental_uris": {"ios": "https://dc.lft.to/lastmile_qr_scan", "android": "https://dc.lft.to/lastmile_qr_scan"}, "is_reserved": 0, "fusion_lon": 0.0, "fusion_lat": 0.0, "lon": -77.03779966666667, "name": "814a0a29d3c1a57497b4f2912b4b976e"}, {"bike_id": "137f2298d00afb0ecda86128b8cc8797", "type": "electric_scooter", "is_disabled": 0, "lat": 38.91097333333333, "rental_uris": {"ios": "https://dc.lft.to/lastmile_qr_scan", "android": "https://dc.lft.to/lastmile_qr_scan"}, "is_reserved": 0, "fusion_lon": 0.0, "fusion_lat": 0.0, "lon": -77.042202, "name": "137f2298d00afb0ecda86128b8cc8797"}, {"bike_id": "59e3dbbeacf9937ee4644581c805f87b", "type": "electric_scooter", "is_disabled": 0, "lat": 38.91612283333333, "rental_uris": {"ios": "https://dc.lft.to/lastmile_qr_scan", "android": "https://dc.lft.to/lastmile_qr_scan"}, "is_reserved": 0, "fusion_lon": 0.0, "fusion_lat": 0.0, "lon": -77.0337425, "name": "59e3dbbeacf9937ee4644581c805f87b"}, {"bike_id": "187bcbc42c904fbb437df2532a30f572", "type": "electric_bike", "is_disabled": 0, "lat": 38.80024366666667, "rental_uris": {"ios": "https://dc.lft.to/lastmile_qr_scan", "android": "https://dc.lft.to/lastmile_qr_scan"}, "is_reserved": 0, "fusion_lon": 0.0, "fusion_lat": 0.0, "lon": -77.06344116666666, "name": "187bcbc42c904fbb437df2532a30f572"}, {"bike_id": "8a92d0da77a5b8f7434f130171e70ff5", "type": "electric_scooter", "is_disabled": 0, "lat": 38.86502816666667, "rental_uris": {"ios": "https://dc.lft.to/lastmile_qr_scan", "android": "https://dc.lft.to/lastmile_qr_scan"}, "is_reserved": 0, "fusion_lon": 0.0, "fusion_lat": 0.0, "lon": -76.99003633333334, "name": "8a92d0da77a5b8f7434f130171e70ff5"}, {"bike_id": "73fd035afe5833ca95a35f28986860de", "type": "electric_scooter", "is_disabled": 0, "lat": 38.922585166666664, "rental_uris": {"ios": "https://dc.lft.to/lastmile_qr_scan", "android": "https://dc.lft.to/lastmile_qr_scan"}, "is_reserved": 0, "fusion_lon": 0.0, "fusion_lat": 0.0, "lon": -77.03520033333334, "name": "73fd035afe5833ca95a35f28986860de"}, {"bike_id": "25f3242d5f29fe8fa003aea4d9a67d5a", "type": "electric_scooter", "is_disabled": 0, "lat": 38.92332016666667, "rental_uris": {"ios": "https://dc.lft.to/lastmile_qr_scan", "android": "https://dc.lft.to/lastmile_qr_scan"}, "is_reserved": 0, "fusion_lon": 0.0, "fusion_lat": 0.0, "lon": -77.05743933333333, "name": "25f3242d5f29fe8fa003aea4d9a67d5a"}, {"bike_id": "891fd0c58238f124aa2e8d51719a9443", "type": "electric_scooter", "is_disabled": 0, "lat": 38.916473333333336, "rental_uris": {"ios": "https://dc.lft.to/lastmile_qr_scan", "android": "https://dc.lft.to/lastmile_qr_scan"}, "is_reserved": 0, "fusion_lon": 0.0, "fusion_lat": 0.0, "lon": -77.02184033333333, "name": "891fd0c58238f124aa2e8d51719a9443"}, {"bike_id": "a2df53f22bd0e7369510e7ea36f0ee48", "type": "electric_scooter", "is_disabled": 0, "lat": 38.90974633333333, "rental_uris": {"ios": "https://dc.lft.to/lastmile_qr_scan", "android": "https://dc.lft.to/lastmile_qr_scan"}, "is_reserved": 0, "fusion_lon": 0.0, "fusion_lat": 0.0, "lon": -77.02693766666667, "name": "a2df53f22bd0e7369510e7ea36f0ee48"}, {"bike_id": "d1c9362829cbd8434ffea11c7e1b738c", "type": "electric_scooter", "is_disabled": 0, "lat": 38.892226666666666, "rental_uris": {"ios": "https://dc.lft.to/lastmile_qr_scan", "android": "https://dc.lft.to/lastmile_qr_scan"}, "is_reserved": 0, "fusion_lon": 0.0, "fusion_lat": 0.0, "lon": -77.04313733333333, "name": "d1c9362829cbd8434ffea11c7e1b738c"}, {"bike_id": "b6fd6c3a799f1ba4b690a0e4bf7215db", "type": "electric_bike", "is_disabled": 0, "lat": 38.879841666666664, "rental_uris": {"ios": "https://dc.lft.to/lastmile_qr_scan", "android": "https://dc.lft.to/lastmile_qr_scan"}, "is_reserved": 0, "fusion_lon": 0.0, "fusion_lat": 0.0, "lon": -76.91600566666666, "name": "b6fd6c3a799f1ba4b690a0e4bf7215db"}, {"bike_id": "5cb27d3d02ae0e93c1ea716e650f7992", "type": "electric_scooter", "is_disabled": 0, "lat": 38.8920555, "rental_uris": {"ios": "https://dc.lft.to/lastmile_qr_scan", "android": "https://dc.lft.to/lastmile_qr_scan"}, "is_reserved": 0, "fusion_lon": 0.0, "fusion_lat": 0.0, "lon": -76.99930183333333, "name": "5cb27d3d02ae0e93c1ea716e650f7992"}, {"bike_id": "076beb6f7c79493999b708dd61540bdb", "type": "electric_scooter", "is_disabled": 0, "lat": 38.918660833333334, "rental_uris": {"ios": "https://dc.lft.to/lastmile_qr_scan", "android": "https://dc.lft.to/lastmile_qr_scan"}, "is_reserved": 0, "fusion_lon": 0.0, "fusion_lat": 0.0, "lon": -77.04762533333333, "name": "076beb6f7c79493999b708dd61540bdb"}, {"bike_id": "7b55be60744bea7a5353e2b53ba96d7e", "type": "electric_scooter", "is_disabled": 0, "lat": 38.888575, "rental_uris": {"ios": "https://dc.lft.to/lastmile_qr_scan", "android": "https://dc.lft.to/lastmile_qr_scan"}, "is_reserved": 0, "fusion_lon": 0.0, "fusion_lat": 0.0, "lon": -77.00051016666667, "name": "7b55be60744bea7a5353e2b53ba96d7e"}, {"bike_id": "6893062c7ad0cc28db6e72948e82a1f8", "type": "electric_scooter", "is_disabled": 0, "lat": 38.921528, "rental_uris": {"ios": "https://dc.lft.to/lastmile_qr_scan", "android": "https://dc.lft.to/lastmile_qr_scan"}, "is_reserved": 0, "fusion_lon": 0.0, "fusion_lat": 0.0, "lon": -77.0387055, "name": "6893062c7ad0cc28db6e72948e82a1f8"}, {"bike_id": "968688cbc409987582ebf8a5b2497d8a", "type": "electric_scooter", "is_disabled": 0, "lat": 38.88063433333333, "rental_uris": {"ios": "https://dc.lft.to/lastmile_qr_scan", "android": "https://dc.lft.to/lastmile_qr_scan"}, "is_reserved": 0, "fusion_lon": 0.0, "fusion_lat": 0.0, "lon": -76.932154, "name": "968688cbc409987582ebf8a5b2497d8a"}, {"bike_id": "f0d92542fd8ccdcbdc5ec32da6405bb2", "type": "electric_scooter", "is_disabled": 0, "lat": 38.86023483333334, "rental_uris": {"ios": "https://dc.lft.to/lastmile_qr_scan", "android": "https://dc.lft.to/lastmile_qr_scan"}, "is_reserved": 0, "fusion_lon": 0.0, "fusion_lat": 0.0, "lon": -76.99683766666666, "name": "f0d92542fd8ccdcbdc5ec32da6405bb2"}, {"bike_id": "c5fa52521b958c7be067150a87bcb8fd", "type": "electric_scooter", "is_disabled": 0, "lat": 38.90572183333333, "rental_uris": {"ios": "https://dc.lft.to/lastmile_qr_scan", "android": "https://dc.lft.to/lastmile_qr_scan"}, "is_reserved": 0, "fusion_lon": 0.0, "fusion_lat": 0.0, "lon": -77.02397783333333, "name": "c5fa52521b958c7be067150a87bcb8fd"}, {"bike_id": "5fcd13330cc5e01bd79efc8ca20da3d1", "type": "electric_scooter", "is_disabled": 0, "lat": 38.892222333333336, "rental_uris": {"ios": "https://dc.lft.to/lastmile_qr_scan", "android": "https://dc.lft.to/lastmile_qr_scan"}, "is_reserved": 0, "fusion_lon": 0.0, "fusion_lat": 0.0, "lon": -77.03978233333333, "name": "5fcd13330cc5e01bd79efc8ca20da3d1"}, {"bike_id": "23f6bea4743f7191c2d1b1c38125f487", "type": "electric_scooter", "is_disabled": 0, "lat": 38.92056433333333, "rental_uris": {"ios": "https://dc.lft.to/lastmile_qr_scan", "android": "https://dc.lft.to/lastmile_qr_scan"}, "is_reserved": 0, "fusion_lon": 0.0, "fusion_lat": 0.0, "lon": -77.0425225, "name": "23f6bea4743f7191c2d1b1c38125f487"}, {"bike_id": "3531e216728b147d5822c08a002f4249", "type": "electric_scooter", "is_disabled": 0, "lat": 38.946248, "rental_uris": {"ios": "https://dc.lft.to/lastmile_qr_scan", "android": "https://dc.lft.to/lastmile_qr_scan"}, "is_reserved": 0, "fusion_lon": 0.0, "fusion_lat": 0.0, "lon": -77.07226733333333, "name": "3531e216728b147d5822c08a002f4249"}, {"bike_id": "1212270d2b6a581dd380a5072d78fcf6", "type": "electric_scooter", "is_disabled": 0, "lat": 38.919164, "rental_uris": {"ios": "https://dc.lft.to/lastmile_qr_scan", "android": "https://dc.lft.to/lastmile_qr_scan"}, "is_reserved": 0, "fusion_lon": 0.0, "fusion_lat": 0.0, "lon": -77.04474516666667, "name": "1212270d2b6a581dd380a5072d78fcf6"}, {"bike_id": "18d8068676179ae3f52f5ede2dbdc007", "type": "electric_scooter", "is_disabled": 0, "lat": 38.90368866666667, "rental_uris": {"ios": "https://dc.lft.to/lastmile_qr_scan", "android": "https://dc.lft.to/lastmile_qr_scan"}, "is_reserved": 0, "fusion_lon": 0.0, "fusion_lat": 0.0, "lon": -77.02196916666666, "name": "18d8068676179ae3f52f5ede2dbdc007"}, {"bike_id": "bcd4dd278023985ad3fa7a8fab4d6529", "type": "electric_scooter", "is_disabled": 0, "lat": 38.9141925, "rental_uris": {"ios": "https://dc.lft.to/lastmile_qr_scan", "android": "https://dc.lft.to/lastmile_qr_scan"}, "is_reserved": 0, "fusion_lon": 0.0, "fusion_lat": 0.0, "lon": -77.0222835, "name": "bcd4dd278023985ad3fa7a8fab4d6529"}, {"bike_id": "dabd9968f198da12357db9ffff72aabe", "type": "electric_bike", "is_disabled": 0, "lat": 38.88404966666667, "rental_uris": {"ios": "https://dc.lft.to/lastmile_qr_scan", "android": "https://dc.lft.to/lastmile_qr_scan"}, "is_reserved": 0, "fusion_lon": 0.0, "fusion_lat": 0.0, "lon": -77.02405166666667, "name": "dabd9968f198da12357db9ffff72aabe"}, {"bike_id": "ebe8ffcb25f15207aba9f00b7afcbbfc", "type": "electric_scooter", "is_disabled": 0, "lat": 38.91483733333333, "rental_uris": {"ios": "https://dc.lft.to/lastmile_qr_scan", "android": "https://dc.lft.to/lastmile_qr_scan"}, "is_reserved": 0, "fusion_lon": 0.0, "fusion_lat": 0.0, "lon": -77.03217316666667, "name": "ebe8ffcb25f15207aba9f00b7afcbbfc"}, {"bike_id": "5c1f3202adfe71b64420755b12e90784", "type": "electric_scooter", "is_disabled": 0, "lat": 38.91259733333333, "rental_uris": {"ios": "https://dc.lft.to/lastmile_qr_scan", "android": "https://dc.lft.to/lastmile_qr_scan"}, "is_reserved": 0, "fusion_lon": 0.0, "fusion_lat": 0.0, "lon": -77.038299, "name": "5c1f3202adfe71b64420755b12e90784"}, {"bike_id": "23ff72b56273d9ecf80078f7b073bfd7", "type": "electric_scooter", "is_disabled": 0, "lat": 38.929099666666666, "rental_uris": {"ios": "https://dc.lft.to/lastmile_qr_scan", "android": "https://dc.lft.to/lastmile_qr_scan"}, "is_reserved": 0, "fusion_lon": 0.0, "fusion_lat": 0.0, "lon": -77.03280783333334, "name": "23ff72b56273d9ecf80078f7b073bfd7"}, {"bike_id": "f6a4618d55ce4a43a83e129777885c8e", "type": "electric_scooter", "is_disabled": 0, "lat": 38.913273, "rental_uris": {"ios": "https://dc.lft.to/lastmile_qr_scan", "android": "https://dc.lft.to/lastmile_qr_scan"}, "is_reserved": 0, "fusion_lon": 0.0, "fusion_lat": 0.0, "lon": -77.03186716666667, "name": "f6a4618d55ce4a43a83e129777885c8e"}, {"bike_id": "458039369702833ad3d83e9b4614857c", "type": "electric_scooter", "is_disabled": 0, "lat": 38.91804283333333, "rental_uris": {"ios": "https://dc.lft.to/lastmile_qr_scan", "android": "https://dc.lft.to/lastmile_qr_scan"}, "is_reserved": 0, "fusion_lon": 0.0, "fusion_lat": 0.0, "lon": -77.0310625, "name": "458039369702833ad3d83e9b4614857c"}, {"bike_id": "fff91c4127e19394ef15110dbd0b987d", "type": "electric_scooter", "is_disabled": 0, "lat": 38.96604883333333, "rental_uris": {"ios": "https://dc.lft.to/lastmile_qr_scan", "android": "https://dc.lft.to/lastmile_qr_scan"}, "is_reserved": 0, "fusion_lon": 0.0, "fusion_lat": 0.0, "lon": -77.01979366666667, "name": "fff91c4127e19394ef15110dbd0b987d"}, {"bike_id": "4442af4357f1475ca7be6461e1182480", "type": "electric_scooter", "is_disabled": 0, "lat": 38.915060833333335, "rental_uris": {"ios": "https://dc.lft.to/lastmile_qr_scan", "android": "https://dc.lft.to/lastmile_qr_scan"}, "is_reserved": 0, "fusion_lon": 0.0, "fusion_lat": 0.0, "lon": -77.01774266666666, "name": "4442af4357f1475ca7be6461e1182480"}, {"bike_id": "db1284ede2e27e5b6d695044e0c3108e", "type": "electric_scooter", "is_disabled": 0, "lat": 38.907225833333335, "rental_uris": {"ios": "https://dc.lft.to/lastmile_qr_scan", "android": "https://dc.lft.to/lastmile_qr_scan"}, "is_reserved": 0, "fusion_lon": 0.0, "fusion_lat": 0.0, "lon": -77.03939816666667, "name": "db1284ede2e27e5b6d695044e0c3108e"}, {"bike_id": "f8a243f4409c2797641526b0592af443", "type": "electric_scooter", "is_disabled": 0, "lat": 38.924548, "rental_uris": {"ios": "https://dc.lft.to/lastmile_qr_scan", "android": "https://dc.lft.to/lastmile_qr_scan"}, "is_reserved": 0, "fusion_lon": 0.0, "fusion_lat": 0.0, "lon": -77.0440255, "name": "f8a243f4409c2797641526b0592af443"}, {"bike_id": "25150aca52b1a912b2c56f9e5bff2699", "type": "electric_scooter", "is_disabled": 0, "lat": 38.911195666666664, "rental_uris": {"ios": "https://dc.lft.to/lastmile_qr_scan", "android": "https://dc.lft.to/lastmile_qr_scan"}, "is_reserved": 0, "fusion_lon": 0.0, "fusion_lat": 0.0, "lon": -77.03172783333333, "name": "25150aca52b1a912b2c56f9e5bff2699"}, {"bike_id": "67634e286e3c070f3de719163a2d7f15", "type": "electric_scooter", "is_disabled": 0, "lat": 38.88654433333333, "rental_uris": {"ios": "https://dc.lft.to/lastmile_qr_scan", "android": "https://dc.lft.to/lastmile_qr_scan"}, "is_reserved": 0, "fusion_lon": 0.0, "fusion_lat": 0.0, "lon": -77.001148, "name": "67634e286e3c070f3de719163a2d7f15"}, {"bike_id": "43652c917d358fb1e520fd5e93fd8983", "type": "electric_scooter", "is_disabled": 0, "lat": 38.921918166666664, "rental_uris": {"ios": "https://dc.lft.to/lastmile_qr_scan", "android": "https://dc.lft.to/lastmile_qr_scan"}, "is_reserved": 0, "fusion_lon": 0.0, "fusion_lat": 0.0, "lon": -76.99709633333333, "name": "43652c917d358fb1e520fd5e93fd8983"}, {"bike_id": "54ef2bf3743a7a17f0f922752b19b19e", "type": "electric_scooter", "is_disabled": 0, "lat": 38.9016865, "rental_uris": {"ios": "https://dc.lft.to/lastmile_qr_scan", "android": "https://dc.lft.to/lastmile_qr_scan"}, "is_reserved": 0, "fusion_lon": 0.0, "fusion_lat": 0.0, "lon": -76.93026416666666, "name": "54ef2bf3743a7a17f0f922752b19b19e"}, {"bike_id": "ea6bff90e623734e3b8be53054536e03", "type": "electric_scooter", "is_disabled": 0, "lat": 38.88696916666667, "rental_uris": {"ios": "https://dc.lft.to/lastmile_qr_scan", "android": "https://dc.lft.to/lastmile_qr_scan"}, "is_reserved": 0, "fusion_lon": 0.0, "fusion_lat": 0.0, "lon": -76.99609783333334, "name": "ea6bff90e623734e3b8be53054536e03"}, {"bike_id": "280399bf0e8f8206a46135cd7d7c2fdc", "type": "electric_scooter", "is_disabled": 0, "lat": 38.95637583333333, "rental_uris": {"ios": "https://dc.lft.to/lastmile_qr_scan", "android": "https://dc.lft.to/lastmile_qr_scan"}, "is_reserved": 0, "fusion_lon": 0.0, "fusion_lat": 0.0, "lon": -77.01150783333334, "name": "280399bf0e8f8206a46135cd7d7c2fdc"}, {"bike_id": "632abd1da269472988b2a6159cf1ccc3", "type": "electric_scooter", "is_disabled": 0, "lat": 38.95655083333333, "rental_uris": {"ios": "https://dc.lft.to/lastmile_qr_scan", "android": "https://dc.lft.to/lastmile_qr_scan"}, "is_reserved": 0, "fusion_lon": 0.0, "fusion_lat": 0.0, "lon": -77.01003333333334, "name": "632abd1da269472988b2a6159cf1ccc3"}, {"bike_id": "06c1a7e6d13a031f760570625ffa7e59", "type": "electric_scooter", "is_disabled": 0, "lat": 38.876841166666665, "rental_uris": {"ios": "https://dc.lft.to/lastmile_qr_scan", "android": "https://dc.lft.to/lastmile_qr_scan"}, "is_reserved": 0, "fusion_lon": 0.0, "fusion_lat": 0.0, "lon": -77.00064666666667, "name": "06c1a7e6d13a031f760570625ffa7e59"}, {"bike_id": "03b3ca30e2da3809d16b23c8c266c832", "type": "electric_bike", "is_disabled": 0, "lat": 38.798571333333335, "rental_uris": {"ios": "https://dc.lft.to/lastmile_qr_scan", "android": "https://dc.lft.to/lastmile_qr_scan"}, "is_reserved": 0, "fusion_lon": 0.0, "fusion_lat": 0.0, "lon": -77.06311083333334, "name": "03b3ca30e2da3809d16b23c8c266c832"}, {"bike_id": "53c9de728126412821b4c9441dc42268", "type": "electric_scooter", "is_disabled": 0, "lat": 38.90502683333333, "rental_uris": {"ios": "https://dc.lft.to/lastmile_qr_scan", "android": "https://dc.lft.to/lastmile_qr_scan"}, "is_reserved": 0, "fusion_lon": 0.0, "fusion_lat": 0.0, "lon": -77.06380416666667, "name": "53c9de728126412821b4c9441dc42268"}, {"bike_id": "78749ad01603236705d5904e7fbc11c0", "type": "electric_scooter", "is_disabled": 0, "lat": 38.88640183333333, "rental_uris": {"ios": "https://dc.lft.to/lastmile_qr_scan", "android": "https://dc.lft.to/lastmile_qr_scan"}, "is_reserved": 0, "fusion_lon": 0.0, "fusion_lat": 0.0, "lon": -77.02140533333333, "name": "78749ad01603236705d5904e7fbc11c0"}, {"bike_id": "225f18ab83346d0109cb5100cbeb0f9c", "type": "electric_scooter", "is_disabled": 0, "lat": 38.89269316666667, "rental_uris": {"ios": "https://dc.lft.to/lastmile_qr_scan", "android": "https://dc.lft.to/lastmile_qr_scan"}, "is_reserved": 0, "fusion_lon": 0.0, "fusion_lat": 0.0, "lon": -77.0203205, "name": "225f18ab83346d0109cb5100cbeb0f9c"}, {"bike_id": "a3a4086b39fbbff14baa5dbaa9700dbf", "type": "electric_bike", "is_disabled": 0, "lat": 38.905346333333334, "rental_uris": {"ios": "https://dc.lft.to/lastmile_qr_scan", "android": "https://dc.lft.to/lastmile_qr_scan"}, "is_reserved": 0, "fusion_lon": 0.0, "fusion_lat": 0.0, "lon": -77.02925433333333, "name": "a3a4086b39fbbff14baa5dbaa9700dbf"}, {"bike_id": "8b51b868a03c2b378ed2fdfd61c3d528", "type": "electric_scooter", "is_disabled": 0, "lat": 38.9335895, "rental_uris": {"ios": "https://dc.lft.to/lastmile_qr_scan", "android": "https://dc.lft.to/lastmile_qr_scan"}, "is_reserved": 0, "fusion_lon": 0.0, "fusion_lat": 0.0, "lon": -77.08859283333334, "name": "8b51b868a03c2b378ed2fdfd61c3d528"}, {"bike_id": "9d2ce38525a0c424876d80d2a79896d0", "type": "electric_scooter", "is_disabled": 0, "lat": 38.90720533333333, "rental_uris": {"ios": "https://dc.lft.to/lastmile_qr_scan", "android": "https://dc.lft.to/lastmile_qr_scan"}, "is_reserved": 0, "fusion_lon": 0.0, "fusion_lat": 0.0, "lon": -77.025208, "name": "9d2ce38525a0c424876d80d2a79896d0"}, {"bike_id": "a8ec848827f22acc7bfb892c03081b35", "type": "electric_scooter", "is_disabled": 0, "lat": 38.9720035, "rental_uris": {"ios": "https://dc.lft.to/lastmile_qr_scan", "android": "https://dc.lft.to/lastmile_qr_scan"}, "is_reserved": 0, "fusion_lon": 0.0, "fusion_lat": 0.0, "lon": -77.02656483333334, "name": "a8ec848827f22acc7bfb892c03081b35"}, {"bike_id": "aac80de9d7d3553c8998dc9b0eefc981", "type": "electric_scooter", "is_disabled": 0, "lat": 38.908244833333335, "rental_uris": {"ios": "https://dc.lft.to/lastmile_qr_scan", "android": "https://dc.lft.to/lastmile_qr_scan"}, "is_reserved": 0, "fusion_lon": 0.0, "fusion_lat": 0.0, "lon": -76.996782, "name": "aac80de9d7d3553c8998dc9b0eefc981"}, {"bike_id": "e8234f1c02094e00dfe4fc58067980ed", "type": "electric_scooter", "is_disabled": 0, "lat": 38.914720333333335, "rental_uris": {"ios": "https://dc.lft.to/lastmile_qr_scan", "android": "https://dc.lft.to/lastmile_qr_scan"}, "is_reserved": 0, "fusion_lon": 0.0, "fusion_lat": 0.0, "lon": -77.01985666666667, "name": "e8234f1c02094e00dfe4fc58067980ed"}, {"bike_id": "909c0ce988ce9be955b33c3322449b77", "type": "electric_scooter", "is_disabled": 0, "lat": 38.913317666666664, "rental_uris": {"ios": "https://dc.lft.to/lastmile_qr_scan", "android": "https://dc.lft.to/lastmile_qr_scan"}, "is_reserved": 0, "fusion_lon": 0.0, "fusion_lat": 0.0, "lon": -77.03197533333334, "name": "909c0ce988ce9be955b33c3322449b77"}, {"bike_id": "6ca602fd38f5ffe1031d6811cf1b798a", "type": "electric_scooter", "is_disabled": 0, "lat": 38.866278666666666, "rental_uris": {"ios": "https://dc.lft.to/lastmile_qr_scan", "android": "https://dc.lft.to/lastmile_qr_scan"}, "is_reserved": 0, "fusion_lon": 0.0, "fusion_lat": 0.0, "lon": -76.987154, "name": "6ca602fd38f5ffe1031d6811cf1b798a"}, {"bike_id": "a0a7e3fe9c23e4d31850fd64eecbd45c", "type": "electric_scooter", "is_disabled": 0, "lat": 38.90547266666667, "rental_uris": {"ios": "https://dc.lft.to/lastmile_qr_scan", "android": "https://dc.lft.to/lastmile_qr_scan"}, "is_reserved": 0, "fusion_lon": 0.0, "fusion_lat": 0.0, "lon": -77.04408566666666, "name": "a0a7e3fe9c23e4d31850fd64eecbd45c"}, {"bike_id": "9de2c0c737066d69c84baa70351aaacb", "type": "electric_bike", "is_disabled": 0, "lat": 38.925646666666665, "rental_uris": {"ios": "https://dc.lft.to/lastmile_qr_scan", "android": "https://dc.lft.to/lastmile_qr_scan"}, "is_reserved": 0, "fusion_lon": 0.0, "fusion_lat": 0.0, "lon": -77.04372983333333, "name": "9de2c0c737066d69c84baa70351aaacb"}, {"bike_id": "2b7bff7c8e2c381c66068742d92ce6f1", "type": "electric_scooter", "is_disabled": 0, "lat": 38.92477316666667, "rental_uris": {"ios": "https://dc.lft.to/lastmile_qr_scan", "android": "https://dc.lft.to/lastmile_qr_scan"}, "is_reserved": 0, "fusion_lon": 0.0, "fusion_lat": 0.0, "lon": -77.0283765, "name": "2b7bff7c8e2c381c66068742d92ce6f1"}, {"bike_id": "a25542284c2e53ca841ae4de29a007d7", "type": "electric_scooter", "is_disabled": 0, "lat": 38.8836, "rental_uris": {"ios": "https://dc.lft.to/lastmile_qr_scan", "android": "https://dc.lft.to/lastmile_qr_scan"}, "is_reserved": 0, "fusion_lon": 0.0, "fusion_lat": 0.0, "lon": -77.01987566666666, "name": "a25542284c2e53ca841ae4de29a007d7"}, {"bike_id": "7db93fa7450bcd9be343e89255403478", "type": "electric_scooter", "is_disabled": 0, "lat": 38.930530166666664, "rental_uris": {"ios": "https://dc.lft.to/lastmile_qr_scan", "android": "https://dc.lft.to/lastmile_qr_scan"}, "is_reserved": 0, "fusion_lon": 0.0, "fusion_lat": 0.0, "lon": -77.03186883333333, "name": "7db93fa7450bcd9be343e89255403478"}, {"bike_id": "a93c54de5f60b008849b10196af20422", "type": "electric_scooter", "is_disabled": 0, "lat": 38.911709333333334, "rental_uris": {"ios": "https://dc.lft.to/lastmile_qr_scan", "android": "https://dc.lft.to/lastmile_qr_scan"}, "is_reserved": 0, "fusion_lon": 0.0, "fusion_lat": 0.0, "lon": -77.0046025, "name": "a93c54de5f60b008849b10196af20422"}, {"bike_id": "685120db8514f7e2ba43a5d254a79473", "type": "electric_scooter", "is_disabled": 0, "lat": 38.9306285, "rental_uris": {"ios": "https://dc.lft.to/lastmile_qr_scan", "android": "https://dc.lft.to/lastmile_qr_scan"}, "is_reserved": 0, "fusion_lon": 0.0, "fusion_lat": 0.0, "lon": -77.04123, "name": "685120db8514f7e2ba43a5d254a79473"}, {"bike_id": "b2f846b7e23cdf74723c862445a936ec", "type": "electric_scooter", "is_disabled": 0, "lat": 38.914925, "rental_uris": {"ios": "https://dc.lft.to/lastmile_qr_scan", "android": "https://dc.lft.to/lastmile_qr_scan"}, "is_reserved": 0, "fusion_lon": 0.0, "fusion_lat": 0.0, "lon": -77.031281, "name": "b2f846b7e23cdf74723c862445a936ec"}, {"bike_id": "95c07ce929f03ce0a942f9d4a9a4f980", "type": "electric_scooter", "is_disabled": 0, "lat": 38.89873716666666, "rental_uris": {"ios": "https://dc.lft.to/lastmile_qr_scan", "android": "https://dc.lft.to/lastmile_qr_scan"}, "is_reserved": 0, "fusion_lon": 0.0, "fusion_lat": 0.0, "lon": -76.931873, "name": "95c07ce929f03ce0a942f9d4a9a4f980"}, {"bike_id": "1275e62bced5788525f6549cf34d9c35", "type": "electric_scooter", "is_disabled": 0, "lat": 38.9311175, "rental_uris": {"ios": "https://dc.lft.to/lastmile_qr_scan", "android": "https://dc.lft.to/lastmile_qr_scan"}, "is_reserved": 0, "fusion_lon": 0.0, "fusion_lat": 0.0, "lon": -77.04118766666667, "name": "1275e62bced5788525f6549cf34d9c35"}, {"bike_id": "9b1237567b9a95f4c9e6f7bd788af0bc", "type": "electric_scooter", "is_disabled": 0, "lat": 38.89970483333333, "rental_uris": {"ios": "https://dc.lft.to/lastmile_qr_scan", "android": "https://dc.lft.to/lastmile_qr_scan"}, "is_reserved": 0, "fusion_lon": 0.0, "fusion_lat": 0.0, "lon": -77.019264, "name": "9b1237567b9a95f4c9e6f7bd788af0bc"}, {"bike_id": "9950916d8c7cdd5bb7dc8cdf6465c9f0", "type": "electric_scooter", "is_disabled": 0, "lat": 38.91116483333333, "rental_uris": {"ios": "https://dc.lft.to/lastmile_qr_scan", "android": "https://dc.lft.to/lastmile_qr_scan"}, "is_reserved": 0, "fusion_lon": 0.0, "fusion_lat": 0.0, "lon": -77.0373425, "name": "9950916d8c7cdd5bb7dc8cdf6465c9f0"}, {"bike_id": "8966b407879a2f1b990a185456c0c300", "type": "electric_bike", "is_disabled": 0, "lat": 38.93970566666667, "rental_uris": {"ios": "https://dc.lft.to/lastmile_qr_scan", "android": "https://dc.lft.to/lastmile_qr_scan"}, "is_reserved": 0, "fusion_lon": 0.0, "fusion_lat": 0.0, "lon": -77.052596, "name": "8966b407879a2f1b990a185456c0c300"}, {"bike_id": "e36b3a4951aa3faeaa71e4984a2cac75", "type": "electric_scooter", "is_disabled": 0, "lat": 38.921285, "rental_uris": {"ios": "https://dc.lft.to/lastmile_qr_scan", "android": "https://dc.lft.to/lastmile_qr_scan"}, "is_reserved": 0, "fusion_lon": 0.0, "fusion_lat": 0.0, "lon": -77.0271775, "name": "e36b3a4951aa3faeaa71e4984a2cac75"}, {"bike_id": "8e67ac49bdf3303d758751d8eddd5d86", "type": "electric_scooter", "is_disabled": 0, "lat": 38.8922015, "rental_uris": {"ios": "https://dc.lft.to/lastmile_qr_scan", "android": "https://dc.lft.to/lastmile_qr_scan"}, "is_reserved": 0, "fusion_lon": 0.0, "fusion_lat": 0.0, "lon": -77.04805216666666, "name": "8e67ac49bdf3303d758751d8eddd5d86"}, {"bike_id": "877c6201161824236a39207b97ac73d5", "type": "electric_scooter", "is_disabled": 0, "lat": 38.92246383333333, "rental_uris": {"ios": "https://dc.lft.to/lastmile_qr_scan", "android": "https://dc.lft.to/lastmile_qr_scan"}, "is_reserved": 0, "fusion_lon": 0.0, "fusion_lat": 0.0, "lon": -77.0427565, "name": "877c6201161824236a39207b97ac73d5"}, {"bike_id": "48aa8e66dc90eff786a51b8b46c6b32f", "type": "electric_scooter", "is_disabled": 0, "lat": 38.91698783333333, "rental_uris": {"ios": "https://dc.lft.to/lastmile_qr_scan", "android": "https://dc.lft.to/lastmile_qr_scan"}, "is_reserved": 0, "fusion_lon": 0.0, "fusion_lat": 0.0, "lon": -77.0376325, "name": "48aa8e66dc90eff786a51b8b46c6b32f"}, {"bike_id": "db0c7674606926e8bf7d312cde90a885", "type": "electric_scooter", "is_disabled": 0, "lat": 38.918041833333334, "rental_uris": {"ios": "https://dc.lft.to/lastmile_qr_scan", "android": "https://dc.lft.to/lastmile_qr_scan"}, "is_reserved": 0, "fusion_lon": 0.0, "fusion_lat": 0.0, "lon": -77.0321305, "name": "db0c7674606926e8bf7d312cde90a885"}, {"bike_id": "0d079194f6d6d73e63f813c47088fee9", "type": "electric_bike", "is_disabled": 0, "lat": 38.93548533333333, "rental_uris": {"ios": "https://dc.lft.to/lastmile_qr_scan", "android": "https://dc.lft.to/lastmile_qr_scan"}, "is_reserved": 0, "fusion_lon": 0.0, "fusion_lat": 0.0, "lon": -76.93897983333333, "name": "0d079194f6d6d73e63f813c47088fee9"}, {"bike_id": "fda49efcd00ad32d6d72d11d71b95f44", "type": "electric_scooter", "is_disabled": 0, "lat": 38.924801333333335, "rental_uris": {"ios": "https://dc.lft.to/lastmile_qr_scan", "android": "https://dc.lft.to/lastmile_qr_scan"}, "is_reserved": 0, "fusion_lon": 0.0, "fusion_lat": 0.0, "lon": -77.03101066666666, "name": "fda49efcd00ad32d6d72d11d71b95f44"}, {"bike_id": "1b7b2086815f0568ecf0f71f142b7c6d", "type": "electric_scooter", "is_disabled": 0, "lat": 38.915985, "rental_uris": {"ios": "https://dc.lft.to/lastmile_qr_scan", "android": "https://dc.lft.to/lastmile_qr_scan"}, "is_reserved": 0, "fusion_lon": 0.0, "fusion_lat": 0.0, "lon": -77.06807633333334, "name": "1b7b2086815f0568ecf0f71f142b7c6d"}, {"bike_id": "82842fe43ae054f32c59244195f080dc", "type": "electric_scooter", "is_disabled": 0, "lat": 38.902541166666666, "rental_uris": {"ios": "https://dc.lft.to/lastmile_qr_scan", "android": "https://dc.lft.to/lastmile_qr_scan"}, "is_reserved": 0, "fusion_lon": 0.0, "fusion_lat": 0.0, "lon": -77.01762783333334, "name": "82842fe43ae054f32c59244195f080dc"}, {"bike_id": "bbb4e0223604fe13f3d0ddd1eac6d7bf", "type": "electric_scooter", "is_disabled": 0, "lat": 38.906815, "rental_uris": {"ios": "https://dc.lft.to/lastmile_qr_scan", "android": "https://dc.lft.to/lastmile_qr_scan"}, "is_reserved": 0, "fusion_lon": 0.0, "fusion_lat": 0.0, "lon": -77.02694116666666, "name": "bbb4e0223604fe13f3d0ddd1eac6d7bf"}, {"bike_id": "c30a822da20cd191dfbf8d15a49ab078", "type": "electric_scooter", "is_disabled": 0, "lat": 38.91706333333333, "rental_uris": {"ios": "https://dc.lft.to/lastmile_qr_scan", "android": "https://dc.lft.to/lastmile_qr_scan"}, "is_reserved": 0, "fusion_lon": 0.0, "fusion_lat": 0.0, "lon": -77.02415583333334, "name": "c30a822da20cd191dfbf8d15a49ab078"}, {"bike_id": "0649c8528441c8822e50aea25615a9ac", "type": "electric_scooter", "is_disabled": 0, "lat": 38.88274283333333, "rental_uris": {"ios": "https://dc.lft.to/lastmile_qr_scan", "android": "https://dc.lft.to/lastmile_qr_scan"}, "is_reserved": 0, "fusion_lon": 0.0, "fusion_lat": 0.0, "lon": -76.92929466666666, "name": "0649c8528441c8822e50aea25615a9ac"}, {"bike_id": "08f87a351dd15750e476f01d00b9de4c", "type": "electric_scooter", "is_disabled": 0, "lat": 38.922503, "rental_uris": {"ios": "https://dc.lft.to/lastmile_qr_scan", "android": "https://dc.lft.to/lastmile_qr_scan"}, "is_reserved": 0, "fusion_lon": 0.0, "fusion_lat": 0.0, "lon": -77.04269916666667, "name": "08f87a351dd15750e476f01d00b9de4c"}, {"bike_id": "3644d1f076561e813f228a51707824af", "type": "electric_scooter", "is_disabled": 0, "lat": 38.9057105, "rental_uris": {"ios": "https://dc.lft.to/lastmile_qr_scan", "android": "https://dc.lft.to/lastmile_qr_scan"}, "is_reserved": 0, "fusion_lon": 0.0, "fusion_lat": 0.0, "lon": -76.97632816666666, "name": "3644d1f076561e813f228a51707824af"}, {"bike_id": "6bf28148bda070bfb7c4f5ca82e8d9c4", "type": "electric_scooter", "is_disabled": 0, "lat": 38.866985, "rental_uris": {"ios": "https://dc.lft.to/lastmile_qr_scan", "android": "https://dc.lft.to/lastmile_qr_scan"}, "is_reserved": 0, "fusion_lon": 0.0, "fusion_lat": 0.0, "lon": -76.98714783333334, "name": "6bf28148bda070bfb7c4f5ca82e8d9c4"}, {"bike_id": "4243d09eaf62d02b78003b16ed699a55", "type": "electric_scooter", "is_disabled": 0, "lat": 38.870944333333334, "rental_uris": {"ios": "https://dc.lft.to/lastmile_qr_scan", "android": "https://dc.lft.to/lastmile_qr_scan"}, "is_reserved": 0, "fusion_lon": 0.0, "fusion_lat": 0.0, "lon": -77.01212066666666, "name": "4243d09eaf62d02b78003b16ed699a55"}, {"bike_id": "1d971dfe8e707a80af43ec66d1159188", "type": "electric_scooter", "is_disabled": 0, "lat": 38.915530833333335, "rental_uris": {"ios": "https://dc.lft.to/lastmile_qr_scan", "android": "https://dc.lft.to/lastmile_qr_scan"}, "is_reserved": 0, "fusion_lon": 0.0, "fusion_lat": 0.0, "lon": -77.02419616666667, "name": "1d971dfe8e707a80af43ec66d1159188"}, {"bike_id": "c148bb26991d87b8b1538cbda32d0e2d", "type": "electric_scooter", "is_disabled": 0, "lat": 38.8873505, "rental_uris": {"ios": "https://dc.lft.to/lastmile_qr_scan", "android": "https://dc.lft.to/lastmile_qr_scan"}, "is_reserved": 0, "fusion_lon": 0.0, "fusion_lat": 0.0, "lon": -77.031796, "name": "c148bb26991d87b8b1538cbda32d0e2d"}, {"bike_id": "2c855b16d5d32a4747142ebb70fe9b3c", "type": "electric_bike", "is_disabled": 0, "lat": 38.85936016666667, "rental_uris": {"ios": "https://dc.lft.to/lastmile_qr_scan", "android": "https://dc.lft.to/lastmile_qr_scan"}, "is_reserved": 0, "fusion_lon": 0.0, "fusion_lat": 0.0, "lon": -77.118294, "name": "2c855b16d5d32a4747142ebb70fe9b3c"}, {"bike_id": "db6e693c663df69ccf83d0f78360038e", "type": "electric_bike", "is_disabled": 0, "lat": 38.823686333333335, "rental_uris": {"ios": "https://dc.lft.to/lastmile_qr_scan", "android": "https://dc.lft.to/lastmile_qr_scan"}, "is_reserved": 0, "fusion_lon": 0.0, "fusion_lat": 0.0, "lon": -77.002175, "name": "db6e693c663df69ccf83d0f78360038e"}, {"bike_id": "c9d3237ce271906ed35bbfe37c5ab605", "type": "electric_scooter", "is_disabled": 0, "lat": 38.9157245, "rental_uris": {"ios": "https://dc.lft.to/lastmile_qr_scan", "android": "https://dc.lft.to/lastmile_qr_scan"}, "is_reserved": 0, "fusion_lon": 0.0, "fusion_lat": 0.0, "lon": -77.019559, "name": "c9d3237ce271906ed35bbfe37c5ab605"}, {"bike_id": "d1b2d8d58caa054d00326803b68f85f5", "type": "electric_scooter", "is_disabled": 0, "lat": 38.92100833333333, "rental_uris": {"ios": "https://dc.lft.to/lastmile_qr_scan", "android": "https://dc.lft.to/lastmile_qr_scan"}, "is_reserved": 0, "fusion_lon": 0.0, "fusion_lat": 0.0, "lon": -77.04696966666667, "name": "d1b2d8d58caa054d00326803b68f85f5"}, {"bike_id": "ec585f2284fbb1a1fc0fa1e5a79e8ce3", "type": "electric_scooter", "is_disabled": 0, "lat": 38.89745466666667, "rental_uris": {"ios": "https://dc.lft.to/lastmile_qr_scan", "android": "https://dc.lft.to/lastmile_qr_scan"}, "is_reserved": 0, "fusion_lon": 0.0, "fusion_lat": 0.0, "lon": -77.02463533333334, "name": "ec585f2284fbb1a1fc0fa1e5a79e8ce3"}, {"bike_id": "4bf8feb9576a2a76ae331198edc49d6a", "type": "electric_scooter", "is_disabled": 0, "lat": 38.876812, "rental_uris": {"ios": "https://dc.lft.to/lastmile_qr_scan", "android": "https://dc.lft.to/lastmile_qr_scan"}, "is_reserved": 0, "fusion_lon": 0.0, "fusion_lat": 0.0, "lon": -77.0007365, "name": "4bf8feb9576a2a76ae331198edc49d6a"}, {"bike_id": "a4e247f2231ea59a1f060a5219f3849f", "type": "electric_scooter", "is_disabled": 0, "lat": 38.87674883333333, "rental_uris": {"ios": "https://dc.lft.to/lastmile_qr_scan", "android": "https://dc.lft.to/lastmile_qr_scan"}, "is_reserved": 0, "fusion_lon": 0.0, "fusion_lat": 0.0, "lon": -77.0175395, "name": "a4e247f2231ea59a1f060a5219f3849f"}, {"bike_id": "0d49da5ceb31e6ec62277863f4292438", "type": "electric_scooter", "is_disabled": 0, "lat": 38.91838116666667, "rental_uris": {"ios": "https://dc.lft.to/lastmile_qr_scan", "android": "https://dc.lft.to/lastmile_qr_scan"}, "is_reserved": 0, "fusion_lon": 0.0, "fusion_lat": 0.0, "lon": -77.04182783333333, "name": "0d49da5ceb31e6ec62277863f4292438"}, {"bike_id": "6847f1b677a561ee6fdf98ced21ab666", "type": "electric_scooter", "is_disabled": 0, "lat": 38.919298, "rental_uris": {"ios": "https://dc.lft.to/lastmile_qr_scan", "android": "https://dc.lft.to/lastmile_qr_scan"}, "is_reserved": 0, "fusion_lon": 0.0, "fusion_lat": 0.0, "lon": -77.03062316666667, "name": "6847f1b677a561ee6fdf98ced21ab666"}, {"bike_id": "d11cf38addbd0acb9c4b4ebe95f09d88", "type": "electric_bike", "is_disabled": 0, "lat": 38.855639, "rental_uris": {"ios": "https://dc.lft.to/lastmile_qr_scan", "android": "https://dc.lft.to/lastmile_qr_scan"}, "is_reserved": 0, "fusion_lon": 0.0, "fusion_lat": 0.0, "lon": -77.1131315, "name": "d11cf38addbd0acb9c4b4ebe95f09d88"}, {"bike_id": "2c1e928d60ec74f140cde014bf1a6f89", "type": "electric_bike", "is_disabled": 0, "lat": 38.99229016666666, "rental_uris": {"ios": "https://dc.lft.to/lastmile_qr_scan", "android": "https://dc.lft.to/lastmile_qr_scan"}, "is_reserved": 0, "fusion_lon": 0.0, "fusion_lat": 0.0, "lon": -76.94432916666666, "name": "2c1e928d60ec74f140cde014bf1a6f89"}, {"bike_id": "69bf889901465d39277390f07c9f9104", "type": "electric_bike", "is_disabled": 0, "lat": 38.85483983333334, "rental_uris": {"ios": "https://dc.lft.to/lastmile_qr_scan", "android": "https://dc.lft.to/lastmile_qr_scan"}, "is_reserved": 0, "fusion_lon": 0.0, "fusion_lat": 0.0, "lon": -77.1161615, "name": "69bf889901465d39277390f07c9f9104"}, {"bike_id": "d5a37ccb4b321639474bfe02aa9f5565", "type": "electric_scooter", "is_disabled": 0, "lat": 38.94720066666667, "rental_uris": {"ios": "https://dc.lft.to/lastmile_qr_scan", "android": "https://dc.lft.to/lastmile_qr_scan"}, "is_reserved": 0, "fusion_lon": 0.0, "fusion_lat": 0.0, "lon": -77.0654665, "name": "d5a37ccb4b321639474bfe02aa9f5565"}, {"bike_id": "9eb4404405e9960f888eb57c6263c047", "type": "electric_scooter", "is_disabled": 0, "lat": 38.91249283333333, "rental_uris": {"ios": "https://dc.lft.to/lastmile_qr_scan", "android": "https://dc.lft.to/lastmile_qr_scan"}, "is_reserved": 0, "fusion_lon": 0.0, "fusion_lat": 0.0, "lon": -77.058824, "name": "9eb4404405e9960f888eb57c6263c047"}, {"bike_id": "6a4a69414a29e82758cbf7cc20c32223", "type": "electric_bike", "is_disabled": 0, "lat": 38.85522533333334, "rental_uris": {"ios": "https://dc.lft.to/lastmile_qr_scan", "android": "https://dc.lft.to/lastmile_qr_scan"}, "is_reserved": 0, "fusion_lon": 0.0, "fusion_lat": 0.0, "lon": -77.12004183333333, "name": "6a4a69414a29e82758cbf7cc20c32223"}, {"bike_id": "0f7e3029adee1ddb4f211635ccc83d1a", "type": "electric_scooter", "is_disabled": 0, "lat": 38.91569666666667, "rental_uris": {"ios": "https://dc.lft.to/lastmile_qr_scan", "android": "https://dc.lft.to/lastmile_qr_scan"}, "is_reserved": 0, "fusion_lon": 0.0, "fusion_lat": 0.0, "lon": -77.01201216666666, "name": "0f7e3029adee1ddb4f211635ccc83d1a"}, {"bike_id": "5da5c517abe4b34c4e90f79023feae6b", "type": "electric_scooter", "is_disabled": 0, "lat": 38.916226333333334, "rental_uris": {"ios": "https://dc.lft.to/lastmile_qr_scan", "android": "https://dc.lft.to/lastmile_qr_scan"}, "is_reserved": 0, "fusion_lon": 0.0, "fusion_lat": 0.0, "lon": -77.032043, "name": "5da5c517abe4b34c4e90f79023feae6b"}, {"bike_id": "7aeba14fae3086be292b34d5712f7313", "type": "electric_scooter", "is_disabled": 0, "lat": 38.915666, "rental_uris": {"ios": "https://dc.lft.to/lastmile_qr_scan", "android": "https://dc.lft.to/lastmile_qr_scan"}, "is_reserved": 0, "fusion_lon": 0.0, "fusion_lat": 0.0, "lon": -77.011981, "name": "7aeba14fae3086be292b34d5712f7313"}, {"bike_id": "e3fa78d7e2c6383313f239c7b5a0474d", "type": "electric_scooter", "is_disabled": 0, "lat": 38.926777666666666, "rental_uris": {"ios": "https://dc.lft.to/lastmile_qr_scan", "android": "https://dc.lft.to/lastmile_qr_scan"}, "is_reserved": 0, "fusion_lon": 0.0, "fusion_lat": 0.0, "lon": -77.03555383333334, "name": "e3fa78d7e2c6383313f239c7b5a0474d"}, {"bike_id": "9b683b9477474d75f964b7f9109cd153", "type": "electric_scooter", "is_disabled": 0, "lat": 38.8837885, "rental_uris": {"ios": "https://dc.lft.to/lastmile_qr_scan", "android": "https://dc.lft.to/lastmile_qr_scan"}, "is_reserved": 0, "fusion_lon": 0.0, "fusion_lat": 0.0, "lon": -77.01745066666666, "name": "9b683b9477474d75f964b7f9109cd153"}, {"bike_id": "80b155ca3b2896ea63ddc4532427bdfe", "type": "electric_bike", "is_disabled": 0, "lat": 38.90470783333333, "rental_uris": {"ios": "https://dc.lft.to/lastmile_qr_scan", "android": "https://dc.lft.to/lastmile_qr_scan"}, "is_reserved": 0, "fusion_lon": 0.0, "fusion_lat": 0.0, "lon": -77.06761333333333, "name": "80b155ca3b2896ea63ddc4532427bdfe"}, {"bike_id": "14987a52e2e5825c0e89f980e24f1f12", "type": "electric_scooter", "is_disabled": 0, "lat": 38.917078, "rental_uris": {"ios": "https://dc.lft.to/lastmile_qr_scan", "android": "https://dc.lft.to/lastmile_qr_scan"}, "is_reserved": 0, "fusion_lon": 0.0, "fusion_lat": 0.0, "lon": -77.09579816666667, "name": "14987a52e2e5825c0e89f980e24f1f12"}, {"bike_id": "726db2794b7098f6c92745268b7c5568", "type": "electric_scooter", "is_disabled": 0, "lat": 38.89086433333333, "rental_uris": {"ios": "https://dc.lft.to/lastmile_qr_scan", "android": "https://dc.lft.to/lastmile_qr_scan"}, "is_reserved": 0, "fusion_lon": 0.0, "fusion_lat": 0.0, "lon": -76.99943, "name": "726db2794b7098f6c92745268b7c5568"}, {"bike_id": "f4eb1af733b9dee1952832f3ea04839d", "type": "electric_scooter", "is_disabled": 0, "lat": 38.927718166666665, "rental_uris": {"ios": "https://dc.lft.to/lastmile_qr_scan", "android": "https://dc.lft.to/lastmile_qr_scan"}, "is_reserved": 0, "fusion_lon": 0.0, "fusion_lat": 0.0, "lon": -76.98763616666666, "name": "f4eb1af733b9dee1952832f3ea04839d"}, {"bike_id": "b4528117e2abe30b0be945b9f5074d2e", "type": "electric_scooter", "is_disabled": 0, "lat": 38.918242166666666, "rental_uris": {"ios": "https://dc.lft.to/lastmile_qr_scan", "android": "https://dc.lft.to/lastmile_qr_scan"}, "is_reserved": 0, "fusion_lon": 0.0, "fusion_lat": 0.0, "lon": -77.02420483333333, "name": "b4528117e2abe30b0be945b9f5074d2e"}, {"bike_id": "8735bddde889e7caca98234d4486deb3", "type": "electric_scooter", "is_disabled": 0, "lat": 38.8650485, "rental_uris": {"ios": "https://dc.lft.to/lastmile_qr_scan", "android": "https://dc.lft.to/lastmile_qr_scan"}, "is_reserved": 0, "fusion_lon": 0.0, "fusion_lat": 0.0, "lon": -76.99006516666667, "name": "8735bddde889e7caca98234d4486deb3"}, {"bike_id": "c8e926e842c6255a95f65db9956bc5fe", "type": "electric_scooter", "is_disabled": 0, "lat": 38.8668645, "rental_uris": {"ios": "https://dc.lft.to/lastmile_qr_scan", "android": "https://dc.lft.to/lastmile_qr_scan"}, "is_reserved": 0, "fusion_lon": 0.0, "fusion_lat": 0.0, "lon": -76.98576666666666, "name": "c8e926e842c6255a95f65db9956bc5fe"}, {"bike_id": "b3e0674dd45d8c67eda3334849465251", "type": "electric_scooter", "is_disabled": 0, "lat": 38.8984985, "rental_uris": {"ios": "https://dc.lft.to/lastmile_qr_scan", "android": "https://dc.lft.to/lastmile_qr_scan"}, "is_reserved": 0, "fusion_lon": 0.0, "fusion_lat": 0.0, "lon": -77.04022183333333, "name": "b3e0674dd45d8c67eda3334849465251"}, {"bike_id": "a5e2a12d564131a2a7ad24def20288a9", "type": "electric_scooter", "is_disabled": 0, "lat": 38.907808833333334, "rental_uris": {"ios": "https://dc.lft.to/lastmile_qr_scan", "android": "https://dc.lft.to/lastmile_qr_scan"}, "is_reserved": 0, "fusion_lon": 0.0, "fusion_lat": 0.0, "lon": -77.07256866666667, "name": "a5e2a12d564131a2a7ad24def20288a9"}, {"bike_id": "781c7b88835b659177d24e248b3f26c4", "type": "electric_scooter", "is_disabled": 0, "lat": 38.905781833333336, "rental_uris": {"ios": "https://dc.lft.to/lastmile_qr_scan", "android": "https://dc.lft.to/lastmile_qr_scan"}, "is_reserved": 0, "fusion_lon": 0.0, "fusion_lat": 0.0, "lon": -77.0238905, "name": "781c7b88835b659177d24e248b3f26c4"}, {"bike_id": "58384dfc0e73644bf553c76e57240dfe", "type": "electric_scooter", "is_disabled": 0, "lat": 38.9573445, "rental_uris": {"ios": "https://dc.lft.to/lastmile_qr_scan", "android": "https://dc.lft.to/lastmile_qr_scan"}, "is_reserved": 0, "fusion_lon": 0.0, "fusion_lat": 0.0, "lon": -77.02408533333333, "name": "58384dfc0e73644bf553c76e57240dfe"}, {"bike_id": "9ac757c432ab6b0243b8e46fef3cae10", "type": "electric_scooter", "is_disabled": 0, "lat": 38.898316333333334, "rental_uris": {"ios": "https://dc.lft.to/lastmile_qr_scan", "android": "https://dc.lft.to/lastmile_qr_scan"}, "is_reserved": 0, "fusion_lon": 0.0, "fusion_lat": 0.0, "lon": -76.91954, "name": "9ac757c432ab6b0243b8e46fef3cae10"}, {"bike_id": "322114ee2f1602b176b36a4c3bf161df", "type": "electric_scooter", "is_disabled": 0, "lat": 38.923229666666664, "rental_uris": {"ios": "https://dc.lft.to/lastmile_qr_scan", "android": "https://dc.lft.to/lastmile_qr_scan"}, "is_reserved": 0, "fusion_lon": 0.0, "fusion_lat": 0.0, "lon": -77.02147616666667, "name": "322114ee2f1602b176b36a4c3bf161df"}, {"bike_id": "62727d072187dffa020a77c3c9948f9a", "type": "electric_scooter", "is_disabled": 0, "lat": 38.942879166666664, "rental_uris": {"ios": "https://dc.lft.to/lastmile_qr_scan", "android": "https://dc.lft.to/lastmile_qr_scan"}, "is_reserved": 0, "fusion_lon": 0.0, "fusion_lat": 0.0, "lon": -77.03625633333333, "name": "62727d072187dffa020a77c3c9948f9a"}, {"bike_id": "fef5e467205c7dffb265fa145dc78eb5", "type": "electric_scooter", "is_disabled": 0, "lat": 38.923126, "rental_uris": {"ios": "https://dc.lft.to/lastmile_qr_scan", "android": "https://dc.lft.to/lastmile_qr_scan"}, "is_reserved": 0, "fusion_lon": 0.0, "fusion_lat": 0.0, "lon": -77.04023783333334, "name": "fef5e467205c7dffb265fa145dc78eb5"}, {"bike_id": "cc822750dfd8f3801b87de41c070353c", "type": "electric_scooter", "is_disabled": 0, "lat": 38.917284333333335, "rental_uris": {"ios": "https://dc.lft.to/lastmile_qr_scan", "android": "https://dc.lft.to/lastmile_qr_scan"}, "is_reserved": 0, "fusion_lon": 0.0, "fusion_lat": 0.0, "lon": -77.02406033333334, "name": "cc822750dfd8f3801b87de41c070353c"}, {"bike_id": "8112fd9c74d264dbd3b198f808922a1b", "type": "electric_bike", "is_disabled": 0, "lat": 38.8573365, "rental_uris": {"ios": "https://dc.lft.to/lastmile_qr_scan", "android": "https://dc.lft.to/lastmile_qr_scan"}, "is_reserved": 0, "fusion_lon": 0.0, "fusion_lat": 0.0, "lon": -77.07962483333333, "name": "8112fd9c74d264dbd3b198f808922a1b"}, {"bike_id": "6b8559f34da27c4bb34dd92a00845387", "type": "electric_bike", "is_disabled": 0, "lat": 38.92236366666667, "rental_uris": {"ios": "https://dc.lft.to/lastmile_qr_scan", "android": "https://dc.lft.to/lastmile_qr_scan"}, "is_reserved": 0, "fusion_lon": 0.0, "fusion_lat": 0.0, "lon": -77.04481666666666, "name": "6b8559f34da27c4bb34dd92a00845387"}, {"bike_id": "6c6697a60924e447be3e2745fd504864", "type": "electric_scooter", "is_disabled": 0, "lat": 38.904835, "rental_uris": {"ios": "https://dc.lft.to/lastmile_qr_scan", "android": "https://dc.lft.to/lastmile_qr_scan"}, "is_reserved": 0, "fusion_lon": 0.0, "fusion_lat": 0.0, "lon": -77.02965316666666, "name": "6c6697a60924e447be3e2745fd504864"}, {"bike_id": "77a5d489e3aed0e3d72816e14f7cfa8c", "type": "electric_scooter", "is_disabled": 0, "lat": 38.934639833333335, "rental_uris": {"ios": "https://dc.lft.to/lastmile_qr_scan", "android": "https://dc.lft.to/lastmile_qr_scan"}, "is_reserved": 0, "fusion_lon": 0.0, "fusion_lat": 0.0, "lon": -77.04537333333333, "name": "77a5d489e3aed0e3d72816e14f7cfa8c"}, {"bike_id": "02cf2bd0c00237fdf85e818fc743eb8b", "type": "electric_scooter", "is_disabled": 0, "lat": 38.91956883333334, "rental_uris": {"ios": "https://dc.lft.to/lastmile_qr_scan", "android": "https://dc.lft.to/lastmile_qr_scan"}, "is_reserved": 0, "fusion_lon": 0.0, "fusion_lat": 0.0, "lon": -77.04159783333333, "name": "02cf2bd0c00237fdf85e818fc743eb8b"}, {"bike_id": "a2293f8f511b0a2bb7a2b6684cd7e488", "type": "electric_scooter", "is_disabled": 0, "lat": 38.88281083333333, "rental_uris": {"ios": "https://dc.lft.to/lastmile_qr_scan", "android": "https://dc.lft.to/lastmile_qr_scan"}, "is_reserved": 0, "fusion_lon": 0.0, "fusion_lat": 0.0, "lon": -77.0214355, "name": "a2293f8f511b0a2bb7a2b6684cd7e488"}, {"bike_id": "138498516e970ccdaf01d8c19c347f6e", "type": "electric_scooter", "is_disabled": 0, "lat": 38.899169, "rental_uris": {"ios": "https://dc.lft.to/lastmile_qr_scan", "android": "https://dc.lft.to/lastmile_qr_scan"}, "is_reserved": 0, "fusion_lon": 0.0, "fusion_lat": 0.0, "lon": -76.93366633333333, "name": "138498516e970ccdaf01d8c19c347f6e"}, {"bike_id": "dd394a662edf54586381a2f6c82754cb", "type": "electric_scooter", "is_disabled": 0, "lat": 38.92233, "rental_uris": {"ios": "https://dc.lft.to/lastmile_qr_scan", "android": "https://dc.lft.to/lastmile_qr_scan"}, "is_reserved": 0, "fusion_lon": 0.0, "fusion_lat": 0.0, "lon": -77.04198683333334, "name": "dd394a662edf54586381a2f6c82754cb"}, {"bike_id": "8a7ade96bf1fa6a4a1c41e760ec8cbf9", "type": "electric_scooter", "is_disabled": 0, "lat": 38.917402833333334, "rental_uris": {"ios": "https://dc.lft.to/lastmile_qr_scan", "android": "https://dc.lft.to/lastmile_qr_scan"}, "is_reserved": 0, "fusion_lon": 0.0, "fusion_lat": 0.0, "lon": -77.04074633333333, "name": "8a7ade96bf1fa6a4a1c41e760ec8cbf9"}, {"bike_id": "6f91fe1ab811284cc71e2975b637a03d", "type": "electric_bike", "is_disabled": 0, "lat": 38.853517, "rental_uris": {"ios": "https://dc.lft.to/lastmile_qr_scan", "android": "https://dc.lft.to/lastmile_qr_scan"}, "is_reserved": 0, "fusion_lon": 0.0, "fusion_lat": 0.0, "lon": -77.13462633333333, "name": "6f91fe1ab811284cc71e2975b637a03d"}, {"bike_id": "a5a7845b9b1b018963f7c86e4182aa93", "type": "electric_scooter", "is_disabled": 0, "lat": 38.9020965, "rental_uris": {"ios": "https://dc.lft.to/lastmile_qr_scan", "android": "https://dc.lft.to/lastmile_qr_scan"}, "is_reserved": 0, "fusion_lon": 0.0, "fusion_lat": 0.0, "lon": -77.02168766666666, "name": "a5a7845b9b1b018963f7c86e4182aa93"}, {"bike_id": "de3d7ef95b276f1cd5674b33cc19c1b5", "type": "electric_scooter", "is_disabled": 0, "lat": 38.942928, "rental_uris": {"ios": "https://dc.lft.to/lastmile_qr_scan", "android": "https://dc.lft.to/lastmile_qr_scan"}, "is_reserved": 0, "fusion_lon": 0.0, "fusion_lat": 0.0, "lon": -77.0217035, "name": "de3d7ef95b276f1cd5674b33cc19c1b5"}, {"bike_id": "200c44d3f4765cef866a0ecf02e34e6b", "type": "electric_scooter", "is_disabled": 0, "lat": 38.90719933333333, "rental_uris": {"ios": "https://dc.lft.to/lastmile_qr_scan", "android": "https://dc.lft.to/lastmile_qr_scan"}, "is_reserved": 0, "fusion_lon": 0.0, "fusion_lat": 0.0, "lon": -77.04028883333334, "name": "200c44d3f4765cef866a0ecf02e34e6b"}, {"bike_id": "178034da8c43acf0851bf2f1768fc14b", "type": "electric_scooter", "is_disabled": 0, "lat": 38.8974545, "rental_uris": {"ios": "https://dc.lft.to/lastmile_qr_scan", "android": "https://dc.lft.to/lastmile_qr_scan"}, "is_reserved": 0, "fusion_lon": 0.0, "fusion_lat": 0.0, "lon": -76.9797275, "name": "178034da8c43acf0851bf2f1768fc14b"}, {"bike_id": "6e47fdcc238c8604f72539eff51eb6b4", "type": "electric_scooter", "is_disabled": 0, "lat": 38.92497066666667, "rental_uris": {"ios": "https://dc.lft.to/lastmile_qr_scan", "android": "https://dc.lft.to/lastmile_qr_scan"}, "is_reserved": 0, "fusion_lon": 0.0, "fusion_lat": 0.0, "lon": -77.0511335, "name": "6e47fdcc238c8604f72539eff51eb6b4"}, {"bike_id": "efe3a7076467ea28f8ce530d3392001e", "type": "electric_scooter", "is_disabled": 0, "lat": 38.91765383333333, "rental_uris": {"ios": "https://dc.lft.to/lastmile_qr_scan", "android": "https://dc.lft.to/lastmile_qr_scan"}, "is_reserved": 0, "fusion_lon": 0.0, "fusion_lat": 0.0, "lon": -77.02281783333333, "name": "efe3a7076467ea28f8ce530d3392001e"}, {"bike_id": "23209c1a60eb2287ac8b1a5b1ec1b612", "type": "electric_scooter", "is_disabled": 0, "lat": 38.900634333333336, "rental_uris": {"ios": "https://dc.lft.to/lastmile_qr_scan", "android": "https://dc.lft.to/lastmile_qr_scan"}, "is_reserved": 0, "fusion_lon": 0.0, "fusion_lat": 0.0, "lon": -77.01699616666667, "name": "23209c1a60eb2287ac8b1a5b1ec1b612"}, {"bike_id": "43533da2c184a21b0c915f3d162c195e", "type": "electric_scooter", "is_disabled": 0, "lat": 38.92058983333333, "rental_uris": {"ios": "https://dc.lft.to/lastmile_qr_scan", "android": "https://dc.lft.to/lastmile_qr_scan"}, "is_reserved": 0, "fusion_lon": 0.0, "fusion_lat": 0.0, "lon": -77.0425235, "name": "43533da2c184a21b0c915f3d162c195e"}, {"bike_id": "b4e64a883abc606e96925d043fd630ee", "type": "electric_scooter", "is_disabled": 0, "lat": 38.90730216666667, "rental_uris": {"ios": "https://dc.lft.to/lastmile_qr_scan", "android": "https://dc.lft.to/lastmile_qr_scan"}, "is_reserved": 0, "fusion_lon": 0.0, "fusion_lat": 0.0, "lon": -77.02892683333333, "name": "b4e64a883abc606e96925d043fd630ee"}, {"bike_id": "2ab46010e9edb234d848b5e685cdef69", "type": "electric_scooter", "is_disabled": 0, "lat": 38.92744116666667, "rental_uris": {"ios": "https://dc.lft.to/lastmile_qr_scan", "android": "https://dc.lft.to/lastmile_qr_scan"}, "is_reserved": 0, "fusion_lon": 0.0, "fusion_lat": 0.0, "lon": -77.02535316666666, "name": "2ab46010e9edb234d848b5e685cdef69"}, {"bike_id": "64d6ed00b071f1778633a28b8e1ce68d", "type": "electric_scooter", "is_disabled": 0, "lat": 38.911149, "rental_uris": {"ios": "https://dc.lft.to/lastmile_qr_scan", "android": "https://dc.lft.to/lastmile_qr_scan"}, "is_reserved": 0, "fusion_lon": 0.0, "fusion_lat": 0.0, "lon": -77.04726216666667, "name": "64d6ed00b071f1778633a28b8e1ce68d"}, {"bike_id": "93396318735f46b5dd94447128f89c0b", "type": "electric_scooter", "is_disabled": 0, "lat": 38.91698433333333, "rental_uris": {"ios": "https://dc.lft.to/lastmile_qr_scan", "android": "https://dc.lft.to/lastmile_qr_scan"}, "is_reserved": 0, "fusion_lon": 0.0, "fusion_lat": 0.0, "lon": -77.03775333333333, "name": "93396318735f46b5dd94447128f89c0b"}, {"bike_id": "b1535a8d28983d8620eba0113c1931dc", "type": "electric_scooter", "is_disabled": 0, "lat": 38.90739516666667, "rental_uris": {"ios": "https://dc.lft.to/lastmile_qr_scan", "android": "https://dc.lft.to/lastmile_qr_scan"}, "is_reserved": 0, "fusion_lon": 0.0, "fusion_lat": 0.0, "lon": -77.0218085, "name": "b1535a8d28983d8620eba0113c1931dc"}, {"bike_id": "6afa662beac87c03e39dc2cce4d2360c", "type": "electric_scooter", "is_disabled": 0, "lat": 38.8973475, "rental_uris": {"ios": "https://dc.lft.to/lastmile_qr_scan", "android": "https://dc.lft.to/lastmile_qr_scan"}, "is_reserved": 0, "fusion_lon": 0.0, "fusion_lat": 0.0, "lon": -77.00358333333334, "name": "6afa662beac87c03e39dc2cce4d2360c"}, {"bike_id": "d46f94395711d905cf6a32f57d336134", "type": "electric_scooter", "is_disabled": 0, "lat": 38.920356, "rental_uris": {"ios": "https://dc.lft.to/lastmile_qr_scan", "android": "https://dc.lft.to/lastmile_qr_scan"}, "is_reserved": 0, "fusion_lon": 0.0, "fusion_lat": 0.0, "lon": -77.032584, "name": "d46f94395711d905cf6a32f57d336134"}, {"bike_id": "02147cc49a783130e9b7a8c0064a417e", "type": "electric_scooter", "is_disabled": 0, "lat": 38.91415, "rental_uris": {"ios": "https://dc.lft.to/lastmile_qr_scan", "android": "https://dc.lft.to/lastmile_qr_scan"}, "is_reserved": 0, "fusion_lon": 0.0, "fusion_lat": 0.0, "lon": -77.022144, "name": "02147cc49a783130e9b7a8c0064a417e"}, {"bike_id": "57b9e4618b0770262ebcccf1452a925b", "type": "electric_scooter", "is_disabled": 0, "lat": 38.927687, "rental_uris": {"ios": "https://dc.lft.to/lastmile_qr_scan", "android": "https://dc.lft.to/lastmile_qr_scan"}, "is_reserved": 0, "fusion_lon": 0.0, "fusion_lat": 0.0, "lon": -76.96099166666667, "name": "57b9e4618b0770262ebcccf1452a925b"}, {"bike_id": "6a19430a185fb088504808ccc2dd7a96", "type": "electric_scooter", "is_disabled": 0, "lat": 38.90063383333333, "rental_uris": {"ios": "https://dc.lft.to/lastmile_qr_scan", "android": "https://dc.lft.to/lastmile_qr_scan"}, "is_reserved": 0, "fusion_lon": 0.0, "fusion_lat": 0.0, "lon": -77.02460766666667, "name": "6a19430a185fb088504808ccc2dd7a96"}, {"bike_id": "819bde105c3659569c6314110810b670", "type": "electric_scooter", "is_disabled": 0, "lat": 38.923252833333336, "rental_uris": {"ios": "https://dc.lft.to/lastmile_qr_scan", "android": "https://dc.lft.to/lastmile_qr_scan"}, "is_reserved": 0, "fusion_lon": 0.0, "fusion_lat": 0.0, "lon": -77.03812566666667, "name": "819bde105c3659569c6314110810b670"}, {"bike_id": "9fc45ee6f318c72ae53e2e4420f37629", "type": "electric_scooter", "is_disabled": 0, "lat": 38.921569, "rental_uris": {"ios": "https://dc.lft.to/lastmile_qr_scan", "android": "https://dc.lft.to/lastmile_qr_scan"}, "is_reserved": 0, "fusion_lon": 0.0, "fusion_lat": 0.0, "lon": -77.03515133333333, "name": "9fc45ee6f318c72ae53e2e4420f37629"}, {"bike_id": "999e90637c20d1e5e4a9779df2308860", "type": "electric_scooter", "is_disabled": 0, "lat": 38.86737, "rental_uris": {"ios": "https://dc.lft.to/lastmile_qr_scan", "android": "https://dc.lft.to/lastmile_qr_scan"}, "is_reserved": 0, "fusion_lon": 0.0, "fusion_lat": 0.0, "lon": -76.97860066666667, "name": "999e90637c20d1e5e4a9779df2308860"}, {"bike_id": "101f0fb937a084b0fc021c01b5b151b6", "type": "electric_scooter", "is_disabled": 0, "lat": 38.9399265, "rental_uris": {"ios": "https://dc.lft.to/lastmile_qr_scan", "android": "https://dc.lft.to/lastmile_qr_scan"}, "is_reserved": 0, "fusion_lon": 0.0, "fusion_lat": 0.0, "lon": -77.01753383333333, "name": "101f0fb937a084b0fc021c01b5b151b6"}, {"bike_id": "ff1440236c36e569e81fb2322ac960d2", "type": "electric_scooter", "is_disabled": 0, "lat": 38.9259735, "rental_uris": {"ios": "https://dc.lft.to/lastmile_qr_scan", "android": "https://dc.lft.to/lastmile_qr_scan"}, "is_reserved": 0, "fusion_lon": 0.0, "fusion_lat": 0.0, "lon": -77.02387666666667, "name": "ff1440236c36e569e81fb2322ac960d2"}, {"bike_id": "74c29b49bf6c83a6c85a19194cda7b61", "type": "electric_scooter", "is_disabled": 0, "lat": 38.91421116666667, "rental_uris": {"ios": "https://dc.lft.to/lastmile_qr_scan", "android": "https://dc.lft.to/lastmile_qr_scan"}, "is_reserved": 0, "fusion_lon": 0.0, "fusion_lat": 0.0, "lon": -77.01803783333334, "name": "74c29b49bf6c83a6c85a19194cda7b61"}, {"bike_id": "efa0b37ee1bf7ece3738cab3aaf6d643", "type": "electric_scooter", "is_disabled": 0, "lat": 38.909376, "rental_uris": {"ios": "https://dc.lft.to/lastmile_qr_scan", "android": "https://dc.lft.to/lastmile_qr_scan"}, "is_reserved": 0, "fusion_lon": 0.0, "fusion_lat": 0.0, "lon": -77.05569133333333, "name": "efa0b37ee1bf7ece3738cab3aaf6d643"}, {"bike_id": "ab7984f81181da89c8235095994e0d9a", "type": "electric_scooter", "is_disabled": 0, "lat": 38.92024116666666, "rental_uris": {"ios": "https://dc.lft.to/lastmile_qr_scan", "android": "https://dc.lft.to/lastmile_qr_scan"}, "is_reserved": 0, "fusion_lon": 0.0, "fusion_lat": 0.0, "lon": -77.0019325, "name": "ab7984f81181da89c8235095994e0d9a"}, {"bike_id": "5dbc1cf9b06cc30e3b07f3c912d0ac67", "type": "electric_scooter", "is_disabled": 0, "lat": 38.90664133333333, "rental_uris": {"ios": "https://dc.lft.to/lastmile_qr_scan", "android": "https://dc.lft.to/lastmile_qr_scan"}, "is_reserved": 0, "fusion_lon": 0.0, "fusion_lat": 0.0, "lon": -77.04292116666667, "name": "5dbc1cf9b06cc30e3b07f3c912d0ac67"}, {"bike_id": "06153e6d969c09794cff5f11202215a7", "type": "electric_bike", "is_disabled": 0, "lat": 38.838470666666666, "rental_uris": {"ios": "https://dc.lft.to/lastmile_qr_scan", "android": "https://dc.lft.to/lastmile_qr_scan"}, "is_reserved": 0, "fusion_lon": 0.0, "fusion_lat": 0.0, "lon": -77.05015216666666, "name": "06153e6d969c09794cff5f11202215a7"}, {"bike_id": "7555bdf995eb057a75ab920abb743d70", "type": "electric_scooter", "is_disabled": 0, "lat": 38.92767683333334, "rental_uris": {"ios": "https://dc.lft.to/lastmile_qr_scan", "android": "https://dc.lft.to/lastmile_qr_scan"}, "is_reserved": 0, "fusion_lon": 0.0, "fusion_lat": 0.0, "lon": -77.05644483333333, "name": "7555bdf995eb057a75ab920abb743d70"}, {"bike_id": "07083f9b2efd7a8bf8584c5384da456f", "type": "electric_scooter", "is_disabled": 0, "lat": 38.91044683333333, "rental_uris": {"ios": "https://dc.lft.to/lastmile_qr_scan", "android": "https://dc.lft.to/lastmile_qr_scan"}, "is_reserved": 0, "fusion_lon": 0.0, "fusion_lat": 0.0, "lon": -77.043876, "name": "07083f9b2efd7a8bf8584c5384da456f"}, {"bike_id": "9ce7291539e14f945ea125b97d7e13d6", "type": "electric_scooter", "is_disabled": 0, "lat": 38.914178666666665, "rental_uris": {"ios": "https://dc.lft.to/lastmile_qr_scan", "android": "https://dc.lft.to/lastmile_qr_scan"}, "is_reserved": 0, "fusion_lon": 0.0, "fusion_lat": 0.0, "lon": -77.02817, "name": "9ce7291539e14f945ea125b97d7e13d6"}, {"bike_id": "157e86be40985b3d5f79a3ccf4cbbc04", "type": "electric_scooter", "is_disabled": 0, "lat": 38.908438, "rental_uris": {"ios": "https://dc.lft.to/lastmile_qr_scan", "android": "https://dc.lft.to/lastmile_qr_scan"}, "is_reserved": 0, "fusion_lon": 0.0, "fusion_lat": 0.0, "lon": -77.02697216666667, "name": "157e86be40985b3d5f79a3ccf4cbbc04"}, {"bike_id": "623b805c592ddd55a9cf30cfdc292814", "type": "electric_scooter", "is_disabled": 0, "lat": 38.913568833333336, "rental_uris": {"ios": "https://dc.lft.to/lastmile_qr_scan", "android": "https://dc.lft.to/lastmile_qr_scan"}, "is_reserved": 0, "fusion_lon": 0.0, "fusion_lat": 0.0, "lon": -77.01222833333334, "name": "623b805c592ddd55a9cf30cfdc292814"}, {"bike_id": "cabf379d7456cf81c5bc761b664a219c", "type": "electric_scooter", "is_disabled": 0, "lat": 38.887393, "rental_uris": {"ios": "https://dc.lft.to/lastmile_qr_scan", "android": "https://dc.lft.to/lastmile_qr_scan"}, "is_reserved": 0, "fusion_lon": 0.0, "fusion_lat": 0.0, "lon": -77.0153495, "name": "cabf379d7456cf81c5bc761b664a219c"}, {"bike_id": "55a861d7b28e89aea0897c164b933d21", "type": "electric_scooter", "is_disabled": 0, "lat": 38.918619, "rental_uris": {"ios": "https://dc.lft.to/lastmile_qr_scan", "android": "https://dc.lft.to/lastmile_qr_scan"}, "is_reserved": 0, "fusion_lon": 0.0, "fusion_lat": 0.0, "lon": -77.041785, "name": "55a861d7b28e89aea0897c164b933d21"}, {"bike_id": "3fe30dadbd0f9a08dc744c4013260640", "type": "electric_scooter", "is_disabled": 0, "lat": 38.90527733333333, "rental_uris": {"ios": "https://dc.lft.to/lastmile_qr_scan", "android": "https://dc.lft.to/lastmile_qr_scan"}, "is_reserved": 0, "fusion_lon": 0.0, "fusion_lat": 0.0, "lon": -77.03118333333333, "name": "3fe30dadbd0f9a08dc744c4013260640"}, {"bike_id": "b83bccc86896c0d6c02fe0f55c1654a9", "type": "electric_scooter", "is_disabled": 0, "lat": 38.922469666666665, "rental_uris": {"ios": "https://dc.lft.to/lastmile_qr_scan", "android": "https://dc.lft.to/lastmile_qr_scan"}, "is_reserved": 0, "fusion_lon": 0.0, "fusion_lat": 0.0, "lon": -77.0400915, "name": "b83bccc86896c0d6c02fe0f55c1654a9"}, {"bike_id": "4955a289efe7bb4aa28f469f0efe41e6", "type": "electric_scooter", "is_disabled": 0, "lat": 38.8913705, "rental_uris": {"ios": "https://dc.lft.to/lastmile_qr_scan", "android": "https://dc.lft.to/lastmile_qr_scan"}, "is_reserved": 0, "fusion_lon": 0.0, "fusion_lat": 0.0, "lon": -76.95188866666666, "name": "4955a289efe7bb4aa28f469f0efe41e6"}, {"bike_id": "ab38bccc05cf39ae01e700c5ea226da4", "type": "electric_scooter", "is_disabled": 0, "lat": 38.911049, "rental_uris": {"ios": "https://dc.lft.to/lastmile_qr_scan", "android": "https://dc.lft.to/lastmile_qr_scan"}, "is_reserved": 0, "fusion_lon": 0.0, "fusion_lat": 0.0, "lon": -77.00220366666667, "name": "ab38bccc05cf39ae01e700c5ea226da4"}, {"bike_id": "8bc5c8f72cbe299cf8bc640b2a4d3a11", "type": "electric_scooter", "is_disabled": 0, "lat": 38.91518766666667, "rental_uris": {"ios": "https://dc.lft.to/lastmile_qr_scan", "android": "https://dc.lft.to/lastmile_qr_scan"}, "is_reserved": 0, "fusion_lon": 0.0, "fusion_lat": 0.0, "lon": -77.01985216666667, "name": "8bc5c8f72cbe299cf8bc640b2a4d3a11"}, {"bike_id": "ab78d507cdb5adebdd8c040ff1af2da1", "type": "electric_scooter", "is_disabled": 0, "lat": 38.90382783333333, "rental_uris": {"ios": "https://dc.lft.to/lastmile_qr_scan", "android": "https://dc.lft.to/lastmile_qr_scan"}, "is_reserved": 0, "fusion_lon": 0.0, "fusion_lat": 0.0, "lon": -76.98202816666667, "name": "ab78d507cdb5adebdd8c040ff1af2da1"}, {"bike_id": "dddabc757329587a49602acb7ef5e427", "type": "electric_scooter", "is_disabled": 0, "lat": 38.899660833333336, "rental_uris": {"ios": "https://dc.lft.to/lastmile_qr_scan", "android": "https://dc.lft.to/lastmile_qr_scan"}, "is_reserved": 0, "fusion_lon": 0.0, "fusion_lat": 0.0, "lon": -77.023918, "name": "dddabc757329587a49602acb7ef5e427"}, {"bike_id": "10076fe44ac2f93110e2e7b1a78d7eab", "type": "electric_scooter", "is_disabled": 0, "lat": 38.920430833333334, "rental_uris": {"ios": "https://dc.lft.to/lastmile_qr_scan", "android": "https://dc.lft.to/lastmile_qr_scan"}, "is_reserved": 0, "fusion_lon": 0.0, "fusion_lat": 0.0, "lon": -77.033942, "name": "10076fe44ac2f93110e2e7b1a78d7eab"}, {"bike_id": "e82f128fae198f5f15baa4b3271799a0", "type": "electric_scooter", "is_disabled": 0, "lat": 38.93998166666667, "rental_uris": {"ios": "https://dc.lft.to/lastmile_qr_scan", "android": "https://dc.lft.to/lastmile_qr_scan"}, "is_reserved": 0, "fusion_lon": 0.0, "fusion_lat": 0.0, "lon": -77.03804283333334, "name": "e82f128fae198f5f15baa4b3271799a0"}, {"bike_id": "711c35d8f8b8b52365e30fc40b935158", "type": "electric_scooter", "is_disabled": 0, "lat": 38.92228583333333, "rental_uris": {"ios": "https://dc.lft.to/lastmile_qr_scan", "android": "https://dc.lft.to/lastmile_qr_scan"}, "is_reserved": 0, "fusion_lon": 0.0, "fusion_lat": 0.0, "lon": -77.04377983333333, "name": "711c35d8f8b8b52365e30fc40b935158"}, {"bike_id": "fe3ac23f618278d34b65af06dc77f1a9", "type": "electric_scooter", "is_disabled": 0, "lat": 38.884677833333335, "rental_uris": {"ios": "https://dc.lft.to/lastmile_qr_scan", "android": "https://dc.lft.to/lastmile_qr_scan"}, "is_reserved": 0, "fusion_lon": 0.0, "fusion_lat": 0.0, "lon": -77.00046983333333, "name": "fe3ac23f618278d34b65af06dc77f1a9"}, {"bike_id": "5b5c659a4a09986cba4f4e5ba6e7dfea", "type": "electric_scooter", "is_disabled": 0, "lat": 38.8954665, "rental_uris": {"ios": "https://dc.lft.to/lastmile_qr_scan", "android": "https://dc.lft.to/lastmile_qr_scan"}, "is_reserved": 0, "fusion_lon": 0.0, "fusion_lat": 0.0, "lon": -76.92953, "name": "5b5c659a4a09986cba4f4e5ba6e7dfea"}, {"bike_id": "b9b532708addc01b244e942ca00b7852", "type": "electric_scooter", "is_disabled": 0, "lat": 38.91856766666667, "rental_uris": {"ios": "https://dc.lft.to/lastmile_qr_scan", "android": "https://dc.lft.to/lastmile_qr_scan"}, "is_reserved": 0, "fusion_lon": 0.0, "fusion_lat": 0.0, "lon": -76.9611305, "name": "b9b532708addc01b244e942ca00b7852"}, {"bike_id": "90d8f1bc63e43e4ff683b741e750f64b", "type": "electric_scooter", "is_disabled": 0, "lat": 38.90156016666667, "rental_uris": {"ios": "https://dc.lft.to/lastmile_qr_scan", "android": "https://dc.lft.to/lastmile_qr_scan"}, "is_reserved": 0, "fusion_lon": 0.0, "fusion_lat": 0.0, "lon": -77.0249175, "name": "90d8f1bc63e43e4ff683b741e750f64b"}, {"bike_id": "6989894a622ea00f22a36b8ef6ed7036", "type": "electric_scooter", "is_disabled": 0, "lat": 38.88781016666667, "rental_uris": {"ios": "https://dc.lft.to/lastmile_qr_scan", "android": "https://dc.lft.to/lastmile_qr_scan"}, "is_reserved": 0, "fusion_lon": 0.0, "fusion_lat": 0.0, "lon": -76.95529166666667, "name": "6989894a622ea00f22a36b8ef6ed7036"}, {"bike_id": "4cafc1f4352b4e2df4e980c15ac7ef54", "type": "electric_scooter", "is_disabled": 0, "lat": 38.901518833333334, "rental_uris": {"ios": "https://dc.lft.to/lastmile_qr_scan", "android": "https://dc.lft.to/lastmile_qr_scan"}, "is_reserved": 0, "fusion_lon": 0.0, "fusion_lat": 0.0, "lon": -77.03238816666666, "name": "4cafc1f4352b4e2df4e980c15ac7ef54"}, {"bike_id": "2ef257a485e35baed8c63f3a7050adb8", "type": "electric_scooter", "is_disabled": 0, "lat": 38.915535, "rental_uris": {"ios": "https://dc.lft.to/lastmile_qr_scan", "android": "https://dc.lft.to/lastmile_qr_scan"}, "is_reserved": 0, "fusion_lon": 0.0, "fusion_lat": 0.0, "lon": -77.03256266666666, "name": "2ef257a485e35baed8c63f3a7050adb8"}, {"bike_id": "29769ee73b2fb587cabb5cd322bac7cf", "type": "electric_scooter", "is_disabled": 0, "lat": 38.86627933333333, "rental_uris": {"ios": "https://dc.lft.to/lastmile_qr_scan", "android": "https://dc.lft.to/lastmile_qr_scan"}, "is_reserved": 0, "fusion_lon": 0.0, "fusion_lat": 0.0, "lon": -76.987171, "name": "29769ee73b2fb587cabb5cd322bac7cf"}, {"bike_id": "0a444589539ceca0b6376c9874a0c184", "type": "electric_scooter", "is_disabled": 0, "lat": 38.909437833333335, "rental_uris": {"ios": "https://dc.lft.to/lastmile_qr_scan", "android": "https://dc.lft.to/lastmile_qr_scan"}, "is_reserved": 0, "fusion_lon": 0.0, "fusion_lat": 0.0, "lon": -77.05563633333334, "name": "0a444589539ceca0b6376c9874a0c184"}, {"bike_id": "dc6f76bc57075af9b7550772a5721c9d", "type": "electric_scooter", "is_disabled": 0, "lat": 38.92494533333333, "rental_uris": {"ios": "https://dc.lft.to/lastmile_qr_scan", "android": "https://dc.lft.to/lastmile_qr_scan"}, "is_reserved": 0, "fusion_lon": 0.0, "fusion_lat": 0.0, "lon": -77.02126833333334, "name": "dc6f76bc57075af9b7550772a5721c9d"}, {"bike_id": "eea03b3f6bba644ab1af5459d0070ced", "type": "electric_scooter", "is_disabled": 0, "lat": 38.896387833333335, "rental_uris": {"ios": "https://dc.lft.to/lastmile_qr_scan", "android": "https://dc.lft.to/lastmile_qr_scan"}, "is_reserved": 0, "fusion_lon": 0.0, "fusion_lat": 0.0, "lon": -77.07074833333333, "name": "eea03b3f6bba644ab1af5459d0070ced"}, {"bike_id": "a26ed3797384e881024c616dc1aa91fe", "type": "electric_scooter", "is_disabled": 0, "lat": 38.91014666666667, "rental_uris": {"ios": "https://dc.lft.to/lastmile_qr_scan", "android": "https://dc.lft.to/lastmile_qr_scan"}, "is_reserved": 0, "fusion_lon": 0.0, "fusion_lat": 0.0, "lon": -77.03208466666666, "name": "a26ed3797384e881024c616dc1aa91fe"}, {"bike_id": "80641eaaebcb9c897246056e197d9e4b", "type": "electric_bike", "is_disabled": 0, "lat": 38.858948166666664, "rental_uris": {"ios": "https://dc.lft.to/lastmile_qr_scan", "android": "https://dc.lft.to/lastmile_qr_scan"}, "is_reserved": 0, "fusion_lon": 0.0, "fusion_lat": 0.0, "lon": -77.11867216666667, "name": "80641eaaebcb9c897246056e197d9e4b"}, {"bike_id": "26b31313073c1e2a9d40e434e1487cb2", "type": "electric_scooter", "is_disabled": 0, "lat": 38.8981685, "rental_uris": {"ios": "https://dc.lft.to/lastmile_qr_scan", "android": "https://dc.lft.to/lastmile_qr_scan"}, "is_reserved": 0, "fusion_lon": 0.0, "fusion_lat": 0.0, "lon": -77.04891133333334, "name": "26b31313073c1e2a9d40e434e1487cb2"}, {"bike_id": "77de515fef8dd336bdcdef9ebe7d0f9c", "type": "electric_scooter", "is_disabled": 0, "lat": 38.9197685, "rental_uris": {"ios": "https://dc.lft.to/lastmile_qr_scan", "android": "https://dc.lft.to/lastmile_qr_scan"}, "is_reserved": 0, "fusion_lon": 0.0, "fusion_lat": 0.0, "lon": -77.04162066666666, "name": "77de515fef8dd336bdcdef9ebe7d0f9c"}, {"bike_id": "914943a921c7fe2eab692c7c8b8a0d04", "type": "electric_scooter", "is_disabled": 0, "lat": 38.8806105, "rental_uris": {"ios": "https://dc.lft.to/lastmile_qr_scan", "android": "https://dc.lft.to/lastmile_qr_scan"}, "is_reserved": 0, "fusion_lon": 0.0, "fusion_lat": 0.0, "lon": -77.025565, "name": "914943a921c7fe2eab692c7c8b8a0d04"}, {"bike_id": "e6e26518ccf357a33257108c6361a2f5", "type": "electric_scooter", "is_disabled": 0, "lat": 38.915885833333334, "rental_uris": {"ios": "https://dc.lft.to/lastmile_qr_scan", "android": "https://dc.lft.to/lastmile_qr_scan"}, "is_reserved": 0, "fusion_lon": 0.0, "fusion_lat": 0.0, "lon": -77.00198033333334, "name": "e6e26518ccf357a33257108c6361a2f5"}, {"bike_id": "9b282cf7faa0bd0d2b815071f7566bf4", "type": "electric_scooter", "is_disabled": 0, "lat": 38.90544033333333, "rental_uris": {"ios": "https://dc.lft.to/lastmile_qr_scan", "android": "https://dc.lft.to/lastmile_qr_scan"}, "is_reserved": 0, "fusion_lon": 0.0, "fusion_lat": 0.0, "lon": -77.05802783333333, "name": "9b282cf7faa0bd0d2b815071f7566bf4"}, {"bike_id": "d4477e1a27d4bc703d627875d616732c", "type": "electric_scooter", "is_disabled": 0, "lat": 38.8996785, "rental_uris": {"ios": "https://dc.lft.to/lastmile_qr_scan", "android": "https://dc.lft.to/lastmile_qr_scan"}, "is_reserved": 0, "fusion_lon": 0.0, "fusion_lat": 0.0, "lon": -76.98308966666667, "name": "d4477e1a27d4bc703d627875d616732c"}, {"bike_id": "75de8749cc15320dc9e7e57edd34399b", "type": "electric_scooter", "is_disabled": 0, "lat": 38.904720833333336, "rental_uris": {"ios": "https://dc.lft.to/lastmile_qr_scan", "android": "https://dc.lft.to/lastmile_qr_scan"}, "is_reserved": 0, "fusion_lon": 0.0, "fusion_lat": 0.0, "lon": -77.00902866666667, "name": "75de8749cc15320dc9e7e57edd34399b"}, {"bike_id": "c120e0f3ccd70a237eeb40b8502a489f", "type": "electric_scooter", "is_disabled": 0, "lat": 38.89738466666667, "rental_uris": {"ios": "https://dc.lft.to/lastmile_qr_scan", "android": "https://dc.lft.to/lastmile_qr_scan"}, "is_reserved": 0, "fusion_lon": 0.0, "fusion_lat": 0.0, "lon": -76.94726483333334, "name": "c120e0f3ccd70a237eeb40b8502a489f"}, {"bike_id": "7953f6ac6f436c96996e15e70afc2f9e", "type": "electric_scooter", "is_disabled": 0, "lat": 38.92149766666667, "rental_uris": {"ios": "https://dc.lft.to/lastmile_qr_scan", "android": "https://dc.lft.to/lastmile_qr_scan"}, "is_reserved": 0, "fusion_lon": 0.0, "fusion_lat": 0.0, "lon": -77.03518833333334, "name": "7953f6ac6f436c96996e15e70afc2f9e"}, {"bike_id": "fdf9dd3b330a3e38c374bd55b7aa643f", "type": "electric_scooter", "is_disabled": 0, "lat": 38.90510583333333, "rental_uris": {"ios": "https://dc.lft.to/lastmile_qr_scan", "android": "https://dc.lft.to/lastmile_qr_scan"}, "is_reserved": 0, "fusion_lon": 0.0, "fusion_lat": 0.0, "lon": -77.06439683333333, "name": "fdf9dd3b330a3e38c374bd55b7aa643f"}, {"bike_id": "9e46cbc1dad2f3e6867f148bc1f008b0", "type": "electric_scooter", "is_disabled": 0, "lat": 38.91194983333333, "rental_uris": {"ios": "https://dc.lft.to/lastmile_qr_scan", "android": "https://dc.lft.to/lastmile_qr_scan"}, "is_reserved": 0, "fusion_lon": 0.0, "fusion_lat": 0.0, "lon": -77.04033116666666, "name": "9e46cbc1dad2f3e6867f148bc1f008b0"}, {"bike_id": "711b32cd9212518b01661c8d31957ba2", "type": "electric_scooter", "is_disabled": 0, "lat": 38.901347333333334, "rental_uris": {"ios": "https://dc.lft.to/lastmile_qr_scan", "android": "https://dc.lft.to/lastmile_qr_scan"}, "is_reserved": 0, "fusion_lon": 0.0, "fusion_lat": 0.0, "lon": -77.00327466666667, "name": "711b32cd9212518b01661c8d31957ba2"}, {"bike_id": "cb9b75751d73b6eb9ad39066fbeaf61b", "type": "electric_scooter", "is_disabled": 0, "lat": 38.91329833333333, "rental_uris": {"ios": "https://dc.lft.to/lastmile_qr_scan", "android": "https://dc.lft.to/lastmile_qr_scan"}, "is_reserved": 0, "fusion_lon": 0.0, "fusion_lat": 0.0, "lon": -77.03183966666667, "name": "cb9b75751d73b6eb9ad39066fbeaf61b"}, {"bike_id": "904e50ff3fb1f33d8ac44195ec472d6c", "type": "electric_scooter", "is_disabled": 0, "lat": 38.8947515, "rental_uris": {"ios": "https://dc.lft.to/lastmile_qr_scan", "android": "https://dc.lft.to/lastmile_qr_scan"}, "is_reserved": 0, "fusion_lon": 0.0, "fusion_lat": 0.0, "lon": -76.94862333333333, "name": "904e50ff3fb1f33d8ac44195ec472d6c"}, {"bike_id": "3234364cba3852af5b90fffa89de4f4a", "type": "electric_scooter", "is_disabled": 0, "lat": 38.914834166666665, "rental_uris": {"ios": "https://dc.lft.to/lastmile_qr_scan", "android": "https://dc.lft.to/lastmile_qr_scan"}, "is_reserved": 0, "fusion_lon": 0.0, "fusion_lat": 0.0, "lon": -77.03764366666667, "name": "3234364cba3852af5b90fffa89de4f4a"}, {"bike_id": "6d83fe9ab4afcd817a9eaaca36ea963f", "type": "electric_scooter", "is_disabled": 0, "lat": 38.907615166666666, "rental_uris": {"ios": "https://dc.lft.to/lastmile_qr_scan", "android": "https://dc.lft.to/lastmile_qr_scan"}, "is_reserved": 0, "fusion_lon": 0.0, "fusion_lat": 0.0, "lon": -77.01699966666666, "name": "6d83fe9ab4afcd817a9eaaca36ea963f"}, {"bike_id": "e2cae0b035d31ee7f96cbd424967b97f", "type": "electric_scooter", "is_disabled": 0, "lat": 38.91552816666667, "rental_uris": {"ios": "https://dc.lft.to/lastmile_qr_scan", "android": "https://dc.lft.to/lastmile_qr_scan"}, "is_reserved": 0, "fusion_lon": 0.0, "fusion_lat": 0.0, "lon": -77.022092, "name": "e2cae0b035d31ee7f96cbd424967b97f"}, {"bike_id": "c7a6d5b12ff41cfc108442e33ee10a19", "type": "electric_scooter", "is_disabled": 0, "lat": 38.897072333333334, "rental_uris": {"ios": "https://dc.lft.to/lastmile_qr_scan", "android": "https://dc.lft.to/lastmile_qr_scan"}, "is_reserved": 0, "fusion_lon": 0.0, "fusion_lat": 0.0, "lon": -77.008301, "name": "c7a6d5b12ff41cfc108442e33ee10a19"}, {"bike_id": "490a0d0593ab5b63e63781b7d0739821", "type": "electric_scooter", "is_disabled": 0, "lat": 38.905253, "rental_uris": {"ios": "https://dc.lft.to/lastmile_qr_scan", "android": "https://dc.lft.to/lastmile_qr_scan"}, "is_reserved": 0, "fusion_lon": 0.0, "fusion_lat": 0.0, "lon": -77.017196, "name": "490a0d0593ab5b63e63781b7d0739821"}, {"bike_id": "82bbe7330e44d48de068959bdd4145e8", "type": "electric_scooter", "is_disabled": 0, "lat": 38.916955333333334, "rental_uris": {"ios": "https://dc.lft.to/lastmile_qr_scan", "android": "https://dc.lft.to/lastmile_qr_scan"}, "is_reserved": 0, "fusion_lon": 0.0, "fusion_lat": 0.0, "lon": -77.03767633333334, "name": "82bbe7330e44d48de068959bdd4145e8"}, {"bike_id": "fbfd2342027ee4060ce6d3d49b18ddfc", "type": "electric_scooter", "is_disabled": 0, "lat": 38.92527233333333, "rental_uris": {"ios": "https://dc.lft.to/lastmile_qr_scan", "android": "https://dc.lft.to/lastmile_qr_scan"}, "is_reserved": 0, "fusion_lon": 0.0, "fusion_lat": 0.0, "lon": -77.042716, "name": "fbfd2342027ee4060ce6d3d49b18ddfc"}, {"bike_id": "b7fa6c5bf54feff170f4922fcc53835a", "type": "electric_scooter", "is_disabled": 0, "lat": 38.902610333333335, "rental_uris": {"ios": "https://dc.lft.to/lastmile_qr_scan", "android": "https://dc.lft.to/lastmile_qr_scan"}, "is_reserved": 0, "fusion_lon": 0.0, "fusion_lat": 0.0, "lon": -77.05480633333333, "name": "b7fa6c5bf54feff170f4922fcc53835a"}, {"bike_id": "6e24a3afbdf644c4661b8cca16889124", "type": "electric_bike", "is_disabled": 0, "lat": 38.874805333333335, "rental_uris": {"ios": "https://dc.lft.to/lastmile_qr_scan", "android": "https://dc.lft.to/lastmile_qr_scan"}, "is_reserved": 0, "fusion_lon": 0.0, "fusion_lat": 0.0, "lon": -76.965262, "name": "6e24a3afbdf644c4661b8cca16889124"}, {"bike_id": "fcb495a5fcb55be8d87e3e57fc02e808", "type": "electric_scooter", "is_disabled": 0, "lat": 38.94005133333334, "rental_uris": {"ios": "https://dc.lft.to/lastmile_qr_scan", "android": "https://dc.lft.to/lastmile_qr_scan"}, "is_reserved": 0, "fusion_lon": 0.0, "fusion_lat": 0.0, "lon": -77.02507733333333, "name": "fcb495a5fcb55be8d87e3e57fc02e808"}, {"bike_id": "9d7d4364dc6d39a894762536e25d00f1", "type": "electric_scooter", "is_disabled": 0, "lat": 38.89839516666667, "rental_uris": {"ios": "https://dc.lft.to/lastmile_qr_scan", "android": "https://dc.lft.to/lastmile_qr_scan"}, "is_reserved": 0, "fusion_lon": 0.0, "fusion_lat": 0.0, "lon": -76.94636216666666, "name": "9d7d4364dc6d39a894762536e25d00f1"}, {"bike_id": "9b7484bcc83b8f5a7659acc8de3b19ac", "type": "electric_scooter", "is_disabled": 0, "lat": 38.9092125, "rental_uris": {"ios": "https://dc.lft.to/lastmile_qr_scan", "android": "https://dc.lft.to/lastmile_qr_scan"}, "is_reserved": 0, "fusion_lon": 0.0, "fusion_lat": 0.0, "lon": -76.9996615, "name": "9b7484bcc83b8f5a7659acc8de3b19ac"}, {"bike_id": "df4ecce9f349be27e75c96b4ddbd85e9", "type": "electric_scooter", "is_disabled": 0, "lat": 38.900412333333335, "rental_uris": {"ios": "https://dc.lft.to/lastmile_qr_scan", "android": "https://dc.lft.to/lastmile_qr_scan"}, "is_reserved": 0, "fusion_lon": 0.0, "fusion_lat": 0.0, "lon": -77.03649016666667, "name": "df4ecce9f349be27e75c96b4ddbd85e9"}, {"bike_id": "393c34c40a28e224fda651e5a64466b0", "type": "electric_scooter", "is_disabled": 0, "lat": 38.892927, "rental_uris": {"ios": "https://dc.lft.to/lastmile_qr_scan", "android": "https://dc.lft.to/lastmile_qr_scan"}, "is_reserved": 0, "fusion_lon": 0.0, "fusion_lat": 0.0, "lon": -77.048735, "name": "393c34c40a28e224fda651e5a64466b0"}, {"bike_id": "4e19018ed1259d435bc1975a5ee5ee16", "type": "electric_scooter", "is_disabled": 0, "lat": 38.90712283333333, "rental_uris": {"ios": "https://dc.lft.to/lastmile_qr_scan", "android": "https://dc.lft.to/lastmile_qr_scan"}, "is_reserved": 0, "fusion_lon": 0.0, "fusion_lat": 0.0, "lon": -77.02395466666667, "name": "4e19018ed1259d435bc1975a5ee5ee16"},