{"data": {"bikes": [{"rental_uris": {"ios": "https://dc.lft.to/lastmile_qr_scan", "android": "https://dc.lft.to/lastmile_qr_scan"}, "type": "electric_scooter", "name": "fe05b04e146d9cdcaddf4c8c0ef41f95", "is_reserved": 0, "lon": -77.03377033333334, "is_disabled": 0, "fusion_lat": 0.0, "lat": 38.901354833333336, "bike_id": "fe05b04e146d9cdcaddf4c8c0ef41f95", "fusion_lon": 0.0}, {"rental_uris": {"ios": "https://dc.lft.to/lastmile_qr_scan", "android": "https://dc.lft.to/lastmile_qr_scan"}, "type": "electric_scooter", "name": "a4e1f18891dd5d7d56c9deadbf3b4e3f", "is_reserved": 0, "lon": -77.0269415, "is_disabled": 0, "fusion_lat": 0.0, "lat": 38.9168695, "bike_id": "a4e1f18891dd5d7d56c9deadbf3b4e3f", "fusion_lon": 0.0}, {"rental_uris": {"ios": "https://dc.lft.to/lastmile_qr_scan", "android": "https://dc.lft.to/lastmile_qr_scan"}, "type": "electric_bike", "name": "0851d2c830f3ffa2caeddbd039c35cbc", "is_reserved": 0, "lon": -76.98688566666667, "is_disabled": 0, "fusion_lat": 0.0, "lat": 38.944779833333335, "bike_id": "0851d2c830f3ffa2caeddbd039c35cbc", "fusion_lon": 0.0}, {"rental_uris": {"ios": "https://dc.lft.to/lastmile_qr_scan", "android": "https://dc.lft.to/lastmile_qr_scan"}, "type": "electric_scooter", "name": "637aa41e31c513b202fcd07b3b57a802", "is_reserved": 0, "lon": -76.98356233333334, "is_disabled": 0, "fusion_lat": 0.0, "lat": 38.887497, "bike_id": "637aa41e31c513b202fcd07b3b57a802", "fusion_lon": 0.0}, {"rental_uris": {"ios": "https://dc.lft.to/lastmile_qr_scan", "android": "https://dc.lft.to/lastmile_qr_scan"}, "type": "electric_scooter", "name": "524ac01bfb675e5a67605e9b0198ba5b", "is_reserved": 0, "lon": -77.02243333333334, "is_disabled": 0, "fusion_lat": 0.0, "lat": 38.894678, "bike_id": "524ac01bfb675e5a67605e9b0198ba5b", "fusion_lon": 0.0}, {"rental_uris": {"ios": "https://dc.lft.to/lastmile_qr_scan", "android": "https://dc.lft.to/lastmile_qr_scan"}, "type": "electric_scooter", "name": "f85bfd4576ed1617b37fcbd531c19658", "is_reserved": 0, "lon": -77.04869116666667, "is_disabled": 0, "fusion_lat": 0.0, "lat": 38.911066, "bike_id": "f85bfd4576ed1617b37fcbd531c19658", "fusion_lon": 0.0}, {"rental_uris": {"ios": "https://dc.lft.to/lastmile_qr_scan", "android": "https://dc.lft.to/lastmile_qr_scan"}, "type": "electric_scooter", "name": "2fe7a77a71e60bdbb44ec291f98c1870", "is_reserved": 0, "lon": -77.02315566666667, "is_disabled": 0, "fusion_lat": 0.0, "lat": 38.93058583333333, "bike_id": "2fe7a77a71e60bdbb44ec291f98c1870", "fusion_lon": 0.0}, {"rental_uris": {"ios": "https://dc.lft.to/lastmile_qr_scan", "android": "https://dc.lft.to/lastmile_qr_scan"}, "type": "electric_scooter", "name": "e98b586d15197eb5b54b175bd68f9e9c", "is_reserved": 0, "lon": -77.03456283333334, "is_disabled": 0, "fusion_lat": 0.0, "lat": 38.917197, "bike_id": "e98b586d15197eb5b54b175bd68f9e9c", "fusion_lon": 0.0}, {"rental_uris": {"ios": "https://dc.lft.to/lastmile_qr_scan", "android": "https://dc.lft.to/lastmile_qr_scan"}, "type": "electric_scooter", "name": "40e25643129bf4af3a7e5f63fed8a1f5", "is_reserved": 0, "lon": -77.0417075, "is_disabled": 0, "fusion_lat": 0.0, "lat": 38.9201225, "bike_id": "40e25643129bf4af3a7e5f63fed8a1f5", "fusion_lon": 0.0}, {"rental_uris": {"ios": "https://dc.lft.to/lastmile_qr_scan", "android": "https://dc.lft.to/lastmile_qr_scan"}, "type": "electric_scooter", "name": "8f882e7c7c2459473d339ca6fa125212", "is_reserved": 0, "lon": -77.04867066666667, "is_disabled": 0, "fusion_lat": 0.0, "lat": 38.90908966666667, "bike_id": "8f882e7c7c2459473d339ca6fa125212", "fusion_lon": 0.0}, {"rental_uris": {"ios": "https://dc.lft.to/lastmile_qr_scan", "android": "https://dc.lft.to/lastmile_qr_scan"}, "type": "electric_scooter", "name": "e45243733339fd6f77344523fed9ecf4", "is_reserved": 0, "lon": -76.9990835, "is_disabled": 0, "fusion_lat": 0.0, "lat": 38.937443, "bike_id": "e45243733339fd6f77344523fed9ecf4", "fusion_lon": 0.0}, {"rental_uris": {"ios": "https://dc.lft.to/lastmile_qr_scan", "android": "https://dc.lft.to/lastmile_qr_scan"}, "type": "electric_bike", "name": "f2d9e85c365229820f70d5bf93d25d6c", "is_reserved": 0, "lon": -77.03424816666667, "is_disabled": 0, "fusion_lat": 0.0, "lat": 38.966241333333336, "bike_id": "f2d9e85c365229820f70d5bf93d25d6c", "fusion_lon": 0.0}, {"rental_uris": {"ios": "https://dc.lft.to/lastmile_qr_scan", "android": "https://dc.lft.to/lastmile_qr_scan"}, "type": "electric_scooter", "name": "5228b8580f4a660048a0f2d9b246249f", "is_reserved": 0, "lon": -77.04668516666666, "is_disabled": 0, "fusion_lat": 0.0, "lat": 38.8974915, "bike_id": "5228b8580f4a660048a0f2d9b246249f", "fusion_lon": 0.0}, {"rental_uris": {"ios": "https://dc.lft.to/lastmile_qr_scan", "android": "https://dc.lft.to/lastmile_qr_scan"}, "type": "electric_bike", "name": "d0ac5963cf4964a308822de4eba262af", "is_reserved": 0, "lon": -76.902924, "is_disabled": 0, "fusion_lat": 0.0, "lat": 39.00284516666667, "bike_id": "d0ac5963cf4964a308822de4eba262af", "fusion_lon": 0.0}, {"rental_uris": {"ios": "https://dc.lft.to/lastmile_qr_scan", "android": "https://dc.lft.to/lastmile_qr_scan"}, "type": "electric_scooter", "name": "67ca890d29810b479f2f89673efa2d69", "is_reserved": 0, "lon": -76.99842733333334, "is_disabled": 0, "fusion_lat": 0.0, "lat": 38.90649883333333, "bike_id": "67ca890d29810b479f2f89673efa2d69", "fusion_lon": 0.0}, {"rental_uris": {"ios": "https://dc.lft.to/lastmile_qr_scan", "android": "https://dc.lft.to/lastmile_qr_scan"}, "type": "electric_scooter", "name": "ed402bbfb0bd20a257625ed1bd1646f5", "is_reserved": 0, "lon": -77.04148216666667, "is_disabled": 0, "fusion_lat": 0.0, "lat": 38.92351566666667, "bike_id": "ed402bbfb0bd20a257625ed1bd1646f5", "fusion_lon": 0.0}, {"rental_uris": {"ios": "https://dc.lft.to/lastmile_qr_scan", "android": "https://dc.lft.to/lastmile_qr_scan"}, "type": "electric_scooter", "name": "ab9fa017514b68423e121f2a20b2d475", "is_reserved": 0, "lon": -77.00207483333334, "is_disabled": 0, "fusion_lat": 0.0, "lat": 38.91455083333334, "bike_id": "ab9fa017514b68423e121f2a20b2d475", "fusion_lon": 0.0}, {"rental_uris": {"ios": "https://dc.lft.to/lastmile_qr_scan", "android": "https://dc.lft.to/lastmile_qr_scan"}, "type": "electric_scooter", "name": "81e467effce882ef0b6b2f6335b1acdc", "is_reserved": 0, "lon": -77.02177183333333, "is_disabled": 0, "fusion_lat": 0.0, "lat": 38.905443, "bike_id": "81e467effce882ef0b6b2f6335b1acdc", "fusion_lon": 0.0}, {"rental_uris": {"ios": "https://dc.lft.to/lastmile_qr_scan", "android": "https://dc.lft.to/lastmile_qr_scan"}, "type": "electric_scooter", "name": "6925d9a338fb8eb77ed03389be62f971", "is_reserved": 0, "lon": -77.03657016666666, "is_disabled": 0, "fusion_lat": 0.0, "lat": 38.92122, "bike_id": "6925d9a338fb8eb77ed03389be62f971", "fusion_lon": 0.0}, {"rental_uris": {"ios": "https://dc.lft.to/lastmile_qr_scan", "android": "https://dc.lft.to/lastmile_qr_scan"}, "type": "electric_scooter", "name": "50cabba0adc768f1c0b174183eda96e9", "is_reserved": 0, "lon": -76.99407816666667, "is_disabled": 0, "fusion_lat": 0.0, "lat": 38.877915, "bike_id": "50cabba0adc768f1c0b174183eda96e9", "fusion_lon": 0.0}, {"rental_uris": {"ios": "https://dc.lft.to/lastmile_qr_scan", "android": "https://dc.lft.to/lastmile_qr_scan"}, "type": "electric_scooter", "name": "3c92427c002a74b895e7d2fe3fb5d976", "is_reserved": 0, "lon": -77.01135216666667, "is_disabled": 0, "fusion_lat": 0.0, "lat": 38.917054666666665, "bike_id": "3c92427c002a74b895e7d2fe3fb5d976", "fusion_lon": 0.0}, {"rental_uris": {"ios": "https://dc.lft.to/lastmile_qr_scan", "android": "https://dc.lft.to/lastmile_qr_scan"}, "type": "electric_scooter", "name": "966522cb2b9297f3a0dde7e5cc1bff21", "is_reserved": 0, "lon": -76.99854933333333, "is_disabled": 0, "fusion_lat": 0.0, "lat": 38.903295166666666, "bike_id": "966522cb2b9297f3a0dde7e5cc1bff21", "fusion_lon": 0.0}, {"rental_uris": {"ios": "https://dc.lft.to/lastmile_qr_scan", "android": "https://dc.lft.to/lastmile_qr_scan"}, "type": "electric_scooter", "name": "6d1e5a11d28ad6eeebeb77d626732c68", "is_reserved": 0, "lon": -77.03971533333333, "is_disabled": 0, "fusion_lat": 0.0, "lat": 38.900124166666664, "bike_id": "6d1e5a11d28ad6eeebeb77d626732c68", "fusion_lon": 0.0}, {"rental_uris": {"ios": "https://dc.lft.to/lastmile_qr_scan", "android": "https://dc.lft.to/lastmile_qr_scan"}, "type": "electric_scooter", "name": "5e5ea88209ff7fd0196e23ce0c5fb242", "is_reserved": 0, "lon": -77.0217175, "is_disabled": 0, "fusion_lat": 0.0, "lat": 38.911071, "bike_id": "5e5ea88209ff7fd0196e23ce0c5fb242", "fusion_lon": 0.0}, {"rental_uris": {"ios": "https://dc.lft.to/lastmile_qr_scan", "android": "https://dc.lft.to/lastmile_qr_scan"}, "type": "electric_scooter", "name": "a7f9485424dc74a7e64101258021693b", "is_reserved": 0, "lon": -77.02953233333334, "is_disabled": 0, "fusion_lat": 0.0, "lat": 38.90398283333333, "bike_id": "a7f9485424dc74a7e64101258021693b", "fusion_lon": 0.0}, {"rental_uris": {"ios": "https://dc.lft.to/lastmile_qr_scan", "android": "https://dc.lft.to/lastmile_qr_scan"}, "type": "electric_bike", "name": "b492e58e6db78f2f86b49cc234be76be", "is_reserved": 0, "lon": -76.98718616666666, "is_disabled": 0, "fusion_lat": 0.0, "lat": 38.863321166666665, "bike_id": "b492e58e6db78f2f86b49cc234be76be", "fusion_lon": 0.0}, {"rental_uris": {"ios": "https://dc.lft.to/lastmile_qr_scan", "android": "https://dc.lft.to/lastmile_qr_scan"}, "type": "electric_scooter", "name": "e287d8f7b0469b16fed94bf80f30bb44", "is_reserved": 0, "lon": -77.02798433333334, "is_disabled": 0, "fusion_lat": 0.0, "lat": 38.92312833333333, "bike_id": "e287d8f7b0469b16fed94bf80f30bb44", "fusion_lon": 0.0}, {"rental_uris": {"ios": "https://dc.lft.to/lastmile_qr_scan", "android": "https://dc.lft.to/lastmile_qr_scan"}, "type": "electric_bike", "name": "797f62578c01de765235e26b676c0d81", "is_reserved": 0, "lon": -77.03279083333334, "is_disabled": 0, "fusion_lat": 0.0, "lat": 38.96128066666667, "bike_id": "797f62578c01de765235e26b676c0d81", "fusion_lon": 0.0}, {"rental_uris": {"ios": "https://dc.lft.to/lastmile_qr_scan", "android": "https://dc.lft.to/lastmile_qr_scan"}, "type": "electric_scooter", "name": "5ed7712f6caaaa544ea55045676f85c7", "is_reserved": 0, "lon": -77.00102133333333, "is_disabled": 0, "fusion_lat": 0.0, "lat": 38.8762355, "bike_id": "5ed7712f6caaaa544ea55045676f85c7", "fusion_lon": 0.0}, {"rental_uris": {"ios": "https://dc.lft.to/lastmile_qr_scan", "android": "https://dc.lft.to/lastmile_qr_scan"}, "type": "electric_scooter", "name": "33091ff0b1c24d916bbebbfe1a4017b4", "is_reserved": 0, "lon": -77.02297883333334, "is_disabled": 0, "fusion_lat": 0.0, "lat": 38.96127633333333, "bike_id": "33091ff0b1c24d916bbebbfe1a4017b4", "fusion_lon": 0.0}, {"rental_uris": {"ios": "https://dc.lft.to/lastmile_qr_scan", "android": "https://dc.lft.to/lastmile_qr_scan"}, "type": "electric_scooter", "name": "fff3ee14c03f450af778dafcc2b69e82", "is_reserved": 0, "lon": -77.00600966666667, "is_disabled": 0, "fusion_lat": 0.0, "lat": 38.87568183333333, "bike_id": "fff3ee14c03f450af778dafcc2b69e82", "fusion_lon": 0.0}, {"rental_uris": {"ios": "https://dc.lft.to/lastmile_qr_scan", "android": "https://dc.lft.to/lastmile_qr_scan"}, "type": "electric_scooter", "name": "abf06cbf8e751756477be4178a7b56d9", "is_reserved": 0, "lon": -77.01387033333333, "is_disabled": 0, "fusion_lat": 0.0, "lat": 38.878944833333335, "bike_id": "abf06cbf8e751756477be4178a7b56d9", "fusion_lon": 0.0}, {"rental_uris": {"ios": "https://dc.lft.to/lastmile_qr_scan", "android": "https://dc.lft.to/lastmile_qr_scan"}, "type": "electric_scooter", "name": "3e4d5ddcb72476118eee7b0c8f53ca95", "is_reserved": 0, "lon": -77.03374016666666, "is_disabled": 0, "fusion_lat": 0.0, "lat": 38.91032366666666, "bike_id": "3e4d5ddcb72476118eee7b0c8f53ca95", "fusion_lon": 0.0}, {"rental_uris": {"ios": "https://dc.lft.to/lastmile_qr_scan", "android": "https://dc.lft.to/lastmile_qr_scan"}, "type": "electric_scooter", "name": "1f03e687b7bcc337c4e820ff19dd047f", "is_reserved": 0, "lon": -77.03302766666667, "is_disabled": 0, "fusion_lat": 0.0, "lat": 38.926492333333336, "bike_id": "1f03e687b7bcc337c4e820ff19dd047f", "fusion_lon": 0.0}, {"rental_uris": {"ios": "https://dc.lft.to/lastmile_qr_scan", "android": "https://dc.lft.to/lastmile_qr_scan"}, "type": "electric_scooter", "name": "bd0fbf4eb3558d2593beb2e84a4e372d", "is_reserved": 0, "lon": -77.05365983333333, "is_disabled": 0, "fusion_lat": 0.0, "lat": 38.90409616666667, "bike_id": "bd0fbf4eb3558d2593beb2e84a4e372d", "fusion_lon": 0.0}, {"rental_uris": {"ios": "https://dc.lft.to/lastmile_qr_scan", "android": "https://dc.lft.to/lastmile_qr_scan"}, "type": "electric_bike", "name": "09cdb22c26d6ee3ca4841ab82d72f50b", "is_reserved": 0, "lon": -77.00204966666666, "is_disabled": 0, "fusion_lat": 0.0, "lat": 38.988481166666666, "bike_id": "09cdb22c26d6ee3ca4841ab82d72f50b", "fusion_lon": 0.0}, {"rental_uris": {"ios": "https://dc.lft.to/lastmile_qr_scan", "android": "https://dc.lft.to/lastmile_qr_scan"}, "type": "electric_bike", "name": "912f16876eefc91c96aec9d229b69ff3", "is_reserved": 0, "lon": -77.03698033333333, "is_disabled": 0, "fusion_lat": 0.0, "lat": 38.93559916666667, "bike_id": "912f16876eefc91c96aec9d229b69ff3", "fusion_lon": 0.0}, {"rental_uris": {"ios": "https://dc.lft.to/lastmile_qr_scan", "android": "https://dc.lft.to/lastmile_qr_scan"}, "type": "electric_scooter", "name": "98c636bfb884217cb1aa4d961aa8c25b", "is_reserved": 0, "lon": -77.073101, "is_disabled": 0, "fusion_lat": 0.0, "lat": 38.92318266666667, "bike_id": "98c636bfb884217cb1aa4d961aa8c25b", "fusion_lon": 0.0}, {"rental_uris": {"ios": "https://dc.lft.to/lastmile_qr_scan", "android": "https://dc.lft.to/lastmile_qr_scan"}, "type": "electric_scooter", "name": "605fd2b85198948b5c8dbd853497cfa3", "is_reserved": 0, "lon": -77.0084985, "is_disabled": 0, "fusion_lat": 0.0, "lat": 38.87910816666667, "bike_id": "605fd2b85198948b5c8dbd853497cfa3", "fusion_lon": 0.0}, {"rental_uris": {"ios": "https://dc.lft.to/lastmile_qr_scan", "android": "https://dc.lft.to/lastmile_qr_scan"}, "type": "electric_scooter", "name": "b24b39688374efb2d611bbb8218b412c", "is_reserved": 0, "lon": -77.02706216666667, "is_disabled": 0, "fusion_lat": 0.0, "lat": 38.9051405, "bike_id": "b24b39688374efb2d611bbb8218b412c", "fusion_lon": 0.0}, {"rental_uris": {"ios": "https://dc.lft.to/lastmile_qr_scan", "android": "https://dc.lft.to/lastmile_qr_scan"}, "type": "electric_scooter", "name": "66ad0fef32b381c24dda309163fba785", "is_reserved": 0, "lon": -77.03962766666666, "is_disabled": 0, "fusion_lat": 0.0, "lat": 38.931497, "bike_id": "66ad0fef32b381c24dda309163fba785", "fusion_lon": 0.0}, {"rental_uris": {"ios": "https://dc.lft.to/lastmile_qr_scan", "android": "https://dc.lft.to/lastmile_qr_scan"}, "type": "electric_scooter", "name": "9d9d97f6f483270e2d5a273c84fc3d37", "is_reserved": 0, "lon": -77.02220983333333, "is_disabled": 0, "fusion_lat": 0.0, "lat": 38.9355265, "bike_id": "9d9d97f6f483270e2d5a273c84fc3d37", "fusion_lon": 0.0}, {"rental_uris": {"ios": "https://dc.lft.to/lastmile_qr_scan", "android": "https://dc.lft.to/lastmile_qr_scan"}, "type": "electric_scooter", "name": "aaf1eab92c78fe32d610ab051d67e4e3", "is_reserved": 0, "lon": -76.980723, "is_disabled": 0, "fusion_lat": 0.0, "lat": 38.9041115, "bike_id": "aaf1eab92c78fe32d610ab051d67e4e3", "fusion_lon": 0.0}, {"rental_uris": {"ios": "https://dc.lft.to/lastmile_qr_scan", "android": "https://dc.lft.to/lastmile_qr_scan"}, "type": "electric_scooter", "name": "40df927d1e56268f3fd0650da32a43d6", "is_reserved": 0, "lon": -77.0236805, "is_disabled": 0, "fusion_lat": 0.0, "lat": 38.909700666666666, "bike_id": "40df927d1e56268f3fd0650da32a43d6", "fusion_lon": 0.0}, {"rental_uris": {"ios": "https://dc.lft.to/lastmile_qr_scan", "android": "https://dc.lft.to/lastmile_qr_scan"}, "type": "electric_scooter", "name": "0584b2204c389e4ea53ba6f99d48d8c9", "is_reserved": 0, "lon": -77.03896866666666, "is_disabled": 0, "fusion_lat": 0.0, "lat": 38.92224383333333, "bike_id": "0584b2204c389e4ea53ba6f99d48d8c9", "fusion_lon": 0.0}, {"rental_uris": {"ios": "https://dc.lft.to/lastmile_qr_scan", "android": "https://dc.lft.to/lastmile_qr_scan"}, "type": "electric_scooter", "name": "5f8d6ddac3e119394c1653c4e69302b0", "is_reserved": 0, "lon": -76.94379733333334, "is_disabled": 0, "fusion_lat": 0.0, "lat": 38.89114716666667, "bike_id": "5f8d6ddac3e119394c1653c4e69302b0", "fusion_lon": 0.0}, {"rental_uris": {"ios": "https://dc.lft.to/lastmile_qr_scan", "android": "https://dc.lft.to/lastmile_qr_scan"}, "type": "electric_scooter", "name": "c238c4b142a020d3bd3ef578790b932b", "is_reserved": 0, "lon": -77.04633183333333, "is_disabled": 0, "fusion_lat": 0.0, "lat": 38.906743, "bike_id": "c238c4b142a020d3bd3ef578790b932b", "fusion_lon": 0.0}, {"rental_uris": {"ios": "https://dc.lft.to/lastmile_qr_scan", "android": "https://dc.lft.to/lastmile_qr_scan"}, "type": "electric_scooter", "name": "f64040e1ca81e23cfbccc4e7bcd56313", "is_reserved": 0, "lon": -77.03022283333334, "is_disabled": 0, "fusion_lat": 0.0, "lat": 38.92669016666667, "bike_id": "f64040e1ca81e23cfbccc4e7bcd56313", "fusion_lon": 0.0}, {"rental_uris": {"ios": "https://dc.lft.to/lastmile_qr_scan", "android": "https://dc.lft.to/lastmile_qr_scan"}, "type": "electric_scooter", "name": "c582657b461185cc3fb3c44b35f847af", "is_reserved": 0, "lon": -76.94646833333333, "is_disabled": 0, "fusion_lat": 0.0, "lat": 38.89826816666667, "bike_id": "c582657b461185cc3fb3c44b35f847af", "fusion_lon": 0.0}, {"rental_uris": {"ios": "https://dc.lft.to/lastmile_qr_scan", "android": "https://dc.lft.to/lastmile_qr_scan"}, "type": "electric_scooter", "name": "6207e7b4862d3059b0f8ee614cad8e03", "is_reserved": 0, "lon": -76.97547866666666, "is_disabled": 0, "fusion_lat": 0.0, "lat": 38.8757505, "bike_id": "6207e7b4862d3059b0f8ee614cad8e03", "fusion_lon": 0.0}, {"rental_uris": {"ios": "https://dc.lft.to/lastmile_qr_scan", "android": "https://dc.lft.to/lastmile_qr_scan"}, "type": "electric_scooter", "name": "dd4b98c2067fa55e4ea12b6867dfedac", "is_reserved": 0, "lon": -77.04031066666667, "is_disabled": 0, "fusion_lat": 0.0, "lat": 38.9118925, "bike_id": "dd4b98c2067fa55e4ea12b6867dfedac", "fusion_lon": 0.0}, {"rental_uris": {"ios": "https://dc.lft.to/lastmile_qr_scan", "android": "https://dc.lft.to/lastmile_qr_scan"}, "type": "electric_bike", "name": "c896ae7cb52ee32b262849fd9eeb1009", "is_reserved": 0, "lon": -76.96055816666667, "is_disabled": 0, "fusion_lat": 0.0, "lat": 38.8832675, "bike_id": "c896ae7cb52ee32b262849fd9eeb1009", "fusion_lon": 0.0}, {"rental_uris": {"ios": "https://dc.lft.to/lastmile_qr_scan", "android": "https://dc.lft.to/lastmile_qr_scan"}, "type": "electric_scooter", "name": "ed1d684538c5a704d85b88348524bfb9", "is_reserved": 0, "lon": -77.02850633333334, "is_disabled": 0, "fusion_lat": 0.0, "lat": 38.902299, "bike_id": "ed1d684538c5a704d85b88348524bfb9", "fusion_lon": 0.0}, {"rental_uris": {"ios": "https://dc.lft.to/lastmile_qr_scan", "android": "https://dc.lft.to/lastmile_qr_scan"}, "type": "electric_scooter", "name": "545ef66a4decf36050b00f54d1f33996", "is_reserved": 0, "lon": -77.02822983333333, "is_disabled": 0, "fusion_lat": 0.0, "lat": 38.893536833333336, "bike_id": "545ef66a4decf36050b00f54d1f33996", "fusion_lon": 0.0}, {"rental_uris": {"ios": "https://dc.lft.to/lastmile_qr_scan", "android": "https://dc.lft.to/lastmile_qr_scan"}, "type": "electric_bike", "name": "4461bbc670943ce686b7f10f66ee8976", "is_reserved": 0, "lon": -77.095198, "is_disabled": 0, "fusion_lat": 0.0, "lat": 38.83807566666667, "bike_id": "4461bbc670943ce686b7f10f66ee8976", "fusion_lon": 0.0}, {"rental_uris": {"ios": "https://dc.lft.to/lastmile_qr_scan", "android": "https://dc.lft.to/lastmile_qr_scan"}, "type": "electric_scooter", "name": "dce649eb552bb57c4b7bef5c6e604ef3", "is_reserved": 0, "lon": -77.05020316666666, "is_disabled": 0, "fusion_lat": 0.0, "lat": 38.90522333333333, "bike_id": "dce649eb552bb57c4b7bef5c6e604ef3", "fusion_lon": 0.0}, {"rental_uris": {"ios": "https://dc.lft.to/lastmile_qr_scan", "android": "https://dc.lft.to/lastmile_qr_scan"}, "type": "electric_bike", "name": "fcfbd9921faf5a708bf3862f0ac26d30", "is_reserved": 0, "lon": -77.029782, "is_disabled": 0, "fusion_lat": 0.0, "lat": 38.93498666666667, "bike_id": "fcfbd9921faf5a708bf3862f0ac26d30", "fusion_lon": 0.0}, {"rental_uris": {"ios": "https://dc.lft.to/lastmile_qr_scan", "android": "https://dc.lft.to/lastmile_qr_scan"}, "type": "electric_scooter", "name": "3f24e0fb4b46cc4708143912fbe7c55f", "is_reserved": 0, "lon": -77.02271983333333, "is_disabled": 0, "fusion_lat": 0.0, "lat": 38.8983855, "bike_id": "3f24e0fb4b46cc4708143912fbe7c55f", "fusion_lon": 0.0}, {"rental_uris": {"ios": "https://dc.lft.to/lastmile_qr_scan", "android": "https://dc.lft.to/lastmile_qr_scan"}, "type": "electric_bike", "name": "855ef66cdcf86160d1628d6d68b6222a", "is_reserved": 0, "lon": -77.006108, "is_disabled": 0, "fusion_lat": 0.0, "lat": 38.823987, "bike_id": "855ef66cdcf86160d1628d6d68b6222a", "fusion_lon": 0.0}, {"rental_uris": {"ios": "https://dc.lft.to/lastmile_qr_scan", "android": "https://dc.lft.to/lastmile_qr_scan"}, "type": "electric_scooter", "name": "0960e96098750ada8286bec024116772", "is_reserved": 0, "lon": -77.0230855, "is_disabled": 0, "fusion_lat": 0.0, "lat": 38.89655916666667, "bike_id": "0960e96098750ada8286bec024116772", "fusion_lon": 0.0}, {"rental_uris": {"ios": "https://dc.lft.to/lastmile_qr_scan", "android": "https://dc.lft.to/lastmile_qr_scan"}, "type": "electric_bike", "name": "86f764cd4b4aaf8cb2714ed64a20f602", "is_reserved": 0, "lon": -76.907372, "is_disabled": 0, "fusion_lat": 0.0, "lat": 38.896175666666664, "bike_id": "86f764cd4b4aaf8cb2714ed64a20f602", "fusion_lon": 0.0}, {"rental_uris": {"ios": "https://dc.lft.to/lastmile_qr_scan", "android": "https://dc.lft.to/lastmile_qr_scan"}, "type": "electric_scooter", "name": "4873f145af3cb5d77eeb8e16c15bfc00", "is_reserved": 0, "lon": -77.0220005, "is_disabled": 0, "fusion_lat": 0.0, "lat": 38.91435633333333, "bike_id": "4873f145af3cb5d77eeb8e16c15bfc00", "fusion_lon": 0.0}, {"rental_uris": {"ios": "https://dc.lft.to/lastmile_qr_scan", "android": "https://dc.lft.to/lastmile_qr_scan"}, "type": "electric_scooter", "name": "2c7a1fd491ccbbf7653f21b82bacc35c", "is_reserved": 0, "lon": -77.03162033333334, "is_disabled": 0, "fusion_lat": 0.0, "lat": 38.915596, "bike_id": "2c7a1fd491ccbbf7653f21b82bacc35c", "fusion_lon": 0.0}, {"rental_uris": {"ios": "https://dc.lft.to/lastmile_qr_scan", "android": "https://dc.lft.to/lastmile_qr_scan"}, "type": "electric_scooter", "name": "401109d1e6241349fa82631a3c478f0b", "is_reserved": 0, "lon": -77.038546, "is_disabled": 0, "fusion_lat": 0.0, "lat": 38.916887333333335, "bike_id": "401109d1e6241349fa82631a3c478f0b", "fusion_lon": 0.0}, {"rental_uris": {"ios": "https://dc.lft.to/lastmile_qr_scan", "android": "https://dc.lft.to/lastmile_qr_scan"}, "type": "electric_scooter", "name": "297516c68b260376e7df90d470d06e5a", "is_reserved": 0, "lon": -77.03021033333333, "is_disabled": 0, "fusion_lat": 0.0, "lat": 38.878491, "bike_id": "297516c68b260376e7df90d470d06e5a", "fusion_lon": 0.0}, {"rental_uris": {"ios": "https://dc.lft.to/lastmile_qr_scan", "android": "https://dc.lft.to/lastmile_qr_scan"}, "type": "electric_scooter", "name": "df4e3f63659ea3c22aff9492a47eddb7", "is_reserved": 0, "lon": -77.02951033333333, "is_disabled": 0, "fusion_lat": 0.0, "lat": 38.91628266666667, "bike_id": "df4e3f63659ea3c22aff9492a47eddb7", "fusion_lon": 0.0}, {"rental_uris": {"ios": "https://dc.lft.to/lastmile_qr_scan", "android": "https://dc.lft.to/lastmile_qr_scan"}, "type": "electric_scooter", "name": "97016dc1ec020dfe345ed15588c6dcf9", "is_reserved": 0, "lon": -76.99939733333333, "is_disabled": 0, "fusion_lat": 0.0, "lat": 38.890899166666664, "bike_id": "97016dc1ec020dfe345ed15588c6dcf9", "fusion_lon": 0.0}, {"rental_uris": {"ios": "https://dc.lft.to/lastmile_qr_scan", "android": "https://dc.lft.to/lastmile_qr_scan"}, "type": "electric_scooter", "name": "899635f796912206585327e404d49833", "is_reserved": 0, "lon": -77.0015635, "is_disabled": 0, "fusion_lat": 0.0, "lat": 38.82132466666667, "bike_id": "899635f796912206585327e404d49833", "fusion_lon": 0.0}, {"rental_uris": {"ios": "https://dc.lft.to/lastmile_qr_scan", "android": "https://dc.lft.to/lastmile_qr_scan"}, "type": "electric_scooter", "name": "f05756483c68c083fc024295f5da1396", "is_reserved": 0, "lon": -77.01722666666667, "is_disabled": 0, "fusion_lat": 0.0, "lat": 38.892267333333336, "bike_id": "f05756483c68c083fc024295f5da1396", "fusion_lon": 0.0}, {"rental_uris": {"ios": "https://dc.lft.to/lastmile_qr_scan", "android": "https://dc.lft.to/lastmile_qr_scan"}, "type": "electric_bike", "name": "051aba55753832d4614aeb6af5b90c15", "is_reserved": 0, "lon": -76.975473, "is_disabled": 0, "fusion_lat": 0.0, "lat": 38.904297166666666, "bike_id": "051aba55753832d4614aeb6af5b90c15", "fusion_lon": 0.0}, {"rental_uris": {"ios": "https://dc.lft.to/lastmile_qr_scan", "android": "https://dc.lft.to/lastmile_qr_scan"}, "type": "electric_scooter", "name": "6d3b15402cb20204b0b0675e7d21d742", "is_reserved": 0, "lon": -77.030619, "is_disabled": 0, "fusion_lat": 0.0, "lat": 38.898208333333336, "bike_id": "6d3b15402cb20204b0b0675e7d21d742", "fusion_lon": 0.0}, {"rental_uris": {"ios": "https://dc.lft.to/lastmile_qr_scan", "android": "https://dc.lft.to/lastmile_qr_scan"}, "type": "electric_bike", "name": "2431928ac8ca2429a700892322491990", "is_reserved": 0, "lon": -76.9515785, "is_disabled": 0, "fusion_lat": 0.0, "lat": 39.08441333333333, "bike_id": "2431928ac8ca2429a700892322491990", "fusion_lon": 0.0}, {"rental_uris": {"ios": "https://dc.lft.to/lastmile_qr_scan", "android": "https://dc.lft.to/lastmile_qr_scan"}, "type": "electric_scooter", "name": "fd5f9657ba30b448ce16e2da9b5d1552", "is_reserved": 0, "lon": -77.04499516666667, "is_disabled": 0, "fusion_lat": 0.0, "lat": 38.919359166666666, "bike_id": "fd5f9657ba30b448ce16e2da9b5d1552", "fusion_lon": 0.0}, {"rental_uris": {"ios": "https://dc.lft.to/lastmile_qr_scan", "android": "https://dc.lft.to/lastmile_qr_scan"}, "type": "electric_scooter", "name": "f4e75ca2e1b220f766632454cd0d280a", "is_reserved": 0, "lon": -77.02962483333333, "is_disabled": 0, "fusion_lat": 0.0, "lat": 38.89821083333333, "bike_id": "f4e75ca2e1b220f766632454cd0d280a", "fusion_lon": 0.0}, {"rental_uris": {"ios": "https://dc.lft.to/lastmile_qr_scan", "android": "https://dc.lft.to/lastmile_qr_scan"}, "type": "electric_scooter", "name": "1dc826038e7cac89f2c45115b1bdd703", "is_reserved": 0, "lon": -76.93349133333334, "is_disabled": 0, "fusion_lat": 0.0, "lat": 38.899127166666666, "bike_id": "1dc826038e7cac89f2c45115b1bdd703", "fusion_lon": 0.0}, {"rental_uris": {"ios": "https://dc.lft.to/lastmile_qr_scan", "android": "https://dc.lft.to/lastmile_qr_scan"}, "type": "electric_bike", "name": "ab4496c6a8f36f2c82f7b31244f582c8", "is_reserved": 0, "lon": -77.07767633333333, "is_disabled": 0, "fusion_lat": 0.0, "lat": 38.93044733333333, "bike_id": "ab4496c6a8f36f2c82f7b31244f582c8", "fusion_lon": 0.0}, {"rental_uris": {"ios": "https://dc.lft.to/lastmile_qr_scan", "android": "https://dc.lft.to/lastmile_qr_scan"}, "type": "electric_scooter", "name": "4646e122689cedaaf652cca744f4c2d6", "is_reserved": 0, "lon": -77.03227116666666, "is_disabled": 0, "fusion_lat": 0.0, "lat": 38.925146166666664, "bike_id": "4646e122689cedaaf652cca744f4c2d6", "fusion_lon": 0.0}, {"rental_uris": {"ios": "https://dc.lft.to/lastmile_qr_scan", "android": "https://dc.lft.to/lastmile_qr_scan"}, "type": "electric_scooter", "name": "19cd286463101686a1f671fdf14e3c40", "is_reserved": 0, "lon": -77.064269, "is_disabled": 0, "fusion_lat": 0.0, "lat": 38.93562933333333, "bike_id": "19cd286463101686a1f671fdf14e3c40", "fusion_lon": 0.0}, {"rental_uris": {"ios": "https://dc.lft.to/lastmile_qr_scan", "android": "https://dc.lft.to/lastmile_qr_scan"}, "type": "electric_scooter", "name": "b6f5583d3323d57e6b3c9400ed7882a3", "is_reserved": 0, "lon": -77.06185016666667, "is_disabled": 0, "fusion_lat": 0.0, "lat": 38.91036233333333, "bike_id": "b6f5583d3323d57e6b3c9400ed7882a3", "fusion_lon": 0.0}, {"rental_uris": {"ios": "https://dc.lft.to/lastmile_qr_scan", "android": "https://dc.lft.to/lastmile_qr_scan"}, "type": "electric_bike", "name": "40c8787fca5a07c6bfb9086ddfc8cd25", "is_reserved": 0, "lon": -77.069478, "is_disabled": 0, "fusion_lat": 0.0, "lat": 38.836267166666666, "bike_id": "40c8787fca5a07c6bfb9086ddfc8cd25", "fusion_lon": 0.0}, {"rental_uris": {"ios": "https://dc.lft.to/lastmile_qr_scan", "android": "https://dc.lft.to/lastmile_qr_scan"}, "type": "electric_scooter", "name": "c4ef7f3014cd829c6a695aa3d837624a", "is_reserved": 0, "lon": -77.01150083333333, "is_disabled": 0, "fusion_lat": 0.0, "lat": 38.90962066666667, "bike_id": "c4ef7f3014cd829c6a695aa3d837624a", "fusion_lon": 0.0}, {"rental_uris": {"ios": "https://dc.lft.to/lastmile_qr_scan", "android": "https://dc.lft.to/lastmile_qr_scan"}, "type": "electric_scooter", "name": "83b166e3f6c8e814c2b13164f4341631", "is_reserved": 0, "lon": -76.97327433333334, "is_disabled": 0, "fusion_lat": 0.0, "lat": 38.90410133333334, "bike_id": "83b166e3f6c8e814c2b13164f4341631", "fusion_lon": 0.0}, {"rental_uris": {"ios": "https://dc.lft.to/lastmile_qr_scan", "android": "https://dc.lft.to/lastmile_qr_scan"}, "type": "electric_scooter", "name": "593ac73049d460ebbf0bf1b6fa1e8535", "is_reserved": 0, "lon": -77.03439133333333, "is_disabled": 0, "fusion_lat": 0.0, "lat": 38.9180375, "bike_id": "593ac73049d460ebbf0bf1b6fa1e8535", "fusion_lon": 0.0}, {"rental_uris": {"ios": "https://dc.lft.to/lastmile_qr_scan", "android": "https://dc.lft.to/lastmile_qr_scan"}, "type": "electric_scooter", "name": "935330c8687271e8356fea94ba8b05aa", "is_reserved": 0, "lon": -77.02997133333334, "is_disabled": 0, "fusion_lat": 0.0, "lat": 38.91695383333333, "bike_id": "935330c8687271e8356fea94ba8b05aa", "fusion_lon": 0.0}, {"rental_uris": {"ios": "https://dc.lft.to/lastmile_qr_scan", "android": "https://dc.lft.to/lastmile_qr_scan"}, "type": "electric_scooter", "name": "2688a80d2c936c3f89649757271cf766", "is_reserved": 0, "lon": -77.068392, "is_disabled": 0, "fusion_lat": 0.0, "lat": 38.90404433333333, "bike_id": "2688a80d2c936c3f89649757271cf766", "fusion_lon": 0.0}, {"rental_uris": {"ios": "https://dc.lft.to/lastmile_qr_scan", "android": "https://dc.lft.to/lastmile_qr_scan"}, "type": "electric_scooter", "name": "d9a44155e5ba1f4726ba9baaa6f7abe1", "is_reserved": 0, "lon": -77.04816566666666, "is_disabled": 0, "fusion_lat": 0.0, "lat": 38.914913166666665, "bike_id": "d9a44155e5ba1f4726ba9baaa6f7abe1", "fusion_lon": 0.0}, {"rental_uris": {"ios": "https://dc.lft.to/lastmile_qr_scan", "android": "https://dc.lft.to/lastmile_qr_scan"}, "type": "electric_scooter", "name": "b4f279c28b0381a8095337f6a20c00e7", "is_reserved": 0, "lon": -77.06038266666667, "is_disabled": 0, "fusion_lat": 0.0, "lat": 38.93908883333334, "bike_id": "b4f279c28b0381a8095337f6a20c00e7", "fusion_lon": 0.0}, {"rental_uris": {"ios": "https://dc.lft.to/lastmile_qr_scan", "android": "https://dc.lft.to/lastmile_qr_scan"}, "type": "electric_scooter", "name": "5e62cc6613bec208794abd81400a6228", "is_reserved": 0, "lon": -77.04146466666667, "is_disabled": 0, "fusion_lat": 0.0, "lat": 38.91913266666667, "bike_id": "5e62cc6613bec208794abd81400a6228", "fusion_lon": 0.0}, {"rental_uris": {"ios": "https://dc.lft.to/lastmile_qr_scan", "android": "https://dc.lft.to/lastmile_qr_scan"}, "type": "electric_scooter", "name": "209024a121dc54970d3ff912116329cd", "is_reserved": 0, "lon": -76.99588216666666, "is_disabled": 0, "fusion_lat": 0.0, "lat": 38.9094285, "bike_id": "209024a121dc54970d3ff912116329cd", "fusion_lon": 0.0}, {"rental_uris": {"ios": "https://dc.lft.to/lastmile_qr_scan", "android": "https://dc.lft.to/lastmile_qr_scan"}, "type": "electric_scooter", "name": "717af6de14cf38b1530ae35b0c59f5a7", "is_reserved": 0, "lon": -77.03971616666666, "is_disabled": 0, "fusion_lat": 0.0, "lat": 38.93151966666667, "bike_id": "717af6de14cf38b1530ae35b0c59f5a7", "fusion_lon": 0.0}, {"rental_uris": {"ios": "https://dc.lft.to/lastmile_qr_scan", "android": "https://dc.lft.to/lastmile_qr_scan"}, "type": "electric_scooter", "name": "4774e64b7feae25892a41eb946621792", "is_reserved": 0, "lon": -77.0228675, "is_disabled": 0, "fusion_lat": 0.0, "lat": 38.918318166666666, "bike_id": "4774e64b7feae25892a41eb946621792", "fusion_lon": 0.0}, {"rental_uris": {"ios": "https://dc.lft.to/lastmile_qr_scan", "android": "https://dc.lft.to/lastmile_qr_scan"}, "type": "electric_bike", "name": "55e5d30ca87114b49239a5e71e645008", "is_reserved": 0, "lon": -77.09618016666667, "is_disabled": 0, "fusion_lat": 0.0, "lat": 38.9524895, "bike_id": "55e5d30ca87114b49239a5e71e645008", "fusion_lon": 0.0}, {"rental_uris": {"ios": "https://dc.lft.to/lastmile_qr_scan", "android": "https://dc.lft.to/lastmile_qr_scan"}, "type": "electric_bike", "name": "46812b5d53d027ff6dc5f01432a2c90b", "is_reserved": 0, "lon": -77.12736466666667, "is_disabled": 0, "fusion_lat": 0.0, "lat": 38.89564083333333, "bike_id": "46812b5d53d027ff6dc5f01432a2c90b", "fusion_lon": 0.0}, {"rental_uris": {"ios": "https://dc.lft.to/lastmile_qr_scan", "android": "https://dc.lft.to/lastmile_qr_scan"}, "type": "electric_scooter", "name": "ed90142cb7c752ab971c8d4d2319e214", "is_reserved": 0, "lon": -76.94576366666666, "is_disabled": 0, "fusion_lat": 0.0, "lat": 38.89923783333333, "bike_id": "ed90142cb7c752ab971c8d4d2319e214", "fusion_lon": 0.0}, {"rental_uris": {"ios": "https://dc.lft.to/lastmile_qr_scan", "android": "https://dc.lft.to/lastmile_qr_scan"}, "type": "electric_scooter", "name": "a1c0cfd63903ad850a4e6909560bfa47", "is_reserved": 0, "lon": -77.01181066666666, "is_disabled": 0, "fusion_lat": 0.0, "lat": 38.896537333333335, "bike_id": "a1c0cfd63903ad850a4e6909560bfa47", "fusion_lon": 0.0}, {"rental_uris": {"ios": "https://dc.lft.to/lastmile_qr_scan", "android": "https://dc.lft.to/lastmile_qr_scan"}, "type": "electric_bike", "name": "7cc0249a50a481c53b18929f9494ae92", "is_reserved": 0, "lon": -77.03878983333334, "is_disabled": 0, "fusion_lat": 0.0, "lat": 39.026217, "bike_id": "7cc0249a50a481c53b18929f9494ae92", "fusion_lon": 0.0}, {"rental_uris": {"ios": "https://dc.lft.to/lastmile_qr_scan", "android": "https://dc.lft.to/lastmile_qr_scan"}, "type": "electric_scooter", "name": "7d600de4445f46531420a14fd87597e3", "is_reserved": 0, "lon": -77.02379666666667, "is_disabled": 0, "fusion_lat": 0.0, "lat": 38.89196283333333, "bike_id": "7d600de4445f46531420a14fd87597e3", "fusion_lon": 0.0}, {"rental_uris": {"ios": "https://dc.lft.to/lastmile_qr_scan", "android": "https://dc.lft.to/lastmile_qr_scan"}, "type": "electric_scooter", "name": "7aadc792181fe8aa03df35df2f32f37b", "is_reserved": 0, "lon": -77.0342585, "is_disabled": 0, "fusion_lat": 0.0, "lat": 38.90575716666667, "bike_id": "7aadc792181fe8aa03df35df2f32f37b", "fusion_lon": 0.0}, {"rental_uris": {"ios": "https://dc.lft.to/lastmile_qr_scan", "android": "https://dc.lft.to/lastmile_qr_scan"}, "type": "electric_scooter", "name": "801e8505cf886a802284483e3ed660f5", "is_reserved": 0, "lon": -77.08284716666667, "is_disabled": 0, "fusion_lat": 0.0, "lat": 38.935661, "bike_id": "801e8505cf886a802284483e3ed660f5", "fusion_lon": 0.0}, {"rental_uris": {"ios": "https://dc.lft.to/lastmile_qr_scan", "android": "https://dc.lft.to/lastmile_qr_scan"}, "type": "electric_scooter", "name": "2dedf9d9ab05271a7fcf6a81c4433f32", "is_reserved": 0, "lon": -77.05531566666667, "is_disabled": 0, "fusion_lat": 0.0, "lat": 38.90999683333333, "bike_id": "2dedf9d9ab05271a7fcf6a81c4433f32", "fusion_lon": 0.0}, {"rental_uris": {"ios": "https://dc.lft.to/lastmile_qr_scan", "android": "https://dc.lft.to/lastmile_qr_scan"}, "type": "electric_scooter", "name": "64019e39dd7f42bad122a5c45b6fac5e", "is_reserved": 0, "lon": -77.01731033333333, "is_disabled": 0, "fusion_lat": 0.0, "lat": 38.877105666666665, "bike_id": "64019e39dd7f42bad122a5c45b6fac5e", "fusion_lon": 0.0}, {"rental_uris": {"ios": "https://dc.lft.to/lastmile_qr_scan", "android": "https://dc.lft.to/lastmile_qr_scan"}, "type": "electric_scooter", "name": "51f24889407620744f439099ca35856e", "is_reserved": 0, "lon": -77.00954816666666, "is_disabled": 0, "fusion_lat": 0.0, "lat": 38.8746025, "bike_id": "51f24889407620744f439099ca35856e", "fusion_lon": 0.0}, {"rental_uris": {"ios": "https://dc.lft.to/lastmile_qr_scan", "android": "https://dc.lft.to/lastmile_qr_scan"}, "type": "electric_scooter", "name": "595bfece64464ad7e3b26ffd20db7276", "is_reserved": 0, "lon": -77.001097, "is_disabled": 0, "fusion_lat": 0.0, "lat": 38.87619633333333, "bike_id": "595bfece64464ad7e3b26ffd20db7276", "fusion_lon": 0.0}, {"rental_uris": {"ios": "https://dc.lft.to/lastmile_qr_scan", "android": "https://dc.lft.to/lastmile_qr_scan"}, "type": "electric_bike", "name": "22d933235f8a4ece6824099ebd5d4112", "is_reserved": 0, "lon": -76.93328466666667, "is_disabled": 0, "fusion_lat": 0.0, "lat": 38.95154516666667, "bike_id": "22d933235f8a4ece6824099ebd5d4112", "fusion_lon": 0.0}, {"rental_uris": {"ios": "https://dc.lft.to/lastmile_qr_scan", "android": "https://dc.lft.to/lastmile_qr_scan"}, "type": "electric_bike", "name": "a1255d1fecbd3a51d810f9026619f72e", "is_reserved": 0, "lon": -77.09617766666666, "is_disabled": 0, "fusion_lat": 0.0, "lat": 38.97436916666667, "bike_id": "a1255d1fecbd3a51d810f9026619f72e", "fusion_lon": 0.0}, {"rental_uris": {"ios": "https://dc.lft.to/lastmile_qr_scan", "android": "https://dc.lft.to/lastmile_qr_scan"}, "type": "electric_scooter", "name": "1f1745a00e0eee52834e611e581993e8", "is_reserved": 0, "lon": -77.030882, "is_disabled": 0, "fusion_lat": 0.0, "lat": 38.91039266666667, "bike_id": "1f1745a00e0eee52834e611e581993e8", "fusion_lon": 0.0}, {"rental_uris": {"ios": "https://dc.lft.to/lastmile_qr_scan", "android": "https://dc.lft.to/lastmile_qr_scan"}, "type": "electric_scooter", "name": "db3c45b0466f1b4aee05b009f4cb4c29", "is_reserved": 0, "lon": -77.057377, "is_disabled": 0, "fusion_lat": 0.0, "lat": 38.930369166666665, "bike_id": "db3c45b0466f1b4aee05b009f4cb4c29", "fusion_lon": 0.0}, {"rental_uris": {"ios": "https://dc.lft.to/lastmile_qr_scan", "android": "https://dc.lft.to/lastmile_qr_scan"}, "type": "electric_scooter", "name": "56307a49667028aabf5a02069be220f0", "is_reserved": 0, "lon": -77.04009883333333, "is_disabled": 0, "fusion_lat": 0.0, "lat": 38.92247483333333, "bike_id": "56307a49667028aabf5a02069be220f0", "fusion_lon": 0.0}, {"rental_uris": {"ios": "https://dc.lft.to/lastmile_qr_scan", "android": "https://dc.lft.to/lastmile_qr_scan"}, "type": "electric_bike", "name": "b5638c6843fc464cf2de310ba5acf41d", "is_reserved": 0, "lon": -76.96152483333333, "is_disabled": 0, "fusion_lat": 0.0, "lat": 38.85618216666667, "bike_id": "b5638c6843fc464cf2de310ba5acf41d", "fusion_lon": 0.0}, {"rental_uris": {"ios": "https://dc.lft.to/lastmile_qr_scan", "android": "https://dc.lft.to/lastmile_qr_scan"}, "type": "electric_scooter", "name": "8c570a3fa6a42b20727ff2e873b7ed8b", "is_reserved": 0, "lon": -77.01994933333333, "is_disabled": 0, "fusion_lat": 0.0, "lat": 38.9662485, "bike_id": "8c570a3fa6a42b20727ff2e873b7ed8b", "fusion_lon": 0.0}, {"rental_uris": {"ios": "https://dc.lft.to/lastmile_qr_scan", "android": "https://dc.lft.to/lastmile_qr_scan"}, "type": "electric_scooter", "name": "73ddae9a1dabba4521e749e7b0bb8e2e", "is_reserved": 0, "lon": -77.04342316666667, "is_disabled": 0, "fusion_lat": 0.0, "lat": 38.907231333333335, "bike_id": "73ddae9a1dabba4521e749e7b0bb8e2e", "fusion_lon": 0.0}, {"rental_uris": {"ios": "https://dc.lft.to/lastmile_qr_scan", "android": "https://dc.lft.to/lastmile_qr_scan"}, "type": "electric_scooter", "name": "c155b76a4d3cdda528cb22cf8a994fdc", "is_reserved": 0, "lon": -77.04272383333333, "is_disabled": 0, "fusion_lat": 0.0, "lat": 38.9036375, "bike_id": "c155b76a4d3cdda528cb22cf8a994fdc", "fusion_lon": 0.0}, {"rental_uris": {"ios": "https://dc.lft.to/lastmile_qr_scan", "android": "https://dc.lft.to/lastmile_qr_scan"}, "type": "electric_scooter", "name": "664601386e6a96a94131d1447e4b8e85", "is_reserved": 0, "lon": -77.04325983333334, "is_disabled": 0, "fusion_lat": 0.0, "lat": 38.9065215, "bike_id": "664601386e6a96a94131d1447e4b8e85", "fusion_lon": 0.0}, {"rental_uris": {"ios": "https://dc.lft.to/lastmile_qr_scan", "android": "https://dc.lft.to/lastmile_qr_scan"}, "type": "electric_scooter", "name": "14988581fff73aa96b68c73f85b6bf1d", "is_reserved": 0, "lon": -77.02812683333333, "is_disabled": 0, "fusion_lat": 0.0, "lat": 38.90916466666667, "bike_id": "14988581fff73aa96b68c73f85b6bf1d", "fusion_lon": 0.0}, {"rental_uris": {"ios": "https://dc.lft.to/lastmile_qr_scan", "android": "https://dc.lft.to/lastmile_qr_scan"}, "type": "electric_scooter", "name": "558c5f98a1db0f6b24ed9bd476713a03", "is_reserved": 0, "lon": -77.03854516666667, "is_disabled": 0, "fusion_lat": 0.0, "lat": 38.91666983333333, "bike_id": "558c5f98a1db0f6b24ed9bd476713a03", "fusion_lon": 0.0}, {"rental_uris": {"ios": "https://dc.lft.to/lastmile_qr_scan", "android": "https://dc.lft.to/lastmile_qr_scan"}, "type": "electric_scooter", "name": "55bef7ea185226dedb13e0deff5b9230", "is_reserved": 0, "lon": -77.04548466666667, "is_disabled": 0, "fusion_lat": 0.0, "lat": 38.903889166666666, "bike_id": "55bef7ea185226dedb13e0deff5b9230", "fusion_lon": 0.0}, {"rental_uris": {"ios": "https://dc.lft.to/lastmile_qr_scan", "android": "https://dc.lft.to/lastmile_qr_scan"}, "type": "electric_scooter", "name": "782cf49cff427c1834bccea02544555d", "is_reserved": 0, "lon": -77.039864, "is_disabled": 0, "fusion_lat": 0.0, "lat": 38.895382166666664, "bike_id": "782cf49cff427c1834bccea02544555d", "fusion_lon": 0.0}, {"rental_uris": {"ios": "https://dc.lft.to/lastmile_qr_scan", "android": "https://dc.lft.to/lastmile_qr_scan"}, "type": "electric_scooter", "name": "1879766bffab9ed52808157f91b21e5d", "is_reserved": 0, "lon": -76.9975215, "is_disabled": 0, "fusion_lat": 0.0, "lat": 38.88500116666667, "bike_id": "1879766bffab9ed52808157f91b21e5d", "fusion_lon": 0.0}, {"rental_uris": {"ios": "https://dc.lft.to/lastmile_qr_scan", "android": "https://dc.lft.to/lastmile_qr_scan"}, "type": "electric_scooter", "name": "c9ec7c372cea199b13bf0446635bb552", "is_reserved": 0, "lon": -77.02897683333333, "is_disabled": 0, "fusion_lat": 0.0, "lat": 38.897288833333334, "bike_id": "c9ec7c372cea199b13bf0446635bb552", "fusion_lon": 0.0}, {"rental_uris": {"ios": "https://dc.lft.to/lastmile_qr_scan", "android": "https://dc.lft.to/lastmile_qr_scan"}, "type": "electric_scooter", "name": "5bfefd824c6d626dd861f998f4ceea2a", "is_reserved": 0, "lon": -77.0071795, "is_disabled": 0, "fusion_lat": 0.0, "lat": 38.876509, "bike_id": "5bfefd824c6d626dd861f998f4ceea2a", "fusion_lon": 0.0}, {"rental_uris": {"ios": "https://dc.lft.to/lastmile_qr_scan", "android": "https://dc.lft.to/lastmile_qr_scan"}, "type": "electric_scooter", "name": "d2a21ad14b9557ffb223b63d70bb6dd2", "is_reserved": 0, "lon": -77.02550983333333, "is_disabled": 0, "fusion_lat": 0.0, "lat": 38.97000966666667, "bike_id": "d2a21ad14b9557ffb223b63d70bb6dd2", "fusion_lon": 0.0}, {"rental_uris": {"ios": "https://dc.lft.to/lastmile_qr_scan", "android": "https://dc.lft.to/lastmile_qr_scan"}, "type": "electric_scooter", "name": "ae264b30b5295b81cca3ba13b52cb325", "is_reserved": 0, "lon": -77.03838833333333, "is_disabled": 0, "fusion_lat": 0.0, "lat": 38.91537266666667, "bike_id": "ae264b30b5295b81cca3ba13b52cb325", "fusion_lon": 0.0}, {"rental_uris": {"ios": "https://dc.lft.to/lastmile_qr_scan", "android": "https://dc.lft.to/lastmile_qr_scan"}, "type": "electric_scooter", "name": "dfba0c7af47bbfa1d6b82949ff367296", "is_reserved": 0, "lon": -77.02968133333333, "is_disabled": 0, "fusion_lat": 0.0, "lat": 38.90721116666667, "bike_id": "dfba0c7af47bbfa1d6b82949ff367296", "fusion_lon": 0.0}, {"rental_uris": {"ios": "https://dc.lft.to/lastmile_qr_scan", "android": "https://dc.lft.to/lastmile_qr_scan"}, "type": "electric_scooter", "name": "6387c24f345082898ee65d498f37053a", "is_reserved": 0, "lon": -77.06295766666666, "is_disabled": 0, "fusion_lat": 0.0, "lat": 38.905974666666665, "bike_id": "6387c24f345082898ee65d498f37053a", "fusion_lon": 0.0}, {"rental_uris": {"ios": "https://dc.lft.to/lastmile_qr_scan", "android": "https://dc.lft.to/lastmile_qr_scan"}, "type": "electric_bike", "name": "062c59f0c5511e4f81d227fd0520a911", "is_reserved": 0, "lon": -76.97317433333333, "is_disabled": 0, "fusion_lat": 0.0, "lat": 38.85779183333333, "bike_id": "062c59f0c5511e4f81d227fd0520a911", "fusion_lon": 0.0}, {"rental_uris": {"ios": "https://dc.lft.to/lastmile_qr_scan", "android": "https://dc.lft.to/lastmile_qr_scan"}, "type": "electric_scooter", "name": "2a0ab2eb44e20630ee8b75783dd969c5", "is_reserved": 0, "lon": -77.03926133333333, "is_disabled": 0, "fusion_lat": 0.0, "lat": 38.913996833333336, "bike_id": "2a0ab2eb44e20630ee8b75783dd969c5", "fusion_lon": 0.0}, {"rental_uris": {"ios": "https://dc.lft.to/lastmile_qr_scan", "android": "https://dc.lft.to/lastmile_qr_scan"}, "type": "electric_scooter", "name": "b0632649026d15de2d5705fac204cd7f", "is_reserved": 0, "lon": -77.02156333333333, "is_disabled": 0, "fusion_lat": 0.0, "lat": 38.92458933333333, "bike_id": "b0632649026d15de2d5705fac204cd7f", "fusion_lon": 0.0}, {"rental_uris": {"ios": "https://dc.lft.to/lastmile_qr_scan", "android": "https://dc.lft.to/lastmile_qr_scan"}, "type": "electric_scooter", "name": "5560492ec335ce002c0b3ca2cc79f40a", "is_reserved": 0, "lon": -77.0120695, "is_disabled": 0, "fusion_lat": 0.0, "lat": 38.91820333333333, "bike_id": "5560492ec335ce002c0b3ca2cc79f40a", "fusion_lon": 0.0}, {"rental_uris": {"ios": "https://dc.lft.to/lastmile_qr_scan", "android": "https://dc.lft.to/lastmile_qr_scan"}, "type": "electric_scooter", "name": "c9d08cf960192ea35b2a3e78ad29df77", "is_reserved": 0, "lon": -77.00337016666667, "is_disabled": 0, "fusion_lat": 0.0, "lat": 38.886352333333335, "bike_id": "c9d08cf960192ea35b2a3e78ad29df77", "fusion_lon": 0.0}, {"rental_uris": {"ios": "https://dc.lft.to/lastmile_qr_scan", "android": "https://dc.lft.to/lastmile_qr_scan"}, "type": "electric_scooter", "name": "15753af97950e93752345aff11e50d32", "is_reserved": 0, "lon": -77.02963033333333, "is_disabled": 0, "fusion_lat": 0.0, "lat": 38.923199333333336, "bike_id": "15753af97950e93752345aff11e50d32", "fusion_lon": 0.0}, {"rental_uris": {"ios": "https://dc.lft.to/lastmile_qr_scan", "android": "https://dc.lft.to/lastmile_qr_scan"}, "type": "electric_scooter", "name": "8ed4e521119ea6171cf0d2897e669007", "is_reserved": 0, "lon": -77.0382195, "is_disabled": 0, "fusion_lat": 0.0, "lat": 38.96260733333333, "bike_id": "8ed4e521119ea6171cf0d2897e669007", "fusion_lon": 0.0}, {"rental_uris": {"ios": "https://dc.lft.to/lastmile_qr_scan", "android": "https://dc.lft.to/lastmile_qr_scan"}, "type": "electric_scooter", "name": "871904339b5bc9d088ce4030cd2698f1", "is_reserved": 0, "lon": -77.06888183333334, "is_disabled": 0, "fusion_lat": 0.0, "lat": 38.95272933333333, "bike_id": "871904339b5bc9d088ce4030cd2698f1", "fusion_lon": 0.0}, {"rental_uris": {"ios": "https://dc.lft.to/lastmile_qr_scan", "android": "https://dc.lft.to/lastmile_qr_scan"}, "type": "electric_scooter", "name": "124f52426d88d5b16ff25f8e263da03d", "is_reserved": 0, "lon": -77.01499883333334, "is_disabled": 0, "fusion_lat": 0.0, "lat": 38.92665016666667, "bike_id": "124f52426d88d5b16ff25f8e263da03d", "fusion_lon": 0.0}, {"rental_uris": {"ios": "https://dc.lft.to/lastmile_qr_scan", "android": "https://dc.lft.to/lastmile_qr_scan"}, "type": "electric_scooter", "name": "80f370087f1d7284f5adca548f68e79a", "is_reserved": 0, "lon": -77.0417625, "is_disabled": 0, "fusion_lat": 0.0, "lat": 38.920246, "bike_id": "80f370087f1d7284f5adca548f68e79a", "fusion_lon": 0.0}, {"rental_uris": {"ios": "https://dc.lft.to/lastmile_qr_scan", "android": "https://dc.lft.to/lastmile_qr_scan"}, "type": "electric_scooter", "name": "4c1b6a753de4dbe39c0dc5c76535d353", "is_reserved": 0, "lon": -76.98996616666666, "is_disabled": 0, "fusion_lat": 0.0, "lat": 38.864326, "bike_id": "4c1b6a753de4dbe39c0dc5c76535d353", "fusion_lon": 0.0}, {"rental_uris": {"ios": "https://dc.lft.to/lastmile_qr_scan", "android": "https://dc.lft.to/lastmile_qr_scan"}, "type": "electric_bike", "name": "9b6048dd1f5f81dc8a7db8245ab03970", "is_reserved": 0, "lon": -77.12936783333333, "is_disabled": 0, "fusion_lat": 0.0, "lat": 38.86575, "bike_id": "9b6048dd1f5f81dc8a7db8245ab03970", "fusion_lon": 0.0}, {"rental_uris": {"ios": "https://dc.lft.to/lastmile_qr_scan", "android": "https://dc.lft.to/lastmile_qr_scan"}, "type": "electric_scooter", "name": "17febbe04dfb717461511eec2bbb7271", "is_reserved": 0, "lon": -77.03444616666667, "is_disabled": 0, "fusion_lat": 0.0, "lat": 38.9074625, "bike_id": "17febbe04dfb717461511eec2bbb7271", "fusion_lon": 0.0}, {"rental_uris": {"ios": "https://dc.lft.to/lastmile_qr_scan", "android": "https://dc.lft.to/lastmile_qr_scan"}, "type": "electric_scooter", "name": "e24a05802b1b3f690fc0135a14becf50", "is_reserved": 0, "lon": -76.931832, "is_disabled": 0, "fusion_lat": 0.0, "lat": 38.898782833333335, "bike_id": "e24a05802b1b3f690fc0135a14becf50", "fusion_lon": 0.0}, {"rental_uris": {"ios": "https://dc.lft.to/lastmile_qr_scan", "android": "https://dc.lft.to/lastmile_qr_scan"}, "type": "electric_scooter", "name": "1d76452469e1febf97c3c02b0073992c", "is_reserved": 0, "lon": -77.02852766666666, "is_disabled": 0, "fusion_lat": 0.0, "lat": 38.912544833333335, "bike_id": "1d76452469e1febf97c3c02b0073992c", "fusion_lon": 0.0}, {"rental_uris": {"ios": "https://dc.lft.to/lastmile_qr_scan", "android": "https://dc.lft.to/lastmile_qr_scan"}, "type": "electric_scooter", "name": "634b16a1151429f0deb5a40feaf35662", "is_reserved": 0, "lon": -77.03839766666667, "is_disabled": 0, "fusion_lat": 0.0, "lat": 38.916661166666664, "bike_id": "634b16a1151429f0deb5a40feaf35662", "fusion_lon": 0.0}, {"rental_uris": {"ios": "https://dc.lft.to/lastmile_qr_scan", "android": "https://dc.lft.to/lastmile_qr_scan"}, "type": "electric_scooter", "name": "ca50ddfa82dba12d0974c89193662a9a", "is_reserved": 0, "lon": -77.05516633333333, "is_disabled": 0, "fusion_lat": 0.0, "lat": 38.90767433333333, "bike_id": "ca50ddfa82dba12d0974c89193662a9a", "fusion_lon": 0.0}, {"rental_uris": {"ios": "https://dc.lft.to/lastmile_qr_scan", "android": "https://dc.lft.to/lastmile_qr_scan"}, "type": "electric_scooter", "name": "fe5c747553fbeb2d9c249ec9f7ee4e62", "is_reserved": 0, "lon": -77.04869616666667, "is_disabled": 0, "fusion_lat": 0.0, "lat": 38.89237333333333, "bike_id": "fe5c747553fbeb2d9c249ec9f7ee4e62", "fusion_lon": 0.0}, {"rental_uris": {"ios": "https://dc.lft.to/lastmile_qr_scan", "android": "https://dc.lft.to/lastmile_qr_scan"}, "type": "electric_scooter", "name": "9dc6a60236312590b347d45de3a19fcf", "is_reserved": 0, "lon": -77.01983883333334, "is_disabled": 0, "fusion_lat": 0.0, "lat": 38.87604416666667, "bike_id": "9dc6a60236312590b347d45de3a19fcf", "fusion_lon": 0.0}, {"rental_uris": {"ios": "https://dc.lft.to/lastmile_qr_scan", "android": "https://dc.lft.to/lastmile_qr_scan"}, "type": "electric_scooter", "name": "e381e1229561d57d2aec1a219b92ba76", "is_reserved": 0, "lon": -77.02436383333334, "is_disabled": 0, "fusion_lat": 0.0, "lat": 38.956393166666665, "bike_id": "e381e1229561d57d2aec1a219b92ba76", "fusion_lon": 0.0}, {"rental_uris": {"ios": "https://dc.lft.to/lastmile_qr_scan", "android": "https://dc.lft.to/lastmile_qr_scan"}, "type": "electric_scooter", "name": "993128a745cd80c7c0dbc9350e1cf66c", "is_reserved": 0, "lon": -77.06756716666666, "is_disabled": 0, "fusion_lat": 0.0, "lat": 38.9156905, "bike_id": "993128a745cd80c7c0dbc9350e1cf66c", "fusion_lon": 0.0}, {"rental_uris": {"ios": "https://dc.lft.to/lastmile_qr_scan", "android": "https://dc.lft.to/lastmile_qr_scan"}, "type": "electric_scooter", "name": "bcfa7f6af5fe4ec9ef130305b5284ccb", "is_reserved": 0, "lon": -77.05306233333333, "is_disabled": 0, "fusion_lat": 0.0, "lat": 38.902518666666666, "bike_id": "bcfa7f6af5fe4ec9ef130305b5284ccb", "fusion_lon": 0.0}, {"rental_uris": {"ios": "https://dc.lft.to/lastmile_qr_scan", "android": "https://dc.lft.to/lastmile_qr_scan"}, "type": "electric_scooter", "name": "2a1a97b26fe9c4b38e8b8e5cb29ed7bd", "is_reserved": 0, "lon": -76.98400816666667, "is_disabled": 0, "fusion_lat": 0.0, "lat": 38.905045666666666, "bike_id": "2a1a97b26fe9c4b38e8b8e5cb29ed7bd", "fusion_lon": 0.0}, {"rental_uris": {"ios": "https://dc.lft.to/lastmile_qr_scan", "android": "https://dc.lft.to/lastmile_qr_scan"}, "type": "electric_scooter", "name": "baa45e58bf4c3d7e943275642d6e52c9", "is_reserved": 0, "lon": -77.02605616666666, "is_disabled": 0, "fusion_lat": 0.0, "lat": 38.91841933333333, "bike_id": "baa45e58bf4c3d7e943275642d6e52c9", "fusion_lon": 0.0}, {"rental_uris": {"ios": "https://dc.lft.to/lastmile_qr_scan", "android": "https://dc.lft.to/lastmile_qr_scan"}, "type": "electric_scooter", "name": "98bf23069dcd415ba44166f8baea83c3", "is_reserved": 0, "lon": -76.9713095, "is_disabled": 0, "fusion_lat": 0.0, "lat": 38.8786225, "bike_id": "98bf23069dcd415ba44166f8baea83c3", "fusion_lon": 0.0}, {"rental_uris": {"ios": "https://dc.lft.to/lastmile_qr_scan", "android": "https://dc.lft.to/lastmile_qr_scan"}, "type": "electric_bike", "name": "fbba9e06883d84f75e12e4ad80608b0d", "is_reserved": 0, "lon": -77.06567033333333, "is_disabled": 0, "fusion_lat": 0.0, "lat": 38.93260016666667, "bike_id": "fbba9e06883d84f75e12e4ad80608b0d", "fusion_lon": 0.0}, {"rental_uris": {"ios": "https://dc.lft.to/lastmile_qr_scan", "android": "https://dc.lft.to/lastmile_qr_scan"}, "type": "electric_scooter", "name": "f1a7edb5109e5118434b57a71ae589db", "is_reserved": 0, "lon": -77.0055265, "is_disabled": 0, "fusion_lat": 0.0, "lat": 38.91814433333333, "bike_id": "f1a7edb5109e5118434b57a71ae589db", "fusion_lon": 0.0}, {"rental_uris": {"ios": "https://dc.lft.to/lastmile_qr_scan", "android": "https://dc.lft.to/lastmile_qr_scan"}, "type": "electric_scooter", "name": "196b890ea852da39ff37e2f86e297f60", "is_reserved": 0, "lon": -77.02345383333333, "is_disabled": 0, "fusion_lat": 0.0, "lat": 38.94197033333333, "bike_id": "196b890ea852da39ff37e2f86e297f60", "fusion_lon": 0.0}, {"rental_uris": {"ios": "https://dc.lft.to/lastmile_qr_scan", "android": "https://dc.lft.to/lastmile_qr_scan"}, "type": "electric_bike", "name": "062ce8c81409fe463f4767d81cc5d82c", "is_reserved": 0, "lon": -76.96057816666666, "is_disabled": 0, "fusion_lat": 0.0, "lat": 38.88406283333333, "bike_id": "062ce8c81409fe463f4767d81cc5d82c", "fusion_lon": 0.0}, {"rental_uris": {"ios": "https://dc.lft.to/lastmile_qr_scan", "android": "https://dc.lft.to/lastmile_qr_scan"}, "type": "electric_scooter", "name": "7ab7f69d605d1684e71771998758789e", "is_reserved": 0, "lon": -77.00038783333333, "is_disabled": 0, "fusion_lat": 0.0, "lat": 38.90013033333334, "bike_id": "7ab7f69d605d1684e71771998758789e", "fusion_lon": 0.0}, {"rental_uris": {"ios": "https://dc.lft.to/lastmile_qr_scan", "android": "https://dc.lft.to/lastmile_qr_scan"}, "type": "electric_scooter", "name": "55748ee85ea09ee400da67822a247908", "is_reserved": 0, "lon": -76.983732, "is_disabled": 0, "fusion_lat": 0.0, "lat": 38.892643, "bike_id": "55748ee85ea09ee400da67822a247908", "fusion_lon": 0.0}, {"rental_uris": {"ios": "https://dc.lft.to/lastmile_qr_scan", "android": "https://dc.lft.to/lastmile_qr_scan"}, "type": "electric_scooter", "name": "545549aef831b3fa03089d8e7623ed73", "is_reserved": 0, "lon": -76.98487716666666, "is_disabled": 0, "fusion_lat": 0.0, "lat": 38.903594166666664, "bike_id": "545549aef831b3fa03089d8e7623ed73", "fusion_lon": 0.0}, {"rental_uris": {"ios": "https://dc.lft.to/lastmile_qr_scan", "android": "https://dc.lft.to/lastmile_qr_scan"}, "type": "electric_scooter", "name": "db983ffd9ac3dcfd088693241ed3041b", "is_reserved": 0, "lon": -76.92889416666667, "is_disabled": 0, "fusion_lat": 0.0, "lat": 38.87941266666667, "bike_id": "db983ffd9ac3dcfd088693241ed3041b", "fusion_lon": 0.0}, {"rental_uris": {"ios": "https://dc.lft.to/lastmile_qr_scan", "android": "https://dc.lft.to/lastmile_qr_scan"}, "type": "electric_scooter", "name": "fbf71aea967870687616e70d76406c2e", "is_reserved": 0, "lon": -77.01608766666666, "is_disabled": 0, "fusion_lat": 0.0, "lat": 38.90962183333333, "bike_id": "fbf71aea967870687616e70d76406c2e", "fusion_lon": 0.0}, {"rental_uris": {"ios": "https://dc.lft.to/lastmile_qr_scan", "android": "https://dc.lft.to/lastmile_qr_scan"}, "type": "electric_scooter", "name": "8d3e9293a366d03b9d289e3682aeb7d6", "is_reserved": 0, "lon": -77.000616, "is_disabled": 0, "fusion_lat": 0.0, "lat": 38.87377583333333, "bike_id": "8d3e9293a366d03b9d289e3682aeb7d6", "fusion_lon": 0.0}, {"rental_uris": {"ios": "https://dc.lft.to/lastmile_qr_scan", "android": "https://dc.lft.to/lastmile_qr_scan"}, "type": "electric_scooter", "name": "50ef3f1cdf072bcc5d0f7b1f015aa8d2", "is_reserved": 0, "lon": -77.0341575, "is_disabled": 0, "fusion_lat": 0.0, "lat": 38.906116, "bike_id": "50ef3f1cdf072bcc5d0f7b1f015aa8d2", "fusion_lon": 0.0}, {"rental_uris": {"ios": "https://dc.lft.to/lastmile_qr_scan", "android": "https://dc.lft.to/lastmile_qr_scan"}, "type": "electric_scooter", "name": "f7dff7a1eac5d10ff2e7b152124fae68", "is_reserved": 0, "lon": -77.05137066666667, "is_disabled": 0, "fusion_lat": 0.0, "lat": 38.89851433333333, "bike_id": "f7dff7a1eac5d10ff2e7b152124fae68", "fusion_lon": 0.0}, {"rental_uris": {"ios": "https://dc.lft.to/lastmile_qr_scan", "android": "https://dc.lft.to/lastmile_qr_scan"}, "type": "electric_scooter", "name": "b544b7dce9425224733315d78ec56869", "is_reserved": 0, "lon": -77.005964, "is_disabled": 0, "fusion_lat": 0.0, "lat": 38.9066395, "bike_id": "b544b7dce9425224733315d78ec56869", "fusion_lon": 0.0}, {"rental_uris": {"ios": "https://dc.lft.to/lastmile_qr_scan", "android": "https://dc.lft.to/lastmile_qr_scan"}, "type": "electric_scooter", "name": "ce1e6111d1741675d3fff203f966fb39", "is_reserved": 0, "lon": -77.00198533333334, "is_disabled": 0, "fusion_lat": 0.0, "lat": 38.893437, "bike_id": "ce1e6111d1741675d3fff203f966fb39", "fusion_lon": 0.0}, {"rental_uris": {"ios": "https://dc.lft.to/lastmile_qr_scan", "android": "https://dc.lft.to/lastmile_qr_scan"}, "type": "electric_scooter", "name": "d2658117e76c91ccf60317cf285488a7", "is_reserved": 0, "lon": -77.02275383333334, "is_disabled": 0, "fusion_lat": 0.0, "lat": 38.916381666666666, "bike_id": "d2658117e76c91ccf60317cf285488a7", "fusion_lon": 0.0}, {"rental_uris": {"ios": "https://dc.lft.to/lastmile_qr_scan", "android": "https://dc.lft.to/lastmile_qr_scan"}, "type": "electric_scooter", "name": "414ae53b6f625520a5ce3bda6a25297d", "is_reserved": 0, "lon": -77.028264, "is_disabled": 0, "fusion_lat": 0.0, "lat": 38.904927, "bike_id": "414ae53b6f625520a5ce3bda6a25297d", "fusion_lon": 0.0}, {"rental_uris": {"ios": "https://dc.lft.to/lastmile_qr_scan", "android": "https://dc.lft.to/lastmile_qr_scan"}, "type": "electric_scooter", "name": "81fa66fe9fc8ae4e9646c8925068b673", "is_reserved": 0, "lon": -77.026407, "is_disabled": 0, "fusion_lat": 0.0, "lat": 38.93101516666667, "bike_id": "81fa66fe9fc8ae4e9646c8925068b673", "fusion_lon": 0.0}, {"rental_uris": {"ios": "https://dc.lft.to/lastmile_qr_scan", "android": "https://dc.lft.to/lastmile_qr_scan"}, "type": "electric_scooter", "name": "4862c1c6792981ba64d47428a57e61bd", "is_reserved": 0, "lon": -77.01521266666667, "is_disabled": 0, "fusion_lat": 0.0, "lat": 38.8726975, "bike_id": "4862c1c6792981ba64d47428a57e61bd", "fusion_lon": 0.0}, {"rental_uris": {"ios": "https://dc.lft.to/lastmile_qr_scan", "android": "https://dc.lft.to/lastmile_qr_scan"}, "type": "electric_scooter", "name": "73de3eccc84f9570b6259c0187925d26", "is_reserved": 0, "lon": -77.03445533333333, "is_disabled": 0, "fusion_lat": 0.0, "lat": 38.907204166666666, "bike_id": "73de3eccc84f9570b6259c0187925d26", "fusion_lon": 0.0}, {"rental_uris": {"ios": "https://dc.lft.to/lastmile_qr_scan", "android": "https://dc.lft.to/lastmile_qr_scan"}, "type": "electric_scooter", "name": "a32481e1f5143d1c3c099bde26e3cd84", "is_reserved": 0, "lon": -77.03616383333333, "is_disabled": 0, "fusion_lat": 0.0, "lat": 38.928595666666666, "bike_id": "a32481e1f5143d1c3c099bde26e3cd84", "fusion_lon": 0.0}, {"rental_uris": {"ios": "https://dc.lft.to/lastmile_qr_scan", "android": "https://dc.lft.to/lastmile_qr_scan"}, "type": "electric_bike", "name": "b9d0e4d96c5a3754001dac21ed2eea49", "is_reserved": 0, "lon": -77.13248416666667, "is_disabled": 0, "fusion_lat": 0.0, "lat": 38.80555116666667, "bike_id": "b9d0e4d96c5a3754001dac21ed2eea49", "fusion_lon": 0.0}, {"rental_uris": {"ios": "https://dc.lft.to/lastmile_qr_scan", "android": "https://dc.lft.to/lastmile_qr_scan"}, "type": "electric_scooter", "name": "14ee906326e3f344b447352e9bc93f92", "is_reserved": 0, "lon": -76.99491916666666, "is_disabled": 0, "fusion_lat": 0.0, "lat": 38.8822545, "bike_id": "14ee906326e3f344b447352e9bc93f92", "fusion_lon": 0.0}, {"rental_uris": {"ios": "https://dc.lft.to/lastmile_qr_scan", "android": "https://dc.lft.to/lastmile_qr_scan"}, "type": "electric_scooter", "name": "e60c73b34a9299f94d520b1af9a94ced", "is_reserved": 0, "lon": -77.02477166666667, "is_disabled": 0, "fusion_lat": 0.0, "lat": 38.918112666666666, "bike_id": "e60c73b34a9299f94d520b1af9a94ced", "fusion_lon": 0.0}, {"rental_uris": {"ios": "https://dc.lft.to/lastmile_qr_scan", "android": "https://dc.lft.to/lastmile_qr_scan"}, "type": "electric_scooter", "name": "0fdb7fe91816fd2bfe55edf1d5522ee5", "is_reserved": 0, "lon": -77.04370316666666, "is_disabled": 0, "fusion_lat": 0.0, "lat": 38.922411833333335, "bike_id": "0fdb7fe91816fd2bfe55edf1d5522ee5", "fusion_lon": 0.0}, {"rental_uris": {"ios": "https://dc.lft.to/lastmile_qr_scan", "android": "https://dc.lft.to/lastmile_qr_scan"}, "type": "electric_bike", "name": "2b14cadd85899cc62d12431312f0d2dd", "is_reserved": 0, "lon": -77.03244466666666, "is_disabled": 0, "fusion_lat": 0.0, "lat": 38.96168183333333, "bike_id": "2b14cadd85899cc62d12431312f0d2dd", "fusion_lon": 0.0}, {"rental_uris": {"ios": "https://dc.lft.to/lastmile_qr_scan", "android": "https://dc.lft.to/lastmile_qr_scan"}, "type": "electric_scooter", "name": "244061f703e3210842bda87b84380828", "is_reserved": 0, "lon": -77.06168516666666, "is_disabled": 0, "fusion_lat": 0.0, "lat": 38.94127683333333, "bike_id": "244061f703e3210842bda87b84380828", "fusion_lon": 0.0}, {"rental_uris": {"ios": "https://dc.lft.to/lastmile_qr_scan", "android": "https://dc.lft.to/lastmile_qr_scan"}, "type": "electric_bike", "name": "dae61de8822830c9658625f90d3151e8", "is_reserved": 0, "lon": -76.91800066666667, "is_disabled": 0, "fusion_lat": 0.0, "lat": 38.99998866666667, "bike_id": "dae61de8822830c9658625f90d3151e8", "fusion_lon": 0.0}, {"rental_uris": {"ios": "https://dc.lft.to/lastmile_qr_scan", "android": "https://dc.lft.to/lastmile_qr_scan"}, "type": "electric_bike", "name": "8614fc6ad5e2b69a9c2c590740702a0d", "is_reserved": 0, "lon": -76.97846683333333, "is_disabled": 0, "fusion_lat": 0.0, "lat": 38.888737666666664, "bike_id": "8614fc6ad5e2b69a9c2c590740702a0d", "fusion_lon": 0.0}, {"rental_uris": {"ios": "https://dc.lft.to/lastmile_qr_scan", "android": "https://dc.lft.to/lastmile_qr_scan"}, "type": "electric_scooter", "name": "fb3168c8e1db1c87ece7432d25903491", "is_reserved": 0, "lon": -77.04617616666667, "is_disabled": 0, "fusion_lat": 0.0, "lat": 38.923293, "bike_id": "fb3168c8e1db1c87ece7432d25903491", "fusion_lon": 0.0}, {"rental_uris": {"ios": "https://dc.lft.to/lastmile_qr_scan", "android": "https://dc.lft.to/lastmile_qr_scan"}, "type": "electric_bike", "name": "3e47ca20f013ae125bc8c2750d24489a", "is_reserved": 0, "lon": -76.96914383333333, "is_disabled": 0, "fusion_lat": 0.0, "lat": 38.846151, "bike_id": "3e47ca20f013ae125bc8c2750d24489a", "fusion_lon": 0.0}, {"rental_uris": {"ios": "https://dc.lft.to/lastmile_qr_scan", "android": "https://dc.lft.to/lastmile_qr_scan"}, "type": "electric_scooter", "name": "1038ffc4bbb1975cf556c784ee06bb3c", "is_reserved": 0, "lon": -77.01868066666667, "is_disabled": 0, "fusion_lat": 0.0, "lat": 38.87657466666667, "bike_id": "1038ffc4bbb1975cf556c784ee06bb3c", "fusion_lon": 0.0}, {"rental_uris": {"ios": "https://dc.lft.to/lastmile_qr_scan", "android": "https://dc.lft.to/lastmile_qr_scan"}, "type": "electric_scooter", "name": "67e3132622c093806cef4a69d302eb9e", "is_reserved": 0, "lon": -77.0066455, "is_disabled": 0, "fusion_lat": 0.0, "lat": 38.89977233333333, "bike_id": "67e3132622c093806cef4a69d302eb9e", "fusion_lon": 0.0}, {"rental_uris": {"ios": "https://dc.lft.to/lastmile_qr_scan", "android": "https://dc.lft.to/lastmile_qr_scan"}, "type": "electric_bike", "name": "e695b3137284c3c995118e19ea13a04a", "is_reserved": 0, "lon": -76.96265183333334, "is_disabled": 0, "fusion_lat": 0.0, "lat": 38.96783766666667, "bike_id": "e695b3137284c3c995118e19ea13a04a", "fusion_lon": 0.0}, {"rental_uris": {"ios": "https://dc.lft.to/lastmile_qr_scan", "android": "https://dc.lft.to/lastmile_qr_scan"}, "type": "electric_scooter", "name": "2f7972f8706ab43d393c08a727f24baa", "is_reserved": 0, "lon": -77.0295405, "is_disabled": 0, "fusion_lat": 0.0, "lat": 38.9323555, "bike_id": "2f7972f8706ab43d393c08a727f24baa", "fusion_lon": 0.0}, {"rental_uris": {"ios": "https://dc.lft.to/lastmile_qr_scan", "android": "https://dc.lft.to/lastmile_qr_scan"}, "type": "electric_bike", "name": "fe3676304382cdda7caa8ccfec574e7a", "is_reserved": 0, "lon": -77.08411866666667, "is_disabled": 0, "fusion_lat": 0.0, "lat": 38.91298183333333, "bike_id": "fe3676304382cdda7caa8ccfec574e7a", "fusion_lon": 0.0}, {"rental_uris": {"ios": "https://dc.lft.to/lastmile_qr_scan", "android": "https://dc.lft.to/lastmile_qr_scan"}, "type": "electric_bike", "name": "312095f923b1e59a93c960a25a565e51", "is_reserved": 0, "lon": -77.086144, "is_disabled": 0, "fusion_lat": 0.0, "lat": 38.93128, "bike_id": "312095f923b1e59a93c960a25a565e51", "fusion_lon": 0.0}, {"rental_uris": {"ios": "https://dc.lft.to/lastmile_qr_scan", "android": "https://dc.lft.to/lastmile_qr_scan"}, "type": "electric_scooter", "name": "facc611fd6ed95d237215245972de790", "is_reserved": 0, "lon": -77.02583466666667, "is_disabled": 0, "fusion_lat": 0.0, "lat": 38.9580705, "bike_id": "facc611fd6ed95d237215245972de790", "fusion_lon": 0.0}, {"rental_uris": {"ios": "https://dc.lft.to/lastmile_qr_scan", "android": "https://dc.lft.to/lastmile_qr_scan"}, "type": "electric_bike", "name": "717b7055088c8be5094391eb962f22ce", "is_reserved": 0, "lon": -76.98222616666666, "is_disabled": 0, "fusion_lat": 0.0, "lat": 38.87876966666666, "bike_id": "717b7055088c8be5094391eb962f22ce", "fusion_lon": 0.0}, {"rental_uris": {"ios": "https://dc.lft.to/lastmile_qr_scan", "android": "https://dc.lft.to/lastmile_qr_scan"}, "type": "electric_bike", "name": "f3168b04abdb1cebb8b3d28ac4482b7c", "is_reserved": 0, "lon": -77.1021015, "is_disabled": 0, "fusion_lat": 0.0, "lat": 38.91998316666667, "bike_id": "f3168b04abdb1cebb8b3d28ac4482b7c", "fusion_lon": 0.0}, {"rental_uris": {"ios": "https://dc.lft.to/lastmile_qr_scan", "android": "https://dc.lft.to/lastmile_qr_scan"}, "type": "electric_bike", "name": "8cd3e6d78268a075ad4cedee52dd6605", "is_reserved": 0, "lon": -77.036282, "is_disabled": 0, "fusion_lat": 0.0, "lat": 38.97300233333333, "bike_id": "8cd3e6d78268a075ad4cedee52dd6605", "fusion_lon": 0.0}, {"rental_uris": {"ios": "https://dc.lft.to/lastmile_qr_scan", "android": "https://dc.lft.to/lastmile_qr_scan"}, "type": "electric_scooter", "name": "eb5cf636b99fc451e564cba3aea145ac", "is_reserved": 0, "lon": -77.03319833333333, "is_disabled": 0, "fusion_lat": 0.0, "lat": 38.938837166666666, "bike_id": "eb5cf636b99fc451e564cba3aea145ac", "fusion_lon": 0.0}, {"rental_uris": {"ios": "https://dc.lft.to/lastmile_qr_scan", "android": "https://dc.lft.to/lastmile_qr_scan"}, "type": "electric_scooter", "name": "2f4e3ec6f84caf42ac8b18af8e303807", "is_reserved": 0, "lon": -77.03471866666666, "is_disabled": 0, "fusion_lat": 0.0, "lat": 38.9055615, "bike_id": "2f4e3ec6f84caf42ac8b18af8e303807", "fusion_lon": 0.0}, {"rental_uris": {"ios": "https://dc.lft.to/lastmile_qr_scan", "android": "https://dc.lft.to/lastmile_qr_scan"}, "type": "electric_bike", "name": "52f0427f42010b4363090012c08f9221", "is_reserved": 0, "lon": -76.979428, "is_disabled": 0, "fusion_lat": 0.0, "lat": 38.916686, "bike_id": "52f0427f42010b4363090012c08f9221", "fusion_lon": 0.0}, {"rental_uris": {"ios": "https://dc.lft.to/lastmile_qr_scan", "android": "https://dc.lft.to/lastmile_qr_scan"}, "type": "electric_bike", "name": "6d211014650cf874ff0e36d9010bfcee", "is_reserved": 0, "lon": -76.98688033333333, "is_disabled": 0, "fusion_lat": 0.0, "lat": 38.944736, "bike_id": "6d211014650cf874ff0e36d9010bfcee", "fusion_lon": 0.0}, {"rental_uris": {"ios": "https://dc.lft.to/lastmile_qr_scan", "android": "https://dc.lft.to/lastmile_qr_scan"}, "type": "electric_scooter", "name": "87d6813fa5d7ccb6f82d4782682d0dbb", "is_reserved": 0, "lon": -77.045284, "is_disabled": 0, "fusion_lat": 0.0, "lat": 38.91822666666667, "bike_id": "87d6813fa5d7ccb6f82d4782682d0dbb", "fusion_lon": 0.0}, {"rental_uris": {"ios": "https://dc.lft.to/lastmile_qr_scan", "android": "https://dc.lft.to/lastmile_qr_scan"}, "type": "electric_scooter", "name": "755596f76ba595bd8ec4795ab4f891c9", "is_reserved": 0, "lon": -77.01097816666666, "is_disabled": 0, "fusion_lat": 0.0, "lat": 38.885378833333334, "bike_id": "755596f76ba595bd8ec4795ab4f891c9", "fusion_lon": 0.0}, {"rental_uris": {"ios": "https://dc.lft.to/lastmile_qr_scan", "android": "https://dc.lft.to/lastmile_qr_scan"}, "type": "electric_scooter", "name": "697965cd576d5d0383e8a550661e4718", "is_reserved": 0, "lon": -77.0453415, "is_disabled": 0, "fusion_lat": 0.0, "lat": 38.900691, "bike_id": "697965cd576d5d0383e8a550661e4718", "fusion_lon": 0.0}, {"rental_uris": {"ios": "https://dc.lft.to/lastmile_qr_scan", "android": "https://dc.lft.to/lastmile_qr_scan"}, "type": "electric_scooter", "name": "6e1724542995c928e21ef3bffdfd1832", "is_reserved": 0, "lon": -77.02585566666667, "is_disabled": 0, "fusion_lat": 0.0, "lat": 38.9050105, "bike_id": "6e1724542995c928e21ef3bffdfd1832", "fusion_lon": 0.0}, {"rental_uris": {"ios": "https://dc.lft.to/lastmile_qr_scan", "android": "https://dc.lft.to/lastmile_qr_scan"}, "type": "electric_bike", "name": "6569978c2dca31b66927249ab727ad73", "is_reserved": 0, "lon": -76.98538533333334, "is_disabled": 0, "fusion_lat": 0.0, "lat": 38.892477166666666, "bike_id": "6569978c2dca31b66927249ab727ad73", "fusion_lon": 0.0}, {"rental_uris": {"ios": "https://dc.lft.to/lastmile_qr_scan", "android": "https://dc.lft.to/lastmile_qr_scan"}, "type": "electric_scooter", "name": "758b684710f19cc39f34cb57152ea462", "is_reserved": 0, "lon": -77.01596266666667, "is_disabled": 0, "fusion_lat": 0.0, "lat": 38.9107415, "bike_id": "758b684710f19cc39f34cb57152ea462", "fusion_lon": 0.0}, {"rental_uris": {"ios": "https://dc.lft.to/lastmile_qr_scan", "android": "https://dc.lft.to/lastmile_qr_scan"}, "type": "electric_scooter", "name": "f7158174cbd469d9853d6adaefc7e34a", "is_reserved": 0, "lon": -76.98374883333334, "is_disabled": 0, "fusion_lat": 0.0, "lat": 38.879444, "bike_id": "f7158174cbd469d9853d6adaefc7e34a", "fusion_lon": 0.0}, {"rental_uris": {"ios": "https://dc.lft.to/lastmile_qr_scan", "android": "https://dc.lft.to/lastmile_qr_scan"}, "type": "electric_scooter", "name": "d0a3f90e03c3f679b6de53a887a78b97", "is_reserved": 0, "lon": -77.04269133333334, "is_disabled": 0, "fusion_lat": 0.0, "lat": 38.923033333333336, "bike_id": "d0a3f90e03c3f679b6de53a887a78b97", "fusion_lon": 0.0}, {"rental_uris": {"ios": "https://dc.lft.to/lastmile_qr_scan", "android": "https://dc.lft.to/lastmile_qr_scan"}, "type": "electric_bike", "name": "b2595cebbc245960d83de6aab3511624", "is_reserved": 0, "lon": -76.98138866666666, "is_disabled": 0, "fusion_lat": 0.0, "lat": 38.934918833333334, "bike_id": "b2595cebbc245960d83de6aab3511624", "fusion_lon": 0.0}, {"rental_uris": {"ios": "https://dc.lft.to/lastmile_qr_scan", "android": "https://dc.lft.to/lastmile_qr_scan"}, "type": "electric_scooter", "name": "d88febe552f01ba5ebe16d296ab5bdc8", "is_reserved": 0, "lon": -77.04048116666667, "is_disabled": 0, "fusion_lat": 0.0, "lat": 38.898388, "bike_id": "d88febe552f01ba5ebe16d296ab5bdc8", "fusion_lon": 0.0}, {"rental_uris": {"ios": "https://dc.lft.to/lastmile_qr_scan", "android": "https://dc.lft.to/lastmile_qr_scan"}, "type": "electric_scooter", "name": "1e619cf15867aff0879fdb5129713b7e", "is_reserved": 0, "lon": -77.034693, "is_disabled": 0, "fusion_lat": 0.0, "lat": 38.9056675, "bike_id": "1e619cf15867aff0879fdb5129713b7e", "fusion_lon": 0.0}, {"rental_uris": {"ios": "https://dc.lft.to/lastmile_qr_scan", "android": "https://dc.lft.to/lastmile_qr_scan"}, "type": "electric_scooter", "name": "1d7b63c21e553d9d0fbbb860b6256d12", "is_reserved": 0, "lon": -77.06977316666666, "is_disabled": 0, "fusion_lat": 0.0, "lat": 38.952187333333335, "bike_id": "1d7b63c21e553d9d0fbbb860b6256d12", "fusion_lon": 0.0}, {"rental_uris": {"ios": "https://dc.lft.to/lastmile_qr_scan", "android": "https://dc.lft.to/lastmile_qr_scan"}, "type": "electric_scooter", "name": "d8b9acc3038c62b9b1312a81704c8d61", "is_reserved": 0, "lon": -77.03417333333333, "is_disabled": 0, "fusion_lat": 0.0, "lat": 38.919245833333335, "bike_id": "d8b9acc3038c62b9b1312a81704c8d61", "fusion_lon": 0.0}, {"rental_uris": {"ios": "https://dc.lft.to/lastmile_qr_scan", "android": "https://dc.lft.to/lastmile_qr_scan"}, "type": "electric_scooter", "name": "87dfd470ffd85ab441ce02e4e4fb7d8e", "is_reserved": 0, "lon": -77.00600033333333, "is_disabled": 0, "fusion_lat": 0.0, "lat": 38.905495333333334, "bike_id": "87dfd470ffd85ab441ce02e4e4fb7d8e", "fusion_lon": 0.0}, {"rental_uris": {"ios": "https://dc.lft.to/lastmile_qr_scan", "android": "https://dc.lft.to/lastmile_qr_scan"}, "type": "electric_scooter", "name": "c66337539d81c8d97768f2757cce4ba4", "is_reserved": 0, "lon": -77.00823766666667, "is_disabled": 0, "fusion_lat": 0.0, "lat": 38.91372783333333, "bike_id": "c66337539d81c8d97768f2757cce4ba4", "fusion_lon": 0.0}, {"rental_uris": {"ios": "https://dc.lft.to/lastmile_qr_scan", "android": "https://dc.lft.to/lastmile_qr_scan"}, "type": "electric_scooter", "name": "a6012a4c0d894756d602fdc9e921ffcb", "is_reserved": 0, "lon": -77.047614, "is_disabled": 0, "fusion_lat": 0.0, "lat": 38.940889166666665, "bike_id": "a6012a4c0d894756d602fdc9e921ffcb", "fusion_lon": 0.0}, {"rental_uris": {"ios": "https://dc.lft.to/lastmile_qr_scan", "android": "https://dc.lft.to/lastmile_qr_scan"}, "type": "electric_scooter", "name": "b9dcfb4d04182a18e3f11d1a2f49967e", "is_reserved": 0, "lon": -77.00529966666667, "is_disabled": 0, "fusion_lat": 0.0, "lat": 38.874693666666666, "bike_id": "b9dcfb4d04182a18e3f11d1a2f49967e", "fusion_lon": 0.0}, {"rental_uris": {"ios": "https://dc.lft.to/lastmile_qr_scan", "android": "https://dc.lft.to/lastmile_qr_scan"}, "type": "electric_scooter", "name": "0e28f492e762fed3b9ba016eed8899ad", "is_reserved": 0, "lon": -77.005631, "is_disabled": 0, "fusion_lat": 0.0, "lat": 38.879064, "bike_id": "0e28f492e762fed3b9ba016eed8899ad", "fusion_lon": 0.0}, {"rental_uris": {"ios": "https://dc.lft.to/lastmile_qr_scan", "android": "https://dc.lft.to/lastmile_qr_scan"}, "type": "electric_scooter", "name": "0d13b0b9e5aa6916a8f4768314fae00e", "is_reserved": 0, "lon": -77.029699, "is_disabled": 0, "fusion_lat": 0.0, "lat": 38.916801666666665, "bike_id": "0d13b0b9e5aa6916a8f4768314fae00e", "fusion_lon": 0.0}, {"rental_uris": {"ios": "https://dc.lft.to/lastmile_qr_scan", "android": "https://dc.lft.to/lastmile_qr_scan"}, "type": "electric_scooter", "name": "88d575e27b07ae1673ead5c2ee51ea5f", "is_reserved": 0, "lon": -77.03838716666667, "is_disabled": 0, "fusion_lat": 0.0, "lat": 38.907264833333336, "bike_id": "88d575e27b07ae1673ead5c2ee51ea5f", "fusion_lon": 0.0}, {"rental_uris": {"ios": "https://dc.lft.to/lastmile_qr_scan", "android": "https://dc.lft.to/lastmile_qr_scan"}, "type": "electric_bike", "name": "b52794bf7b39e538ba5d1965fd0439fa", "is_reserved": 0, "lon": -76.90735266666667, "is_disabled": 0, "fusion_lat": 0.0, "lat": 38.8961915, "bike_id": "b52794bf7b39e538ba5d1965fd0439fa", "fusion_lon": 0.0}, {"rental_uris": {"ios": "https://dc.lft.to/lastmile_qr_scan", "android": "https://dc.lft.to/lastmile_qr_scan"}, "type": "electric_scooter", "name": "9c8463e54182278b7f6f81243c599c57", "is_reserved": 0, "lon": -77.048821, "is_disabled": 0, "fusion_lat": 0.0, "lat": 38.91617866666667, "bike_id": "9c8463e54182278b7f6f81243c599c57", "fusion_lon": 0.0}, {"rental_uris": {"ios": "https://dc.lft.to/lastmile_qr_scan", "android": "https://dc.lft.to/lastmile_qr_scan"}, "type": "electric_scooter", "name": "97ce3caab1c695175c4fee73576d0ab4", "is_reserved": 0, "lon": -77.0273765, "is_disabled": 0, "fusion_lat": 0.0, "lat": 38.92369716666666, "bike_id": "97ce3caab1c695175c4fee73576d0ab4", "fusion_lon": 0.0}, {"rental_uris": {"ios": "https://dc.lft.to/lastmile_qr_scan", "android": "https://dc.lft.to/lastmile_qr_scan"}, "type": "electric_scooter", "name": "96885c3a422be83ecae61d3fd5b8532d", "is_reserved": 0, "lon": -77.00735416666667, "is_disabled": 0, "fusion_lat": 0.0, "lat": 38.925290833333335, "bike_id": "96885c3a422be83ecae61d3fd5b8532d", "fusion_lon": 0.0}, {"rental_uris": {"ios": "https://dc.lft.to/lastmile_qr_scan", "android": "https://dc.lft.to/lastmile_qr_scan"}, "type": "electric_scooter", "name": "77c3155f4567df7f9d1a65c14b219d09", "is_reserved": 0, "lon": -77.03531733333334, "is_disabled": 0, "fusion_lat": 0.0, "lat": 38.92470816666667, "bike_id": "77c3155f4567df7f9d1a65c14b219d09", "fusion_lon": 0.0}, {"rental_uris": {"ios": "https://dc.lft.to/lastmile_qr_scan", "android": "https://dc.lft.to/lastmile_qr_scan"}, "type": "electric_scooter", "name": "9eae1309576bdd19c9948be318a016e7", "is_reserved": 0, "lon": -77.03213583333333, "is_disabled": 0, "fusion_lat": 0.0, "lat": 38.884713166666664, "bike_id": "9eae1309576bdd19c9948be318a016e7", "fusion_lon": 0.0}, {"rental_uris": {"ios": "https://dc.lft.to/lastmile_qr_scan", "android": "https://dc.lft.to/lastmile_qr_scan"}, "type": "electric_scooter", "name": "adff0720b11e911824b6526896eb606c", "is_reserved": 0, "lon": -77.0548455, "is_disabled": 0, "fusion_lat": 0.0, "lat": 38.90221066666667, "bike_id": "adff0720b11e911824b6526896eb606c", "fusion_lon": 0.0}, {"rental_uris": {"ios": "https://dc.lft.to/lastmile_qr_scan", "android": "https://dc.lft.to/lastmile_qr_scan"}, "type": "electric_scooter", "name": "672f70a0f3616d62cddec5753922c800", "is_reserved": 0, "lon": -77.02646583333333, "is_disabled": 0, "fusion_lat": 0.0, "lat": 38.93098916666667, "bike_id": "672f70a0f3616d62cddec5753922c800", "fusion_lon": 0.0}, {"rental_uris": {"ios": "https://dc.lft.to/lastmile_qr_scan", "android": "https://dc.lft.to/lastmile_qr_scan"}, "type": "electric_scooter", "name": "1b5be65ce8a48047769a219c2c589a25", "is_reserved": 0, "lon": -77.03838166666667, "is_disabled": 0, "fusion_lat": 0.0, "lat": 38.90711016666667, "bike_id": "1b5be65ce8a48047769a219c2c589a25", "fusion_lon": 0.0}, {"rental_uris": {"ios": "https://dc.lft.to/lastmile_qr_scan", "android": "https://dc.lft.to/lastmile_qr_scan"}, "type": "electric_scooter", "name": "789fdc0ed5186899f1188c589d9aeaf8", "is_reserved": 0, "lon": -77.1103055, "is_disabled": 0, "fusion_lat": 0.0, "lat": 38.87703583333333, "bike_id": "789fdc0ed5186899f1188c589d9aeaf8", "fusion_lon": 0.0}, {"rental_uris": {"ios": "https://dc.lft.to/lastmile_qr_scan", "android": "https://dc.lft.to/lastmile_qr_scan"}, "type": "electric_scooter", "name": "bd70c62e4a6640eac6a32ed180e2c2b1", "is_reserved": 0, "lon": -77.02440716666666, "is_disabled": 0, "fusion_lat": 0.0, "lat": 38.923459666666666, "bike_id": "bd70c62e4a6640eac6a32ed180e2c2b1", "fusion_lon": 0.0}, {"rental_uris": {"ios": "https://dc.lft.to/lastmile_qr_scan", "android": "https://dc.lft.to/lastmile_qr_scan"}, "type": "electric_scooter", "name": "7577836e8ce489bd2cd42c67d60c8845", "is_reserved": 0, "lon": -77.02804766666667, "is_disabled": 0, "fusion_lat": 0.0, "lat": 38.910559666666664, "bike_id": "7577836e8ce489bd2cd42c67d60c8845", "fusion_lon": 0.0}, {"rental_uris": {"ios": "https://dc.lft.to/lastmile_qr_scan", "android": "https://dc.lft.to/lastmile_qr_scan"}, "type": "electric_scooter", "name": "d8fd5359219b556340690baf892a9849", "is_reserved": 0, "lon": -77.032637, "is_disabled": 0, "fusion_lat": 0.0, "lat": 38.931582166666665, "bike_id": "d8fd5359219b556340690baf892a9849", "fusion_lon": 0.0}, {"rental_uris": {"ios": "https://dc.lft.to/lastmile_qr_scan", "android": "https://dc.lft.to/lastmile_qr_scan"}, "type": "electric_scooter", "name": "79bc2b0d4ec597fa41dd737e5c599ef1", "is_reserved": 0, "lon": -77.018844, "is_disabled": 0, "fusion_lat": 0.0, "lat": 38.897503666666665, "bike_id": "79bc2b0d4ec597fa41dd737e5c599ef1", "fusion_lon": 0.0}, {"rental_uris": {"ios": "https://dc.lft.to/lastmile_qr_scan", "android": "https://dc.lft.to/lastmile_qr_scan"}, "type": "electric_scooter", "name": "6779eeca59295f614ad4d02af3a6353e", "is_reserved": 0, "lon": -77.01503183333334, "is_disabled": 0, "fusion_lat": 0.0, "lat": 38.8893285, "bike_id": "6779eeca59295f614ad4d02af3a6353e", "fusion_lon": 0.0}, {"rental_uris": {"ios": "https://dc.lft.to/lastmile_qr_scan", "android": "https://dc.lft.to/lastmile_qr_scan"}, "type": "electric_scooter", "name": "e8c51a222cacf8aff3b51419e9f8f3df", "is_reserved": 0, "lon": -77.02640533333333, "is_disabled": 0, "fusion_lat": 0.0, "lat": 38.902629166666664, "bike_id": "e8c51a222cacf8aff3b51419e9f8f3df", "fusion_lon": 0.0}, {"rental_uris": {"ios": "https://dc.lft.to/lastmile_qr_scan", "android": "https://dc.lft.to/lastmile_qr_scan"}, "type": "electric_scooter", "name": "08d62f8bcde6f0b7d5b105cd0eb0005e", "is_reserved": 0, "lon": -77.02156716666667, "is_disabled": 0, "fusion_lat": 0.0, "lat": 38.92237866666667, "bike_id": "08d62f8bcde6f0b7d5b105cd0eb0005e", "fusion_lon": 0.0}, {"rental_uris": {"ios": "https://dc.lft.to/lastmile_qr_scan", "android": "https://dc.lft.to/lastmile_qr_scan"}, "type": "electric_scooter", "name": "0de9414d5af276f22437846b7317a6c4", "is_reserved": 0, "lon": -77.0021915, "is_disabled": 0, "fusion_lat": 0.0, "lat": 38.894507833333336, "bike_id": "0de9414d5af276f22437846b7317a6c4", "fusion_lon": 0.0}, {"rental_uris": {"ios": "https://dc.lft.to/lastmile_qr_scan", "android": "https://dc.lft.to/lastmile_qr_scan"}, "type": "electric_bike", "name": "3a0b4e439f8cae78378087aa8f7c5d64", "is_reserved": 0, "lon": -77.14850466666667, "is_disabled": 0, "fusion_lat": 0.0, "lat": 38.877621833333336, "bike_id": "3a0b4e439f8cae78378087aa8f7c5d64", "fusion_lon": 0.0}, {"rental_uris": {"ios": "https://dc.lft.to/lastmile_qr_scan", "android": "https://dc.lft.to/lastmile_qr_scan"}, "type": "electric_scooter", "name": "611370337a4bffb5b435d3aa8505cfd8", "is_reserved": 0, "lon": -77.03154983333333, "is_disabled": 0, "fusion_lat": 0.0, "lat": 38.929035666666664, "bike_id": "611370337a4bffb5b435d3aa8505cfd8", "fusion_lon": 0.0}, {"rental_uris": {"ios": "https://dc.lft.to/lastmile_qr_scan", "android": "https://dc.lft.to/lastmile_qr_scan"}, "type": "electric_scooter", "name": "703048756b9a5bd432a9a943beca473b", "is_reserved": 0, "lon": -77.04523883333333, "is_disabled": 0, "fusion_lat": 0.0, "lat": 38.91119366666667, "bike_id": "703048756b9a5bd432a9a943beca473b", "fusion_lon": 0.0}, {"rental_uris": {"ios": "https://dc.lft.to/lastmile_qr_scan", "android": "https://dc.lft.to/lastmile_qr_scan"}, "type": "electric_bike", "name": "b006b55f31474d9fbf23512624392aa9", "is_reserved": 0, "lon": -77.100745, "is_disabled": 0, "fusion_lat": 0.0, "lat": 38.85736283333333, "bike_id": "b006b55f31474d9fbf23512624392aa9", "fusion_lon": 0.0}, {"rental_uris": {"ios": "https://dc.lft.to/lastmile_qr_scan", "android": "https://dc.lft.to/lastmile_qr_scan"}, "type": "electric_scooter", "name": "8b3c4f0925c679a44d9d60b58989db5d", "is_reserved": 0, "lon": -76.98534483333333, "is_disabled": 0, "fusion_lat": 0.0, "lat": 38.8585565, "bike_id": "8b3c4f0925c679a44d9d60b58989db5d", "fusion_lon": 0.0}, {"rental_uris": {"ios": "https://dc.lft.to/lastmile_qr_scan", "android": "https://dc.lft.to/lastmile_qr_scan"}, "type": "electric_scooter", "name": "de1fcab345f9a3224ea24765db5b1647", "is_reserved": 0, "lon": -76.99505683333334, "is_disabled": 0, "fusion_lat": 0.0, "lat": 38.882446333333334, "bike_id": "de1fcab345f9a3224ea24765db5b1647", "fusion_lon": 0.0}, {"rental_uris": {"ios": "https://dc.lft.to/lastmile_qr_scan", "android": "https://dc.lft.to/lastmile_qr_scan"}, "type": "electric_scooter", "name": "5116b0ffac90123a9b08656b3109f4dc", "is_reserved": 0, "lon": -77.0041075, "is_disabled": 0, "fusion_lat": 0.0, "lat": 38.877568833333335, "bike_id": "5116b0ffac90123a9b08656b3109f4dc", "fusion_lon": 0.0}, {"rental_uris": {"ios": "https://dc.lft.to/lastmile_qr_scan", "android": "https://dc.lft.to/lastmile_qr_scan"}, "type": "electric_scooter", "name": "8854848284f6aa04b97c86f8f3f3a285", "is_reserved": 0, "lon": -77.03827383333334, "is_disabled": 0, "fusion_lat": 0.0, "lat": 38.9171205, "bike_id": "8854848284f6aa04b97c86f8f3f3a285", "fusion_lon": 0.0}, {"rental_uris": {"ios": "https://dc.lft.to/lastmile_qr_scan", "android": "https://dc.lft.to/lastmile_qr_scan"}, "type": "electric_scooter", "name": "17ffbf62dff31e5271fa8bb89488318b", "is_reserved": 0, "lon": -77.049509, "is_disabled": 0, "fusion_lat": 0.0, "lat": 38.915854, "bike_id": "17ffbf62dff31e5271fa8bb89488318b", "fusion_lon": 0.0}, {"rental_uris": {"ios": "https://dc.lft.to/lastmile_qr_scan", "android": "https://dc.lft.to/lastmile_qr_scan"}, "type": "electric_scooter", "name": "396a57a05c31c87a95074e063936ebee", "is_reserved": 0, "lon": -77.04478216666666, "is_disabled": 0, "fusion_lat": 0.0, "lat": 38.916013, "bike_id": "396a57a05c31c87a95074e063936ebee", "fusion_lon": 0.0}, {"rental_uris": {"ios": "https://dc.lft.to/lastmile_qr_scan", "android": "https://dc.lft.to/lastmile_qr_scan"}, "type": "electric_scooter", "name": "f2c14a73a6c7002d6943e7f070cd8a19", "is_reserved": 0, "lon": -76.99956533333334, "is_disabled": 0, "fusion_lat": 0.0, "lat": 38.901063, "bike_id": "f2c14a73a6c7002d6943e7f070cd8a19", "fusion_lon": 0.0}, {"rental_uris": {"ios": "https://dc.lft.to/lastmile_qr_scan", "android": "https://dc.lft.to/lastmile_qr_scan"}, "type": "electric_scooter", "name": "55c0937181921b876b3261965f87324e", "is_reserved": 0, "lon": -77.04132666666666, "is_disabled": 0, "fusion_lat": 0.0, "lat": 38.93068616666667, "bike_id": "55c0937181921b876b3261965f87324e", "fusion_lon": 0.0}, {"rental_uris": {"ios": "https://dc.lft.to/lastmile_qr_scan", "android": "https://dc.lft.to/lastmile_qr_scan"}, "type": "electric_scooter", "name": "a8fc9cb4a0e6d701ff1835d6edef612a", "is_reserved": 0, "lon": -77.03431433333333, "is_disabled": 0, "fusion_lat": 0.0, "lat": 38.92054783333333, "bike_id": "a8fc9cb4a0e6d701ff1835d6edef612a", "fusion_lon": 0.0}, {"rental_uris": {"ios": "https://dc.lft.to/lastmile_qr_scan", "android": "https://dc.lft.to/lastmile_qr_scan"}, "type": "electric_scooter", "name": "dd9dfc79be346ac566a7ed6e0e1cc672", "is_reserved": 0, "lon": -77.0232365, "is_disabled": 0, "fusion_lat": 0.0, "lat": 38.93057966666667, "bike_id": "dd9dfc79be346ac566a7ed6e0e1cc672", "fusion_lon": 0.0}, {"rental_uris": {"ios": "https://dc.lft.to/lastmile_qr_scan", "android": "https://dc.lft.to/lastmile_qr_scan"}, "type": "electric_scooter", "name": "b017b5681de98177fb8063327fdf3ee0", "is_reserved": 0, "lon": -77.0384585, "is_disabled": 0, "fusion_lat": 0.0, "lat": 38.909929, "bike_id": "b017b5681de98177fb8063327fdf3ee0", "fusion_lon": 0.0}, {"rental_uris": {"ios": "https://dc.lft.to/lastmile_qr_scan", "android": "https://dc.lft.to/lastmile_qr_scan"}, "type": "electric_bike", "name": "a6a38b7c96b9f899376840e6d11c63e0", "is_reserved": 0, "lon": -77.22187583333333, "is_disabled": 0, "fusion_lat": 0.0, "lat": 38.87173116666666, "bike_id": "a6a38b7c96b9f899376840e6d11c63e0", "fusion_lon": 0.0}, {"rental_uris": {"ios": "https://dc.lft.to/lastmile_qr_scan", "android": "https://dc.lft.to/lastmile_qr_scan"}, "type": "electric_scooter", "name": "0a880a0178bcabece4a52ad206361659", "is_reserved": 0, "lon": -77.03502966666667, "is_disabled": 0, "fusion_lat": 0.0, "lat": 38.9027285, "bike_id": "0a880a0178bcabece4a52ad206361659", "fusion_lon": 0.0}, {"rental_uris": {"ios": "https://dc.lft.to/lastmile_qr_scan", "android": "https://dc.lft.to/lastmile_qr_scan"}, "type": "electric_scooter", "name": "ad440f728225668d505a31ce23c43ae1", "is_reserved": 0, "lon": -77.00063583333333, "is_disabled": 0, "fusion_lat": 0.0, "lat": 38.881169, "bike_id": "ad440f728225668d505a31ce23c43ae1", "fusion_lon": 0.0}, {"rental_uris": {"ios": "https://dc.lft.to/lastmile_qr_scan", "android": "https://dc.lft.to/lastmile_qr_scan"}, "type": "electric_scooter", "name": "334b5c7666473060632c321ce3ff1db8", "is_reserved": 0, "lon": -77.0445705, "is_disabled": 0, "fusion_lat": 0.0, "lat": 38.918795833333334, "bike_id": "334b5c7666473060632c321ce3ff1db8", "fusion_lon": 0.0}, {"rental_uris": {"ios": "https://dc.lft.to/lastmile_qr_scan", "android": "https://dc.lft.to/lastmile_qr_scan"}, "type": "electric_scooter", "name": "f1bcaf7725d4a6d90e7d35bc8b181318", "is_reserved": 0, "lon": -77.053102, "is_disabled": 0, "fusion_lat": 0.0, "lat": 38.902359833333335, "bike_id": "f1bcaf7725d4a6d90e7d35bc8b181318", "fusion_lon": 0.0}, {"rental_uris": {"ios": "https://dc.lft.to/lastmile_qr_scan", "android": "https://dc.lft.to/lastmile_qr_scan"}, "type": "electric_scooter", "name": "89c6831305216a0f71e845b6ba885939", "is_reserved": 0, "lon": -77.0511965, "is_disabled": 0, "fusion_lat": 0.0, "lat": 38.9234665, "bike_id": "89c6831305216a0f71e845b6ba885939", "fusion_lon": 0.0}, {"rental_uris": {"ios": "https://dc.lft.to/lastmile_qr_scan", "android": "https://dc.lft.to/lastmile_qr_scan"}, "type": "electric_scooter", "name": "a5686e17b83772419db01d61973cfb99", "is_reserved": 0, "lon": -77.0288725, "is_disabled": 0, "fusion_lat": 0.0, "lat": 38.90324066666667, "bike_id": "a5686e17b83772419db01d61973cfb99", "fusion_lon": 0.0}, {"rental_uris": {"ios": "https://dc.lft.to/lastmile_qr_scan", "android": "https://dc.lft.to/lastmile_qr_scan"}, "type": "electric_scooter", "name": "4a3d31494b22fc3f3a356fef4bfe3bd8", "is_reserved": 0, "lon": -77.03318083333333, "is_disabled": 0, "fusion_lat": 0.0, "lat": 38.928468, "bike_id": "4a3d31494b22fc3f3a356fef4bfe3bd8", "fusion_lon": 0.0}, {"rental_uris": {"ios": "https://dc.lft.to/lastmile_qr_scan", "android": "https://dc.lft.to/lastmile_qr_scan"}, "type": "electric_bike", "name": "75c223a8ca5b5d002499418215a4f7c7", "is_reserved": 0, "lon": -76.988138, "is_disabled": 0, "fusion_lat": 0.0, "lat": 38.84276033333333, "bike_id": "75c223a8ca5b5d002499418215a4f7c7", "fusion_lon": 0.0}, {"rental_uris": {"ios": "https://dc.lft.to/lastmile_qr_scan", "android": "https://dc.lft.to/lastmile_qr_scan"}, "type": "electric_scooter", "name": "83abfbdb000b562081908768d39ee581", "is_reserved": 0, "lon": -77.0396165, "is_disabled": 0, "fusion_lat": 0.0, "lat": 38.92611083333333, "bike_id": "83abfbdb000b562081908768d39ee581", "fusion_lon": 0.0}, {"rental_uris": {"ios": "https://dc.lft.to/lastmile_qr_scan", "android": "https://dc.lft.to/lastmile_qr_scan"}, "type": "electric_scooter", "name": "1fee4ceb695988d97d574d0417ac9028", "is_reserved": 0, "lon": -77.0219115, "is_disabled": 0, "fusion_lat": 0.0, "lat": 38.924827666666665, "bike_id": "1fee4ceb695988d97d574d0417ac9028", "fusion_lon": 0.0}, {"rental_uris": {"ios": "https://dc.lft.to/lastmile_qr_scan", "android": "https://dc.lft.to/lastmile_qr_scan"}, "type": "electric_scooter", "name": "76bb732d83e06daf412c823ad610e340", "is_reserved": 0, "lon": -77.03476683333334, "is_disabled": 0, "fusion_lat": 0.0, "lat": 38.907730666666666, "bike_id": "76bb732d83e06daf412c823ad610e340", "fusion_lon": 0.0}, {"rental_uris": {"ios": "https://dc.lft.to/lastmile_qr_scan", "android": "https://dc.lft.to/lastmile_qr_scan"}, "type": "electric_bike", "name": "f8485640f3f466e622f19626b68cb47d", "is_reserved": 0, "lon": -77.02029233333333, "is_disabled": 0, "fusion_lat": 0.0, "lat": 38.96558183333333, "bike_id": "f8485640f3f466e622f19626b68cb47d", "fusion_lon": 0.0}, {"rental_uris": {"ios": "https://dc.lft.to/lastmile_qr_scan", "android": "https://dc.lft.to/lastmile_qr_scan"}, "type": "electric_scooter", "name": "05b648cf820dea8a8241059f4bade53e", "is_reserved": 0, "lon": -77.00620733333334, "is_disabled": 0, "fusion_lat": 0.0, "lat": 38.871953, "bike_id": "05b648cf820dea8a8241059f4bade53e", "fusion_lon": 0.0}, {"rental_uris": {"ios": "https://dc.lft.to/lastmile_qr_scan", "android": "https://dc.lft.to/lastmile_qr_scan"}, "type": "electric_scooter", "name": "10d3aabc235ee6cad6f5592930996f4b", "is_reserved": 0, "lon": -77.03926066666666, "is_disabled": 0, "fusion_lat": 0.0, "lat": 38.91399166666667, "bike_id": "10d3aabc235ee6cad6f5592930996f4b", "fusion_lon": 0.0}, {"rental_uris": {"ios": "https://dc.lft.to/lastmile_qr_scan", "android": "https://dc.lft.to/lastmile_qr_scan"}, "type": "electric_scooter", "name": "fb53e1b29a6ab283dc789942b63e2b0c", "is_reserved": 0, "lon": -77.03196883333334, "is_disabled": 0, "fusion_lat": 0.0, "lat": 38.90919516666666, "bike_id": "fb53e1b29a6ab283dc789942b63e2b0c", "fusion_lon": 0.0}, {"rental_uris": {"ios": "https://dc.lft.to/lastmile_qr_scan", "android": "https://dc.lft.to/lastmile_qr_scan"}, "type": "electric_scooter", "name": "aabb930aba462d77b47a7b8e81d324b5", "is_reserved": 0, "lon": -77.048684, "is_disabled": 0, "fusion_lat": 0.0, "lat": 38.9065475, "bike_id": "aabb930aba462d77b47a7b8e81d324b5", "fusion_lon": 0.0}, {"rental_uris": {"ios": "https://dc.lft.to/lastmile_qr_scan", "android": "https://dc.lft.to/lastmile_qr_scan"}, "type": "electric_scooter", "name": "1d474058bf6ca98adb92f481adbd7d9e", "is_reserved": 0, "lon": -77.01839383333333, "is_disabled": 0, "fusion_lat": 0.0, "lat": 38.92226433333333, "bike_id": "1d474058bf6ca98adb92f481adbd7d9e", "fusion_lon": 0.0}, {"rental_uris": {"ios": "https://dc.lft.to/lastmile_qr_scan", "android": "https://dc.lft.to/lastmile_qr_scan"}, "type": "electric_scooter", "name": "80ca0e1699119aed806fe8b1afed8d7b", "is_reserved": 0, "lon": -77.01813683333333, "is_disabled": 0, "fusion_lat": 0.0, "lat": 38.921547333333336, "bike_id": "80ca0e1699119aed806fe8b1afed8d7b", "fusion_lon": 0.0}, {"rental_uris": {"ios": "https://dc.lft.to/lastmile_qr_scan", "android": "https://dc.lft.to/lastmile_qr_scan"}, "type": "electric_scooter", "name": "3fff8acaa3ba3db5bca87bd20a299f7a", "is_reserved": 0, "lon": -77.03294216666667, "is_disabled": 0, "fusion_lat": 0.0, "lat": 38.92750866666667, "bike_id": "3fff8acaa3ba3db5bca87bd20a299f7a", "fusion_lon": 0.0}, {"rental_uris": {"ios": "https://dc.lft.to/lastmile_qr_scan", "android": "https://dc.lft.to/lastmile_qr_scan"}, "type": "electric_scooter", "name": "342ff30b727153e708b5accdae1d7154", "is_reserved": 0, "lon": -77.0819195, "is_disabled": 0, "fusion_lat": 0.0, "lat": 38.891306666666665, "bike_id": "342ff30b727153e708b5accdae1d7154", "fusion_lon": 0.0}, {"rental_uris": {"ios": "https://dc.lft.to/lastmile_qr_scan", "android": "https://dc.lft.to/lastmile_qr_scan"}, "type": "electric_scooter", "name": "e384fd707b16ea958b30e6c15f2b0098", "is_reserved": 0, "lon": -77.03455766666667, "is_disabled": 0, "fusion_lat": 0.0, "lat": 38.9102435, "bike_id": "e384fd707b16ea958b30e6c15f2b0098", "fusion_lon": 0.0}, {"rental_uris": {"ios": "https://dc.lft.to/lastmile_qr_scan", "android": "https://dc.lft.to/lastmile_qr_scan"}, "type": "electric_scooter", "name": "ac3bacb354dff8059d47d9d1a478f48a", "is_reserved": 0, "lon": -77.0176755, "is_disabled": 0, "fusion_lat": 0.0, "lat": 38.90027116666667, "bike_id": "ac3bacb354dff8059d47d9d1a478f48a", "fusion_lon": 0.0}, {"rental_uris": {"ios": "https://dc.lft.to/lastmile_qr_scan", "android": "https://dc.lft.to/lastmile_qr_scan"}, "type": "electric_scooter", "name": "387d48dd429c5d776907a525c1849bca", "is_reserved": 0, "lon": -77.0029465, "is_disabled": 0, "fusion_lat": 0.0, "lat": 38.8772725, "bike_id": "387d48dd429c5d776907a525c1849bca", "fusion_lon": 0.0}, {"rental_uris": {"ios": "https://dc.lft.to/lastmile_qr_scan", "android": "https://dc.lft.to/lastmile_qr_scan"}, "type": "electric_scooter", "name": "5b528712f10d353cf929feab9a914c67", "is_reserved": 0, "lon": -77.0580805, "is_disabled": 0, "fusion_lat": 0.0, "lat": 38.929063666666664, "bike_id": "5b528712f10d353cf929feab9a914c67", "fusion_lon": 0.0}, {"rental_uris": {"ios": "https://dc.lft.to/lastmile_qr_scan", "android": "https://dc.lft.to/lastmile_qr_scan"}, "type": "electric_scooter", "name": "171ba596ca183e8542d14b518c4a917c", "is_reserved": 0, "lon": -77.02296116666666, "is_disabled": 0, "fusion_lat": 0.0, "lat": 38.920842, "bike_id": "171ba596ca183e8542d14b518c4a917c", "fusion_lon": 0.0}, {"rental_uris": {"ios": "https://dc.lft.to/lastmile_qr_scan", "android": "https://dc.lft.to/lastmile_qr_scan"}, "type": "electric_scooter", "name": "f24291c039b12020d0e47e7da1dbfcbf", "is_reserved": 0, "lon": -77.012984, "is_disabled": 0, "fusion_lat": 0.0, "lat": 38.8777535, "bike_id": "f24291c039b12020d0e47e7da1dbfcbf", "fusion_lon": 0.0}, {"rental_uris": {"ios": "https://dc.lft.to/lastmile_qr_scan", "android": "https://dc.lft.to/lastmile_qr_scan"}, "type": "electric_scooter", "name": "3baf1a22ed485370e00a40fb8a38ea05", "is_reserved": 0, "lon": -77.01886666666667, "is_disabled": 0, "fusion_lat": 0.0, "lat": 38.8974705, "bike_id": "3baf1a22ed485370e00a40fb8a38ea05", "fusion_lon": 0.0}, {"rental_uris": {"ios": "https://dc.lft.to/lastmile_qr_scan", "android": "https://dc.lft.to/lastmile_qr_scan"}, "type": "electric_scooter", "name": "f57bdcb71a4ed7d5ea252948272c1847", "is_reserved": 0, "lon": -76.99720133333334, "is_disabled": 0, "fusion_lat": 0.0, "lat": 38.84543716666667, "bike_id": "f57bdcb71a4ed7d5ea252948272c1847", "fusion_lon": 0.0}, {"rental_uris": {"ios": "https://dc.lft.to/lastmile_qr_scan", "android": "https://dc.lft.to/lastmile_qr_scan"}, "type": "electric_bike", "name": "841c57609c440f1465dfc95565ae13d2", "is_reserved": 0, "lon": -77.04073, "is_disabled": 0, "fusion_lat": 0.0, "lat": 38.830599666666664, "bike_id": "841c57609c440f1465dfc95565ae13d2", "fusion_lon": 0.0}, {"rental_uris": {"ios": "https://dc.lft.to/lastmile_qr_scan", "android": "https://dc.lft.to/lastmile_qr_scan"}, "type": "electric_scooter", "name": "75c11f47d5d05acd56cc9418c16a2610", "is_reserved": 0, "lon": -77.0320485, "is_disabled": 0, "fusion_lat": 0.0, "lat": 38.91313733333333, "bike_id": "75c11f47d5d05acd56cc9418c16a2610", "fusion_lon": 0.0}, {"rental_uris": {"ios": "https://dc.lft.to/lastmile_qr_scan", "android": "https://dc.lft.to/lastmile_qr_scan"}, "type": "electric_bike", "name": "ec451f3f9439b558d7e677c34994a41b", "is_reserved": 0, "lon": -77.08525516666667, "is_disabled": 0, "fusion_lat": 0.0, "lat": 38.856471666666664, "bike_id": "ec451f3f9439b558d7e677c34994a41b", "fusion_lon": 0.0}, {"rental_uris": {"ios": "https://dc.lft.to/lastmile_qr_scan", "android": "https://dc.lft.to/lastmile_qr_scan"}, "type": "electric_bike", "name": "39d207375164c35b06f8b93517219806", "is_reserved": 0, "lon": -77.12671866666666, "is_disabled": 0, "fusion_lat": 0.0, "lat": 38.81918983333333, "bike_id": "39d207375164c35b06f8b93517219806", "fusion_lon": 0.0}, {"rental_uris": {"ios": "https://dc.lft.to/lastmile_qr_scan", "android": "https://dc.lft.to/lastmile_qr_scan"}, "type": "electric_scooter", "name": "6cb8ae3853eb28951d57a9cb998823da", "is_reserved": 0, "lon": -77.04393716666667, "is_disabled": 0, "fusion_lat": 0.0, "lat": 38.920578, "bike_id": "6cb8ae3853eb28951d57a9cb998823da", "fusion_lon": 0.0}, {"rental_uris": {"ios": "https://dc.lft.to/lastmile_qr_scan", "android": "https://dc.lft.to/lastmile_qr_scan"}, "type": "electric_scooter", "name": "af10885d417b408ab91d292d525b1ed5", "is_reserved": 0, "lon": -77.02508866666666, "is_disabled": 0, "fusion_lat": 0.0, "lat": 38.9354415, "bike_id": "af10885d417b408ab91d292d525b1ed5", "fusion_lon": 0.0}, {"rental_uris": {"ios": "https://dc.lft.to/lastmile_qr_scan", "android": "https://dc.lft.to/lastmile_qr_scan"}, "type": "electric_scooter", "name": "aca4449bef17e1cce05f0d0f481f5b80", "is_reserved": 0, "lon": -77.005434, "is_disabled": 0, "fusion_lat": 0.0, "lat": 38.876413166666666, "bike_id": "aca4449bef17e1cce05f0d0f481f5b80", "fusion_lon": 0.0},