{"data": {"bikes": [{"name": "876b26ae9d608e2374995b43655721ce", "is_disabled": 0, "fusion_lat": 0.0, "fusion_lon": 0.0, "type": "electric_scooter", "lat": 38.902121, "bike_id": "876b26ae9d608e2374995b43655721ce", "is_reserved": 0, "lon": -77.0466505, "rental_uris": {"android": "https://dc.lft.to/lastmile_qr_scan", "ios": "https://dc.lft.to/lastmile_qr_scan"}}, {"name": "b3fbff8fe83e1914fd5686a5b9bd7f64", "is_disabled": 0, "fusion_lat": 0.0, "fusion_lon": 0.0, "type": "electric_scooter", "lat": 38.892985, "bike_id": "b3fbff8fe83e1914fd5686a5b9bd7f64", "is_reserved": 0, "lon": -76.99824516666666, "rental_uris": {"android": "https://dc.lft.to/lastmile_qr_scan", "ios": "https://dc.lft.to/lastmile_qr_scan"}}, {"name": "ad3e11abc36c29cfc733e6fc803e8ac4", "is_disabled": 0, "fusion_lat": 0.0, "fusion_lon": 0.0, "type": "electric_scooter", "lat": 38.92294166666667, "bike_id": "ad3e11abc36c29cfc733e6fc803e8ac4", "is_reserved": 0, "lon": -77.0426515, "rental_uris": {"android": "https://dc.lft.to/lastmile_qr_scan", "ios": "https://dc.lft.to/lastmile_qr_scan"}}, {"name": "a04e11bff81363587ae6a9a35afd2fea", "is_disabled": 0, "fusion_lat": 0.0, "fusion_lon": 0.0, "type": "electric_scooter", "lat": 38.951882499999996, "bike_id": "a04e11bff81363587ae6a9a35afd2fea", "is_reserved": 0, "lon": -77.026196, "rental_uris": {"android": "https://dc.lft.to/lastmile_qr_scan", "ios": "https://dc.lft.to/lastmile_qr_scan"}}, {"name": "24d42a8ad8307f08cec769da3c7ac0b6", "is_disabled": 0, "fusion_lat": 0.0, "fusion_lon": 0.0, "type": "electric_scooter", "lat": 38.88475783333333, "bike_id": "24d42a8ad8307f08cec769da3c7ac0b6", "is_reserved": 0, "lon": -77.02658916666667, "rental_uris": {"android": "https://dc.lft.to/lastmile_qr_scan", "ios": "https://dc.lft.to/lastmile_qr_scan"}}, {"name": "95ccdc901a32143012fa1554495c99e1", "is_disabled": 0, "fusion_lat": 0.0, "fusion_lon": 0.0, "type": "electric_scooter", "lat": 38.91814633333333, "bike_id": "95ccdc901a32143012fa1554495c99e1", "is_reserved": 0, "lon": -77.03272983333333, "rental_uris": {"android": "https://dc.lft.to/lastmile_qr_scan", "ios": "https://dc.lft.to/lastmile_qr_scan"}}, {"name": "18167571f3d0ac71e14158594399bf2d", "is_disabled": 0, "fusion_lat": 0.0, "fusion_lon": 0.0, "type": "electric_scooter", "lat": 38.90754783333333, "bike_id": "18167571f3d0ac71e14158594399bf2d", "is_reserved": 0, "lon": -77.03071366666667, "rental_uris": {"android": "https://dc.lft.to/lastmile_qr_scan", "ios": "https://dc.lft.to/lastmile_qr_scan"}}, {"name": "4081b7f5c01a24c3c74c05cbdae0b160", "is_disabled": 0, "fusion_lat": 0.0, "fusion_lon": 0.0, "type": "electric_scooter", "lat": 38.893649, "bike_id": "4081b7f5c01a24c3c74c05cbdae0b160", "is_reserved": 0, "lon": -77.054955, "rental_uris": {"android": "https://dc.lft.to/lastmile_qr_scan", "ios": "https://dc.lft.to/lastmile_qr_scan"}}, {"name": "96daedcce4c99b0220987cd69bd5d9ba", "is_disabled": 0, "fusion_lat": 0.0, "fusion_lon": 0.0, "type": "electric_scooter", "lat": 38.8979065, "bike_id": "96daedcce4c99b0220987cd69bd5d9ba", "is_reserved": 0, "lon": -77.02475133333333, "rental_uris": {"android": "https://dc.lft.to/lastmile_qr_scan", "ios": "https://dc.lft.to/lastmile_qr_scan"}}, {"name": "582cd4c00be1fcbe9baea931f345718a", "is_disabled": 0, "fusion_lat": 0.0, "fusion_lon": 0.0, "type": "electric_scooter", "lat": 38.9077635, "bike_id": "582cd4c00be1fcbe9baea931f345718a", "is_reserved": 0, "lon": -77.03816983333333, "rental_uris": {"android": "https://dc.lft.to/lastmile_qr_scan", "ios": "https://dc.lft.to/lastmile_qr_scan"}}, {"name": "9e8a6d17438f5e286a05c8e269fbd29e", "is_disabled": 0, "fusion_lat": 0.0, "fusion_lon": 0.0, "type": "electric_scooter", "lat": 38.902286333333336, "bike_id": "9e8a6d17438f5e286a05c8e269fbd29e", "is_reserved": 0, "lon": -77.0434605, "rental_uris": {"android": "https://dc.lft.to/lastmile_qr_scan", "ios": "https://dc.lft.to/lastmile_qr_scan"}}, {"name": "89b54a5a8502c46472e096b168b74fc4", "is_disabled": 0, "fusion_lat": 0.0, "fusion_lon": 0.0, "type": "electric_scooter", "lat": 38.922959666666664, "bike_id": "89b54a5a8502c46472e096b168b74fc4", "is_reserved": 0, "lon": -77.043026, "rental_uris": {"android": "https://dc.lft.to/lastmile_qr_scan", "ios": "https://dc.lft.to/lastmile_qr_scan"}}, {"name": "5113aee5caa5bbd8819b4b8d45de72df", "is_disabled": 0, "fusion_lat": 0.0, "fusion_lon": 0.0, "type": "electric_scooter", "lat": 38.89615283333333, "bike_id": "5113aee5caa5bbd8819b4b8d45de72df", "is_reserved": 0, "lon": -76.9816465, "rental_uris": {"android": "https://dc.lft.to/lastmile_qr_scan", "ios": "https://dc.lft.to/lastmile_qr_scan"}}, {"name": "d396c1ae1ee69617661f66bb9bdfce56", "is_disabled": 0, "fusion_lat": 0.0, "fusion_lon": 0.0, "type": "electric_scooter", "lat": 38.92504066666667, "bike_id": "d396c1ae1ee69617661f66bb9bdfce56", "is_reserved": 0, "lon": -77.02345683333333, "rental_uris": {"android": "https://dc.lft.to/lastmile_qr_scan", "ios": "https://dc.lft.to/lastmile_qr_scan"}}, {"name": "fe9bc60f2cd55bb4abb3b60a25448252", "is_disabled": 0, "fusion_lat": 0.0, "fusion_lon": 0.0, "type": "electric_scooter", "lat": 38.90221566666666, "bike_id": "fe9bc60f2cd55bb4abb3b60a25448252", "is_reserved": 0, "lon": -77.028642, "rental_uris": {"android": "https://dc.lft.to/lastmile_qr_scan", "ios": "https://dc.lft.to/lastmile_qr_scan"}}, {"name": "ca40d59697925133c16f12a7bf409568", "is_disabled": 0, "fusion_lat": 0.0, "fusion_lon": 0.0, "type": "electric_scooter", "lat": 38.883916, "bike_id": "ca40d59697925133c16f12a7bf409568", "is_reserved": 0, "lon": -76.95449083333334, "rental_uris": {"android": "https://dc.lft.to/lastmile_qr_scan", "ios": "https://dc.lft.to/lastmile_qr_scan"}}, {"name": "818f2d60a3764ec836341e7d2bd769bc", "is_disabled": 0, "fusion_lat": 0.0, "fusion_lon": 0.0, "type": "electric_scooter", "lat": 38.914593833333335, "bike_id": "818f2d60a3764ec836341e7d2bd769bc", "is_reserved": 0, "lon": -77.0210805, "rental_uris": {"android": "https://dc.lft.to/lastmile_qr_scan", "ios": "https://dc.lft.to/lastmile_qr_scan"}}, {"name": "c03a9407fe5e2a57d5205fb8d667735b", "is_disabled": 0, "fusion_lat": 0.0, "fusion_lon": 0.0, "type": "electric_scooter", "lat": 38.871653, "bike_id": "c03a9407fe5e2a57d5205fb8d667735b", "is_reserved": 0, "lon": -76.9775435, "rental_uris": {"android": "https://dc.lft.to/lastmile_qr_scan", "ios": "https://dc.lft.to/lastmile_qr_scan"}}, {"name": "1414c7ee90e1036f502d0c6de817839a", "is_disabled": 0, "fusion_lat": 0.0, "fusion_lon": 0.0, "type": "electric_scooter", "lat": 38.91551783333333, "bike_id": "1414c7ee90e1036f502d0c6de817839a", "is_reserved": 0, "lon": -77.03458816666667, "rental_uris": {"android": "https://dc.lft.to/lastmile_qr_scan", "ios": "https://dc.lft.to/lastmile_qr_scan"}}, {"name": "9596846e72a685bdb27e806c62365680", "is_disabled": 0, "fusion_lat": 0.0, "fusion_lon": 0.0, "type": "electric_scooter", "lat": 38.921037166666665, "bike_id": "9596846e72a685bdb27e806c62365680", "is_reserved": 0, "lon": -77.03174716666666, "rental_uris": {"android": "https://dc.lft.to/lastmile_qr_scan", "ios": "https://dc.lft.to/lastmile_qr_scan"}}, {"name": "a1707c2c07e9928b1193bcb4e5c2d44c", "is_disabled": 0, "fusion_lat": 0.0, "fusion_lon": 0.0, "type": "electric_scooter", "lat": 38.920472, "bike_id": "a1707c2c07e9928b1193bcb4e5c2d44c", "is_reserved": 0, "lon": -77.02577533333333, "rental_uris": {"android": "https://dc.lft.to/lastmile_qr_scan", "ios": "https://dc.lft.to/lastmile_qr_scan"}}, {"name": "661debf820f5856d29f9090d67974b4b", "is_disabled": 0, "fusion_lat": 0.0, "fusion_lon": 0.0, "type": "electric_scooter", "lat": 38.891783, "bike_id": "661debf820f5856d29f9090d67974b4b", "is_reserved": 0, "lon": -76.91195216666667, "rental_uris": {"android": "https://dc.lft.to/lastmile_qr_scan", "ios": "https://dc.lft.to/lastmile_qr_scan"}}, {"name": "ea00fb1982298f926074304a9045ba78", "is_disabled": 0, "fusion_lat": 0.0, "fusion_lon": 0.0, "type": "electric_scooter", "lat": 38.917164166666666, "bike_id": "ea00fb1982298f926074304a9045ba78", "is_reserved": 0, "lon": -77.038564, "rental_uris": {"android": "https://dc.lft.to/lastmile_qr_scan", "ios": "https://dc.lft.to/lastmile_qr_scan"}}, {"name": "72f97ebeeab2b26099ae5c01f3a949d1", "is_disabled": 0, "fusion_lat": 0.0, "fusion_lon": 0.0, "type": "electric_scooter", "lat": 38.901116333333334, "bike_id": "72f97ebeeab2b26099ae5c01f3a949d1", "is_reserved": 0, "lon": -77.0437315, "rental_uris": {"android": "https://dc.lft.to/lastmile_qr_scan", "ios": "https://dc.lft.to/lastmile_qr_scan"}}, {"name": "fc9c67ea8d5d7ef1011d86812b5fb944", "is_disabled": 0, "fusion_lat": 0.0, "fusion_lon": 0.0, "type": "electric_scooter", "lat": 38.8943125, "bike_id": "fc9c67ea8d5d7ef1011d86812b5fb944", "is_reserved": 0, "lon": -77.040081, "rental_uris": {"android": "https://dc.lft.to/lastmile_qr_scan", "ios": "https://dc.lft.to/lastmile_qr_scan"}}, {"name": "d609154c3f3e834af98372da67e41602", "is_disabled": 0, "fusion_lat": 0.0, "fusion_lon": 0.0, "type": "electric_scooter", "lat": 38.90488883333333, "bike_id": "d609154c3f3e834af98372da67e41602", "is_reserved": 0, "lon": -76.987163, "rental_uris": {"android": "https://dc.lft.to/lastmile_qr_scan", "ios": "https://dc.lft.to/lastmile_qr_scan"}}, {"name": "315dc6710cf2837791e8a07daf4fcdc4", "is_disabled": 0, "fusion_lat": 0.0, "fusion_lon": 0.0, "type": "electric_scooter", "lat": 38.92163083333333, "bike_id": "315dc6710cf2837791e8a07daf4fcdc4", "is_reserved": 0, "lon": -77.033718, "rental_uris": {"android": "https://dc.lft.to/lastmile_qr_scan", "ios": "https://dc.lft.to/lastmile_qr_scan"}}, {"name": "5e87bf73cfe40416ca58050fd4a18ad3", "is_disabled": 0, "fusion_lat": 0.0, "fusion_lon": 0.0, "type": "electric_bike", "lat": 38.93227783333333, "bike_id": "5e87bf73cfe40416ca58050fd4a18ad3", "is_reserved": 0, "lon": -77.18120016666667, "rental_uris": {"android": "https://dc.lft.to/lastmile_qr_scan", "ios": "https://dc.lft.to/lastmile_qr_scan"}}, {"name": "92bc995067a6e7d6fb55dae9fed663c6", "is_disabled": 0, "fusion_lat": 0.0, "fusion_lon": 0.0, "type": "electric_scooter", "lat": 38.89712866666667, "bike_id": "92bc995067a6e7d6fb55dae9fed663c6", "is_reserved": 0, "lon": -77.02945383333333, "rental_uris": {"android": "https://dc.lft.to/lastmile_qr_scan", "ios": "https://dc.lft.to/lastmile_qr_scan"}}, {"name": "5fd445b669677123dd47af7dcd868d23", "is_disabled": 0, "fusion_lat": 0.0, "fusion_lon": 0.0, "type": "electric_scooter", "lat": 38.90720983333333, "bike_id": "5fd445b669677123dd47af7dcd868d23", "is_reserved": 0, "lon": -77.04341416666666, "rental_uris": {"android": "https://dc.lft.to/lastmile_qr_scan", "ios": "https://dc.lft.to/lastmile_qr_scan"}}, {"name": "416111eab145d11f9caa7f6ec4f02710", "is_disabled": 0, "fusion_lat": 0.0, "fusion_lon": 0.0, "type": "electric_scooter", "lat": 38.91767816666667, "bike_id": "416111eab145d11f9caa7f6ec4f02710", "is_reserved": 0, "lon": -77.04063766666667, "rental_uris": {"android": "https://dc.lft.to/lastmile_qr_scan", "ios": "https://dc.lft.to/lastmile_qr_scan"}}, {"name": "ae25e3687c868e4b3e056a1fae6a2a0d", "is_disabled": 0, "fusion_lat": 0.0, "fusion_lon": 0.0, "type": "electric_scooter", "lat": 38.91318833333333, "bike_id": "ae25e3687c868e4b3e056a1fae6a2a0d", "is_reserved": 0, "lon": -77.062554, "rental_uris": {"android": "https://dc.lft.to/lastmile_qr_scan", "ios": "https://dc.lft.to/lastmile_qr_scan"}}, {"name": "8dbd0c3375fa1b3693fa841fe6b31e59", "is_disabled": 0, "fusion_lat": 0.0, "fusion_lon": 0.0, "type": "electric_scooter", "lat": 38.9262595, "bike_id": "8dbd0c3375fa1b3693fa841fe6b31e59", "is_reserved": 0, "lon": -77.04332733333334, "rental_uris": {"android": "https://dc.lft.to/lastmile_qr_scan", "ios": "https://dc.lft.to/lastmile_qr_scan"}}, {"name": "3c7de87fd5cf243fad9ee91c63845480", "is_disabled": 0, "fusion_lat": 0.0, "fusion_lon": 0.0, "type": "electric_scooter", "lat": 38.90006133333333, "bike_id": "3c7de87fd5cf243fad9ee91c63845480", "is_reserved": 0, "lon": -77.0413735, "rental_uris": {"android": "https://dc.lft.to/lastmile_qr_scan", "ios": "https://dc.lft.to/lastmile_qr_scan"}}, {"name": "67bd1866b690d9f56c6df9e079de114c", "is_disabled": 0, "fusion_lat": 0.0, "fusion_lon": 0.0, "type": "electric_scooter", "lat": 38.9162895, "bike_id": "67bd1866b690d9f56c6df9e079de114c", "is_reserved": 0, "lon": -77.04777533333333, "rental_uris": {"android": "https://dc.lft.to/lastmile_qr_scan", "ios": "https://dc.lft.to/lastmile_qr_scan"}}, {"name": "587704a9105bceef022e64237289de65", "is_disabled": 0, "fusion_lat": 0.0, "fusion_lon": 0.0, "type": "electric_scooter", "lat": 38.91482933333333, "bike_id": "587704a9105bceef022e64237289de65", "is_reserved": 0, "lon": -77.0409435, "rental_uris": {"android": "https://dc.lft.to/lastmile_qr_scan", "ios": "https://dc.lft.to/lastmile_qr_scan"}}, {"name": "653a61f03f06c6cdba24ca4234269ee2", "is_disabled": 0, "fusion_lat": 0.0, "fusion_lon": 0.0, "type": "electric_scooter", "lat": 38.9324875, "bike_id": "653a61f03f06c6cdba24ca4234269ee2", "is_reserved": 0, "lon": -77.0285765, "rental_uris": {"android": "https://dc.lft.to/lastmile_qr_scan", "ios": "https://dc.lft.to/lastmile_qr_scan"}}, {"name": "ba783fac69ab7f80045cb9b399ac42d5", "is_disabled": 0, "fusion_lat": 0.0, "fusion_lon": 0.0, "type": "electric_scooter", "lat": 38.92876866666667, "bike_id": "ba783fac69ab7f80045cb9b399ac42d5", "is_reserved": 0, "lon": -77.03299883333334, "rental_uris": {"android": "https://dc.lft.to/lastmile_qr_scan", "ios": "https://dc.lft.to/lastmile_qr_scan"}}, {"name": "733c3747e7fb707d3fb8e5345fd8b38d", "is_disabled": 0, "fusion_lat": 0.0, "fusion_lon": 0.0, "type": "electric_bike", "lat": 38.95327, "bike_id": "733c3747e7fb707d3fb8e5345fd8b38d", "is_reserved": 0, "lon": -76.95429283333333, "rental_uris": {"android": "https://dc.lft.to/lastmile_qr_scan", "ios": "https://dc.lft.to/lastmile_qr_scan"}}, {"name": "c803174912fcdd8e4a26d8e91d710ae8", "is_disabled": 0, "fusion_lat": 0.0, "fusion_lon": 0.0, "type": "electric_scooter", "lat": 38.923101833333334, "bike_id": "c803174912fcdd8e4a26d8e91d710ae8", "is_reserved": 0, "lon": -77.03527633333333, "rental_uris": {"android": "https://dc.lft.to/lastmile_qr_scan", "ios": "https://dc.lft.to/lastmile_qr_scan"}}, {"name": "47648fb456fbcc60b9b60f29f8759d2c", "is_disabled": 0, "fusion_lat": 0.0, "fusion_lon": 0.0, "type": "electric_scooter", "lat": 38.942910499999996, "bike_id": "47648fb456fbcc60b9b60f29f8759d2c", "is_reserved": 0, "lon": -77.0217365, "rental_uris": {"android": "https://dc.lft.to/lastmile_qr_scan", "ios": "https://dc.lft.to/lastmile_qr_scan"}}, {"name": "28d05ac164daa9ccfa6543eebac57989", "is_disabled": 0, "fusion_lat": 0.0, "fusion_lon": 0.0, "type": "electric_scooter", "lat": 38.88820183333333, "bike_id": "28d05ac164daa9ccfa6543eebac57989", "is_reserved": 0, "lon": -76.95103716666667, "rental_uris": {"android": "https://dc.lft.to/lastmile_qr_scan", "ios": "https://dc.lft.to/lastmile_qr_scan"}}, {"name": "c6fd66d6adf9a99d08e37b28d401914b", "is_disabled": 0, "fusion_lat": 0.0, "fusion_lon": 0.0, "type": "electric_scooter", "lat": 38.90776416666667, "bike_id": "c6fd66d6adf9a99d08e37b28d401914b", "is_reserved": 0, "lon": -77.03822116666667, "rental_uris": {"android": "https://dc.lft.to/lastmile_qr_scan", "ios": "https://dc.lft.to/lastmile_qr_scan"}}, {"name": "31d142256f3e187e5dfae089d0736522", "is_disabled": 0, "fusion_lat": 0.0, "fusion_lon": 0.0, "type": "electric_scooter", "lat": 38.90934033333333, "bike_id": "31d142256f3e187e5dfae089d0736522", "is_reserved": 0, "lon": -77.03074283333333, "rental_uris": {"android": "https://dc.lft.to/lastmile_qr_scan", "ios": "https://dc.lft.to/lastmile_qr_scan"}}, {"name": "c60c48667ea24b041120569480836a31", "is_disabled": 0, "fusion_lat": 0.0, "fusion_lon": 0.0, "type": "electric_scooter", "lat": 38.89301433333333, "bike_id": "c60c48667ea24b041120569480836a31", "is_reserved": 0, "lon": -76.99279216666666, "rental_uris": {"android": "https://dc.lft.to/lastmile_qr_scan", "ios": "https://dc.lft.to/lastmile_qr_scan"}}, {"name": "6345389291c9b78d9798d119396a140a", "is_disabled": 0, "fusion_lat": 0.0, "fusion_lon": 0.0, "type": "electric_scooter", "lat": 38.90044233333333, "bike_id": "6345389291c9b78d9798d119396a140a", "is_reserved": 0, "lon": -77.024008, "rental_uris": {"android": "https://dc.lft.to/lastmile_qr_scan", "ios": "https://dc.lft.to/lastmile_qr_scan"}}, {"name": "c80d96d9c65f75dfb429d51be832ad8c", "is_disabled": 0, "fusion_lat": 0.0, "fusion_lon": 0.0, "type": "electric_scooter", "lat": 38.959295833333336, "bike_id": "c80d96d9c65f75dfb429d51be832ad8c", "is_reserved": 0, "lon": -77.03122033333334, "rental_uris": {"android": "https://dc.lft.to/lastmile_qr_scan", "ios": "https://dc.lft.to/lastmile_qr_scan"}}, {"name": "6b83e3b8dad7966f18b845712ad25f13", "is_disabled": 0, "fusion_lat": 0.0, "fusion_lon": 0.0, "type": "electric_scooter", "lat": 38.915825166666664, "bike_id": "6b83e3b8dad7966f18b845712ad25f13", "is_reserved": 0, "lon": -77.03195383333333, "rental_uris": {"android": "https://dc.lft.to/lastmile_qr_scan", "ios": "https://dc.lft.to/lastmile_qr_scan"}}, {"name": "7dc79800a1c5ce1bb913cb05e778aab0", "is_disabled": 0, "fusion_lat": 0.0, "fusion_lon": 0.0, "type": "electric_scooter", "lat": 38.930977, "bike_id": "7dc79800a1c5ce1bb913cb05e778aab0", "is_reserved": 0, "lon": -77.03812616666667, "rental_uris": {"android": "https://dc.lft.to/lastmile_qr_scan", "ios": "https://dc.lft.to/lastmile_qr_scan"}}, {"name": "1627d47b9a95db22430be2918fa999a9", "is_disabled": 0, "fusion_lat": 0.0, "fusion_lon": 0.0, "type": "electric_bike", "lat": 38.80128, "bike_id": "1627d47b9a95db22430be2918fa999a9", "is_reserved": 0, "lon": -77.070479, "rental_uris": {"android": "https://dc.lft.to/lastmile_qr_scan", "ios": "https://dc.lft.to/lastmile_qr_scan"}}, {"name": "60dc65449e2054f3e69cfcbe069d9874", "is_disabled": 0, "fusion_lat": 0.0, "fusion_lon": 0.0, "type": "electric_scooter", "lat": 38.898466, "bike_id": "60dc65449e2054f3e69cfcbe069d9874", "is_reserved": 0, "lon": -77.04157716666667, "rental_uris": {"android": "https://dc.lft.to/lastmile_qr_scan", "ios": "https://dc.lft.to/lastmile_qr_scan"}}, {"name": "9e70792bc174af6e3a19c7337974384e", "is_disabled": 0, "fusion_lat": 0.0, "fusion_lon": 0.0, "type": "electric_scooter", "lat": 38.900318166666665, "bike_id": "9e70792bc174af6e3a19c7337974384e", "is_reserved": 0, "lon": -77.00219416666667, "rental_uris": {"android": "https://dc.lft.to/lastmile_qr_scan", "ios": "https://dc.lft.to/lastmile_qr_scan"}}, {"name": "672a41b1e6d907f7e1554ddb1cbe414e", "is_disabled": 0, "fusion_lat": 0.0, "fusion_lon": 0.0, "type": "electric_scooter", "lat": 38.92511966666667, "bike_id": "672a41b1e6d907f7e1554ddb1cbe414e", "is_reserved": 0, "lon": -77.05258966666666, "rental_uris": {"android": "https://dc.lft.to/lastmile_qr_scan", "ios": "https://dc.lft.to/lastmile_qr_scan"}}, {"name": "7807700ea062a8243ffd2232d8fc059a", "is_disabled": 0, "fusion_lat": 0.0, "fusion_lon": 0.0, "type": "electric_scooter", "lat": 38.89015333333333, "bike_id": "7807700ea062a8243ffd2232d8fc059a", "is_reserved": 0, "lon": -76.93733766666666, "rental_uris": {"android": "https://dc.lft.to/lastmile_qr_scan", "ios": "https://dc.lft.to/lastmile_qr_scan"}}, {"name": "093930fdde917dfb10d460e5a1c543d0", "is_disabled": 0, "fusion_lat": 0.0, "fusion_lon": 0.0, "type": "electric_scooter", "lat": 38.908429, "bike_id": "093930fdde917dfb10d460e5a1c543d0", "is_reserved": 0, "lon": -77.0349345, "rental_uris": {"android": "https://dc.lft.to/lastmile_qr_scan", "ios": "https://dc.lft.to/lastmile_qr_scan"}}, {"name": "fc72ef4e7d2cb9ea00e9f45856870f78", "is_disabled": 0, "fusion_lat": 0.0, "fusion_lon": 0.0, "type": "electric_scooter", "lat": 38.910844166666664, "bike_id": "fc72ef4e7d2cb9ea00e9f45856870f78", "is_reserved": 0, "lon": -76.99269216666667, "rental_uris": {"android": "https://dc.lft.to/lastmile_qr_scan", "ios": "https://dc.lft.to/lastmile_qr_scan"}}, {"name": "afc9b34a5c806f4bd81bfa17e7e296db", "is_disabled": 0, "fusion_lat": 0.0, "fusion_lon": 0.0, "type": "electric_scooter", "lat": 38.919004666666666, "bike_id": "afc9b34a5c806f4bd81bfa17e7e296db", "is_reserved": 0, "lon": -77.02094866666667, "rental_uris": {"android": "https://dc.lft.to/lastmile_qr_scan", "ios": "https://dc.lft.to/lastmile_qr_scan"}}, {"name": "24ddff946d564e09a095229ed8f3d7ef", "is_disabled": 0, "fusion_lat": 0.0, "fusion_lon": 0.0, "type": "electric_bike", "lat": 38.936097333333336, "bike_id": "24ddff946d564e09a095229ed8f3d7ef", "is_reserved": 0, "lon": -77.09016716666666, "rental_uris": {"android": "https://dc.lft.to/lastmile_qr_scan", "ios": "https://dc.lft.to/lastmile_qr_scan"}}, {"name": "e6279d830aba037e517bc0b7ddf7b3b1", "is_disabled": 0, "fusion_lat": 0.0, "fusion_lon": 0.0, "type": "electric_scooter", "lat": 38.907714166666665, "bike_id": "e6279d830aba037e517bc0b7ddf7b3b1", "is_reserved": 0, "lon": -76.9783465, "rental_uris": {"android": "https://dc.lft.to/lastmile_qr_scan", "ios": "https://dc.lft.to/lastmile_qr_scan"}}, {"name": "5e70e15087d670e23f3acf0f16abca08", "is_disabled": 0, "fusion_lat": 0.0, "fusion_lon": 0.0, "type": "electric_scooter", "lat": 38.91752, "bike_id": "5e70e15087d670e23f3acf0f16abca08", "is_reserved": 0, "lon": -77.02387683333333, "rental_uris": {"android": "https://dc.lft.to/lastmile_qr_scan", "ios": "https://dc.lft.to/lastmile_qr_scan"}}, {"name": "c4921aa4db0d2103d7a34e7ab220af4f", "is_disabled": 0, "fusion_lat": 0.0, "fusion_lon": 0.0, "type": "electric_scooter", "lat": 38.900825, "bike_id": "c4921aa4db0d2103d7a34e7ab220af4f", "is_reserved": 0, "lon": -77.0467045, "rental_uris": {"android": "https://dc.lft.to/lastmile_qr_scan", "ios": "https://dc.lft.to/lastmile_qr_scan"}}, {"name": "66997048fb863ae881a5dbcff652e540", "is_disabled": 0, "fusion_lat": 0.0, "fusion_lon": 0.0, "type": "electric_scooter", "lat": 38.90834783333333, "bike_id": "66997048fb863ae881a5dbcff652e540", "is_reserved": 0, "lon": -76.93164466666667, "rental_uris": {"android": "https://dc.lft.to/lastmile_qr_scan", "ios": "https://dc.lft.to/lastmile_qr_scan"}}, {"name": "7522eecb43a202ac060f834b81f7cd34", "is_disabled": 0, "fusion_lat": 0.0, "fusion_lon": 0.0, "type": "electric_scooter", "lat": 38.9521215, "bike_id": "7522eecb43a202ac060f834b81f7cd34", "is_reserved": 0, "lon": -77.02733633333334, "rental_uris": {"android": "https://dc.lft.to/lastmile_qr_scan", "ios": "https://dc.lft.to/lastmile_qr_scan"}}, {"name": "0e0451166f00ed0d372f0ac058abc7d4", "is_disabled": 0, "fusion_lat": 0.0, "fusion_lon": 0.0, "type": "electric_scooter", "lat": 38.8921965, "bike_id": "0e0451166f00ed0d372f0ac058abc7d4", "is_reserved": 0, "lon": -77.02228616666666, "rental_uris": {"android": "https://dc.lft.to/lastmile_qr_scan", "ios": "https://dc.lft.to/lastmile_qr_scan"}}, {"name": "c218777e33598300fc310276daddf1f8", "is_disabled": 0, "fusion_lat": 0.0, "fusion_lon": 0.0, "type": "electric_scooter", "lat": 38.924797833333336, "bike_id": "c218777e33598300fc310276daddf1f8", "is_reserved": 0, "lon": -77.02719266666666, "rental_uris": {"android": "https://dc.lft.to/lastmile_qr_scan", "ios": "https://dc.lft.to/lastmile_qr_scan"}}, {"name": "2b8a978543fa67186278b08fcfc22670", "is_disabled": 0, "fusion_lat": 0.0, "fusion_lon": 0.0, "type": "electric_scooter", "lat": 38.91594683333334, "bike_id": "2b8a978543fa67186278b08fcfc22670", "is_reserved": 0, "lon": -77.023063, "rental_uris": {"android": "https://dc.lft.to/lastmile_qr_scan", "ios": "https://dc.lft.to/lastmile_qr_scan"}}, {"name": "95b29c88cba21ef4fe5f4a83d6864faa", "is_disabled": 0, "fusion_lat": 0.0, "fusion_lon": 0.0, "type": "electric_scooter", "lat": 38.91900666666667, "bike_id": "95b29c88cba21ef4fe5f4a83d6864faa", "is_reserved": 0, "lon": -76.987444, "rental_uris": {"android": "https://dc.lft.to/lastmile_qr_scan", "ios": "https://dc.lft.to/lastmile_qr_scan"}}, {"name": "470c56cdc5e3b7eae4ab0c2f488e8645", "is_disabled": 0, "fusion_lat": 0.0, "fusion_lon": 0.0, "type": "electric_bike", "lat": 38.9959515, "bike_id": "470c56cdc5e3b7eae4ab0c2f488e8645", "is_reserved": 0, "lon": -77.02678516666667, "rental_uris": {"android": "https://dc.lft.to/lastmile_qr_scan", "ios": "https://dc.lft.to/lastmile_qr_scan"}}, {"name": "018934ed234f00bfdbf807f12ba1d115", "is_disabled": 0, "fusion_lat": 0.0, "fusion_lon": 0.0, "type": "electric_scooter", "lat": 38.91251466666667, "bike_id": "018934ed234f00bfdbf807f12ba1d115", "is_reserved": 0, "lon": -77.04439616666667, "rental_uris": {"android": "https://dc.lft.to/lastmile_qr_scan", "ios": "https://dc.lft.to/lastmile_qr_scan"}}, {"name": "f404a14025021e762d89021d6d03e6a3", "is_disabled": 0, "fusion_lat": 0.0, "fusion_lon": 0.0, "type": "electric_scooter", "lat": 38.89881466666667, "bike_id": "f404a14025021e762d89021d6d03e6a3", "is_reserved": 0, "lon": -77.03273733333333, "rental_uris": {"android": "https://dc.lft.to/lastmile_qr_scan", "ios": "https://dc.lft.to/lastmile_qr_scan"}}, {"name": "7734acf8bb20d74b9209a9beb356441d", "is_disabled": 0, "fusion_lat": 0.0, "fusion_lon": 0.0, "type": "electric_scooter", "lat": 38.8987645, "bike_id": "7734acf8bb20d74b9209a9beb356441d", "is_reserved": 0, "lon": -76.97716166666666, "rental_uris": {"android": "https://dc.lft.to/lastmile_qr_scan", "ios": "https://dc.lft.to/lastmile_qr_scan"}}, {"name": "efbaaa3787dbb9de5f49d9f6197c3713", "is_disabled": 0, "fusion_lat": 0.0, "fusion_lon": 0.0, "type": "electric_scooter", "lat": 38.91752416666667, "bike_id": "efbaaa3787dbb9de5f49d9f6197c3713", "is_reserved": 0, "lon": -77.02386783333333, "rental_uris": {"android": "https://dc.lft.to/lastmile_qr_scan", "ios": "https://dc.lft.to/lastmile_qr_scan"}}, {"name": "6b5c6897819785789112d2b6b509698e", "is_disabled": 0, "fusion_lat": 0.0, "fusion_lon": 0.0, "type": "electric_bike", "lat": 38.8381245, "bike_id": "6b5c6897819785789112d2b6b509698e", "is_reserved": 0, "lon": -77.09521616666666, "rental_uris": {"android": "https://dc.lft.to/lastmile_qr_scan", "ios": "https://dc.lft.to/lastmile_qr_scan"}}, {"name": "6e67f434910cef443dc7f104a4647010", "is_disabled": 0, "fusion_lat": 0.0, "fusion_lon": 0.0, "type": "electric_scooter", "lat": 38.955296833333335, "bike_id": "6e67f434910cef443dc7f104a4647010", "is_reserved": 0, "lon": -77.02782583333334, "rental_uris": {"android": "https://dc.lft.to/lastmile_qr_scan", "ios": "https://dc.lft.to/lastmile_qr_scan"}}, {"name": "defccf3758675509880c07ca4b4c42f8", "is_disabled": 0, "fusion_lat": 0.0, "fusion_lon": 0.0, "type": "electric_scooter", "lat": 38.971209, "bike_id": "defccf3758675509880c07ca4b4c42f8", "is_reserved": 0, "lon": -77.01688633333333, "rental_uris": {"android": "https://dc.lft.to/lastmile_qr_scan", "ios": "https://dc.lft.to/lastmile_qr_scan"}}, {"name": "73200a5c75cc943463e4e77401b282c1", "is_disabled": 0, "fusion_lat": 0.0, "fusion_lon": 0.0, "type": "electric_scooter", "lat": 38.9517555, "bike_id": "73200a5c75cc943463e4e77401b282c1", "is_reserved": 0, "lon": -77.02727933333334, "rental_uris": {"android": "https://dc.lft.to/lastmile_qr_scan", "ios": "https://dc.lft.to/lastmile_qr_scan"}}, {"name": "4b9f7fa4a010728760c8b0af83905a9c", "is_disabled": 0, "fusion_lat": 0.0, "fusion_lon": 0.0, "type": "electric_scooter", "lat": 38.927739333333335, "bike_id": "4b9f7fa4a010728760c8b0af83905a9c", "is_reserved": 0, "lon": -77.03056466666666, "rental_uris": {"android": "https://dc.lft.to/lastmile_qr_scan", "ios": "https://dc.lft.to/lastmile_qr_scan"}}, {"name": "1a34a22067c315ef7b02496d757342f9", "is_disabled": 0, "fusion_lat": 0.0, "fusion_lon": 0.0, "type": "electric_scooter", "lat": 38.9248095, "bike_id": "1a34a22067c315ef7b02496d757342f9", "is_reserved": 0, "lon": -77.0272205, "rental_uris": {"android": "https://dc.lft.to/lastmile_qr_scan", "ios": "https://dc.lft.to/lastmile_qr_scan"}}, {"name": "24331254f885fb5be123750ec21a5453", "is_disabled": 0, "fusion_lat": 0.0, "fusion_lon": 0.0, "type": "electric_scooter", "lat": 38.8934265, "bike_id": "24331254f885fb5be123750ec21a5453", "is_reserved": 0, "lon": -77.01721733333333, "rental_uris": {"android": "https://dc.lft.to/lastmile_qr_scan", "ios": "https://dc.lft.to/lastmile_qr_scan"}}, {"name": "e52a9399d1d1c23c099ed69872bef17b", "is_disabled": 0, "fusion_lat": 0.0, "fusion_lon": 0.0, "type": "electric_bike", "lat": 38.857671, "bike_id": "e52a9399d1d1c23c099ed69872bef17b", "is_reserved": 0, "lon": -76.98753083333334, "rental_uris": {"android": "https://dc.lft.to/lastmile_qr_scan", "ios": "https://dc.lft.to/lastmile_qr_scan"}}, {"name": "40c020a1c51ecf3692a348db7386bdd9", "is_disabled": 0, "fusion_lat": 0.0, "fusion_lon": 0.0, "type": "electric_scooter", "lat": 38.89510766666667, "bike_id": "40c020a1c51ecf3692a348db7386bdd9", "is_reserved": 0, "lon": -77.04677833333334, "rental_uris": {"android": "https://dc.lft.to/lastmile_qr_scan", "ios": "https://dc.lft.to/lastmile_qr_scan"}}, {"name": "845f4deeb4642b4bf2088bceebf90024", "is_disabled": 0, "fusion_lat": 0.0, "fusion_lon": 0.0, "type": "electric_scooter", "lat": 38.900549833333336, "bike_id": "845f4deeb4642b4bf2088bceebf90024", "is_reserved": 0, "lon": -77.02908883333333, "rental_uris": {"android": "https://dc.lft.to/lastmile_qr_scan", "ios": "https://dc.lft.to/lastmile_qr_scan"}}, {"name": "68998ff74dd66caa9149cd23448b25a2", "is_disabled": 0, "fusion_lat": 0.0, "fusion_lon": 0.0, "type": "electric_scooter", "lat": 38.885293833333336, "bike_id": "68998ff74dd66caa9149cd23448b25a2", "is_reserved": 0, "lon": -76.98271033333333, "rental_uris": {"android": "https://dc.lft.to/lastmile_qr_scan", "ios": "https://dc.lft.to/lastmile_qr_scan"}}, {"name": "7d9eacf850d8320ce9a2db48893aae56", "is_disabled": 0, "fusion_lat": 0.0, "fusion_lon": 0.0, "type": "electric_scooter", "lat": 38.897360166666665, "bike_id": "7d9eacf850d8320ce9a2db48893aae56", "is_reserved": 0, "lon": -77.05574633333333, "rental_uris": {"android": "https://dc.lft.to/lastmile_qr_scan", "ios": "https://dc.lft.to/lastmile_qr_scan"}}, {"name": "efa40997eca54847dbc031abad48780f", "is_disabled": 0, "fusion_lat": 0.0, "fusion_lon": 0.0, "type": "electric_scooter", "lat": 38.922693, "bike_id": "efa40997eca54847dbc031abad48780f", "is_reserved": 0, "lon": -77.0218485, "rental_uris": {"android": "https://dc.lft.to/lastmile_qr_scan", "ios": "https://dc.lft.to/lastmile_qr_scan"}}, {"name": "46ed52fa3f708fd0bb6bd20ed7a38777", "is_disabled": 0, "fusion_lat": 0.0, "fusion_lon": 0.0, "type": "electric_scooter", "lat": 38.907351166666665, "bike_id": "46ed52fa3f708fd0bb6bd20ed7a38777", "is_reserved": 0, "lon": -77.02807183333333, "rental_uris": {"android": "https://dc.lft.to/lastmile_qr_scan", "ios": "https://dc.lft.to/lastmile_qr_scan"}}, {"name": "ff00c6ba01db6797e390800ffa359b7b", "is_disabled": 0, "fusion_lat": 0.0, "fusion_lon": 0.0, "type": "electric_scooter", "lat": 38.9190385, "bike_id": "ff00c6ba01db6797e390800ffa359b7b", "is_reserved": 0, "lon": -77.01989783333333, "rental_uris": {"android": "https://dc.lft.to/lastmile_qr_scan", "ios": "https://dc.lft.to/lastmile_qr_scan"}}, {"name": "1eb7fb3247e580b288bdc0fc0272c76e", "is_disabled": 0, "fusion_lat": 0.0, "fusion_lon": 0.0, "type": "electric_scooter", "lat": 38.89744116666667, "bike_id": "1eb7fb3247e580b288bdc0fc0272c76e", "is_reserved": 0, "lon": -77.033461, "rental_uris": {"android": "https://dc.lft.to/lastmile_qr_scan", "ios": "https://dc.lft.to/lastmile_qr_scan"}}, {"name": "763a767f87e6d03cb96934e6a4de933a", "is_disabled": 0, "fusion_lat": 0.0, "fusion_lon": 0.0, "type": "electric_scooter", "lat": 38.917079666666666, "bike_id": "763a767f87e6d03cb96934e6a4de933a", "is_reserved": 0, "lon": -77.04146116666666, "rental_uris": {"android": "https://dc.lft.to/lastmile_qr_scan", "ios": "https://dc.lft.to/lastmile_qr_scan"}}, {"name": "9925be20ee43b59284caea0af1a07474", "is_disabled": 0, "fusion_lat": 0.0, "fusion_lon": 0.0, "type": "electric_scooter", "lat": 38.92510383333333, "bike_id": "9925be20ee43b59284caea0af1a07474", "is_reserved": 0, "lon": -77.0525475, "rental_uris": {"android": "https://dc.lft.to/lastmile_qr_scan", "ios": "https://dc.lft.to/lastmile_qr_scan"}}, {"name": "6e81d0c22936abdeb811ddef438e38b7", "is_disabled": 0, "fusion_lat": 0.0, "fusion_lon": 0.0, "type": "electric_scooter", "lat": 38.902887666666665, "bike_id": "6e81d0c22936abdeb811ddef438e38b7", "is_reserved": 0, "lon": -77.03637083333334, "rental_uris": {"android": "https://dc.lft.to/lastmile_qr_scan", "ios": "https://dc.lft.to/lastmile_qr_scan"}}, {"name": "e81732ae13f754368a4cb973f970dfd3", "is_disabled": 0, "fusion_lat": 0.0, "fusion_lon": 0.0, "type": "electric_scooter", "lat": 38.918198, "bike_id": "e81732ae13f754368a4cb973f970dfd3", "is_reserved": 0, "lon": -77.03453516666667, "rental_uris": {"android": "https://dc.lft.to/lastmile_qr_scan", "ios": "https://dc.lft.to/lastmile_qr_scan"}}, {"name": "63152b8b95cf66bc4b928a8eab5c025c", "is_disabled": 0, "fusion_lat": 0.0, "fusion_lon": 0.0, "type": "electric_bike", "lat": 38.896324166666666, "bike_id": "63152b8b95cf66bc4b928a8eab5c025c", "is_reserved": 0, "lon": -76.907369, "rental_uris": {"android": "https://dc.lft.to/lastmile_qr_scan", "ios": "https://dc.lft.to/lastmile_qr_scan"}}, {"name": "6e83fe987bb7ccde89c12720db2d9046", "is_disabled": 0, "fusion_lat": 0.0, "fusion_lon": 0.0, "type": "electric_scooter", "lat": 38.91380566666667, "bike_id": "6e83fe987bb7ccde89c12720db2d9046", "is_reserved": 0, "lon": -77.041438, "rental_uris": {"android": "https://dc.lft.to/lastmile_qr_scan", "ios": "https://dc.lft.to/lastmile_qr_scan"}}, {"name": "de3b80cc0de22602a078946589444517", "is_disabled": 0, "fusion_lat": 0.0, "fusion_lon": 0.0, "type": "electric_scooter", "lat": 38.916903166666664, "bike_id": "de3b80cc0de22602a078946589444517", "is_reserved": 0, "lon": -77.02598466666667, "rental_uris": {"android": "https://dc.lft.to/lastmile_qr_scan", "ios": "https://dc.lft.to/lastmile_qr_scan"}}, {"name": "b473dfa85e0083a5475af8d43b198f76", "is_disabled": 0, "fusion_lat": 0.0, "fusion_lon": 0.0, "type": "electric_scooter", "lat": 38.92721316666667, "bike_id": "b473dfa85e0083a5475af8d43b198f76", "is_reserved": 0, "lon": -77.03994166666666, "rental_uris": {"android": "https://dc.lft.to/lastmile_qr_scan", "ios": "https://dc.lft.to/lastmile_qr_scan"}}, {"name": "b1b743a4ee0604cbf935a0f929e7f855", "is_disabled": 0, "fusion_lat": 0.0, "fusion_lon": 0.0, "type": "electric_scooter", "lat": 38.917798166666664, "bike_id": "b1b743a4ee0604cbf935a0f929e7f855", "is_reserved": 0, "lon": -77.03215566666667, "rental_uris": {"android": "https://dc.lft.to/lastmile_qr_scan", "ios": "https://dc.lft.to/lastmile_qr_scan"}}, {"name": "af11025ce06c7d901a8dc0e09f30e658", "is_disabled": 0, "fusion_lat": 0.0, "fusion_lon": 0.0, "type": "electric_scooter", "lat": 38.90823683333333, "bike_id": "af11025ce06c7d901a8dc0e09f30e658", "is_reserved": 0, "lon": -76.94160833333333, "rental_uris": {"android": "https://dc.lft.to/lastmile_qr_scan", "ios": "https://dc.lft.to/lastmile_qr_scan"}}, {"name": "c5ae751a5d4035d00be322a9c1117408", "is_disabled": 0, "fusion_lat": 0.0, "fusion_lon": 0.0, "type": "electric_scooter", "lat": 38.9058975, "bike_id": "c5ae751a5d4035d00be322a9c1117408", "is_reserved": 0, "lon": -76.9930955, "rental_uris": {"android": "https://dc.lft.to/lastmile_qr_scan", "ios": "https://dc.lft.to/lastmile_qr_scan"}}, {"name": "6ffab9e6099d5ed184039651fb6d4772", "is_disabled": 0, "fusion_lat": 0.0, "fusion_lon": 0.0, "type": "electric_scooter", "lat": 38.906326166666666, "bike_id": "6ffab9e6099d5ed184039651fb6d4772", "is_reserved": 0, "lon": -77.06879383333333, "rental_uris": {"android": "https://dc.lft.to/lastmile_qr_scan", "ios": "https://dc.lft.to/lastmile_qr_scan"}}, {"name": "4e8cd1842a5300b6dfb226dba1dd369f", "is_disabled": 0, "fusion_lat": 0.0, "fusion_lon": 0.0, "type": "electric_scooter", "lat": 38.895481833333335, "bike_id": "4e8cd1842a5300b6dfb226dba1dd369f", "is_reserved": 0, "lon": -76.94882433333333, "rental_uris": {"android": "https://dc.lft.to/lastmile_qr_scan", "ios": "https://dc.lft.to/lastmile_qr_scan"}}, {"name": "2f04dea0c01899d4d8a6bc0a5580dc4f", "is_disabled": 0, "fusion_lat": 0.0, "fusion_lon": 0.0, "type": "electric_bike", "lat": 38.8728395, "bike_id": "2f04dea0c01899d4d8a6bc0a5580dc4f", "is_reserved": 0, "lon": -77.23336316666666, "rental_uris": {"android": "https://dc.lft.to/lastmile_qr_scan", "ios": "https://dc.lft.to/lastmile_qr_scan"}}, {"name": "43de61670d3d932bdfa13836b01d473e", "is_disabled": 0, "fusion_lat": 0.0, "fusion_lon": 0.0, "type": "electric_scooter", "lat": 38.901619333333336, "bike_id": "43de61670d3d932bdfa13836b01d473e", "is_reserved": 0, "lon": -77.0601985, "rental_uris": {"android": "https://dc.lft.to/lastmile_qr_scan", "ios": "https://dc.lft.to/lastmile_qr_scan"}}, {"name": "c56515c7992b4ba10bdeccb4b1449900", "is_disabled": 0, "fusion_lat": 0.0, "fusion_lon": 0.0, "type": "electric_scooter", "lat": 38.92328033333333, "bike_id": "c56515c7992b4ba10bdeccb4b1449900", "is_reserved": 0, "lon": -77.04180783333334, "rental_uris": {"android": "https://dc.lft.to/lastmile_qr_scan", "ios": "https://dc.lft.to/lastmile_qr_scan"}}, {"name": "1eeda30241fcfc30f5b2b892aedf7b76", "is_disabled": 0, "fusion_lat": 0.0, "fusion_lon": 0.0, "type": "electric_scooter", "lat": 38.9056725, "bike_id": "1eeda30241fcfc30f5b2b892aedf7b76", "is_reserved": 0, "lon": -77.00287866666666, "rental_uris": {"android": "https://dc.lft.to/lastmile_qr_scan", "ios": "https://dc.lft.to/lastmile_qr_scan"}}, {"name": "0f97f39bed3b0f3e9f26abe2040444dc", "is_disabled": 0, "fusion_lat": 0.0, "fusion_lon": 0.0, "type": "electric_scooter", "lat": 38.907794, "bike_id": "0f97f39bed3b0f3e9f26abe2040444dc", "is_reserved": 0, "lon": -77.07251466666666, "rental_uris": {"android": "https://dc.lft.to/lastmile_qr_scan", "ios": "https://dc.lft.to/lastmile_qr_scan"}}, {"name": "619d4910462bd46c3b1b21f91d544496", "is_disabled": 0, "fusion_lat": 0.0, "fusion_lon": 0.0, "type": "electric_scooter", "lat": 38.903741833333335, "bike_id": "619d4910462bd46c3b1b21f91d544496", "is_reserved": 0, "lon": -77.03436033333334, "rental_uris": {"android": "https://dc.lft.to/lastmile_qr_scan", "ios": "https://dc.lft.to/lastmile_qr_scan"}}, {"name": "cc00e7b6db72833c4b4c71aedde09e93", "is_disabled": 0, "fusion_lat": 0.0, "fusion_lon": 0.0, "type": "electric_scooter", "lat": 38.90120016666667, "bike_id": "cc00e7b6db72833c4b4c71aedde09e93", "is_reserved": 0, "lon": -77.04011116666666, "rental_uris": {"android": "https://dc.lft.to/lastmile_qr_scan", "ios": "https://dc.lft.to/lastmile_qr_scan"}}, {"name": "0a058c3b83b77e9a79f5f7b9c2b63b32", "is_disabled": 0, "fusion_lat": 0.0, "fusion_lon": 0.0, "type": "electric_scooter", "lat": 38.90207483333333, "bike_id": "0a058c3b83b77e9a79f5f7b9c2b63b32", "is_reserved": 0, "lon": -77.051149, "rental_uris": {"android": "https://dc.lft.to/lastmile_qr_scan", "ios": "https://dc.lft.to/lastmile_qr_scan"}}, {"name": "fb046e9c369aa38294adcfb911fe0550", "is_disabled": 0, "fusion_lat": 0.0, "fusion_lon": 0.0, "type": "electric_scooter", "lat": 38.884417, "bike_id": "fb046e9c369aa38294adcfb911fe0550", "is_reserved": 0, "lon": -77.02953366666667, "rental_uris": {"android": "https://dc.lft.to/lastmile_qr_scan", "ios": "https://dc.lft.to/lastmile_qr_scan"}}, {"name": "785704bbe240b6999ebe1b3129643b58", "is_disabled": 0, "fusion_lat": 0.0, "fusion_lon": 0.0, "type": "electric_scooter", "lat": 38.8972105, "bike_id": "785704bbe240b6999ebe1b3129643b58", "is_reserved": 0, "lon": -76.97348916666667, "rental_uris": {"android": "https://dc.lft.to/lastmile_qr_scan", "ios": "https://dc.lft.to/lastmile_qr_scan"}}, {"name": "c171bd0c29b22dd2ac4c935e945be003", "is_disabled": 0, "fusion_lat": 0.0, "fusion_lon": 0.0, "type": "electric_bike", "lat": 38.931522, "bike_id": "c171bd0c29b22dd2ac4c935e945be003", "is_reserved": 0, "lon": -77.02717133333333, "rental_uris": {"android": "https://dc.lft.to/lastmile_qr_scan", "ios": "https://dc.lft.to/lastmile_qr_scan"}}, {"name": "efed21f7c28a5c1fa309d623da1f06d6", "is_disabled": 0, "fusion_lat": 0.0, "fusion_lon": 0.0, "type": "electric_scooter", "lat": 38.871541, "bike_id": "efed21f7c28a5c1fa309d623da1f06d6", "is_reserved": 0, "lon": -76.969055, "rental_uris": {"android": "https://dc.lft.to/lastmile_qr_scan", "ios": "https://dc.lft.to/lastmile_qr_scan"}}, {"name": "833c458a8d830868cc9a38166f01a63e", "is_disabled": 0, "fusion_lat": 0.0, "fusion_lon": 0.0, "type": "electric_bike", "lat": 38.983676333333335, "bike_id": "833c458a8d830868cc9a38166f01a63e", "is_reserved": 0, "lon": -76.9721745, "rental_uris": {"android": "https://dc.lft.to/lastmile_qr_scan", "ios": "https://dc.lft.to/lastmile_qr_scan"}}, {"name": "4a960ea93d99fe800eb723ef3ab869b6", "is_disabled": 0, "fusion_lat": 0.0, "fusion_lon": 0.0, "type": "electric_scooter", "lat": 38.906634333333336, "bike_id": "4a960ea93d99fe800eb723ef3ab869b6", "is_reserved": 0, "lon": -77.04517783333333, "rental_uris": {"android": "https://dc.lft.to/lastmile_qr_scan", "ios": "https://dc.lft.to/lastmile_qr_scan"}}, {"name": "60faede5f7fad6b2a7a8869d5434ee04", "is_disabled": 0, "fusion_lat": 0.0, "fusion_lon": 0.0, "type": "electric_scooter", "lat": 38.924222, "bike_id": "60faede5f7fad6b2a7a8869d5434ee04", "is_reserved": 0, "lon": -77.050561, "rental_uris": {"android": "https://dc.lft.to/lastmile_qr_scan", "ios": "https://dc.lft.to/lastmile_qr_scan"}}, {"name": "80bc27fc99897f3f0d7be6ded4409157", "is_disabled": 0, "fusion_lat": 0.0, "fusion_lon": 0.0, "type": "electric_scooter", "lat": 38.92586333333333, "bike_id": "80bc27fc99897f3f0d7be6ded4409157", "is_reserved": 0, "lon": -77.039164, "rental_uris": {"android": "https://dc.lft.to/lastmile_qr_scan", "ios": "https://dc.lft.to/lastmile_qr_scan"}}, {"name": "dc87bf914416c0c32fa7ac0f02c999ba", "is_disabled": 0, "fusion_lat": 0.0, "fusion_lon": 0.0, "type": "electric_scooter", "lat": 38.88525933333333, "bike_id": "dc87bf914416c0c32fa7ac0f02c999ba", "is_reserved": 0, "lon": -76.99825033333333, "rental_uris": {"android": "https://dc.lft.to/lastmile_qr_scan", "ios": "https://dc.lft.to/lastmile_qr_scan"}}, {"name": "281cedf7b319f89fdaf9ae6042f41e79", "is_disabled": 0, "fusion_lat": 0.0, "fusion_lon": 0.0, "type": "electric_scooter", "lat": 38.9084035, "bike_id": "281cedf7b319f89fdaf9ae6042f41e79", "is_reserved": 0, "lon": -77.03486783333334, "rental_uris": {"android": "https://dc.lft.to/lastmile_qr_scan", "ios": "https://dc.lft.to/lastmile_qr_scan"}}, {"name": "18bca661bcd1b587f7fdb007adf82112", "is_disabled": 0, "fusion_lat": 0.0, "fusion_lon": 0.0, "type": "electric_scooter", "lat": 38.957475, "bike_id": "18bca661bcd1b587f7fdb007adf82112", "is_reserved": 0, "lon": -77.0206685, "rental_uris": {"android": "https://dc.lft.to/lastmile_qr_scan", "ios": "https://dc.lft.to/lastmile_qr_scan"}}, {"name": "655827230fa3c154293af33513149bd2", "is_disabled": 0, "fusion_lat": 0.0, "fusion_lon": 0.0, "type": "electric_scooter", "lat": 38.859129, "bike_id": "655827230fa3c154293af33513149bd2", "is_reserved": 0, "lon": -76.98982, "rental_uris": {"android": "https://dc.lft.to/lastmile_qr_scan", "ios": "https://dc.lft.to/lastmile_qr_scan"}}, {"name": "f72519883249f9b9c2ea0999b614a0f9", "is_disabled": 0, "fusion_lat": 0.0, "fusion_lon": 0.0, "type": "electric_scooter", "lat": 38.881124, "bike_id": "f72519883249f9b9c2ea0999b614a0f9", "is_reserved": 0, "lon": -76.9951925, "rental_uris": {"android": "https://dc.lft.to/lastmile_qr_scan", "ios": "https://dc.lft.to/lastmile_qr_scan"}}, {"name": "7d209cd515cf64ff9e9c97fb048d3b10", "is_disabled": 0, "fusion_lat": 0.0, "fusion_lon": 0.0, "type": "electric_scooter", "lat": 38.90945416666667, "bike_id": "7d209cd515cf64ff9e9c97fb048d3b10", "is_reserved": 0, "lon": -77.0231795, "rental_uris": {"android": "https://dc.lft.to/lastmile_qr_scan", "ios": "https://dc.lft.to/lastmile_qr_scan"}}, {"name": "8df9d2f5e11f740666c86782e0fa0ba3", "is_disabled": 0, "fusion_lat": 0.0, "fusion_lon": 0.0, "type": "electric_scooter", "lat": 38.860166666666665, "bike_id": "8df9d2f5e11f740666c86782e0fa0ba3", "is_reserved": 0, "lon": -76.98522416666667, "rental_uris": {"android": "https://dc.lft.to/lastmile_qr_scan", "ios": "https://dc.lft.to/lastmile_qr_scan"}}, {"name": "79b44fab37729cf27eb02648ef8921ee", "is_disabled": 0, "fusion_lat": 0.0, "fusion_lon": 0.0, "type": "electric_scooter", "lat": 38.8838705, "bike_id": "79b44fab37729cf27eb02648ef8921ee", "is_reserved": 0, "lon": -77.03032916666666, "rental_uris": {"android": "https://dc.lft.to/lastmile_qr_scan", "ios": "https://dc.lft.to/lastmile_qr_scan"}}, {"name": "4633a1be96f823633710e8ac69e8e4f3", "is_disabled": 0, "fusion_lat": 0.0, "fusion_lon": 0.0, "type": "electric_scooter", "lat": 38.898765166666664, "bike_id": "4633a1be96f823633710e8ac69e8e4f3", "is_reserved": 0, "lon": -76.9318715, "rental_uris": {"android": "https://dc.lft.to/lastmile_qr_scan", "ios": "https://dc.lft.to/lastmile_qr_scan"}}, {"name": "1170bf9ffee8a70efbc80c1bc6686cba", "is_disabled": 0, "fusion_lat": 0.0, "fusion_lon": 0.0, "type": "electric_scooter", "lat": 38.9241405, "bike_id": "1170bf9ffee8a70efbc80c1bc6686cba", "is_reserved": 0, "lon": -77.05060966666667, "rental_uris": {"android": "https://dc.lft.to/lastmile_qr_scan", "ios": "https://dc.lft.to/lastmile_qr_scan"}}, {"name": "73b7e6341474331883777bcddc787b6b", "is_disabled": 0, "fusion_lat": 0.0, "fusion_lon": 0.0, "type": "electric_scooter", "lat": 38.874735, "bike_id": "73b7e6341474331883777bcddc787b6b", "is_reserved": 0, "lon": -77.005589, "rental_uris": {"android": "https://dc.lft.to/lastmile_qr_scan", "ios": "https://dc.lft.to/lastmile_qr_scan"}}, {"name": "b8fc5918ae75fd99c605e82d9c61739a", "is_disabled": 0, "fusion_lat": 0.0, "fusion_lon": 0.0, "type": "electric_bike", "lat": 38.907705666666665, "bike_id": "b8fc5918ae75fd99c605e82d9c61739a", "is_reserved": 0, "lon": -77.06974233333334, "rental_uris": {"android": "https://dc.lft.to/lastmile_qr_scan", "ios": "https://dc.lft.to/lastmile_qr_scan"}}, {"name": "3c308d8478c502e2dc161b0b9c8d2ce0", "is_disabled": 0, "fusion_lat": 0.0, "fusion_lon": 0.0, "type": "electric_scooter", "lat": 38.905529666666666, "bike_id": "3c308d8478c502e2dc161b0b9c8d2ce0", "is_reserved": 0, "lon": -77.00595233333334, "rental_uris": {"android": "https://dc.lft.to/lastmile_qr_scan", "ios": "https://dc.lft.to/lastmile_qr_scan"}}, {"name": "6a7caf0525d4e87ed8447dcdb5d72a29", "is_disabled": 0, "fusion_lat": 0.0, "fusion_lon": 0.0, "type": "electric_scooter", "lat": 38.919948, "bike_id": "6a7caf0525d4e87ed8447dcdb5d72a29", "is_reserved": 0, "lon": -77.02182966666666, "rental_uris": {"android": "https://dc.lft.to/lastmile_qr_scan", "ios": "https://dc.lft.to/lastmile_qr_scan"}}, {"name": "35631853e92c4499798d31f091f07e84", "is_disabled": 0, "fusion_lat": 0.0, "fusion_lon": 0.0, "type": "electric_scooter", "lat": 38.90617316666667, "bike_id": "35631853e92c4499798d31f091f07e84", "is_reserved": 0, "lon": -76.98688883333334, "rental_uris": {"android": "https://dc.lft.to/lastmile_qr_scan", "ios": "https://dc.lft.to/lastmile_qr_scan"}}, {"name": "61cf108e383842d0cfb4d13fbbc378db", "is_disabled": 0, "fusion_lat": 0.0, "fusion_lon": 0.0, "type": "electric_bike", "lat": 38.87477, "bike_id": "61cf108e383842d0cfb4d13fbbc378db", "is_reserved": 0, "lon": -76.96530766666666, "rental_uris": {"android": "https://dc.lft.to/lastmile_qr_scan", "ios": "https://dc.lft.to/lastmile_qr_scan"}}, {"name": "630922d491e98bbde3382416788e8f75", "is_disabled": 0, "fusion_lat": 0.0, "fusion_lon": 0.0, "type": "electric_scooter", "lat": 38.91411333333333, "bike_id": "630922d491e98bbde3382416788e8f75", "is_reserved": 0, "lon": -77.0492015, "rental_uris": {"android": "https://dc.lft.to/lastmile_qr_scan", "ios": "https://dc.lft.to/lastmile_qr_scan"}}, {"name": "40b08c4e69d3bc2ca1a1a3178f164c03", "is_disabled": 0, "fusion_lat": 0.0, "fusion_lon": 0.0, "type": "electric_scooter", "lat": 38.89355333333334, "bike_id": "40b08c4e69d3bc2ca1a1a3178f164c03", "is_reserved": 0, "lon": -77.00339433333333, "rental_uris": {"android": "https://dc.lft.to/lastmile_qr_scan", "ios": "https://dc.lft.to/lastmile_qr_scan"}}, {"name": "a3a813cf2f97f1c621bd38d3eddf6119", "is_disabled": 0, "fusion_lat": 0.0, "fusion_lon": 0.0, "type": "electric_scooter", "lat": 38.90701, "bike_id": "a3a813cf2f97f1c621bd38d3eddf6119", "is_reserved": 0, "lon": -76.9870265, "rental_uris": {"android": "https://dc.lft.to/lastmile_qr_scan", "ios": "https://dc.lft.to/lastmile_qr_scan"}}, {"name": "40fb9e992f22a07f141a631a1f56a3d9", "is_disabled": 0, "fusion_lat": 0.0, "fusion_lon": 0.0, "type": "electric_scooter", "lat": 38.88736033333333, "bike_id": "40fb9e992f22a07f141a631a1f56a3d9", "is_reserved": 0, "lon": -77.02212166666666, "rental_uris": {"android": "https://dc.lft.to/lastmile_qr_scan", "ios": "https://dc.lft.to/lastmile_qr_scan"}}, {"name": "2a5d7d96d85ad542cc66953189994e95", "is_disabled": 0, "fusion_lat": 0.0, "fusion_lon": 0.0, "type": "electric_scooter", "lat": 38.895066, "bike_id": "2a5d7d96d85ad542cc66953189994e95", "is_reserved": 0, "lon": -77.04681783333334, "rental_uris": {"android": "https://dc.lft.to/lastmile_qr_scan", "ios": "https://dc.lft.to/lastmile_qr_scan"}}, {"name": "ae7fca7c7b0cbefc82946d51bd4c212e", "is_disabled": 0, "fusion_lat": 0.0, "fusion_lon": 0.0, "type": "electric_scooter", "lat": 38.928579, "bike_id": "ae7fca7c7b0cbefc82946d51bd4c212e", "is_reserved": 0, "lon": -77.032765, "rental_uris": {"android": "https://dc.lft.to/lastmile_qr_scan", "ios": "https://dc.lft.to/lastmile_qr_scan"}}, {"name": "9553b9a5f6d1a4f1a1166ee06db278d2", "is_disabled": 0, "fusion_lat": 0.0, "fusion_lon": 0.0, "type": "electric_scooter", "lat": 38.90681433333334, "bike_id": "9553b9a5f6d1a4f1a1166ee06db278d2", "is_reserved": 0, "lon": -77.0385435, "rental_uris": {"android": "https://dc.lft.to/lastmile_qr_scan", "ios": "https://dc.lft.to/lastmile_qr_scan"}}, {"name": "1171d6c8ba6668bc3b250fb0beb45196", "is_disabled": 0, "fusion_lat": 0.0, "fusion_lon": 0.0, "type": "electric_scooter", "lat": 38.90263016666667, "bike_id": "1171d6c8ba6668bc3b250fb0beb45196", "is_reserved": 0, "lon": -77.041679, "rental_uris": {"android": "https://dc.lft.to/lastmile_qr_scan", "ios": "https://dc.lft.to/lastmile_qr_scan"}}, {"name": "e13c226e4b8ae3cb36458aad6c65e2c3", "is_disabled": 0, "fusion_lat": 0.0, "fusion_lon": 0.0, "type": "electric_scooter", "lat": 38.918632333333335, "bike_id": "e13c226e4b8ae3cb36458aad6c65e2c3", "is_reserved": 0, "lon": -77.047584, "rental_uris": {"android": "https://dc.lft.to/lastmile_qr_scan", "ios": "https://dc.lft.to/lastmile_qr_scan"}}, {"name": "3a6b1adcd25e2abde7eb5c34d4ce06db", "is_disabled": 0, "fusion_lat": 0.0, "fusion_lon": 0.0, "type": "electric_scooter", "lat": 38.88096783333334, "bike_id": "3a6b1adcd25e2abde7eb5c34d4ce06db", "is_reserved": 0, "lon": -77.016647, "rental_uris": {"android": "https://dc.lft.to/lastmile_qr_scan", "ios": "https://dc.lft.to/lastmile_qr_scan"}}, {"name": "ec8ec76b6fcb04019d4ef96f43b67477", "is_disabled": 0, "fusion_lat": 0.0, "fusion_lon": 0.0, "type": "electric_scooter", "lat": 38.916159, "bike_id": "ec8ec76b6fcb04019d4ef96f43b67477", "is_reserved": 0, "lon": -77.02202883333334, "rental_uris": {"android": "https://dc.lft.to/lastmile_qr_scan", "ios": "https://dc.lft.to/lastmile_qr_scan"}}, {"name": "adc45a91056a698722bf3c2c6feb2c5c", "is_disabled": 0, "fusion_lat": 0.0, "fusion_lon": 0.0, "type": "electric_scooter", "lat": 38.908311833333336, "bike_id": "adc45a91056a698722bf3c2c6feb2c5c", "is_reserved": 0, "lon": -77.03860833333333, "rental_uris": {"android": "https://dc.lft.to/lastmile_qr_scan", "ios": "https://dc.lft.to/lastmile_qr_scan"}}, {"name": "3b65ffeed67801d1fba06c0ad03d80c8", "is_disabled": 0, "fusion_lat": 0.0, "fusion_lon": 0.0, "type": "electric_scooter", "lat": 38.8961465, "bike_id": "3b65ffeed67801d1fba06c0ad03d80c8", "is_reserved": 0, "lon": -77.045614, "rental_uris": {"android": "https://dc.lft.to/lastmile_qr_scan", "ios": "https://dc.lft.to/lastmile_qr_scan"}}, {"name": "f142bee2d383d69e717ace5f9cb80f61", "is_disabled": 0, "fusion_lat": 0.0, "fusion_lon": 0.0, "type": "electric_scooter", "lat": 38.906249, "bike_id": "f142bee2d383d69e717ace5f9cb80f61", "is_reserved": 0, "lon": -77.0417955, "rental_uris": {"android": "https://dc.lft.to/lastmile_qr_scan", "ios": "https://dc.lft.to/lastmile_qr_scan"}}, {"name": "384c0e7b0520ea039e4a4a238cf10215", "is_disabled": 0, "fusion_lat": 0.0, "fusion_lon": 0.0, "type": "electric_scooter", "lat": 38.90789983333333, "bike_id": "384c0e7b0520ea039e4a4a238cf10215", "is_reserved": 0, "lon": -77.03204166666667, "rental_uris": {"android": "https://dc.lft.to/lastmile_qr_scan", "ios": "https://dc.lft.to/lastmile_qr_scan"}}, {"name": "5529c313950503774a4d892525c2e50b", "is_disabled": 0, "fusion_lat": 0.0, "fusion_lon": 0.0, "type": "electric_scooter", "lat": 38.918714666666666, "bike_id": "5529c313950503774a4d892525c2e50b", "is_reserved": 0, "lon": -77.0444965, "rental_uris": {"android": "https://dc.lft.to/lastmile_qr_scan", "ios": "https://dc.lft.to/lastmile_qr_scan"}}, {"name": "37cdba556cdfc162e209ef71f8bbff7b", "is_disabled": 0, "fusion_lat": 0.0, "fusion_lon": 0.0, "type": "electric_scooter", "lat": 38.90266616666667, "bike_id": "37cdba556cdfc162e209ef71f8bbff7b", "is_reserved": 0, "lon": -77.01761983333333, "rental_uris": {"android": "https://dc.lft.to/lastmile_qr_scan", "ios": "https://dc.lft.to/lastmile_qr_scan"}}, {"name": "5261a535987e5723d65ca41f50419be9", "is_disabled": 0, "fusion_lat": 0.0, "fusion_lon": 0.0, "type": "electric_bike", "lat": 38.88290583333333, "bike_id": "5261a535987e5723d65ca41f50419be9", "is_reserved": 0, "lon": -77.17188216666666, "rental_uris": {"android": "https://dc.lft.to/lastmile_qr_scan", "ios": "https://dc.lft.to/lastmile_qr_scan"}}, {"name": "a7361aa87c6d515cf57fbe8fbad0a680", "is_disabled": 0, "fusion_lat": 0.0, "fusion_lon": 0.0, "type": "electric_scooter", "lat": 38.902349666666666, "bike_id": "a7361aa87c6d515cf57fbe8fbad0a680", "is_reserved": 0, "lon": -77.03329933333333, "rental_uris": {"android": "https://dc.lft.to/lastmile_qr_scan", "ios": "https://dc.lft.to/lastmile_qr_scan"}}, {"name": "6ed4eb09a45b125b8e2e2d7d2b95c18a", "is_disabled": 0, "fusion_lat": 0.0, "fusion_lon": 0.0, "type": "electric_scooter", "lat": 38.899332666666666, "bike_id": "6ed4eb09a45b125b8e2e2d7d2b95c18a", "is_reserved": 0, "lon": -76.9457815, "rental_uris": {"android": "https://dc.lft.to/lastmile_qr_scan", "ios": "https://dc.lft.to/lastmile_qr_scan"}}, {"name": "9a5167a617d136dfa3cae0ac59bf8382", "is_disabled": 0, "fusion_lat": 0.0, "fusion_lon": 0.0, "type": "electric_scooter", "lat": 38.90073816666666, "bike_id": "9a5167a617d136dfa3cae0ac59bf8382", "is_reserved": 0, "lon": -77.0462235, "rental_uris": {"android": "https://dc.lft.to/lastmile_qr_scan", "ios": "https://dc.lft.to/lastmile_qr_scan"}}, {"name": "0d6a4c91a54a9c09c84ec1a1f69f5a97", "is_disabled": 0, "fusion_lat": 0.0, "fusion_lon": 0.0, "type": "electric_scooter", "lat": 38.90006866666667, "bike_id": "0d6a4c91a54a9c09c84ec1a1f69f5a97", "is_reserved": 0, "lon": -77.033557, "rental_uris": {"android": "https://dc.lft.to/lastmile_qr_scan", "ios": "https://dc.lft.to/lastmile_qr_scan"}}, {"name": "195a3f37c869e9d31c202a7d147a4321", "is_disabled": 0, "fusion_lat": 0.0, "fusion_lon": 0.0, "type": "electric_scooter", "lat": 38.8922205, "bike_id": "195a3f37c869e9d31c202a7d147a4321", "is_reserved": 0, "lon": -77.01287716666667, "rental_uris": {"android": "https://dc.lft.to/lastmile_qr_scan", "ios": "https://dc.lft.to/lastmile_qr_scan"}}, {"name": "faab625e23b7abc0397aebafab7588a1", "is_disabled": 0, "fusion_lat": 0.0, "fusion_lon": 0.0, "type": "electric_scooter", "lat": 38.93233933333333, "bike_id": "faab625e23b7abc0397aebafab7588a1", "is_reserved": 0, "lon": -77.03855433333334, "rental_uris": {"android": "https://dc.lft.to/lastmile_qr_scan", "ios": "https://dc.lft.to/lastmile_qr_scan"}}, {"name": "26466d973ff622438f76a245b2bdeeec", "is_disabled": 0, "fusion_lat": 0.0, "fusion_lon": 0.0, "type": "electric_scooter", "lat": 38.87393, "bike_id": "26466d973ff622438f76a245b2bdeeec", "is_reserved": 0, "lon": -77.000153, "rental_uris": {"android": "https://dc.lft.to/lastmile_qr_scan", "ios": "https://dc.lft.to/lastmile_qr_scan"}}, {"name": "62e86e147845428785fd5d35c0142638", "is_disabled": 0, "fusion_lat": 0.0, "fusion_lon": 0.0, "type": "electric_scooter", "lat": 38.9170315, "bike_id": "62e86e147845428785fd5d35c0142638", "is_reserved": 0, "lon": -77.03472133333334, "rental_uris": {"android": "https://dc.lft.to/lastmile_qr_scan", "ios": "https://dc.lft.to/lastmile_qr_scan"}}, {"name": "1de98f7e6d836e8078412ad47516332c", "is_disabled": 0, "fusion_lat": 0.0, "fusion_lon": 0.0, "type": "electric_bike", "lat": 38.854205, "bike_id": "1de98f7e6d836e8078412ad47516332c", "is_reserved": 0, "lon": -77.12072316666666, "rental_uris": {"android": "https://dc.lft.to/lastmile_qr_scan", "ios": "https://dc.lft.to/lastmile_qr_scan"}}, {"name": "160f9cbf76c377e3cf15e887e69328e5", "is_disabled": 0, "fusion_lat": 0.0, "fusion_lon": 0.0, "type": "electric_scooter", "lat": 38.9033795, "bike_id": "160f9cbf76c377e3cf15e887e69328e5", "is_reserved": 0, "lon": -76.9758665, "rental_uris": {"android": "https://dc.lft.to/lastmile_qr_scan", "ios": "https://dc.lft.to/lastmile_qr_scan"}}, {"name": "6dbee206bb4446c29a36da5bee17b527", "is_disabled": 0, "fusion_lat": 0.0, "fusion_lon": 0.0, "type": "electric_scooter", "lat": 38.8996245, "bike_id": "6dbee206bb4446c29a36da5bee17b527", "is_reserved": 0, "lon": -77.03347633333334, "rental_uris": {"android": "https://dc.lft.to/lastmile_qr_scan", "ios": "https://dc.lft.to/lastmile_qr_scan"}}, {"name": "a480e5bfde4c346c15287e45fa51b40b", "is_disabled": 0, "fusion_lat": 0.0, "fusion_lon": 0.0, "type": "electric_scooter", "lat": 38.899140833333334, "bike_id": "a480e5bfde4c346c15287e45fa51b40b", "is_reserved": 0, "lon": -76.93381483333333, "rental_uris": {"android": "https://dc.lft.to/lastmile_qr_scan", "ios": "https://dc.lft.to/lastmile_qr_scan"}}, {"name": "653da574dafb201ce387efcca34a9b18", "is_disabled": 0, "fusion_lat": 0.0, "fusion_lon": 0.0, "type": "electric_scooter", "lat": 38.91264816666666, "bike_id": "653da574dafb201ce387efcca34a9b18", "is_reserved": 0, "lon": -77.07350516666666, "rental_uris": {"android": "https://dc.lft.to/lastmile_qr_scan", "ios": "https://dc.lft.to/lastmile_qr_scan"}}, {"name": "1e31ba69f28f3ad86cbdf35cce762d5f", "is_disabled": 0, "fusion_lat": 0.0, "fusion_lon": 0.0, "type": "electric_scooter", "lat": 38.922897666666664, "bike_id": "1e31ba69f28f3ad86cbdf35cce762d5f", "is_reserved": 0, "lon": -77.042686, "rental_uris": {"android": "https://dc.lft.to/lastmile_qr_scan", "ios": "https://dc.lft.to/lastmile_qr_scan"}}, {"name": "1615379f15e29e0a8b955ca1d87e6e90", "is_disabled": 0, "fusion_lat": 0.0, "fusion_lon": 0.0, "type": "electric_scooter", "lat": 38.90063516666667, "bike_id": "1615379f15e29e0a8b955ca1d87e6e90", "is_reserved": 0, "lon": -77.0434025, "rental_uris": {"android": "https://dc.lft.to/lastmile_qr_scan", "ios": "https://dc.lft.to/lastmile_qr_scan"}}, {"name": "4b2c7680c9112906538c8c4b1cb09d16", "is_disabled": 0, "fusion_lat": 0.0, "fusion_lon": 0.0, "type": "electric_scooter", "lat": 38.93265866666667, "bike_id": "4b2c7680c9112906538c8c4b1cb09d16", "is_reserved": 0, "lon": -77.0209775, "rental_uris": {"android": "https://dc.lft.to/lastmile_qr_scan", "ios": "https://dc.lft.to/lastmile_qr_scan"}}, {"name": "e3354637bc00a5b3416b00a62bace683", "is_disabled": 0, "fusion_lat": 0.0, "fusion_lon": 0.0, "type": "electric_scooter", "lat": 38.90005383333333, "bike_id": "e3354637bc00a5b3416b00a62bace683", "is_reserved": 0, "lon": -77.0070055, "rental_uris": {"android": "https://dc.lft.to/lastmile_qr_scan", "ios": "https://dc.lft.to/lastmile_qr_scan"}}, {"name": "18df79ecf6e1ae02a2263b678013bdfd", "is_disabled": 0, "fusion_lat": 0.0, "fusion_lon": 0.0, "type": "electric_scooter", "lat": 38.91558333333333, "bike_id": "18df79ecf6e1ae02a2263b678013bdfd", "is_reserved": 0, "lon": -77.03166833333333, "rental_uris": {"android": "https://dc.lft.to/lastmile_qr_scan", "ios": "https://dc.lft.to/lastmile_qr_scan"}}, {"name": "b78a123bae0d61d5655ec633f1d872c9", "is_disabled": 0, "fusion_lat": 0.0, "fusion_lon": 0.0, "type": "electric_scooter", "lat": 38.916907333333334, "bike_id": "b78a123bae0d61d5655ec633f1d872c9", "is_reserved": 0, "lon": -77.02598216666667, "rental_uris": {"android": "https://dc.lft.to/lastmile_qr_scan", "ios": "https://dc.lft.to/lastmile_qr_scan"}}, {"name": "84bea8b12e80a72059c06404d4e28f71", "is_disabled": 0, "fusion_lat": 0.0, "fusion_lon": 0.0, "type": "electric_scooter", "lat": 38.864211166666664, "bike_id": "84bea8b12e80a72059c06404d4e28f71", "is_reserved": 0, "lon": -77.01216716666667, "rental_uris": {"android": "https://dc.lft.to/lastmile_qr_scan", "ios": "https://dc.lft.to/lastmile_qr_scan"}}, {"name": "6da728013b7fd567fc3f873a2759c6de", "is_disabled": 0, "fusion_lat": 0.0, "fusion_lon": 0.0, "type": "electric_scooter", "lat": 38.911011333333335, "bike_id": "6da728013b7fd567fc3f873a2759c6de", "is_reserved": 0, "lon": -77.04464133333333, "rental_uris": {"android": "https://dc.lft.to/lastmile_qr_scan", "ios": "https://dc.lft.to/lastmile_qr_scan"}}, {"name": "79326be625787dc3b92a052b2ff0771d", "is_disabled": 0, "fusion_lat": 0.0, "fusion_lon": 0.0, "type": "electric_scooter", "lat": 38.919206833333334, "bike_id": "79326be625787dc3b92a052b2ff0771d", "is_reserved": 0, "lon": -77.03120916666667, "rental_uris": {"android": "https://dc.lft.to/lastmile_qr_scan", "ios": "https://dc.lft.to/lastmile_qr_scan"}}, {"name": "e6bbf047aeb9d12f72147a3028bd3056", "is_disabled": 0, "fusion_lat": 0.0, "fusion_lon": 0.0, "type": "electric_bike", "lat": 38.973956333333334, "bike_id": "e6bbf047aeb9d12f72147a3028bd3056", "is_reserved": 0, "lon": -77.064594, "rental_uris": {"android": "https://dc.lft.to/lastmile_qr_scan", "ios": "https://dc.lft.to/lastmile_qr_scan"}}, {"name": "9ab4452826b9072864864ddc0eff48df", "is_disabled": 0, "fusion_lat": 0.0, "fusion_lon": 0.0, "type": "electric_scooter", "lat": 38.92821083333333, "bike_id": "9ab4452826b9072864864ddc0eff48df", "is_reserved": 0, "lon": -77.0597345, "rental_uris": {"android": "https://dc.lft.to/lastmile_qr_scan", "ios": "https://dc.lft.to/lastmile_qr_scan"}}, {"name": "eab9ac9a8f13d2047c3f890345ec7465", "is_disabled": 0, "fusion_lat": 0.0, "fusion_lon": 0.0, "type": "electric_scooter", "lat": 38.90801733333333, "bike_id": "eab9ac9a8f13d2047c3f890345ec7465", "is_reserved": 0, "lon": -76.9873975, "rental_uris": {"android": "https://dc.lft.to/lastmile_qr_scan", "ios": "https://dc.lft.to/lastmile_qr_scan"}}, {"name": "f6fe1d7e39eaabc6bfb59fba43096e14", "is_disabled": 0, "fusion_lat": 0.0, "fusion_lon": 0.0, "type": "electric_scooter", "lat": 38.91419416666667, "bike_id": "f6fe1d7e39eaabc6bfb59fba43096e14", "is_reserved": 0, "lon": -77.044607, "rental_uris": {"android": "https://dc.lft.to/lastmile_qr_scan", "ios": "https://dc.lft.to/lastmile_qr_scan"}}, {"name": "58cb702ab2945f5a19543b7388dc7b57", "is_disabled": 0, "fusion_lat": 0.0, "fusion_lon": 0.0, "type": "electric_scooter", "lat": 38.886003, "bike_id": "58cb702ab2945f5a19543b7388dc7b57", "is_reserved": 0, "lon": -77.045113, "rental_uris": {"android": "https://dc.lft.to/lastmile_qr_scan", "ios": "https://dc.lft.to/lastmile_qr_scan"}}, {"name": "fc28e472178d5f8d6fa64f17e60fecc5", "is_disabled": 0, "fusion_lat": 0.0, "fusion_lon": 0.0, "type": "electric_scooter", "lat": 38.880776166666664, "bike_id": "fc28e472178d5f8d6fa64f17e60fecc5", "is_reserved": 0, "lon": -76.985156, "rental_uris": {"android": "https://dc.lft.to/lastmile_qr_scan", "ios": "https://dc.lft.to/lastmile_qr_scan"}}, {"name": "3bfa9807eae1808edc8c1b5d8a42194c", "is_disabled": 0, "fusion_lat": 0.0, "fusion_lon": 0.0, "type": "electric_scooter", "lat": 38.9224365, "bike_id": "3bfa9807eae1808edc8c1b5d8a42194c", "is_reserved": 0, "lon": -77.03665633333334, "rental_uris": {"android": "https://dc.lft.to/lastmile_qr_scan", "ios": "https://dc.lft.to/lastmile_qr_scan"}}, {"name": "bd5775f3dff204b4678478788e6bb0fa", "is_disabled": 0, "fusion_lat": 0.0, "fusion_lon": 0.0, "type": "electric_scooter", "lat": 38.91545383333333, "bike_id": "bd5775f3dff204b4678478788e6bb0fa", "is_reserved": 0, "lon": -77.05337883333333, "rental_uris": {"android": "https://dc.lft.to/lastmile_qr_scan", "ios": "https://dc.lft.to/lastmile_qr_scan"}}, {"name": "75633b22a8225e62bf12de3e7c5cd2bc", "is_disabled": 0, "fusion_lat": 0.0, "fusion_lon": 0.0, "type": "electric_scooter", "lat": 38.92383866666667, "bike_id": "75633b22a8225e62bf12de3e7c5cd2bc", "is_reserved": 0, "lon": -77.02762183333333, "rental_uris": {"android": "https://dc.lft.to/lastmile_qr_scan", "ios": "https://dc.lft.to/lastmile_qr_scan"}}, {"name": "afe13543ae097600d3e2c63439422f04", "is_disabled": 0, "fusion_lat": 0.0, "fusion_lon": 0.0, "type": "electric_scooter", "lat": 38.91930466666667, "bike_id": "afe13543ae097600d3e2c63439422f04", "is_reserved": 0, "lon": -77.03390716666667, "rental_uris": {"android": "https://dc.lft.to/lastmile_qr_scan", "ios": "https://dc.lft.to/lastmile_qr_scan"}}, {"name": "d35ddc5d1d9bc7494f834e7025e92d20", "is_disabled": 0, "fusion_lat": 0.0, "fusion_lon": 0.0, "type": "electric_scooter", "lat": 38.892238166666665, "bike_id": "d35ddc5d1d9bc7494f834e7025e92d20", "is_reserved": 0, "lon": -77.043355, "rental_uris": {"android": "https://dc.lft.to/lastmile_qr_scan", "ios": "https://dc.lft.to/lastmile_qr_scan"}}, {"name": "148f4cdafb44db9b9bca1a45ac1d6411", "is_disabled": 0, "fusion_lat": 0.0, "fusion_lon": 0.0, "type": "electric_scooter", "lat": 38.90373533333333, "bike_id": "148f4cdafb44db9b9bca1a45ac1d6411", "is_reserved": 0, "lon": -77.04485333333334, "rental_uris": {"android": "https://dc.lft.to/lastmile_qr_scan", "ios": "https://dc.lft.to/lastmile_qr_scan"}}, {"name": "833d3c0dc11ba6cb03a6db3ff79f8023", "is_disabled": 0, "fusion_lat": 0.0, "fusion_lon": 0.0, "type": "electric_scooter", "lat": 38.90021616666667, "bike_id": "833d3c0dc11ba6cb03a6db3ff79f8023", "is_reserved": 0, "lon": -77.03041766666666, "rental_uris": {"android": "https://dc.lft.to/lastmile_qr_scan", "ios": "https://dc.lft.to/lastmile_qr_scan"}}, {"name": "9f86bf2011459dc4681d5c270c94189e", "is_disabled": 0, "fusion_lat": 0.0, "fusion_lon": 0.0, "type": "electric_scooter", "lat": 38.90146566666667, "bike_id": "9f86bf2011459dc4681d5c270c94189e", "is_reserved": 0, "lon": -76.9298455, "rental_uris": {"android": "https://dc.lft.to/lastmile_qr_scan", "ios": "https://dc.lft.to/lastmile_qr_scan"}}, {"name": "da2f930fe75642191f2e7f9be2c1a587", "is_disabled": 0, "fusion_lat": 0.0, "fusion_lon": 0.0, "type": "electric_bike", "lat": 39.042305166666665, "bike_id": "da2f930fe75642191f2e7f9be2c1a587", "is_reserved": 0, "lon": -77.03084616666666, "rental_uris": {"android": "https://dc.lft.to/lastmile_qr_scan", "ios": "https://dc.lft.to/lastmile_qr_scan"}}, {"name": "cc4de0c7e4aa00524abe764c4f2c4a9d", "is_disabled": 0, "fusion_lat": 0.0, "fusion_lon": 0.0, "type": "electric_scooter", "lat": 38.951410333333335, "bike_id": "cc4de0c7e4aa00524abe764c4f2c4a9d", "is_reserved": 0, "lon": -77.0271875, "rental_uris": {"android": "https://dc.lft.to/lastmile_qr_scan", "ios": "https://dc.lft.to/lastmile_qr_scan"}}, {"name": "6311ccd4633b9742eb6da6225e487221", "is_disabled": 0, "fusion_lat": 0.0, "fusion_lon": 0.0, "type": "electric_scooter", "lat": 38.8764665, "bike_id": "6311ccd4633b9742eb6da6225e487221", "is_reserved": 0, "lon": -76.96507666666666, "rental_uris": {"android": "https://dc.lft.to/lastmile_qr_scan", "ios": "https://dc.lft.to/lastmile_qr_scan"}}, {"name": "96ca759c473ee8541f357f91180e4687", "is_disabled": 0, "fusion_lat": 0.0, "fusion_lon": 0.0, "type": "electric_bike", "lat": 38.9323905, "bike_id": "96ca759c473ee8541f357f91180e4687", "is_reserved": 0, "lon": -76.974184, "rental_uris": {"android": "https://dc.lft.to/lastmile_qr_scan", "ios": "https://dc.lft.to/lastmile_qr_scan"}}, {"name": "c9fb34fa44691f59ee5f93845dbd707c", "is_disabled": 0, "fusion_lat": 0.0, "fusion_lon": 0.0, "type": "electric_bike", "lat": 38.95501433333333, "bike_id": "c9fb34fa44691f59ee5f93845dbd707c", "is_reserved": 0, "lon": -76.99354733333334, "rental_uris": {"android": "https://dc.lft.to/lastmile_qr_scan", "ios": "https://dc.lft.to/lastmile_qr_scan"}}, {"name": "24a18f3242fbb2038d951f65fa3f4f99", "is_disabled": 0, "fusion_lat": 0.0, "fusion_lon": 0.0, "type": "electric_scooter", "lat": 38.911081333333335, "bike_id": "24a18f3242fbb2038d951f65fa3f4f99", "is_reserved": 0, "lon": -77.02012516666667, "rental_uris": {"android": "https://dc.lft.to/lastmile_qr_scan", "ios": "https://dc.lft.to/lastmile_qr_scan"}}, {"name": "617889b4253182468f5ead8d0611884e", "is_disabled": 0, "fusion_lat": 0.0, "fusion_lon": 0.0, "type": "electric_scooter", "lat": 38.919209333333335, "bike_id": "617889b4253182468f5ead8d0611884e", "is_reserved": 0, "lon": -77.03187916666667, "rental_uris": {"android": "https://dc.lft.to/lastmile_qr_scan", "ios": "https://dc.lft.to/lastmile_qr_scan"}}, {"name": "2746511baf6762d1614dfd046d5c94f0", "is_disabled": 0, "fusion_lat": 0.0, "fusion_lon": 0.0, "type": "electric_scooter", "lat": 38.913504833333334, "bike_id": "2746511baf6762d1614dfd046d5c94f0", "is_reserved": 0, "lon": -77.02054916666667, "rental_uris": {"android": "https://dc.lft.to/lastmile_qr_scan", "ios": "https://dc.lft.to/lastmile_qr_scan"}}, {"name": "53d1e5819bdc219de0534293a8a4441a", "is_disabled": 0, "fusion_lat": 0.0, "fusion_lon": 0.0, "type": "electric_scooter", "lat": 38.86972033333333, "bike_id": "53d1e5819bdc219de0534293a8a4441a", "is_reserved": 0, "lon": -77.01209583333333, "rental_uris": {"android": "https://dc.lft.to/lastmile_qr_scan", "ios": "https://dc.lft.to/lastmile_qr_scan"}}, {"name": "5052669e5a3ff459095faae80d9d2d60", "is_disabled": 0, "fusion_lat": 0.0, "fusion_lon": 0.0, "type": "electric_scooter", "lat": 38.9242965, "bike_id": "5052669e5a3ff459095faae80d9d2d60", "is_reserved": 0, "lon": -77.020203, "rental_uris": {"android": "https://dc.lft.to/lastmile_qr_scan", "ios": "https://dc.lft.to/lastmile_qr_scan"}}, {"name": "8efa7bfa4ea575a18186e2eb65fd1892", "is_disabled": 0, "fusion_lat": 0.0, "fusion_lon": 0.0, "type": "electric_scooter", "lat": 38.93065583333333, "bike_id": "8efa7bfa4ea575a18186e2eb65fd1892", "is_reserved": 0, "lon": -77.0320385, "rental_uris": {"android": "https://dc.lft.to/lastmile_qr_scan", "ios": "https://dc.lft.to/lastmile_qr_scan"}}, {"name": "fbfbd0137c6cfc1a271cf2424fcfa98d", "is_disabled": 0, "fusion_lat": 0.0, "fusion_lon": 0.0, "type": "electric_scooter", "lat": 38.94209683333333, "bike_id": "fbfbd0137c6cfc1a271cf2424fcfa98d", "is_reserved": 0, "lon": -77.025152, "rental_uris": {"android": "https://dc.lft.to/lastmile_qr_scan", "ios": "https://dc.lft.to/lastmile_qr_scan"}}, {"name": "2bf5ff3e1385f00f4970384b28df1b29", "is_disabled": 0, "fusion_lat": 0.0, "fusion_lon": 0.0, "type": "electric_scooter", "lat": 38.919477666666666, "bike_id": "2bf5ff3e1385f00f4970384b28df1b29", "is_reserved": 0, "lon": -77.02889866666666, "rental_uris": {"android": "https://dc.lft.to/lastmile_qr_scan", "ios": "https://dc.lft.to/lastmile_qr_scan"}}, {"name": "df79379a0b62c4a57eae72c854045260", "is_disabled": 0, "fusion_lat": 0.0, "fusion_lon": 0.0, "type": "electric_scooter", "lat": 38.921415833333334, "bike_id": "df79379a0b62c4a57eae72c854045260", "is_reserved": 0, "lon": -77.025255, "rental_uris": {"android": "https://dc.lft.to/lastmile_qr_scan", "ios": "https://dc.lft.to/lastmile_qr_scan"}}, {"name": "64e647f10049848b7ce5058ef3f109d4", "is_disabled": 0, "fusion_lat": 0.0, "fusion_lon": 0.0, "type": "electric_scooter", "lat": 38.892228, "bike_id": "64e647f10049848b7ce5058ef3f109d4", "is_reserved": 0, "lon": -77.04308966666666, "rental_uris": {"android": "https://dc.lft.to/lastmile_qr_scan", "ios": "https://dc.lft.to/lastmile_qr_scan"}}, {"name": "6e22d3a05e33cd5b99b4f54488d5d58a", "is_disabled": 0, "fusion_lat": 0.0, "fusion_lon": 0.0, "type": "electric_scooter", "lat": 38.95836966666667, "bike_id": "6e22d3a05e33cd5b99b4f54488d5d58a", "is_reserved": 0, "lon": -77.01516833333334, "rental_uris": {"android": "https://dc.lft.to/lastmile_qr_scan", "ios": "https://dc.lft.to/lastmile_qr_scan"}}, {"name": "2ea01f68fc0118852f34403297340ecc", "is_disabled": 0, "fusion_lat": 0.0, "fusion_lon": 0.0, "type": "electric_scooter", "lat": 38.917177333333335, "bike_id": "2ea01f68fc0118852f34403297340ecc", "is_reserved": 0, "lon": -77.03857033333334, "rental_uris": {"android": "https://dc.lft.to/lastmile_qr_scan", "ios": "https://dc.lft.to/lastmile_qr_scan"}}, {"name": "a42486c9dd721037e2a759f25bb6c7b7", "is_disabled": 0, "fusion_lat": 0.0, "fusion_lon": 0.0, "type": "electric_scooter", "lat": 38.88569616666667, "bike_id": "a42486c9dd721037e2a759f25bb6c7b7", "is_reserved": 0, "lon": -77.02003466666666, "rental_uris": {"android": "https://dc.lft.to/lastmile_qr_scan", "ios": "https://dc.lft.to/lastmile_qr_scan"}}, {"name": "d2f1d7947728850088bd2555fb5a8e55", "is_disabled": 0, "fusion_lat": 0.0, "fusion_lon": 0.0, "type": "electric_scooter", "lat": 38.9002445, "bike_id": "d2f1d7947728850088bd2555fb5a8e55", "is_reserved": 0, "lon": -77.01188933333333, "rental_uris": {"android": "https://dc.lft.to/lastmile_qr_scan", "ios": "https://dc.lft.to/lastmile_qr_scan"}}, {"name": "3f629507bb1c31f6d01ab6f9342d9b39", "is_disabled": 0, "fusion_lat": 0.0, "fusion_lon": 0.0, "type": "electric_scooter", "lat": 38.900314333333334, "bike_id": "3f629507bb1c31f6d01ab6f9342d9b39", "is_reserved": 0, "lon": -77.04402516666667, "rental_uris": {"android": "https://dc.lft.to/lastmile_qr_scan", "ios": "https://dc.lft.to/lastmile_qr_scan"}}, {"name": "734a6d2d5a3544210fb3daa460af6b3a", "is_disabled": 0, "fusion_lat": 0.0, "fusion_lon": 0.0, "type": "electric_scooter", "lat": 38.90326016666667, "bike_id": "734a6d2d5a3544210fb3daa460af6b3a", "is_reserved": 0, "lon": -77.034655, "rental_uris": {"android": "https://dc.lft.to/lastmile_qr_scan", "ios": "https://dc.lft.to/lastmile_qr_scan"}}, {"name": "9188bb2c35dc27f3aba478b5fa4ed413", "is_disabled": 0, "fusion_lat": 0.0, "fusion_lon": 0.0, "type": "electric_scooter", "lat": 38.924488, "bike_id": "9188bb2c35dc27f3aba478b5fa4ed413", "is_reserved": 0, "lon": -77.03976866666666, "rental_uris": {"android": "https://dc.lft.to/lastmile_qr_scan", "ios": "https://dc.lft.to/lastmile_qr_scan"}}, {"name": "1b97eb626885f58db62501bfaf55ea88", "is_disabled": 0, "fusion_lat": 0.0, "fusion_lon": 0.0, "type": "electric_scooter", "lat": 38.9320115, "bike_id": "1b97eb626885f58db62501bfaf55ea88", "is_reserved": 0, "lon": -77.03305116666667, "rental_uris": {"android": "https://dc.lft.to/lastmile_qr_scan", "ios": "https://dc.lft.to/lastmile_qr_scan"}}, {"name": "5c6e85f3053d00ff386a76e4ce84e955", "is_disabled": 0, "fusion_lat": 0.0, "fusion_lon": 0.0, "type": "electric_scooter", "lat": 38.8986595, "bike_id": "5c6e85f3053d00ff386a76e4ce84e955", "is_reserved": 0, "lon": -76.94660783333333, "rental_uris": {"android": "https://dc.lft.to/lastmile_qr_scan", "ios": "https://dc.lft.to/lastmile_qr_scan"}}, {"name": "8652354a979926b72e8d8cea221e433b", "is_disabled": 0, "fusion_lat": 0.0, "fusion_lon": 0.0, "type": "electric_scooter", "lat": 38.903778, "bike_id": "8652354a979926b72e8d8cea221e433b", "is_reserved": 0, "lon": -77.03839933333333, "rental_uris": {"android": "https://dc.lft.to/lastmile_qr_scan", "ios": "https://dc.lft.to/lastmile_qr_scan"}}, {"name": "c9a9e9e6f49702f077d88f555ce3330d", "is_disabled": 0, "fusion_lat": 0.0, "fusion_lon": 0.0, "type": "electric_scooter", "lat": 38.89193916666667, "bike_id": "c9a9e9e6f49702f077d88f555ce3330d", "is_reserved": 0, "lon": -77.00293083333334, "rental_uris": {"android": "https://dc.lft.to/lastmile_qr_scan", "ios": "https://dc.lft.to/lastmile_qr_scan"}}, {"name": "de609bd5edb3cbc8d87b51dca303eebf", "is_disabled": 0, "fusion_lat": 0.0, "fusion_lon": 0.0, "type": "electric_scooter", "lat": 38.90081716666667, "bike_id": "de609bd5edb3cbc8d87b51dca303eebf", "is_reserved": 0, "lon": -76.99367866666667, "rental_uris": {"android": "https://dc.lft.to/lastmile_qr_scan", "ios": "https://dc.lft.to/lastmile_qr_scan"}}, {"name": "750144510a6266e2a1a412817961816a", "is_disabled": 0, "fusion_lat": 0.0, "fusion_lon": 0.0, "type": "electric_scooter", "lat": 38.905762, "bike_id": "750144510a6266e2a1a412817961816a", "is_reserved": 0, "lon": -77.04870466666667, "rental_uris": {"android": "https://dc.lft.to/lastmile_qr_scan", "ios": "https://dc.lft.to/lastmile_qr_scan"}}, {"name": "759b0d8cd234940713b54b8a5ae6906f", "is_disabled": 0, "fusion_lat": 0.0, "fusion_lon": 0.0, "type": "electric_bike", "lat": 38.94918233333333, "bike_id": "759b0d8cd234940713b54b8a5ae6906f", "is_reserved": 0, "lon": -77.00792916666667, "rental_uris": {"android": "https://dc.lft.to/lastmile_qr_scan", "ios": "https://dc.lft.to/lastmile_qr_scan"}}, {"name": "c646fb5edbfde90a78742cc98e569804", "is_disabled": 0, "fusion_lat": 0.0, "fusion_lon": 0.0, "type": "electric_scooter", "lat": 38.92937883333333, "bike_id": "c646fb5edbfde90a78742cc98e569804", "is_reserved": 0, "lon": -77.01986266666667, "rental_uris": {"android": "https://dc.lft.to/lastmile_qr_scan", "ios": "https://dc.lft.to/lastmile_qr_scan"}}, {"name": "dbec4f6b0844db60f891a52498a78efc", "is_disabled": 0, "fusion_lat": 0.0, "fusion_lon": 0.0, "type": "electric_bike", "lat": 38.9047415, "bike_id": "dbec4f6b0844db60f891a52498a78efc", "is_reserved": 0, "lon": -77.04861816666667, "rental_uris": {"android": "https://dc.lft.to/lastmile_qr_scan", "ios": "https://dc.lft.to/lastmile_qr_scan"}}, {"name": "3a7f2453bbb4f127056db3a0e62e28b2", "is_disabled": 0, "fusion_lat": 0.0, "fusion_lon": 0.0, "type": "electric_scooter", "lat": 38.892329833333335, "bike_id": "3a7f2453bbb4f127056db3a0e62e28b2", "is_reserved": 0, "lon": -77.02376733333334, "rental_uris": {"android": "https://dc.lft.to/lastmile_qr_scan", "ios": "https://dc.lft.to/lastmile_qr_scan"}}, {"name": "1c0981c277184413461a9ac709224921", "is_disabled": 0, "fusion_lat": 0.0, "fusion_lon": 0.0, "type": "electric_scooter", "lat": 38.900468333333336, "bike_id": "1c0981c277184413461a9ac709224921", "is_reserved": 0, "lon": -77.0432435, "rental_uris": {"android": "https://dc.lft.to/lastmile_qr_scan", "ios": "https://dc.lft.to/lastmile_qr_scan"}}, {"name": "e272055f7b3af138bcfbaf026e47339e", "is_disabled": 0, "fusion_lat": 0.0, "fusion_lon": 0.0, "type": "electric_scooter", "lat": 38.91017933333333, "bike_id": "e272055f7b3af138bcfbaf026e47339e", "is_reserved": 0, "lon": -77.04291266666667, "rental_uris": {"android": "https://dc.lft.to/lastmile_qr_scan", "ios": "https://dc.lft.to/lastmile_qr_scan"}}, {"name": "4055f8b53f9d16fbe9942a1585500b26", "is_disabled": 0, "fusion_lat": 0.0, "fusion_lon": 0.0, "type": "electric_scooter", "lat": 38.927417166666665, "bike_id": "4055f8b53f9d16fbe9942a1585500b26", "is_reserved": 0, "lon": -77.03298283333334, "rental_uris": {"android": "https://dc.lft.to/lastmile_qr_scan", "ios": "https://dc.lft.to/lastmile_qr_scan"}}, {"name": "300444352dd3715c6f34a6d02025f119", "is_disabled": 0, "fusion_lat": 0.0, "fusion_lon": 0.0, "type": "electric_scooter", "lat": 38.9248985, "bike_id": "300444352dd3715c6f34a6d02025f119", "is_reserved": 0, "lon": -77.03230766666667, "rental_uris": {"android": "https://dc.lft.to/lastmile_qr_scan", "ios": "https://dc.lft.to/lastmile_qr_scan"}}, {"name": "afd6a0903393c17266f048d744573a38", "is_disabled": 0, "fusion_lat": 0.0, "fusion_lon": 0.0, "type": "electric_scooter", "lat": 38.9253545, "bike_id": "afd6a0903393c17266f048d744573a38", "is_reserved": 0, "lon": -76.97222483333333, "rental_uris": {"android": "https://dc.lft.to/lastmile_qr_scan", "ios": "https://dc.lft.to/lastmile_qr_scan"}}, {"name": "b020762dfa5ca34b4ff3710dd3ba3e45", "is_disabled": 0, "fusion_lat": 0.0, "fusion_lon": 0.0, "type": "electric_scooter", "lat": 38.93107533333333, "bike_id": "b020762dfa5ca34b4ff3710dd3ba3e45", "is_reserved": 0, "lon": -77.03812233333333, "rental_uris": {"android": "https://dc.lft.to/lastmile_qr_scan", "ios": "https://dc.lft.to/lastmile_qr_scan"}}, {"name": "c3ceb93a64553fdd79d5cd338f5fca28", "is_disabled": 0, "fusion_lat": 0.0, "fusion_lon": 0.0, "type": "electric_scooter", "lat": 38.915563666666664, "bike_id": "c3ceb93a64553fdd79d5cd338f5fca28", "is_reserved": 0, "lon": -77.0531655, "rental_uris": {"android": "https://dc.lft.to/lastmile_qr_scan", "ios": "https://dc.lft.to/lastmile_qr_scan"}}, {"name": "7f39088b52f69854f0f6267dd29b2f40", "is_disabled": 0, "fusion_lat": 0.0, "fusion_lon": 0.0, "type": "electric_scooter", "lat": 38.9059355, "bike_id": "7f39088b52f69854f0f6267dd29b2f40", "is_reserved": 0, "lon": -77.03486283333334, "rental_uris": {"android": "https://dc.lft.to/lastmile_qr_scan", "ios": "https://dc.lft.to/lastmile_qr_scan"}}, {"name": "cf16cb8b00bd37c436f899c7eb6a43cf", "is_disabled": 0, "fusion_lat": 0.0, "fusion_lon": 0.0, "type": "electric_bike", "lat": 38.9048025, "bike_id": "cf16cb8b00bd37c436f899c7eb6a43cf", "is_reserved": 0, "lon": -76.97319633333333, "rental_uris": {"android": "https://dc.lft.to/lastmile_qr_scan", "ios": "https://dc.lft.to/lastmile_qr_scan"}}, {"name": "f1e78cbfe5662c56d047576158646ab6", "is_disabled": 0, "fusion_lat": 0.0, "fusion_lon": 0.0, "type": "electric_scooter", "lat": 38.90013366666667, "bike_id": "f1e78cbfe5662c56d047576158646ab6", "is_reserved": 0, "lon": -76.93030916666666, "rental_uris": {"android": "https://dc.lft.to/lastmile_qr_scan", "ios": "https://dc.lft.to/lastmile_qr_scan"}}, {"name": "9775531ed2599f59082f2d5eab53fd9a", "is_disabled": 0, "fusion_lat": 0.0, "fusion_lon": 0.0, "type": "electric_scooter", "lat": 38.896254, "bike_id": "9775531ed2599f59082f2d5eab53fd9a", "is_reserved": 0, "lon": -77.029612, "rental_uris": {"android": "https://dc.lft.to/lastmile_qr_scan", "ios": "https://dc.lft.to/lastmile_qr_scan"}}, {"name": "fecc82a25c0c2b3969145a40191cfcb2", "is_disabled": 0, "fusion_lat": 0.0, "fusion_lon": 0.0, "type": "electric_scooter", "lat": 38.9096575, "bike_id": "fecc82a25c0c2b3969145a40191cfcb2", "is_reserved": 0, "lon": -77.03367666666666, "rental_uris": {"android": "https://dc.lft.to/lastmile_qr_scan", "ios": "https://dc.lft.to/lastmile_qr_scan"}}, {"name": "ae6320fe30b329219fd34a6785deafdc", "is_disabled": 0, "fusion_lat": 0.0, "fusion_lon": 0.0, "type": "electric_scooter", "lat": 38.8669695, "bike_id": "ae6320fe30b329219fd34a6785deafdc", "is_reserved": 0, "lon": -76.985944, "rental_uris": {"android": "https://dc.lft.to/lastmile_qr_scan", "ios": "https://dc.lft.to/lastmile_qr_scan"}}, {"name": "06073284c210b57220dc4010f0610093", "is_disabled": 0, "fusion_lat": 0.0, "fusion_lon": 0.0, "type": "electric_scooter", "lat": 38.921178, "bike_id": "06073284c210b57220dc4010f0610093", "is_reserved": 0, "lon": -77.03333, "rental_uris": {"android": "https://dc.lft.to/lastmile_qr_scan", "ios": "https://dc.lft.to/lastmile_qr_scan"}}, {"name": "78eef6b3aa23445e0bf77914e02559ac", "is_disabled": 0, "fusion_lat": 0.0, "fusion_lon": 0.0, "type": "electric_scooter", "lat": 38.930061, "bike_id": "78eef6b3aa23445e0bf77914e02559ac", "is_reserved": 0, "lon": -77.01290216666666, "rental_uris": {"android": "https://dc.lft.to/lastmile_qr_scan", "ios": "https://dc.lft.to/lastmile_qr_scan"}}, {"name": "bb41fdbeec248063fd22b2d6651a5cf9", "is_disabled": 0, "fusion_lat": 0.0, "fusion_lon": 0.0, "type": "electric_scooter", "lat": 38.92354433333333, "bike_id": "bb41fdbeec248063fd22b2d6651a5cf9", "is_reserved": 0, "lon": -77.05073416666667, "rental_uris": {"android": "https://dc.lft.to/lastmile_qr_scan", "ios": "https://dc.lft.to/lastmile_qr_scan"}}, {"name": "74b4a6252c48043132d1a7529993634b", "is_disabled": 0, "fusion_lat": 0.0, "fusion_lon": 0.0, "type": "electric_scooter", "lat": 38.908683, "bike_id": "74b4a6252c48043132d1a7529993634b", "is_reserved": 0, "lon": -77.03768166666667, "rental_uris": {"android": "https://dc.lft.to/lastmile_qr_scan", "ios": "https://dc.lft.to/lastmile_qr_scan"}}, {"name": "6611c14849bb0ff957aac0bb195cf22f", "is_disabled": 0, "fusion_lat": 0.0, "fusion_lon": 0.0, "type": "electric_scooter", "lat": 38.934236, "bike_id": "6611c14849bb0ff957aac0bb195cf22f", "is_reserved": 0, "lon": -77.04145233333334, "rental_uris": {"android": "https://dc.lft.to/lastmile_qr_scan", "ios": "https://dc.lft.to/lastmile_qr_scan"}}, {"name": "1bf87e95c4c9ce199c0e4c5ca86f7e8a", "is_disabled": 0, "fusion_lat": 0.0, "fusion_lon": 0.0, "type": "electric_scooter", "lat": 38.8922585, "bike_id": "1bf87e95c4c9ce199c0e4c5ca86f7e8a", "is_reserved": 0, "lon": -77.04376383333333, "rental_uris": {"android": "https://dc.lft.to/lastmile_qr_scan", "ios": "https://dc.lft.to/lastmile_qr_scan"}}, {"name": "ad740e2ddae831ec3239ee1b384b8dde", "is_disabled": 0, "fusion_lat": 0.0, "fusion_lon": 0.0, "type": "electric_scooter", "lat": 38.89521716666667, "bike_id": "ad740e2ddae831ec3239ee1b384b8dde", "is_reserved": 0, "lon": -77.00341283333333, "rental_uris": {"android": "https://dc.lft.to/lastmile_qr_scan", "ios": "https://dc.lft.to/lastmile_qr_scan"}}, {"name": "25b0c45c08135c56d7fa0d0b36d228bf", "is_disabled": 0, "fusion_lat": 0.0, "fusion_lon": 0.0, "type": "electric_scooter", "lat": 38.917736833333336, "bike_id": "25b0c45c08135c56d7fa0d0b36d228bf", "is_reserved": 0, "lon": -77.014567, "rental_uris": {"android": "https://dc.lft.to/lastmile_qr_scan", "ios": "https://dc.lft.to/lastmile_qr_scan"}}, {"name": "ada964d1cf5b52d208c10d3fc3d74ffb", "is_disabled": 0, "fusion_lat": 0.0, "fusion_lon": 0.0, "type": "electric_scooter", "lat": 38.893597666666665, "bike_id": "ada964d1cf5b52d208c10d3fc3d74ffb", "is_reserved": 0, "lon": -77.02411983333333, "rental_uris": {"android": "https://dc.lft.to/lastmile_qr_scan", "ios": "https://dc.lft.to/lastmile_qr_scan"}}, {"name": "36543f294727689df2f3630b82f67bf3", "is_disabled": 0, "fusion_lat": 0.0, "fusion_lon": 0.0, "type": "electric_scooter", "lat": 38.87453933333333, "bike_id": "36543f294727689df2f3630b82f67bf3", "is_reserved": 0, "lon": -77.00545483333333, "rental_uris": {"android": "https://dc.lft.to/lastmile_qr_scan", "ios": "https://dc.lft.to/lastmile_qr_scan"}}, {"name": "76c0a2748382aac0bd29bc2bbc453d12", "is_disabled": 0, "fusion_lat": 0.0, "fusion_lon": 0.0, "type": "electric_scooter", "lat": 38.920075833333335, "bike_id": "76c0a2748382aac0bd29bc2bbc453d12", "is_reserved": 0, "lon": -77.0321985, "rental_uris": {"android": "https://dc.lft.to/lastmile_qr_scan", "ios": "https://dc.lft.to/lastmile_qr_scan"}}, {"name": "8bc6b35eb616f044abb5f47677837ba5", "is_disabled": 0, "fusion_lat": 0.0, "fusion_lon": 0.0, "type": "electric_scooter", "lat": 38.90766216666667, "bike_id": "8bc6b35eb616f044abb5f47677837ba5", "is_reserved": 0, "lon": -77.038225, "rental_uris": {"android": "https://dc.lft.to/lastmile_qr_scan", "ios": "https://dc.lft.to/lastmile_qr_scan"}}, {"name": "f3dd9800c05c468e92ea2e752ed6282c", "is_disabled": 0, "fusion_lat": 0.0, "fusion_lon": 0.0, "type": "electric_scooter", "lat": 38.92169033333333, "bike_id": "f3dd9800c05c468e92ea2e752ed6282c", "is_reserved": 0, "lon": -77.03218733333334, "rental_uris": {"android": "https://dc.lft.to/lastmile_qr_scan", "ios": "https://dc.lft.to/lastmile_qr_scan"}}, {"name": "99704153d4e8b5b382110b07397e5fd5", "is_disabled": 0, "fusion_lat": 0.0, "fusion_lon": 0.0, "type": "electric_scooter", "lat": 38.903917166666666, "bike_id": "99704153d4e8b5b382110b07397e5fd5", "is_reserved": 0, "lon": -77.04016266666666, "rental_uris": {"android": "https://dc.lft.to/lastmile_qr_scan", "ios": "https://dc.lft.to/lastmile_qr_scan"}}, {"name": "b1a6f2929be0371c69a699b3b1998f87", "is_disabled": 0, "fusion_lat": 0.0, "fusion_lon": 0.0, "type": "electric_scooter", "lat": 38.8973645, "bike_id": "b1a6f2929be0371c69a699b3b1998f87", "is_reserved": 0, "lon": -77.022146, "rental_uris": {"android": "https://dc.lft.to/lastmile_qr_scan", "ios": "https://dc.lft.to/lastmile_qr_scan"}}, {"name": "ac7558ee27d9a8368c032524e9d6aed1", "is_disabled": 0, "fusion_lat": 0.0, "fusion_lon": 0.0, "type": "electric_scooter", "lat": 38.9121375, "bike_id": "ac7558ee27d9a8368c032524e9d6aed1", "is_reserved": 0, "lon": -77.0383705, "rental_uris": {"android": "https://dc.lft.to/lastmile_qr_scan", "ios": "https://dc.lft.to/lastmile_qr_scan"}}, {"name": "3655131f9cf21cc55d38ec4188b03614", "is_disabled": 0, "fusion_lat": 0.0, "fusion_lon": 0.0, "type": "electric_scooter", "lat": 38.886593, "bike_id": "3655131f9cf21cc55d38ec4188b03614", "is_reserved": 0, "lon": -77.03388233333334, "rental_uris": {"android": "https://dc.lft.to/lastmile_qr_scan", "ios": "https://dc.lft.to/lastmile_qr_scan"}}, {"name": "d93681235e56cd6de6aaa4aa09c4bb87", "is_disabled": 0, "fusion_lat": 0.0, "fusion_lon": 0.0, "type": "electric_scooter", "lat": 38.88075516666667, "bike_id": "d93681235e56cd6de6aaa4aa09c4bb87", "is_reserved": 0, "lon": -76.98525366666667, "rental_uris": {"android": "https://dc.lft.to/lastmile_qr_scan", "ios": "https://dc.lft.to/lastmile_qr_scan"}}, {"name": "1cdd52d4f7f0280a561943a902c1956d", "is_disabled": 0, "fusion_lat": 0.0, "fusion_lon": 0.0, "type": "electric_scooter", "lat": 38.938621166666664, "bike_id": "1cdd52d4f7f0280a561943a902c1956d", "is_reserved": 0, "lon": -77.02493916666667, "rental_uris": {"android": "https://dc.lft.to/lastmile_qr_scan", "ios": "https://dc.lft.to/lastmile_qr_scan"}}, {"name": "de1cb5563ae4e5fbc60a00344fedc791", "is_disabled": 0, "fusion_lat": 0.0, "fusion_lon": 0.0, "type": "electric_scooter", "lat": 38.91714533333333, "bike_id": "de1cb5563ae4e5fbc60a00344fedc791", "is_reserved": 0, "lon": -77.038591, "rental_uris": {"android": "https://dc.lft.to/lastmile_qr_scan", "ios": "https://dc.lft.to/lastmile_qr_scan"}}, {"name": "83ffc000f97cb612eec585395290d64b", "is_disabled": 0, "fusion_lat": 0.0, "fusion_lon": 0.0, "type": "electric_scooter", "lat": 38.893259, "bike_id": "83ffc000f97cb612eec585395290d64b", "is_reserved": 0, "lon": -77.048756, "rental_uris": {"android": "https://dc.lft.to/lastmile_qr_scan", "ios": "https://dc.lft.to/lastmile_qr_scan"}}, {"name": "877a4abe46a7ccc81e97382d52aaf492", "is_disabled": 0, "fusion_lat": 0.0, "fusion_lon": 0.0, "type": "electric_scooter", "lat": 38.9055485, "bike_id": "877a4abe46a7ccc81e97382d52aaf492", "is_reserved": 0, "lon": -77.04478533333334, "rental_uris": {"android": "https://dc.lft.to/lastmile_qr_scan", "ios": "https://dc.lft.to/lastmile_qr_scan"}}, {"name": "9b8ea20f50d91e7306d6cb6de7881b9f", "is_disabled": 0, "fusion_lat": 0.0, "fusion_lon": 0.0, "type": "electric_scooter", "lat": 38.92660166666667, "bike_id": "9b8ea20f50d91e7306d6cb6de7881b9f", "is_reserved": 0, "lon": -77.04138216666666, "rental_uris": {"android": "https://dc.lft.to/lastmile_qr_scan", "ios": "https://dc.lft.to/lastmile_qr_scan"}}, {"name": "9434afe294556a4d5f631cde68b06c43", "is_disabled": 0, "fusion_lat": 0.0, "fusion_lon": 0.0, "type": "electric_bike", "lat": 38.90574183333333, "bike_id": "9434afe294556a4d5f631cde68b06c43", "is_reserved": 0, "lon": -77.01423516666667, "rental_uris": {"android": "https://dc.lft.to/lastmile_qr_scan", "ios": "https://dc.lft.to/lastmile_qr_scan"}}, {"name": "c80c84ebae17787262253ac9d0f25373", "is_disabled": 0, "fusion_lat": 0.0, "fusion_lon": 0.0, "type": "electric_scooter", "lat": 38.9096755, "bike_id": "c80c84ebae17787262253ac9d0f25373", "is_reserved": 0, "lon": -77.03599583333333, "rental_uris": {"android": "https://dc.lft.to/lastmile_qr_scan", "ios": "https://dc.lft.to/lastmile_qr_scan"}}, {"name": "a267a5b4296d3ab45ea39271b630d83a", "is_disabled": 0, "fusion_lat": 0.0, "fusion_lon": 0.0, "type": "electric_scooter", "lat": 38.90033583333334, "bike_id": "a267a5b4296d3ab45ea39271b630d83a", "is_reserved": 0, "lon": -77.04336966666666, "rental_uris": {"android": "https://dc.lft.to/lastmile_qr_scan", "ios": "https://dc.lft.to/lastmile_qr_scan"}}, {"name": "512f3d6297c2ab24be73ab049de1337c", "is_disabled": 0, "fusion_lat": 0.0, "fusion_lon": 0.0, "type": "electric_scooter", "lat": 38.90571633333333, "bike_id": "512f3d6297c2ab24be73ab049de1337c", "is_reserved": 0, "lon": -77.04354283333333, "rental_uris": {"android": "https://dc.lft.to/lastmile_qr_scan", "ios": "https://dc.lft.to/lastmile_qr_scan"}}, {"name": "88f454d6d5ffc70fc58ced6daa5dc532", "is_disabled": 0, "fusion_lat": 0.0, "fusion_lon": 0.0, "type": "electric_scooter", "lat": 38.9102305, "bike_id": "88f454d6d5ffc70fc58ced6daa5dc532", "is_reserved": 0, "lon": -77.03187133333333, "rental_uris": {"android": "https://dc.lft.to/lastmile_qr_scan", "ios": "https://dc.lft.to/lastmile_qr_scan"}}, {"name": "43c94f4d02e2270ab68c8b4e7a3c4ac7", "is_disabled": 0, "fusion_lat": 0.0, "fusion_lon": 0.0, "type": "electric_bike", "lat": 38.968244, "bike_id": "43c94f4d02e2270ab68c8b4e7a3c4ac7", "is_reserved": 0, "lon": -77.000475, "rental_uris": {"android": "https://dc.lft.to/lastmile_qr_scan", "ios": "https://dc.lft.to/lastmile_qr_scan"}}, {"name": "b5746824036d79f9b8fed76a62186407", "is_disabled": 0, "fusion_lat": 0.0, "fusion_lon": 0.0, "type": "electric_scooter", "lat": 38.935371333333336, "bike_id": "b5746824036d79f9b8fed76a62186407", "is_reserved": 0, "lon": -77.0234855, "rental_uris": {"android": "https://dc.lft.to/lastmile_qr_scan", "ios": "https://dc.lft.to/lastmile_qr_scan"}}, {"name": "5a89db8bb147d3a67591cad4be9519ee", "is_disabled": 0, "fusion_lat": 0.0, "fusion_lon": 0.0, "type": "electric_scooter", "lat": 38.89738783333333, "bike_id": "5a89db8bb147d3a67591cad4be9519ee", "is_reserved": 0, "lon": -77.0495035, "rental_uris": {"android": "https://dc.lft.to/lastmile_qr_scan", "ios": "https://dc.lft.to/lastmile_qr_scan"}}, {"name": "1656f98583808ef7878a3746596ef04c", "is_disabled": 0, "fusion_lat": 0.0, "fusion_lon": 0.0, "type": "electric_scooter", "lat": 38.9285565, "bike_id": "1656f98583808ef7878a3746596ef04c", "is_reserved": 0, "lon": -77.0137985, "rental_uris": {"android": "https://dc.lft.to/lastmile_qr_scan", "ios": "https://dc.lft.to/lastmile_qr_scan"}}, {"name": "23415c8a54df40cc49deadf72e60931e", "is_disabled": 0, "fusion_lat": 0.0, "fusion_lon": 0.0, "type": "electric_scooter", "lat": 38.8952425, "bike_id": "23415c8a54df40cc49deadf72e60931e", "is_reserved": 0, "lon": -77.00340666666666, "rental_uris": {"android": "https://dc.lft.to/lastmile_qr_scan", "ios": "https://dc.lft.to/lastmile_qr_scan"}}, {"name": "ca57b1b0c55c5982a23616786b9b8d97", "is_disabled": 0, "fusion_lat": 0.0, "fusion_lon": 0.0, "type": "electric_scooter", "lat": 38.89227483333333, "bike_id": "ca57b1b0c55c5982a23616786b9b8d97", "is_reserved": 0, "lon": -77.028664, "rental_uris": {"android": "https://dc.lft.to/lastmile_qr_scan", "ios": "https://dc.lft.to/lastmile_qr_scan"}}, {"name": "63f992d8abc06a27e7bdacb67814251c", "is_disabled": 0, "fusion_lat": 0.0, "fusion_lon": 0.0, "type": "electric_scooter", "lat": 38.9179565, "bike_id": "63f992d8abc06a27e7bdacb67814251c", "is_reserved": 0, "lon": -77.04025033333333, "rental_uris": {"android": "https://dc.lft.to/lastmile_qr_scan", "ios": "https://dc.lft.to/lastmile_qr_scan"}}, {"name": "7e408e5debac9283e481034f3beae4ca", "is_disabled": 0, "fusion_lat": 0.0, "fusion_lon": 0.0, "type": "electric_scooter", "lat": 38.8851435, "bike_id": "7e408e5debac9283e481034f3beae4ca", "is_reserved": 0, "lon": -77.005679, "rental_uris": {"android": "https://dc.lft.to/lastmile_qr_scan", "ios": "https://dc.lft.to/lastmile_qr_scan"}}, {"name": "c3274e955247f19c0b9b7eba9b7f53da", "is_disabled": 0, "fusion_lat": 0.0, "fusion_lon": 0.0, "type": "electric_scooter", "lat": 38.923087333333335, "bike_id": "c3274e955247f19c0b9b7eba9b7f53da", "is_reserved": 0, "lon": -77.02764166666667, "rental_uris": {"android": "https://dc.lft.to/lastmile_qr_scan", "ios": "https://dc.lft.to/lastmile_qr_scan"}}, {"name": "da907a7ed828a6aba68380f7755736dd", "is_disabled": 0, "fusion_lat": 0.0, "fusion_lon": 0.0, "type": "electric_scooter", "lat": 38.867003, "bike_id": "da907a7ed828a6aba68380f7755736dd", "is_reserved": 0, "lon": -76.98592283333333, "rental_uris": {"android": "https://dc.lft.to/lastmile_qr_scan", "ios": "https://dc.lft.to/lastmile_qr_scan"}}, {"name": "43f4126d7361ea9ffbb3a119423e83be", "is_disabled": 0, "fusion_lat": 0.0, "fusion_lon": 0.0, "type": "electric_scooter", "lat": 38.942044, "bike_id": "43f4126d7361ea9ffbb3a119423e83be", "is_reserved": 0, "lon": -77.02522516666667, "rental_uris": {"android": "https://dc.lft.to/lastmile_qr_scan", "ios": "https://dc.lft.to/lastmile_qr_scan"}}, {"name": "7e339fec81661c1738bc7bc145d7cb1a", "is_disabled": 0, "fusion_lat": 0.0, "fusion_lon": 0.0, "type": "electric_scooter", "lat": 38.86251816666667, "bike_id": "7e339fec81661c1738bc7bc145d7cb1a", "is_reserved": 0, "lon": -76.99513683333333, "rental_uris": {"android": "https://dc.lft.to/lastmile_qr_scan", "ios": "https://dc.lft.to/lastmile_qr_scan"}}, {"name": "6555b1f97fe3d77907c988f0cce6e5ae", "is_disabled": 0, "fusion_lat": 0.0, "fusion_lon": 0.0, "type": "electric_bike", "lat": 38.91018, "bike_id": "6555b1f97fe3d77907c988f0cce6e5ae", "is_reserved": 0, "lon": -77.22802033333333, "rental_uris": {"android": "https://dc.lft.to/lastmile_qr_scan", "ios": "https://dc.lft.to/lastmile_qr_scan"}}, {"name": "7f7af87bcf4e8f05afe906d9f6fe0bfb", "is_disabled": 0, "fusion_lat": 0.0, "fusion_lon": 0.0, "type": "electric_scooter", "lat": 38.893213, "bike_id": "7f7af87bcf4e8f05afe906d9f6fe0bfb", "is_reserved": 0, "lon": -77.0487805, "rental_uris": {"android": "https://dc.lft.to/lastmile_qr_scan", "ios": "https://dc.lft.to/lastmile_qr_scan"}}, {"name": "41857f8a4f6e24197a14226edbaf5190", "is_disabled": 0, "fusion_lat": 0.0, "fusion_lon": 0.0, "type": "electric_scooter", "lat": 38.9038905, "bike_id": "41857f8a4f6e24197a14226edbaf5190", "is_reserved": 0, "lon": -77.03840533333333, "rental_uris": {"android": "https://dc.lft.to/lastmile_qr_scan", "ios": "https://dc.lft.to/lastmile_qr_scan"}}, {"name": "bfa6f0769f0f833e22931a2e012985f3", "is_disabled": 0, "fusion_lat": 0.0, "fusion_lon": 0.0, "type": "electric_scooter", "lat": 38.907936666666664, "bike_id": "bfa6f0769f0f833e22931a2e012985f3", "is_reserved": 0, "lon": -77.03867216666667, "rental_uris": {"android": "https://dc.lft.to/lastmile_qr_scan", "ios": "https://dc.lft.to/lastmile_qr_scan"}}, {"name": "c1921dcc4e16293b48ef5c4adc62bd95", "is_disabled": 0, "fusion_lat": 0.0, "fusion_lon": 0.0, "type": "electric_bike", "lat": 38.88058483333333, "bike_id": "c1921dcc4e16293b48ef5c4adc62bd95", "is_reserved": 0, "lon": -76.96240433333334, "rental_uris": {"android": "https://dc.lft.to/lastmile_qr_scan", "ios": "https://dc.lft.to/lastmile_qr_scan"}}, {"name": "c4314c4264038890a1767ddad079494c", "is_disabled": 0, "fusion_lat": 0.0, "fusion_lon": 0.0, "type": "electric_scooter", "lat": 38.922466666666665, "bike_id": "c4314c4264038890a1767ddad079494c", "is_reserved": 0, "lon": -77.01981083333334, "rental_uris": {"android": "https://dc.lft.to/lastmile_qr_scan", "ios": "https://dc.lft.to/lastmile_qr_scan"}}, {"name": "498b3057c246474f3c7e745bc8827146", "is_disabled": 0, "fusion_lat": 0.0, "fusion_lon": 0.0, "type": "electric_scooter", "lat": 38.905407833333335, "bike_id": "498b3057c246474f3c7e745bc8827146", "is_reserved": 0, "lon": -77.02231716666667, "rental_uris": {"android": "https://dc.lft.to/lastmile_qr_scan", "ios": "https://dc.lft.to/lastmile_qr_scan"}}, {"name": "2aaa0dbf243ba02fe0421e5a9bdf30b1", "is_disabled": 0, "fusion_lat": 0.0, "fusion_lon": 0.0, "type": "electric_scooter", "lat": 38.924498166666666, "bike_id": "2aaa0dbf243ba02fe0421e5a9bdf30b1", "is_reserved": 0, "lon": -77.04122833333334, "rental_uris": {"android": "https://dc.lft.to/lastmile_qr_scan", "ios": "https://dc.lft.to/lastmile_qr_scan"}}, {"name": "d22bf94be86e5bf063318db926f38ccd", "is_disabled": 0, "fusion_lat": 0.0, "fusion_lon": 0.0, "type": "electric_bike", "lat": 38.87278383333334, "bike_id": "d22bf94be86e5bf063318db926f38ccd", "is_reserved": 0, "lon": -77.23320483333333, "rental_uris": {"android": "https://dc.lft.to/lastmile_qr_scan", "ios": "https://dc.lft.to/lastmile_qr_scan"}}, {"name": "c240fcd3587b5958bce3bd08f8bc9f54", "is_disabled": 0, "fusion_lat": 0.0, "fusion_lon": 0.0, "type": "electric_bike", "lat": 38.9614085, "bike_id": "c240fcd3587b5958bce3bd08f8bc9f54", "is_reserved": 0, "lon": -77.0229205, "rental_uris": {"android": "https://dc.lft.to/lastmile_qr_scan", "ios": "https://dc.lft.to/lastmile_qr_scan"}},