{"data": {"bikes": [{"lon": -77.031519, "bike_id": "b846a5ee43222fc8835be021f559bdae", "lat": 38.92025916666667, "fusion_lon": 0.0, "fusion_lat": 0.0, "type": "electric_scooter", "name": "b846a5ee43222fc8835be021f559bdae", "is_disabled": 0, "rental_uris": {"ios": "https://dc.lft.to/lastmile_qr_scan", "android": "https://dc.lft.to/lastmile_qr_scan"}, "is_reserved": 0}, {"lon": -77.0074755, "bike_id": "a0854836381e394096c43e379c1f0618", "lat": 38.89838066666667, "fusion_lon": 0.0, "fusion_lat": 0.0, "type": "electric_scooter", "name": "a0854836381e394096c43e379c1f0618", "is_disabled": 0, "rental_uris": {"ios": "https://dc.lft.to/lastmile_qr_scan", "android": "https://dc.lft.to/lastmile_qr_scan"}, "is_reserved": 0}, {"lon": -76.99905916666667, "bike_id": "547f88c1efab44ef4c972abfaf525be7", "lat": 38.909514333333334, "fusion_lon": 0.0, "fusion_lat": 0.0, "type": "electric_scooter", "name": "547f88c1efab44ef4c972abfaf525be7", "is_disabled": 0, "rental_uris": {"ios": "https://dc.lft.to/lastmile_qr_scan", "android": "https://dc.lft.to/lastmile_qr_scan"}, "is_reserved": 0}, {"lon": -76.9761755, "bike_id": "f8106a403e40a34195db134c69d293b9", "lat": 38.90382983333333, "fusion_lon": 0.0, "fusion_lat": 0.0, "type": "electric_scooter", "name": "f8106a403e40a34195db134c69d293b9", "is_disabled": 0, "rental_uris": {"ios": "https://dc.lft.to/lastmile_qr_scan", "android": "https://dc.lft.to/lastmile_qr_scan"}, "is_reserved": 0}, {"lon": -77.07710966666667, "bike_id": "9df656d4e32f558e6b201538771faea9", "lat": 38.9569845, "fusion_lon": 0.0, "fusion_lat": 0.0, "type": "electric_bike", "name": "9df656d4e32f558e6b201538771faea9", "is_disabled": 0, "rental_uris": {"ios": "https://dc.lft.to/lastmile_qr_scan", "android": "https://dc.lft.to/lastmile_qr_scan"}, "is_reserved": 0}, {"lon": -77.04818616666667, "bike_id": "f27c4c3d32e5dcf35a27c0cd232b466b", "lat": 38.9111385, "fusion_lon": 0.0, "fusion_lat": 0.0, "type": "electric_scooter", "name": "f27c4c3d32e5dcf35a27c0cd232b466b", "is_disabled": 0, "rental_uris": {"ios": "https://dc.lft.to/lastmile_qr_scan", "android": "https://dc.lft.to/lastmile_qr_scan"}, "is_reserved": 0}, {"lon": -77.04497866666667, "bike_id": "6a4c8ca2e38c6ed20900ef1c0a8a7f9d", "lat": 38.908503833333334, "fusion_lon": 0.0, "fusion_lat": 0.0, "type": "electric_scooter", "name": "6a4c8ca2e38c6ed20900ef1c0a8a7f9d", "is_disabled": 0, "rental_uris": {"ios": "https://dc.lft.to/lastmile_qr_scan", "android": "https://dc.lft.to/lastmile_qr_scan"}, "is_reserved": 0}, {"lon": -77.04465833333333, "bike_id": "fa124632730e47be1d3993a7d586e3a7", "lat": 38.9184575, "fusion_lon": 0.0, "fusion_lat": 0.0, "type": "electric_scooter", "name": "fa124632730e47be1d3993a7d586e3a7", "is_disabled": 0, "rental_uris": {"ios": "https://dc.lft.to/lastmile_qr_scan", "android": "https://dc.lft.to/lastmile_qr_scan"}, "is_reserved": 0}, {"lon": -77.02002783333333, "bike_id": "64b287c56dc3cc113ed0fb3104c49d44", "lat": 38.91577916666667, "fusion_lon": 0.0, "fusion_lat": 0.0, "type": "electric_scooter", "name": "64b287c56dc3cc113ed0fb3104c49d44", "is_disabled": 0, "rental_uris": {"ios": "https://dc.lft.to/lastmile_qr_scan", "android": "https://dc.lft.to/lastmile_qr_scan"}, "is_reserved": 0}, {"lon": -76.9361295, "bike_id": "1d3e10a5c23d73bbfb388c31cb514c02", "lat": 38.89682416666667, "fusion_lon": 0.0, "fusion_lat": 0.0, "type": "electric_scooter", "name": "1d3e10a5c23d73bbfb388c31cb514c02", "is_disabled": 0, "rental_uris": {"ios": "https://dc.lft.to/lastmile_qr_scan", "android": "https://dc.lft.to/lastmile_qr_scan"}, "is_reserved": 0}, {"lon": -77.04154866666667, "bike_id": "4cd6abe0f97b9eeecf2966aeec017c3c", "lat": 38.91265583333333, "fusion_lon": 0.0, "fusion_lat": 0.0, "type": "electric_scooter", "name": "4cd6abe0f97b9eeecf2966aeec017c3c", "is_disabled": 0, "rental_uris": {"ios": "https://dc.lft.to/lastmile_qr_scan", "android": "https://dc.lft.to/lastmile_qr_scan"}, "is_reserved": 0}, {"lon": -77.025587, "bike_id": "f88f15bdf864580a3069d78805d36f16", "lat": 38.90728216666667, "fusion_lon": 0.0, "fusion_lat": 0.0, "type": "electric_scooter", "name": "f88f15bdf864580a3069d78805d36f16", "is_disabled": 0, "rental_uris": {"ios": "https://dc.lft.to/lastmile_qr_scan", "android": "https://dc.lft.to/lastmile_qr_scan"}, "is_reserved": 0}, {"lon": -76.99038616666667, "bike_id": "d1e58cd1cedd5341ab7eda8b3a1009a2", "lat": 38.9029095, "fusion_lon": 0.0, "fusion_lat": 0.0, "type": "electric_scooter", "name": "d1e58cd1cedd5341ab7eda8b3a1009a2", "is_disabled": 0, "rental_uris": {"ios": "https://dc.lft.to/lastmile_qr_scan", "android": "https://dc.lft.to/lastmile_qr_scan"}, "is_reserved": 0}, {"lon": -77.06403566666667, "bike_id": "a554771c9611c79db27395d743ad126c", "lat": 38.94324683333333, "fusion_lon": 0.0, "fusion_lat": 0.0, "type": "electric_scooter", "name": "a554771c9611c79db27395d743ad126c", "is_disabled": 0, "rental_uris": {"ios": "https://dc.lft.to/lastmile_qr_scan", "android": "https://dc.lft.to/lastmile_qr_scan"}, "is_reserved": 0}, {"lon": -77.0342375, "bike_id": "05618d75e1a51dcd8a94b18fbeae644d", "lat": 38.90390683333333, "fusion_lon": 0.0, "fusion_lat": 0.0, "type": "electric_scooter", "name": "05618d75e1a51dcd8a94b18fbeae644d", "is_disabled": 0, "rental_uris": {"ios": "https://dc.lft.to/lastmile_qr_scan", "android": "https://dc.lft.to/lastmile_qr_scan"}, "is_reserved": 0}, {"lon": -77.04181016666666, "bike_id": "8f60d06ce96867786d9b9b2ee264cc84", "lat": 38.919355, "fusion_lon": 0.0, "fusion_lat": 0.0, "type": "electric_scooter", "name": "8f60d06ce96867786d9b9b2ee264cc84", "is_disabled": 0, "rental_uris": {"ios": "https://dc.lft.to/lastmile_qr_scan", "android": "https://dc.lft.to/lastmile_qr_scan"}, "is_reserved": 0}, {"lon": -77.02495666666667, "bike_id": "94ffe495527281d2aa65471b1425e905", "lat": 38.919511166666666, "fusion_lon": 0.0, "fusion_lat": 0.0, "type": "electric_scooter", "name": "94ffe495527281d2aa65471b1425e905", "is_disabled": 0, "rental_uris": {"ios": "https://dc.lft.to/lastmile_qr_scan", "android": "https://dc.lft.to/lastmile_qr_scan"}, "is_reserved": 0}, {"lon": -77.04189650000001, "bike_id": "0c260bc340332ec626c3c83782f1c6c4", "lat": 38.9140575, "fusion_lon": 0.0, "fusion_lat": 0.0, "type": "electric_scooter", "name": "0c260bc340332ec626c3c83782f1c6c4", "is_disabled": 0, "rental_uris": {"ios": "https://dc.lft.to/lastmile_qr_scan", "android": "https://dc.lft.to/lastmile_qr_scan"}, "is_reserved": 0}, {"lon": -77.04161016666667, "bike_id": "17d62c2a925c92c5a29c2ccf1ef2ee3e", "lat": 38.914907666666664, "fusion_lon": 0.0, "fusion_lat": 0.0, "type": "electric_scooter", "name": "17d62c2a925c92c5a29c2ccf1ef2ee3e", "is_disabled": 0, "rental_uris": {"ios": "https://dc.lft.to/lastmile_qr_scan", "android": "https://dc.lft.to/lastmile_qr_scan"}, "is_reserved": 0}, {"lon": -76.99029616666667, "bike_id": "95b83abf83de86da0d4c3acf13690422", "lat": 38.863770833333334, "fusion_lon": 0.0, "fusion_lat": 0.0, "type": "electric_scooter", "name": "95b83abf83de86da0d4c3acf13690422", "is_disabled": 0, "rental_uris": {"ios": "https://dc.lft.to/lastmile_qr_scan", "android": "https://dc.lft.to/lastmile_qr_scan"}, "is_reserved": 0}, {"lon": -76.9221065, "bike_id": "992883bb4f13d366a8058c434c9e8bfb", "lat": 38.894990666666665, "fusion_lon": 0.0, "fusion_lat": 0.0, "type": "electric_bike", "name": "992883bb4f13d366a8058c434c9e8bfb", "is_disabled": 0, "rental_uris": {"ios": "https://dc.lft.to/lastmile_qr_scan", "android": "https://dc.lft.to/lastmile_qr_scan"}, "is_reserved": 0}, {"lon": -77.00084066666666, "bike_id": "d4d73084d5e8758de3b599fac2b73dbb", "lat": 38.89475366666667, "fusion_lon": 0.0, "fusion_lat": 0.0, "type": "electric_scooter", "name": "d4d73084d5e8758de3b599fac2b73dbb", "is_disabled": 0, "rental_uris": {"ios": "https://dc.lft.to/lastmile_qr_scan", "android": "https://dc.lft.to/lastmile_qr_scan"}, "is_reserved": 0}, {"lon": -77.0328545, "bike_id": "e7a6ee3a3e173a3b44faec5a13e25b91", "lat": 38.93113666666667, "fusion_lon": 0.0, "fusion_lat": 0.0, "type": "electric_scooter", "name": "e7a6ee3a3e173a3b44faec5a13e25b91", "is_disabled": 0, "rental_uris": {"ios": "https://dc.lft.to/lastmile_qr_scan", "android": "https://dc.lft.to/lastmile_qr_scan"}, "is_reserved": 0}, {"lon": -77.02991483333334, "bike_id": "0688028f9e3dbda66f82713e0471de5d", "lat": 38.93142666666667, "fusion_lon": 0.0, "fusion_lat": 0.0, "type": "electric_scooter", "name": "0688028f9e3dbda66f82713e0471de5d", "is_disabled": 0, "rental_uris": {"ios": "https://dc.lft.to/lastmile_qr_scan", "android": "https://dc.lft.to/lastmile_qr_scan"}, "is_reserved": 0}, {"lon": -77.03443266666666, "bike_id": "fb936efcfacf645fcd804823337f7d8f", "lat": 38.9180835, "fusion_lon": 0.0, "fusion_lat": 0.0, "type": "electric_scooter", "name": "fb936efcfacf645fcd804823337f7d8f", "is_disabled": 0, "rental_uris": {"ios": "https://dc.lft.to/lastmile_qr_scan", "android": "https://dc.lft.to/lastmile_qr_scan"}, "is_reserved": 0}, {"lon": -76.991044, "bike_id": "08505d7e386e7dc9be66694f2cab75b7", "lat": 38.93297833333333, "fusion_lon": 0.0, "fusion_lat": 0.0, "type": "electric_scooter", "name": "08505d7e386e7dc9be66694f2cab75b7", "is_disabled": 0, "rental_uris": {"ios": "https://dc.lft.to/lastmile_qr_scan", "android": "https://dc.lft.to/lastmile_qr_scan"}, "is_reserved": 0}, {"lon": -77.07925816666666, "bike_id": "fa3538d3d5a13bcd4f2c9c287ceb0f4a", "lat": 38.931130833333334, "fusion_lon": 0.0, "fusion_lat": 0.0, "type": "electric_scooter", "name": "fa3538d3d5a13bcd4f2c9c287ceb0f4a", "is_disabled": 0, "rental_uris": {"ios": "https://dc.lft.to/lastmile_qr_scan", "android": "https://dc.lft.to/lastmile_qr_scan"}, "is_reserved": 0}, {"lon": -77.02618466666667, "bike_id": "f35ef7cb49523e4cb6ff7ed15fbe9ee8", "lat": 38.902600166666666, "fusion_lon": 0.0, "fusion_lat": 0.0, "type": "electric_scooter", "name": "f35ef7cb49523e4cb6ff7ed15fbe9ee8", "is_disabled": 0, "rental_uris": {"ios": "https://dc.lft.to/lastmile_qr_scan", "android": "https://dc.lft.to/lastmile_qr_scan"}, "is_reserved": 0}, {"lon": -76.97673583333334, "bike_id": "ff3bc5c63ea994bd98db8479fe5a38ba", "lat": 38.952465, "fusion_lon": 0.0, "fusion_lat": 0.0, "type": "electric_bike", "name": "ff3bc5c63ea994bd98db8479fe5a38ba", "is_disabled": 0, "rental_uris": {"ios": "https://dc.lft.to/lastmile_qr_scan", "android": "https://dc.lft.to/lastmile_qr_scan"}, "is_reserved": 0}, {"lon": -76.98304066666667, "bike_id": "acb2222c2a399015d59174ff2caf41a3", "lat": 38.905266166666664, "fusion_lon": 0.0, "fusion_lat": 0.0, "type": "electric_scooter", "name": "acb2222c2a399015d59174ff2caf41a3", "is_disabled": 0, "rental_uris": {"ios": "https://dc.lft.to/lastmile_qr_scan", "android": "https://dc.lft.to/lastmile_qr_scan"}, "is_reserved": 0}, {"lon": -76.98804816666667, "bike_id": "dca665b318a619f213997e5ccca8250d", "lat": 38.8672545, "fusion_lon": 0.0, "fusion_lat": 0.0, "type": "electric_scooter", "name": "dca665b318a619f213997e5ccca8250d", "is_disabled": 0, "rental_uris": {"ios": "https://dc.lft.to/lastmile_qr_scan", "android": "https://dc.lft.to/lastmile_qr_scan"}, "is_reserved": 0}, {"lon": -77.04349466666666, "bike_id": "b4aacba93141be332567c58c6d3e20e0", "lat": 38.904045833333335, "fusion_lon": 0.0, "fusion_lat": 0.0, "type": "electric_scooter", "name": "b4aacba93141be332567c58c6d3e20e0", "is_disabled": 0, "rental_uris": {"ios": "https://dc.lft.to/lastmile_qr_scan", "android": "https://dc.lft.to/lastmile_qr_scan"}, "is_reserved": 0}, {"lon": -76.99519516666666, "bike_id": "757bc3e33125e7575b785ed54f4fbfec", "lat": 38.8973985, "fusion_lon": 0.0, "fusion_lat": 0.0, "type": "electric_scooter", "name": "757bc3e33125e7575b785ed54f4fbfec", "is_disabled": 0, "rental_uris": {"ios": "https://dc.lft.to/lastmile_qr_scan", "android": "https://dc.lft.to/lastmile_qr_scan"}, "is_reserved": 0}, {"lon": -77.03210833333333, "bike_id": "ea21bfb639b5b500dd5819259047b171", "lat": 38.90948433333333, "fusion_lon": 0.0, "fusion_lat": 0.0, "type": "electric_scooter", "name": "ea21bfb639b5b500dd5819259047b171", "is_disabled": 0, "rental_uris": {"ios": "https://dc.lft.to/lastmile_qr_scan", "android": "https://dc.lft.to/lastmile_qr_scan"}, "is_reserved": 0}, {"lon": -77.02063683333333, "bike_id": "8af316a7f54034ee7ec671600ce2df76", "lat": 38.923534833333335, "fusion_lon": 0.0, "fusion_lat": 0.0, "type": "electric_scooter", "name": "8af316a7f54034ee7ec671600ce2df76", "is_disabled": 0, "rental_uris": {"ios": "https://dc.lft.to/lastmile_qr_scan", "android": "https://dc.lft.to/lastmile_qr_scan"}, "is_reserved": 0}, {"lon": -77.02287266666667, "bike_id": "4fec529dc3abd896694a156a480e8cda", "lat": 38.878687166666666, "fusion_lon": 0.0, "fusion_lat": 0.0, "type": "electric_scooter", "name": "4fec529dc3abd896694a156a480e8cda", "is_disabled": 0, "rental_uris": {"ios": "https://dc.lft.to/lastmile_qr_scan", "android": "https://dc.lft.to/lastmile_qr_scan"}, "is_reserved": 0}, {"lon": -77.03207283333333, "bike_id": "da4d5f2d640a28cf469cfe3452c158ad", "lat": 38.915372, "fusion_lon": 0.0, "fusion_lat": 0.0, "type": "electric_scooter", "name": "da4d5f2d640a28cf469cfe3452c158ad", "is_disabled": 0, "rental_uris": {"ios": "https://dc.lft.to/lastmile_qr_scan", "android": "https://dc.lft.to/lastmile_qr_scan"}, "is_reserved": 0}, {"lon": -77.01771983333333, "bike_id": "cf6c1be904eca110e25dfb2d6456bd40", "lat": 38.91264733333333, "fusion_lon": 0.0, "fusion_lat": 0.0, "type": "electric_scooter", "name": "cf6c1be904eca110e25dfb2d6456bd40", "is_disabled": 0, "rental_uris": {"ios": "https://dc.lft.to/lastmile_qr_scan", "android": "https://dc.lft.to/lastmile_qr_scan"}, "is_reserved": 0}, {"lon": -77.05382266666666, "bike_id": "0840a72863631e6b689c631bbea8e8e9", "lat": 38.898871, "fusion_lon": 0.0, "fusion_lat": 0.0, "type": "electric_scooter", "name": "0840a72863631e6b689c631bbea8e8e9", "is_disabled": 0, "rental_uris": {"ios": "https://dc.lft.to/lastmile_qr_scan", "android": "https://dc.lft.to/lastmile_qr_scan"}, "is_reserved": 0}, {"lon": -77.02501383333333, "bike_id": "e80f947d0b17ecd215fcadce07ced843", "lat": 38.942009, "fusion_lon": 0.0, "fusion_lat": 0.0, "type": "electric_scooter", "name": "e80f947d0b17ecd215fcadce07ced843", "is_disabled": 0, "rental_uris": {"ios": "https://dc.lft.to/lastmile_qr_scan", "android": "https://dc.lft.to/lastmile_qr_scan"}, "is_reserved": 0}, {"lon": -77.03091583333334, "bike_id": "4062ec038dca924763542796acef7966", "lat": 38.927297, "fusion_lon": 0.0, "fusion_lat": 0.0, "type": "electric_scooter", "name": "4062ec038dca924763542796acef7966", "is_disabled": 0, "rental_uris": {"ios": "https://dc.lft.to/lastmile_qr_scan", "android": "https://dc.lft.to/lastmile_qr_scan"}, "is_reserved": 0}, {"lon": -77.05919016666667, "bike_id": "abcaca065183580f56c045eabf831665", "lat": 38.90157283333333, "fusion_lon": 0.0, "fusion_lat": 0.0, "type": "electric_scooter", "name": "abcaca065183580f56c045eabf831665", "is_disabled": 0, "rental_uris": {"ios": "https://dc.lft.to/lastmile_qr_scan", "android": "https://dc.lft.to/lastmile_qr_scan"}, "is_reserved": 0}, {"lon": -77.024382, "bike_id": "97c932e91525bc34d751b07bffecf09b", "lat": 38.920582, "fusion_lon": 0.0, "fusion_lat": 0.0, "type": "electric_scooter", "name": "97c932e91525bc34d751b07bffecf09b", "is_disabled": 0, "rental_uris": {"ios": "https://dc.lft.to/lastmile_qr_scan", "android": "https://dc.lft.to/lastmile_qr_scan"}, "is_reserved": 0}, {"lon": -77.0247475, "bike_id": "b3c7f56c26e67c66cd1acf2b975d65be", "lat": 38.93714266666667, "fusion_lon": 0.0, "fusion_lat": 0.0, "type": "electric_scooter", "name": "b3c7f56c26e67c66cd1acf2b975d65be", "is_disabled": 0, "rental_uris": {"ios": "https://dc.lft.to/lastmile_qr_scan", "android": "https://dc.lft.to/lastmile_qr_scan"}, "is_reserved": 0}, {"lon": -76.981671, "bike_id": "605925d8c4eb18a3ae2ede34a5a45a16", "lat": 38.903268833333335, "fusion_lon": 0.0, "fusion_lat": 0.0, "type": "electric_scooter", "name": "605925d8c4eb18a3ae2ede34a5a45a16", "is_disabled": 0, "rental_uris": {"ios": "https://dc.lft.to/lastmile_qr_scan", "android": "https://dc.lft.to/lastmile_qr_scan"}, "is_reserved": 0}, {"lon": -77.03601383333333, "bike_id": "c9c370ffb77494d4da47e6f496b49852", "lat": 38.93937783333333, "fusion_lon": 0.0, "fusion_lat": 0.0, "type": "electric_scooter", "name": "c9c370ffb77494d4da47e6f496b49852", "is_disabled": 0, "rental_uris": {"ios": "https://dc.lft.to/lastmile_qr_scan", "android": "https://dc.lft.to/lastmile_qr_scan"}, "is_reserved": 0}, {"lon": -77.02551366666667, "bike_id": "5b84b1e7037ddde0e767bb19a4d1acb1", "lat": 38.917105166666666, "fusion_lon": 0.0, "fusion_lat": 0.0, "type": "electric_scooter", "name": "5b84b1e7037ddde0e767bb19a4d1acb1", "is_disabled": 0, "rental_uris": {"ios": "https://dc.lft.to/lastmile_qr_scan", "android": "https://dc.lft.to/lastmile_qr_scan"}, "is_reserved": 0}, {"lon": -77.03388266666667, "bike_id": "b08bcea2f22a687f89af4ed5cb96e907", "lat": 38.93882966666666, "fusion_lon": 0.0, "fusion_lat": 0.0, "type": "electric_scooter", "name": "b08bcea2f22a687f89af4ed5cb96e907", "is_disabled": 0, "rental_uris": {"ios": "https://dc.lft.to/lastmile_qr_scan", "android": "https://dc.lft.to/lastmile_qr_scan"}, "is_reserved": 0}, {"lon": -76.99522116666667, "bike_id": "29bf522d67dbc50a9cf2f2055c7a72d7", "lat": 38.89611266666667, "fusion_lon": 0.0, "fusion_lat": 0.0, "type": "electric_scooter", "name": "29bf522d67dbc50a9cf2f2055c7a72d7", "is_disabled": 0, "rental_uris": {"ios": "https://dc.lft.to/lastmile_qr_scan", "android": "https://dc.lft.to/lastmile_qr_scan"}, "is_reserved": 0}, {"lon": -76.93752666666667, "bike_id": "7055abb5c2a960a04f769cd250c04de1", "lat": 38.89050433333333, "fusion_lon": 0.0, "fusion_lat": 0.0, "type": "electric_scooter", "name": "7055abb5c2a960a04f769cd250c04de1", "is_disabled": 0, "rental_uris": {"ios": "https://dc.lft.to/lastmile_qr_scan", "android": "https://dc.lft.to/lastmile_qr_scan"}, "is_reserved": 0}, {"lon": -77.04867, "bike_id": "1ebdfbdc8e136bc5f1dee16b9275b58a", "lat": 38.909577166666665, "fusion_lon": 0.0, "fusion_lat": 0.0, "type": "electric_scooter", "name": "1ebdfbdc8e136bc5f1dee16b9275b58a", "is_disabled": 0, "rental_uris": {"ios": "https://dc.lft.to/lastmile_qr_scan", "android": "https://dc.lft.to/lastmile_qr_scan"}, "is_reserved": 0}, {"lon": -76.94807016666667, "bike_id": "57c2fabecdf8d1a322c956beba11bb76", "lat": 38.86194166666667, "fusion_lon": 0.0, "fusion_lat": 0.0, "type": "electric_bike", "name": "57c2fabecdf8d1a322c956beba11bb76", "is_disabled": 0, "rental_uris": {"ios": "https://dc.lft.to/lastmile_qr_scan", "android": "https://dc.lft.to/lastmile_qr_scan"}, "is_reserved": 0}, {"lon": -77.0410765, "bike_id": "95d385b6e39a430f49b5bbf0d126c45a", "lat": 38.8985605, "fusion_lon": 0.0, "fusion_lat": 0.0, "type": "electric_scooter", "name": "95d385b6e39a430f49b5bbf0d126c45a", "is_disabled": 0, "rental_uris": {"ios": "https://dc.lft.to/lastmile_qr_scan", "android": "https://dc.lft.to/lastmile_qr_scan"}, "is_reserved": 0}, {"lon": -77.02250083333334, "bike_id": "2466510323bdf88ca71d141002e61a28", "lat": 38.91275533333334, "fusion_lon": 0.0, "fusion_lat": 0.0, "type": "electric_scooter", "name": "2466510323bdf88ca71d141002e61a28", "is_disabled": 0, "rental_uris": {"ios": "https://dc.lft.to/lastmile_qr_scan", "android": "https://dc.lft.to/lastmile_qr_scan"}, "is_reserved": 0}, {"lon": -77.03186066666666, "bike_id": "19103a7c3f3bc4120365fffed2a34f17", "lat": 38.9142695, "fusion_lon": 0.0, "fusion_lat": 0.0, "type": "electric_scooter", "name": "19103a7c3f3bc4120365fffed2a34f17", "is_disabled": 0, "rental_uris": {"ios": "https://dc.lft.to/lastmile_qr_scan", "android": "https://dc.lft.to/lastmile_qr_scan"}, "is_reserved": 0}, {"lon": -77.01158666666667, "bike_id": "cda3a3aaa197916ad74158e17a651ef6", "lat": 38.91109483333334, "fusion_lon": 0.0, "fusion_lat": 0.0, "type": "electric_scooter", "name": "cda3a3aaa197916ad74158e17a651ef6", "is_disabled": 0, "rental_uris": {"ios": "https://dc.lft.to/lastmile_qr_scan", "android": "https://dc.lft.to/lastmile_qr_scan"}, "is_reserved": 0}, {"lon": -77.04527266666666, "bike_id": "7e8484c56ac40a287e5de7e0d917f7d1", "lat": 38.94196216666667, "fusion_lon": 0.0, "fusion_lat": 0.0, "type": "electric_bike", "name": "7e8484c56ac40a287e5de7e0d917f7d1", "is_disabled": 0, "rental_uris": {"ios": "https://dc.lft.to/lastmile_qr_scan", "android": "https://dc.lft.to/lastmile_qr_scan"}, "is_reserved": 0}, {"lon": -77.04217616666666, "bike_id": "1904a5eeb82982a4b6e6388b6030d6c2", "lat": 38.89270583333333, "fusion_lon": 0.0, "fusion_lat": 0.0, "type": "electric_scooter", "name": "1904a5eeb82982a4b6e6388b6030d6c2", "is_disabled": 0, "rental_uris": {"ios": "https://dc.lft.to/lastmile_qr_scan", "android": "https://dc.lft.to/lastmile_qr_scan"}, "is_reserved": 0}, {"lon": -77.02356033333334, "bike_id": "3bb93e7628bbebb82d0ea3146eefb4e8", "lat": 38.93025633333333, "fusion_lon": 0.0, "fusion_lat": 0.0, "type": "electric_scooter", "name": "3bb93e7628bbebb82d0ea3146eefb4e8", "is_disabled": 0, "rental_uris": {"ios": "https://dc.lft.to/lastmile_qr_scan", "android": "https://dc.lft.to/lastmile_qr_scan"}, "is_reserved": 0}, {"lon": -76.99781366666667, "bike_id": "5a00ce89e2a9f9741bb82c6690268de1", "lat": 38.84432666666667, "fusion_lon": 0.0, "fusion_lat": 0.0, "type": "electric_scooter", "name": "5a00ce89e2a9f9741bb82c6690268de1", "is_disabled": 0, "rental_uris": {"ios": "https://dc.lft.to/lastmile_qr_scan", "android": "https://dc.lft.to/lastmile_qr_scan"}, "is_reserved": 0}, {"lon": -77.01772666666666, "bike_id": "ec20764c535a3762ed143c65b87e0970", "lat": 38.8832165, "fusion_lon": 0.0, "fusion_lat": 0.0, "type": "electric_scooter", "name": "ec20764c535a3762ed143c65b87e0970", "is_disabled": 0, "rental_uris": {"ios": "https://dc.lft.to/lastmile_qr_scan", "android": "https://dc.lft.to/lastmile_qr_scan"}, "is_reserved": 0}, {"lon": -76.99164616666667, "bike_id": "63077b3f5a0c38177e9ee03620a90690", "lat": 38.88771466666667, "fusion_lon": 0.0, "fusion_lat": 0.0, "type": "electric_bike", "name": "63077b3f5a0c38177e9ee03620a90690", "is_disabled": 0, "rental_uris": {"ios": "https://dc.lft.to/lastmile_qr_scan", "android": "https://dc.lft.to/lastmile_qr_scan"}, "is_reserved": 0}, {"lon": -77.07435566666666, "bike_id": "3b4a08b99a5fd0cece97f196490eacf5", "lat": 38.99948466666667, "fusion_lon": 0.0, "fusion_lat": 0.0, "type": "electric_bike", "name": "3b4a08b99a5fd0cece97f196490eacf5", "is_disabled": 0, "rental_uris": {"ios": "https://dc.lft.to/lastmile_qr_scan", "android": "https://dc.lft.to/lastmile_qr_scan"}, "is_reserved": 0}, {"lon": -77.03257466666666, "bike_id": "3fd848a08d6e66730aadc4313245b1ca", "lat": 38.93563566666667, "fusion_lon": 0.0, "fusion_lat": 0.0, "type": "electric_scooter", "name": "3fd848a08d6e66730aadc4313245b1ca", "is_disabled": 0, "rental_uris": {"ios": "https://dc.lft.to/lastmile_qr_scan", "android": "https://dc.lft.to/lastmile_qr_scan"}, "is_reserved": 0}, {"lon": -76.996325, "bike_id": "2719961bccf64ba9a7f8f85919c3497c", "lat": 38.90003683333333, "fusion_lon": 0.0, "fusion_lat": 0.0, "type": "electric_scooter", "name": "2719961bccf64ba9a7f8f85919c3497c", "is_disabled": 0, "rental_uris": {"ios": "https://dc.lft.to/lastmile_qr_scan", "android": "https://dc.lft.to/lastmile_qr_scan"}, "is_reserved": 0}, {"lon": -77.03226616666667, "bike_id": "00bb10e1561369e52feaf2c5a5bf72d6", "lat": 38.9141005, "fusion_lon": 0.0, "fusion_lat": 0.0, "type": "electric_scooter", "name": "00bb10e1561369e52feaf2c5a5bf72d6", "is_disabled": 0, "rental_uris": {"ios": "https://dc.lft.to/lastmile_qr_scan", "android": "https://dc.lft.to/lastmile_qr_scan"}, "is_reserved": 0}, {"lon": -76.98719966666667, "bike_id": "af12636854dd0437448203ee82277287", "lat": 38.866272, "fusion_lon": 0.0, "fusion_lat": 0.0, "type": "electric_scooter", "name": "af12636854dd0437448203ee82277287", "is_disabled": 0, "rental_uris": {"ios": "https://dc.lft.to/lastmile_qr_scan", "android": "https://dc.lft.to/lastmile_qr_scan"}, "is_reserved": 0}, {"lon": -77.02433233333333, "bike_id": "b05083df94842892552399b77892099a", "lat": 38.91408833333333, "fusion_lon": 0.0, "fusion_lat": 0.0, "type": "electric_scooter", "name": "b05083df94842892552399b77892099a", "is_disabled": 0, "rental_uris": {"ios": "https://dc.lft.to/lastmile_qr_scan", "android": "https://dc.lft.to/lastmile_qr_scan"}, "is_reserved": 0}, {"lon": -77.039965, "bike_id": "1af8194f4e2251a05cdbdff08fc436d0", "lat": 38.90557666666667, "fusion_lon": 0.0, "fusion_lat": 0.0, "type": "electric_scooter", "name": "1af8194f4e2251a05cdbdff08fc436d0", "is_disabled": 0, "rental_uris": {"ios": "https://dc.lft.to/lastmile_qr_scan", "android": "https://dc.lft.to/lastmile_qr_scan"}, "is_reserved": 0}, {"lon": -77.00738383333334, "bike_id": "c9b79c37d8c51fd059f7d4050ae194d3", "lat": 38.916257333333334, "fusion_lon": 0.0, "fusion_lat": 0.0, "type": "electric_scooter", "name": "c9b79c37d8c51fd059f7d4050ae194d3", "is_disabled": 0, "rental_uris": {"ios": "https://dc.lft.to/lastmile_qr_scan", "android": "https://dc.lft.to/lastmile_qr_scan"}, "is_reserved": 0}, {"lon": -77.0242485, "bike_id": "b634883070e0a61e3760da55a7dee8a3", "lat": 38.91923466666667, "fusion_lon": 0.0, "fusion_lat": 0.0, "type": "electric_scooter", "name": "b634883070e0a61e3760da55a7dee8a3", "is_disabled": 0, "rental_uris": {"ios": "https://dc.lft.to/lastmile_qr_scan", "android": "https://dc.lft.to/lastmile_qr_scan"}, "is_reserved": 0}, {"lon": -77.02961083333334, "bike_id": "f77f550fecf3fb6e2bad236fb9e00da4", "lat": 38.9238485, "fusion_lon": 0.0, "fusion_lat": 0.0, "type": "electric_scooter", "name": "f77f550fecf3fb6e2bad236fb9e00da4", "is_disabled": 0, "rental_uris": {"ios": "https://dc.lft.to/lastmile_qr_scan", "android": "https://dc.lft.to/lastmile_qr_scan"}, "is_reserved": 0}, {"lon": -77.00190233333333, "bike_id": "00860e65a12751673d712d5c1208c4db", "lat": 38.9038025, "fusion_lon": 0.0, "fusion_lat": 0.0, "type": "electric_scooter", "name": "00860e65a12751673d712d5c1208c4db", "is_disabled": 0, "rental_uris": {"ios": "https://dc.lft.to/lastmile_qr_scan", "android": "https://dc.lft.to/lastmile_qr_scan"}, "is_reserved": 0}, {"lon": -76.94959216666666, "bike_id": "7ffdbbcfdeebc312701dba5540451ab5", "lat": 38.90496566666667, "fusion_lon": 0.0, "fusion_lat": 0.0, "type": "electric_scooter", "name": "7ffdbbcfdeebc312701dba5540451ab5", "is_disabled": 0, "rental_uris": {"ios": "https://dc.lft.to/lastmile_qr_scan", "android": "https://dc.lft.to/lastmile_qr_scan"}, "is_reserved": 0}, {"lon": -77.03135966666666, "bike_id": "4326c6659f1262ef7dff57d97b40b9f6", "lat": 38.915011666666665, "fusion_lon": 0.0, "fusion_lat": 0.0, "type": "electric_scooter", "name": "4326c6659f1262ef7dff57d97b40b9f6", "is_disabled": 0, "rental_uris": {"ios": "https://dc.lft.to/lastmile_qr_scan", "android": "https://dc.lft.to/lastmile_qr_scan"}, "is_reserved": 0}, {"lon": -77.06462066666667, "bike_id": "0027554d0dab935d2857017ba4245f01", "lat": 38.91041466666667, "fusion_lon": 0.0, "fusion_lat": 0.0, "type": "electric_scooter", "name": "0027554d0dab935d2857017ba4245f01", "is_disabled": 0, "rental_uris": {"ios": "https://dc.lft.to/lastmile_qr_scan", "android": "https://dc.lft.to/lastmile_qr_scan"}, "is_reserved": 0}, {"lon": -77.03500016666666, "bike_id": "7992ba96a3fadd145846662eecf0ff8c", "lat": 38.916925, "fusion_lon": 0.0, "fusion_lat": 0.0, "type": "electric_scooter", "name": "7992ba96a3fadd145846662eecf0ff8c", "is_disabled": 0, "rental_uris": {"ios": "https://dc.lft.to/lastmile_qr_scan", "android": "https://dc.lft.to/lastmile_qr_scan"}, "is_reserved": 0}, {"lon": -77.03646183333333, "bike_id": "022f4c71781ff93da4bbde7df7b42176", "lat": 38.9226445, "fusion_lon": 0.0, "fusion_lat": 0.0, "type": "electric_scooter", "name": "022f4c71781ff93da4bbde7df7b42176", "is_disabled": 0, "rental_uris": {"ios": "https://dc.lft.to/lastmile_qr_scan", "android": "https://dc.lft.to/lastmile_qr_scan"}, "is_reserved": 0}, {"lon": -77.0102635, "bike_id": "093e571faeb3f1c255db76637218850d", "lat": 38.917095333333336, "fusion_lon": 0.0, "fusion_lat": 0.0, "type": "electric_scooter", "name": "093e571faeb3f1c255db76637218850d", "is_disabled": 0, "rental_uris": {"ios": "https://dc.lft.to/lastmile_qr_scan", "android": "https://dc.lft.to/lastmile_qr_scan"}, "is_reserved": 0}, {"lon": -77.00735866666666, "bike_id": "51b446d6a13b4ef2d097b78cd843a970", "lat": 38.92545766666667, "fusion_lon": 0.0, "fusion_lat": 0.0, "type": "electric_scooter", "name": "51b446d6a13b4ef2d097b78cd843a970", "is_disabled": 0, "rental_uris": {"ios": "https://dc.lft.to/lastmile_qr_scan", "android": "https://dc.lft.to/lastmile_qr_scan"}, "is_reserved": 0}, {"lon": -77.0350405, "bike_id": "c4e31314d52ab4e3469ce7ce34d2a824", "lat": 38.906666, "fusion_lon": 0.0, "fusion_lat": 0.0, "type": "electric_scooter", "name": "c4e31314d52ab4e3469ce7ce34d2a824", "is_disabled": 0, "rental_uris": {"ios": "https://dc.lft.to/lastmile_qr_scan", "android": "https://dc.lft.to/lastmile_qr_scan"}, "is_reserved": 0}, {"lon": -77.04116833333333, "bike_id": "f021a8d15c38e1d058c59b3a7922ba62", "lat": 38.91188233333333, "fusion_lon": 0.0, "fusion_lat": 0.0, "type": "electric_scooter", "name": "f021a8d15c38e1d058c59b3a7922ba62", "is_disabled": 0, "rental_uris": {"ios": "https://dc.lft.to/lastmile_qr_scan", "android": "https://dc.lft.to/lastmile_qr_scan"}, "is_reserved": 0}, {"lon": -76.95758366666666, "bike_id": "c3da9d44fae2b7ef420cd8b713b78531", "lat": 38.884299666666664, "fusion_lon": 0.0, "fusion_lat": 0.0, "type": "electric_scooter", "name": "c3da9d44fae2b7ef420cd8b713b78531", "is_disabled": 0, "rental_uris": {"ios": "https://dc.lft.to/lastmile_qr_scan", "android": "https://dc.lft.to/lastmile_qr_scan"}, "is_reserved": 0}, {"lon": -77.00341266666666, "bike_id": "6eea0965720b71503a45fab718a33114", "lat": 38.908106333333336, "fusion_lon": 0.0, "fusion_lat": 0.0, "type": "electric_scooter", "name": "6eea0965720b71503a45fab718a33114", "is_disabled": 0, "rental_uris": {"ios": "https://dc.lft.to/lastmile_qr_scan", "android": "https://dc.lft.to/lastmile_qr_scan"}, "is_reserved": 0}, {"lon": -77.00792416666667, "bike_id": "f161ad44ab1804d98c97ca15014a6bc9", "lat": 38.89668116666667, "fusion_lon": 0.0, "fusion_lat": 0.0, "type": "electric_scooter", "name": "f161ad44ab1804d98c97ca15014a6bc9", "is_disabled": 0, "rental_uris": {"ios": "https://dc.lft.to/lastmile_qr_scan", "android": "https://dc.lft.to/lastmile_qr_scan"}, "is_reserved": 0}, {"lon": -77.05337533333334, "bike_id": "4d278a091be0e886c26e4133ed3d5124", "lat": 38.923339666666664, "fusion_lon": 0.0, "fusion_lat": 0.0, "type": "electric_scooter", "name": "4d278a091be0e886c26e4133ed3d5124", "is_disabled": 0, "rental_uris": {"ios": "https://dc.lft.to/lastmile_qr_scan", "android": "https://dc.lft.to/lastmile_qr_scan"}, "is_reserved": 0}, {"lon": -77.04259033333334, "bike_id": "17da33caacec66f7ea08d645ccbca304", "lat": 38.9106295, "fusion_lon": 0.0, "fusion_lat": 0.0, "type": "electric_scooter", "name": "17da33caacec66f7ea08d645ccbca304", "is_disabled": 0, "rental_uris": {"ios": "https://dc.lft.to/lastmile_qr_scan", "android": "https://dc.lft.to/lastmile_qr_scan"}, "is_reserved": 0}, {"lon": -76.96389716666667, "bike_id": "d3942222955177b3cb7ccb3e789d22aa", "lat": 38.95173783333333, "fusion_lon": 0.0, "fusion_lat": 0.0, "type": "electric_bike", "name": "d3942222955177b3cb7ccb3e789d22aa", "is_disabled": 0, "rental_uris": {"ios": "https://dc.lft.to/lastmile_qr_scan", "android": "https://dc.lft.to/lastmile_qr_scan"}, "is_reserved": 0}, {"lon": -76.9336035, "bike_id": "a3d1ecd3171ddf712a3f24b6cba3ddec", "lat": 38.899161166666666, "fusion_lon": 0.0, "fusion_lat": 0.0, "type": "electric_scooter", "name": "a3d1ecd3171ddf712a3f24b6cba3ddec", "is_disabled": 0, "rental_uris": {"ios": "https://dc.lft.to/lastmile_qr_scan", "android": "https://dc.lft.to/lastmile_qr_scan"}, "is_reserved": 0}, {"lon": -77.02532833333333, "bike_id": "483af113fcb51a083344890b3225ea3b", "lat": 38.9274295, "fusion_lon": 0.0, "fusion_lat": 0.0, "type": "electric_scooter", "name": "483af113fcb51a083344890b3225ea3b", "is_disabled": 0, "rental_uris": {"ios": "https://dc.lft.to/lastmile_qr_scan", "android": "https://dc.lft.to/lastmile_qr_scan"}, "is_reserved": 0}, {"lon": -77.036912, "bike_id": "92362e49cd6639a96c02ab0fa686a0c2", "lat": 38.92785766666667, "fusion_lon": 0.0, "fusion_lat": 0.0, "type": "electric_scooter", "name": "92362e49cd6639a96c02ab0fa686a0c2", "is_disabled": 0, "rental_uris": {"ios": "https://dc.lft.to/lastmile_qr_scan", "android": "https://dc.lft.to/lastmile_qr_scan"}, "is_reserved": 0}, {"lon": -77.1009685, "bike_id": "30f087f7cbbadaa400d485d3238200d0", "lat": 38.9595835, "fusion_lon": 0.0, "fusion_lat": 0.0, "type": "electric_bike", "name": "30f087f7cbbadaa400d485d3238200d0", "is_disabled": 0, "rental_uris": {"ios": "https://dc.lft.to/lastmile_qr_scan", "android": "https://dc.lft.to/lastmile_qr_scan"}, "is_reserved": 0}, {"lon": -77.03279966666666, "bike_id": "965ba67d19258010176fad875f193fa9", "lat": 38.904588833333335, "fusion_lon": 0.0, "fusion_lat": 0.0, "type": "electric_scooter", "name": "965ba67d19258010176fad875f193fa9", "is_disabled": 0, "rental_uris": {"ios": "https://dc.lft.to/lastmile_qr_scan", "android": "https://dc.lft.to/lastmile_qr_scan"}, "is_reserved": 0}, {"lon": -76.94439783333334, "bike_id": "f18ac06cbfeb5615676b664444eebb65", "lat": 38.900439, "fusion_lon": 0.0, "fusion_lat": 0.0, "type": "electric_scooter", "name": "f18ac06cbfeb5615676b664444eebb65", "is_disabled": 0, "rental_uris": {"ios": "https://dc.lft.to/lastmile_qr_scan", "android": "https://dc.lft.to/lastmile_qr_scan"}, "is_reserved": 0}, {"lon": -76.99408483333333, "bike_id": "83d8a112f26f2cb3ce729e7afcc75931", "lat": 38.831389333333334, "fusion_lon": 0.0, "fusion_lat": 0.0, "type": "electric_bike", "name": "83d8a112f26f2cb3ce729e7afcc75931", "is_disabled": 0, "rental_uris": {"ios": "https://dc.lft.to/lastmile_qr_scan", "android": "https://dc.lft.to/lastmile_qr_scan"}, "is_reserved": 0}, {"lon": -77.03184233333333, "bike_id": "d610e969273e522cd9034253ff917368", "lat": 38.919240333333335, "fusion_lon": 0.0, "fusion_lat": 0.0, "type": "electric_scooter", "name": "d610e969273e522cd9034253ff917368", "is_disabled": 0, "rental_uris": {"ios": "https://dc.lft.to/lastmile_qr_scan", "android": "https://dc.lft.to/lastmile_qr_scan"}, "is_reserved": 0}, {"lon": -77.0307965, "bike_id": "b064e9b8f9e1dd79897b83e17c621dda", "lat": 38.91817566666667, "fusion_lon": 0.0, "fusion_lat": 0.0, "type": "electric_scooter", "name": "b064e9b8f9e1dd79897b83e17c621dda", "is_disabled": 0, "rental_uris": {"ios": "https://dc.lft.to/lastmile_qr_scan", "android": "https://dc.lft.to/lastmile_qr_scan"}, "is_reserved": 0}, {"lon": -77.01137283333334, "bike_id": "3d6f21df19a031e9d2488cdfca73a9ef", "lat": 38.90643416666666, "fusion_lon": 0.0, "fusion_lat": 0.0, "type": "electric_scooter", "name": "3d6f21df19a031e9d2488cdfca73a9ef", "is_disabled": 0, "rental_uris": {"ios": "https://dc.lft.to/lastmile_qr_scan", "android": "https://dc.lft.to/lastmile_qr_scan"}, "is_reserved": 0}, {"lon": -76.98595933333333, "bike_id": "0016ffaf3244159fc09d3418738593fc", "lat": 38.908136666666664, "fusion_lon": 0.0, "fusion_lat": 0.0, "type": "electric_scooter", "name": "0016ffaf3244159fc09d3418738593fc", "is_disabled": 0, "rental_uris": {"ios": "https://dc.lft.to/lastmile_qr_scan", "android": "https://dc.lft.to/lastmile_qr_scan"}, "is_reserved": 0}, {"lon": -77.03221366666666, "bike_id": "474d0df33ff07ea99dbe576a253478d9", "lat": 38.91135833333333, "fusion_lon": 0.0, "fusion_lat": 0.0, "type": "electric_scooter", "name": "474d0df33ff07ea99dbe576a253478d9", "is_disabled": 0, "rental_uris": {"ios": "https://dc.lft.to/lastmile_qr_scan", "android": "https://dc.lft.to/lastmile_qr_scan"}, "is_reserved": 0}, {"lon": -77.01896083333334, "bike_id": "b164809c682f8f0db1407467597b3b2e", "lat": 38.923679166666666, "fusion_lon": 0.0, "fusion_lat": 0.0, "type": "electric_scooter", "name": "b164809c682f8f0db1407467597b3b2e", "is_disabled": 0, "rental_uris": {"ios": "https://dc.lft.to/lastmile_qr_scan", "android": "https://dc.lft.to/lastmile_qr_scan"}, "is_reserved": 0}, {"lon": -77.01157283333333, "bike_id": "32e4dc6479fb32b7c5be62584ea0746e", "lat": 38.9140435, "fusion_lon": 0.0, "fusion_lat": 0.0, "type": "electric_scooter", "name": "32e4dc6479fb32b7c5be62584ea0746e", "is_disabled": 0, "rental_uris": {"ios": "https://dc.lft.to/lastmile_qr_scan", "android": "https://dc.lft.to/lastmile_qr_scan"}, "is_reserved": 0}, {"lon": -76.985024, "bike_id": "1a6460379e494428a6c45aff2650ce32", "lat": 38.920066166666665, "fusion_lon": 0.0, "fusion_lat": 0.0, "type": "electric_scooter", "name": "1a6460379e494428a6c45aff2650ce32", "is_disabled": 0, "rental_uris": {"ios": "https://dc.lft.to/lastmile_qr_scan", "android": "https://dc.lft.to/lastmile_qr_scan"}, "is_reserved": 0}, {"lon": -77.01258016666667, "bike_id": "e2403930a41b820fcb6a18467ff03f77", "lat": 38.90851416666667, "fusion_lon": 0.0, "fusion_lat": 0.0, "type": "electric_scooter", "name": "e2403930a41b820fcb6a18467ff03f77", "is_disabled": 0, "rental_uris": {"ios": "https://dc.lft.to/lastmile_qr_scan", "android": "https://dc.lft.to/lastmile_qr_scan"}, "is_reserved": 0}, {"lon": -77.03664383333333, "bike_id": "c17f9ae395ff9f76fef492671a2757d8", "lat": 38.902915, "fusion_lon": 0.0, "fusion_lat": 0.0, "type": "electric_scooter", "name": "c17f9ae395ff9f76fef492671a2757d8", "is_disabled": 0, "rental_uris": {"ios": "https://dc.lft.to/lastmile_qr_scan", "android": "https://dc.lft.to/lastmile_qr_scan"}, "is_reserved": 0}, {"lon": -77.01724533333334, "bike_id": "be1c623a72e74d648e5530c0e6f57324", "lat": 38.9150115, "fusion_lon": 0.0, "fusion_lat": 0.0, "type": "electric_scooter", "name": "be1c623a72e74d648e5530c0e6f57324", "is_disabled": 0, "rental_uris": {"ios": "https://dc.lft.to/lastmile_qr_scan", "android": "https://dc.lft.to/lastmile_qr_scan"}, "is_reserved": 0}, {"lon": -76.94976433333333, "bike_id": "5031f0a25479b23e41b7b915cc149f88", "lat": 38.8944265, "fusion_lon": 0.0, "fusion_lat": 0.0, "type": "electric_scooter", "name": "5031f0a25479b23e41b7b915cc149f88", "is_disabled": 0, "rental_uris": {"ios": "https://dc.lft.to/lastmile_qr_scan", "android": "https://dc.lft.to/lastmile_qr_scan"}, "is_reserved": 0}, {"lon": -76.95196633333333, "bike_id": "f810e8e8e9b96bdf2eb9d031107bfcfe", "lat": 38.90004716666667, "fusion_lon": 0.0, "fusion_lat": 0.0, "type": "electric_scooter", "name": "f810e8e8e9b96bdf2eb9d031107bfcfe", "is_disabled": 0, "rental_uris": {"ios": "https://dc.lft.to/lastmile_qr_scan", "android": "https://dc.lft.to/lastmile_qr_scan"}, "is_reserved": 0}, {"lon": -77.02514083333334, "bike_id": "a1f07844951643cbc23d5a9654dda537", "lat": 38.91761283333334, "fusion_lon": 0.0, "fusion_lat": 0.0, "type": "electric_scooter", "name": "a1f07844951643cbc23d5a9654dda537", "is_disabled": 0, "rental_uris": {"ios": "https://dc.lft.to/lastmile_qr_scan", "android": "https://dc.lft.to/lastmile_qr_scan"}, "is_reserved": 0}, {"lon": -77.04726966666666, "bike_id": "d43b732866409e2697ac6f2c58742634", "lat": 38.922320166666665, "fusion_lon": 0.0, "fusion_lat": 0.0, "type": "electric_scooter", "name": "d43b732866409e2697ac6f2c58742634", "is_disabled": 0, "rental_uris": {"ios": "https://dc.lft.to/lastmile_qr_scan", "android": "https://dc.lft.to/lastmile_qr_scan"}, "is_reserved": 0}, {"lon": -76.99373666666666, "bike_id": "0ed80d9da819725630d6df48224e603f", "lat": 38.88338016666667, "fusion_lon": 0.0, "fusion_lat": 0.0, "type": "electric_scooter", "name": "0ed80d9da819725630d6df48224e603f", "is_disabled": 0, "rental_uris": {"ios": "https://dc.lft.to/lastmile_qr_scan", "android": "https://dc.lft.to/lastmile_qr_scan"}, "is_reserved": 0}, {"lon": -77.04104533333333, "bike_id": "712d0ac0da695747075128cc8af85706", "lat": 38.91855366666667, "fusion_lon": 0.0, "fusion_lat": 0.0, "type": "electric_scooter", "name": "712d0ac0da695747075128cc8af85706", "is_disabled": 0, "rental_uris": {"ios": "https://dc.lft.to/lastmile_qr_scan", "android": "https://dc.lft.to/lastmile_qr_scan"}, "is_reserved": 0}, {"lon": -77.02705566666667, "bike_id": "fd1fa4120227ee1d1467f11a896d3673", "lat": 38.904593166666665, "fusion_lon": 0.0, "fusion_lat": 0.0, "type": "electric_scooter", "name": "fd1fa4120227ee1d1467f11a896d3673", "is_disabled": 0, "rental_uris": {"ios": "https://dc.lft.to/lastmile_qr_scan", "android": "https://dc.lft.to/lastmile_qr_scan"}, "is_reserved": 0}, {"lon": -76.9984595, "bike_id": "f1716734bd65fcf35d70fb06db922b44", "lat": 38.9023895, "fusion_lon": 0.0, "fusion_lat": 0.0, "type": "electric_scooter", "name": "f1716734bd65fcf35d70fb06db922b44", "is_disabled": 0, "rental_uris": {"ios": "https://dc.lft.to/lastmile_qr_scan", "android": "https://dc.lft.to/lastmile_qr_scan"}, "is_reserved": 0}, {"lon": -76.93365283333333, "bike_id": "99b0d1b4bd1177852b284f125d272b5d", "lat": 38.8991665, "fusion_lon": 0.0, "fusion_lat": 0.0, "type": "electric_scooter", "name": "99b0d1b4bd1177852b284f125d272b5d", "is_disabled": 0, "rental_uris": {"ios": "https://dc.lft.to/lastmile_qr_scan", "android": "https://dc.lft.to/lastmile_qr_scan"}, "is_reserved": 0}, {"lon": -77.03270266666667, "bike_id": "a43c75f38db8b8629f50848992159d15", "lat": 38.9291035, "fusion_lon": 0.0, "fusion_lat": 0.0, "type": "electric_scooter", "name": "a43c75f38db8b8629f50848992159d15", "is_disabled": 0, "rental_uris": {"ios": "https://dc.lft.to/lastmile_qr_scan", "android": "https://dc.lft.to/lastmile_qr_scan"}, "is_reserved": 0}, {"lon": -76.994741, "bike_id": "192676224d02cc331ae52502019758c1", "lat": 38.862162, "fusion_lon": 0.0, "fusion_lat": 0.0, "type": "electric_scooter", "name": "192676224d02cc331ae52502019758c1", "is_disabled": 0, "rental_uris": {"ios": "https://dc.lft.to/lastmile_qr_scan", "android": "https://dc.lft.to/lastmile_qr_scan"}, "is_reserved": 0}, {"lon": -77.02379133333334, "bike_id": "b24aa877873d2c60eae72fccb9405614", "lat": 38.91833666666667, "fusion_lon": 0.0, "fusion_lat": 0.0, "type": "electric_scooter", "name": "b24aa877873d2c60eae72fccb9405614", "is_disabled": 0, "rental_uris": {"ios": "https://dc.lft.to/lastmile_qr_scan", "android": "https://dc.lft.to/lastmile_qr_scan"}, "is_reserved": 0}, {"lon": -77.03281683333333, "bike_id": "5e6a61930602762111e4d60c18c397b0", "lat": 38.932544666666665, "fusion_lon": 0.0, "fusion_lat": 0.0, "type": "electric_scooter", "name": "5e6a61930602762111e4d60c18c397b0", "is_disabled": 0, "rental_uris": {"ios": "https://dc.lft.to/lastmile_qr_scan", "android": "https://dc.lft.to/lastmile_qr_scan"}, "is_reserved": 0}, {"lon": -77.02194416666667, "bike_id": "c3a0e9fd41131a4677490a61825fadb2", "lat": 38.8950675, "fusion_lon": 0.0, "fusion_lat": 0.0, "type": "electric_scooter", "name": "c3a0e9fd41131a4677490a61825fadb2", "is_disabled": 0, "rental_uris": {"ios": "https://dc.lft.to/lastmile_qr_scan", "android": "https://dc.lft.to/lastmile_qr_scan"}, "is_reserved": 0}, {"lon": -77.04194816666667, "bike_id": "426abeebcd4085819c0b1dc3d57e7e82", "lat": 38.92624883333333, "fusion_lon": 0.0, "fusion_lat": 0.0, "type": "electric_scooter", "name": "426abeebcd4085819c0b1dc3d57e7e82", "is_disabled": 0, "rental_uris": {"ios": "https://dc.lft.to/lastmile_qr_scan", "android": "https://dc.lft.to/lastmile_qr_scan"}, "is_reserved": 0}, {"lon": -77.02384283333333, "bike_id": "dae7bca45de54da0271c8069a1322287", "lat": 38.90949233333333, "fusion_lon": 0.0, "fusion_lat": 0.0, "type": "electric_scooter", "name": "dae7bca45de54da0271c8069a1322287", "is_disabled": 0, "rental_uris": {"ios": "https://dc.lft.to/lastmile_qr_scan", "android": "https://dc.lft.to/lastmile_qr_scan"}, "is_reserved": 0}, {"lon": -77.0463775, "bike_id": "971cbde2a0f1d7de6be8841573d92937", "lat": 38.91572766666667, "fusion_lon": 0.0, "fusion_lat": 0.0, "type": "electric_scooter", "name": "971cbde2a0f1d7de6be8841573d92937", "is_disabled": 0, "rental_uris": {"ios": "https://dc.lft.to/lastmile_qr_scan", "android": "https://dc.lft.to/lastmile_qr_scan"}, "is_reserved": 0}, {"lon": -77.0367075, "bike_id": "d4e18c36ee378b232d993f508b8bec4f", "lat": 38.9362505, "fusion_lon": 0.0, "fusion_lat": 0.0, "type": "electric_scooter", "name": "d4e18c36ee378b232d993f508b8bec4f", "is_disabled": 0, "rental_uris": {"ios": "https://dc.lft.to/lastmile_qr_scan", "android": "https://dc.lft.to/lastmile_qr_scan"}, "is_reserved": 0}, {"lon": -76.98826166666667, "bike_id": "5a8ae0d33500625b405a91d1b45c419a", "lat": 38.89075716666667, "fusion_lon": 0.0, "fusion_lat": 0.0, "type": "electric_scooter", "name": "5a8ae0d33500625b405a91d1b45c419a", "is_disabled": 0, "rental_uris": {"ios": "https://dc.lft.to/lastmile_qr_scan", "android": "https://dc.lft.to/lastmile_qr_scan"}, "is_reserved": 0}, {"lon": -77.02572866666667, "bike_id": "a8fceb34f6ddf525ee45275a0958c0a9", "lat": 38.9257795, "fusion_lon": 0.0, "fusion_lat": 0.0, "type": "electric_scooter", "name": "a8fceb34f6ddf525ee45275a0958c0a9", "is_disabled": 0, "rental_uris": {"ios": "https://dc.lft.to/lastmile_qr_scan", "android": "https://dc.lft.to/lastmile_qr_scan"}, "is_reserved": 0}, {"lon": -77.02053583333333, "bike_id": "84914aca96b2e82fed54a3ae8ffe49c8", "lat": 38.9292945, "fusion_lon": 0.0, "fusion_lat": 0.0, "type": "electric_scooter", "name": "84914aca96b2e82fed54a3ae8ffe49c8", "is_disabled": 0, "rental_uris": {"ios": "https://dc.lft.to/lastmile_qr_scan", "android": "https://dc.lft.to/lastmile_qr_scan"}, "is_reserved": 0}, {"lon": -77.05600383333334, "bike_id": "7b18926744d97095b3a23c8667ece1f5", "lat": 38.93698883333333, "fusion_lon": 0.0, "fusion_lat": 0.0, "type": "electric_scooter", "name": "7b18926744d97095b3a23c8667ece1f5", "is_disabled": 0, "rental_uris": {"ios": "https://dc.lft.to/lastmile_qr_scan", "android": "https://dc.lft.to/lastmile_qr_scan"}, "is_reserved": 0}, {"lon": -77.01370233333333, "bike_id": "cbf4b3eb7b92547d64f7a98f7b215956", "lat": 38.887070666666666, "fusion_lon": 0.0, "fusion_lat": 0.0, "type": "electric_scooter", "name": "cbf4b3eb7b92547d64f7a98f7b215956", "is_disabled": 0, "rental_uris": {"ios": "https://dc.lft.to/lastmile_qr_scan", "android": "https://dc.lft.to/lastmile_qr_scan"}, "is_reserved": 0}, {"lon": -77.005599, "bike_id": "0b90c4d2af4266435d816444272bb5b1", "lat": 38.874727666666665, "fusion_lon": 0.0, "fusion_lat": 0.0, "type": "electric_scooter", "name": "0b90c4d2af4266435d816444272bb5b1", "is_disabled": 0, "rental_uris": {"ios": "https://dc.lft.to/lastmile_qr_scan", "android": "https://dc.lft.to/lastmile_qr_scan"}, "is_reserved": 0}, {"lon": -77.05084916666667, "bike_id": "d94122be985c3e86f85bc512368428ca", "lat": 38.905236333333335, "fusion_lon": 0.0, "fusion_lat": 0.0, "type": "electric_scooter", "name": "d94122be985c3e86f85bc512368428ca", "is_disabled": 0, "rental_uris": {"ios": "https://dc.lft.to/lastmile_qr_scan", "android": "https://dc.lft.to/lastmile_qr_scan"}, "is_reserved": 0}, {"lon": -77.02971683333334, "bike_id": "0ee7d6d05528a334b351604e6f2b7725", "lat": 38.89661733333333, "fusion_lon": 0.0, "fusion_lat": 0.0, "type": "electric_scooter", "name": "0ee7d6d05528a334b351604e6f2b7725", "is_disabled": 0, "rental_uris": {"ios": "https://dc.lft.to/lastmile_qr_scan", "android": "https://dc.lft.to/lastmile_qr_scan"}, "is_reserved": 0}, {"lon": -77.00914483333334, "bike_id": "0992af262f7c52b3718f89fc4358077c", "lat": 38.896489333333335, "fusion_lon": 0.0, "fusion_lat": 0.0, "type": "electric_scooter", "name": "0992af262f7c52b3718f89fc4358077c", "is_disabled": 0, "rental_uris": {"ios": "https://dc.lft.to/lastmile_qr_scan", "android": "https://dc.lft.to/lastmile_qr_scan"}, "is_reserved": 0}, {"lon": -77.04396716666666, "bike_id": "6e65b8a2dbf330c751fceeb96104e071", "lat": 38.922293333333336, "fusion_lon": 0.0, "fusion_lat": 0.0, "type": "electric_scooter", "name": "6e65b8a2dbf330c751fceeb96104e071", "is_disabled": 0, "rental_uris": {"ios": "https://dc.lft.to/lastmile_qr_scan", "android": "https://dc.lft.to/lastmile_qr_scan"}, "is_reserved": 0}, {"lon": -77.00866316666666, "bike_id": "0e80abeffe1c1a573415bbce795ac583", "lat": 38.87850483333333, "fusion_lon": 0.0, "fusion_lat": 0.0, "type": "electric_scooter", "name": "0e80abeffe1c1a573415bbce795ac583", "is_disabled": 0, "rental_uris": {"ios": "https://dc.lft.to/lastmile_qr_scan", "android": "https://dc.lft.to/lastmile_qr_scan"}, "is_reserved": 0}, {"lon": -76.99602666666667, "bike_id": "3e3ad53401948732d886d1b4977bc20f", "lat": 38.857019, "fusion_lon": 0.0, "fusion_lat": 0.0, "type": "electric_scooter", "name": "3e3ad53401948732d886d1b4977bc20f", "is_disabled": 0, "rental_uris": {"ios": "https://dc.lft.to/lastmile_qr_scan", "android": "https://dc.lft.to/lastmile_qr_scan"}, "is_reserved": 0}, {"lon": -77.02933783333333, "bike_id": "fe7c5291e1377a73ca7ee30325d5941a", "lat": 38.89822933333333, "fusion_lon": 0.0, "fusion_lat": 0.0, "type": "electric_scooter", "name": "fe7c5291e1377a73ca7ee30325d5941a", "is_disabled": 0, "rental_uris": {"ios": "https://dc.lft.to/lastmile_qr_scan", "android": "https://dc.lft.to/lastmile_qr_scan"}, "is_reserved": 0}, {"lon": -77.049876, "bike_id": "51932960132ced365635ff535ffe4abd", "lat": 38.896108, "fusion_lon": 0.0, "fusion_lat": 0.0, "type": "electric_scooter", "name": "51932960132ced365635ff535ffe4abd", "is_disabled": 0, "rental_uris": {"ios": "https://dc.lft.to/lastmile_qr_scan", "android": "https://dc.lft.to/lastmile_qr_scan"}, "is_reserved": 0}, {"lon": -77.054887, "bike_id": "6abcd7f41d9ab842337249dd3cd6857f", "lat": 38.8979465, "fusion_lon": 0.0, "fusion_lat": 0.0, "type": "electric_scooter", "name": "6abcd7f41d9ab842337249dd3cd6857f", "is_disabled": 0, "rental_uris": {"ios": "https://dc.lft.to/lastmile_qr_scan", "android": "https://dc.lft.to/lastmile_qr_scan"}, "is_reserved": 0}, {"lon": -77.04009433333333, "bike_id": "25708aff0d9f5eeb197f453611a4d431", "lat": 38.90995866666667, "fusion_lon": 0.0, "fusion_lat": 0.0, "type": "electric_scooter", "name": "25708aff0d9f5eeb197f453611a4d431", "is_disabled": 0, "rental_uris": {"ios": "https://dc.lft.to/lastmile_qr_scan", "android": "https://dc.lft.to/lastmile_qr_scan"}, "is_reserved": 0}, {"lon": -76.99649183333334, "bike_id": "aee634d69238e6c7b8f69778a7b71943", "lat": 38.988264666666666, "fusion_lon": 0.0, "fusion_lat": 0.0, "type": "electric_bike", "name": "aee634d69238e6c7b8f69778a7b71943", "is_disabled": 0, "rental_uris": {"ios": "https://dc.lft.to/lastmile_qr_scan", "android": "https://dc.lft.to/lastmile_qr_scan"}, "is_reserved": 0}, {"lon": -77.03173116666666, "bike_id": "b24effa5cd31b3a38709ee5d552b873d", "lat": 38.91420166666666, "fusion_lon": 0.0, "fusion_lat": 0.0, "type": "electric_scooter", "name": "b24effa5cd31b3a38709ee5d552b873d", "is_disabled": 0, "rental_uris": {"ios": "https://dc.lft.to/lastmile_qr_scan", "android": "https://dc.lft.to/lastmile_qr_scan"}, "is_reserved": 0}, {"lon": -77.04838233333334, "bike_id": "7c8c83fca3ba3aa10c98e86b65ee3358", "lat": 38.90476683333333, "fusion_lon": 0.0, "fusion_lat": 0.0, "type": "electric_scooter", "name": "7c8c83fca3ba3aa10c98e86b65ee3358", "is_disabled": 0, "rental_uris": {"ios": "https://dc.lft.to/lastmile_qr_scan", "android": "https://dc.lft.to/lastmile_qr_scan"}, "is_reserved": 0}, {"lon": -77.044656, "bike_id": "845a715e6dd5407f7b68c0b1dc57d6f5", "lat": 38.90963416666666, "fusion_lon": 0.0, "fusion_lat": 0.0, "type": "electric_scooter", "name": "845a715e6dd5407f7b68c0b1dc57d6f5", "is_disabled": 0, "rental_uris": {"ios": "https://dc.lft.to/lastmile_qr_scan", "android": "https://dc.lft.to/lastmile_qr_scan"}, "is_reserved": 0}, {"lon": -77.00972733333333, "bike_id": "29354d473fe4b39457d150f037879422", "lat": 38.9118495, "fusion_lon": 0.0, "fusion_lat": 0.0, "type": "electric_scooter", "name": "29354d473fe4b39457d150f037879422", "is_disabled": 0, "rental_uris": {"ios": "https://dc.lft.to/lastmile_qr_scan", "android": "https://dc.lft.to/lastmile_qr_scan"}, "is_reserved": 0}, {"lon": -77.0332725, "bike_id": "abec4452bf0a2afefb7b88368f6db8bf", "lat": 38.928857666666666, "fusion_lon": 0.0, "fusion_lat": 0.0, "type": "electric_scooter", "name": "abec4452bf0a2afefb7b88368f6db8bf", "is_disabled": 0, "rental_uris": {"ios": "https://dc.lft.to/lastmile_qr_scan", "android": "https://dc.lft.to/lastmile_qr_scan"}, "is_reserved": 0}, {"lon": -77.01934283333334, "bike_id": "13bf31e30c8ccce354543491d3fdab09", "lat": 38.898492166666664, "fusion_lon": 0.0, "fusion_lat": 0.0, "type": "electric_scooter", "name": "13bf31e30c8ccce354543491d3fdab09", "is_disabled": 0, "rental_uris": {"ios": "https://dc.lft.to/lastmile_qr_scan", "android": "https://dc.lft.to/lastmile_qr_scan"}, "is_reserved": 0}, {"lon": -77.00758016666667, "bike_id": "806f3ce98375409a0396b6dce7199c48", "lat": 38.90057516666667, "fusion_lon": 0.0, "fusion_lat": 0.0, "type": "electric_scooter", "name": "806f3ce98375409a0396b6dce7199c48", "is_disabled": 0, "rental_uris": {"ios": "https://dc.lft.to/lastmile_qr_scan", "android": "https://dc.lft.to/lastmile_qr_scan"}, "is_reserved": 0}, {"lon": -76.9917475, "bike_id": "3e6cd94df29e78cbcc44dd7ae52575e4", "lat": 38.88987816666667, "fusion_lon": 0.0, "fusion_lat": 0.0, "type": "electric_scooter", "name": "3e6cd94df29e78cbcc44dd7ae52575e4", "is_disabled": 0, "rental_uris": {"ios": "https://dc.lft.to/lastmile_qr_scan", "android": "https://dc.lft.to/lastmile_qr_scan"}, "is_reserved": 0}, {"lon": -77.04174833333333, "bike_id": "a99ed584b7edaf163382322bc87f89bd", "lat": 38.91655816666667, "fusion_lon": 0.0, "fusion_lat": 0.0, "type": "electric_scooter", "name": "a99ed584b7edaf163382322bc87f89bd", "is_disabled": 0, "rental_uris": {"ios": "https://dc.lft.to/lastmile_qr_scan", "android": "https://dc.lft.to/lastmile_qr_scan"}, "is_reserved": 0}, {"lon": -77.0216955, "bike_id": "ac1ddaa6c4e05e6c24fbf34e995cd03d", "lat": 38.92498283333333, "fusion_lon": 0.0, "fusion_lat": 0.0, "type": "electric_scooter", "name": "ac1ddaa6c4e05e6c24fbf34e995cd03d", "is_disabled": 0, "rental_uris": {"ios": "https://dc.lft.to/lastmile_qr_scan", "android": "https://dc.lft.to/lastmile_qr_scan"}, "is_reserved": 0}, {"lon": -76.993552, "bike_id": "cb5866ebf0f63bf7c63b9b85ef6af559", "lat": 38.84508916666667, "fusion_lon": 0.0, "fusion_lat": 0.0, "type": "electric_bike", "name": "cb5866ebf0f63bf7c63b9b85ef6af559", "is_disabled": 0, "rental_uris": {"ios": "https://dc.lft.to/lastmile_qr_scan", "android": "https://dc.lft.to/lastmile_qr_scan"}, "is_reserved": 0}, {"lon": -77.04592516666666, "bike_id": "9bf18075760fc53cc949f00de391d4b1", "lat": 38.92124716666667, "fusion_lon": 0.0, "fusion_lat": 0.0, "type": "electric_scooter", "name": "9bf18075760fc53cc949f00de391d4b1", "is_disabled": 0, "rental_uris": {"ios": "https://dc.lft.to/lastmile_qr_scan", "android": "https://dc.lft.to/lastmile_qr_scan"}, "is_reserved": 0}, {"lon": -77.03298483333333, "bike_id": "b64fd071d385baeac58981baa3d43a99", "lat": 38.92353333333333, "fusion_lon": 0.0, "fusion_lat": 0.0, "type": "electric_scooter", "name": "b64fd071d385baeac58981baa3d43a99", "is_disabled": 0, "rental_uris": {"ios": "https://dc.lft.to/lastmile_qr_scan", "android": "https://dc.lft.to/lastmile_qr_scan"}, "is_reserved": 0}, {"lon": -76.99507616666666, "bike_id": "78c7b31e661a5d7208ae249c8af00d62", "lat": 38.8834515, "fusion_lon": 0.0, "fusion_lat": 0.0, "type": "electric_scooter", "name": "78c7b31e661a5d7208ae249c8af00d62", "is_disabled": 0, "rental_uris": {"ios": "https://dc.lft.to/lastmile_qr_scan", "android": "https://dc.lft.to/lastmile_qr_scan"}, "is_reserved": 0}, {"lon": -77.00665533333333, "bike_id": "ae586a3d048ac70f73f142647195e27a", "lat": 38.90034583333333, "fusion_lon": 0.0, "fusion_lat": 0.0, "type": "electric_scooter", "name": "ae586a3d048ac70f73f142647195e27a", "is_disabled": 0, "rental_uris": {"ios": "https://dc.lft.to/lastmile_qr_scan", "android": "https://dc.lft.to/lastmile_qr_scan"}, "is_reserved": 0}, {"lon": -77.02391333333334, "bike_id": "97358c67c665040b86aeaf2c6e896fa0", "lat": 38.89751483333333, "fusion_lon": 0.0, "fusion_lat": 0.0, "type": "electric_scooter", "name": "97358c67c665040b86aeaf2c6e896fa0", "is_disabled": 0, "rental_uris": {"ios": "https://dc.lft.to/lastmile_qr_scan", "android": "https://dc.lft.to/lastmile_qr_scan"}, "is_reserved": 0}, {"lon": -76.9440475, "bike_id": "3a699a6730555803235d8fb4ed2dad14", "lat": 38.881389666666664, "fusion_lon": 0.0, "fusion_lat": 0.0, "type": "electric_scooter", "name": "3a699a6730555803235d8fb4ed2dad14", "is_disabled": 0, "rental_uris": {"ios": "https://dc.lft.to/lastmile_qr_scan", "android": "https://dc.lft.to/lastmile_qr_scan"}, "is_reserved": 0}, {"lon": -77.02273683333334, "bike_id": "9325c82e6797018d98de3ed106309b98", "lat": 38.9272865, "fusion_lon": 0.0, "fusion_lat": 0.0, "type": "electric_scooter", "name": "9325c82e6797018d98de3ed106309b98", "is_disabled": 0, "rental_uris": {"ios": "https://dc.lft.to/lastmile_qr_scan", "android": "https://dc.lft.to/lastmile_qr_scan"}, "is_reserved": 0}, {"lon": -77.052707, "bike_id": "7c07425ca2928a7fed477d90ee2fcdeb", "lat": 38.92771333333334, "fusion_lon": 0.0, "fusion_lat": 0.0, "type": "electric_scooter", "name": "7c07425ca2928a7fed477d90ee2fcdeb", "is_disabled": 0, "rental_uris": {"ios": "https://dc.lft.to/lastmile_qr_scan", "android": "https://dc.lft.to/lastmile_qr_scan"}, "is_reserved": 0}, {"lon": -77.01990533333333, "bike_id": "321ec07801d118f53fd15bea34abd768", "lat": 38.899699, "fusion_lon": 0.0, "fusion_lat": 0.0, "type": "electric_scooter", "name": "321ec07801d118f53fd15bea34abd768", "is_disabled": 0, "rental_uris": {"ios": "https://dc.lft.to/lastmile_qr_scan", "android": "https://dc.lft.to/lastmile_qr_scan"}, "is_reserved": 0}, {"lon": -76.93132316666667, "bike_id": "6691882530bfcd2a2333b365a9bd0b1a", "lat": 38.8761055, "fusion_lon": 0.0, "fusion_lat": 0.0, "type": "electric_scooter", "name": "6691882530bfcd2a2333b365a9bd0b1a", "is_disabled": 0, "rental_uris": {"ios": "https://dc.lft.to/lastmile_qr_scan", "android": "https://dc.lft.to/lastmile_qr_scan"}, "is_reserved": 0}, {"lon": -77.0211445, "bike_id": "4c5f0691b20725d2595787bbaf0debf4", "lat": 38.924647666666665, "fusion_lon": 0.0, "fusion_lat": 0.0, "type": "electric_scooter", "name": "4c5f0691b20725d2595787bbaf0debf4", "is_disabled": 0, "rental_uris": {"ios": "https://dc.lft.to/lastmile_qr_scan", "android": "https://dc.lft.to/lastmile_qr_scan"}, "is_reserved": 0}, {"lon": -77.041789, "bike_id": "76c669a0dc12f9b061eb126f6d760f63", "lat": 38.906299833333335, "fusion_lon": 0.0, "fusion_lat": 0.0, "type": "electric_scooter", "name": "76c669a0dc12f9b061eb126f6d760f63", "is_disabled": 0, "rental_uris": {"ios": "https://dc.lft.to/lastmile_qr_scan", "android": "https://dc.lft.to/lastmile_qr_scan"}, "is_reserved": 0}, {"lon": -77.04876483333334, "bike_id": "f442c2eef6e130e636eb3a21d2ef5fc8", "lat": 38.90106733333333, "fusion_lon": 0.0, "fusion_lat": 0.0, "type": "electric_scooter", "name": "f442c2eef6e130e636eb3a21d2ef5fc8", "is_disabled": 0, "rental_uris": {"ios": "https://dc.lft.to/lastmile_qr_scan", "android": "https://dc.lft.to/lastmile_qr_scan"}, "is_reserved": 0}, {"lon": -77.0261305, "bike_id": "54058665fd87e1aa8abd3583f08dbad9", "lat": 38.89619416666667, "fusion_lon": 0.0, "fusion_lat": 0.0, "type": "electric_scooter", "name": "54058665fd87e1aa8abd3583f08dbad9", "is_disabled": 0, "rental_uris": {"ios": "https://dc.lft.to/lastmile_qr_scan", "android": "https://dc.lft.to/lastmile_qr_scan"}, "is_reserved": 0}, {"lon": -77.01655633333333, "bike_id": "aaa36d256839775a78b2da4faa60654c", "lat": 38.92899083333333, "fusion_lon": 0.0, "fusion_lat": 0.0, "type": "electric_scooter", "name": "aaa36d256839775a78b2da4faa60654c", "is_disabled": 0, "rental_uris": {"ios": "https://dc.lft.to/lastmile_qr_scan", "android": "https://dc.lft.to/lastmile_qr_scan"}, "is_reserved": 0}, {"lon": -77.02307533333334, "bike_id": "8f98fc8c0bcb1b7213dfed14eb517f10", "lat": 38.90955916666667, "fusion_lon": 0.0, "fusion_lat": 0.0, "type": "electric_scooter", "name": "8f98fc8c0bcb1b7213dfed14eb517f10", "is_disabled": 0, "rental_uris": {"ios": "https://dc.lft.to/lastmile_qr_scan", "android": "https://dc.lft.to/lastmile_qr_scan"}, "is_reserved": 0}, {"lon": -77.03969016666667, "bike_id": "4c329705f7aab3b15217a1ae93d79d83", "lat": 38.913845333333335, "fusion_lon": 0.0, "fusion_lat": 0.0, "type": "electric_scooter", "name": "4c329705f7aab3b15217a1ae93d79d83", "is_disabled": 0, "rental_uris": {"ios": "https://dc.lft.to/lastmile_qr_scan", "android": "https://dc.lft.to/lastmile_qr_scan"}, "is_reserved": 0}, {"lon": -76.9954705, "bike_id": "0580345f3ca60c54582a0cc3c5f2fecc", "lat": 38.926744, "fusion_lon": 0.0, "fusion_lat": 0.0, "type": "electric_scooter", "name": "0580345f3ca60c54582a0cc3c5f2fecc", "is_disabled": 0, "rental_uris": {"ios": "https://dc.lft.to/lastmile_qr_scan", "android": "https://dc.lft.to/lastmile_qr_scan"}, "is_reserved": 0}, {"lon": -76.99552183333333, "bike_id": "e6ff5f6a533cd9189e5f8789bd342bc1", "lat": 38.862565833333335, "fusion_lon": 0.0, "fusion_lat": 0.0, "type": "electric_scooter", "name": "e6ff5f6a533cd9189e5f8789bd342bc1", "is_disabled": 0, "rental_uris": {"ios": "https://dc.lft.to/lastmile_qr_scan", "android": "https://dc.lft.to/lastmile_qr_scan"}, "is_reserved": 0}, {"lon": -77.02178366666666, "bike_id": "8075a99ab2ba801645f192cd54a43e4c", "lat": 38.92621916666667, "fusion_lon": 0.0, "fusion_lat": 0.0, "type": "electric_scooter", "name": "8075a99ab2ba801645f192cd54a43e4c", "is_disabled": 0, "rental_uris": {"ios": "https://dc.lft.to/lastmile_qr_scan", "android": "https://dc.lft.to/lastmile_qr_scan"}, "is_reserved": 0}, {"lon": -77.02704783333333, "bike_id": "56361d05c9d2dea016302608cc484611", "lat": 38.898111666666665, "fusion_lon": 0.0, "fusion_lat": 0.0, "type": "electric_scooter", "name": "56361d05c9d2dea016302608cc484611", "is_disabled": 0, "rental_uris": {"ios": "https://dc.lft.to/lastmile_qr_scan", "android": "https://dc.lft.to/lastmile_qr_scan"}, "is_reserved": 0}, {"lon": -77.02316333333333, "bike_id": "0ddc08ebb48aeea503fa4732cdff2e9f", "lat": 38.955234833333336, "fusion_lon": 0.0, "fusion_lat": 0.0, "type": "electric_scooter", "name": "0ddc08ebb48aeea503fa4732cdff2e9f", "is_disabled": 0, "rental_uris": {"ios": "https://dc.lft.to/lastmile_qr_scan", "android": "https://dc.lft.to/lastmile_qr_scan"}, "is_reserved": 0}, {"lon": -77.022743, "bike_id": "64aade9325155ebb2a450cf87601843a", "lat": 38.87887466666667, "fusion_lon": 0.0, "fusion_lat": 0.0, "type": "electric_scooter", "name": "64aade9325155ebb2a450cf87601843a", "is_disabled": 0, "rental_uris": {"ios": "https://dc.lft.to/lastmile_qr_scan", "android": "https://dc.lft.to/lastmile_qr_scan"}, "is_reserved": 0}, {"lon": -77.03477766666667, "bike_id": "24485aa28894b7a49cf666b705226e53", "lat": 38.914912, "fusion_lon": 0.0, "fusion_lat": 0.0, "type": "electric_scooter", "name": "24485aa28894b7a49cf666b705226e53", "is_disabled": 0, "rental_uris": {"ios": "https://dc.lft.to/lastmile_qr_scan", "android": "https://dc.lft.to/lastmile_qr_scan"}, "is_reserved": 0}, {"lon": -77.0317915, "bike_id": "fc2649f2ac033a44ba3052464663200b", "lat": 38.90870666666667, "fusion_lon": 0.0, "fusion_lat": 0.0, "type": "electric_scooter", "name": "fc2649f2ac033a44ba3052464663200b", "is_disabled": 0, "rental_uris": {"ios": "https://dc.lft.to/lastmile_qr_scan", "android": "https://dc.lft.to/lastmile_qr_scan"}, "is_reserved": 0}, {"lon": -77.03211483333334, "bike_id": "970aea10362a3b4840787e049b61581e", "lat": 38.91388666666667, "fusion_lon": 0.0, "fusion_lat": 0.0, "type": "electric_scooter", "name": "970aea10362a3b4840787e049b61581e", "is_disabled": 0, "rental_uris": {"ios": "https://dc.lft.to/lastmile_qr_scan", "android": "https://dc.lft.to/lastmile_qr_scan"}, "is_reserved": 0}, {"lon": -77.032228, "bike_id": "b7255cb6919c97b1b861370259f48214", "lat": 38.93701733333333, "fusion_lon": 0.0, "fusion_lat": 0.0, "type": "electric_scooter", "name": "b7255cb6919c97b1b861370259f48214", "is_disabled": 0, "rental_uris": {"ios": "https://dc.lft.to/lastmile_qr_scan", "android": "https://dc.lft.to/lastmile_qr_scan"}, "is_reserved": 0}, {"lon": -76.98509633333333, "bike_id": "49dfac6dae0439e588b2e569ecda6bbd", "lat": 38.903424, "fusion_lon": 0.0, "fusion_lat": 0.0, "type": "electric_scooter", "name": "49dfac6dae0439e588b2e569ecda6bbd", "is_disabled": 0, "rental_uris": {"ios": "https://dc.lft.to/lastmile_qr_scan", "android": "https://dc.lft.to/lastmile_qr_scan"}, "is_reserved": 0}, {"lon": -77.023905, "bike_id": "c0ec1ffa3d936f8722183d8f0f20c916", "lat": 38.90626533333333, "fusion_lon": 0.0, "fusion_lat": 0.0, "type": "electric_scooter", "name": "c0ec1ffa3d936f8722183d8f0f20c916", "is_disabled": 0, "rental_uris": {"ios": "https://dc.lft.to/lastmile_qr_scan", "android": "https://dc.lft.to/lastmile_qr_scan"}, "is_reserved": 0}, {"lon": -77.04170116666667, "bike_id": "6794edc8750210a0a3f2b06bf5179022", "lat": 38.919915833333334, "fusion_lon": 0.0, "fusion_lat": 0.0, "type": "electric_scooter", "name": "6794edc8750210a0a3f2b06bf5179022", "is_disabled": 0, "rental_uris": {"ios": "https://dc.lft.to/lastmile_qr_scan", "android": "https://dc.lft.to/lastmile_qr_scan"}, "is_reserved": 0}, {"lon": -77.02981083333333, "bike_id": "d9878465b63de372b6e85115f22cd262", "lat": 38.9405365, "fusion_lon": 0.0, "fusion_lat": 0.0, "type": "electric_scooter", "name": "d9878465b63de372b6e85115f22cd262", "is_disabled": 0, "rental_uris": {"ios": "https://dc.lft.to/lastmile_qr_scan", "android": "https://dc.lft.to/lastmile_qr_scan"}, "is_reserved": 0}, {"lon": -77.02007616666667, "bike_id": "2fc04824565028dcdbe6f3788cba1be0", "lat": 38.89538983333333, "fusion_lon": 0.0, "fusion_lat": 0.0, "type": "electric_scooter", "name": "2fc04824565028dcdbe6f3788cba1be0", "is_disabled": 0, "rental_uris": {"ios": "https://dc.lft.to/lastmile_qr_scan", "android": "https://dc.lft.to/lastmile_qr_scan"}, "is_reserved": 0}, {"lon": -77.03210066666666, "bike_id": "94ca8d3746e962eae570ee43346441d3", "lat": 38.91539216666666, "fusion_lon": 0.0, "fusion_lat": 0.0, "type": "electric_scooter", "name": "94ca8d3746e962eae570ee43346441d3", "is_disabled": 0, "rental_uris": {"ios": "https://dc.lft.to/lastmile_qr_scan", "android": "https://dc.lft.to/lastmile_qr_scan"}, "is_reserved": 0}, {"lon": -76.945921, "bike_id": "6d91361870aa59add428913f68324e60", "lat": 38.937509666666664, "fusion_lon": 0.0, "fusion_lat": 0.0, "type": "electric_bike", "name": "6d91361870aa59add428913f68324e60", "is_disabled": 0, "rental_uris": {"ios": "https://dc.lft.to/lastmile_qr_scan", "android": "https://dc.lft.to/lastmile_qr_scan"}, "is_reserved": 0}, {"lon": -77.02644533333333, "bike_id": "48f632629cf43169ae5ef6838ee275b1", "lat": 38.89639433333333, "fusion_lon": 0.0, "fusion_lat": 0.0, "type": "electric_scooter", "name": "48f632629cf43169ae5ef6838ee275b1", "is_disabled": 0, "rental_uris": {"ios": "https://dc.lft.to/lastmile_qr_scan", "android": "https://dc.lft.to/lastmile_qr_scan"}, "is_reserved": 0}, {"lon": -77.0318695, "bike_id": "3a41120aef023d1fdaee03ba544367ba", "lat": 38.91533116666667, "fusion_lon": 0.0, "fusion_lat": 0.0, "type": "electric_scooter", "name": "3a41120aef023d1fdaee03ba544367ba", "is_disabled": 0, "rental_uris": {"ios": "https://dc.lft.to/lastmile_qr_scan", "android": "https://dc.lft.to/lastmile_qr_scan"}, "is_reserved": 0}, {"lon": -77.04740666666666, "bike_id": "b87cfb0f553159899a16338c995fb718", "lat": 38.909751, "fusion_lon": 0.0, "fusion_lat": 0.0, "type": "electric_scooter", "name": "b87cfb0f553159899a16338c995fb718", "is_disabled": 0, "rental_uris": {"ios": "https://dc.lft.to/lastmile_qr_scan", "android": "https://dc.lft.to/lastmile_qr_scan"}, "is_reserved": 0}, {"lon": -77.05956433333333, "bike_id": "f77d70d89e1b6a460692cfb2b0b2ec00", "lat": 38.90104933333333, "fusion_lon": 0.0, "fusion_lat": 0.0, "type": "electric_scooter", "name": "f77d70d89e1b6a460692cfb2b0b2ec00", "is_disabled": 0, "rental_uris": {"ios": "https://dc.lft.to/lastmile_qr_scan", "android": "https://dc.lft.to/lastmile_qr_scan"}, "is_reserved": 0}, {"lon": -76.997719, "bike_id": "e3affbb8943e9b38c0d7bc3740d7133f", "lat": 38.92448, "fusion_lon": 0.0, "fusion_lat": 0.0, "type": "electric_scooter", "name": "e3affbb8943e9b38c0d7bc3740d7133f", "is_disabled": 0, "rental_uris": {"ios": "https://dc.lft.to/lastmile_qr_scan", "android": "https://dc.lft.to/lastmile_qr_scan"}, "is_reserved": 0}, {"lon": -77.06131716666667, "bike_id": "933a2ec640dcee376154a36770795e71", "lat": 38.90445833333333, "fusion_lon": 0.0, "fusion_lat": 0.0, "type": "electric_scooter", "name": "933a2ec640dcee376154a36770795e71", "is_disabled": 0, "rental_uris": {"ios": "https://dc.lft.to/lastmile_qr_scan", "android": "https://dc.lft.to/lastmile_qr_scan"}, "is_reserved": 0}, {"lon": -77.02221866666666, "bike_id": "73ea9c9415ceeff3401b95bd712911f6", "lat": 38.892190666666664, "fusion_lon": 0.0, "fusion_lat": 0.0, "type": "electric_scooter", "name": "73ea9c9415ceeff3401b95bd712911f6", "is_disabled": 0, "rental_uris": {"ios": "https://dc.lft.to/lastmile_qr_scan", "android": "https://dc.lft.to/lastmile_qr_scan"}, "is_reserved": 0}, {"lon": -77.03201316666667, "bike_id": "003d6aa82b49fe49a0e9e36e99457f5f", "lat": 38.907857166666666, "fusion_lon": 0.0, "fusion_lat": 0.0, "type": "electric_scooter", "name": "003d6aa82b49fe49a0e9e36e99457f5f", "is_disabled": 0, "rental_uris": {"ios": "https://dc.lft.to/lastmile_qr_scan", "android": "https://dc.lft.to/lastmile_qr_scan"}, "is_reserved": 0}, {"lon": -77.02992, "bike_id": "3208ebad64c45af27feaced0ed08c046", "lat": 38.974413166666665, "fusion_lon": 0.0, "fusion_lat": 0.0, "type": "electric_bike", "name": "3208ebad64c45af27feaced0ed08c046", "is_disabled": 0, "rental_uris": {"ios": "https://dc.lft.to/lastmile_qr_scan", "android": "https://dc.lft.to/lastmile_qr_scan"}, "is_reserved": 0}, {"lon": -77.03074133333334, "bike_id": "dbaad29e25cc04db056fbef8ca9b8833", "lat": 38.88593433333333, "fusion_lon": 0.0, "fusion_lat": 0.0, "type": "electric_scooter", "name": "dbaad29e25cc04db056fbef8ca9b8833", "is_disabled": 0, "rental_uris": {"ios": "https://dc.lft.to/lastmile_qr_scan", "android": "https://dc.lft.to/lastmile_qr_scan"}, "is_reserved": 0}, {"lon": -77.032675, "bike_id": "d3c409de436a0e1ed99eb21f67ef2935", "lat": 38.93893666666666, "fusion_lon": 0.0, "fusion_lat": 0.0, "type": "electric_scooter", "name": "d3c409de436a0e1ed99eb21f67ef2935", "is_disabled": 0, "rental_uris": {"ios": "https://dc.lft.to/lastmile_qr_scan", "android": "https://dc.lft.to/lastmile_qr_scan"}, "is_reserved": 0}, {"lon": -77.003427, "bike_id": "6215c7d297352a22cfbf28fdf25b9d78", "lat": 38.8952365, "fusion_lon": 0.0, "fusion_lat": 0.0, "type": "electric_scooter", "name": "6215c7d297352a22cfbf28fdf25b9d78", "is_disabled": 0, "rental_uris": {"ios": "https://dc.lft.to/lastmile_qr_scan", "android": "https://dc.lft.to/lastmile_qr_scan"}, "is_reserved": 0}, {"lon": -77.03775766666666, "bike_id": "8daae65e26765eaec6704caa9daad766", "lat": 38.91690233333333, "fusion_lon": 0.0, "fusion_lat": 0.0, "type": "electric_scooter", "name": "8daae65e26765eaec6704caa9daad766", "is_disabled": 0, "rental_uris": {"ios": "https://dc.lft.to/lastmile_qr_scan", "android": "https://dc.lft.to/lastmile_qr_scan"}, "is_reserved": 0}, {"lon": -77.04103466666666, "bike_id": "3d46f14079b4440f0826482972e8e5fc", "lat": 38.9178825, "fusion_lon": 0.0, "fusion_lat": 0.0, "type": "electric_scooter", "name": "3d46f14079b4440f0826482972e8e5fc", "is_disabled": 0, "rental_uris": {"ios": "https://dc.lft.to/lastmile_qr_scan", "android": "https://dc.lft.to/lastmile_qr_scan"}, "is_reserved": 0}, {"lon": -77.02310966666667, "bike_id": "339b571cb355313359159cfb20f2060d", "lat": 38.918372166666664, "fusion_lon": 0.0, "fusion_lat": 0.0, "type": "electric_scooter", "name": "339b571cb355313359159cfb20f2060d", "is_disabled": 0, "rental_uris": {"ios": "https://dc.lft.to/lastmile_qr_scan", "android": "https://dc.lft.to/lastmile_qr_scan"}, "is_reserved": 0}, {"lon": -76.97757583333333, "bike_id": "d0e042c106bd2528419affc6d7d372cc", "lat": 38.864680166666666, "fusion_lon": 0.0, "fusion_lat": 0.0, "type": "electric_bike", "name": "d0e042c106bd2528419affc6d7d372cc", "is_disabled": 0, "rental_uris": {"ios": "https://dc.lft.to/lastmile_qr_scan", "android": "https://dc.lft.to/lastmile_qr_scan"}, "is_reserved": 0}, {"lon": -76.9916955, "bike_id": "7028ba475e8b4b0da28be5b2fe9b54ba", "lat": 38.90033233333333, "fusion_lon": 0.0, "fusion_lat": 0.0, "type": "electric_scooter", "name": "7028ba475e8b4b0da28be5b2fe9b54ba", "is_disabled": 0, "rental_uris": {"ios": "https://dc.lft.to/lastmile_qr_scan", "android": "https://dc.lft.to/lastmile_qr_scan"}, "is_reserved": 0}, {"lon": -77.02706616666667, "bike_id": "bfcc49a0386b5e30f6f56a60c87475fc", "lat": 38.8974215, "fusion_lon": 0.0, "fusion_lat": 0.0, "type": "electric_scooter", "name": "bfcc49a0386b5e30f6f56a60c87475fc", "is_disabled": 0, "rental_uris": {"ios": "https://dc.lft.to/lastmile_qr_scan", "android": "https://dc.lft.to/lastmile_qr_scan"}, "is_reserved": 0}, {"lon": -77.08780666666667, "bike_id": "6ff93ee6b1f514bc768a38aa86faf0c8", "lat": 38.83900833333333, "fusion_lon": 0.0, "fusion_lat": 0.0, "type": "electric_bike", "name": "6ff93ee6b1f514bc768a38aa86faf0c8", "is_disabled": 0, "rental_uris": {"ios": "https://dc.lft.to/lastmile_qr_scan", "android": "https://dc.lft.to/lastmile_qr_scan"}, "is_reserved": 0}, {"lon": -76.98376133333333, "bike_id": "7432bae54cab7dcec42c7878df63e18a", "lat": 38.861158833333334, "fusion_lon": 0.0, "fusion_lat": 0.0, "type": "electric_scooter", "name": "7432bae54cab7dcec42c7878df63e18a", "is_disabled": 0, "rental_uris": {"ios": "https://dc.lft.to/lastmile_qr_scan", "android": "https://dc.lft.to/lastmile_qr_scan"}, "is_reserved": 0}, {"lon": -77.04117083333334, "bike_id": "c1bc203687b70674b6d7205440b5fd21", "lat": 38.934619166666664, "fusion_lon": 0.0, "fusion_lat": 0.0, "type": "electric_scooter", "name": "c1bc203687b70674b6d7205440b5fd21", "is_disabled": 0, "rental_uris": {"ios": "https://dc.lft.to/lastmile_qr_scan", "android": "https://dc.lft.to/lastmile_qr_scan"}, "is_reserved": 0}, {"lon": -76.98699116666667, "bike_id": "cefd0bb1ca94da266f281552cebe7190", "lat": 38.9001945, "fusion_lon": 0.0, "fusion_lat": 0.0, "type": "electric_scooter", "name": "cefd0bb1ca94da266f281552cebe7190", "is_disabled": 0, "rental_uris": {"ios": "https://dc.lft.to/lastmile_qr_scan", "android": "https://dc.lft.to/lastmile_qr_scan"}, "is_reserved": 0}, {"lon": -77.03258, "bike_id": "f21e7121b38057b006685e5cd4f06af4", "lat": 38.928482, "fusion_lon": 0.0, "fusion_lat": 0.0, "type": "electric_scooter", "name": "f21e7121b38057b006685e5cd4f06af4", "is_disabled": 0, "rental_uris": {"ios": "https://dc.lft.to/lastmile_qr_scan", "android": "https://dc.lft.to/lastmile_qr_scan"}, "is_reserved": 0}, {"lon": -76.978743, "bike_id": "69aae2cc182927c001d913bcfbf449b0", "lat": 38.883019166666664, "fusion_lon": 0.0, "fusion_lat": 0.0, "type": "electric_scooter", "name": "69aae2cc182927c001d913bcfbf449b0", "is_disabled": 0, "rental_uris": {"ios": "https://dc.lft.to/lastmile_qr_scan", "android": "https://dc.lft.to/lastmile_qr_scan"}, "is_reserved": 0}, {"lon": -76.97712583333333, "bike_id": "ceca15b3f43b5afcff0e968513415202", "lat": 38.88779733333333, "fusion_lon": 0.0, "fusion_lat": 0.0, "type": "electric_scooter", "name": "ceca15b3f43b5afcff0e968513415202", "is_disabled": 0, "rental_uris": {"ios": "https://dc.lft.to/lastmile_qr_scan", "android": "https://dc.lft.to/lastmile_qr_scan"}, "is_reserved": 0}, {"lon": -76.99614166666667, "bike_id": "509bcd0f096e183eb29dea604173ea40", "lat": 38.8946895, "fusion_lon": 0.0, "fusion_lat": 0.0, "type": "electric_scooter", "name": "509bcd0f096e183eb29dea604173ea40", "is_disabled": 0, "rental_uris": {"ios": "https://dc.lft.to/lastmile_qr_scan", "android": "https://dc.lft.to/lastmile_qr_scan"}, "is_reserved": 0}, {"lon": -76.976239, "bike_id": "38ab2e2b4f8ebd8192fcc334003bb511", "lat": 38.8996165, "fusion_lon": 0.0, "fusion_lat": 0.0, "type": "electric_scooter", "name": "38ab2e2b4f8ebd8192fcc334003bb511", "is_disabled": 0, "rental_uris": {"ios": "https://dc.lft.to/lastmile_qr_scan", "android": "https://dc.lft.to/lastmile_qr_scan"}, "is_reserved": 0}, {"lon": -77.018881, "bike_id": "c373738cd8b5be9cd86966b34041a9ae", "lat": 38.89741316666667, "fusion_lon": 0.0, "fusion_lat": 0.0, "type": "electric_scooter", "name": "c373738cd8b5be9cd86966b34041a9ae", "is_disabled": 0, "rental_uris": {"ios": "https://dc.lft.to/lastmile_qr_scan", "android": "https://dc.lft.to/lastmile_qr_scan"}, "is_reserved": 0}, {"lon": -77.00800183333334, "bike_id": "67ec600b4dbfd72636c3d9050ce39884", "lat": 38.89644783333333, "fusion_lon": 0.0, "fusion_lat": 0.0, "type": "electric_scooter", "name": "67ec600b4dbfd72636c3d9050ce39884", "is_disabled": 0, "rental_uris": {"ios": "https://dc.lft.to/lastmile_qr_scan", "android": "https://dc.lft.to/lastmile_qr_scan"}, "is_reserved": 0}, {"lon": -76.96776, "bike_id": "6184786263895469e1bb20fe424fcabf", "lat": 38.859226166666666, "fusion_lon": 0.0, "fusion_lat": 0.0, "type": "electric_scooter", "name": "6184786263895469e1bb20fe424fcabf", "is_disabled": 0, "rental_uris": {"ios": "https://dc.lft.to/lastmile_qr_scan", "android": "https://dc.lft.to/lastmile_qr_scan"}, "is_reserved": 0}, {"lon": -76.98751866666667, "bike_id": "979b70dd3366081968159d3b94c3491e", "lat": 38.9003065, "fusion_lon": 0.0, "fusion_lat": 0.0, "type": "electric_scooter", "name": "979b70dd3366081968159d3b94c3491e", "is_disabled": 0, "rental_uris": {"ios": "https://dc.lft.to/lastmile_qr_scan", "android": "https://dc.lft.to/lastmile_qr_scan"}, "is_reserved": 0}, {"lon": -77.03207616666667, "bike_id": "c43f5cf8db2d8bd7d8556c93ef6e21b2", "lat": 38.91637716666666, "fusion_lon": 0.0, "fusion_lat": 0.0, "type": "electric_scooter", "name": "c43f5cf8db2d8bd7d8556c93ef6e21b2", "is_disabled": 0, "rental_uris": {"ios": "https://dc.lft.to/lastmile_qr_scan", "android": "https://dc.lft.to/lastmile_qr_scan"}, "is_reserved": 0}, {"lon": -77.04876316666666, "bike_id": "175012eba13127e9c0edacbf4c3c0b58", "lat": 38.901058166666665, "fusion_lon": 0.0, "fusion_lat": 0.0, "type": "electric_scooter", "name": "175012eba13127e9c0edacbf4c3c0b58", "is_disabled": 0, "rental_uris": {"ios": "https://dc.lft.to/lastmile_qr_scan", "android": "https://dc.lft.to/lastmile_qr_scan"}, "is_reserved": 0}, {"lon": -77.02658333333333, "bike_id": "ea38ebc10cf59404e6b01965c8949897", "lat": 38.978146833333334, "fusion_lon": 0.0, "fusion_lat": 0.0, "type": "electric_scooter", "name": "ea38ebc10cf59404e6b01965c8949897", "is_disabled": 0, "rental_uris": {"ios": "https://dc.lft.to/lastmile_qr_scan", "android": "https://dc.lft.to/lastmile_qr_scan"}, "is_reserved": 0}, {"lon": -77.0251765, "bike_id": "16c62e5a73f1bc91aae020398b65f3ab", "lat": 38.90344533333333, "fusion_lon": 0.0, "fusion_lat": 0.0, "type": "electric_scooter", "name": "16c62e5a73f1bc91aae020398b65f3ab", "is_disabled": 0, "rental_uris": {"ios": "https://dc.lft.to/lastmile_qr_scan", "android": "https://dc.lft.to/lastmile_qr_scan"}, "is_reserved": 0}, {"lon": -77.03588666666667, "bike_id": "be41eec5b484b14b9562a0c0c5a991b2", "lat": 38.91698066666667, "fusion_lon": 0.0, "fusion_lat": 0.0, "type": "electric_scooter", "name": "be41eec5b484b14b9562a0c0c5a991b2", "is_disabled": 0, "rental_uris": {"ios": "https://dc.lft.to/lastmile_qr_scan", "android": "https://dc.lft.to/lastmile_qr_scan"}, "is_reserved": 0}, {"lon": -77.05709566666667, "bike_id": "475284a7b6a9f23fbdd26343f585e716", "lat": 38.90535533333333, "fusion_lon": 0.0, "fusion_lat": 0.0, "type": "electric_scooter", "name": "475284a7b6a9f23fbdd26343f585e716", "is_disabled": 0, "rental_uris": {"ios": "https://dc.lft.to/lastmile_qr_scan", "android": "https://dc.lft.to/lastmile_qr_scan"}, "is_reserved": 0}, {"lon": -76.97801416666667, "bike_id": "e0f3b308e519f55b8f2f475b3b588e5d", "lat": 38.90316333333333, "fusion_lon": 0.0, "fusion_lat": 0.0, "type": "electric_scooter", "name": "e0f3b308e519f55b8f2f475b3b588e5d", "is_disabled": 0, "rental_uris": {"ios": "https://dc.lft.to/lastmile_qr_scan", "android": "https://dc.lft.to/lastmile_qr_scan"}, "is_reserved": 0}, {"lon": -77.04178283333333, "bike_id": "e3a416fe6a49d8948dd47fe55943f6ac", "lat": 38.90530116666667, "fusion_lon": 0.0, "fusion_lat": 0.0, "type": "electric_scooter", "name": "e3a416fe6a49d8948dd47fe55943f6ac", "is_disabled": 0, "rental_uris": {"ios": "https://dc.lft.to/lastmile_qr_scan", "android": "https://dc.lft.to/lastmile_qr_scan"}, "is_reserved": 0}, {"lon": -77.0292795, "bike_id": "8d2bc98ecf9456081f2e6524202540b8", "lat": 38.898278, "fusion_lon": 0.0, "fusion_lat": 0.0, "type": "electric_scooter", "name": "8d2bc98ecf9456081f2e6524202540b8", "is_disabled": 0, "rental_uris": {"ios": "https://dc.lft.to/lastmile_qr_scan", "android": "https://dc.lft.to/lastmile_qr_scan"}, "is_reserved": 0}, {"lon": -77.0024345, "bike_id": "842d8b81bb6515b919f52a7c9a21c899", "lat": 38.902451, "fusion_lon": 0.0, "fusion_lat": 0.0, "type": "electric_scooter", "name": "842d8b81bb6515b919f52a7c9a21c899", "is_disabled": 0, "rental_uris": {"ios": "https://dc.lft.to/lastmile_qr_scan", "android": "https://dc.lft.to/lastmile_qr_scan"}, "is_reserved": 0}, {"lon": -77.02621066666667, "bike_id": "b2fb0656bd6f4d805f2de61f65e4e475", "lat": 38.90560033333333, "fusion_lon": 0.0, "fusion_lat": 0.0, "type": "electric_scooter", "name": "b2fb0656bd6f4d805f2de61f65e4e475", "is_disabled": 0, "rental_uris": {"ios": "https://dc.lft.to/lastmile_qr_scan", "android": "https://dc.lft.to/lastmile_qr_scan"}, "is_reserved": 0}, {"lon": -77.023425, "bike_id": "76e87fe4fe2d60e5adf522a1e918c06b", "lat": 38.917826833333336, "fusion_lon": 0.0, "fusion_lat": 0.0, "type": "electric_scooter", "name": "76e87fe4fe2d60e5adf522a1e918c06b", "is_disabled": 0, "rental_uris": {"ios": "https://dc.lft.to/lastmile_qr_scan", "android": "https://dc.lft.to/lastmile_qr_scan"}, "is_reserved": 0}, {"lon": -77.0005445, "bike_id": "397fddb80038654f8ac1fd05219e0016", "lat": 38.90004016666666, "fusion_lon": 0.0, "fusion_lat": 0.0, "type": "electric_scooter", "name": "397fddb80038654f8ac1fd05219e0016", "is_disabled": 0, "rental_uris": {"ios": "https://dc.lft.to/lastmile_qr_scan", "android": "https://dc.lft.to/lastmile_qr_scan"}, "is_reserved": 0}, {"lon": -76.98916016666666, "bike_id": "e0622ae454980f126e91f947c0be173d", "lat": 38.864934, "fusion_lon": 0.0, "fusion_lat": 0.0, "type": "electric_scooter", "name": "e0622ae454980f126e91f947c0be173d", "is_disabled": 0, "rental_uris": {"ios": "https://dc.lft.to/lastmile_qr_scan", "android": "https://dc.lft.to/lastmile_qr_scan"}, "is_reserved": 0}, {"lon": -77.02265116666666, "bike_id": "75bca9fd3aeb6768d4bbe4666aea4e66", "lat": 38.916334666666664, "fusion_lon": 0.0, "fusion_lat": 0.0, "type": "electric_scooter", "name": "75bca9fd3aeb6768d4bbe4666aea4e66", "is_disabled": 0, "rental_uris": {"ios": "https://dc.lft.to/lastmile_qr_scan", "android": "https://dc.lft.to/lastmile_qr_scan"}, "is_reserved": 0}, {"lon": -77.0552965, "bike_id": "0e8d4f27fd889be0de8390d9a8f552f6", "lat": 38.897288, "fusion_lon": 0.0, "fusion_lat": 0.0, "type": "electric_scooter", "name": "0e8d4f27fd889be0de8390d9a8f552f6", "is_disabled": 0, "rental_uris": {"ios": "https://dc.lft.to/lastmile_qr_scan", "android": "https://dc.lft.to/lastmile_qr_scan"}, "is_reserved": 0}, {"lon": -76.94601216666666, "bike_id": "6af7c7d3c18566f20ddf891fd6109e6f", "lat": 38.901489833333336, "fusion_lon": 0.0, "fusion_lat": 0.0, "type": "electric_scooter", "name": "6af7c7d3c18566f20ddf891fd6109e6f", "is_disabled": 0, "rental_uris": {"ios": "https://dc.lft.to/lastmile_qr_scan", "android": "https://dc.lft.to/lastmile_qr_scan"}, "is_reserved": 0}, {"lon": -76.93484516666666, "bike_id": "5df5b2dacfc242e69750e4b34f6f4164", "lat": 38.9058895, "fusion_lon": 0.0, "fusion_lat": 0.0, "type": "electric_scooter", "name": "5df5b2dacfc242e69750e4b34f6f4164", "is_disabled": 0, "rental_uris": {"ios": "https://dc.lft.to/lastmile_qr_scan", "android": "https://dc.lft.to/lastmile_qr_scan"}, "is_reserved": 0}, {"lon": -77.04001083333333, "bike_id": "f416ed27138536f6db6edac09a0fbcd8", "lat": 38.93433383333333, "fusion_lon": 0.0, "fusion_lat": 0.0, "type": "electric_scooter", "name": "f416ed27138536f6db6edac09a0fbcd8", "is_disabled": 0, "rental_uris": {"ios": "https://dc.lft.to/lastmile_qr_scan", "android": "https://dc.lft.to/lastmile_qr_scan"}, "is_reserved": 0}, {"lon": -77.01857933333334, "bike_id": "d60f14307ccf599cfe09a1eb98eee21b", "lat": 38.91493883333333, "fusion_lon": 0.0, "fusion_lat": 0.0, "type": "electric_scooter", "name": "d60f14307ccf599cfe09a1eb98eee21b", "is_disabled": 0, "rental_uris": {"ios": "https://dc.lft.to/lastmile_qr_scan", "android": "https://dc.lft.to/lastmile_qr_scan"}, "is_reserved": 0}, {"lon": -77.03938183333334, "bike_id": "878ecbe94075938d5f7131200aeb4695", "lat": 38.91562666666667, "fusion_lon": 0.0, "fusion_lat": 0.0, "type": "electric_scooter", "name": "878ecbe94075938d5f7131200aeb4695", "is_disabled": 0, "rental_uris": {"ios": "https://dc.lft.to/lastmile_qr_scan", "android": "https://dc.lft.to/lastmile_qr_scan"}, "is_reserved": 0}, {"lon": -77.02809233333333, "bike_id": "30384f43dd3faeb131d809855e424e3d", "lat": 38.9308155, "fusion_lon": 0.0, "fusion_lat": 0.0, "type": "electric_scooter", "name": "30384f43dd3faeb131d809855e424e3d", "is_disabled": 0, "rental_uris": {"ios": "https://dc.lft.to/lastmile_qr_scan", "android": "https://dc.lft.to/lastmile_qr_scan"}, "is_reserved": 0}, {"lon": -77.02593533333334, "bike_id": "28bb0a690b1a1fc56a3c5987686e62a1", "lat": 38.898442833333334, "fusion_lon": 0.0, "fusion_lat": 0.0, "type": "electric_scooter", "name": "28bb0a690b1a1fc56a3c5987686e62a1", "is_disabled": 0, "rental_uris": {"ios": "https://dc.lft.to/lastmile_qr_scan", "android": "https://dc.lft.to/lastmile_qr_scan"}, "is_reserved": 0}, {"lon": -76.98014866666666, "bike_id": "808290457fe5331f7f70cd025fc769ff", "lat": 38.9008265, "fusion_lon": 0.0, "fusion_lat": 0.0, "type": "electric_scooter", "name": "808290457fe5331f7f70cd025fc769ff", "is_disabled": 0, "rental_uris": {"ios": "https://dc.lft.to/lastmile_qr_scan", "android": "https://dc.lft.to/lastmile_qr_scan"}, "is_reserved": 0}, {"lon": -77.028241, "bike_id": "634a73a5d74309284a77910894fc5199", "lat": 38.90267633333333, "fusion_lon": 0.0, "fusion_lat": 0.0, "type": "electric_scooter", "name": "634a73a5d74309284a77910894fc5199", "is_disabled": 0, "rental_uris": {"ios": "https://dc.lft.to/lastmile_qr_scan", "android": "https://dc.lft.to/lastmile_qr_scan"}, "is_reserved": 0}, {"lon": -77.02298083333334, "bike_id": "db9b3e8db1d1cfaf240d85bc3f10d8ef", "lat": 38.92838783333333, "fusion_lon": 0.0, "fusion_lat": 0.0, "type": "electric_scooter", "name": "db9b3e8db1d1cfaf240d85bc3f10d8ef", "is_disabled": 0, "rental_uris": {"ios": "https://dc.lft.to/lastmile_qr_scan", "android": "https://dc.lft.to/lastmile_qr_scan"}, "is_reserved": 0}, {"lon": -76.9901285, "bike_id": "8c17c99cc766185d802f715238ad90ce", "lat": 38.8643515, "fusion_lon": 0.0, "fusion_lat": 0.0, "type": "electric_scooter", "name": "8c17c99cc766185d802f715238ad90ce", "is_disabled": 0, "rental_uris": {"ios": "https://dc.lft.to/lastmile_qr_scan", "android": "https://dc.lft.to/lastmile_qr_scan"}, "is_reserved": 0}, {"lon": -77.02476, "bike_id": "00737a9f004dafb8841f2fa5eebb53ac", "lat": 38.93908116666667, "fusion_lon": 0.0, "fusion_lat": 0.0, "type": "electric_scooter", "name": "00737a9f004dafb8841f2fa5eebb53ac", "is_disabled": 0, "rental_uris": {"ios": "https://dc.lft.to/lastmile_qr_scan", "android": "https://dc.lft.to/lastmile_qr_scan"}, "is_reserved": 0}, {"lon": -77.04477266666666, "bike_id": "e4fdb00926f2be7b7942913c97092ad9", "lat": 38.91540666666667, "fusion_lon": 0.0, "fusion_lat": 0.0, "type": "electric_scooter", "name": "e4fdb00926f2be7b7942913c97092ad9", "is_disabled": 0, "rental_uris": {"ios": "https://dc.lft.to/lastmile_qr_scan", "android": "https://dc.lft.to/lastmile_qr_scan"}, "is_reserved": 0}, {"lon": -77.0303905, "bike_id": "c1aa2d221d532fc3f9fa0af752650415", "lat": 38.917082666666666, "fusion_lon": 0.0, "fusion_lat": 0.0, "type": "electric_scooter", "name": "c1aa2d221d532fc3f9fa0af752650415", "is_disabled": 0, "rental_uris": {"ios": "https://dc.lft.to/lastmile_qr_scan", "android": "https://dc.lft.to/lastmile_qr_scan"}, "is_reserved": 0}, {"lon": -76.98062233333333, "bike_id": "a58026ecb8ac6e50e0b769f4bbf705ec", "lat": 38.88495533333333, "fusion_lon": 0.0, "fusion_lat": 0.0, "type": "electric_scooter", "name": "a58026ecb8ac6e50e0b769f4bbf705ec", "is_disabled": 0, "rental_uris": {"ios": "https://dc.lft.to/lastmile_qr_scan", "android": "https://dc.lft.to/lastmile_qr_scan"}, "is_reserved": 0}, {"lon": -77.02791266666667, "bike_id": "3125431c753624071da87ddca7b88148", "lat": 38.912341, "fusion_lon": 0.0, "fusion_lat": 0.0, "type": "electric_scooter", "name": "3125431c753624071da87ddca7b88148", "is_disabled": 0, "rental_uris": {"ios": "https://dc.lft.to/lastmile_qr_scan", "android": "https://dc.lft.to/lastmile_qr_scan"}, "is_reserved": 0}, {"lon": -76.97399133333333, "bike_id": "a83d6a10be08871cee4a6f8a68079653", "lat": 38.902997666666664, "fusion_lon": 0.0, "fusion_lat": 0.0, "type": "electric_scooter", "name": "a83d6a10be08871cee4a6f8a68079653", "is_disabled": 0, "rental_uris": {"ios": "https://dc.lft.to/lastmile_qr_scan", "android": "https://dc.lft.to/lastmile_qr_scan"}, "is_reserved": 0}, {"lon": -77.090495, "bike_id": "667f1220db2c057f6b961a3f1808795f", "lat": 38.84973, "fusion_lon": 0.0, "fusion_lat": 0.0, "type": "electric_bike", "name": "667f1220db2c057f6b961a3f1808795f", "is_disabled": 0, "rental_uris": {"ios": "https://dc.lft.to/lastmile_qr_scan", "android": "https://dc.lft.to/lastmile_qr_scan"}, "is_reserved": 0}, {"lon": -77.02475233333334, "bike_id": "e6a4a0c985fd9357e904e80761a010c3", "lat": 38.93710683333333, "fusion_lon": 0.0, "fusion_lat": 0.0, "type": "electric_scooter", "name": "e6a4a0c985fd9357e904e80761a010c3", "is_disabled": 0, "rental_uris": {"ios": "https://dc.lft.to/lastmile_qr_scan", "android": "https://dc.lft.to/lastmile_qr_scan"}, "is_reserved": 0}, {"lon": -77.0556625, "bike_id": "29c798716eae86cb00620900bd50e19f", "lat": 38.90852733333333, "fusion_lon": 0.0, "fusion_lat": 0.0, "type": "electric_scooter", "name": "29c798716eae86cb00620900bd50e19f", "is_disabled": 0, "rental_uris": {"ios": "https://dc.lft.to/lastmile_qr_scan", "android": "https://dc.lft.to/lastmile_qr_scan"}, "is_reserved": 0}, {"lon": -77.01817866666667, "bike_id": "e6a9dd7651eb95e151cd1642daae3e81", "lat": 38.93043483333334, "fusion_lon": 0.0, "fusion_lat": 0.0, "type": "electric_scooter", "name": "e6a9dd7651eb95e151cd1642daae3e81", "is_disabled": 0, "rental_uris": {"ios": "https://dc.lft.to/lastmile_qr_scan", "android": "https://dc.lft.to/lastmile_qr_scan"}, "is_reserved": 0}, {"lon": -77.0741505, "bike_id": "cc349ab26e0ddfd4737e945cfdbdde10", "lat": 38.92886516666667, "fusion_lon": 0.0, "fusion_lat": 0.0, "type": "electric_scooter", "name": "cc349ab26e0ddfd4737e945cfdbdde10", "is_disabled": 0, "rental_uris": {"ios": "https://dc.lft.to/lastmile_qr_scan", "android": "https://dc.lft.to/lastmile_qr_scan"}, "is_reserved": 0}, {"lon": -77.0323325, "bike_id": "0603e88a3e25e4ad1ac7242c33273ad5", "lat": 38.930007333333336, "fusion_lon": 0.0, "fusion_lat": 0.0, "type": "electric_scooter", "name": "0603e88a3e25e4ad1ac7242c33273ad5", "is_disabled": 0, "rental_uris": {"ios": "https://dc.lft.to/lastmile_qr_scan", "android": "https://dc.lft.to/lastmile_qr_scan"}, "is_reserved": 0}, {"lon": -77.0629205, "bike_id": "d310e67209fc2f0541d032974d61a5b8", "lat": 38.906848, "fusion_lon": 0.0, "fusion_lat": 0.0, "type": "electric_scooter", "name": "d310e67209fc2f0541d032974d61a5b8", "is_disabled": 0, "rental_uris": {"ios": "https://dc.lft.to/lastmile_qr_scan", "android": "https://dc.lft.to/lastmile_qr_scan"}, "is_reserved": 0}, {"lon": -77.01597716666667, "bike_id": "55c56db5934d2853f67dc11bb342d8d7", "lat": 38.9493785, "fusion_lon": 0.0, "fusion_lat": 0.0, "type": "electric_scooter", "name": "55c56db5934d2853f67dc11bb342d8d7", "is_disabled": 0, "rental_uris": {"ios": "https://dc.lft.to/lastmile_qr_scan", "android": "https://dc.lft.to/lastmile_qr_scan"}, "is_reserved": 0}, {"lon": -76.98554933333334, "bike_id": "54d56877499bf8aaefb7727f4dd5209c", "lat": 38.910312, "fusion_lon": 0.0, "fusion_lat": 0.0, "type": "electric_scooter", "name": "54d56877499bf8aaefb7727f4dd5209c", "is_disabled": 0, "rental_uris": {"ios": "https://dc.lft.to/lastmile_qr_scan", "android": "https://dc.lft.to/lastmile_qr_scan"}, "is_reserved": 0}, {"lon": -77.0475325, "bike_id": "33433e83a687dde4dd21e25dff581d7e", "lat": 38.923173166666665, "fusion_lon": 0.0, "fusion_lat": 0.0, "type": "electric_scooter", "name": "33433e83a687dde4dd21e25dff581d7e", "is_disabled": 0, "rental_uris": {"ios": "https://dc.lft.to/lastmile_qr_scan", "android": "https://dc.lft.to/lastmile_qr_scan"}, "is_reserved": 0}, {"lon": -77.04182016666667, "bike_id": "f5de0f8e28b1818e1d12753183674320", "lat": 38.915531333333334, "fusion_lon": 0.0, "fusion_lat": 0.0, "type": "electric_scooter", "name": "f5de0f8e28b1818e1d12753183674320", "is_disabled": 0, "rental_uris": {"ios": "https://dc.lft.to/lastmile_qr_scan", "android": "https://dc.lft.to/lastmile_qr_scan"}, "is_reserved": 0}, {"lon": -77.02196566666667, "bike_id": "aaeb60a8c0e4a8b800bf0b6fa206087e", "lat": 38.895083166666666, "fusion_lon": 0.0, "fusion_lat": 0.0, "type": "electric_scooter", "name": "aaeb60a8c0e4a8b800bf0b6fa206087e", "is_disabled": 0, "rental_uris": {"ios": "https://dc.lft.to/lastmile_qr_scan", "android": "https://dc.lft.to/lastmile_qr_scan"}, "is_reserved": 0}, {"lon": -77.02328083333333, "bike_id": "61e6d0c4f4a51b0f8679404e099d91f2", "lat": 38.916958, "fusion_lon": 0.0, "fusion_lat": 0.0, "type": "electric_scooter", "name": "61e6d0c4f4a51b0f8679404e099d91f2", "is_disabled": 0, "rental_uris": {"ios": "https://dc.lft.to/lastmile_qr_scan", "android": "https://dc.lft.to/lastmile_qr_scan"}, "is_reserved": 0}, {"lon": -77.0058045, "bike_id": "7c7e2270d221f877a75956e20b365e12", "lat": 38.90037216666666, "fusion_lon": 0.0, "fusion_lat": 0.0, "type": "electric_scooter", "name": "7c7e2270d221f877a75956e20b365e12", "is_disabled": 0, "rental_uris": {"ios": "https://dc.lft.to/lastmile_qr_scan", "android": "https://dc.lft.to/lastmile_qr_scan"}, "is_reserved": 0}, {"lon": -77.026924, "bike_id": "cb4161e8de266257f7dc1f3bb231fa27", "lat": 38.90929633333333, "fusion_lon": 0.0, "fusion_lat": 0.0, "type": "electric_scooter", "name": "cb4161e8de266257f7dc1f3bb231fa27", "is_disabled": 0, "rental_uris": {"ios": "https://dc.lft.to/lastmile_qr_scan", "android": "https://dc.lft.to/lastmile_qr_scan"}, "is_reserved": 0}, {"lon": -77.04694866666667, "bike_id": "5f9981ab78ae3326488b4c8e02452cfe", "lat": 38.91901516666667, "fusion_lon": 0.0, "fusion_lat": 0.0, "type": "electric_scooter", "name": "5f9981ab78ae3326488b4c8e02452cfe", "is_disabled": 0, "rental_uris": {"ios": "https://dc.lft.to/lastmile_qr_scan", "android": "https://dc.lft.to/lastmile_qr_scan"}, "is_reserved": 0}, {"lon": -77.04469883333333, "bike_id": "83da8464fcb37f0f0592a68a00ef2821", "lat": 38.911159166666664, "fusion_lon": 0.0, "fusion_lat": 0.0, "type": "electric_scooter", "name": "83da8464fcb37f0f0592a68a00ef2821", "is_disabled": 0, "rental_uris": {"ios": "https://dc.lft.to/lastmile_qr_scan", "android": "https://dc.lft.to/lastmile_qr_scan"}, "is_reserved": 0}, {"lon": -77.00189966666667, "bike_id": "ec0d964990dbfd35f408b360038fc4f2", "lat": 38.894732833333336, "fusion_lon": 0.0, "fusion_lat": 0.0, "type": "electric_scooter", "name": "ec0d964990dbfd35f408b360038fc4f2", "is_disabled": 0, "rental_uris": {"ios": "https://dc.lft.to/lastmile_qr_scan", "android": "https://dc.lft.to/lastmile_qr_scan"}, "is_reserved": 0}, {"lon": -76.98111166666666, "bike_id": "fccfac856e1a0c99c919c1a9b6b93c62", "lat": 38.87732616666667, "fusion_lon": 0.0, "fusion_lat": 0.0, "type": "electric_bike", "name": "fccfac856e1a0c99c919c1a9b6b93c62", "is_disabled": 0, "rental_uris": {"ios": "https://dc.lft.to/lastmile_qr_scan", "android": "https://dc.lft.to/lastmile_qr_scan"}, "is_reserved": 0}, {"lon": -77.01997333333334, "bike_id": "b5ad97ee7087c9284ca74c54d557d67f", "lat": 38.90070216666667, "fusion_lon": 0.0, "fusion_lat": 0.0, "type": "electric_scooter", "name": "b5ad97ee7087c9284ca74c54d557d67f", "is_disabled": 0, "rental_uris": {"ios": "https://dc.lft.to/lastmile_qr_scan", "android": "https://dc.lft.to/lastmile_qr_scan"}, "is_reserved": 0}, {"lon": -77.02527816666667, "bike_id": "9575ee5c807471b8202e979082f246fb", "lat": 38.9197745, "fusion_lon": 0.0, "fusion_lat": 0.0, "type": "electric_scooter", "name": "9575ee5c807471b8202e979082f246fb", "is_disabled": 0, "rental_uris": {"ios": "https://dc.lft.to/lastmile_qr_scan", "android": "https://dc.lft.to/lastmile_qr_scan"}, "is_reserved": 0}, {"lon": -76.99791216666667, "bike_id": "04abbd01ed3590ffc2c88ee500abbfce", "lat": 38.890939333333336, "fusion_lon": 0.0, "fusion_lat": 0.0, "type": "electric_scooter", "name": "04abbd01ed3590ffc2c88ee500abbfce", "is_disabled": 0, "rental_uris": {"ios": "https://dc.lft.to/lastmile_qr_scan", "android": "https://dc.lft.to/lastmile_qr_scan"}, "is_reserved": 0}, {"lon": -77.02989816666667, "bike_id": "54b34fc1c48d6cbe642b7a96e6da3bb9", "lat": 38.93144383333333, "fusion_lon": 0.0, "fusion_lat": 0.0, "type": "electric_scooter", "name": "54b34fc1c48d6cbe642b7a96e6da3bb9", "is_disabled": 0, "rental_uris": {"ios": "https://dc.lft.to/lastmile_qr_scan", "android": "https://dc.lft.to/lastmile_qr_scan"}, "is_reserved": 0}, {"lon": -77.04162816666667, "bike_id": "3e1acc7804f824a3fe687c51a2beb9b7", "lat": 38.918668833333335, "fusion_lon": 0.0, "fusion_lat": 0.0, "type": "electric_scooter", "name": "3e1acc7804f824a3fe687c51a2beb9b7", "is_disabled": 0, "rental_uris": {"ios": "https://dc.lft.to/lastmile_qr_scan", "android": "https://dc.lft.to/lastmile_qr_scan"}, "is_reserved": 0}, {"lon": -77.0287995, "bike_id": "2e4a8100d4a5b0a588074dbb82c560ad", "lat": 38.9282375, "fusion_lon": 0.0, "fusion_lat": 0.0, "type": "electric_scooter", "name": "2e4a8100d4a5b0a588074dbb82c560ad", "is_disabled": 0, "rental_uris": {"ios": "https://dc.lft.to/lastmile_qr_scan", "android": "https://dc.lft.to/lastmile_qr_scan"}, "is_reserved": 0}, {"lon": -77.00789033333334, "bike_id": "3d93642aa42ead66464cd15cee88d3e1", "lat": 38.983882666666666, "fusion_lon": 0.0, "fusion_lat": 0.0, "type": "electric_bike", "name": "3d93642aa42ead66464cd15cee88d3e1", "is_disabled": 0, "rental_uris": {"ios": "https://dc.lft.to/lastmile_qr_scan", "android": "https://dc.lft.to/lastmile_qr_scan"}, "is_reserved": 0}, {"lon": -77.062619, "bike_id": "80800027d4404eff2810d625b46f6998", "lat": 38.90590733333333, "fusion_lon": 0.0, "fusion_lat": 0.0, "type": "electric_scooter", "name": "80800027d4404eff2810d625b46f6998", "is_disabled": 0, "rental_uris": {"ios": "https://dc.lft.to/lastmile_qr_scan", "android": "https://dc.lft.to/lastmile_qr_scan"}, "is_reserved": 0}, {"lon": -77.0424875, "bike_id": "9679c6b520d50aa7fc69bf5dee8842ed", "lat": 38.922934, "fusion_lon": 0.0, "fusion_lat": 0.0, "type": "electric_scooter", "name": "9679c6b520d50aa7fc69bf5dee8842ed", "is_disabled": 0, "rental_uris": {"ios": "https://dc.lft.to/lastmile_qr_scan", "android": "https://dc.lft.to/lastmile_qr_scan"}, "is_reserved": 0}, {"lon": -77.021861, "bike_id": "56bfe66c436b7ca00d5940f89cb0b628", "lat": 38.91222633333334, "fusion_lon": 0.0, "fusion_lat": 0.0, "type": "electric_scooter", "name": "56bfe66c436b7ca00d5940f89cb0b628", "is_disabled": 0, "rental_uris": {"ios": "https://dc.lft.to/lastmile_qr_scan", "android": "https://dc.lft.to/lastmile_qr_scan"}, "is_reserved": 0}, {"lon": -77.00927466666667, "bike_id": "2570d180a3775a1e3cf3bcb061cc1fe8", "lat": 38.896053, "fusion_lon": 0.0, "fusion_lat": 0.0, "type": "electric_scooter", "name": "2570d180a3775a1e3cf3bcb061cc1fe8", "is_disabled": 0, "rental_uris": {"ios": "https://dc.lft.to/lastmile_qr_scan", "android": "https://dc.lft.to/lastmile_qr_scan"}, "is_reserved": 0}, {"lon": -77.03287, "bike_id": "fb0c35b2ddd3f72a6189367c202bf0f6", "lat": 38.936435333333336, "fusion_lon": 0.0, "fusion_lat": 0.0, "type": "electric_scooter", "name": "fb0c35b2ddd3f72a6189367c202bf0f6", "is_disabled": 0, "rental_uris": {"ios": "https://dc.lft.to/lastmile_qr_scan", "android": "https://dc.lft.to/lastmile_qr_scan"}, "is_reserved": 0},