{"data": {"bikes": [{"rental_uris": {"ios": "https://dc.lft.to/lastmile_qr_scan", "android": "https://dc.lft.to/lastmile_qr_scan"}, "is_disabled": 0, "bike_id": "264d2e1213b3a72a33713698a0bb7bb1", "fusion_lon": 0.0, "fusion_lat": 0.0, "is_reserved": 0, "type": "electric_scooter", "lon": -77.036945, "name": "264d2e1213b3a72a33713698a0bb7bb1", "lat": 38.9306255}, {"rental_uris": {"ios": "https://dc.lft.to/lastmile_qr_scan", "android": "https://dc.lft.to/lastmile_qr_scan"}, "is_disabled": 0, "bike_id": "f1e698d095b4d3ebb80804f4f1a283f5", "fusion_lon": 0.0, "fusion_lat": 0.0, "is_reserved": 0, "type": "electric_scooter", "lon": -77.04324266666667, "name": "f1e698d095b4d3ebb80804f4f1a283f5", "lat": 38.9007435}, {"rental_uris": {"ios": "https://dc.lft.to/lastmile_qr_scan", "android": "https://dc.lft.to/lastmile_qr_scan"}, "is_disabled": 0, "bike_id": "1098a8b2f7a907ad911d68b315bc9ee4", "fusion_lon": 0.0, "fusion_lat": 0.0, "is_reserved": 0, "type": "electric_scooter", "lon": -77.04447966666666, "name": "1098a8b2f7a907ad911d68b315bc9ee4", "lat": 38.930226833333336}, {"rental_uris": {"ios": "https://dc.lft.to/lastmile_qr_scan", "android": "https://dc.lft.to/lastmile_qr_scan"}, "is_disabled": 0, "bike_id": "952ab43f24ba37409edc6023861b36f6", "fusion_lon": 0.0, "fusion_lat": 0.0, "is_reserved": 0, "type": "electric_scooter", "lon": -76.9973835, "name": "952ab43f24ba37409edc6023861b36f6", "lat": 38.90990683333333}, {"rental_uris": {"ios": "https://dc.lft.to/lastmile_qr_scan", "android": "https://dc.lft.to/lastmile_qr_scan"}, "is_disabled": 0, "bike_id": "68858cdef3b2d1873a8b2990ba10c04c", "fusion_lon": 0.0, "fusion_lat": 0.0, "is_reserved": 0, "type": "electric_scooter", "lon": -77.0640395, "name": "68858cdef3b2d1873a8b2990ba10c04c", "lat": 38.944387666666664}, {"rental_uris": {"ios": "https://dc.lft.to/lastmile_qr_scan", "android": "https://dc.lft.to/lastmile_qr_scan"}, "is_disabled": 0, "bike_id": "6e00aca4f5a3b674739efd24e2aadf30", "fusion_lon": 0.0, "fusion_lat": 0.0, "is_reserved": 0, "type": "electric_scooter", "lon": -77.03161066666667, "name": "6e00aca4f5a3b674739efd24e2aadf30", "lat": 38.8922335}, {"rental_uris": {"ios": "https://dc.lft.to/lastmile_qr_scan", "android": "https://dc.lft.to/lastmile_qr_scan"}, "is_disabled": 0, "bike_id": "74d2cec57fa6737acff9c830e8473fb2", "fusion_lon": 0.0, "fusion_lat": 0.0, "is_reserved": 0, "type": "electric_bike", "lon": -76.901359, "name": "74d2cec57fa6737acff9c830e8473fb2", "lat": 39.004788833333336}, {"rental_uris": {"ios": "https://dc.lft.to/lastmile_qr_scan", "android": "https://dc.lft.to/lastmile_qr_scan"}, "is_disabled": 0, "bike_id": "cbccd887e39965fcf4df8e66065c16ab", "fusion_lon": 0.0, "fusion_lat": 0.0, "is_reserved": 0, "type": "electric_scooter", "lon": -76.99623116666666, "name": "cbccd887e39965fcf4df8e66065c16ab", "lat": 38.884433666666666}, {"rental_uris": {"ios": "https://dc.lft.to/lastmile_qr_scan", "android": "https://dc.lft.to/lastmile_qr_scan"}, "is_disabled": 0, "bike_id": "6396d14c6b29a8d0132d9af1c962c88c", "fusion_lon": 0.0, "fusion_lat": 0.0, "is_reserved": 0, "type": "electric_scooter", "lon": -76.9316845, "name": "6396d14c6b29a8d0132d9af1c962c88c", "lat": 38.898883}, {"rental_uris": {"ios": "https://dc.lft.to/lastmile_qr_scan", "android": "https://dc.lft.to/lastmile_qr_scan"}, "is_disabled": 0, "bike_id": "252403521f03352cca83ebfbf7cd9374", "fusion_lon": 0.0, "fusion_lat": 0.0, "is_reserved": 0, "type": "electric_bike", "lon": -77.11228266666667, "name": "252403521f03352cca83ebfbf7cd9374", "lat": 38.82873683333333}, {"rental_uris": {"ios": "https://dc.lft.to/lastmile_qr_scan", "android": "https://dc.lft.to/lastmile_qr_scan"}, "is_disabled": 0, "bike_id": "935f83f3e653f633089e36b2d7475bee", "fusion_lon": 0.0, "fusion_lat": 0.0, "is_reserved": 0, "type": "electric_scooter", "lon": -77.02843933333334, "name": "935f83f3e653f633089e36b2d7475bee", "lat": 38.922383833333335}, {"rental_uris": {"ios": "https://dc.lft.to/lastmile_qr_scan", "android": "https://dc.lft.to/lastmile_qr_scan"}, "is_disabled": 0, "bike_id": "f4e971a92fe808d78f6b2efca86cbab7", "fusion_lon": 0.0, "fusion_lat": 0.0, "is_reserved": 0, "type": "electric_scooter", "lon": -77.03447783333333, "name": "f4e971a92fe808d78f6b2efca86cbab7", "lat": 38.9099625}, {"rental_uris": {"ios": "https://dc.lft.to/lastmile_qr_scan", "android": "https://dc.lft.to/lastmile_qr_scan"}, "is_disabled": 0, "bike_id": "cfdb286e1e4f222b951d196f830e2f17", "fusion_lon": 0.0, "fusion_lat": 0.0, "is_reserved": 0, "type": "electric_scooter", "lon": -77.00385083333333, "name": "cfdb286e1e4f222b951d196f830e2f17", "lat": 38.90589416666667}, {"rental_uris": {"ios": "https://dc.lft.to/lastmile_qr_scan", "android": "https://dc.lft.to/lastmile_qr_scan"}, "is_disabled": 0, "bike_id": "47dc520ffe19c9c4feb53b6478497b06", "fusion_lon": 0.0, "fusion_lat": 0.0, "is_reserved": 0, "type": "electric_scooter", "lon": -77.02614, "name": "47dc520ffe19c9c4feb53b6478497b06", "lat": 38.90076466666667}, {"rental_uris": {"ios": "https://dc.lft.to/lastmile_qr_scan", "android": "https://dc.lft.to/lastmile_qr_scan"}, "is_disabled": 0, "bike_id": "b7e80efaad29f13ca06d1fb3a9b713aa", "fusion_lon": 0.0, "fusion_lat": 0.0, "is_reserved": 0, "type": "electric_scooter", "lon": -77.0058825, "name": "b7e80efaad29f13ca06d1fb3a9b713aa", "lat": 38.90568366666667}, {"rental_uris": {"ios": "https://dc.lft.to/lastmile_qr_scan", "android": "https://dc.lft.to/lastmile_qr_scan"}, "is_disabled": 0, "bike_id": "5e931694d3e3f9961b159be6bdfca84e", "fusion_lon": 0.0, "fusion_lat": 0.0, "is_reserved": 0, "type": "electric_bike", "lon": -77.05828933333333, "name": "5e931694d3e3f9961b159be6bdfca84e", "lat": 38.84255733333333}, {"rental_uris": {"ios": "https://dc.lft.to/lastmile_qr_scan", "android": "https://dc.lft.to/lastmile_qr_scan"}, "is_disabled": 0, "bike_id": "160320c3c6c093eec5ef50f87b5eabfa", "fusion_lon": 0.0, "fusion_lat": 0.0, "is_reserved": 0, "type": "electric_scooter", "lon": -77.03833, "name": "160320c3c6c093eec5ef50f87b5eabfa", "lat": 38.914856}, {"rental_uris": {"ios": "https://dc.lft.to/lastmile_qr_scan", "android": "https://dc.lft.to/lastmile_qr_scan"}, "is_disabled": 0, "bike_id": "9aa024ddf0c3d3ed8371ba5c08fd7eef", "fusion_lon": 0.0, "fusion_lat": 0.0, "is_reserved": 0, "type": "electric_scooter", "lon": -77.0644645, "name": "9aa024ddf0c3d3ed8371ba5c08fd7eef", "lat": 38.90528066666667}, {"rental_uris": {"ios": "https://dc.lft.to/lastmile_qr_scan", "android": "https://dc.lft.to/lastmile_qr_scan"}, "is_disabled": 0, "bike_id": "c7dc4fb75578acdb894e9c453d956259", "fusion_lon": 0.0, "fusion_lat": 0.0, "is_reserved": 0, "type": "electric_scooter", "lon": -77.0417815, "name": "c7dc4fb75578acdb894e9c453d956259", "lat": 38.905331333333336}, {"rental_uris": {"ios": "https://dc.lft.to/lastmile_qr_scan", "android": "https://dc.lft.to/lastmile_qr_scan"}, "is_disabled": 0, "bike_id": "e8ae43cc4179bda5bd98a4513b546c90", "fusion_lon": 0.0, "fusion_lat": 0.0, "is_reserved": 0, "type": "electric_scooter", "lon": -77.0324765, "name": "e8ae43cc4179bda5bd98a4513b546c90", "lat": 38.91712416666667}, {"rental_uris": {"ios": "https://dc.lft.to/lastmile_qr_scan", "android": "https://dc.lft.to/lastmile_qr_scan"}, "is_disabled": 0, "bike_id": "7a91a7a26a94e4ca74957cae33e31c1f", "fusion_lon": 0.0, "fusion_lat": 0.0, "is_reserved": 0, "type": "electric_scooter", "lon": -77.03239016666667, "name": "7a91a7a26a94e4ca74957cae33e31c1f", "lat": 38.921714}, {"rental_uris": {"ios": "https://dc.lft.to/lastmile_qr_scan", "android": "https://dc.lft.to/lastmile_qr_scan"}, "is_disabled": 0, "bike_id": "8a32d4011a52bceb71dd55417d59fc33", "fusion_lon": 0.0, "fusion_lat": 0.0, "is_reserved": 0, "type": "electric_scooter", "lon": -77.04639483333334, "name": "8a32d4011a52bceb71dd55417d59fc33", "lat": 38.89225666666667}, {"rental_uris": {"ios": "https://dc.lft.to/lastmile_qr_scan", "android": "https://dc.lft.to/lastmile_qr_scan"}, "is_disabled": 0, "bike_id": "c8e10727c629cd91e3df3337ca212c9d", "fusion_lon": 0.0, "fusion_lat": 0.0, "is_reserved": 0, "type": "electric_scooter", "lon": -77.04276383333334, "name": "c8e10727c629cd91e3df3337ca212c9d", "lat": 38.917025833333334}, {"rental_uris": {"ios": "https://dc.lft.to/lastmile_qr_scan", "android": "https://dc.lft.to/lastmile_qr_scan"}, "is_disabled": 0, "bike_id": "22500420eabdac59cf9f540bcac381cc", "fusion_lon": 0.0, "fusion_lat": 0.0, "is_reserved": 0, "type": "electric_scooter", "lon": -77.04451083333333, "name": "22500420eabdac59cf9f540bcac381cc", "lat": 38.905854166666664}, {"rental_uris": {"ios": "https://dc.lft.to/lastmile_qr_scan", "android": "https://dc.lft.to/lastmile_qr_scan"}, "is_disabled": 0, "bike_id": "988fed6e15a22bd8eac67da67f64e0c6", "fusion_lon": 0.0, "fusion_lat": 0.0, "is_reserved": 0, "type": "electric_scooter", "lon": -76.99705883333333, "name": "988fed6e15a22bd8eac67da67f64e0c6", "lat": 38.90831633333333}, {"rental_uris": {"ios": "https://dc.lft.to/lastmile_qr_scan", "android": "https://dc.lft.to/lastmile_qr_scan"}, "is_disabled": 0, "bike_id": "6255cc7a49b16798c0761fadb48baaa9", "fusion_lon": 0.0, "fusion_lat": 0.0, "is_reserved": 0, "type": "electric_bike", "lon": -77.20840933333334, "name": "6255cc7a49b16798c0761fadb48baaa9", "lat": 38.924709666666665}, {"rental_uris": {"ios": "https://dc.lft.to/lastmile_qr_scan", "android": "https://dc.lft.to/lastmile_qr_scan"}, "is_disabled": 0, "bike_id": "b802b9e2d62adf68eb1a753401ae9061", "fusion_lon": 0.0, "fusion_lat": 0.0, "is_reserved": 0, "type": "electric_scooter", "lon": -77.0389635, "name": "b802b9e2d62adf68eb1a753401ae9061", "lat": 38.91709216666667}, {"rental_uris": {"ios": "https://dc.lft.to/lastmile_qr_scan", "android": "https://dc.lft.to/lastmile_qr_scan"}, "is_disabled": 0, "bike_id": "b9a543a514e7043f6eeb90debb5c5ce9", "fusion_lon": 0.0, "fusion_lat": 0.0, "is_reserved": 0, "type": "electric_scooter", "lon": -77.002107, "name": "b9a543a514e7043f6eeb90debb5c5ce9", "lat": 38.90079866666667}, {"rental_uris": {"ios": "https://dc.lft.to/lastmile_qr_scan", "android": "https://dc.lft.to/lastmile_qr_scan"}, "is_disabled": 0, "bike_id": "4c56f6c88e416bd9c36451b8a407f7a7", "fusion_lon": 0.0, "fusion_lat": 0.0, "is_reserved": 0, "type": "electric_bike", "lon": -77.12480483333333, "name": "4c56f6c88e416bd9c36451b8a407f7a7", "lat": 38.85396}, {"rental_uris": {"ios": "https://dc.lft.to/lastmile_qr_scan", "android": "https://dc.lft.to/lastmile_qr_scan"}, "is_disabled": 0, "bike_id": "a1047dbb2d6bc1ace3d3436804345364", "fusion_lon": 0.0, "fusion_lat": 0.0, "is_reserved": 0, "type": "electric_scooter", "lon": -77.02682383333334, "name": "a1047dbb2d6bc1ace3d3436804345364", "lat": 38.894843333333334}, {"rental_uris": {"ios": "https://dc.lft.to/lastmile_qr_scan", "android": "https://dc.lft.to/lastmile_qr_scan"}, "is_disabled": 0, "bike_id": "dc18120190969793c5ac95ed970cf952", "fusion_lon": 0.0, "fusion_lat": 0.0, "is_reserved": 0, "type": "electric_scooter", "lon": -77.05259783333334, "name": "dc18120190969793c5ac95ed970cf952", "lat": 38.899936}, {"rental_uris": {"ios": "https://dc.lft.to/lastmile_qr_scan", "android": "https://dc.lft.to/lastmile_qr_scan"}, "is_disabled": 0, "bike_id": "a9bc3cc2b194c02ca9e01a2fd2e601c3", "fusion_lon": 0.0, "fusion_lat": 0.0, "is_reserved": 0, "type": "electric_scooter", "lon": -76.981812, "name": "a9bc3cc2b194c02ca9e01a2fd2e601c3", "lat": 38.895839333333335}, {"rental_uris": {"ios": "https://dc.lft.to/lastmile_qr_scan", "android": "https://dc.lft.to/lastmile_qr_scan"}, "is_disabled": 0, "bike_id": "b0d41b1334dff95b7863348274df8a87", "fusion_lon": 0.0, "fusion_lat": 0.0, "is_reserved": 0, "type": "electric_scooter", "lon": -77.02417516666667, "name": "b0d41b1334dff95b7863348274df8a87", "lat": 38.89524766666667}, {"rental_uris": {"ios": "https://dc.lft.to/lastmile_qr_scan", "android": "https://dc.lft.to/lastmile_qr_scan"}, "is_disabled": 0, "bike_id": "f015ffd366a0b4a829cd6e2b06bdaa5d", "fusion_lon": 0.0, "fusion_lat": 0.0, "is_reserved": 0, "type": "electric_scooter", "lon": -76.99519516666666, "name": "f015ffd366a0b4a829cd6e2b06bdaa5d", "lat": 38.883795666666664}, {"rental_uris": {"ios": "https://dc.lft.to/lastmile_qr_scan", "android": "https://dc.lft.to/lastmile_qr_scan"}, "is_disabled": 0, "bike_id": "c8f6dc47fddb0b771f9786791a14bd14", "fusion_lon": 0.0, "fusion_lat": 0.0, "is_reserved": 0, "type": "electric_bike", "lon": -76.94572916666667, "name": "c8f6dc47fddb0b771f9786791a14bd14", "lat": 38.84135766666667}, {"rental_uris": {"ios": "https://dc.lft.to/lastmile_qr_scan", "android": "https://dc.lft.to/lastmile_qr_scan"}, "is_disabled": 0, "bike_id": "ab0d60d269110e6c569acdddd0ebc71c", "fusion_lon": 0.0, "fusion_lat": 0.0, "is_reserved": 0, "type": "electric_scooter", "lon": -77.0385535, "name": "ab0d60d269110e6c569acdddd0ebc71c", "lat": 38.915538166666664}, {"rental_uris": {"ios": "https://dc.lft.to/lastmile_qr_scan", "android": "https://dc.lft.to/lastmile_qr_scan"}, "is_disabled": 0, "bike_id": "088cea2854d125468130921f02b5320e", "fusion_lon": 0.0, "fusion_lat": 0.0, "is_reserved": 0, "type": "electric_scooter", "lon": -77.02677716666666, "name": "088cea2854d125468130921f02b5320e", "lat": 38.9000305}, {"rental_uris": {"ios": "https://dc.lft.to/lastmile_qr_scan", "android": "https://dc.lft.to/lastmile_qr_scan"}, "is_disabled": 0, "bike_id": "57552118933a919bb98764420081debf", "fusion_lon": 0.0, "fusion_lat": 0.0, "is_reserved": 0, "type": "electric_scooter", "lon": -77.04126666666667, "name": "57552118933a919bb98764420081debf", "lat": 38.925429}, {"rental_uris": {"ios": "https://dc.lft.to/lastmile_qr_scan", "android": "https://dc.lft.to/lastmile_qr_scan"}, "is_disabled": 0, "bike_id": "55fbcf41eacf932435e722d7d51724dd", "fusion_lon": 0.0, "fusion_lat": 0.0, "is_reserved": 0, "type": "electric_scooter", "lon": -77.04346933333333, "name": "55fbcf41eacf932435e722d7d51724dd", "lat": 38.908016833333335}, {"rental_uris": {"ios": "https://dc.lft.to/lastmile_qr_scan", "android": "https://dc.lft.to/lastmile_qr_scan"}, "is_disabled": 0, "bike_id": "b72716e4b7c1fae7ccd0b342625ced18", "fusion_lon": 0.0, "fusion_lat": 0.0, "is_reserved": 0, "type": "electric_scooter", "lon": -77.0228195, "name": "b72716e4b7c1fae7ccd0b342625ced18", "lat": 38.91671983333333}, {"rental_uris": {"ios": "https://dc.lft.to/lastmile_qr_scan", "android": "https://dc.lft.to/lastmile_qr_scan"}, "is_disabled": 0, "bike_id": "bbe26c4b917464999973be3ab1d0951a", "fusion_lon": 0.0, "fusion_lat": 0.0, "is_reserved": 0, "type": "electric_scooter", "lon": -77.0400645, "name": "bbe26c4b917464999973be3ab1d0951a", "lat": 38.910099}, {"rental_uris": {"ios": "https://dc.lft.to/lastmile_qr_scan", "android": "https://dc.lft.to/lastmile_qr_scan"}, "is_disabled": 0, "bike_id": "ce04d1fbfb22f7230373684d4ee73754", "fusion_lon": 0.0, "fusion_lat": 0.0, "is_reserved": 0, "type": "electric_scooter", "lon": -77.0400525, "name": "ce04d1fbfb22f7230373684d4ee73754", "lat": 38.9078885}, {"rental_uris": {"ios": "https://dc.lft.to/lastmile_qr_scan", "android": "https://dc.lft.to/lastmile_qr_scan"}, "is_disabled": 0, "bike_id": "3fd9ef1b232cbba7a8a2d944f2b9984c", "fusion_lon": 0.0, "fusion_lat": 0.0, "is_reserved": 0, "type": "electric_scooter", "lon": -77.016496, "name": "3fd9ef1b232cbba7a8a2d944f2b9984c", "lat": 38.92898683333333}, {"rental_uris": {"ios": "https://dc.lft.to/lastmile_qr_scan", "android": "https://dc.lft.to/lastmile_qr_scan"}, "is_disabled": 0, "bike_id": "00499b25c12739f2b31fe2da569ea804", "fusion_lon": 0.0, "fusion_lat": 0.0, "is_reserved": 0, "type": "electric_scooter", "lon": -76.93348166666667, "name": "00499b25c12739f2b31fe2da569ea804", "lat": 38.89908233333333}, {"rental_uris": {"ios": "https://dc.lft.to/lastmile_qr_scan", "android": "https://dc.lft.to/lastmile_qr_scan"}, "is_disabled": 0, "bike_id": "d5ebbae354dcead23993063d0f3d937f", "fusion_lon": 0.0, "fusion_lat": 0.0, "is_reserved": 0, "type": "electric_scooter", "lon": -77.02774133333334, "name": "d5ebbae354dcead23993063d0f3d937f", "lat": 38.892221166666666}, {"rental_uris": {"ios": "https://dc.lft.to/lastmile_qr_scan", "android": "https://dc.lft.to/lastmile_qr_scan"}, "is_disabled": 0, "bike_id": "d9e869a3e7a86fd983d8f797f29c83f2", "fusion_lon": 0.0, "fusion_lat": 0.0, "is_reserved": 0, "type": "electric_bike", "lon": -76.97966683333334, "name": "d9e869a3e7a86fd983d8f797f29c83f2", "lat": 38.958152166666665}, {"rental_uris": {"ios": "https://dc.lft.to/lastmile_qr_scan", "android": "https://dc.lft.to/lastmile_qr_scan"}, "is_disabled": 0, "bike_id": "0f73eefca30c6c5a4e111540a872bcaa", "fusion_lon": 0.0, "fusion_lat": 0.0, "is_reserved": 0, "type": "electric_scooter", "lon": -77.03655516666667, "name": "0f73eefca30c6c5a4e111540a872bcaa", "lat": 38.922898333333336}, {"rental_uris": {"ios": "https://dc.lft.to/lastmile_qr_scan", "android": "https://dc.lft.to/lastmile_qr_scan"}, "is_disabled": 0, "bike_id": "e2cfe60a1cf7d83ccacec45d20619f85", "fusion_lon": 0.0, "fusion_lat": 0.0, "is_reserved": 0, "type": "electric_bike", "lon": -77.085219, "name": "e2cfe60a1cf7d83ccacec45d20619f85", "lat": 38.88575433333333}, {"rental_uris": {"ios": "https://dc.lft.to/lastmile_qr_scan", "android": "https://dc.lft.to/lastmile_qr_scan"}, "is_disabled": 0, "bike_id": "3e7a1c59c2bb925359cfc48dfa346b19", "fusion_lon": 0.0, "fusion_lat": 0.0, "is_reserved": 0, "type": "electric_scooter", "lon": -77.0241285, "name": "3e7a1c59c2bb925359cfc48dfa346b19", "lat": 38.9073345}, {"rental_uris": {"ios": "https://dc.lft.to/lastmile_qr_scan", "android": "https://dc.lft.to/lastmile_qr_scan"}, "is_disabled": 0, "bike_id": "a0841b12a7b14d901d0e6f5228d606ad", "fusion_lon": 0.0, "fusion_lat": 0.0, "is_reserved": 0, "type": "electric_scooter", "lon": -77.05505783333334, "name": "a0841b12a7b14d901d0e6f5228d606ad", "lat": 38.929816}, {"rental_uris": {"ios": "https://dc.lft.to/lastmile_qr_scan", "android": "https://dc.lft.to/lastmile_qr_scan"}, "is_disabled": 0, "bike_id": "965e1324d61a0bd94bb1f4dea31a2df5", "fusion_lon": 0.0, "fusion_lat": 0.0, "is_reserved": 0, "type": "electric_scooter", "lon": -77.01987116666666, "name": "965e1324d61a0bd94bb1f4dea31a2df5", "lat": 38.898529833333335}, {"rental_uris": {"ios": "https://dc.lft.to/lastmile_qr_scan", "android": "https://dc.lft.to/lastmile_qr_scan"}, "is_disabled": 0, "bike_id": "549e2e43337d1b95e53859fdd14dd377", "fusion_lon": 0.0, "fusion_lat": 0.0, "is_reserved": 0, "type": "electric_scooter", "lon": -77.03403983333334, "name": "549e2e43337d1b95e53859fdd14dd377", "lat": 38.9312375}, {"rental_uris": {"ios": "https://dc.lft.to/lastmile_qr_scan", "android": "https://dc.lft.to/lastmile_qr_scan"}, "is_disabled": 0, "bike_id": "f60318ef356d3a424544380dad8f8736", "fusion_lon": 0.0, "fusion_lat": 0.0, "is_reserved": 0, "type": "electric_bike", "lon": -77.13115966666666, "name": "f60318ef356d3a424544380dad8f8736", "lat": 38.85304633333333}, {"rental_uris": {"ios": "https://dc.lft.to/lastmile_qr_scan", "android": "https://dc.lft.to/lastmile_qr_scan"}, "is_disabled": 0, "bike_id": "9ffed347a88a377ffb934f32fff2305b", "fusion_lon": 0.0, "fusion_lat": 0.0, "is_reserved": 0, "type": "electric_bike", "lon": -76.92486133333334, "name": "9ffed347a88a377ffb934f32fff2305b", "lat": 38.958876}, {"rental_uris": {"ios": "https://dc.lft.to/lastmile_qr_scan", "android": "https://dc.lft.to/lastmile_qr_scan"}, "is_disabled": 0, "bike_id": "3b8cff2457b3bf8bb0211de014eb52dd", "fusion_lon": 0.0, "fusion_lat": 0.0, "is_reserved": 0, "type": "electric_scooter", "lon": -77.0238965, "name": "3b8cff2457b3bf8bb0211de014eb52dd", "lat": 38.940826333333334}, {"rental_uris": {"ios": "https://dc.lft.to/lastmile_qr_scan", "android": "https://dc.lft.to/lastmile_qr_scan"}, "is_disabled": 0, "bike_id": "64494080683af84aea8cef0b11d5705b", "fusion_lon": 0.0, "fusion_lat": 0.0, "is_reserved": 0, "type": "electric_scooter", "lon": -77.03288116666667, "name": "64494080683af84aea8cef0b11d5705b", "lat": 38.92884733333333}, {"rental_uris": {"ios": "https://dc.lft.to/lastmile_qr_scan", "android": "https://dc.lft.to/lastmile_qr_scan"}, "is_disabled": 0, "bike_id": "e4a63db07ba307a58c30359b62ff677f", "fusion_lon": 0.0, "fusion_lat": 0.0, "is_reserved": 0, "type": "electric_scooter", "lon": -77.04373916666667, "name": "e4a63db07ba307a58c30359b62ff677f", "lat": 38.902621}, {"rental_uris": {"ios": "https://dc.lft.to/lastmile_qr_scan", "android": "https://dc.lft.to/lastmile_qr_scan"}, "is_disabled": 0, "bike_id": "049ccd0f37d704cbeca31f2085bc745b", "fusion_lon": 0.0, "fusion_lat": 0.0, "is_reserved": 0, "type": "electric_scooter", "lon": -76.9854465, "name": "049ccd0f37d704cbeca31f2085bc745b", "lat": 38.8669055}, {"rental_uris": {"ios": "https://dc.lft.to/lastmile_qr_scan", "android": "https://dc.lft.to/lastmile_qr_scan"}, "is_disabled": 0, "bike_id": "aa2f845a7320de9000a70dfbfc9d55ef", "fusion_lon": 0.0, "fusion_lat": 0.0, "is_reserved": 0, "type": "electric_scooter", "lon": -77.04687966666667, "name": "aa2f845a7320de9000a70dfbfc9d55ef", "lat": 38.915910333333336}, {"rental_uris": {"ios": "https://dc.lft.to/lastmile_qr_scan", "android": "https://dc.lft.to/lastmile_qr_scan"}, "is_disabled": 0, "bike_id": "67f7de91e8dfe631fd2fbe26af080a04", "fusion_lon": 0.0, "fusion_lat": 0.0, "is_reserved": 0, "type": "electric_scooter", "lon": -77.04677733333334, "name": "67f7de91e8dfe631fd2fbe26af080a04", "lat": 38.91715883333333}, {"rental_uris": {"ios": "https://dc.lft.to/lastmile_qr_scan", "android": "https://dc.lft.to/lastmile_qr_scan"}, "is_disabled": 0, "bike_id": "c1486451890d7a4c5ce98196cd02ac71", "fusion_lon": 0.0, "fusion_lat": 0.0, "is_reserved": 0, "type": "electric_scooter", "lon": -77.0345585, "name": "c1486451890d7a4c5ce98196cd02ac71", "lat": 38.9182875}, {"rental_uris": {"ios": "https://dc.lft.to/lastmile_qr_scan", "android": "https://dc.lft.to/lastmile_qr_scan"}, "is_disabled": 0, "bike_id": "592de744f4c5b620d9aed32057f93b40", "fusion_lon": 0.0, "fusion_lat": 0.0, "is_reserved": 0, "type": "electric_scooter", "lon": -77.03185966666666, "name": "592de744f4c5b620d9aed32057f93b40", "lat": 38.9144245}, {"rental_uris": {"ios": "https://dc.lft.to/lastmile_qr_scan", "android": "https://dc.lft.to/lastmile_qr_scan"}, "is_disabled": 0, "bike_id": "1d1ebdc6cfef160413d7aae0e632b39f", "fusion_lon": 0.0, "fusion_lat": 0.0, "is_reserved": 0, "type": "electric_scooter", "lon": -77.02965666666667, "name": "1d1ebdc6cfef160413d7aae0e632b39f", "lat": 38.923308}, {"rental_uris": {"ios": "https://dc.lft.to/lastmile_qr_scan", "android": "https://dc.lft.to/lastmile_qr_scan"}, "is_disabled": 0, "bike_id": "88035a5d04941ca4803221c43a03c348", "fusion_lon": 0.0, "fusion_lat": 0.0, "is_reserved": 0, "type": "electric_scooter", "lon": -77.03176583333334, "name": "88035a5d04941ca4803221c43a03c348", "lat": 38.921102}, {"rental_uris": {"ios": "https://dc.lft.to/lastmile_qr_scan", "android": "https://dc.lft.to/lastmile_qr_scan"}, "is_disabled": 0, "bike_id": "506dd498ef9d345079e7bd80a8ff1886", "fusion_lon": 0.0, "fusion_lat": 0.0, "is_reserved": 0, "type": "electric_scooter", "lon": -76.93371583333334, "name": "506dd498ef9d345079e7bd80a8ff1886", "lat": 38.89556}, {"rental_uris": {"ios": "https://dc.lft.to/lastmile_qr_scan", "android": "https://dc.lft.to/lastmile_qr_scan"}, "is_disabled": 0, "bike_id": "8637ec347627fc6bc611b970f74a3375", "fusion_lon": 0.0, "fusion_lat": 0.0, "is_reserved": 0, "type": "electric_scooter", "lon": -77.0350035, "name": "8637ec347627fc6bc611b970f74a3375", "lat": 38.91554633333333}, {"rental_uris": {"ios": "https://dc.lft.to/lastmile_qr_scan", "android": "https://dc.lft.to/lastmile_qr_scan"}, "is_disabled": 0, "bike_id": "6e034bb1994fccf1326949f7bf2118ac", "fusion_lon": 0.0, "fusion_lat": 0.0, "is_reserved": 0, "type": "electric_scooter", "lon": -77.06095816666667, "name": "6e034bb1994fccf1326949f7bf2118ac", "lat": 38.9051775}, {"rental_uris": {"ios": "https://dc.lft.to/lastmile_qr_scan", "android": "https://dc.lft.to/lastmile_qr_scan"}, "is_disabled": 0, "bike_id": "bd8560b78a9f4c46bce4eb69aebbc69b", "fusion_lon": 0.0, "fusion_lat": 0.0, "is_reserved": 0, "type": "electric_scooter", "lon": -77.00458583333334, "name": "bd8560b78a9f4c46bce4eb69aebbc69b", "lat": 38.911491166666664}, {"rental_uris": {"ios": "https://dc.lft.to/lastmile_qr_scan", "android": "https://dc.lft.to/lastmile_qr_scan"}, "is_disabled": 0, "bike_id": "a6ec16cd7bc2b22ec2d07b728d4abc02", "fusion_lon": 0.0, "fusion_lat": 0.0, "is_reserved": 0, "type": "electric_scooter", "lon": -77.02692416666666, "name": "a6ec16cd7bc2b22ec2d07b728d4abc02", "lat": 38.9112625}, {"rental_uris": {"ios": "https://dc.lft.to/lastmile_qr_scan", "android": "https://dc.lft.to/lastmile_qr_scan"}, "is_disabled": 0, "bike_id": "c583645b5d0801d119450d08e192e7ba", "fusion_lon": 0.0, "fusion_lat": 0.0, "is_reserved": 0, "type": "electric_scooter", "lon": -77.0322345, "name": "c583645b5d0801d119450d08e192e7ba", "lat": 38.92012066666667}, {"rental_uris": {"ios": "https://dc.lft.to/lastmile_qr_scan", "android": "https://dc.lft.to/lastmile_qr_scan"}, "is_disabled": 0, "bike_id": "2eb0b62b17f0a0220e5feb8a6887b9a4", "fusion_lon": 0.0, "fusion_lat": 0.0, "is_reserved": 0, "type": "electric_scooter", "lon": -77.0437155, "name": "2eb0b62b17f0a0220e5feb8a6887b9a4", "lat": 38.908447833333334}, {"rental_uris": {"ios": "https://dc.lft.to/lastmile_qr_scan", "android": "https://dc.lft.to/lastmile_qr_scan"}, "is_disabled": 0, "bike_id": "283f67fbeba3900c03e72f68d0ce41de", "fusion_lon": 0.0, "fusion_lat": 0.0, "is_reserved": 0, "type": "electric_scooter", "lon": -77.03166233333333, "name": "283f67fbeba3900c03e72f68d0ce41de", "lat": 38.91553716666667}, {"rental_uris": {"ios": "https://dc.lft.to/lastmile_qr_scan", "android": "https://dc.lft.to/lastmile_qr_scan"}, "is_disabled": 0, "bike_id": "a69ccca1f7b2634325efdce83cc7d289", "fusion_lon": 0.0, "fusion_lat": 0.0, "is_reserved": 0, "type": "electric_scooter", "lon": -77.02761766666667, "name": "a69ccca1f7b2634325efdce83cc7d289", "lat": 38.9073}, {"rental_uris": {"ios": "https://dc.lft.to/lastmile_qr_scan", "android": "https://dc.lft.to/lastmile_qr_scan"}, "is_disabled": 0, "bike_id": "bc990a8d268fad12acb4e063409d4692", "fusion_lon": 0.0, "fusion_lat": 0.0, "is_reserved": 0, "type": "electric_scooter", "lon": -77.036714, "name": "bc990a8d268fad12acb4e063409d4692", "lat": 38.91809533333333}, {"rental_uris": {"ios": "https://dc.lft.to/lastmile_qr_scan", "android": "https://dc.lft.to/lastmile_qr_scan"}, "is_disabled": 0, "bike_id": "6ce2eb584cc417430bff568f77394b82", "fusion_lon": 0.0, "fusion_lat": 0.0, "is_reserved": 0, "type": "electric_scooter", "lon": -77.05231716666667, "name": "6ce2eb584cc417430bff568f77394b82", "lat": 38.924677333333335}, {"rental_uris": {"ios": "https://dc.lft.to/lastmile_qr_scan", "android": "https://dc.lft.to/lastmile_qr_scan"}, "is_disabled": 0, "bike_id": "df46d5966ddab146ffa7bedb1ce91397", "fusion_lon": 0.0, "fusion_lat": 0.0, "is_reserved": 0, "type": "electric_bike", "lon": -77.049216, "name": "df46d5966ddab146ffa7bedb1ce91397", "lat": 38.813469166666664}, {"rental_uris": {"ios": "https://dc.lft.to/lastmile_qr_scan", "android": "https://dc.lft.to/lastmile_qr_scan"}, "is_disabled": 0, "bike_id": "3b44adf2ec705b6acb3dff6955e5e56d", "fusion_lon": 0.0, "fusion_lat": 0.0, "is_reserved": 0, "type": "electric_scooter", "lon": -77.0630835, "name": "3b44adf2ec705b6acb3dff6955e5e56d", "lat": 38.903374666666664}, {"rental_uris": {"ios": "https://dc.lft.to/lastmile_qr_scan", "android": "https://dc.lft.to/lastmile_qr_scan"}, "is_disabled": 0, "bike_id": "e7658f0c5176728a4b0da9bdb54c9476", "fusion_lon": 0.0, "fusion_lat": 0.0, "is_reserved": 0, "type": "electric_scooter", "lon": -77.02180683333333, "name": "e7658f0c5176728a4b0da9bdb54c9476", "lat": 38.917427833333335}, {"rental_uris": {"ios": "https://dc.lft.to/lastmile_qr_scan", "android": "https://dc.lft.to/lastmile_qr_scan"}, "is_disabled": 0, "bike_id": "6de83c11a7cf424740e7dfb0ca351235", "fusion_lon": 0.0, "fusion_lat": 0.0, "is_reserved": 0, "type": "electric_scooter", "lon": -77.05734333333334, "name": "6de83c11a7cf424740e7dfb0ca351235", "lat": 38.933660333333336}, {"rental_uris": {"ios": "https://dc.lft.to/lastmile_qr_scan", "android": "https://dc.lft.to/lastmile_qr_scan"}, "is_disabled": 0, "bike_id": "340c13b0b14323123256fc3b26ed3a0c", "fusion_lon": 0.0, "fusion_lat": 0.0, "is_reserved": 0, "type": "electric_scooter", "lon": -77.049586, "name": "340c13b0b14323123256fc3b26ed3a0c", "lat": 38.905332333333334}, {"rental_uris": {"ios": "https://dc.lft.to/lastmile_qr_scan", "android": "https://dc.lft.to/lastmile_qr_scan"}, "is_disabled": 0, "bike_id": "5f4519ef4e0a85fe747c39e4582ec182", "fusion_lon": 0.0, "fusion_lat": 0.0, "is_reserved": 0, "type": "electric_bike", "lon": -76.98426883333333, "name": "5f4519ef4e0a85fe747c39e4582ec182", "lat": 38.85519466666667}, {"rental_uris": {"ios": "https://dc.lft.to/lastmile_qr_scan", "android": "https://dc.lft.to/lastmile_qr_scan"}, "is_disabled": 0, "bike_id": "0e06b2cda482fc4038682c484a002a04", "fusion_lon": 0.0, "fusion_lat": 0.0, "is_reserved": 0, "type": "electric_scooter", "lon": -77.04816683333334, "name": "0e06b2cda482fc4038682c484a002a04", "lat": 38.91114233333333}, {"rental_uris": {"ios": "https://dc.lft.to/lastmile_qr_scan", "android": "https://dc.lft.to/lastmile_qr_scan"}, "is_disabled": 0, "bike_id": "ae4869d4a7d71c7c962826b8d920aa7d", "fusion_lon": 0.0, "fusion_lat": 0.0, "is_reserved": 0, "type": "electric_scooter", "lon": -77.05551483333333, "name": "ae4869d4a7d71c7c962826b8d920aa7d", "lat": 38.934238}, {"rental_uris": {"ios": "https://dc.lft.to/lastmile_qr_scan", "android": "https://dc.lft.to/lastmile_qr_scan"}, "is_disabled": 0, "bike_id": "9e7a9ff83d6d66e2cd276456d6edfad5", "fusion_lon": 0.0, "fusion_lat": 0.0, "is_reserved": 0, "type": "electric_scooter", "lon": -77.031924, "name": "9e7a9ff83d6d66e2cd276456d6edfad5", "lat": 38.9159045}, {"rental_uris": {"ios": "https://dc.lft.to/lastmile_qr_scan", "android": "https://dc.lft.to/lastmile_qr_scan"}, "is_disabled": 0, "bike_id": "a919dcce25d2ec6fa45a2c8cbe94e7e0", "fusion_lon": 0.0, "fusion_lat": 0.0, "is_reserved": 0, "type": "electric_bike", "lon": -77.02622666666667, "name": "a919dcce25d2ec6fa45a2c8cbe94e7e0", "lat": 38.96224183333333}, {"rental_uris": {"ios": "https://dc.lft.to/lastmile_qr_scan", "android": "https://dc.lft.to/lastmile_qr_scan"}, "is_disabled": 0, "bike_id": "c388484f9852ab9db1272e6966b90f19", "fusion_lon": 0.0, "fusion_lat": 0.0, "is_reserved": 0, "type": "electric_bike", "lon": -77.03455666666666, "name": "c388484f9852ab9db1272e6966b90f19", "lat": 38.901375}, {"rental_uris": {"ios": "https://dc.lft.to/lastmile_qr_scan", "android": "https://dc.lft.to/lastmile_qr_scan"}, "is_disabled": 0, "bike_id": "2a5d1e449f81b709d36090a84bebf146", "fusion_lon": 0.0, "fusion_lat": 0.0, "is_reserved": 0, "type": "electric_scooter", "lon": -77.03264316666667, "name": "2a5d1e449f81b709d36090a84bebf146", "lat": 38.919872166666664}, {"rental_uris": {"ios": "https://dc.lft.to/lastmile_qr_scan", "android": "https://dc.lft.to/lastmile_qr_scan"}, "is_disabled": 0, "bike_id": "f4853e8c79ac545d1413c2f62fe41c2d", "fusion_lon": 0.0, "fusion_lat": 0.0, "is_reserved": 0, "type": "electric_scooter", "lon": -77.0391925, "name": "f4853e8c79ac545d1413c2f62fe41c2d", "lat": 38.90280216666667}, {"rental_uris": {"ios": "https://dc.lft.to/lastmile_qr_scan", "android": "https://dc.lft.to/lastmile_qr_scan"}, "is_disabled": 0, "bike_id": "f6377a0a8e364ca531d22b440d62f11b", "fusion_lon": 0.0, "fusion_lat": 0.0, "is_reserved": 0, "type": "electric_scooter", "lon": -77.02299883333333, "name": "f6377a0a8e364ca531d22b440d62f11b", "lat": 38.901559666666664}, {"rental_uris": {"ios": "https://dc.lft.to/lastmile_qr_scan", "android": "https://dc.lft.to/lastmile_qr_scan"}, "is_disabled": 0, "bike_id": "dd4b67f6e5101cae38dfc379c8ce283c", "fusion_lon": 0.0, "fusion_lat": 0.0, "is_reserved": 0, "type": "electric_scooter", "lon": -77.034508, "name": "dd4b67f6e5101cae38dfc379c8ce283c", "lat": 38.9182495}, {"rental_uris": {"ios": "https://dc.lft.to/lastmile_qr_scan", "android": "https://dc.lft.to/lastmile_qr_scan"}, "is_disabled": 0, "bike_id": "92dfa4f1a95cc1cc610c2fce88066918", "fusion_lon": 0.0, "fusion_lat": 0.0, "is_reserved": 0, "type": "electric_scooter", "lon": -77.037859, "name": "92dfa4f1a95cc1cc610c2fce88066918", "lat": 38.926288}, {"rental_uris": {"ios": "https://dc.lft.to/lastmile_qr_scan", "android": "https://dc.lft.to/lastmile_qr_scan"}, "is_disabled": 0, "bike_id": "573118d59e173abe0e4d011f8a790342", "fusion_lon": 0.0, "fusion_lat": 0.0, "is_reserved": 0, "type": "electric_scooter", "lon": -77.00412216666666, "name": "573118d59e173abe0e4d011f8a790342", "lat": 38.876599166666665}, {"rental_uris": {"ios": "https://dc.lft.to/lastmile_qr_scan", "android": "https://dc.lft.to/lastmile_qr_scan"}, "is_disabled": 0, "bike_id": "e488409b3c7c7b2bdd47729f8da02cef", "fusion_lon": 0.0, "fusion_lat": 0.0, "is_reserved": 0, "type": "electric_scooter", "lon": -77.041732, "name": "e488409b3c7c7b2bdd47729f8da02cef", "lat": 38.91807083333333}, {"rental_uris": {"ios": "https://dc.lft.to/lastmile_qr_scan", "android": "https://dc.lft.to/lastmile_qr_scan"}, "is_disabled": 0, "bike_id": "c0bc2aa6d26a798e39828d600536cfe4", "fusion_lon": 0.0, "fusion_lat": 0.0, "is_reserved": 0, "type": "electric_scooter", "lon": -76.999081, "name": "c0bc2aa6d26a798e39828d600536cfe4", "lat": 38.94822083333333}, {"rental_uris": {"ios": "https://dc.lft.to/lastmile_qr_scan", "android": "https://dc.lft.to/lastmile_qr_scan"}, "is_disabled": 0, "bike_id": "3f1d2487056488d3aa1b5e23e82d52f1", "fusion_lon": 0.0, "fusion_lat": 0.0, "is_reserved": 0, "type": "electric_scooter", "lon": -77.026871, "name": "3f1d2487056488d3aa1b5e23e82d52f1", "lat": 38.905323}, {"rental_uris": {"ios": "https://dc.lft.to/lastmile_qr_scan", "android": "https://dc.lft.to/lastmile_qr_scan"}, "is_disabled": 0, "bike_id": "865d2a19386c19cd981b6b5c78c752f3", "fusion_lon": 0.0, "fusion_lat": 0.0, "is_reserved": 0, "type": "electric_scooter", "lon": -77.0314655, "name": "865d2a19386c19cd981b6b5c78c752f3", "lat": 38.915679833333336}, {"rental_uris": {"ios": "https://dc.lft.to/lastmile_qr_scan", "android": "https://dc.lft.to/lastmile_qr_scan"}, "is_disabled": 0, "bike_id": "fe08fa4812fc983e6ddbbc5a0b05fec2", "fusion_lon": 0.0, "fusion_lat": 0.0, "is_reserved": 0, "type": "electric_scooter", "lon": -77.04325466666667, "name": "fe08fa4812fc983e6ddbbc5a0b05fec2", "lat": 38.892240666666666}, {"rental_uris": {"ios": "https://dc.lft.to/lastmile_qr_scan", "android": "https://dc.lft.to/lastmile_qr_scan"}, "is_disabled": 0, "bike_id": "1310e165c66a12e546f5becc5c0b3cae", "fusion_lon": 0.0, "fusion_lat": 0.0, "is_reserved": 0, "type": "electric_bike", "lon": -76.97198783333333, "name": "1310e165c66a12e546f5becc5c0b3cae", "lat": 38.91774133333333}, {"rental_uris": {"ios": "https://dc.lft.to/lastmile_qr_scan", "android": "https://dc.lft.to/lastmile_qr_scan"}, "is_disabled": 0, "bike_id": "96900d01ba09db1540558d1827f016cc", "fusion_lon": 0.0, "fusion_lat": 0.0, "is_reserved": 0, "type": "electric_scooter", "lon": -77.0343335, "name": "96900d01ba09db1540558d1827f016cc", "lat": 38.90274383333333}, {"rental_uris": {"ios": "https://dc.lft.to/lastmile_qr_scan", "android": "https://dc.lft.to/lastmile_qr_scan"}, "is_disabled": 0, "bike_id": "1ce720136979a4eb7cd416b8440e12cc", "fusion_lon": 0.0, "fusion_lat": 0.0, "is_reserved": 0, "type": "electric_scooter", "lon": -77.04179333333333, "name": "1ce720136979a4eb7cd416b8440e12cc", "lat": 38.92041483333333}, {"rental_uris": {"ios": "https://dc.lft.to/lastmile_qr_scan", "android": "https://dc.lft.to/lastmile_qr_scan"}, "is_disabled": 0, "bike_id": "6636bd91dd352473507ef7ac6fd804e8", "fusion_lon": 0.0, "fusion_lat": 0.0, "is_reserved": 0, "type": "electric_scooter", "lon": -77.04489816666667, "name": "6636bd91dd352473507ef7ac6fd804e8", "lat": 38.9036525}, {"rental_uris": {"ios": "https://dc.lft.to/lastmile_qr_scan", "android": "https://dc.lft.to/lastmile_qr_scan"}, "is_disabled": 0, "bike_id": "a4f3dd44b49fa44de274358698ebc290", "fusion_lon": 0.0, "fusion_lat": 0.0, "is_reserved": 0, "type": "electric_scooter", "lon": -77.0269295, "name": "a4f3dd44b49fa44de274358698ebc290", "lat": 38.91829116666667}, {"rental_uris": {"ios": "https://dc.lft.to/lastmile_qr_scan", "android": "https://dc.lft.to/lastmile_qr_scan"}, "is_disabled": 0, "bike_id": "1be63f2a6bf5cba8ad4dcbd2896841d1", "fusion_lon": 0.0, "fusion_lat": 0.0, "is_reserved": 0, "type": "electric_scooter", "lon": -77.01767683333334, "name": "1be63f2a6bf5cba8ad4dcbd2896841d1", "lat": 38.9056315}, {"rental_uris": {"ios": "https://dc.lft.to/lastmile_qr_scan", "android": "https://dc.lft.to/lastmile_qr_scan"}, "is_disabled": 0, "bike_id": "46fc5ff439704296dc068f59e0e5ad11", "fusion_lon": 0.0, "fusion_lat": 0.0, "is_reserved": 0, "type": "electric_scooter", "lon": -76.98705516666666, "name": "46fc5ff439704296dc068f59e0e5ad11", "lat": 38.865386}, {"rental_uris": {"ios": "https://dc.lft.to/lastmile_qr_scan", "android": "https://dc.lft.to/lastmile_qr_scan"}, "is_disabled": 0, "bike_id": "8f9f11d0ad84b5fcf2005b80d9536aca", "fusion_lon": 0.0, "fusion_lat": 0.0, "is_reserved": 0, "type": "electric_scooter", "lon": -77.03143433333334, "name": "8f9f11d0ad84b5fcf2005b80d9536aca", "lat": 38.912766}, {"rental_uris": {"ios": "https://dc.lft.to/lastmile_qr_scan", "android": "https://dc.lft.to/lastmile_qr_scan"}, "is_disabled": 0, "bike_id": "7af0a46791c2afd7190ccb723e9aca07", "fusion_lon": 0.0, "fusion_lat": 0.0, "is_reserved": 0, "type": "electric_scooter", "lon": -77.011344, "name": "7af0a46791c2afd7190ccb723e9aca07", "lat": 38.88526383333333}, {"rental_uris": {"ios": "https://dc.lft.to/lastmile_qr_scan", "android": "https://dc.lft.to/lastmile_qr_scan"}, "is_disabled": 0, "bike_id": "0f4847034dec7158cdc9a94419533efa", "fusion_lon": 0.0, "fusion_lat": 0.0, "is_reserved": 0, "type": "electric_bike", "lon": -77.04177116666666, "name": "0f4847034dec7158cdc9a94419533efa", "lat": 38.91704283333333}, {"rental_uris": {"ios": "https://dc.lft.to/lastmile_qr_scan", "android": "https://dc.lft.to/lastmile_qr_scan"}, "is_disabled": 0, "bike_id": "e1dea1d87fea9eefa2f6cf54b8a6c63a", "fusion_lon": 0.0, "fusion_lat": 0.0, "is_reserved": 0, "type": "electric_bike", "lon": -77.1314335, "name": "e1dea1d87fea9eefa2f6cf54b8a6c63a", "lat": 38.861702666666666}, {"rental_uris": {"ios": "https://dc.lft.to/lastmile_qr_scan", "android": "https://dc.lft.to/lastmile_qr_scan"}, "is_disabled": 0, "bike_id": "aa14a778d641d4b2412613d17b4fe546", "fusion_lon": 0.0, "fusion_lat": 0.0, "is_reserved": 0, "type": "electric_scooter", "lon": -77.02691766666666, "name": "aa14a778d641d4b2412613d17b4fe546", "lat": 38.906813666666665}, {"rental_uris": {"ios": "https://dc.lft.to/lastmile_qr_scan", "android": "https://dc.lft.to/lastmile_qr_scan"}, "is_disabled": 0, "bike_id": "0075f20321d7ad4cf7fe83f00110cc44", "fusion_lon": 0.0, "fusion_lat": 0.0, "is_reserved": 0, "type": "electric_scooter", "lon": -77.0402655, "name": "0075f20321d7ad4cf7fe83f00110cc44", "lat": 38.92442716666667}, {"rental_uris": {"ios": "https://dc.lft.to/lastmile_qr_scan", "android": "https://dc.lft.to/lastmile_qr_scan"}, "is_disabled": 0, "bike_id": "759e51f1e10aa3bc75b0eed82f131513", "fusion_lon": 0.0, "fusion_lat": 0.0, "is_reserved": 0, "type": "electric_bike", "lon": -76.97184966666667, "name": "759e51f1e10aa3bc75b0eed82f131513", "lat": 38.9179315}, {"rental_uris": {"ios": "https://dc.lft.to/lastmile_qr_scan", "android": "https://dc.lft.to/lastmile_qr_scan"}, "is_disabled": 0, "bike_id": "fdf4fdc1d11033def899d08442f83d9f", "fusion_lon": 0.0, "fusion_lat": 0.0, "is_reserved": 0, "type": "electric_scooter", "lon": -77.04804083333333, "name": "fdf4fdc1d11033def899d08442f83d9f", "lat": 38.91927616666667}, {"rental_uris": {"ios": "https://dc.lft.to/lastmile_qr_scan", "android": "https://dc.lft.to/lastmile_qr_scan"}, "is_disabled": 0, "bike_id": "7453730ae83c6c1b34146f9fdc8430a8", "fusion_lon": 0.0, "fusion_lat": 0.0, "is_reserved": 0, "type": "electric_scooter", "lon": -77.03277816666667, "name": "7453730ae83c6c1b34146f9fdc8430a8", "lat": 38.932565833333335}, {"rental_uris": {"ios": "https://dc.lft.to/lastmile_qr_scan", "android": "https://dc.lft.to/lastmile_qr_scan"}, "is_disabled": 0, "bike_id": "3776cc7cbbdd71e499c39472c4e5e087", "fusion_lon": 0.0, "fusion_lat": 0.0, "is_reserved": 0, "type": "electric_bike", "lon": -76.90439316666667, "name": "3776cc7cbbdd71e499c39472c4e5e087", "lat": 38.897734166666666}, {"rental_uris": {"ios": "https://dc.lft.to/lastmile_qr_scan", "android": "https://dc.lft.to/lastmile_qr_scan"}, "is_disabled": 0, "bike_id": "e7b02a3864ee7377a57e85bc13f61ed5", "fusion_lon": 0.0, "fusion_lat": 0.0, "is_reserved": 0, "type": "electric_scooter", "lon": -77.044928, "name": "e7b02a3864ee7377a57e85bc13f61ed5", "lat": 38.903717666666665}, {"rental_uris": {"ios": "https://dc.lft.to/lastmile_qr_scan", "android": "https://dc.lft.to/lastmile_qr_scan"}, "is_disabled": 0, "bike_id": "8c0b8e648bcd83ba641deed4ddad955f", "fusion_lon": 0.0, "fusion_lat": 0.0, "is_reserved": 0, "type": "electric_scooter", "lon": -77.03265066666667, "name": "8c0b8e648bcd83ba641deed4ddad955f", "lat": 38.93525566666667}, {"rental_uris": {"ios": "https://dc.lft.to/lastmile_qr_scan", "android": "https://dc.lft.to/lastmile_qr_scan"}, "is_disabled": 0, "bike_id": "f7b248e07d4329ea944f9eeff3344618", "fusion_lon": 0.0, "fusion_lat": 0.0, "is_reserved": 0, "type": "electric_scooter", "lon": -77.00408066666667, "name": "f7b248e07d4329ea944f9eeff3344618", "lat": 38.87664783333334}, {"rental_uris": {"ios": "https://dc.lft.to/lastmile_qr_scan", "android": "https://dc.lft.to/lastmile_qr_scan"}, "is_disabled": 0, "bike_id": "7e7bf2adaf60a01462a8a1ff08b2d826", "fusion_lon": 0.0, "fusion_lat": 0.0, "is_reserved": 0, "type": "electric_bike", "lon": -76.99478516666667, "name": "7e7bf2adaf60a01462a8a1ff08b2d826", "lat": 38.888675}, {"rental_uris": {"ios": "https://dc.lft.to/lastmile_qr_scan", "android": "https://dc.lft.to/lastmile_qr_scan"}, "is_disabled": 0, "bike_id": "76bea00b07ed9f2585c78ad53469de11", "fusion_lon": 0.0, "fusion_lat": 0.0, "is_reserved": 0, "type": "electric_scooter", "lon": -76.99530016666667, "name": "76bea00b07ed9f2585c78ad53469de11", "lat": 38.926747}, {"rental_uris": {"ios": "https://dc.lft.to/lastmile_qr_scan", "android": "https://dc.lft.to/lastmile_qr_scan"}, "is_disabled": 0, "bike_id": "9da56acefa29523110c2f6b919f099a2", "fusion_lon": 0.0, "fusion_lat": 0.0, "is_reserved": 0, "type": "electric_scooter", "lon": -77.06111733333333, "name": "9da56acefa29523110c2f6b919f099a2", "lat": 38.90529316666667}, {"rental_uris": {"ios": "https://dc.lft.to/lastmile_qr_scan", "android": "https://dc.lft.to/lastmile_qr_scan"}, "is_disabled": 0, "bike_id": "464f1e08e2ea0f6ec817f500cdbd663b", "fusion_lon": 0.0, "fusion_lat": 0.0, "is_reserved": 0, "type": "electric_scooter", "lon": -77.04305466666666, "name": "464f1e08e2ea0f6ec817f500cdbd663b", "lat": 38.91119483333333}, {"rental_uris": {"ios": "https://dc.lft.to/lastmile_qr_scan", "android": "https://dc.lft.to/lastmile_qr_scan"}, "is_disabled": 0, "bike_id": "ad56e0f10ee130582d5993c1920250b9", "fusion_lon": 0.0, "fusion_lat": 0.0, "is_reserved": 0, "type": "electric_bike", "lon": -76.9855145, "name": "ad56e0f10ee130582d5993c1920250b9", "lat": 38.852107}, {"rental_uris": {"ios": "https://dc.lft.to/lastmile_qr_scan", "android": "https://dc.lft.to/lastmile_qr_scan"}, "is_disabled": 0, "bike_id": "00a519bc802279908e4ce7a32b6b8bf3", "fusion_lon": 0.0, "fusion_lat": 0.0, "is_reserved": 0, "type": "electric_scooter", "lon": -77.046117, "name": "00a519bc802279908e4ce7a32b6b8bf3", "lat": 38.90267983333333}, {"rental_uris": {"ios": "https://dc.lft.to/lastmile_qr_scan", "android": "https://dc.lft.to/lastmile_qr_scan"}, "is_disabled": 0, "bike_id": "05ece7ea7e2080b68349ec55a93c4c1c", "fusion_lon": 0.0, "fusion_lat": 0.0, "is_reserved": 0, "type": "electric_scooter", "lon": -77.0258375, "name": "05ece7ea7e2080b68349ec55a93c4c1c", "lat": 38.91700266666667}, {"rental_uris": {"ios": "https://dc.lft.to/lastmile_qr_scan", "android": "https://dc.lft.to/lastmile_qr_scan"}, "is_disabled": 0, "bike_id": "41543bfb6f661e988ca6b10813a2cbea", "fusion_lon": 0.0, "fusion_lat": 0.0, "is_reserved": 0, "type": "electric_scooter", "lon": -76.98562666666666, "name": "41543bfb6f661e988ca6b10813a2cbea", "lat": 38.886743833333334}, {"rental_uris": {"ios": "https://dc.lft.to/lastmile_qr_scan", "android": "https://dc.lft.to/lastmile_qr_scan"}, "is_disabled": 0, "bike_id": "ee67e6bae6fb9f6ac7679d0e3c5e1551", "fusion_lon": 0.0, "fusion_lat": 0.0, "is_reserved": 0, "type": "electric_bike", "lon": -76.938834, "name": "ee67e6bae6fb9f6ac7679d0e3c5e1551", "lat": 38.9563575}, {"rental_uris": {"ios": "https://dc.lft.to/lastmile_qr_scan", "android": "https://dc.lft.to/lastmile_qr_scan"}, "is_disabled": 0, "bike_id": "48e2fe5843dad2f2e6a69011d454ff96", "fusion_lon": 0.0, "fusion_lat": 0.0, "is_reserved": 0, "type": "electric_scooter", "lon": -77.00497533333333, "name": "48e2fe5843dad2f2e6a69011d454ff96", "lat": 38.896921666666664}, {"rental_uris": {"ios": "https://dc.lft.to/lastmile_qr_scan", "android": "https://dc.lft.to/lastmile_qr_scan"}, "is_disabled": 0, "bike_id": "9170b05a27300064233d4eea78a2f983", "fusion_lon": 0.0, "fusion_lat": 0.0, "is_reserved": 0, "type": "electric_scooter", "lon": -77.0258335, "name": "9170b05a27300064233d4eea78a2f983", "lat": 38.90422933333333}, {"rental_uris": {"ios": "https://dc.lft.to/lastmile_qr_scan", "android": "https://dc.lft.to/lastmile_qr_scan"}, "is_disabled": 0, "bike_id": "7b16884993336a136e4f474203cd60bf", "fusion_lon": 0.0, "fusion_lat": 0.0, "is_reserved": 0, "type": "electric_scooter", "lon": -77.0158535, "name": "7b16884993336a136e4f474203cd60bf", "lat": 38.928468}, {"rental_uris": {"ios": "https://dc.lft.to/lastmile_qr_scan", "android": "https://dc.lft.to/lastmile_qr_scan"}, "is_disabled": 0, "bike_id": "5c76f09de30d5992f01b4b8f8f0ccfb1", "fusion_lon": 0.0, "fusion_lat": 0.0, "is_reserved": 0, "type": "electric_scooter", "lon": -77.041661, "name": "5c76f09de30d5992f01b4b8f8f0ccfb1", "lat": 38.91836883333333}, {"rental_uris": {"ios": "https://dc.lft.to/lastmile_qr_scan", "android": "https://dc.lft.to/lastmile_qr_scan"}, "is_disabled": 0, "bike_id": "6732c02714375f7927f6858f6c008f16", "fusion_lon": 0.0, "fusion_lat": 0.0, "is_reserved": 0, "type": "electric_scooter", "lon": -77.05749266666666, "name": "6732c02714375f7927f6858f6c008f16", "lat": 38.925736}, {"rental_uris": {"ios": "https://dc.lft.to/lastmile_qr_scan", "android": "https://dc.lft.to/lastmile_qr_scan"}, "is_disabled": 0, "bike_id": "4268afaadd111c82e5234627b99e1364", "fusion_lon": 0.0, "fusion_lat": 0.0, "is_reserved": 0, "type": "electric_scooter", "lon": -77.01844466666667, "name": "4268afaadd111c82e5234627b99e1364", "lat": 38.903892666666664}, {"rental_uris": {"ios": "https://dc.lft.to/lastmile_qr_scan", "android": "https://dc.lft.to/lastmile_qr_scan"}, "is_disabled": 0, "bike_id": "6d72d671d043af838c61dc024d8e2704", "fusion_lon": 0.0, "fusion_lat": 0.0, "is_reserved": 0, "type": "electric_scooter", "lon": -77.04233833333333, "name": "6d72d671d043af838c61dc024d8e2704", "lat": 38.9112115}, {"rental_uris": {"ios": "https://dc.lft.to/lastmile_qr_scan", "android": "https://dc.lft.to/lastmile_qr_scan"}, "is_disabled": 0, "bike_id": "0b8fe1d5ccbbee0a26b9c26a4d1dc595", "fusion_lon": 0.0, "fusion_lat": 0.0, "is_reserved": 0, "type": "electric_scooter", "lon": -76.9525875, "name": "0b8fe1d5ccbbee0a26b9c26a4d1dc595", "lat": 38.8908695}, {"rental_uris": {"ios": "https://dc.lft.to/lastmile_qr_scan", "android": "https://dc.lft.to/lastmile_qr_scan"}, "is_disabled": 0, "bike_id": "14d3d315af5597721d4123ff9062cc1e", "fusion_lon": 0.0, "fusion_lat": 0.0, "is_reserved": 0, "type": "electric_scooter", "lon": -77.04482466666667, "name": "14d3d315af5597721d4123ff9062cc1e", "lat": 38.92137783333333}, {"rental_uris": {"ios": "https://dc.lft.to/lastmile_qr_scan", "android": "https://dc.lft.to/lastmile_qr_scan"}, "is_disabled": 0, "bike_id": "2c7b1da564ed72d57c42a4e42cc0b4e8", "fusion_lon": 0.0, "fusion_lat": 0.0, "is_reserved": 0, "type": "electric_bike", "lon": -76.92499916666667, "name": "2c7b1da564ed72d57c42a4e42cc0b4e8", "lat": 38.999974333333334}, {"rental_uris": {"ios": "https://dc.lft.to/lastmile_qr_scan", "android": "https://dc.lft.to/lastmile_qr_scan"}, "is_disabled": 0, "bike_id": "eb6bbb3160c77d2cfc79e4150d2a988a", "fusion_lon": 0.0, "fusion_lat": 0.0, "is_reserved": 0, "type": "electric_scooter", "lon": -77.045529, "name": "eb6bbb3160c77d2cfc79e4150d2a988a", "lat": 38.91339416666667}, {"rental_uris": {"ios": "https://dc.lft.to/lastmile_qr_scan", "android": "https://dc.lft.to/lastmile_qr_scan"}, "is_disabled": 0, "bike_id": "12a7981c4b9165c0e16ab0ed4edaa6c1", "fusion_lon": 0.0, "fusion_lat": 0.0, "is_reserved": 0, "type": "electric_scooter", "lon": -77.03940266666666, "name": "12a7981c4b9165c0e16ab0ed4edaa6c1", "lat": 38.90816816666667}, {"rental_uris": {"ios": "https://dc.lft.to/lastmile_qr_scan", "android": "https://dc.lft.to/lastmile_qr_scan"}, "is_disabled": 0, "bike_id": "597f2263d7790d6cf49bf7412646d015", "fusion_lon": 0.0, "fusion_lat": 0.0, "is_reserved": 0, "type": "electric_scooter", "lon": -77.02794266666666, "name": "597f2263d7790d6cf49bf7412646d015", "lat": 38.930801}, {"rental_uris": {"ios": "https://dc.lft.to/lastmile_qr_scan", "android": "https://dc.lft.to/lastmile_qr_scan"}, "is_disabled": 0, "bike_id": "6c3b7930b2337034e8521234582de9ee", "fusion_lon": 0.0, "fusion_lat": 0.0, "is_reserved": 0, "type": "electric_scooter", "lon": -77.03219483333334, "name": "6c3b7930b2337034e8521234582de9ee", "lat": 38.8922805}, {"rental_uris": {"ios": "https://dc.lft.to/lastmile_qr_scan", "android": "https://dc.lft.to/lastmile_qr_scan"}, "is_disabled": 0, "bike_id": "93f8c47aecce1394ab39cbbc94db9617", "fusion_lon": 0.0, "fusion_lat": 0.0, "is_reserved": 0, "type": "electric_scooter", "lon": -77.05201016666666, "name": "93f8c47aecce1394ab39cbbc94db9617", "lat": 38.9246415}, {"rental_uris": {"ios": "https://dc.lft.to/lastmile_qr_scan", "android": "https://dc.lft.to/lastmile_qr_scan"}, "is_disabled": 0, "bike_id": "b4aefa2eebc5664a8cbcd20e193fa87f", "fusion_lon": 0.0, "fusion_lat": 0.0, "is_reserved": 0, "type": "electric_scooter", "lon": -77.031936, "name": "b4aefa2eebc5664a8cbcd20e193fa87f", "lat": 38.91822283333333}, {"rental_uris": {"ios": "https://dc.lft.to/lastmile_qr_scan", "android": "https://dc.lft.to/lastmile_qr_scan"}, "is_disabled": 0, "bike_id": "92814ca52a82cc079b4c38449d04d0c1", "fusion_lon": 0.0, "fusion_lat": 0.0, "is_reserved": 0, "type": "electric_scooter", "lon": -77.05219083333333, "name": "92814ca52a82cc079b4c38449d04d0c1", "lat": 38.92492933333333}, {"rental_uris": {"ios": "https://dc.lft.to/lastmile_qr_scan", "android": "https://dc.lft.to/lastmile_qr_scan"}, "is_disabled": 0, "bike_id": "175810bda06822dcc55a8f9be330f348", "fusion_lon": 0.0, "fusion_lat": 0.0, "is_reserved": 0, "type": "electric_scooter", "lon": -76.999023, "name": "175810bda06822dcc55a8f9be330f348", "lat": 38.948260833333336}, {"rental_uris": {"ios": "https://dc.lft.to/lastmile_qr_scan", "android": "https://dc.lft.to/lastmile_qr_scan"}, "is_disabled": 0, "bike_id": "7c4f3ec3c161cca6e4ae50524194373e", "fusion_lon": 0.0, "fusion_lat": 0.0, "is_reserved": 0, "type": "electric_scooter", "lon": -77.0318805, "name": "7c4f3ec3c161cca6e4ae50524194373e", "lat": 38.91752966666667}, {"rental_uris": {"ios": "https://dc.lft.to/lastmile_qr_scan", "android": "https://dc.lft.to/lastmile_qr_scan"}, "is_disabled": 0, "bike_id": "6263e8e3d6b4b54cb1d562868774995f", "fusion_lon": 0.0, "fusion_lat": 0.0, "is_reserved": 0, "type": "electric_scooter", "lon": -77.06073683333334, "name": "6263e8e3d6b4b54cb1d562868774995f", "lat": 38.9023505}, {"rental_uris": {"ios": "https://dc.lft.to/lastmile_qr_scan", "android": "https://dc.lft.to/lastmile_qr_scan"}, "is_disabled": 0, "bike_id": "d1832855c2ff69d01cdafe3a6e3a7a83", "fusion_lon": 0.0, "fusion_lat": 0.0, "is_reserved": 0, "type": "electric_scooter", "lon": -77.06036516666667, "name": "d1832855c2ff69d01cdafe3a6e3a7a83", "lat": 38.944646}, {"rental_uris": {"ios": "https://dc.lft.to/lastmile_qr_scan", "android": "https://dc.lft.to/lastmile_qr_scan"}, "is_disabled": 0, "bike_id": "3ff8ba1873bfb93c4a3e44c9a306c88a", "fusion_lon": 0.0, "fusion_lat": 0.0, "is_reserved": 0, "type": "electric_scooter", "lon": -77.03228283333333, "name": "3ff8ba1873bfb93c4a3e44c9a306c88a", "lat": 38.91996266666666}, {"rental_uris": {"ios": "https://dc.lft.to/lastmile_qr_scan", "android": "https://dc.lft.to/lastmile_qr_scan"}, "is_disabled": 0, "bike_id": "8f80643fbc36858c4957c6179b94a036", "fusion_lon": 0.0, "fusion_lat": 0.0, "is_reserved": 0, "type": "electric_scooter", "lon": -76.9509695, "name": "8f80643fbc36858c4957c6179b94a036", "lat": 38.88453583333333}, {"rental_uris": {"ios": "https://dc.lft.to/lastmile_qr_scan", "android": "https://dc.lft.to/lastmile_qr_scan"}, "is_disabled": 0, "bike_id": "a5a1f93a84085b1f082e2622086cd4c4", "fusion_lon": 0.0, "fusion_lat": 0.0, "is_reserved": 0, "type": "electric_scooter", "lon": -76.9360895, "name": "a5a1f93a84085b1f082e2622086cd4c4", "lat": 38.896841}, {"rental_uris": {"ios": "https://dc.lft.to/lastmile_qr_scan", "android": "https://dc.lft.to/lastmile_qr_scan"}, "is_disabled": 0, "bike_id": "8cf2b3fe28370f251c84c937f48e3512", "fusion_lon": 0.0, "fusion_lat": 0.0, "is_reserved": 0, "type": "electric_scooter", "lon": -77.02714966666667, "name": "8cf2b3fe28370f251c84c937f48e3512", "lat": 38.901626}, {"rental_uris": {"ios": "https://dc.lft.to/lastmile_qr_scan", "android": "https://dc.lft.to/lastmile_qr_scan"}, "is_disabled": 0, "bike_id": "e66c500ecfb617c7f2c0bddfc6328e19", "fusion_lon": 0.0, "fusion_lat": 0.0, "is_reserved": 0, "type": "electric_scooter", "lon": -77.0334515, "name": "e66c500ecfb617c7f2c0bddfc6328e19", "lat": 38.90214116666667}, {"rental_uris": {"ios": "https://dc.lft.to/lastmile_qr_scan", "android": "https://dc.lft.to/lastmile_qr_scan"}, "is_disabled": 0, "bike_id": "ee66f3d7e782aa1966ac02e767bf062a", "fusion_lon": 0.0, "fusion_lat": 0.0, "is_reserved": 0, "type": "electric_scooter", "lon": -77.0419785, "name": "ee66f3d7e782aa1966ac02e767bf062a", "lat": 38.905712666666666}, {"rental_uris": {"ios": "https://dc.lft.to/lastmile_qr_scan", "android": "https://dc.lft.to/lastmile_qr_scan"}, "is_disabled": 0, "bike_id": "f5f5b1aff3e8d50567fee56edbc5fa0b", "fusion_lon": 0.0, "fusion_lat": 0.0, "is_reserved": 0, "type": "electric_scooter", "lon": -76.998407, "name": "f5f5b1aff3e8d50567fee56edbc5fa0b", "lat": 38.90029833333333}, {"rental_uris": {"ios": "https://dc.lft.to/lastmile_qr_scan", "android": "https://dc.lft.to/lastmile_qr_scan"}, "is_disabled": 0, "bike_id": "13e76178cb7302c19849720dd510c8d2", "fusion_lon": 0.0, "fusion_lat": 0.0, "is_reserved": 0, "type": "electric_scooter", "lon": -76.94844766666667, "name": "13e76178cb7302c19849720dd510c8d2", "lat": 38.896032}, {"rental_uris": {"ios": "https://dc.lft.to/lastmile_qr_scan", "android": "https://dc.lft.to/lastmile_qr_scan"}, "is_disabled": 0, "bike_id": "39a6672059112ea2c3852bb29870cc4e", "fusion_lon": 0.0, "fusion_lat": 0.0, "is_reserved": 0, "type": "electric_bike", "lon": -77.0262, "name": "39a6672059112ea2c3852bb29870cc4e", "lat": 38.969326333333335}, {"rental_uris": {"ios": "https://dc.lft.to/lastmile_qr_scan", "android": "https://dc.lft.to/lastmile_qr_scan"}, "is_disabled": 0, "bike_id": "f67e8363206c16ab318d70500cfab7fc", "fusion_lon": 0.0, "fusion_lat": 0.0, "is_reserved": 0, "type": "electric_scooter", "lon": -77.02208333333333, "name": "f67e8363206c16ab318d70500cfab7fc", "lat": 38.900345}, {"rental_uris": {"ios": "https://dc.lft.to/lastmile_qr_scan", "android": "https://dc.lft.to/lastmile_qr_scan"}, "is_disabled": 0, "bike_id": "82bf54677c71fbda6effbaf1120de359", "fusion_lon": 0.0, "fusion_lat": 0.0, "is_reserved": 0, "type": "electric_bike", "lon": -77.118013, "name": "82bf54677c71fbda6effbaf1120de359", "lat": 38.87378116666667}, {"rental_uris": {"ios": "https://dc.lft.to/lastmile_qr_scan", "android": "https://dc.lft.to/lastmile_qr_scan"}, "is_disabled": 0, "bike_id": "88720abbab6a00cc12dd1c7b1bf4d55a", "fusion_lon": 0.0, "fusion_lat": 0.0, "is_reserved": 0, "type": "electric_scooter", "lon": -76.9652955, "name": "88720abbab6a00cc12dd1c7b1bf4d55a", "lat": 38.8762935}, {"rental_uris": {"ios": "https://dc.lft.to/lastmile_qr_scan", "android": "https://dc.lft.to/lastmile_qr_scan"}, "is_disabled": 0, "bike_id": "b21950644b8264aae26c3a9feaee2c82", "fusion_lon": 0.0, "fusion_lat": 0.0, "is_reserved": 0, "type": "electric_scooter", "lon": -77.037563, "name": "b21950644b8264aae26c3a9feaee2c82", "lat": 38.90678916666667}, {"rental_uris": {"ios": "https://dc.lft.to/lastmile_qr_scan", "android": "https://dc.lft.to/lastmile_qr_scan"}, "is_disabled": 0, "bike_id": "4b37355966d5e449b230697fa8ca41ea", "fusion_lon": 0.0, "fusion_lat": 0.0, "is_reserved": 0, "type": "electric_scooter", "lon": -77.03165033333333, "name": "4b37355966d5e449b230697fa8ca41ea", "lat": 38.8962045}, {"rental_uris": {"ios": "https://dc.lft.to/lastmile_qr_scan", "android": "https://dc.lft.to/lastmile_qr_scan"}, "is_disabled": 0, "bike_id": "a9ab6868385573e61c0e098f6d595965", "fusion_lon": 0.0, "fusion_lat": 0.0, "is_reserved": 0, "type": "electric_scooter", "lon": -77.05490283333333, "name": "a9ab6868385573e61c0e098f6d595965", "lat": 38.909415833333334}, {"rental_uris": {"ios": "https://dc.lft.to/lastmile_qr_scan", "android": "https://dc.lft.to/lastmile_qr_scan"}, "is_disabled": 0, "bike_id": "b23e6d2017f9bdb0b2d4435af8ed0eb6", "fusion_lon": 0.0, "fusion_lat": 0.0, "is_reserved": 0, "type": "electric_scooter", "lon": -76.9653195, "name": "b23e6d2017f9bdb0b2d4435af8ed0eb6", "lat": 38.87632283333333}, {"rental_uris": {"ios": "https://dc.lft.to/lastmile_qr_scan", "android": "https://dc.lft.to/lastmile_qr_scan"}, "is_disabled": 0, "bike_id": "e15e22bbe4f20e10beadff5ff1976bf7", "fusion_lon": 0.0, "fusion_lat": 0.0, "is_reserved": 0, "type": "electric_bike", "lon": -77.04761916666666, "name": "e15e22bbe4f20e10beadff5ff1976bf7", "lat": 38.902454}, {"rental_uris": {"ios": "https://dc.lft.to/lastmile_qr_scan", "android": "https://dc.lft.to/lastmile_qr_scan"}, "is_disabled": 0, "bike_id": "00ed5f3984adff296fa2b04e0b83cb76", "fusion_lon": 0.0, "fusion_lat": 0.0, "is_reserved": 0, "type": "electric_scooter", "lon": -77.04500666666667, "name": "00ed5f3984adff296fa2b04e0b83cb76", "lat": 38.91593116666667}, {"rental_uris": {"ios": "https://dc.lft.to/lastmile_qr_scan", "android": "https://dc.lft.to/lastmile_qr_scan"}, "is_disabled": 0, "bike_id": "5bcc6b3756b40b151bbcd30e8a78da38", "fusion_lon": 0.0, "fusion_lat": 0.0, "is_reserved": 0, "type": "electric_scooter", "lon": -77.03246833333333, "name": "5bcc6b3756b40b151bbcd30e8a78da38", "lat": 38.909752166666664}, {"rental_uris": {"ios": "https://dc.lft.to/lastmile_qr_scan", "android": "https://dc.lft.to/lastmile_qr_scan"}, "is_disabled": 0, "bike_id": "10cc6c133fbc99f767602f6eaf4bc84a", "fusion_lon": 0.0, "fusion_lat": 0.0, "is_reserved": 0, "type": "electric_scooter", "lon": -77.02302966666667, "name": "10cc6c133fbc99f767602f6eaf4bc84a", "lat": 38.916184}, {"rental_uris": {"ios": "https://dc.lft.to/lastmile_qr_scan", "android": "https://dc.lft.to/lastmile_qr_scan"}, "is_disabled": 0, "bike_id": "49b3afa5aa63c34c106933020e36b4b8", "fusion_lon": 0.0, "fusion_lat": 0.0, "is_reserved": 0, "type": "electric_scooter", "lon": -77.0267475, "name": "49b3afa5aa63c34c106933020e36b4b8", "lat": 38.897595}, {"rental_uris": {"ios": "https://dc.lft.to/lastmile_qr_scan", "android": "https://dc.lft.to/lastmile_qr_scan"}, "is_disabled": 0, "bike_id": "bab753a79aca75931e1beb2c42845235", "fusion_lon": 0.0, "fusion_lat": 0.0, "is_reserved": 0, "type": "electric_scooter", "lon": -77.02284583333334, "name": "bab753a79aca75931e1beb2c42845235", "lat": 38.916873}, {"rental_uris": {"ios": "https://dc.lft.to/lastmile_qr_scan", "android": "https://dc.lft.to/lastmile_qr_scan"}, "is_disabled": 0, "bike_id": "a443b5d4ca03bcc4e7cf319c0d3d0b6a", "fusion_lon": 0.0, "fusion_lat": 0.0, "is_reserved": 0, "type": "electric_scooter", "lon": -76.98540683333333, "name": "a443b5d4ca03bcc4e7cf319c0d3d0b6a", "lat": 38.86677616666667}, {"rental_uris": {"ios": "https://dc.lft.to/lastmile_qr_scan", "android": "https://dc.lft.to/lastmile_qr_scan"}, "is_disabled": 0, "bike_id": "7ac6b6cef43a26d2ec11e556a79aea29", "fusion_lon": 0.0, "fusion_lat": 0.0, "is_reserved": 0, "type": "electric_scooter", "lon": -77.04017766666666, "name": "7ac6b6cef43a26d2ec11e556a79aea29", "lat": 38.922142666666666}, {"rental_uris": {"ios": "https://dc.lft.to/lastmile_qr_scan", "android": "https://dc.lft.to/lastmile_qr_scan"}, "is_disabled": 0, "bike_id": "d1bcef7ad35106273eecf4fdcd2f2052", "fusion_lon": 0.0, "fusion_lat": 0.0, "is_reserved": 0, "type": "electric_scooter", "lon": -77.03771016666667, "name": "d1bcef7ad35106273eecf4fdcd2f2052", "lat": 38.907012}, {"rental_uris": {"ios": "https://dc.lft.to/lastmile_qr_scan", "android": "https://dc.lft.to/lastmile_qr_scan"}, "is_disabled": 0, "bike_id": "f60c12273305bc25026a141c5171af93", "fusion_lon": 0.0, "fusion_lat": 0.0, "is_reserved": 0, "type": "electric_bike", "lon": -76.98107166666667, "name": "f60c12273305bc25026a141c5171af93", "lat": 38.87731766666667}, {"rental_uris": {"ios": "https://dc.lft.to/lastmile_qr_scan", "android": "https://dc.lft.to/lastmile_qr_scan"}, "is_disabled": 0, "bike_id": "f5a4f0448353d041a4254e873933ffd2", "fusion_lon": 0.0, "fusion_lat": 0.0, "is_reserved": 0, "type": "electric_scooter", "lon": -77.031631, "name": "f5a4f0448353d041a4254e873933ffd2", "lat": 38.892224}, {"rental_uris": {"ios": "https://dc.lft.to/lastmile_qr_scan", "android": "https://dc.lft.to/lastmile_qr_scan"}, "is_disabled": 0, "bike_id": "c7217e9886423705a105615b476f8406", "fusion_lon": 0.0, "fusion_lat": 0.0, "is_reserved": 0, "type": "electric_scooter", "lon": -77.04519966666666, "name": "c7217e9886423705a105615b476f8406", "lat": 38.93315033333333}, {"rental_uris": {"ios": "https://dc.lft.to/lastmile_qr_scan", "android": "https://dc.lft.to/lastmile_qr_scan"}, "is_disabled": 0, "bike_id": "085bdfd7e2fd852c58f2be124efe4cf3", "fusion_lon": 0.0, "fusion_lat": 0.0, "is_reserved": 0, "type": "electric_scooter", "lon": -77.048684, "name": "085bdfd7e2fd852c58f2be124efe4cf3", "lat": 38.905797166666666}, {"rental_uris": {"ios": "https://dc.lft.to/lastmile_qr_scan", "android": "https://dc.lft.to/lastmile_qr_scan"}, "is_disabled": 0, "bike_id": "dc8654929dae345af7fa10f835cd5f91", "fusion_lon": 0.0, "fusion_lat": 0.0, "is_reserved": 0, "type": "electric_scooter", "lon": -77.00077066666667, "name": "dc8654929dae345af7fa10f835cd5f91", "lat": 38.897432}, {"rental_uris": {"ios": "https://dc.lft.to/lastmile_qr_scan", "android": "https://dc.lft.to/lastmile_qr_scan"}, "is_disabled": 0, "bike_id": "7406fed304dc8c7fe208ca3c801aa57c", "fusion_lon": 0.0, "fusion_lat": 0.0, "is_reserved": 0, "type": "electric_scooter", "lon": -77.020285, "name": "7406fed304dc8c7fe208ca3c801aa57c", "lat": 38.898742166666665}, {"rental_uris": {"ios": "https://dc.lft.to/lastmile_qr_scan", "android": "https://dc.lft.to/lastmile_qr_scan"}, "is_disabled": 0, "bike_id": "28f87f7c092aead9cce01d4a97f3184a", "fusion_lon": 0.0, "fusion_lat": 0.0, "is_reserved": 0, "type": "electric_scooter", "lon": -77.04363716666667, "name": "28f87f7c092aead9cce01d4a97f3184a", "lat": 38.89853883333333}, {"rental_uris": {"ios": "https://dc.lft.to/lastmile_qr_scan", "android": "https://dc.lft.to/lastmile_qr_scan"}, "is_disabled": 0, "bike_id": "296b74599dbebf33dbc764e0d0ac600f", "fusion_lon": 0.0, "fusion_lat": 0.0, "is_reserved": 0, "type": "electric_scooter", "lon": -77.01617933333333, "name": "296b74599dbebf33dbc764e0d0ac600f", "lat": 38.89827566666666}, {"rental_uris": {"ios": "https://dc.lft.to/lastmile_qr_scan", "android": "https://dc.lft.to/lastmile_qr_scan"}, "is_disabled": 0, "bike_id": "ccff78e7245e503bca3e53faed843140", "fusion_lon": 0.0, "fusion_lat": 0.0, "is_reserved": 0, "type": "electric_scooter", "lon": -77.0319835, "name": "ccff78e7245e503bca3e53faed843140", "lat": 38.910409666666666}, {"rental_uris": {"ios": "https://dc.lft.to/lastmile_qr_scan", "android": "https://dc.lft.to/lastmile_qr_scan"}, "is_disabled": 0, "bike_id": "2da49d118190d1d3bb94d50c669d2414", "fusion_lon": 0.0, "fusion_lat": 0.0, "is_reserved": 0, "type": "electric_bike", "lon": -77.01770733333333, "name": "2da49d118190d1d3bb94d50c669d2414", "lat": 38.87806583333333}, {"rental_uris": {"ios": "https://dc.lft.to/lastmile_qr_scan", "android": "https://dc.lft.to/lastmile_qr_scan"}, "is_disabled": 0, "bike_id": "00fefb8b7aa291fdfccdf38347cda16c", "fusion_lon": 0.0, "fusion_lat": 0.0, "is_reserved": 0, "type": "electric_scooter", "lon": -77.034345, "name": "00fefb8b7aa291fdfccdf38347cda16c", "lat": 38.903421}, {"rental_uris": {"ios": "https://dc.lft.to/lastmile_qr_scan", "android": "https://dc.lft.to/lastmile_qr_scan"}, "is_disabled": 0, "bike_id": "c377745de54bdb4b717caee0f3f1bdcb", "fusion_lon": 0.0, "fusion_lat": 0.0, "is_reserved": 0, "type": "electric_scooter", "lon": -77.02566783333333, "name": "c377745de54bdb4b717caee0f3f1bdcb", "lat": 38.899589}, {"rental_uris": {"ios": "https://dc.lft.to/lastmile_qr_scan", "android": "https://dc.lft.to/lastmile_qr_scan"}, "is_disabled": 0, "bike_id": "124e4950251efec188ca1604dafc5830", "fusion_lon": 0.0, "fusion_lat": 0.0, "is_reserved": 0, "type": "electric_scooter", "lon": -77.0387135, "name": "124e4950251efec188ca1604dafc5830", "lat": 38.91044433333333}, {"rental_uris": {"ios": "https://dc.lft.to/lastmile_qr_scan", "android": "https://dc.lft.to/lastmile_qr_scan"}, "is_disabled": 0, "bike_id": "e41393da957d26d5a50ddf1170a5d265", "fusion_lon": 0.0, "fusion_lat": 0.0, "is_reserved": 0, "type": "electric_scooter", "lon": -77.0286285, "name": "e41393da957d26d5a50ddf1170a5d265", "lat": 38.9014825}, {"rental_uris": {"ios": "https://dc.lft.to/lastmile_qr_scan", "android": "https://dc.lft.to/lastmile_qr_scan"}, "is_disabled": 0, "bike_id": "7305f2b2a9e38e31f52120341d132a45", "fusion_lon": 0.0, "fusion_lat": 0.0, "is_reserved": 0, "type": "electric_scooter", "lon": -77.0261535, "name": "7305f2b2a9e38e31f52120341d132a45", "lat": 38.914123833333335}, {"rental_uris": {"ios": "https://dc.lft.to/lastmile_qr_scan", "android": "https://dc.lft.to/lastmile_qr_scan"}, "is_disabled": 0, "bike_id": "866b035130f19778e77a49b8063c7b64", "fusion_lon": 0.0, "fusion_lat": 0.0, "is_reserved": 0, "type": "electric_scooter", "lon": -77.04838516666666, "name": "866b035130f19778e77a49b8063c7b64", "lat": 38.911091666666664}, {"rental_uris": {"ios": "https://dc.lft.to/lastmile_qr_scan", "android": "https://dc.lft.to/lastmile_qr_scan"}, "is_disabled": 0, "bike_id": "78383efbdf83ad8fb83634d9c6dbdd4e", "fusion_lon": 0.0, "fusion_lat": 0.0, "is_reserved": 0, "type": "electric_scooter", "lon": -77.05029133333333, "name": "78383efbdf83ad8fb83634d9c6dbdd4e", "lat": 38.90679883333333}, {"rental_uris": {"ios": "https://dc.lft.to/lastmile_qr_scan", "android": "https://dc.lft.to/lastmile_qr_scan"}, "is_disabled": 0, "bike_id": "3e770e7d0c543943bd5ef0c0a737f36e", "fusion_lon": 0.0, "fusion_lat": 0.0, "is_reserved": 0, "type": "electric_scooter", "lon": -77.03738466666667, "name": "3e770e7d0c543943bd5ef0c0a737f36e", "lat": 38.8818245}, {"rental_uris": {"ios": "https://dc.lft.to/lastmile_qr_scan", "android": "https://dc.lft.to/lastmile_qr_scan"}, "is_disabled": 0, "bike_id": "7ee203d99f7e80c02450800891eba93c", "fusion_lon": 0.0, "fusion_lat": 0.0, "is_reserved": 0, "type": "electric_scooter", "lon": -77.0230965, "name": "7ee203d99f7e80c02450800891eba93c", "lat": 38.9179065}, {"rental_uris": {"ios": "https://dc.lft.to/lastmile_qr_scan", "android": "https://dc.lft.to/lastmile_qr_scan"}, "is_disabled": 0, "bike_id": "2d4cd3aabf363a91ca3595a8054fbf89", "fusion_lon": 0.0, "fusion_lat": 0.0, "is_reserved": 0, "type": "electric_scooter", "lon": -77.05468283333333, "name": "2d4cd3aabf363a91ca3595a8054fbf89", "lat": 38.89607983333333}, {"rental_uris": {"ios": "https://dc.lft.to/lastmile_qr_scan", "android": "https://dc.lft.to/lastmile_qr_scan"}, "is_disabled": 0, "bike_id": "7a4c7307a513ecdff7fb7cc13d529c14", "fusion_lon": 0.0, "fusion_lat": 0.0, "is_reserved": 0, "type": "electric_scooter", "lon": -77.04042683333333, "name": "7a4c7307a513ecdff7fb7cc13d529c14", "lat": 38.91705616666667}, {"rental_uris": {"ios": "https://dc.lft.to/lastmile_qr_scan", "android": "https://dc.lft.to/lastmile_qr_scan"}, "is_disabled": 0, "bike_id": "dd465b1f97e3e5e927e97b53e2b91183", "fusion_lon": 0.0, "fusion_lat": 0.0, "is_reserved": 0, "type": "electric_scooter", "lon": -77.0576055, "name": "dd465b1f97e3e5e927e97b53e2b91183", "lat": 38.93379266666667}, {"rental_uris": {"ios": "https://dc.lft.to/lastmile_qr_scan", "android": "https://dc.lft.to/lastmile_qr_scan"}, "is_disabled": 0, "bike_id": "c62ac74e77e68af8519cabf3822d5bb1", "fusion_lon": 0.0, "fusion_lat": 0.0, "is_reserved": 0, "type": "electric_scooter", "lon": -77.02179733333334, "name": "c62ac74e77e68af8519cabf3822d5bb1", "lat": 38.9174395}, {"rental_uris": {"ios": "https://dc.lft.to/lastmile_qr_scan", "android": "https://dc.lft.to/lastmile_qr_scan"}, "is_disabled": 0, "bike_id": "8a1f11a647718ca1b68be36392d60580", "fusion_lon": 0.0, "fusion_lat": 0.0, "is_reserved": 0, "type": "electric_scooter", "lon": -77.04508683333333, "name": "8a1f11a647718ca1b68be36392d60580", "lat": 38.912832}, {"rental_uris": {"ios": "https://dc.lft.to/lastmile_qr_scan", "android": "https://dc.lft.to/lastmile_qr_scan"}, "is_disabled": 0, "bike_id": "788dff84e448f742588334d2814eba6b", "fusion_lon": 0.0, "fusion_lat": 0.0, "is_reserved": 0, "type": "electric_scooter", "lon": -77.0190305, "name": "788dff84e448f742588334d2814eba6b", "lat": 38.923487333333334}, {"rental_uris": {"ios": "https://dc.lft.to/lastmile_qr_scan", "android": "https://dc.lft.to/lastmile_qr_scan"}, "is_disabled": 0, "bike_id": "b7eb55a2b1f3f298acdcf447e8be7ad9", "fusion_lon": 0.0, "fusion_lat": 0.0, "is_reserved": 0, "type": "electric_scooter", "lon": -76.99139483333333, "name": "b7eb55a2b1f3f298acdcf447e8be7ad9", "lat": 38.85954983333333}, {"rental_uris": {"ios": "https://dc.lft.to/lastmile_qr_scan", "android": "https://dc.lft.to/lastmile_qr_scan"}, "is_disabled": 0, "bike_id": "c1a636412be6365af3516b19a02794d5", "fusion_lon": 0.0, "fusion_lat": 0.0, "is_reserved": 0, "type": "electric_scooter", "lon": -77.01973916666667, "name": "c1a636412be6365af3516b19a02794d5", "lat": 38.902411}, {"rental_uris": {"ios": "https://dc.lft.to/lastmile_qr_scan", "android": "https://dc.lft.to/lastmile_qr_scan"}, "is_disabled": 0, "bike_id": "a8d89a133a2a70c7ec2a6dfc9117b9d3", "fusion_lon": 0.0, "fusion_lat": 0.0, "is_reserved": 0, "type": "electric_scooter", "lon": -77.03239333333333, "name": "a8d89a133a2a70c7ec2a6dfc9117b9d3", "lat": 38.909756}, {"rental_uris": {"ios": "https://dc.lft.to/lastmile_qr_scan", "android": "https://dc.lft.to/lastmile_qr_scan"}, "is_disabled": 0, "bike_id": "b01c02d4bb3b16cb45af366822eb1f64", "fusion_lon": 0.0, "fusion_lat": 0.0, "is_reserved": 0, "type": "electric_scooter", "lon": -76.9984875, "name": "b01c02d4bb3b16cb45af366822eb1f64", "lat": 38.901655833333336}, {"rental_uris": {"ios": "https://dc.lft.to/lastmile_qr_scan", "android": "https://dc.lft.to/lastmile_qr_scan"}, "is_disabled": 0, "bike_id": "ac354f90d10e7b000e324e39113c479b", "fusion_lon": 0.0, "fusion_lat": 0.0, "is_reserved": 0, "type": "electric_scooter", "lon": -77.0153165, "name": "ac354f90d10e7b000e324e39113c479b", "lat": 38.88737783333333}, {"rental_uris": {"ios": "https://dc.lft.to/lastmile_qr_scan", "android": "https://dc.lft.to/lastmile_qr_scan"}, "is_disabled": 0, "bike_id": "335ce94cc05a36fdf1b8f914ad7da7da", "fusion_lon": 0.0, "fusion_lat": 0.0, "is_reserved": 0, "type": "electric_scooter", "lon": -77.03639166666666, "name": "335ce94cc05a36fdf1b8f914ad7da7da", "lat": 38.9176525}, {"rental_uris": {"ios": "https://dc.lft.to/lastmile_qr_scan", "android": "https://dc.lft.to/lastmile_qr_scan"}, "is_disabled": 0, "bike_id": "cbb28690e6ffc854e818090dbdaf83c1", "fusion_lon": 0.0, "fusion_lat": 0.0, "is_reserved": 0, "type": "electric_scooter", "lon": -77.03162383333333, "name": "cbb28690e6ffc854e818090dbdaf83c1", "lat": 38.9186945}, {"rental_uris": {"ios": "https://dc.lft.to/lastmile_qr_scan", "android": "https://dc.lft.to/lastmile_qr_scan"}, "is_disabled": 0, "bike_id": "b1f731492a581f3302eee3e29cbea41b", "fusion_lon": 0.0, "fusion_lat": 0.0, "is_reserved": 0, "type": "electric_scooter", "lon": -77.03125933333334, "name": "b1f731492a581f3302eee3e29cbea41b", "lat": 38.89831}, {"rental_uris": {"ios": "https://dc.lft.to/lastmile_qr_scan", "android": "https://dc.lft.to/lastmile_qr_scan"}, "is_disabled": 0, "bike_id": "7108b6c5bd9afa3aeb784370e470ec95", "fusion_lon": 0.0, "fusion_lat": 0.0, "is_reserved": 0, "type": "electric_bike", "lon": -76.94220116666666, "name": "7108b6c5bd9afa3aeb784370e470ec95", "lat": 38.892731}, {"rental_uris": {"ios": "https://dc.lft.to/lastmile_qr_scan", "android": "https://dc.lft.to/lastmile_qr_scan"}, "is_disabled": 0, "bike_id": "7456b3c82715bb19c446e066a0f73d34", "fusion_lon": 0.0, "fusion_lat": 0.0, "is_reserved": 0, "type": "electric_scooter", "lon": -77.02414433333334, "name": "7456b3c82715bb19c446e066a0f73d34", "lat": 38.9073145}, {"rental_uris": {"ios": "https://dc.lft.to/lastmile_qr_scan", "android": "https://dc.lft.to/lastmile_qr_scan"}, "is_disabled": 0, "bike_id": "f84b160ce5cf361e9449e671bc6dc57d", "fusion_lon": 0.0, "fusion_lat": 0.0, "is_reserved": 0, "type": "electric_scooter", "lon": -77.042558, "name": "f84b160ce5cf361e9449e671bc6dc57d", "lat": 38.9227025}, {"rental_uris": {"ios": "https://dc.lft.to/lastmile_qr_scan", "android": "https://dc.lft.to/lastmile_qr_scan"}, "is_disabled": 0, "bike_id": "2b2fa06149f31f2000e85c931cf44347", "fusion_lon": 0.0, "fusion_lat": 0.0, "is_reserved": 0, "type": "electric_scooter", "lon": -77.00409016666667, "name": "2b2fa06149f31f2000e85c931cf44347", "lat": 38.876667833333336}, {"rental_uris": {"ios": "https://dc.lft.to/lastmile_qr_scan", "android": "https://dc.lft.to/lastmile_qr_scan"}, "is_disabled": 0, "bike_id": "d36a21e0bfbeaed9691640bee017e405", "fusion_lon": 0.0, "fusion_lat": 0.0, "is_reserved": 0, "type": "electric_scooter", "lon": -77.034415, "name": "d36a21e0bfbeaed9691640bee017e405", "lat": 38.91799133333333}, {"rental_uris": {"ios": "https://dc.lft.to/lastmile_qr_scan", "android": "https://dc.lft.to/lastmile_qr_scan"}, "is_disabled": 0, "bike_id": "c1bd4b5d1661963a9af6f81ce36f7f5f", "fusion_lon": 0.0, "fusion_lat": 0.0, "is_reserved": 0, "type": "electric_scooter", "lon": -76.95244733333334, "name": "c1bd4b5d1661963a9af6f81ce36f7f5f", "lat": 38.89041816666666}, {"rental_uris": {"ios": "https://dc.lft.to/lastmile_qr_scan", "android": "https://dc.lft.to/lastmile_qr_scan"}, "is_disabled": 0, "bike_id": "3407b023b52223d8f74419c69fc101ac", "fusion_lon": 0.0, "fusion_lat": 0.0, "is_reserved": 0, "type": "electric_scooter", "lon": -76.94652916666666, "name": "3407b023b52223d8f74419c69fc101ac", "lat": 38.89826266666667}, {"rental_uris": {"ios": "https://dc.lft.to/lastmile_qr_scan", "android": "https://dc.lft.to/lastmile_qr_scan"}, "is_disabled": 0, "bike_id": "bc8515de84a96fdda0cf77293094b078", "fusion_lon": 0.0, "fusion_lat": 0.0, "is_reserved": 0, "type": "electric_scooter", "lon": -77.03790783333334, "name": "bc8515de84a96fdda0cf77293094b078", "lat": 38.91125733333333}, {"rental_uris": {"ios": "https://dc.lft.to/lastmile_qr_scan", "android": "https://dc.lft.to/lastmile_qr_scan"}, "is_disabled": 0, "bike_id": "ca53ef7afe47dafecc8167e9e5d07e3e", "fusion_lon": 0.0, "fusion_lat": 0.0, "is_reserved": 0, "type": "electric_bike", "lon": -77.1252525, "name": "ca53ef7afe47dafecc8167e9e5d07e3e", "lat": 39.05633533333334}, {"rental_uris": {"ios": "https://dc.lft.to/lastmile_qr_scan", "android": "https://dc.lft.to/lastmile_qr_scan"}, "is_disabled": 0, "bike_id": "18dd5f5b4c9c706bc85e5402713356be", "fusion_lon": 0.0, "fusion_lat": 0.0, "is_reserved": 0, "type": "electric_scooter", "lon": -77.04391866666667, "name": "18dd5f5b4c9c706bc85e5402713356be", "lat": 38.902824333333335}, {"rental_uris": {"ios": "https://dc.lft.to/lastmile_qr_scan", "android": "https://dc.lft.to/lastmile_qr_scan"}, "is_disabled": 0, "bike_id": "b8c3741fbc5170ecfeb9e7320f48fa83", "fusion_lon": 0.0, "fusion_lat": 0.0, "is_reserved": 0, "type": "electric_scooter", "lon": -77.0447885, "name": "b8c3741fbc5170ecfeb9e7320f48fa83", "lat": 38.9078475}, {"rental_uris": {"ios": "https://dc.lft.to/lastmile_qr_scan", "android": "https://dc.lft.to/lastmile_qr_scan"}, "is_disabled": 0, "bike_id": "e19a7475f19a17c191a2791f3a20d638", "fusion_lon": 0.0, "fusion_lat": 0.0, "is_reserved": 0, "type": "electric_scooter", "lon": -77.02967016666666, "name": "e19a7475f19a17c191a2791f3a20d638", "lat": 38.922922}, {"rental_uris": {"ios": "https://dc.lft.to/lastmile_qr_scan", "android": "https://dc.lft.to/lastmile_qr_scan"}, "is_disabled": 0, "bike_id": "61dc34bc6205b9ee79c5d9a3de6d0e5b", "fusion_lon": 0.0, "fusion_lat": 0.0, "is_reserved": 0, "type": "electric_scooter", "lon": -77.04853866666667, "name": "61dc34bc6205b9ee79c5d9a3de6d0e5b", "lat": 38.90544583333333}, {"rental_uris": {"ios": "https://dc.lft.to/lastmile_qr_scan", "android": "https://dc.lft.to/lastmile_qr_scan"}, "is_disabled": 0, "bike_id": "241af204976819adf6497dc0aec2c2a4", "fusion_lon": 0.0, "fusion_lat": 0.0, "is_reserved": 0, "type": "electric_scooter", "lon": -77.0153345, "name": "241af204976819adf6497dc0aec2c2a4", "lat": 38.887425}, {"rental_uris": {"ios": "https://dc.lft.to/lastmile_qr_scan", "android": "https://dc.lft.to/lastmile_qr_scan"}, "is_disabled": 0, "bike_id": "fffed6749fffe98b206f2fcbe1ca824b", "fusion_lon": 0.0, "fusion_lat": 0.0, "is_reserved": 0, "type": "electric_scooter", "lon": -77.0341765, "name": "fffed6749fffe98b206f2fcbe1ca824b", "lat": 38.9274925}, {"rental_uris": {"ios": "https://dc.lft.to/lastmile_qr_scan", "android": "https://dc.lft.to/lastmile_qr_scan"}, "is_disabled": 0, "bike_id": "e453275e539392b6b26d18b868ea67ac", "fusion_lon": 0.0, "fusion_lat": 0.0, "is_reserved": 0, "type": "electric_scooter", "lon": -77.0656095, "name": "e453275e539392b6b26d18b868ea67ac", "lat": 38.9549245}, {"rental_uris": {"ios": "https://dc.lft.to/lastmile_qr_scan", "android": "https://dc.lft.to/lastmile_qr_scan"}, "is_disabled": 0, "bike_id": "15d5a8a62cf14507c1701ce52a3bc6a1", "fusion_lon": 0.0, "fusion_lat": 0.0, "is_reserved": 0, "type": "electric_scooter", "lon": -77.01864383333333, "name": "15d5a8a62cf14507c1701ce52a3bc6a1", "lat": 38.95154266666667}, {"rental_uris": {"ios": "https://dc.lft.to/lastmile_qr_scan", "android": "https://dc.lft.to/lastmile_qr_scan"}, "is_disabled": 0, "bike_id": "ee9bfd500ea48bbd2d0137a71c16315a", "fusion_lon": 0.0, "fusion_lat": 0.0, "is_reserved": 0, "type": "electric_scooter", "lon": -77.0451945, "name": "ee9bfd500ea48bbd2d0137a71c16315a", "lat": 38.903754666666664}, {"rental_uris": {"ios": "https://dc.lft.to/lastmile_qr_scan", "android": "https://dc.lft.to/lastmile_qr_scan"}, "is_disabled": 0, "bike_id": "c8242efa41b45002f41f0c7fd7ce6014", "fusion_lon": 0.0, "fusion_lat": 0.0, "is_reserved": 0, "type": "electric_scooter", "lon": -77.03745983333333, "name": "c8242efa41b45002f41f0c7fd7ce6014", "lat": 38.93079983333333}, {"rental_uris": {"ios": "https://dc.lft.to/lastmile_qr_scan", "android": "https://dc.lft.to/lastmile_qr_scan"}, "is_disabled": 0, "bike_id": "60c09fe4cf6570aad1e84f04543a20fb", "fusion_lon": 0.0, "fusion_lat": 0.0, "is_reserved": 0, "type": "electric_scooter", "lon": -77.03173383333333, "name": "60c09fe4cf6570aad1e84f04543a20fb", "lat": 38.918696}, {"rental_uris": {"ios": "https://dc.lft.to/lastmile_qr_scan", "android": "https://dc.lft.to/lastmile_qr_scan"}, "is_disabled": 0, "bike_id": "531cdb2bc566a79fe5c59d92eaa92b0f", "fusion_lon": 0.0, "fusion_lat": 0.0, "is_reserved": 0, "type": "electric_scooter", "lon": -77.04210083333334, "name": "531cdb2bc566a79fe5c59d92eaa92b0f", "lat": 38.920644333333335}, {"rental_uris": {"ios": "https://dc.lft.to/lastmile_qr_scan", "android": "https://dc.lft.to/lastmile_qr_scan"}, "is_disabled": 0, "bike_id": "ed61368b61de6809de0e8d64b1e1c564", "fusion_lon": 0.0, "fusion_lat": 0.0, "is_reserved": 0, "type": "electric_scooter", "lon": -77.01838016666666, "name": "ed61368b61de6809de0e8d64b1e1c564", "lat": 38.9126725}, {"rental_uris": {"ios": "https://dc.lft.to/lastmile_qr_scan", "android": "https://dc.lft.to/lastmile_qr_scan"}, "is_disabled": 0, "bike_id": "002b689bd0fa438552146bc9dbbb029c", "fusion_lon": 0.0, "fusion_lat": 0.0, "is_reserved": 0, "type": "electric_bike", "lon": -77.07108883333333, "name": "002b689bd0fa438552146bc9dbbb029c", "lat": 38.8006035}, {"rental_uris": {"ios": "https://dc.lft.to/lastmile_qr_scan", "android": "https://dc.lft.to/lastmile_qr_scan"}, "is_disabled": 0, "bike_id": "23a117116e64c5ef8df98063f22069b7", "fusion_lon": 0.0, "fusion_lat": 0.0, "is_reserved": 0, "type": "electric_scooter", "lon": -77.03182116666666, "name": "23a117116e64c5ef8df98063f22069b7", "lat": 38.911992833333336}, {"rental_uris": {"ios": "https://dc.lft.to/lastmile_qr_scan", "android": "https://dc.lft.to/lastmile_qr_scan"}, "is_disabled": 0, "bike_id": "44bec6f84d6b0a698a5a7bea52ee2e6b", "fusion_lon": 0.0, "fusion_lat": 0.0, "is_reserved": 0, "type": "electric_bike", "lon": -77.22595, "name": "44bec6f84d6b0a698a5a7bea52ee2e6b", "lat": 38.9297455}, {"rental_uris": {"ios": "https://dc.lft.to/lastmile_qr_scan", "android": "https://dc.lft.to/lastmile_qr_scan"}, "is_disabled": 0, "bike_id": "46a04edbfe21a00e2bd073cc1a70cc9a", "fusion_lon": 0.0, "fusion_lat": 0.0, "is_reserved": 0, "type": "electric_scooter", "lon": -77.02061583333334, "name": "46a04edbfe21a00e2bd073cc1a70cc9a", "lat": 38.9084845}, {"rental_uris": {"ios": "https://dc.lft.to/lastmile_qr_scan", "android": "https://dc.lft.to/lastmile_qr_scan"}, "is_disabled": 0, "bike_id": "04cd1b4b53e7918106f475cc7f88f150", "fusion_lon": 0.0, "fusion_lat": 0.0, "is_reserved": 0, "type": "electric_scooter", "lon": -77.01996266666667, "name": "04cd1b4b53e7918106f475cc7f88f150", "lat": 38.91399583333333}, {"rental_uris": {"ios": "https://dc.lft.to/lastmile_qr_scan", "android": "https://dc.lft.to/lastmile_qr_scan"}, "is_disabled": 0, "bike_id": "6c1513e406fbdb1df0d5b309a123e2da", "fusion_lon": 0.0, "fusion_lat": 0.0, "is_reserved": 0, "type": "electric_scooter", "lon": -76.98944283333333, "name": "6c1513e406fbdb1df0d5b309a123e2da", "lat": 38.90400366666667}, {"rental_uris": {"ios": "https://dc.lft.to/lastmile_qr_scan", "android": "https://dc.lft.to/lastmile_qr_scan"}, "is_disabled": 0, "bike_id": "fdea90165546d4a9edb1cf4d857b1840", "fusion_lon": 0.0, "fusion_lat": 0.0, "is_reserved": 0, "type": "electric_scooter", "lon": -77.00709483333333, "name": "fdea90165546d4a9edb1cf4d857b1840", "lat": 38.88493283333333}, {"rental_uris": {"ios": "https://dc.lft.to/lastmile_qr_scan", "android": "https://dc.lft.to/lastmile_qr_scan"}, "is_disabled": 0, "bike_id": "476bb9a8be6b23857f820f82f1c7589e", "fusion_lon": 0.0, "fusion_lat": 0.0, "is_reserved": 0, "type": "electric_bike", "lon": -77.01553016666666, "name": "476bb9a8be6b23857f820f82f1c7589e", "lat": 38.88513666666667}, {"rental_uris": {"ios": "https://dc.lft.to/lastmile_qr_scan", "android": "https://dc.lft.to/lastmile_qr_scan"}, "is_disabled": 0, "bike_id": "0cb821fa29f2653ab3a665b3818b5f15", "fusion_lon": 0.0, "fusion_lat": 0.0, "is_reserved": 0, "type": "electric_bike", "lon": -77.06328616666667, "name": "0cb821fa29f2653ab3a665b3818b5f15", "lat": 38.921105}, {"rental_uris": {"ios": "https://dc.lft.to/lastmile_qr_scan", "android": "https://dc.lft.to/lastmile_qr_scan"}, "is_disabled": 0, "bike_id": "f62bfab5699cdf806746a1fe123288fc", "fusion_lon": 0.0, "fusion_lat": 0.0, "is_reserved": 0, "type": "electric_scooter", "lon": -76.9888735, "name": "f62bfab5699cdf806746a1fe123288fc", "lat": 38.866597666666664}, {"rental_uris": {"ios": "https://dc.lft.to/lastmile_qr_scan", "android": "https://dc.lft.to/lastmile_qr_scan"}, "is_disabled": 0, "bike_id": "fd1f98ee06da7e598f898ae58adba42a", "fusion_lon": 0.0, "fusion_lat": 0.0, "is_reserved": 0, "type": "electric_scooter", "lon": -77.02617116666667, "name": "fd1f98ee06da7e598f898ae58adba42a", "lat": 38.92769466666667}, {"rental_uris": {"ios": "https://dc.lft.to/lastmile_qr_scan", "android": "https://dc.lft.to/lastmile_qr_scan"}, "is_disabled": 0, "bike_id": "b0cee972cf38d885cb181b5d08f8cd9e", "fusion_lon": 0.0, "fusion_lat": 0.0, "is_reserved": 0, "type": "electric_scooter", "lon": -77.03469316666667, "name": "b0cee972cf38d885cb181b5d08f8cd9e", "lat": 38.922531666666664}, {"rental_uris": {"ios": "https://dc.lft.to/lastmile_qr_scan", "android": "https://dc.lft.to/lastmile_qr_scan"}, "is_disabled": 0, "bike_id": "8bfd08a9772480790be3742bbbf536df", "fusion_lon": 0.0, "fusion_lat": 0.0, "is_reserved": 0, "type": "electric_scooter", "lon": -77.00608183333334, "name": "8bfd08a9772480790be3742bbbf536df", "lat": 38.905772166666665}, {"rental_uris": {"ios": "https://dc.lft.to/lastmile_qr_scan", "android": "https://dc.lft.to/lastmile_qr_scan"}, "is_disabled": 0, "bike_id": "a0d212783fa763c005ad36d8772a5660", "fusion_lon": 0.0, "fusion_lat": 0.0, "is_reserved": 0, "type": "electric_scooter", "lon": -77.04264333333333, "name": "a0d212783fa763c005ad36d8772a5660", "lat": 38.91628016666667}, {"rental_uris": {"ios": "https://dc.lft.to/lastmile_qr_scan", "android": "https://dc.lft.to/lastmile_qr_scan"}, "is_disabled": 0, "bike_id": "c129a9b3a0d33b654553b99de19dcdaf", "fusion_lon": 0.0, "fusion_lat": 0.0, "is_reserved": 0, "type": "electric_scooter", "lon": -77.04174833333333, "name": "c129a9b3a0d33b654553b99de19dcdaf", "lat": 38.903053}, {"rental_uris": {"ios": "https://dc.lft.to/lastmile_qr_scan", "android": "https://dc.lft.to/lastmile_qr_scan"}, "is_disabled": 0, "bike_id": "53290fbdf0c7a7e8609c48a58433046a", "fusion_lon": 0.0, "fusion_lat": 0.0, "is_reserved": 0, "type": "electric_scooter", "lon": -77.032444, "name": "53290fbdf0c7a7e8609c48a58433046a", "lat": 38.9571365}, {"rental_uris": {"ios": "https://dc.lft.to/lastmile_qr_scan", "android": "https://dc.lft.to/lastmile_qr_scan"}, "is_disabled": 0, "bike_id": "41dd1d217a9006d88ce1050bbb619c38", "fusion_lon": 0.0, "fusion_lat": 0.0, "is_reserved": 0, "type": "electric_scooter", "lon": -77.07044883333333, "name": "41dd1d217a9006d88ce1050bbb619c38", "lat": 38.91921416666667}, {"rental_uris": {"ios": "https://dc.lft.to/lastmile_qr_scan", "android": "https://dc.lft.to/lastmile_qr_scan"}, "is_disabled": 0, "bike_id": "c0af6578fc2a399c4f12f1a0559ee215", "fusion_lon": 0.0, "fusion_lat": 0.0, "is_reserved": 0, "type": "electric_scooter", "lon": -76.97373233333333, "name": "c0af6578fc2a399c4f12f1a0559ee215", "lat": 38.88926033333333}, {"rental_uris": {"ios": "https://dc.lft.to/lastmile_qr_scan", "android": "https://dc.lft.to/lastmile_qr_scan"}, "is_disabled": 0, "bike_id": "6153a2062dabf3f30b3b3e7253640272", "fusion_lon": 0.0, "fusion_lat": 0.0, "is_reserved": 0, "type": "electric_scooter", "lon": -76.96862, "name": "6153a2062dabf3f30b3b3e7253640272", "lat": 38.8708075}, {"rental_uris": {"ios": "https://dc.lft.to/lastmile_qr_scan", "android": "https://dc.lft.to/lastmile_qr_scan"}, "is_disabled": 0, "bike_id": "3170a23837dbad7bab27ea9b1bc4f40d", "fusion_lon": 0.0, "fusion_lat": 0.0, "is_reserved": 0, "type": "electric_scooter", "lon": -77.02645166666667, "name": "3170a23837dbad7bab27ea9b1bc4f40d", "lat": 38.9440875}, {"rental_uris": {"ios": "https://dc.lft.to/lastmile_qr_scan", "android": "https://dc.lft.to/lastmile_qr_scan"}, "is_disabled": 0, "bike_id": "81a13f30145cf9ec0a2e2f41829d69e7", "fusion_lon": 0.0, "fusion_lat": 0.0, "is_reserved": 0, "type": "electric_scooter", "lon": -77.02004666666667, "name": "81a13f30145cf9ec0a2e2f41829d69e7", "lat": 38.901251}, {"rental_uris": {"ios": "https://dc.lft.to/lastmile_qr_scan", "android": "https://dc.lft.to/lastmile_qr_scan"}, "is_disabled": 0, "bike_id": "42f368c6ab96d3c8d03e73e608af26f6", "fusion_lon": 0.0, "fusion_lat": 0.0, "is_reserved": 0, "type": "electric_scooter", "lon": -77.00209616666666, "name": "42f368c6ab96d3c8d03e73e608af26f6", "lat": 38.900739}, {"rental_uris": {"ios": "https://dc.lft.to/lastmile_qr_scan", "android": "https://dc.lft.to/lastmile_qr_scan"}, "is_disabled": 0, "bike_id": "0d537507201cb8e4a66b7347174f0653", "fusion_lon": 0.0, "fusion_lat": 0.0, "is_reserved": 0, "type": "electric_scooter", "lon": -77.02921133333334, "name": "0d537507201cb8e4a66b7347174f0653", "lat": 38.90556083333333}, {"rental_uris": {"ios": "https://dc.lft.to/lastmile_qr_scan", "android": "https://dc.lft.to/lastmile_qr_scan"}, "is_disabled": 0, "bike_id": "fd360f256693cb45333e8c7a1dab9e5d", "fusion_lon": 0.0, "fusion_lat": 0.0, "is_reserved": 0, "type": "electric_scooter", "lon": -76.97720733333334, "name": "fd360f256693cb45333e8c7a1dab9e5d", "lat": 38.87244116666667}, {"rental_uris": {"ios": "https://dc.lft.to/lastmile_qr_scan", "android": "https://dc.lft.to/lastmile_qr_scan"}, "is_disabled": 0, "bike_id": "f5ec84dd94a4bb5a351cebb3562b9475", "fusion_lon": 0.0, "fusion_lat": 0.0, "is_reserved": 0, "type": "electric_bike", "lon": -76.9843375, "name": "f5ec84dd94a4bb5a351cebb3562b9475", "lat": 38.855194166666664}, {"rental_uris": {"ios": "https://dc.lft.to/lastmile_qr_scan", "android": "https://dc.lft.to/lastmile_qr_scan"}, "is_disabled": 0, "bike_id": "910bbbd418ecbde801b68935f079449f", "fusion_lon": 0.0, "fusion_lat": 0.0, "is_reserved": 0, "type": "electric_scooter", "lon": -77.0335005, "name": "910bbbd418ecbde801b68935f079449f", "lat": 38.916983}, {"rental_uris": {"ios": "https://dc.lft.to/lastmile_qr_scan", "android": "https://dc.lft.to/lastmile_qr_scan"}, "is_disabled": 0, "bike_id": "029d18a8693ac5d967807f048f219b04", "fusion_lon": 0.0, "fusion_lat": 0.0, "is_reserved": 0, "type": "electric_scooter", "lon": -77.02222816666666, "name": "029d18a8693ac5d967807f048f219b04", "lat": 38.912701166666665}, {"rental_uris": {"ios": "https://dc.lft.to/lastmile_qr_scan", "android": "https://dc.lft.to/lastmile_qr_scan"}, "is_disabled": 0, "bike_id": "d6eaa44cd303145cd69a0bd827a49066", "fusion_lon": 0.0, "fusion_lat": 0.0, "is_reserved": 0, "type": "electric_scooter", "lon": -77.03061916666667, "name": "d6eaa44cd303145cd69a0bd827a49066", "lat": 38.902716833333336}, {"rental_uris": {"ios": "https://dc.lft.to/lastmile_qr_scan", "android": "https://dc.lft.to/lastmile_qr_scan"}, "is_disabled": 0, "bike_id": "a6c252d4384186cf97011aabd7a74412", "fusion_lon": 0.0, "fusion_lat": 0.0, "is_reserved": 0, "type": "electric_scooter", "lon": -77.04771016666666, "name": "a6c252d4384186cf97011aabd7a74412", "lat": 38.90863516666667}, {"rental_uris": {"ios": "https://dc.lft.to/lastmile_qr_scan", "android": "https://dc.lft.to/lastmile_qr_scan"}, "is_disabled": 0, "bike_id": "b976cb43eca1294f3daaa8c244d6ca84", "fusion_lon": 0.0, "fusion_lat": 0.0, "is_reserved": 0, "type": "electric_scooter", "lon": -77.04311283333334, "name": "b976cb43eca1294f3daaa8c244d6ca84", "lat": 38.90261433333333}, {"rental_uris": {"ios": "https://dc.lft.to/lastmile_qr_scan", "android": "https://dc.lft.to/lastmile_qr_scan"}, "is_disabled": 0, "bike_id": "5cc1e032076a90e3eedc7b9576fdd9a1", "fusion_lon": 0.0, "fusion_lat": 0.0, "is_reserved": 0, "type": "electric_scooter", "lon": -77.0406495, "name": "5cc1e032076a90e3eedc7b9576fdd9a1", "lat": 38.900172833333336}, {"rental_uris": {"ios": "https://dc.lft.to/lastmile_qr_scan", "android": "https://dc.lft.to/lastmile_qr_scan"}, "is_disabled": 0, "bike_id": "f17f6bad47d0eb0f75ed093a828d1db5", "fusion_lon": 0.0, "fusion_lat": 0.0, "is_reserved": 0, "type": "electric_scooter", "lon": -77.04236266666666, "name": "f17f6bad47d0eb0f75ed093a828d1db5", "lat": 38.9222595}, {"rental_uris": {"ios": "https://dc.lft.to/lastmile_qr_scan", "android": "https://dc.lft.to/lastmile_qr_scan"}, "is_disabled": 0, "bike_id": "3092993de923e73197d955a14d167974", "fusion_lon": 0.0, "fusion_lat": 0.0, "is_reserved": 0, "type": "electric_scooter", "lon": -76.99876833333333, "name": "3092993de923e73197d955a14d167974", "lat": 38.9075185}, {"rental_uris": {"ios": "https://dc.lft.to/lastmile_qr_scan", "android": "https://dc.lft.to/lastmile_qr_scan"}, "is_disabled": 0, "bike_id": "d1047171790e4d51358f9b6a4b35d2e9", "fusion_lon": 0.0, "fusion_lat": 0.0, "is_reserved": 0, "type": "electric_scooter", "lon": -77.0593065, "name": "d1047171790e4d51358f9b6a4b35d2e9", "lat": 38.94302316666667}, {"rental_uris": {"ios": "https://dc.lft.to/lastmile_qr_scan", "android": "https://dc.lft.to/lastmile_qr_scan"}, "is_disabled": 0, "bike_id": "bba8615da5f6747a811169814ff44003", "fusion_lon": 0.0, "fusion_lat": 0.0, "is_reserved": 0, "type": "electric_scooter", "lon": -76.98540633333333, "name": "bba8615da5f6747a811169814ff44003", "lat": 38.866761833333335}, {"rental_uris": {"ios": "https://dc.lft.to/lastmile_qr_scan", "android": "https://dc.lft.to/lastmile_qr_scan"}, "is_disabled": 0, "bike_id": "3d46530f1b83da59893e610d8f4d372e", "fusion_lon": 0.0, "fusion_lat": 0.0, "is_reserved": 0, "type": "electric_scooter", "lon": -76.93170233333333, "name": "3d46530f1b83da59893e610d8f4d372e", "lat": 38.8988615}, {"rental_uris": {"ios": "https://dc.lft.to/lastmile_qr_scan", "android": "https://dc.lft.to/lastmile_qr_scan"}, "is_disabled": 0, "bike_id": "f94f3bf8d883f4fa633c02590b3758f9", "fusion_lon": 0.0, "fusion_lat": 0.0, "is_reserved": 0, "type": "electric_scooter", "lon": -77.006557, "name": "f94f3bf8d883f4fa633c02590b3758f9", "lat": 38.9446765}, {"rental_uris": {"ios": "https://dc.lft.to/lastmile_qr_scan", "android": "https://dc.lft.to/lastmile_qr_scan"}, "is_disabled": 0, "bike_id": "3caed16f03d89d7d49fb8f96259e1d29", "fusion_lon": 0.0, "fusion_lat": 0.0, "is_reserved": 0, "type": "electric_scooter", "lon": -77.02877433333333, "name": "3caed16f03d89d7d49fb8f96259e1d29", "lat": 38.928212333333335}, {"rental_uris": {"ios": "https://dc.lft.to/lastmile_qr_scan", "android": "https://dc.lft.to/lastmile_qr_scan"}, "is_disabled": 0, "bike_id": "8eebf02a9ee0f243c37206b65eec2ac8", "fusion_lon": 0.0, "fusion_lat": 0.0, "is_reserved": 0, "type": "electric_scooter", "lon": -77.032054, "name": "8eebf02a9ee0f243c37206b65eec2ac8", "lat": 38.891784}, {"rental_uris": {"ios": "https://dc.lft.to/lastmile_qr_scan", "android": "https://dc.lft.to/lastmile_qr_scan"}, "is_disabled": 0, "bike_id": "3ec47ff42a3f37ef1452914743770d27", "fusion_lon": 0.0, "fusion_lat": 0.0, "is_reserved": 0, "type": "electric_scooter", "lon": -77.03849866666667, "name": "3ec47ff42a3f37ef1452914743770d27", "lat": 38.9154765}, {"rental_uris": {"ios": "https://dc.lft.to/lastmile_qr_scan", "android": "https://dc.lft.to/lastmile_qr_scan"}, "is_disabled": 0, "bike_id": "b35e2c232615f4b33c48464288ed8711", "fusion_lon": 0.0, "fusion_lat": 0.0, "is_reserved": 0, "type": "electric_bike", "lon": -76.9977525, "name": "b35e2c232615f4b33c48464288ed8711", "lat": 38.862129333333336}, {"rental_uris": {"ios": "https://dc.lft.to/lastmile_qr_scan", "android": "https://dc.lft.to/lastmile_qr_scan"}, "is_disabled": 0, "bike_id": "be44b6e7e95fbc4dea59611c3f4f3392", "fusion_lon": 0.0, "fusion_lat": 0.0, "is_reserved": 0, "type": "electric_scooter", "lon": -77.00839316666666, "name": "be44b6e7e95fbc4dea59611c3f4f3392", "lat": 38.87066133333333}, {"rental_uris": {"ios": "https://dc.lft.to/lastmile_qr_scan", "android": "https://dc.lft.to/lastmile_qr_scan"}, "is_disabled": 0, "bike_id": "c962f1e121fbb6797e586f5e1e84b7c3", "fusion_lon": 0.0, "fusion_lat": 0.0, "is_reserved": 0, "type": "electric_scooter", "lon": -77.061225, "name": "c962f1e121fbb6797e586f5e1e84b7c3", "lat": 38.90527516666667}, {"rental_uris": {"ios": "https://dc.lft.to/lastmile_qr_scan", "android": "https://dc.lft.to/lastmile_qr_scan"}, "is_disabled": 0, "bike_id": "67d788db5c66df9ac279b6bd6107f361", "fusion_lon": 0.0, "fusion_lat": 0.0, "is_reserved": 0, "type": "electric_bike", "lon": -77.06925833333334, "name": "67d788db5c66df9ac279b6bd6107f361", "lat": 38.955551166666666}, {"rental_uris": {"ios": "https://dc.lft.to/lastmile_qr_scan", "android": "https://dc.lft.to/lastmile_qr_scan"}, "is_disabled": 0, "bike_id": "d483c478aaef838903f25a2d2ecee76e", "fusion_lon": 0.0, "fusion_lat": 0.0, "is_reserved": 0, "type": "electric_scooter", "lon": -76.990021, "name": "d483c478aaef838903f25a2d2ecee76e", "lat": 38.863476}, {"rental_uris": {"ios": "https://dc.lft.to/lastmile_qr_scan", "android": "https://dc.lft.to/lastmile_qr_scan"}, "is_disabled": 0, "bike_id": "308471b6c86e7280612a9031b4105285", "fusion_lon": 0.0, "fusion_lat": 0.0, "is_reserved": 0, "type": "electric_scooter", "lon": -77.02713266666666, "name": "308471b6c86e7280612a9031b4105285", "lat": 38.90680616666667}, {"rental_uris": {"ios": "https://dc.lft.to/lastmile_qr_scan", "android": "https://dc.lft.to/lastmile_qr_scan"}, "is_disabled": 0, "bike_id": "7456d18ee33288261d86340ce1d865a4", "fusion_lon": 0.0, "fusion_lat": 0.0, "is_reserved": 0, "type": "electric_scooter", "lon": -77.02967866666667, "name": "7456d18ee33288261d86340ce1d865a4", "lat": 38.922719}, {"rental_uris": {"ios": "https://dc.lft.to/lastmile_qr_scan", "android": "https://dc.lft.to/lastmile_qr_scan"}, "is_disabled": 0, "bike_id": "4a3d257c8674652ca00a6a4d5e2011c3", "fusion_lon": 0.0, "fusion_lat": 0.0, "is_reserved": 0, "type": "electric_bike", "lon": -76.93543266666667, "name": "4a3d257c8674652ca00a6a4d5e2011c3", "lat": 38.9555645}, {"rental_uris": {"ios": "https://dc.lft.to/lastmile_qr_scan", "android": "https://dc.lft.to/lastmile_qr_scan"}, "is_disabled": 0, "bike_id": "7a7ff02c2c98a22fe0316ae458a35272", "fusion_lon": 0.0, "fusion_lat": 0.0, "is_reserved": 0, "type": "electric_scooter", "lon": -77.034444, "name": "7a7ff02c2c98a22fe0316ae458a35272", "lat": 38.91848783333333}, {"rental_uris": {"ios": "https://dc.lft.to/lastmile_qr_scan", "android": "https://dc.lft.to/lastmile_qr_scan"}, "is_disabled": 0, "bike_id": "1072f2c6802d09e3ef139ecdcde0d5ba", "fusion_lon": 0.0, "fusion_lat": 0.0, "is_reserved": 0, "type": "electric_scooter", "lon": -76.93367533333333, "name": "1072f2c6802d09e3ef139ecdcde0d5ba", "lat": 38.89917966666667}, {"rental_uris": {"ios": "https://dc.lft.to/lastmile_qr_scan", "android": "https://dc.lft.to/lastmile_qr_scan"}, "is_disabled": 0, "bike_id": "b9ae3d076d8242d35492e15c71c2ae38", "fusion_lon": 0.0, "fusion_lat": 0.0, "is_reserved": 0, "type": "electric_bike", "lon": -77.03653083333333, "name": "b9ae3d076d8242d35492e15c71c2ae38", "lat": 38.955747333333335}, {"rental_uris": {"ios": "https://dc.lft.to/lastmile_qr_scan", "android": "https://dc.lft.to/lastmile_qr_scan"}, "is_disabled": 0, "bike_id": "d05d58d4a9a6e606fdc9686480b02a70", "fusion_lon": 0.0, "fusion_lat": 0.0, "is_reserved": 0, "type": "electric_scooter", "lon": -76.998417, "name": "d05d58d4a9a6e606fdc9686480b02a70", "lat": 38.900069333333334}, {"rental_uris": {"ios": "https://dc.lft.to/lastmile_qr_scan", "android": "https://dc.lft.to/lastmile_qr_scan"}, "is_disabled": 0, "bike_id": "4d0abbc84eb2346353467df2e1b4f3f1", "fusion_lon": 0.0, "fusion_lat": 0.0, "is_reserved": 0, "type": "electric_scooter", "lon": -77.03173983333333, "name": "4d0abbc84eb2346353467df2e1b4f3f1", "lat": 38.914204833333336}, {"rental_uris": {"ios": "https://dc.lft.to/lastmile_qr_scan", "android": "https://dc.lft.to/lastmile_qr_scan"}, "is_disabled": 0, "bike_id": "d2909c7a411ee494147c32b9b26e9487", "fusion_lon": 0.0, "fusion_lat": 0.0, "is_reserved": 0, "type": "electric_scooter", "lon": -77.04121616666667, "name": "d2909c7a411ee494147c32b9b26e9487", "lat": 38.934019}, {"rental_uris": {"ios": "https://dc.lft.to/lastmile_qr_scan", "android": "https://dc.lft.to/lastmile_qr_scan"}, "is_disabled": 0, "bike_id": "0c8955b0bfaf79a7c80135ef8ff30a7a", "fusion_lon": 0.0, "fusion_lat": 0.0, "is_reserved": 0, "type": "electric_scooter", "lon": -77.04863266666666, "name": "0c8955b0bfaf79a7c80135ef8ff30a7a", "lat": 38.902095333333335}, {"rental_uris": {"ios": "https://dc.lft.to/lastmile_qr_scan", "android": "https://dc.lft.to/lastmile_qr_scan"}, "is_disabled": 0, "bike_id": "6e403b099efce37ba9229dfbbb7bd08c", "fusion_lon": 0.0, "fusion_lat": 0.0, "is_reserved": 0, "type": "electric_scooter", "lon": -77.021406, "name": "6e403b099efce37ba9229dfbbb7bd08c", "lat": 38.925930666666666},