{"data": {"bikes": [{"fusion_lat": 0.0, "name": "96ac5b505239e210b330f487c62b126a", "is_disabled": 0, "rental_uris": {"android": "https://dc.lft.to/lastmile_qr_scan", "ios": "https://dc.lft.to/lastmile_qr_scan"}, "fusion_lon": 0.0, "lat": 38.9245575, "bike_id": "96ac5b505239e210b330f487c62b126a", "type": "electric_scooter", "is_reserved": 0, "lon": -77.08030466666666}, {"fusion_lat": 0.0, "name": "b094ec2561f83ae9e6e72545e3d2fdb7", "is_disabled": 0, "rental_uris": {"android": "https://dc.lft.to/lastmile_qr_scan", "ios": "https://dc.lft.to/lastmile_qr_scan"}, "fusion_lon": 0.0, "lat": 38.88336366666667, "bike_id": "b094ec2561f83ae9e6e72545e3d2fdb7", "type": "electric_scooter", "is_reserved": 0, "lon": -77.01743133333333}, {"fusion_lat": 0.0, "name": "ada0d46b1777a31358f91297c898b756", "is_disabled": 0, "rental_uris": {"android": "https://dc.lft.to/lastmile_qr_scan", "ios": "https://dc.lft.to/lastmile_qr_scan"}, "fusion_lon": 0.0, "lat": 38.91918033333334, "bike_id": "ada0d46b1777a31358f91297c898b756", "type": "electric_scooter", "is_reserved": 0, "lon": -77.02617283333333}, {"fusion_lat": 0.0, "name": "1615941088575096fe160baf961d063e", "is_disabled": 0, "rental_uris": {"android": "https://dc.lft.to/lastmile_qr_scan", "ios": "https://dc.lft.to/lastmile_qr_scan"}, "fusion_lon": 0.0, "lat": 38.952465333333336, "bike_id": "1615941088575096fe160baf961d063e", "type": "electric_scooter", "is_reserved": 0, "lon": -77.02379966666666}, {"fusion_lat": 0.0, "name": "7ad5da04a75f0d99ab83746d44ba51ff", "is_disabled": 0, "rental_uris": {"android": "https://dc.lft.to/lastmile_qr_scan", "ios": "https://dc.lft.to/lastmile_qr_scan"}, "fusion_lon": 0.0, "lat": 38.8961755, "bike_id": "7ad5da04a75f0d99ab83746d44ba51ff", "type": "electric_scooter", "is_reserved": 0, "lon": -77.02665866666666}, {"fusion_lat": 0.0, "name": "9d1f8a64f653ca08410a47bffb9a9093", "is_disabled": 0, "rental_uris": {"android": "https://dc.lft.to/lastmile_qr_scan", "ios": "https://dc.lft.to/lastmile_qr_scan"}, "fusion_lon": 0.0, "lat": 38.96731033333333, "bike_id": "9d1f8a64f653ca08410a47bffb9a9093", "type": "electric_scooter", "is_reserved": 0, "lon": -77.00919533333334}, {"fusion_lat": 0.0, "name": "fd90b80f68f96ec550037a94e1762b3d", "is_disabled": 0, "rental_uris": {"android": "https://dc.lft.to/lastmile_qr_scan", "ios": "https://dc.lft.to/lastmile_qr_scan"}, "fusion_lon": 0.0, "lat": 38.87547883333333, "bike_id": "fd90b80f68f96ec550037a94e1762b3d", "type": "electric_scooter", "is_reserved": 0, "lon": -77.0053775}, {"fusion_lat": 0.0, "name": "f38d274266fff8a777fcb2962ee517a4", "is_disabled": 0, "rental_uris": {"android": "https://dc.lft.to/lastmile_qr_scan", "ios": "https://dc.lft.to/lastmile_qr_scan"}, "fusion_lon": 0.0, "lat": 38.892607, "bike_id": "f38d274266fff8a777fcb2962ee517a4", "type": "electric_bike", "is_reserved": 0, "lon": -76.95119566666666}, {"fusion_lat": 0.0, "name": "2f8c7577f93e9b6c5ef0fb950c1c5a40", "is_disabled": 0, "rental_uris": {"android": "https://dc.lft.to/lastmile_qr_scan", "ios": "https://dc.lft.to/lastmile_qr_scan"}, "fusion_lon": 0.0, "lat": 38.893515, "bike_id": "2f8c7577f93e9b6c5ef0fb950c1c5a40", "type": "electric_scooter", "is_reserved": 0, "lon": -77.000729}, {"fusion_lat": 0.0, "name": "1211cbf938e78853c3748d4eb8982cc9", "is_disabled": 0, "rental_uris": {"android": "https://dc.lft.to/lastmile_qr_scan", "ios": "https://dc.lft.to/lastmile_qr_scan"}, "fusion_lon": 0.0, "lat": 38.91616833333333, "bike_id": "1211cbf938e78853c3748d4eb8982cc9", "type": "electric_scooter", "is_reserved": 0, "lon": -77.03126783333333}, {"fusion_lat": 0.0, "name": "99257da4495c58d3ce734a63d543f625", "is_disabled": 0, "rental_uris": {"android": "https://dc.lft.to/lastmile_qr_scan", "ios": "https://dc.lft.to/lastmile_qr_scan"}, "fusion_lon": 0.0, "lat": 38.9003345, "bike_id": "99257da4495c58d3ce734a63d543f625", "type": "electric_scooter", "is_reserved": 0, "lon": -77.03503483333333}, {"fusion_lat": 0.0, "name": "7f346fe307bdca11f26dad13a00685e6", "is_disabled": 0, "rental_uris": {"android": "https://dc.lft.to/lastmile_qr_scan", "ios": "https://dc.lft.to/lastmile_qr_scan"}, "fusion_lon": 0.0, "lat": 38.885263, "bike_id": "7f346fe307bdca11f26dad13a00685e6", "type": "electric_scooter", "is_reserved": 0, "lon": -76.929333}, {"fusion_lat": 0.0, "name": "5c79fa067bd1e6c231806f3700b5246c", "is_disabled": 0, "rental_uris": {"android": "https://dc.lft.to/lastmile_qr_scan", "ios": "https://dc.lft.to/lastmile_qr_scan"}, "fusion_lon": 0.0, "lat": 38.898742, "bike_id": "5c79fa067bd1e6c231806f3700b5246c", "type": "electric_scooter", "is_reserved": 0, "lon": -77.02191966666666}, {"fusion_lat": 0.0, "name": "21870e9a3e6092e8c1bf3b5bb132acd6", "is_disabled": 0, "rental_uris": {"android": "https://dc.lft.to/lastmile_qr_scan", "ios": "https://dc.lft.to/lastmile_qr_scan"}, "fusion_lon": 0.0, "lat": 38.950594833333334, "bike_id": "21870e9a3e6092e8c1bf3b5bb132acd6", "type": "electric_scooter", "is_reserved": 0, "lon": -77.08032133333333}, {"fusion_lat": 0.0, "name": "aec8ebe8e7ae09dce42bb9e8037aa511", "is_disabled": 0, "rental_uris": {"android": "https://dc.lft.to/lastmile_qr_scan", "ios": "https://dc.lft.to/lastmile_qr_scan"}, "fusion_lon": 0.0, "lat": 38.922571, "bike_id": "aec8ebe8e7ae09dce42bb9e8037aa511", "type": "electric_scooter", "is_reserved": 0, "lon": -77.01951916666667}, {"fusion_lat": 0.0, "name": "031cc8a4290ba2c7cb3b2ce124e4279a", "is_disabled": 0, "rental_uris": {"android": "https://dc.lft.to/lastmile_qr_scan", "ios": "https://dc.lft.to/lastmile_qr_scan"}, "fusion_lon": 0.0, "lat": 38.9360005, "bike_id": "031cc8a4290ba2c7cb3b2ce124e4279a", "type": "electric_scooter", "is_reserved": 0, "lon": -77.0365505}, {"fusion_lat": 0.0, "name": "379f784bcb39f69abc7344692b07994f", "is_disabled": 0, "rental_uris": {"android": "https://dc.lft.to/lastmile_qr_scan", "ios": "https://dc.lft.to/lastmile_qr_scan"}, "fusion_lon": 0.0, "lat": 38.87580583333333, "bike_id": "379f784bcb39f69abc7344692b07994f", "type": "electric_bike", "is_reserved": 0, "lon": -77.2341025}, {"fusion_lat": 0.0, "name": "b04a097aaffb23a2f7a104ee3eb942f6", "is_disabled": 0, "rental_uris": {"android": "https://dc.lft.to/lastmile_qr_scan", "ios": "https://dc.lft.to/lastmile_qr_scan"}, "fusion_lon": 0.0, "lat": 38.90787316666667, "bike_id": "b04a097aaffb23a2f7a104ee3eb942f6", "type": "electric_scooter", "is_reserved": 0, "lon": -77.0435465}, {"fusion_lat": 0.0, "name": "b4e2a9aa41081e34261d3ba6c3b2086b", "is_disabled": 0, "rental_uris": {"android": "https://dc.lft.to/lastmile_qr_scan", "ios": "https://dc.lft.to/lastmile_qr_scan"}, "fusion_lon": 0.0, "lat": 38.89192633333333, "bike_id": "b4e2a9aa41081e34261d3ba6c3b2086b", "type": "electric_scooter", "is_reserved": 0, "lon": -76.99840766666667}, {"fusion_lat": 0.0, "name": "3eec382eade4f8543513d537daf6aaf5", "is_disabled": 0, "rental_uris": {"android": "https://dc.lft.to/lastmile_qr_scan", "ios": "https://dc.lft.to/lastmile_qr_scan"}, "fusion_lon": 0.0, "lat": 38.9188625, "bike_id": "3eec382eade4f8543513d537daf6aaf5", "type": "electric_scooter", "is_reserved": 0, "lon": -77.048284}, {"fusion_lat": 0.0, "name": "21e028dac1a8363778ede908c794fdda", "is_disabled": 0, "rental_uris": {"android": "https://dc.lft.to/lastmile_qr_scan", "ios": "https://dc.lft.to/lastmile_qr_scan"}, "fusion_lon": 0.0, "lat": 38.932632, "bike_id": "21e028dac1a8363778ede908c794fdda", "type": "electric_scooter", "is_reserved": 0, "lon": -77.03265883333333}, {"fusion_lat": 0.0, "name": "b3f61b73e228c603745a0b8e7f80e19c", "is_disabled": 0, "rental_uris": {"android": "https://dc.lft.to/lastmile_qr_scan", "ios": "https://dc.lft.to/lastmile_qr_scan"}, "fusion_lon": 0.0, "lat": 38.958872, "bike_id": "b3f61b73e228c603745a0b8e7f80e19c", "type": "electric_scooter", "is_reserved": 0, "lon": -77.01170916666666}, {"fusion_lat": 0.0, "name": "ffdcef0908ad5bd126bd80b4a927c45f", "is_disabled": 0, "rental_uris": {"android": "https://dc.lft.to/lastmile_qr_scan", "ios": "https://dc.lft.to/lastmile_qr_scan"}, "fusion_lon": 0.0, "lat": 38.895011, "bike_id": "ffdcef0908ad5bd126bd80b4a927c45f", "type": "electric_scooter", "is_reserved": 0, "lon": -77.02182033333334}, {"fusion_lat": 0.0, "name": "86ec07cf51d9ab2fb3f241052097b0ff", "is_disabled": 0, "rental_uris": {"android": "https://dc.lft.to/lastmile_qr_scan", "ios": "https://dc.lft.to/lastmile_qr_scan"}, "fusion_lon": 0.0, "lat": 38.876597333333336, "bike_id": "86ec07cf51d9ab2fb3f241052097b0ff", "type": "electric_scooter", "is_reserved": 0, "lon": -77.00919933333333}, {"fusion_lat": 0.0, "name": "fe18af4834c70f23ac747471e6ed2b1e", "is_disabled": 0, "rental_uris": {"android": "https://dc.lft.to/lastmile_qr_scan", "ios": "https://dc.lft.to/lastmile_qr_scan"}, "fusion_lon": 0.0, "lat": 38.88231566666666, "bike_id": "fe18af4834c70f23ac747471e6ed2b1e", "type": "electric_scooter", "is_reserved": 0, "lon": -77.02620166666667}, {"fusion_lat": 0.0, "name": "f6af41213b0f18d3ab10bcc876acae36", "is_disabled": 0, "rental_uris": {"android": "https://dc.lft.to/lastmile_qr_scan", "ios": "https://dc.lft.to/lastmile_qr_scan"}, "fusion_lon": 0.0, "lat": 38.92487116666667, "bike_id": "f6af41213b0f18d3ab10bcc876acae36", "type": "electric_scooter", "is_reserved": 0, "lon": -77.0254915}, {"fusion_lat": 0.0, "name": "c212565a283c7073ec095fd484f4fa53", "is_disabled": 0, "rental_uris": {"android": "https://dc.lft.to/lastmile_qr_scan", "ios": "https://dc.lft.to/lastmile_qr_scan"}, "fusion_lon": 0.0, "lat": 38.90962566666666, "bike_id": "c212565a283c7073ec095fd484f4fa53", "type": "electric_scooter", "is_reserved": 0, "lon": -77.031795}, {"fusion_lat": 0.0, "name": "52acb4e14d50a3653b5e4098ec4979a9", "is_disabled": 0, "rental_uris": {"android": "https://dc.lft.to/lastmile_qr_scan", "ios": "https://dc.lft.to/lastmile_qr_scan"}, "fusion_lon": 0.0, "lat": 38.8791135, "bike_id": "52acb4e14d50a3653b5e4098ec4979a9", "type": "electric_scooter", "is_reserved": 0, "lon": -77.00881966666667}, {"fusion_lat": 0.0, "name": "13adfaf0a65e03c8ad5e50fc3c7b1458", "is_disabled": 0, "rental_uris": {"android": "https://dc.lft.to/lastmile_qr_scan", "ios": "https://dc.lft.to/lastmile_qr_scan"}, "fusion_lon": 0.0, "lat": 38.98463183333333, "bike_id": "13adfaf0a65e03c8ad5e50fc3c7b1458", "type": "electric_bike", "is_reserved": 0, "lon": -76.97059}, {"fusion_lat": 0.0, "name": "71731deb87d56c133c9b663f7b19c581", "is_disabled": 0, "rental_uris": {"android": "https://dc.lft.to/lastmile_qr_scan", "ios": "https://dc.lft.to/lastmile_qr_scan"}, "fusion_lon": 0.0, "lat": 38.906858166666666, "bike_id": "71731deb87d56c133c9b663f7b19c581", "type": "electric_bike", "is_reserved": 0, "lon": -76.9449585}, {"fusion_lat": 0.0, "name": "da9feff81c437aa4b535b30cb4fd9ce6", "is_disabled": 0, "rental_uris": {"android": "https://dc.lft.to/lastmile_qr_scan", "ios": "https://dc.lft.to/lastmile_qr_scan"}, "fusion_lon": 0.0, "lat": 38.91052466666667, "bike_id": "da9feff81c437aa4b535b30cb4fd9ce6", "type": "electric_scooter", "is_reserved": 0, "lon": -76.98522316666667}, {"fusion_lat": 0.0, "name": "0c790b60ebcbe6d11d37a4757993733f", "is_disabled": 0, "rental_uris": {"android": "https://dc.lft.to/lastmile_qr_scan", "ios": "https://dc.lft.to/lastmile_qr_scan"}, "fusion_lon": 0.0, "lat": 38.921634166666664, "bike_id": "0c790b60ebcbe6d11d37a4757993733f", "type": "electric_bike", "is_reserved": 0, "lon": -77.02204683333333}, {"fusion_lat": 0.0, "name": "65c0b4a52b49e34e770fd5cc2574804f", "is_disabled": 0, "rental_uris": {"android": "https://dc.lft.to/lastmile_qr_scan", "ios": "https://dc.lft.to/lastmile_qr_scan"}, "fusion_lon": 0.0, "lat": 38.901552, "bike_id": "65c0b4a52b49e34e770fd5cc2574804f", "type": "electric_scooter", "is_reserved": 0, "lon": -76.93069}, {"fusion_lat": 0.0, "name": "41e04e54c867ffd25dbc661da3ad9c82", "is_disabled": 0, "rental_uris": {"android": "https://dc.lft.to/lastmile_qr_scan", "ios": "https://dc.lft.to/lastmile_qr_scan"}, "fusion_lon": 0.0, "lat": 38.88768483333333, "bike_id": "41e04e54c867ffd25dbc661da3ad9c82", "type": "electric_scooter", "is_reserved": 0, "lon": -76.97747366666667}, {"fusion_lat": 0.0, "name": "933cd0a6752e330f4cf8ec80f50e13df", "is_disabled": 0, "rental_uris": {"android": "https://dc.lft.to/lastmile_qr_scan", "ios": "https://dc.lft.to/lastmile_qr_scan"}, "fusion_lon": 0.0, "lat": 38.9073265, "bike_id": "933cd0a6752e330f4cf8ec80f50e13df", "type": "electric_scooter", "is_reserved": 0, "lon": -77.01112966666666}, {"fusion_lat": 0.0, "name": "29209270d1c63532997fdc5af4942c0c", "is_disabled": 0, "rental_uris": {"android": "https://dc.lft.to/lastmile_qr_scan", "ios": "https://dc.lft.to/lastmile_qr_scan"}, "fusion_lon": 0.0, "lat": 38.905698666666666, "bike_id": "29209270d1c63532997fdc5af4942c0c", "type": "electric_scooter", "is_reserved": 0, "lon": -77.04422666666666}, {"fusion_lat": 0.0, "name": "9b9aa1eec1086bc76f5dd44d30e92c0f", "is_disabled": 0, "rental_uris": {"android": "https://dc.lft.to/lastmile_qr_scan", "ios": "https://dc.lft.to/lastmile_qr_scan"}, "fusion_lon": 0.0, "lat": 38.898272666666664, "bike_id": "9b9aa1eec1086bc76f5dd44d30e92c0f", "type": "electric_scooter", "is_reserved": 0, "lon": -77.00750066666667}, {"fusion_lat": 0.0, "name": "08424d390f2cca66fa5e49c798ea9932", "is_disabled": 0, "rental_uris": {"android": "https://dc.lft.to/lastmile_qr_scan", "ios": "https://dc.lft.to/lastmile_qr_scan"}, "fusion_lon": 0.0, "lat": 38.9262655, "bike_id": "08424d390f2cca66fa5e49c798ea9932", "type": "electric_scooter", "is_reserved": 0, "lon": -77.039305}, {"fusion_lat": 0.0, "name": "1fa36c74bdc8de20a8c938f045931525", "is_disabled": 0, "rental_uris": {"android": "https://dc.lft.to/lastmile_qr_scan", "ios": "https://dc.lft.to/lastmile_qr_scan"}, "fusion_lon": 0.0, "lat": 38.92331383333333, "bike_id": "1fa36c74bdc8de20a8c938f045931525", "type": "electric_scooter", "is_reserved": 0, "lon": -77.02968833333334}, {"fusion_lat": 0.0, "name": "9e3df5d51344d22af66af85f1efcd7ad", "is_disabled": 0, "rental_uris": {"android": "https://dc.lft.to/lastmile_qr_scan", "ios": "https://dc.lft.to/lastmile_qr_scan"}, "fusion_lon": 0.0, "lat": 38.9229195, "bike_id": "9e3df5d51344d22af66af85f1efcd7ad", "type": "electric_scooter", "is_reserved": 0, "lon": -76.99777283333333}, {"fusion_lat": 0.0, "name": "3862f789286d28c2b06c26c78728a33a", "is_disabled": 0, "rental_uris": {"android": "https://dc.lft.to/lastmile_qr_scan", "ios": "https://dc.lft.to/lastmile_qr_scan"}, "fusion_lon": 0.0, "lat": 38.925655, "bike_id": "3862f789286d28c2b06c26c78728a33a", "type": "electric_scooter", "is_reserved": 0, "lon": -77.03771733333333}, {"fusion_lat": 0.0, "name": "587c4ebd0e2e465ce856af0bf7e310c0", "is_disabled": 0, "rental_uris": {"android": "https://dc.lft.to/lastmile_qr_scan", "ios": "https://dc.lft.to/lastmile_qr_scan"}, "fusion_lon": 0.0, "lat": 38.94521966666667, "bike_id": "587c4ebd0e2e465ce856af0bf7e310c0", "type": "electric_scooter", "is_reserved": 0, "lon": -77.02275016666667}, {"fusion_lat": 0.0, "name": "b5cea6ee86fc4af11a9e18ab6e72df4b", "is_disabled": 0, "rental_uris": {"android": "https://dc.lft.to/lastmile_qr_scan", "ios": "https://dc.lft.to/lastmile_qr_scan"}, "fusion_lon": 0.0, "lat": 38.91335766666667, "bike_id": "b5cea6ee86fc4af11a9e18ab6e72df4b", "type": "electric_scooter", "is_reserved": 0, "lon": -77.04863016666667}, {"fusion_lat": 0.0, "name": "a001acb34b74e07a50196835be7fc135", "is_disabled": 0, "rental_uris": {"android": "https://dc.lft.to/lastmile_qr_scan", "ios": "https://dc.lft.to/lastmile_qr_scan"}, "fusion_lon": 0.0, "lat": 38.90154066666667, "bike_id": "a001acb34b74e07a50196835be7fc135", "type": "electric_scooter", "is_reserved": 0, "lon": -76.97412183333333}, {"fusion_lat": 0.0, "name": "7f091ff8d68b4b3d42f26ba304dc7ab0", "is_disabled": 0, "rental_uris": {"android": "https://dc.lft.to/lastmile_qr_scan", "ios": "https://dc.lft.to/lastmile_qr_scan"}, "fusion_lon": 0.0, "lat": 38.907506, "bike_id": "7f091ff8d68b4b3d42f26ba304dc7ab0", "type": "electric_scooter", "is_reserved": 0, "lon": -76.998531}, {"fusion_lat": 0.0, "name": "32634d3e959c72d45bdbf164aaca6a16", "is_disabled": 0, "rental_uris": {"android": "https://dc.lft.to/lastmile_qr_scan", "ios": "https://dc.lft.to/lastmile_qr_scan"}, "fusion_lon": 0.0, "lat": 38.90245216666667, "bike_id": "32634d3e959c72d45bdbf164aaca6a16", "type": "electric_scooter", "is_reserved": 0, "lon": -77.06043966666667}, {"fusion_lat": 0.0, "name": "30f340d46c9cdc4040d389c1ab9bae66", "is_disabled": 0, "rental_uris": {"android": "https://dc.lft.to/lastmile_qr_scan", "ios": "https://dc.lft.to/lastmile_qr_scan"}, "fusion_lon": 0.0, "lat": 38.90735016666667, "bike_id": "30f340d46c9cdc4040d389c1ab9bae66", "type": "electric_scooter", "is_reserved": 0, "lon": -77.0070505}, {"fusion_lat": 0.0, "name": "f91a7237bbde7b57f5c7048a00e1a5b9", "is_disabled": 0, "rental_uris": {"android": "https://dc.lft.to/lastmile_qr_scan", "ios": "https://dc.lft.to/lastmile_qr_scan"}, "fusion_lon": 0.0, "lat": 38.90524166666667, "bike_id": "f91a7237bbde7b57f5c7048a00e1a5b9", "type": "electric_scooter", "is_reserved": 0, "lon": -77.021981}, {"fusion_lat": 0.0, "name": "accfb115b0b92152a8aa145dabf4d05e", "is_disabled": 0, "rental_uris": {"android": "https://dc.lft.to/lastmile_qr_scan", "ios": "https://dc.lft.to/lastmile_qr_scan"}, "fusion_lon": 0.0, "lat": 38.91545633333333, "bike_id": "accfb115b0b92152a8aa145dabf4d05e", "type": "electric_scooter", "is_reserved": 0, "lon": -77.00544583333334}, {"fusion_lat": 0.0, "name": "d2285e29075b8a77f522b01e51a75592", "is_disabled": 0, "rental_uris": {"android": "https://dc.lft.to/lastmile_qr_scan", "ios": "https://dc.lft.to/lastmile_qr_scan"}, "fusion_lon": 0.0, "lat": 38.921008666666665, "bike_id": "d2285e29075b8a77f522b01e51a75592", "type": "electric_scooter", "is_reserved": 0, "lon": -76.99466016666666}, {"fusion_lat": 0.0, "name": "99301dcf681c9ed579500d70911bf6b6", "is_disabled": 0, "rental_uris": {"android": "https://dc.lft.to/lastmile_qr_scan", "ios": "https://dc.lft.to/lastmile_qr_scan"}, "fusion_lon": 0.0, "lat": 38.92126066666667, "bike_id": "99301dcf681c9ed579500d70911bf6b6", "type": "electric_scooter", "is_reserved": 0, "lon": -77.01216066666667}, {"fusion_lat": 0.0, "name": "d645d7dbf90ead7a482dd1596d92e523", "is_disabled": 0, "rental_uris": {"android": "https://dc.lft.to/lastmile_qr_scan", "ios": "https://dc.lft.to/lastmile_qr_scan"}, "fusion_lon": 0.0, "lat": 38.887345, "bike_id": "d645d7dbf90ead7a482dd1596d92e523", "type": "electric_scooter", "is_reserved": 0, "lon": -77.02581866666667}, {"fusion_lat": 0.0, "name": "84ca61e61acab2463e50051c1952bac5", "is_disabled": 0, "rental_uris": {"android": "https://dc.lft.to/lastmile_qr_scan", "ios": "https://dc.lft.to/lastmile_qr_scan"}, "fusion_lon": 0.0, "lat": 38.898684833333334, "bike_id": "84ca61e61acab2463e50051c1952bac5", "type": "electric_scooter", "is_reserved": 0, "lon": -76.946409}, {"fusion_lat": 0.0, "name": "21dc4315c31173e101948377f8eb84b0", "is_disabled": 0, "rental_uris": {"android": "https://dc.lft.to/lastmile_qr_scan", "ios": "https://dc.lft.to/lastmile_qr_scan"}, "fusion_lon": 0.0, "lat": 38.98060733333333, "bike_id": "21dc4315c31173e101948377f8eb84b0", "type": "electric_bike", "is_reserved": 0, "lon": -77.095853}, {"fusion_lat": 0.0, "name": "a2391ba7f6410104b23539586ba7249a", "is_disabled": 0, "rental_uris": {"android": "https://dc.lft.to/lastmile_qr_scan", "ios": "https://dc.lft.to/lastmile_qr_scan"}, "fusion_lon": 0.0, "lat": 38.9237575, "bike_id": "a2391ba7f6410104b23539586ba7249a", "type": "electric_scooter", "is_reserved": 0, "lon": -77.03135283333333}, {"fusion_lat": 0.0, "name": "c3e3626bfd4543d42c804dad49c3be5a", "is_disabled": 0, "rental_uris": {"android": "https://dc.lft.to/lastmile_qr_scan", "ios": "https://dc.lft.to/lastmile_qr_scan"}, "fusion_lon": 0.0, "lat": 38.926823166666665, "bike_id": "c3e3626bfd4543d42c804dad49c3be5a", "type": "electric_scooter", "is_reserved": 0, "lon": -77.023045}, {"fusion_lat": 0.0, "name": "d8129ccdf57c4a13be37226d35a93111", "is_disabled": 0, "rental_uris": {"android": "https://dc.lft.to/lastmile_qr_scan", "ios": "https://dc.lft.to/lastmile_qr_scan"}, "fusion_lon": 0.0, "lat": 38.910642, "bike_id": "d8129ccdf57c4a13be37226d35a93111", "type": "electric_scooter", "is_reserved": 0, "lon": -77.0527545}, {"fusion_lat": 0.0, "name": "3d84b2a284c825e521ad597db1e42bce", "is_disabled": 0, "rental_uris": {"android": "https://dc.lft.to/lastmile_qr_scan", "ios": "https://dc.lft.to/lastmile_qr_scan"}, "fusion_lon": 0.0, "lat": 38.9006435, "bike_id": "3d84b2a284c825e521ad597db1e42bce", "type": "electric_scooter", "is_reserved": 0, "lon": -76.98559166666666}, {"fusion_lat": 0.0, "name": "9bf0b128865ca456750f6e46ad59a16d", "is_disabled": 0, "rental_uris": {"android": "https://dc.lft.to/lastmile_qr_scan", "ios": "https://dc.lft.to/lastmile_qr_scan"}, "fusion_lon": 0.0, "lat": 38.907229666666666, "bike_id": "9bf0b128865ca456750f6e46ad59a16d", "type": "electric_scooter", "is_reserved": 0, "lon": -77.02973216666666}, {"fusion_lat": 0.0, "name": "a12b8df724b9282064f821c03aff0f7b", "is_disabled": 0, "rental_uris": {"android": "https://dc.lft.to/lastmile_qr_scan", "ios": "https://dc.lft.to/lastmile_qr_scan"}, "fusion_lon": 0.0, "lat": 38.900260833333334, "bike_id": "a12b8df724b9282064f821c03aff0f7b", "type": "electric_scooter", "is_reserved": 0, "lon": -77.00030483333333}, {"fusion_lat": 0.0, "name": "e84dc420519c4c23103fa07c018baf6a", "is_disabled": 0, "rental_uris": {"android": "https://dc.lft.to/lastmile_qr_scan", "ios": "https://dc.lft.to/lastmile_qr_scan"}, "fusion_lon": 0.0, "lat": 38.94334033333333, "bike_id": "e84dc420519c4c23103fa07c018baf6a", "type": "electric_scooter", "is_reserved": 0, "lon": -77.0269355}, {"fusion_lat": 0.0, "name": "4acb48f9e574098daa0c0605cc822a8f", "is_disabled": 0, "rental_uris": {"android": "https://dc.lft.to/lastmile_qr_scan", "ios": "https://dc.lft.to/lastmile_qr_scan"}, "fusion_lon": 0.0, "lat": 38.928757, "bike_id": "4acb48f9e574098daa0c0605cc822a8f", "type": "electric_scooter", "is_reserved": 0, "lon": -77.03793183333333}, {"fusion_lat": 0.0, "name": "374a8baaf10efc2e610f2d2b356e97b8", "is_disabled": 0, "rental_uris": {"android": "https://dc.lft.to/lastmile_qr_scan", "ios": "https://dc.lft.to/lastmile_qr_scan"}, "fusion_lon": 0.0, "lat": 38.917057, "bike_id": "374a8baaf10efc2e610f2d2b356e97b8", "type": "electric_scooter", "is_reserved": 0, "lon": -77.00113966666666}, {"fusion_lat": 0.0, "name": "7450bbd95de4f6e176837e3979909e80", "is_disabled": 0, "rental_uris": {"android": "https://dc.lft.to/lastmile_qr_scan", "ios": "https://dc.lft.to/lastmile_qr_scan"}, "fusion_lon": 0.0, "lat": 38.89925266666667, "bike_id": "7450bbd95de4f6e176837e3979909e80", "type": "electric_scooter", "is_reserved": 0, "lon": -77.07197116666667}, {"fusion_lat": 0.0, "name": "c93a8597409dc4a48d3bc63e98cea41e", "is_disabled": 0, "rental_uris": {"android": "https://dc.lft.to/lastmile_qr_scan", "ios": "https://dc.lft.to/lastmile_qr_scan"}, "fusion_lon": 0.0, "lat": 38.90725666666667, "bike_id": "c93a8597409dc4a48d3bc63e98cea41e", "type": "electric_scooter", "is_reserved": 0, "lon": -77.00749966666666}, {"fusion_lat": 0.0, "name": "a0941fdbc8cc8448df2bc9a0a1799b79", "is_disabled": 0, "rental_uris": {"android": "https://dc.lft.to/lastmile_qr_scan", "ios": "https://dc.lft.to/lastmile_qr_scan"}, "fusion_lon": 0.0, "lat": 38.9380105, "bike_id": "a0941fdbc8cc8448df2bc9a0a1799b79", "type": "electric_scooter", "is_reserved": 0, "lon": -77.024494}, {"fusion_lat": 0.0, "name": "37b41d74a0d3bd6fa73049d80ab7b045", "is_disabled": 0, "rental_uris": {"android": "https://dc.lft.to/lastmile_qr_scan", "ios": "https://dc.lft.to/lastmile_qr_scan"}, "fusion_lon": 0.0, "lat": 38.92064116666667, "bike_id": "37b41d74a0d3bd6fa73049d80ab7b045", "type": "electric_scooter", "is_reserved": 0, "lon": -77.025392}, {"fusion_lat": 0.0, "name": "f0c31b7a66fb679fb9dad6f96aaf1318", "is_disabled": 0, "rental_uris": {"android": "https://dc.lft.to/lastmile_qr_scan", "ios": "https://dc.lft.to/lastmile_qr_scan"}, "fusion_lon": 0.0, "lat": 38.93877166666667, "bike_id": "f0c31b7a66fb679fb9dad6f96aaf1318", "type": "electric_scooter", "is_reserved": 0, "lon": -77.03083866666667}, {"fusion_lat": 0.0, "name": "692d7b0fb66d5c76a3e2ccea5f07640f", "is_disabled": 0, "rental_uris": {"android": "https://dc.lft.to/lastmile_qr_scan", "ios": "https://dc.lft.to/lastmile_qr_scan"}, "fusion_lon": 0.0, "lat": 38.85877083333333, "bike_id": "692d7b0fb66d5c76a3e2ccea5f07640f", "type": "electric_bike", "is_reserved": 0, "lon": -77.0955995}, {"fusion_lat": 0.0, "name": "e51a07c711b5b89e96c32ae7384dadfe", "is_disabled": 0, "rental_uris": {"android": "https://dc.lft.to/lastmile_qr_scan", "ios": "https://dc.lft.to/lastmile_qr_scan"}, "fusion_lon": 0.0, "lat": 38.87677933333333, "bike_id": "e51a07c711b5b89e96c32ae7384dadfe", "type": "electric_scooter", "is_reserved": 0, "lon": -77.00760533333333}, {"fusion_lat": 0.0, "name": "da839ccf0a82425bafed4c91d3962c3d", "is_disabled": 0, "rental_uris": {"android": "https://dc.lft.to/lastmile_qr_scan", "ios": "https://dc.lft.to/lastmile_qr_scan"}, "fusion_lon": 0.0, "lat": 38.89362283333333, "bike_id": "da839ccf0a82425bafed4c91d3962c3d", "type": "electric_scooter", "is_reserved": 0, "lon": -76.92595516666667}, {"fusion_lat": 0.0, "name": "1b95ea337b442d9eead45d9fc7e6a68d", "is_disabled": 0, "rental_uris": {"android": "https://dc.lft.to/lastmile_qr_scan", "ios": "https://dc.lft.to/lastmile_qr_scan"}, "fusion_lon": 0.0, "lat": 38.90978883333333, "bike_id": "1b95ea337b442d9eead45d9fc7e6a68d", "type": "electric_scooter", "is_reserved": 0, "lon": -77.03449366666666}, {"fusion_lat": 0.0, "name": "b7aa6f0cd62568e331f9359a93f7e1f4", "is_disabled": 0, "rental_uris": {"android": "https://dc.lft.to/lastmile_qr_scan", "ios": "https://dc.lft.to/lastmile_qr_scan"}, "fusion_lon": 0.0, "lat": 38.908640166666665, "bike_id": "b7aa6f0cd62568e331f9359a93f7e1f4", "type": "electric_scooter", "is_reserved": 0, "lon": -77.08595016666666}, {"fusion_lat": 0.0, "name": "bcfb02ab8b05b57b62fce766e12a5f2e", "is_disabled": 0, "rental_uris": {"android": "https://dc.lft.to/lastmile_qr_scan", "ios": "https://dc.lft.to/lastmile_qr_scan"}, "fusion_lon": 0.0, "lat": 38.9129745, "bike_id": "bcfb02ab8b05b57b62fce766e12a5f2e", "type": "electric_scooter", "is_reserved": 0, "lon": -76.98475566666667}, {"fusion_lat": 0.0, "name": "2c3e13e36b83a1ed90ef7d27a2dee641", "is_disabled": 0, "rental_uris": {"android": "https://dc.lft.to/lastmile_qr_scan", "ios": "https://dc.lft.to/lastmile_qr_scan"}, "fusion_lon": 0.0, "lat": 38.9253885, "bike_id": "2c3e13e36b83a1ed90ef7d27a2dee641", "type": "electric_scooter", "is_reserved": 0, "lon": -77.0347765}, {"fusion_lat": 0.0, "name": "6de9fcbeb5bd1278d2eac4406dc4f44e", "is_disabled": 0, "rental_uris": {"android": "https://dc.lft.to/lastmile_qr_scan", "ios": "https://dc.lft.to/lastmile_qr_scan"}, "fusion_lon": 0.0, "lat": 38.89748183333333, "bike_id": "6de9fcbeb5bd1278d2eac4406dc4f44e", "type": "electric_scooter", "is_reserved": 0, "lon": -77.03363566666667}, {"fusion_lat": 0.0, "name": "77dd8ad3f2e174b19dc7a362c12252f4", "is_disabled": 0, "rental_uris": {"android": "https://dc.lft.to/lastmile_qr_scan", "ios": "https://dc.lft.to/lastmile_qr_scan"}, "fusion_lon": 0.0, "lat": 38.9231155, "bike_id": "77dd8ad3f2e174b19dc7a362c12252f4", "type": "electric_scooter", "is_reserved": 0, "lon": -77.041126}, {"fusion_lat": 0.0, "name": "9603d488f7e2ced690b29704991d3963", "is_disabled": 0, "rental_uris": {"android": "https://dc.lft.to/lastmile_qr_scan", "ios": "https://dc.lft.to/lastmile_qr_scan"}, "fusion_lon": 0.0, "lat": 38.9118965, "bike_id": "9603d488f7e2ced690b29704991d3963", "type": "electric_scooter", "is_reserved": 0, "lon": -77.04249416666667}, {"fusion_lat": 0.0, "name": "110c89ed9acfae51534e1dee2edd9507", "is_disabled": 0, "rental_uris": {"android": "https://dc.lft.to/lastmile_qr_scan", "ios": "https://dc.lft.to/lastmile_qr_scan"}, "fusion_lon": 0.0, "lat": 38.9616475, "bike_id": "110c89ed9acfae51534e1dee2edd9507", "type": "electric_scooter", "is_reserved": 0, "lon": -77.073521}, {"fusion_lat": 0.0, "name": "583290b0b4873d3b89f6d8064966ee0a", "is_disabled": 0, "rental_uris": {"android": "https://dc.lft.to/lastmile_qr_scan", "ios": "https://dc.lft.to/lastmile_qr_scan"}, "fusion_lon": 0.0, "lat": 38.9042775, "bike_id": "583290b0b4873d3b89f6d8064966ee0a", "type": "electric_scooter", "is_reserved": 0, "lon": -77.00136333333333}, {"fusion_lat": 0.0, "name": "1970c7b8a3299e61cf2522f866c565e2", "is_disabled": 0, "rental_uris": {"android": "https://dc.lft.to/lastmile_qr_scan", "ios": "https://dc.lft.to/lastmile_qr_scan"}, "fusion_lon": 0.0, "lat": 38.92125866666667, "bike_id": "1970c7b8a3299e61cf2522f866c565e2", "type": "electric_bike", "is_reserved": 0, "lon": -77.01081316666667}, {"fusion_lat": 0.0, "name": "5d6ba79c3ea04c7e6634819ff51886da", "is_disabled": 0, "rental_uris": {"android": "https://dc.lft.to/lastmile_qr_scan", "ios": "https://dc.lft.to/lastmile_qr_scan"}, "fusion_lon": 0.0, "lat": 38.91367366666667, "bike_id": "5d6ba79c3ea04c7e6634819ff51886da", "type": "electric_scooter", "is_reserved": 0, "lon": -77.045602}, {"fusion_lat": 0.0, "name": "3b112c29c6e86eb9aee29338d42d0c50", "is_disabled": 0, "rental_uris": {"android": "https://dc.lft.to/lastmile_qr_scan", "ios": "https://dc.lft.to/lastmile_qr_scan"}, "fusion_lon": 0.0, "lat": 38.887676666666664, "bike_id": "3b112c29c6e86eb9aee29338d42d0c50", "type": "electric_scooter", "is_reserved": 0, "lon": -76.9775385}, {"fusion_lat": 0.0, "name": "6aaf85f114ebab9dd5fc962fbf7ec7dc", "is_disabled": 0, "rental_uris": {"android": "https://dc.lft.to/lastmile_qr_scan", "ios": "https://dc.lft.to/lastmile_qr_scan"}, "fusion_lon": 0.0, "lat": 38.87472566666667, "bike_id": "6aaf85f114ebab9dd5fc962fbf7ec7dc", "type": "electric_bike", "is_reserved": 0, "lon": -77.00873333333334}, {"fusion_lat": 0.0, "name": "4c2813cae2628ce5ff9c1c5f54940a6b", "is_disabled": 0, "rental_uris": {"android": "https://dc.lft.to/lastmile_qr_scan", "ios": "https://dc.lft.to/lastmile_qr_scan"}, "fusion_lon": 0.0, "lat": 38.824598, "bike_id": "4c2813cae2628ce5ff9c1c5f54940a6b", "type": "electric_bike", "is_reserved": 0, "lon": -77.007964}, {"fusion_lat": 0.0, "name": "806745f9840ebd7505d3b36d9ddc9d69", "is_disabled": 0, "rental_uris": {"android": "https://dc.lft.to/lastmile_qr_scan", "ios": "https://dc.lft.to/lastmile_qr_scan"}, "fusion_lon": 0.0, "lat": 38.906106, "bike_id": "806745f9840ebd7505d3b36d9ddc9d69", "type": "electric_scooter", "is_reserved": 0, "lon": -77.040455}, {"fusion_lat": 0.0, "name": "228c9ee314031f23884a3daed59212cf", "is_disabled": 0, "rental_uris": {"android": "https://dc.lft.to/lastmile_qr_scan", "ios": "https://dc.lft.to/lastmile_qr_scan"}, "fusion_lon": 0.0, "lat": 38.9002535, "bike_id": "228c9ee314031f23884a3daed59212cf", "type": "electric_scooter", "is_reserved": 0, "lon": -77.00689166666666}, {"fusion_lat": 0.0, "name": "fdcc5ccbebabb0f4d77ebc6285ac2a5f", "is_disabled": 0, "rental_uris": {"android": "https://dc.lft.to/lastmile_qr_scan", "ios": "https://dc.lft.to/lastmile_qr_scan"}, "fusion_lon": 0.0, "lat": 38.90952016666667, "bike_id": "fdcc5ccbebabb0f4d77ebc6285ac2a5f", "type": "electric_scooter", "is_reserved": 0, "lon": -76.98540966666667}, {"fusion_lat": 0.0, "name": "4909e0fab9339fa64429c62c4e31e0f6", "is_disabled": 0, "rental_uris": {"android": "https://dc.lft.to/lastmile_qr_scan", "ios": "https://dc.lft.to/lastmile_qr_scan"}, "fusion_lon": 0.0, "lat": 38.91700783333334, "bike_id": "4909e0fab9339fa64429c62c4e31e0f6", "type": "electric_scooter", "is_reserved": 0, "lon": -77.04220516666666}, {"fusion_lat": 0.0, "name": "3bdcf8f4ad587a5144324d4f5d3b6351", "is_disabled": 0, "rental_uris": {"android": "https://dc.lft.to/lastmile_qr_scan", "ios": "https://dc.lft.to/lastmile_qr_scan"}, "fusion_lon": 0.0, "lat": 38.912617, "bike_id": "3bdcf8f4ad587a5144324d4f5d3b6351", "type": "electric_scooter", "is_reserved": 0, "lon": -77.04840683333333}, {"fusion_lat": 0.0, "name": "9a8fdca5e46086d1317f9f22363ae2c8", "is_disabled": 0, "rental_uris": {"android": "https://dc.lft.to/lastmile_qr_scan", "ios": "https://dc.lft.to/lastmile_qr_scan"}, "fusion_lon": 0.0, "lat": 38.918060833333335, "bike_id": "9a8fdca5e46086d1317f9f22363ae2c8", "type": "electric_scooter", "is_reserved": 0, "lon": -77.0463395}, {"fusion_lat": 0.0, "name": "ffcada7579707de886b1720ea54055c4", "is_disabled": 0, "rental_uris": {"android": "https://dc.lft.to/lastmile_qr_scan", "ios": "https://dc.lft.to/lastmile_qr_scan"}, "fusion_lon": 0.0, "lat": 38.921379, "bike_id": "ffcada7579707de886b1720ea54055c4", "type": "electric_scooter", "is_reserved": 0, "lon": -77.009602}, {"fusion_lat": 0.0, "name": "d8f1307bb95334f0cdbc201c1d428651", "is_disabled": 0, "rental_uris": {"android": "https://dc.lft.to/lastmile_qr_scan", "ios": "https://dc.lft.to/lastmile_qr_scan"}, "fusion_lon": 0.0, "lat": 38.915515, "bike_id": "d8f1307bb95334f0cdbc201c1d428651", "type": "electric_scooter", "is_reserved": 0, "lon": -77.01204533333333}, {"fusion_lat": 0.0, "name": "db758762ab1728572f518c2e6be259b5", "is_disabled": 0, "rental_uris": {"android": "https://dc.lft.to/lastmile_qr_scan", "ios": "https://dc.lft.to/lastmile_qr_scan"}, "fusion_lon": 0.0, "lat": 38.854589, "bike_id": "db758762ab1728572f518c2e6be259b5", "type": "electric_scooter", "is_reserved": 0, "lon": -76.97233083333333}, {"fusion_lat": 0.0, "name": "03ad8de04c1cc97350e82be925972424", "is_disabled": 0, "rental_uris": {"android": "https://dc.lft.to/lastmile_qr_scan", "ios": "https://dc.lft.to/lastmile_qr_scan"}, "fusion_lon": 0.0, "lat": 38.905629833333336, "bike_id": "03ad8de04c1cc97350e82be925972424", "type": "electric_scooter", "is_reserved": 0, "lon": -77.02029733333333}, {"fusion_lat": 0.0, "name": "98f9ce6aae07b5d5181b069b85b31333", "is_disabled": 0, "rental_uris": {"android": "https://dc.lft.to/lastmile_qr_scan", "ios": "https://dc.lft.to/lastmile_qr_scan"}, "fusion_lon": 0.0, "lat": 38.906261, "bike_id": "98f9ce6aae07b5d5181b069b85b31333", "type": "electric_scooter", "is_reserved": 0, "lon": -77.006169}, {"fusion_lat": 0.0, "name": "dd0dc20ea7ae4f5f1f66fd341442bf5e", "is_disabled": 0, "rental_uris": {"android": "https://dc.lft.to/lastmile_qr_scan", "ios": "https://dc.lft.to/lastmile_qr_scan"}, "fusion_lon": 0.0, "lat": 38.8861415, "bike_id": "dd0dc20ea7ae4f5f1f66fd341442bf5e", "type": "electric_scooter", "is_reserved": 0, "lon": -77.015588}, {"fusion_lat": 0.0, "name": "463df316f6d7d8ca5ea50719f4a8daf9", "is_disabled": 0, "rental_uris": {"android": "https://dc.lft.to/lastmile_qr_scan", "ios": "https://dc.lft.to/lastmile_qr_scan"}, "fusion_lon": 0.0, "lat": 38.96371933333333, "bike_id": "463df316f6d7d8ca5ea50719f4a8daf9", "type": "electric_scooter", "is_reserved": 0, "lon": -77.02048433333333}, {"fusion_lat": 0.0, "name": "e68a076852eb1228b450aa2a4a288b98", "is_disabled": 0, "rental_uris": {"android": "https://dc.lft.to/lastmile_qr_scan", "ios": "https://dc.lft.to/lastmile_qr_scan"}, "fusion_lon": 0.0, "lat": 38.89233333333333, "bike_id": "e68a076852eb1228b450aa2a4a288b98", "type": "electric_scooter", "is_reserved": 0, "lon": -77.01716216666667}, {"fusion_lat": 0.0, "name": "2c052194ab1727ce426a34c8ca2b0015", "is_disabled": 0, "rental_uris": {"android": "https://dc.lft.to/lastmile_qr_scan", "ios": "https://dc.lft.to/lastmile_qr_scan"}, "fusion_lon": 0.0, "lat": 38.928529166666664, "bike_id": "2c052194ab1727ce426a34c8ca2b0015", "type": "electric_scooter", "is_reserved": 0, "lon": -77.02441266666666}, {"fusion_lat": 0.0, "name": "b65e62989bd256a92892760b4c252030", "is_disabled": 0, "rental_uris": {"android": "https://dc.lft.to/lastmile_qr_scan", "ios": "https://dc.lft.to/lastmile_qr_scan"}, "fusion_lon": 0.0, "lat": 38.921138666666664, "bike_id": "b65e62989bd256a92892760b4c252030", "type": "electric_scooter", "is_reserved": 0, "lon": -77.04392233333333}, {"fusion_lat": 0.0, "name": "3b7d3e5b75ccb33844eef49716c87d3d", "is_disabled": 0, "rental_uris": {"android": "https://dc.lft.to/lastmile_qr_scan", "ios": "https://dc.lft.to/lastmile_qr_scan"}, "fusion_lon": 0.0, "lat": 38.906924833333335, "bike_id": "3b7d3e5b75ccb33844eef49716c87d3d", "type": "electric_scooter", "is_reserved": 0, "lon": -76.9850525}, {"fusion_lat": 0.0, "name": "ea550ec93b78488066fc2cdec0c71bd3", "is_disabled": 0, "rental_uris": {"android": "https://dc.lft.to/lastmile_qr_scan", "ios": "https://dc.lft.to/lastmile_qr_scan"}, "fusion_lon": 0.0, "lat": 38.9004875, "bike_id": "ea550ec93b78488066fc2cdec0c71bd3", "type": "electric_scooter", "is_reserved": 0, "lon": -77.01881733333333}, {"fusion_lat": 0.0, "name": "b12064323863a01f3690dd6cba17616a", "is_disabled": 0, "rental_uris": {"android": "https://dc.lft.to/lastmile_qr_scan", "ios": "https://dc.lft.to/lastmile_qr_scan"}, "fusion_lon": 0.0, "lat": 38.88770016666667, "bike_id": "b12064323863a01f3690dd6cba17616a", "type": "electric_scooter", "is_reserved": 0, "lon": -76.97752233333334}, {"fusion_lat": 0.0, "name": "569b97f7367865c7a2358d31d7dd6267", "is_disabled": 0, "rental_uris": {"android": "https://dc.lft.to/lastmile_qr_scan", "ios": "https://dc.lft.to/lastmile_qr_scan"}, "fusion_lon": 0.0, "lat": 38.896304666666666, "bike_id": "569b97f7367865c7a2358d31d7dd6267", "type": "electric_scooter", "is_reserved": 0, "lon": -77.00911516666666}, {"fusion_lat": 0.0, "name": "71ea8779d96d783c4d51d5417fea4315", "is_disabled": 0, "rental_uris": {"android": "https://dc.lft.to/lastmile_qr_scan", "ios": "https://dc.lft.to/lastmile_qr_scan"}, "fusion_lon": 0.0, "lat": 38.90737433333334, "bike_id": "71ea8779d96d783c4d51d5417fea4315", "type": "electric_scooter", "is_reserved": 0, "lon": -77.04185116666666}, {"fusion_lat": 0.0, "name": "efc64b75260f2979a63d9835aa717070", "is_disabled": 0, "rental_uris": {"android": "https://dc.lft.to/lastmile_qr_scan", "ios": "https://dc.lft.to/lastmile_qr_scan"}, "fusion_lon": 0.0, "lat": 38.909759666666666, "bike_id": "efc64b75260f2979a63d9835aa717070", "type": "electric_scooter", "is_reserved": 0, "lon": -77.00897283333333}, {"fusion_lat": 0.0, "name": "fb11f4aed39559066ec22a2f68036cf1", "is_disabled": 0, "rental_uris": {"android": "https://dc.lft.to/lastmile_qr_scan", "ios": "https://dc.lft.to/lastmile_qr_scan"}, "fusion_lon": 0.0, "lat": 38.941600333333334, "bike_id": "fb11f4aed39559066ec22a2f68036cf1", "type": "electric_scooter", "is_reserved": 0, "lon": -77.02624683333333}, {"fusion_lat": 0.0, "name": "73733055a8e19702071b070daa05af6b", "is_disabled": 0, "rental_uris": {"android": "https://dc.lft.to/lastmile_qr_scan", "ios": "https://dc.lft.to/lastmile_qr_scan"}, "fusion_lon": 0.0, "lat": 38.9208615, "bike_id": "73733055a8e19702071b070daa05af6b", "type": "electric_scooter", "is_reserved": 0, "lon": -77.02424883333333}, {"fusion_lat": 0.0, "name": "a09d70afa75ea2c9994f7787d996664b", "is_disabled": 0, "rental_uris": {"android": "https://dc.lft.to/lastmile_qr_scan", "ios": "https://dc.lft.to/lastmile_qr_scan"}, "fusion_lon": 0.0, "lat": 38.88426616666667, "bike_id": "a09d70afa75ea2c9994f7787d996664b", "type": "electric_scooter", "is_reserved": 0, "lon": -77.02194416666667}, {"fusion_lat": 0.0, "name": "e436f9f722b2c621a4f6088841155720", "is_disabled": 0, "rental_uris": {"android": "https://dc.lft.to/lastmile_qr_scan", "ios": "https://dc.lft.to/lastmile_qr_scan"}, "fusion_lon": 0.0, "lat": 38.905137, "bike_id": "e436f9f722b2c621a4f6088841155720", "type": "electric_scooter", "is_reserved": 0, "lon": -77.017942}, {"fusion_lat": 0.0, "name": "f06e3225dff77800c3f838312184701e", "is_disabled": 0, "rental_uris": {"android": "https://dc.lft.to/lastmile_qr_scan", "ios": "https://dc.lft.to/lastmile_qr_scan"}, "fusion_lon": 0.0, "lat": 38.9339275, "bike_id": "f06e3225dff77800c3f838312184701e", "type": "electric_scooter", "is_reserved": 0, "lon": -77.05740416666667}, {"fusion_lat": 0.0, "name": "79390311ec9995447c562d57e60c7563", "is_disabled": 0, "rental_uris": {"android": "https://dc.lft.to/lastmile_qr_scan", "ios": "https://dc.lft.to/lastmile_qr_scan"}, "fusion_lon": 0.0, "lat": 38.887206166666665, "bike_id": "79390311ec9995447c562d57e60c7563", "type": "electric_scooter", "is_reserved": 0, "lon": -77.01328883333333}, {"fusion_lat": 0.0, "name": "8e6fccb380849925480482bcc3edd35b", "is_disabled": 0, "rental_uris": {"android": "https://dc.lft.to/lastmile_qr_scan", "ios": "https://dc.lft.to/lastmile_qr_scan"}, "fusion_lon": 0.0, "lat": 38.9620665, "bike_id": "8e6fccb380849925480482bcc3edd35b", "type": "electric_scooter", "is_reserved": 0, "lon": -77.02238783333334}, {"fusion_lat": 0.0, "name": "9f71bab8cafe786d3444b829e1c75987", "is_disabled": 0, "rental_uris": {"android": "https://dc.lft.to/lastmile_qr_scan", "ios": "https://dc.lft.to/lastmile_qr_scan"}, "fusion_lon": 0.0, "lat": 38.93539583333333, "bike_id": "9f71bab8cafe786d3444b829e1c75987", "type": "electric_scooter", "is_reserved": 0, "lon": -77.02356166666667}, {"fusion_lat": 0.0, "name": "36c0fda301c08c45b56f1f46761b14cf", "is_disabled": 0, "rental_uris": {"android": "https://dc.lft.to/lastmile_qr_scan", "ios": "https://dc.lft.to/lastmile_qr_scan"}, "fusion_lon": 0.0, "lat": 38.9030585, "bike_id": "36c0fda301c08c45b56f1f46761b14cf", "type": "electric_bike", "is_reserved": 0, "lon": -76.97655}, {"fusion_lat": 0.0, "name": "05da7336d0f4eabd9c85d7bd1ac4379c", "is_disabled": 0, "rental_uris": {"android": "https://dc.lft.to/lastmile_qr_scan", "ios": "https://dc.lft.to/lastmile_qr_scan"}, "fusion_lon": 0.0, "lat": 38.997766666666664, "bike_id": "05da7336d0f4eabd9c85d7bd1ac4379c", "type": "electric_bike", "is_reserved": 0, "lon": -77.0471565}, {"fusion_lat": 0.0, "name": "da4d8e44816f07b32a2f560be1ef87c7", "is_disabled": 0, "rental_uris": {"android": "https://dc.lft.to/lastmile_qr_scan", "ios": "https://dc.lft.to/lastmile_qr_scan"}, "fusion_lon": 0.0, "lat": 38.902931333333335, "bike_id": "da4d8e44816f07b32a2f560be1ef87c7", "type": "electric_scooter", "is_reserved": 0, "lon": -76.97635333333334}, {"fusion_lat": 0.0, "name": "0c90e46b880264d40c78ed899ea73109", "is_disabled": 0, "rental_uris": {"android": "https://dc.lft.to/lastmile_qr_scan", "ios": "https://dc.lft.to/lastmile_qr_scan"}, "fusion_lon": 0.0, "lat": 38.92670533333333, "bike_id": "0c90e46b880264d40c78ed899ea73109", "type": "electric_scooter", "is_reserved": 0, "lon": -77.03104383333333}, {"fusion_lat": 0.0, "name": "3b1d78fa5c6d260a238a8c1968144023", "is_disabled": 0, "rental_uris": {"android": "https://dc.lft.to/lastmile_qr_scan", "ios": "https://dc.lft.to/lastmile_qr_scan"}, "fusion_lon": 0.0, "lat": 38.92233216666666, "bike_id": "3b1d78fa5c6d260a238a8c1968144023", "type": "electric_scooter", "is_reserved": 0, "lon": -77.02332233333334}, {"fusion_lat": 0.0, "name": "db9a72cb05a25973074019511c94ec18", "is_disabled": 0, "rental_uris": {"android": "https://dc.lft.to/lastmile_qr_scan", "ios": "https://dc.lft.to/lastmile_qr_scan"}, "fusion_lon": 0.0, "lat": 38.8962665, "bike_id": "db9a72cb05a25973074019511c94ec18", "type": "electric_scooter", "is_reserved": 0, "lon": -77.031744}, {"fusion_lat": 0.0, "name": "545898ffcd311b4c954f862f72f6a8d8", "is_disabled": 0, "rental_uris": {"android": "https://dc.lft.to/lastmile_qr_scan", "ios": "https://dc.lft.to/lastmile_qr_scan"}, "fusion_lon": 0.0, "lat": 38.91831, "bike_id": "545898ffcd311b4c954f862f72f6a8d8", "type": "electric_scooter", "is_reserved": 0, "lon": -77.03642933333333}, {"fusion_lat": 0.0, "name": "d091d6e33f53bca41d31d76c13581b66", "is_disabled": 0, "rental_uris": {"android": "https://dc.lft.to/lastmile_qr_scan", "ios": "https://dc.lft.to/lastmile_qr_scan"}, "fusion_lon": 0.0, "lat": 38.902158, "bike_id": "d091d6e33f53bca41d31d76c13581b66", "type": "electric_scooter", "is_reserved": 0, "lon": -76.975124}, {"fusion_lat": 0.0, "name": "8e38a5964825c74f80aae2334db8455d", "is_disabled": 0, "rental_uris": {"android": "https://dc.lft.to/lastmile_qr_scan", "ios": "https://dc.lft.to/lastmile_qr_scan"}, "fusion_lon": 0.0, "lat": 38.90040466666667, "bike_id": "8e38a5964825c74f80aae2334db8455d", "type": "electric_scooter", "is_reserved": 0, "lon": -76.99251583333333}, {"fusion_lat": 0.0, "name": "45890aa04e91720ec5493a76554c4ac8", "is_disabled": 0, "rental_uris": {"android": "https://dc.lft.to/lastmile_qr_scan", "ios": "https://dc.lft.to/lastmile_qr_scan"}, "fusion_lon": 0.0, "lat": 38.91474383333333, "bike_id": "45890aa04e91720ec5493a76554c4ac8", "type": "electric_scooter", "is_reserved": 0, "lon": -77.03213366666667}, {"fusion_lat": 0.0, "name": "d60beaf0ffbb5502d86b6496892086c0", "is_disabled": 0, "rental_uris": {"android": "https://dc.lft.to/lastmile_qr_scan", "ios": "https://dc.lft.to/lastmile_qr_scan"}, "fusion_lon": 0.0, "lat": 38.894736, "bike_id": "d60beaf0ffbb5502d86b6496892086c0", "type": "electric_scooter", "is_reserved": 0, "lon": -77.02686983333334}, {"fusion_lat": 0.0, "name": "4dc10c89f74b1df844bcfadc40fcca3a", "is_disabled": 0, "rental_uris": {"android": "https://dc.lft.to/lastmile_qr_scan", "ios": "https://dc.lft.to/lastmile_qr_scan"}, "fusion_lon": 0.0, "lat": 38.907321, "bike_id": "4dc10c89f74b1df844bcfadc40fcca3a", "type": "electric_scooter", "is_reserved": 0, "lon": -77.03461766666666}, {"fusion_lat": 0.0, "name": "283f09d53ebd4d4806b684c775671ff1", "is_disabled": 0, "rental_uris": {"android": "https://dc.lft.to/lastmile_qr_scan", "ios": "https://dc.lft.to/lastmile_qr_scan"}, "fusion_lon": 0.0, "lat": 38.86142816666667, "bike_id": "283f09d53ebd4d4806b684c775671ff1", "type": "electric_bike", "is_reserved": 0, "lon": -76.97171366666667}, {"fusion_lat": 0.0, "name": "3bde3853b2bdffdac13a885804398197", "is_disabled": 0, "rental_uris": {"android": "https://dc.lft.to/lastmile_qr_scan", "ios": "https://dc.lft.to/lastmile_qr_scan"}, "fusion_lon": 0.0, "lat": 38.94299, "bike_id": "3bde3853b2bdffdac13a885804398197", "type": "electric_scooter", "is_reserved": 0, "lon": -77.02167933333334}, {"fusion_lat": 0.0, "name": "95bb87d92bcee9da62604aa7aad0a617", "is_disabled": 0, "rental_uris": {"android": "https://dc.lft.to/lastmile_qr_scan", "ios": "https://dc.lft.to/lastmile_qr_scan"}, "fusion_lon": 0.0, "lat": 38.904651666666666, "bike_id": "95bb87d92bcee9da62604aa7aad0a617", "type": "electric_scooter", "is_reserved": 0, "lon": -77.01775583333334}, {"fusion_lat": 0.0, "name": "b463eb8b67e9595ad293be34bb5f737c", "is_disabled": 0, "rental_uris": {"android": "https://dc.lft.to/lastmile_qr_scan", "ios": "https://dc.lft.to/lastmile_qr_scan"}, "fusion_lon": 0.0, "lat": 38.909569, "bike_id": "b463eb8b67e9595ad293be34bb5f737c", "type": "electric_scooter", "is_reserved": 0, "lon": -77.03210183333333}, {"fusion_lat": 0.0, "name": "3d9b2a2f85a32148b2dcf6c4ebcd8250", "is_disabled": 0, "rental_uris": {"android": "https://dc.lft.to/lastmile_qr_scan", "ios": "https://dc.lft.to/lastmile_qr_scan"}, "fusion_lon": 0.0, "lat": 38.92649466666667, "bike_id": "3d9b2a2f85a32148b2dcf6c4ebcd8250", "type": "electric_scooter", "is_reserved": 0, "lon": -77.02417616666666}, {"fusion_lat": 0.0, "name": "1bfcbe07faa47a0d17b5ab308f63cc48", "is_disabled": 0, "rental_uris": {"android": "https://dc.lft.to/lastmile_qr_scan", "ios": "https://dc.lft.to/lastmile_qr_scan"}, "fusion_lon": 0.0, "lat": 38.9675405, "bike_id": "1bfcbe07faa47a0d17b5ab308f63cc48", "type": "electric_bike", "is_reserved": 0, "lon": -77.0279535}, {"fusion_lat": 0.0, "name": "a3335859d31a61bc5b5e4bfa2685a165", "is_disabled": 0, "rental_uris": {"android": "https://dc.lft.to/lastmile_qr_scan", "ios": "https://dc.lft.to/lastmile_qr_scan"}, "fusion_lon": 0.0, "lat": 38.941837, "bike_id": "a3335859d31a61bc5b5e4bfa2685a165", "type": "electric_scooter", "is_reserved": 0, "lon": -77.0240565}, {"fusion_lat": 0.0, "name": "1eeffd93a78a7d9d031356392b86886d", "is_disabled": 0, "rental_uris": {"android": "https://dc.lft.to/lastmile_qr_scan", "ios": "https://dc.lft.to/lastmile_qr_scan"}, "fusion_lon": 0.0, "lat": 38.9104155, "bike_id": "1eeffd93a78a7d9d031356392b86886d", "type": "electric_scooter", "is_reserved": 0, "lon": -77.03836983333333}, {"fusion_lat": 0.0, "name": "ef1798820afb78351ee23b891b1719f1", "is_disabled": 0, "rental_uris": {"android": "https://dc.lft.to/lastmile_qr_scan", "ios": "https://dc.lft.to/lastmile_qr_scan"}, "fusion_lon": 0.0, "lat": 38.899673, "bike_id": "ef1798820afb78351ee23b891b1719f1", "type": "electric_scooter", "is_reserved": 0, "lon": -77.04791683333333}, {"fusion_lat": 0.0, "name": "4f79c25404056c92aa58e50626ae9baf", "is_disabled": 0, "rental_uris": {"android": "https://dc.lft.to/lastmile_qr_scan", "ios": "https://dc.lft.to/lastmile_qr_scan"}, "fusion_lon": 0.0, "lat": 38.9006455, "bike_id": "4f79c25404056c92aa58e50626ae9baf", "type": "electric_scooter", "is_reserved": 0, "lon": -76.98722}, {"fusion_lat": 0.0, "name": "66f7ff0532a7c4068a8f17cf15f71a7b", "is_disabled": 0, "rental_uris": {"android": "https://dc.lft.to/lastmile_qr_scan", "ios": "https://dc.lft.to/lastmile_qr_scan"}, "fusion_lon": 0.0, "lat": 38.92827583333333, "bike_id": "66f7ff0532a7c4068a8f17cf15f71a7b", "type": "electric_bike", "is_reserved": 0, "lon": -77.0541495}, {"fusion_lat": 0.0, "name": "dc11eed7764efe56db6a7157bde1a8c9", "is_disabled": 0, "rental_uris": {"android": "https://dc.lft.to/lastmile_qr_scan", "ios": "https://dc.lft.to/lastmile_qr_scan"}, "fusion_lon": 0.0, "lat": 38.816076, "bike_id": "dc11eed7764efe56db6a7157bde1a8c9", "type": "electric_bike", "is_reserved": 0, "lon": -76.99658783333334}, {"fusion_lat": 0.0, "name": "f52a4155cc66e5b4b792fb8abbe2b383", "is_disabled": 0, "rental_uris": {"android": "https://dc.lft.to/lastmile_qr_scan", "ios": "https://dc.lft.to/lastmile_qr_scan"}, "fusion_lon": 0.0, "lat": 39.0141695, "bike_id": "f52a4155cc66e5b4b792fb8abbe2b383", "type": "electric_bike", "is_reserved": 0, "lon": -77.044988}, {"fusion_lat": 0.0, "name": "9af08cb19031bca8a2fe060aee0aa1fe", "is_disabled": 0, "rental_uris": {"android": "https://dc.lft.to/lastmile_qr_scan", "ios": "https://dc.lft.to/lastmile_qr_scan"}, "fusion_lon": 0.0, "lat": 38.88508383333333, "bike_id": "9af08cb19031bca8a2fe060aee0aa1fe", "type": "electric_scooter", "is_reserved": 0, "lon": -76.997565}, {"fusion_lat": 0.0, "name": "d901e76fe845b7b426930852be08bff0", "is_disabled": 0, "rental_uris": {"android": "https://dc.lft.to/lastmile_qr_scan", "ios": "https://dc.lft.to/lastmile_qr_scan"}, "fusion_lon": 0.0, "lat": 38.924221333333335, "bike_id": "d901e76fe845b7b426930852be08bff0", "type": "electric_scooter", "is_reserved": 0, "lon": -77.03641333333333}, {"fusion_lat": 0.0, "name": "980bae763b2e537f5c5e4d485e5eeed4", "is_disabled": 0, "rental_uris": {"android": "https://dc.lft.to/lastmile_qr_scan", "ios": "https://dc.lft.to/lastmile_qr_scan"}, "fusion_lon": 0.0, "lat": 38.91773216666667, "bike_id": "980bae763b2e537f5c5e4d485e5eeed4", "type": "electric_scooter", "is_reserved": 0, "lon": -77.01922983333333}, {"fusion_lat": 0.0, "name": "1364c099ce0ec1e7294b4838e04a82a8", "is_disabled": 0, "rental_uris": {"android": "https://dc.lft.to/lastmile_qr_scan", "ios": "https://dc.lft.to/lastmile_qr_scan"}, "fusion_lon": 0.0, "lat": 38.849136333333334, "bike_id": "1364c099ce0ec1e7294b4838e04a82a8", "type": "electric_bike", "is_reserved": 0, "lon": -77.07928783333334}, {"fusion_lat": 0.0, "name": "b597abe601d0dfccc05a78acbc45aedd", "is_disabled": 0, "rental_uris": {"android": "https://dc.lft.to/lastmile_qr_scan", "ios": "https://dc.lft.to/lastmile_qr_scan"}, "fusion_lon": 0.0, "lat": 38.92030533333333, "bike_id": "b597abe601d0dfccc05a78acbc45aedd", "type": "electric_scooter", "is_reserved": 0, "lon": -77.04814566666667}, {"fusion_lat": 0.0, "name": "b8422c5cd76406cd058464f853e33a2c", "is_disabled": 0, "rental_uris": {"android": "https://dc.lft.to/lastmile_qr_scan", "ios": "https://dc.lft.to/lastmile_qr_scan"}, "fusion_lon": 0.0, "lat": 38.92083783333333, "bike_id": "b8422c5cd76406cd058464f853e33a2c", "type": "electric_scooter", "is_reserved": 0, "lon": -77.027262}, {"fusion_lat": 0.0, "name": "14ffa61f2da1aad675b807c4051f9dcd", "is_disabled": 0, "rental_uris": {"android": "https://dc.lft.to/lastmile_qr_scan", "ios": "https://dc.lft.to/lastmile_qr_scan"}, "fusion_lon": 0.0, "lat": 38.9576365, "bike_id": "14ffa61f2da1aad675b807c4051f9dcd", "type": "electric_bike", "is_reserved": 0, "lon": -76.9809185}, {"fusion_lat": 0.0, "name": "436a18078f15832eacd49ccfb9f35edc", "is_disabled": 0, "rental_uris": {"android": "https://dc.lft.to/lastmile_qr_scan", "ios": "https://dc.lft.to/lastmile_qr_scan"}, "fusion_lon": 0.0, "lat": 38.9208345, "bike_id": "436a18078f15832eacd49ccfb9f35edc", "type": "electric_scooter", "is_reserved": 0, "lon": -77.01817416666667}, {"fusion_lat": 0.0, "name": "aac66329d69b2031ad96a62a46c054bd", "is_disabled": 0, "rental_uris": {"android": "https://dc.lft.to/lastmile_qr_scan", "ios": "https://dc.lft.to/lastmile_qr_scan"}, "fusion_lon": 0.0, "lat": 38.90135566666667, "bike_id": "aac66329d69b2031ad96a62a46c054bd", "type": "electric_scooter", "is_reserved": 0, "lon": -77.04470616666667}, {"fusion_lat": 0.0, "name": "e3607c65bd07bcff372004f367968809", "is_disabled": 0, "rental_uris": {"android": "https://dc.lft.to/lastmile_qr_scan", "ios": "https://dc.lft.to/lastmile_qr_scan"}, "fusion_lon": 0.0, "lat": 38.898866, "bike_id": "e3607c65bd07bcff372004f367968809", "type": "electric_scooter", "is_reserved": 0, "lon": -77.03270333333333}, {"fusion_lat": 0.0, "name": "4bdd2a8663a20b7975a12ce9570aee6e", "is_disabled": 0, "rental_uris": {"android": "https://dc.lft.to/lastmile_qr_scan", "ios": "https://dc.lft.to/lastmile_qr_scan"}, "fusion_lon": 0.0, "lat": 38.8962635, "bike_id": "4bdd2a8663a20b7975a12ce9570aee6e", "type": "electric_scooter", "is_reserved": 0, "lon": -77.04643966666667}, {"fusion_lat": 0.0, "name": "f2970b52d560d793ee5f4485602b507a", "is_disabled": 0, "rental_uris": {"android": "https://dc.lft.to/lastmile_qr_scan", "ios": "https://dc.lft.to/lastmile_qr_scan"}, "fusion_lon": 0.0, "lat": 38.92906766666667, "bike_id": "f2970b52d560d793ee5f4485602b507a", "type": "electric_scooter", "is_reserved": 0, "lon": -77.06408516666667}, {"fusion_lat": 0.0, "name": "5d374b551c332bf63947efd6ff5d9a57", "is_disabled": 0, "rental_uris": {"android": "https://dc.lft.to/lastmile_qr_scan", "ios": "https://dc.lft.to/lastmile_qr_scan"}, "fusion_lon": 0.0, "lat": 38.959696666666666, "bike_id": "5d374b551c332bf63947efd6ff5d9a57", "type": "electric_bike", "is_reserved": 0, "lon": -76.98165933333334}, {"fusion_lat": 0.0, "name": "d15b89eae1e8e200a26bc39cd0d0f887", "is_disabled": 0, "rental_uris": {"android": "https://dc.lft.to/lastmile_qr_scan", "ios": "https://dc.lft.to/lastmile_qr_scan"}, "fusion_lon": 0.0, "lat": 38.901321833333334, "bike_id": "d15b89eae1e8e200a26bc39cd0d0f887", "type": "electric_scooter", "is_reserved": 0, "lon": -77.00326383333334}, {"fusion_lat": 0.0, "name": "41b260f1ef8fdfa6be48039888c5830e", "is_disabled": 0, "rental_uris": {"android": "https://dc.lft.to/lastmile_qr_scan", "ios": "https://dc.lft.to/lastmile_qr_scan"}, "fusion_lon": 0.0, "lat": 38.928604, "bike_id": "41b260f1ef8fdfa6be48039888c5830e", "type": "electric_scooter", "is_reserved": 0, "lon": -77.03104683333333}, {"fusion_lat": 0.0, "name": "1798bda7347a73d206845cf0c793bb9d", "is_disabled": 0, "rental_uris": {"android": "https://dc.lft.to/lastmile_qr_scan", "ios": "https://dc.lft.to/lastmile_qr_scan"}, "fusion_lon": 0.0, "lat": 38.929675, "bike_id": "1798bda7347a73d206845cf0c793bb9d", "type": "electric_scooter", "is_reserved": 0, "lon": -77.03097766666667}, {"fusion_lat": 0.0, "name": "4e0525131bcbe0e24f1e27be933980f7", "is_disabled": 0, "rental_uris": {"android": "https://dc.lft.to/lastmile_qr_scan", "ios": "https://dc.lft.to/lastmile_qr_scan"}, "fusion_lon": 0.0, "lat": 38.906748666666665, "bike_id": "4e0525131bcbe0e24f1e27be933980f7", "type": "electric_scooter", "is_reserved": 0, "lon": -77.04718283333334}, {"fusion_lat": 0.0, "name": "527b3db658e0eeaf2835ed5ddba75ffb", "is_disabled": 0, "rental_uris": {"android": "https://dc.lft.to/lastmile_qr_scan", "ios": "https://dc.lft.to/lastmile_qr_scan"}, "fusion_lon": 0.0, "lat": 38.879010666666666, "bike_id": "527b3db658e0eeaf2835ed5ddba75ffb", "type": "electric_scooter", "is_reserved": 0, "lon": -77.01364716666667}, {"fusion_lat": 0.0, "name": "03d793a867a44e2867dbbf57fa920d3e", "is_disabled": 0, "rental_uris": {"android": "https://dc.lft.to/lastmile_qr_scan", "ios": "https://dc.lft.to/lastmile_qr_scan"}, "fusion_lon": 0.0, "lat": 38.904921333333334, "bike_id": "03d793a867a44e2867dbbf57fa920d3e", "type": "electric_scooter", "is_reserved": 0, "lon": -77.01030466666667}, {"fusion_lat": 0.0, "name": "02d486b6ac46954b164d5b16c5409ec7", "is_disabled": 0, "rental_uris": {"android": "https://dc.lft.to/lastmile_qr_scan", "ios": "https://dc.lft.to/lastmile_qr_scan"}, "fusion_lon": 0.0, "lat": 38.917702166666665, "bike_id": "02d486b6ac46954b164d5b16c5409ec7", "type": "electric_scooter", "is_reserved": 0, "lon": -77.01505416666667}, {"fusion_lat": 0.0, "name": "1529da9ec81706a57ab793c7a9a1702a", "is_disabled": 0, "rental_uris": {"android": "https://dc.lft.to/lastmile_qr_scan", "ios": "https://dc.lft.to/lastmile_qr_scan"}, "fusion_lon": 0.0, "lat": 38.94409666666667, "bike_id": "1529da9ec81706a57ab793c7a9a1702a", "type": "electric_scooter", "is_reserved": 0, "lon": -77.032025}, {"fusion_lat": 0.0, "name": "88b5d18e85d8db63bc0acd268d1b1bf6", "is_disabled": 0, "rental_uris": {"android": "https://dc.lft.to/lastmile_qr_scan", "ios": "https://dc.lft.to/lastmile_qr_scan"}, "fusion_lon": 0.0, "lat": 38.90852966666667, "bike_id": "88b5d18e85d8db63bc0acd268d1b1bf6", "type": "electric_scooter", "is_reserved": 0, "lon": -77.04534883333334}, {"fusion_lat": 0.0, "name": "f546d5fa1dfc7b744aa4dc68e64cc103", "is_disabled": 0, "rental_uris": {"android": "https://dc.lft.to/lastmile_qr_scan", "ios": "https://dc.lft.to/lastmile_qr_scan"}, "fusion_lon": 0.0, "lat": 38.91644566666667, "bike_id": "f546d5fa1dfc7b744aa4dc68e64cc103", "type": "electric_scooter", "is_reserved": 0, "lon": -77.04792216666667}, {"fusion_lat": 0.0, "name": "9fad5414db52b9b3f30cf4043006442b", "is_disabled": 0, "rental_uris": {"android": "https://dc.lft.to/lastmile_qr_scan", "ios": "https://dc.lft.to/lastmile_qr_scan"}, "fusion_lon": 0.0, "lat": 38.89908766666667, "bike_id": "9fad5414db52b9b3f30cf4043006442b", "type": "electric_scooter", "is_reserved": 0, "lon": -77.032908}, {"fusion_lat": 0.0, "name": "c9c39e1bce2a0ca808fec905acc32491", "is_disabled": 0, "rental_uris": {"android": "https://dc.lft.to/lastmile_qr_scan", "ios": "https://dc.lft.to/lastmile_qr_scan"}, "fusion_lon": 0.0, "lat": 38.92704366666667, "bike_id": "c9c39e1bce2a0ca808fec905acc32491", "type": "electric_scooter", "is_reserved": 0, "lon": -77.02085883333334}, {"fusion_lat": 0.0, "name": "583e5165890f479ecb4e2ef0a42cc0f1", "is_disabled": 0, "rental_uris": {"android": "https://dc.lft.to/lastmile_qr_scan", "ios": "https://dc.lft.to/lastmile_qr_scan"}, "fusion_lon": 0.0, "lat": 38.96126566666667, "bike_id": "583e5165890f479ecb4e2ef0a42cc0f1", "type": "electric_bike", "is_reserved": 0, "lon": -77.03275183333334}, {"fusion_lat": 0.0, "name": "0fc18e9c566f54f313fc5e520d0775fa", "is_disabled": 0, "rental_uris": {"android": "https://dc.lft.to/lastmile_qr_scan", "ios": "https://dc.lft.to/lastmile_qr_scan"}, "fusion_lon": 0.0, "lat": 38.93975366666667, "bike_id": "0fc18e9c566f54f313fc5e520d0775fa", "type": "electric_scooter", "is_reserved": 0, "lon": -77.0356725}, {"fusion_lat": 0.0, "name": "b92b101ca9b1309443638817ab940ba2", "is_disabled": 0, "rental_uris": {"android": "https://dc.lft.to/lastmile_qr_scan", "ios": "https://dc.lft.to/lastmile_qr_scan"}, "fusion_lon": 0.0, "lat": 38.88507583333333, "bike_id": "b92b101ca9b1309443638817ab940ba2", "type": "electric_scooter", "is_reserved": 0, "lon": -76.92949716666666}, {"fusion_lat": 0.0, "name": "ddf39b14c7d2e6cdb38102694ea11cdd", "is_disabled": 0, "rental_uris": {"android": "https://dc.lft.to/lastmile_qr_scan", "ios": "https://dc.lft.to/lastmile_qr_scan"}, "fusion_lon": 0.0, "lat": 38.8846485, "bike_id": "ddf39b14c7d2e6cdb38102694ea11cdd", "type": "electric_scooter", "is_reserved": 0, "lon": -76.94984683333334}, {"fusion_lat": 0.0, "name": "1d2fee4ab114e9d678e77d8927648339", "is_disabled": 0, "rental_uris": {"android": "https://dc.lft.to/lastmile_qr_scan", "ios": "https://dc.lft.to/lastmile_qr_scan"}, "fusion_lon": 0.0, "lat": 38.87876983333334, "bike_id": "1d2fee4ab114e9d678e77d8927648339", "type": "electric_scooter", "is_reserved": 0, "lon": -77.00573483333334}, {"fusion_lat": 0.0, "name": "b5317339b4fd8852499ff8b5a09718fc", "is_disabled": 0, "rental_uris": {"android": "https://dc.lft.to/lastmile_qr_scan", "ios": "https://dc.lft.to/lastmile_qr_scan"}, "fusion_lon": 0.0, "lat": 38.90885266666667, "bike_id": "b5317339b4fd8852499ff8b5a09718fc", "type": "electric_scooter", "is_reserved": 0, "lon": -77.03217333333333}, {"fusion_lat": 0.0, "name": "9bc33caa31a9ffd8d50d07699a2f2a8e", "is_disabled": 0, "rental_uris": {"android": "https://dc.lft.to/lastmile_qr_scan", "ios": "https://dc.lft.to/lastmile_qr_scan"}, "fusion_lon": 0.0, "lat": 38.9144015, "bike_id": "9bc33caa31a9ffd8d50d07699a2f2a8e", "type": "electric_scooter", "is_reserved": 0, "lon": -76.99356216666666}, {"fusion_lat": 0.0, "name": "090d409a0fe778c31668cdce35993f39", "is_disabled": 0, "rental_uris": {"android": "https://dc.lft.to/lastmile_qr_scan", "ios": "https://dc.lft.to/lastmile_qr_scan"}, "fusion_lon": 0.0, "lat": 38.90032166666667, "bike_id": "090d409a0fe778c31668cdce35993f39", "type": "electric_bike", "is_reserved": 0, "lon": -76.97223566666666}, {"fusion_lat": 0.0, "name": "fb66727fb2c11be69f14bab30f1b3fd9", "is_disabled": 0, "rental_uris": {"android": "https://dc.lft.to/lastmile_qr_scan", "ios": "https://dc.lft.to/lastmile_qr_scan"}, "fusion_lon": 0.0, "lat": 38.892211333333336, "bike_id": "fb66727fb2c11be69f14bab30f1b3fd9", "type": "electric_scooter", "is_reserved": 0, "lon": -77.0201585}, {"fusion_lat": 0.0, "name": "d363c7e290480310f38deb8520b18c3d", "is_disabled": 0, "rental_uris": {"android": "https://dc.lft.to/lastmile_qr_scan", "ios": "https://dc.lft.to/lastmile_qr_scan"}, "fusion_lon": 0.0, "lat": 38.922571, "bike_id": "d363c7e290480310f38deb8520b18c3d", "type": "electric_scooter", "is_reserved": 0, "lon": -77.00916283333333}, {"fusion_lat": 0.0, "name": "1141ff6402972c552098f728d232ce3c", "is_disabled": 0, "rental_uris": {"android": "https://dc.lft.to/lastmile_qr_scan", "ios": "https://dc.lft.to/lastmile_qr_scan"}, "fusion_lon": 0.0, "lat": 38.92964333333333, "bike_id": "1141ff6402972c552098f728d232ce3c", "type": "electric_scooter", "is_reserved": 0, "lon": -76.99174233333333}, {"fusion_lat": 0.0, "name": "468ac72ca64a199b50000824ae9c9d61", "is_disabled": 0, "rental_uris": {"android": "https://dc.lft.to/lastmile_qr_scan", "ios": "https://dc.lft.to/lastmile_qr_scan"}, "fusion_lon": 0.0, "lat": 38.907699666666666, "bike_id": "468ac72ca64a199b50000824ae9c9d61", "type": "electric_scooter", "is_reserved": 0, "lon": -77.03849783333334}, {"fusion_lat": 0.0, "name": "ce70f45b98841e86ab8e70d6109776c8", "is_disabled": 0, "rental_uris": {"android": "https://dc.lft.to/lastmile_qr_scan", "ios": "https://dc.lft.to/lastmile_qr_scan"}, "fusion_lon": 0.0, "lat": 38.93863316666667, "bike_id": "ce70f45b98841e86ab8e70d6109776c8", "type": "electric_scooter", "is_reserved": 0, "lon": -77.02554033333334}, {"fusion_lat": 0.0, "name": "0514e6c444ed04f7a8142ed10c5ebfba", "is_disabled": 0, "rental_uris": {"android": "https://dc.lft.to/lastmile_qr_scan", "ios": "https://dc.lft.to/lastmile_qr_scan"}, "fusion_lon": 0.0, "lat": 38.83161833333333, "bike_id": "0514e6c444ed04f7a8142ed10c5ebfba", "type": "electric_bike", "is_reserved": 0, "lon": -76.99549916666666}, {"fusion_lat": 0.0, "name": "4b87656634836a8ca4fe1fa74c8c08a4", "is_disabled": 0, "rental_uris": {"android": "https://dc.lft.to/lastmile_qr_scan", "ios": "https://dc.lft.to/lastmile_qr_scan"}, "fusion_lon": 0.0, "lat": 38.92476116666667, "bike_id": "4b87656634836a8ca4fe1fa74c8c08a4", "type": "electric_scooter", "is_reserved": 0, "lon": -77.02212916666667}, {"fusion_lat": 0.0, "name": "b70be07e43c525a318a9638a1568e9b6", "is_disabled": 0, "rental_uris": {"android": "https://dc.lft.to/lastmile_qr_scan", "ios": "https://dc.lft.to/lastmile_qr_scan"}, "fusion_lon": 0.0, "lat": 38.90768683333334, "bike_id": "b70be07e43c525a318a9638a1568e9b6", "type": "electric_scooter", "is_reserved": 0, "lon": -77.03843866666666}, {"fusion_lat": 0.0, "name": "c27a0188063a4f4b8b659e091b4d415f", "is_disabled": 0, "rental_uris": {"android": "https://dc.lft.to/lastmile_qr_scan", "ios": "https://dc.lft.to/lastmile_qr_scan"}, "fusion_lon": 0.0, "lat": 38.914424833333335, "bike_id": "c27a0188063a4f4b8b659e091b4d415f", "type": "electric_scooter", "is_reserved": 0, "lon": -76.988161}, {"fusion_lat": 0.0, "name": "786cba3d0e9f50712bb04b624ed049ae", "is_disabled": 0, "rental_uris": {"android": "https://dc.lft.to/lastmile_qr_scan", "ios": "https://dc.lft.to/lastmile_qr_scan"}, "fusion_lon": 0.0, "lat": 38.9317265, "bike_id": "786cba3d0e9f50712bb04b624ed049ae", "type": "electric_scooter", "is_reserved": 0, "lon": -77.03796633333333}, {"fusion_lat": 0.0, "name": "1b9fec2bb3369a3d5177b5d83e72bb49", "is_disabled": 0, "rental_uris": {"android": "https://dc.lft.to/lastmile_qr_scan", "ios": "https://dc.lft.to/lastmile_qr_scan"}, "fusion_lon": 0.0, "lat": 38.96675716666667, "bike_id": "1b9fec2bb3369a3d5177b5d83e72bb49", "type": "electric_bike", "is_reserved": 0, "lon": -77.02306183333333}, {"fusion_lat": 0.0, "name": "eff3b629cad633769676c6f3104621fa", "is_disabled": 0, "rental_uris": {"android": "https://dc.lft.to/lastmile_qr_scan", "ios": "https://dc.lft.to/lastmile_qr_scan"}, "fusion_lon": 0.0, "lat": 38.907337, "bike_id": "eff3b629cad633769676c6f3104621fa", "type": "electric_scooter", "is_reserved": 0, "lon": -77.03461533333333}, {"fusion_lat": 0.0, "name": "588e40eba88b46c965cfcd0eb9506657", "is_disabled": 0, "rental_uris": {"android": "https://dc.lft.to/lastmile_qr_scan", "ios": "https://dc.lft.to/lastmile_qr_scan"}, "fusion_lon": 0.0, "lat": 38.87715516666667, "bike_id": "588e40eba88b46c965cfcd0eb9506657", "type": "electric_scooter", "is_reserved": 0, "lon": -77.004166}, {"fusion_lat": 0.0, "name": "a8e81f93903e117c22d4a9de4a2ef60d", "is_disabled": 0, "rental_uris": {"android": "https://dc.lft.to/lastmile_qr_scan", "ios": "https://dc.lft.to/lastmile_qr_scan"}, "fusion_lon": 0.0, "lat": 38.8665335, "bike_id": "a8e81f93903e117c22d4a9de4a2ef60d", "type": "electric_scooter", "is_reserved": 0, "lon": -76.985264}, {"fusion_lat": 0.0, "name": "bd12979dce2dc32a764699ddfee87496", "is_disabled": 0, "rental_uris": {"android": "https://dc.lft.to/lastmile_qr_scan", "ios": "https://dc.lft.to/lastmile_qr_scan"}, "fusion_lon": 0.0, "lat": 38.865166, "bike_id": "bd12979dce2dc32a764699ddfee87496", "type": "electric_bike", "is_reserved": 0, "lon": -76.973333}, {"fusion_lat": 0.0, "name": "7355210c32333fb1a39612677d0791b2", "is_disabled": 0, "rental_uris": {"android": "https://dc.lft.to/lastmile_qr_scan", "ios": "https://dc.lft.to/lastmile_qr_scan"}, "fusion_lon": 0.0, "lat": 38.9377905, "bike_id": "7355210c32333fb1a39612677d0791b2", "type": "electric_scooter", "is_reserved": 0, "lon": -77.023195}, {"fusion_lat": 0.0, "name": "ac3a4e369e421da99cc7d07d13a58dd3", "is_disabled": 0, "rental_uris": {"android": "https://dc.lft.to/lastmile_qr_scan", "ios": "https://dc.lft.to/lastmile_qr_scan"}, "fusion_lon": 0.0, "lat": 38.91299433333333, "bike_id": "ac3a4e369e421da99cc7d07d13a58dd3", "type": "electric_scooter", "is_reserved": 0, "lon": -77.03195083333334}, {"fusion_lat": 0.0, "name": "431de3afd8306637f5d8d9ed60a64007", "is_disabled": 0, "rental_uris": {"android": "https://dc.lft.to/lastmile_qr_scan", "ios": "https://dc.lft.to/lastmile_qr_scan"}, "fusion_lon": 0.0, "lat": 38.89724066666667, "bike_id": "431de3afd8306637f5d8d9ed60a64007", "type": "electric_scooter", "is_reserved": 0, "lon": -77.00800083333333}, {"fusion_lat": 0.0, "name": "aa4a8308e4692086a3833b5370946a64", "is_disabled": 0, "rental_uris": {"android": "https://dc.lft.to/lastmile_qr_scan", "ios": "https://dc.lft.to/lastmile_qr_scan"}, "fusion_lon": 0.0, "lat": 38.93274366666667, "bike_id": "aa4a8308e4692086a3833b5370946a64", "type": "electric_scooter", "is_reserved": 0, "lon": -77.04535283333334}, {"fusion_lat": 0.0, "name": "c3f19a9022d29280ef68c668c578e7f8", "is_disabled": 0, "rental_uris": {"android": "https://dc.lft.to/lastmile_qr_scan", "ios": "https://dc.lft.to/lastmile_qr_scan"}, "fusion_lon": 0.0, "lat": 38.92060333333333, "bike_id": "c3f19a9022d29280ef68c668c578e7f8", "type": "electric_scooter", "is_reserved": 0, "lon": -77.03465}, {"fusion_lat": 0.0, "name": "07247578fb55d521b4dc6de96631c6fe", "is_disabled": 0, "rental_uris": {"android": "https://dc.lft.to/lastmile_qr_scan", "ios": "https://dc.lft.to/lastmile_qr_scan"}, "fusion_lon": 0.0, "lat": 38.8999955, "bike_id": "07247578fb55d521b4dc6de96631c6fe", "type": "electric_scooter", "is_reserved": 0, "lon": -77.04100933333334}, {"fusion_lat": 0.0, "name": "cd0b718e5c6c74dd0873057c5d04daa4", "is_disabled": 0, "rental_uris": {"android": "https://dc.lft.to/lastmile_qr_scan", "ios": "https://dc.lft.to/lastmile_qr_scan"}, "fusion_lon": 0.0, "lat": 38.95542233333333, "bike_id": "cd0b718e5c6c74dd0873057c5d04daa4", "type": "electric_scooter", "is_reserved": 0, "lon": -77.02785733333333}, {"fusion_lat": 0.0, "name": "049b8fa300db12d861ec53d6150d85dc", "is_disabled": 0, "rental_uris": {"android": "https://dc.lft.to/lastmile_qr_scan", "ios": "https://dc.lft.to/lastmile_qr_scan"}, "fusion_lon": 0.0, "lat": 38.921078333333334, "bike_id": "049b8fa300db12d861ec53d6150d85dc", "type": "electric_scooter", "is_reserved": 0, "lon": -77.07470933333333}, {"fusion_lat": 0.0, "name": "6aad0bf4ed5ac89f55b06a8d72cfe474", "is_disabled": 0, "rental_uris": {"android": "https://dc.lft.to/lastmile_qr_scan", "ios": "https://dc.lft.to/lastmile_qr_scan"}, "fusion_lon": 0.0, "lat": 38.926027166666664, "bike_id": "6aad0bf4ed5ac89f55b06a8d72cfe474", "type": "electric_scooter", "is_reserved": 0, "lon": -77.03952716666667}, {"fusion_lat": 0.0, "name": "adc3104bd3310675b6f1f5582578aa58", "is_disabled": 0, "rental_uris": {"android": "https://dc.lft.to/lastmile_qr_scan", "ios": "https://dc.lft.to/lastmile_qr_scan"}, "fusion_lon": 0.0, "lat": 38.9042785, "bike_id": "adc3104bd3310675b6f1f5582578aa58", "type": "electric_bike", "is_reserved": 0, "lon": -77.03192983333334}, {"fusion_lat": 0.0, "name": "bb222265f9e07241964455d19ab8a609", "is_disabled": 0, "rental_uris": {"android": "https://dc.lft.to/lastmile_qr_scan", "ios": "https://dc.lft.to/lastmile_qr_scan"}, "fusion_lon": 0.0, "lat": 38.91547833333333, "bike_id": "bb222265f9e07241964455d19ab8a609", "type": "electric_scooter", "is_reserved": 0, "lon": -77.03849883333334}, {"fusion_lat": 0.0, "name": "00e38e31f56a0e583a5bc5f53a5e5d24", "is_disabled": 0, "rental_uris": {"android": "https://dc.lft.to/lastmile_qr_scan", "ios": "https://dc.lft.to/lastmile_qr_scan"}, "fusion_lon": 0.0, "lat": 38.89991116666667, "bike_id": "00e38e31f56a0e583a5bc5f53a5e5d24", "type": "electric_scooter", "is_reserved": 0, "lon": -76.98438516666667}, {"fusion_lat": 0.0, "name": "88946e0c71005e368207bc504dc65d93", "is_disabled": 0, "rental_uris": {"android": "https://dc.lft.to/lastmile_qr_scan", "ios": "https://dc.lft.to/lastmile_qr_scan"}, "fusion_lon": 0.0, "lat": 38.9241705, "bike_id": "88946e0c71005e368207bc504dc65d93", "type": "electric_scooter", "is_reserved": 0, "lon": -77.03642466666666}, {"fusion_lat": 0.0, "name": "5ae926c25d6fca8ced246d06ed326afe", "is_disabled": 0, "rental_uris": {"android": "https://dc.lft.to/lastmile_qr_scan", "ios": "https://dc.lft.to/lastmile_qr_scan"}, "fusion_lon": 0.0, "lat": 38.916978, "bike_id": "5ae926c25d6fca8ced246d06ed326afe", "type": "electric_scooter", "is_reserved": 0, "lon": -77.04111216666666}, {"fusion_lat": 0.0, "name": "8042d1e873c0f30fc4321851778f217f", "is_disabled": 0, "rental_uris": {"android": "https://dc.lft.to/lastmile_qr_scan", "ios": "https://dc.lft.to/lastmile_qr_scan"}, "fusion_lon": 0.0, "lat": 38.918167333333336, "bike_id": "8042d1e873c0f30fc4321851778f217f", "type": "electric_scooter", "is_reserved": 0, "lon": -77.02648916666666}, {"fusion_lat": 0.0, "name": "9b3574c2f0eefa95d9729f044f536e36", "is_disabled": 0, "rental_uris": {"android": "https://dc.lft.to/lastmile_qr_scan", "ios": "https://dc.lft.to/lastmile_qr_scan"}, "fusion_lon": 0.0, "lat": 38.901067, "bike_id": "9b3574c2f0eefa95d9729f044f536e36", "type": "electric_scooter", "is_reserved": 0, "lon": -77.02945466666667}, {"fusion_lat": 0.0, "name": "eaadd1164865b08dcae54ae787d61c4b", "is_disabled": 0, "rental_uris": {"android": "https://dc.lft.to/lastmile_qr_scan", "ios": "https://dc.lft.to/lastmile_qr_scan"}, "fusion_lon": 0.0, "lat": 38.90094766666667, "bike_id": "eaadd1164865b08dcae54ae787d61c4b", "type": "electric_bike", "is_reserved": 0, "lon": -76.97684816666667}, {"fusion_lat": 0.0, "name": "80b27cb7066ca284e6d24dfddf6b029d", "is_disabled": 0, "rental_uris": {"android": "https://dc.lft.to/lastmile_qr_scan", "ios": "https://dc.lft.to/lastmile_qr_scan"}, "fusion_lon": 0.0, "lat": 38.90610683333333, "bike_id": "80b27cb7066ca284e6d24dfddf6b029d", "type": "electric_scooter", "is_reserved": 0, "lon": -77.05895033333333}, {"fusion_lat": 0.0, "name": "de59fb841f6d25e327384d3b354aca0c", "is_disabled": 0, "rental_uris": {"android": "https://dc.lft.to/lastmile_qr_scan", "ios": "https://dc.lft.to/lastmile_qr_scan"}, "fusion_lon": 0.0, "lat": 39.03605916666667, "bike_id": "de59fb841f6d25e327384d3b354aca0c", "type": "electric_bike", "is_reserved": 0, "lon": -77.05541633333333}, {"fusion_lat": 0.0, "name": "f6514264461d32def14c7361ad13b08d", "is_disabled": 0, "rental_uris": {"android": "https://dc.lft.to/lastmile_qr_scan", "ios": "https://dc.lft.to/lastmile_qr_scan"}, "fusion_lon": 0.0, "lat": 38.916869, "bike_id": "f6514264461d32def14c7361ad13b08d", "type": "electric_scooter", "is_reserved": 0, "lon": -77.02952466666666}, {"fusion_lat": 0.0, "name": "fa0ba7c1dfae725c6e4056be3fd6e3ff", "is_disabled": 0, "rental_uris": {"android": "https://dc.lft.to/lastmile_qr_scan", "ios": "https://dc.lft.to/lastmile_qr_scan"}, "fusion_lon": 0.0, "lat": 38.89969883333333, "bike_id": "fa0ba7c1dfae725c6e4056be3fd6e3ff", "type": "electric_scooter", "is_reserved": 0, "lon": -77.016228}, {"fusion_lat": 0.0, "name": "6e2cfbc1e6ef3416abfcdb62781a9875", "is_disabled": 0, "rental_uris": {"android": "https://dc.lft.to/lastmile_qr_scan", "ios": "https://dc.lft.to/lastmile_qr_scan"}, "fusion_lon": 0.0, "lat": 38.92826733333333, "bike_id": "6e2cfbc1e6ef3416abfcdb62781a9875", "type": "electric_scooter", "is_reserved": 0, "lon": -77.05969166666667}, {"fusion_lat": 0.0, "name": "fa9bee0a4206cfb173aa9571737c4b07", "is_disabled": 0, "rental_uris": {"android": "https://dc.lft.to/lastmile_qr_scan", "ios": "https://dc.lft.to/lastmile_qr_scan"}, "fusion_lon": 0.0, "lat": 38.92004433333334, "bike_id": "fa9bee0a4206cfb173aa9571737c4b07", "type": "electric_scooter", "is_reserved": 0, "lon": -77.0314315}, {"fusion_lat": 0.0, "name": "0ef83bc2e4e67a77e3815f353f506297", "is_disabled": 0, "rental_uris": {"android": "https://dc.lft.to/lastmile_qr_scan", "ios": "https://dc.lft.to/lastmile_qr_scan"}, "fusion_lon": 0.0, "lat": 38.88320133333333, "bike_id": "0ef83bc2e4e67a77e3815f353f506297", "type": "electric_scooter", "is_reserved": 0, "lon": -77.01761133333333}, {"fusion_lat": 0.0, "name": "359c607d80ae108c215b27d8eb7220cf", "is_disabled": 0, "rental_uris": {"android": "https://dc.lft.to/lastmile_qr_scan", "ios": "https://dc.lft.to/lastmile_qr_scan"}, "fusion_lon": 0.0, "lat": 38.90050983333333, "bike_id": "359c607d80ae108c215b27d8eb7220cf", "type": "electric_scooter", "is_reserved": 0, "lon": -77.00215133333333}, {"fusion_lat": 0.0, "name": "2d5405a533cc76954f295bf21287c234", "is_disabled": 0, "rental_uris": {"android": "https://dc.lft.to/lastmile_qr_scan", "ios": "https://dc.lft.to/lastmile_qr_scan"}, "fusion_lon": 0.0, "lat": 38.93455183333333, "bike_id": "2d5405a533cc76954f295bf21287c234", "type": "electric_scooter", "is_reserved": 0, "lon": -77.07268316666666}, {"fusion_lat": 0.0, "name": "a5b33fc4ac22e9de5b97920be2e1f493", "is_disabled": 0, "rental_uris": {"android": "https://dc.lft.to/lastmile_qr_scan", "ios": "https://dc.lft.to/lastmile_qr_scan"}, "fusion_lon": 0.0, "lat": 38.882955, "bike_id": "a5b33fc4ac22e9de5b97920be2e1f493", "type": "electric_scooter", "is_reserved": 0, "lon": -77.024811}, {"fusion_lat": 0.0, "name": "edcb5e9721d35e25fb0a9f7590f20d31", "is_disabled": 0, "rental_uris": {"android": "https://dc.lft.to/lastmile_qr_scan", "ios": "https://dc.lft.to/lastmile_qr_scan"}, "fusion_lon": 0.0, "lat": 38.91428166666667, "bike_id": "edcb5e9721d35e25fb0a9f7590f20d31", "type": "electric_scooter", "is_reserved": 0, "lon": -77.034677}, {"fusion_lat": 0.0, "name": "66d48d7a9a73aab26415bef726d055d0", "is_disabled": 0, "rental_uris": {"android": "https://dc.lft.to/lastmile_qr_scan", "ios": "https://dc.lft.to/lastmile_qr_scan"}, "fusion_lon": 0.0, "lat": 38.813297, "bike_id": "66d48d7a9a73aab26415bef726d055d0", "type": "electric_bike", "is_reserved": 0, "lon": -77.05089}, {"fusion_lat": 0.0, "name": "e87f550c60cf343d0845e14e4cc49849", "is_disabled": 0, "rental_uris": {"android": "https://dc.lft.to/lastmile_qr_scan", "ios": "https://dc.lft.to/lastmile_qr_scan"}, "fusion_lon": 0.0, "lat": 38.93194533333333, "bike_id": "e87f550c60cf343d0845e14e4cc49849", "type": "electric_bike", "is_reserved": 0, "lon": -77.22927983333334}, {"fusion_lat": 0.0, "name": "247b0aad563238d1ebebd4c623b33f42", "is_disabled": 0, "rental_uris": {"android": "https://dc.lft.to/lastmile_qr_scan", "ios": "https://dc.lft.to/lastmile_qr_scan"}, "fusion_lon": 0.0, "lat": 38.93511983333333, "bike_id": "247b0aad563238d1ebebd4c623b33f42", "type": "electric_scooter", "is_reserved": 0, "lon": -77.0326345}, {"fusion_lat": 0.0, "name": "1b3739efa9c023c903dc1f197e6bdffb", "is_disabled": 0, "rental_uris": {"android": "https://dc.lft.to/lastmile_qr_scan", "ios": "https://dc.lft.to/lastmile_qr_scan"}, "fusion_lon": 0.0, "lat": 38.88449883333333, "bike_id": "1b3739efa9c023c903dc1f197e6bdffb", "type": "electric_scooter", "is_reserved": 0, "lon": -76.99390416666667}, {"fusion_lat": 0.0, "name": "ec7457f2445fb31839c5ceabeb86fd49", "is_disabled": 0, "rental_uris": {"android": "https://dc.lft.to/lastmile_qr_scan", "ios": "https://dc.lft.to/lastmile_qr_scan"}, "fusion_lon": 0.0, "lat": 38.887514333333336, "bike_id": "ec7457f2445fb31839c5ceabeb86fd49", "type": "electric_scooter", "is_reserved": 0, "lon": -76.99839783333333}, {"fusion_lat": 0.0, "name": "4298ef5ac585a6a0d5f4ea081ff324bd", "is_disabled": 0, "rental_uris": {"android": "https://dc.lft.to/lastmile_qr_scan", "ios": "https://dc.lft.to/lastmile_qr_scan"}, "fusion_lon": 0.0, "lat": 38.80678133333333, "bike_id": "4298ef5ac585a6a0d5f4ea081ff324bd", "type": "electric_bike", "is_reserved": 0, "lon": -77.06915766666667}, {"fusion_lat": 0.0, "name": "5579f225710c2f91329db5fa8d1bb50d", "is_disabled": 0, "rental_uris": {"android": "https://dc.lft.to/lastmile_qr_scan", "ios": "https://dc.lft.to/lastmile_qr_scan"}, "fusion_lon": 0.0, "lat": 38.907973166666665, "bike_id": "5579f225710c2f91329db5fa8d1bb50d", "type": "electric_scooter", "is_reserved": 0, "lon": -77.00970666666667}, {"fusion_lat": 0.0, "name": "d37e64f81fbe6f5025f1873c3b1f303b", "is_disabled": 0, "rental_uris": {"android": "https://dc.lft.to/lastmile_qr_scan", "ios": "https://dc.lft.to/lastmile_qr_scan"}, "fusion_lon": 0.0, "lat": 38.925034, "bike_id": "d37e64f81fbe6f5025f1873c3b1f303b", "type": "electric_bike", "is_reserved": 0, "lon": -77.05763266666666}, {"fusion_lat": 0.0, "name": "32a048e0b3a17e80f49548519ac774de", "is_disabled": 0, "rental_uris": {"android": "https://dc.lft.to/lastmile_qr_scan", "ios": "https://dc.lft.to/lastmile_qr_scan"}, "fusion_lon": 0.0, "lat": 38.91221616666667, "bike_id": "32a048e0b3a17e80f49548519ac774de", "type": "electric_scooter", "is_reserved": 0, "lon": -77.02717833333334}, {"fusion_lat": 0.0, "name": "c4baa8564596762d08ad9531de705b51", "is_disabled": 0, "rental_uris": {"android": "https://dc.lft.to/lastmile_qr_scan", "ios": "https://dc.lft.to/lastmile_qr_scan"}, "fusion_lon": 0.0, "lat": 38.92055333333333, "bike_id": "c4baa8564596762d08ad9531de705b51", "type": "electric_scooter", "is_reserved": 0, "lon": -76.99886183333334}, {"fusion_lat": 0.0, "name": "2b417e1db1d81dc3cfb34bdea221e02e", "is_disabled": 0, "rental_uris": {"android": "https://dc.lft.to/lastmile_qr_scan", "ios": "https://dc.lft.to/lastmile_qr_scan"}, "fusion_lon": 0.0, "lat": 38.9097385, "bike_id": "2b417e1db1d81dc3cfb34bdea221e02e", "type": "electric_scooter", "is_reserved": 0, "lon": -77.03711116666666}, {"fusion_lat": 0.0, "name": "f69b50de56d7b1ff36a409b9d8d23b9f", "is_disabled": 0, "rental_uris": {"android": "https://dc.lft.to/lastmile_qr_scan", "ios": "https://dc.lft.to/lastmile_qr_scan"}, "fusion_lon": 0.0, "lat": 38.80020916666667, "bike_id": "f69b50de56d7b1ff36a409b9d8d23b9f", "type": "electric_bike", "is_reserved": 0, "lon": -77.05485033333333}, {"fusion_lat": 0.0, "name": "8fedfcfa49c848e8fd47f13990267dc6", "is_disabled": 0, "rental_uris": {"android": "https://dc.lft.to/lastmile_qr_scan", "ios": "https://dc.lft.to/lastmile_qr_scan"}, "fusion_lon": 0.0, "lat": 38.9061115, "bike_id": "8fedfcfa49c848e8fd47f13990267dc6", "type": "electric_scooter", "is_reserved": 0, "lon": -77.034486}, {"fusion_lat": 0.0, "name": "2339329d8b54d08000c2131591abbd0f", "is_disabled": 0, "rental_uris": {"android": "https://dc.lft.to/lastmile_qr_scan", "ios": "https://dc.lft.to/lastmile_qr_scan"}, "fusion_lon": 0.0, "lat": 38.876993, "bike_id": "2339329d8b54d08000c2131591abbd0f", "type": "electric_scooter", "is_reserved": 0, "lon": -77.01767766666667}, {"fusion_lat": 0.0, "name": "a2e71e9485e87ef8345c1d9118ff38f0", "is_disabled": 0, "rental_uris": {"android": "https://dc.lft.to/lastmile_qr_scan", "ios": "https://dc.lft.to/lastmile_qr_scan"}, "fusion_lon": 0.0, "lat": 38.90596, "bike_id": "a2e71e9485e87ef8345c1d9118ff38f0", "type": "electric_scooter", "is_reserved": 0, "lon": -77.04125716666667}, {"fusion_lat": 0.0, "name": "a7dc3c8a973bedd98a305ae453da1001", "is_disabled": 0, "rental_uris": {"android": "https://dc.lft.to/lastmile_qr_scan", "ios": "https://dc.lft.to/lastmile_qr_scan"}, "fusion_lon": 0.0, "lat": 38.909479833333336, "bike_id": "a7dc3c8a973bedd98a305ae453da1001", "type": "electric_scooter", "is_reserved": 0, "lon": -77.0318195}, {"fusion_lat": 0.0, "name": "fa2a28b08c2f3ce00f6fa389d54764fd", "is_disabled": 0, "rental_uris": {"android": "https://dc.lft.to/lastmile_qr_scan", "ios": "https://dc.lft.to/lastmile_qr_scan"}, "fusion_lon": 0.0, "lat": 38.919858166666664, "bike_id": "fa2a28b08c2f3ce00f6fa389d54764fd", "type": "electric_scooter", "is_reserved": 0, "lon": -77.041773}, {"fusion_lat": 0.0, "name": "5effef1cf899634ef407aab5496dd359", "is_disabled": 0, "rental_uris": {"android": "https://dc.lft.to/lastmile_qr_scan", "ios": "https://dc.lft.to/lastmile_qr_scan"}, "fusion_lon": 0.0, "lat": 38.84729383333333, "bike_id": "5effef1cf899634ef407aab5496dd359", "type": "electric_scooter", "is_reserved": 0, "lon": -76.982504}, {"fusion_lat": 0.0, "name": "033b72bc69b0aa885a55b9936b543ba9", "is_disabled": 0, "rental_uris": {"android": "https://dc.lft.to/lastmile_qr_scan", "ios": "https://dc.lft.to/lastmile_qr_scan"}, "fusion_lon": 0.0, "lat": 38.90474533333333, "bike_id": "033b72bc69b0aa885a55b9936b543ba9", "type": "electric_scooter", "is_reserved": 0, "lon": -77.0435425}, {"fusion_lat": 0.0, "name": "2626857ea8f28ff28f831c81fdfc080d", "is_disabled": 0, "rental_uris": {"android": "https://dc.lft.to/lastmile_qr_scan", "ios": "https://dc.lft.to/lastmile_qr_scan"}, "fusion_lon": 0.0, "lat": 38.919618, "bike_id": "2626857ea8f28ff28f831c81fdfc080d", "type": "electric_scooter", "is_reserved": 0, "lon": -77.07112716666667}, {"fusion_lat": 0.0, "name": "0d0ad8e09bb79cfa8338f6275f6933bf", "is_disabled": 0, "rental_uris": {"android": "https://dc.lft.to/lastmile_qr_scan", "ios": "https://dc.lft.to/lastmile_qr_scan"}, "fusion_lon": 0.0, "lat": 38.91642366666667, "bike_id": "0d0ad8e09bb79cfa8338f6275f6933bf", "type": "electric_scooter", "is_reserved": 0, "lon": -77.03223}, {"fusion_lat": 0.0, "name": "9b61129ba7ce0a505872460158d611ef", "is_disabled": 0, "rental_uris": {"android": "https://dc.lft.to/lastmile_qr_scan", "ios": "https://dc.lft.to/lastmile_qr_scan"}, "fusion_lon": 0.0, "lat": 38.8922135, "bike_id": "9b61129ba7ce0a505872460158d611ef", "type": "electric_scooter", "is_reserved": 0, "lon": -77.026651}, {"fusion_lat": 0.0, "name": "036c176d9280369c6f7c34a9ae251ada", "is_disabled": 0, "rental_uris": {"android": "https://dc.lft.to/lastmile_qr_scan", "ios": "https://dc.lft.to/lastmile_qr_scan"}, "fusion_lon": 0.0, "lat": 38.928755833333334, "bike_id": "036c176d9280369c6f7c34a9ae251ada", "type": "electric_scooter", "is_reserved": 0, "lon": -77.03746233333334}, {"fusion_lat": 0.0, "name": "afac967580b59a2c461a52a7d5f0767a", "is_disabled": 0, "rental_uris": {"android": "https://dc.lft.to/lastmile_qr_scan", "ios": "https://dc.lft.to/lastmile_qr_scan"}, "fusion_lon": 0.0, "lat": 38.908027833333335, "bike_id": "afac967580b59a2c461a52a7d5f0767a", "type": "electric_scooter", "is_reserved": 0, "lon": -77.0318135}, {"fusion_lat": 0.0, "name": "9e4a98fb3ab18d12d125fa71f6bd06e3", "is_disabled": 0, "rental_uris": {"android": "https://dc.lft.to/lastmile_qr_scan", "ios": "https://dc.lft.to/lastmile_qr_scan"}, "fusion_lon": 0.0, "lat": 38.902682166666665, "bike_id": "9e4a98fb3ab18d12d125fa71f6bd06e3", "type": "electric_scooter", "is_reserved": 0, "lon": -77.03832383333334}, {"fusion_lat": 0.0, "name": "f767123b24b9c62e1ac341dd4c9c3236", "is_disabled": 0, "rental_uris": {"android": "https://dc.lft.to/lastmile_qr_scan", "ios": "https://dc.lft.to/lastmile_qr_scan"}, "fusion_lon": 0.0, "lat": 38.91713083333333, "bike_id": "f767123b24b9c62e1ac341dd4c9c3236", "type": "electric_scooter", "is_reserved": 0, "lon": -77.04127016666666}, {"fusion_lat": 0.0, "name": "d964c5ac5923a0fd80b627875625fc5d", "is_disabled": 0, "rental_uris": {"android": "https://dc.lft.to/lastmile_qr_scan", "ios": "https://dc.lft.to/lastmile_qr_scan"}, "fusion_lon": 0.0, "lat": 38.92847916666667, "bike_id": "d964c5ac5923a0fd80b627875625fc5d", "type": "electric_scooter", "is_reserved": 0, "lon": -77.03253433333333}, {"fusion_lat": 0.0, "name": "92eb9f3c4bc80c99484df7d363aaaa8b", "is_disabled": 0, "rental_uris": {"android": "https://dc.lft.to/lastmile_qr_scan", "ios": "https://dc.lft.to/lastmile_qr_scan"}, "fusion_lon": 0.0, "lat": 38.905009166666666, "bike_id": "92eb9f3c4bc80c99484df7d363aaaa8b", "type": "electric_scooter", "is_reserved": 0, "lon": -77.06124633333333}, {"fusion_lat": 0.0, "name": "8b089eee2708c5009f0a68327c713c7f", "is_disabled": 0, "rental_uris": {"android": "https://dc.lft.to/lastmile_qr_scan", "ios": "https://dc.lft.to/lastmile_qr_scan"}, "fusion_lon": 0.0, "lat": 38.94164416666667, "bike_id": "8b089eee2708c5009f0a68327c713c7f", "type": "electric_scooter", "is_reserved": 0, "lon": -77.02499216666666}, {"fusion_lat": 0.0, "name": "e19302db481bad7912593c1e6cf4f7ea", "is_disabled": 0, "rental_uris": {"android": "https://dc.lft.to/lastmile_qr_scan", "ios": "https://dc.lft.to/lastmile_qr_scan"}, "fusion_lon": 0.0, "lat": 38.914144666666665, "bike_id": "e19302db481bad7912593c1e6cf4f7ea", "type": "electric_scooter", "is_reserved": 0, "lon": -77.00940533333333}, {"fusion_lat": 0.0, "name": "c0e6cfbf97426ae0b0b426eade360e58", "is_disabled": 0, "rental_uris": {"android": "https://dc.lft.to/lastmile_qr_scan", "ios": "https://dc.lft.to/lastmile_qr_scan"}, "fusion_lon": 0.0, "lat": 38.927876166666664, "bike_id": "c0e6cfbf97426ae0b0b426eade360e58", "type": "electric_scooter", "is_reserved": 0, "lon": -77.0315235}, {"fusion_lat": 0.0, "name": "f424852bfea010984900bd18fb474a54", "is_disabled": 0, "rental_uris": {"android": "https://dc.lft.to/lastmile_qr_scan", "ios": "https://dc.lft.to/lastmile_qr_scan"}, "fusion_lon": 0.0, "lat": 38.910470833333335, "bike_id": "f424852bfea010984900bd18fb474a54", "type": "electric_scooter", "is_reserved": 0, "lon": -77.03440866666666}, {"fusion_lat": 0.0, "name": "253507e2662d71baa07a6e1a7ac090a2", "is_disabled": 0, "rental_uris": {"android": "https://dc.lft.to/lastmile_qr_scan", "ios": "https://dc.lft.to/lastmile_qr_scan"}, "fusion_lon": 0.0, "lat": 38.86369716666667, "bike_id": "253507e2662d71baa07a6e1a7ac090a2", "type": "electric_bike", "is_reserved": 0, "lon": -76.9701665}, {"fusion_lat": 0.0, "name": "0193df93215bc4225794ed31911c28b5", "is_disabled": 0, "rental_uris": {"android": "https://dc.lft.to/lastmile_qr_scan", "ios": "https://dc.lft.to/lastmile_qr_scan"}, "fusion_lon": 0.0, "lat": 38.92478783333333, "bike_id": "0193df93215bc4225794ed31911c28b5", "type": "electric_scooter", "is_reserved": 0, "lon": -77.0255775}, {"fusion_lat": 0.0, "name": "30e22ece681ddd403095582ba109ca3e", "is_disabled": 0, "rental_uris": {"android": "https://dc.lft.to/lastmile_qr_scan", "ios": "https://dc.lft.to/lastmile_qr_scan"}, "fusion_lon": 0.0, "lat": 38.88949816666667, "bike_id": "30e22ece681ddd403095582ba109ca3e", "type": "electric_scooter", "is_reserved": 0, "lon": -76.99164783333333}, {"fusion_lat": 0.0, "name": "ee77fbff41d79c186e1d9dacd9096540", "is_disabled": 0, "rental_uris": {"android": "https://dc.lft.to/lastmile_qr_scan", "ios": "https://dc.lft.to/lastmile_qr_scan"}, "fusion_lon": 0.0, "lat": 38.9353515, "bike_id": "ee77fbff41d79c186e1d9dacd9096540", "type": "electric_scooter", "is_reserved": 0, "lon": -77.0235405}, {"fusion_lat": 0.0, "name": "ff87a7f978a5c9eb6892e5a63b66d0ed", "is_disabled": 0, "rental_uris": {"android": "https://dc.lft.to/lastmile_qr_scan", "ios": "https://dc.lft.to/lastmile_qr_scan"}, "fusion_lon": 0.0, "lat": 38.92875433333333, "bike_id": "ff87a7f978a5c9eb6892e5a63b66d0ed", "type": "electric_scooter", "is_reserved": 0, "lon": -77.0544775}, {"fusion_lat": 0.0, "name": "f97315b0687688d3a6fd3fa5cbee6c9c", "is_disabled": 0, "rental_uris": {"android": "https://dc.lft.to/lastmile_qr_scan", "ios": "https://dc.lft.to/lastmile_qr_scan"}, "fusion_lon": 0.0, "lat": 38.885956166666666, "bike_id": "f97315b0687688d3a6fd3fa5cbee6c9c", "type": "electric_scooter", "is_reserved": 0, "lon": -77.017226}, {"fusion_lat": 0.0, "name": "12a3f403fd639d669cd0bea9bab4e57f", "is_disabled": 0, "rental_uris": {"android": "https://dc.lft.to/lastmile_qr_scan", "ios": "https://dc.lft.to/lastmile_qr_scan"}, "fusion_lon": 0.0, "lat": 38.910398666666666, "bike_id": "12a3f403fd639d669cd0bea9bab4e57f", "type": "electric_scooter", "is_reserved": 0, "lon": -77.04076}, {"fusion_lat": 0.0, "name": "85741d58eae1297e7e4f4e4641638107", "is_disabled": 0, "rental_uris": {"android": "https://dc.lft.to/lastmile_qr_scan", "ios": "https://dc.lft.to/lastmile_qr_scan"}, "fusion_lon": 0.0, "lat": 38.950581666666665, "bike_id": "85741d58eae1297e7e4f4e4641638107", "type": "electric_scooter", "is_reserved": 0, "lon": -77.08030083333334}, {"fusion_lat": 0.0, "name": "25f84ce5ed7ea174e8a76b3f9513ed70", "is_disabled": 0, "rental_uris": {"android": "https://dc.lft.to/lastmile_qr_scan", "ios": "https://dc.lft.to/lastmile_qr_scan"}, "fusion_lon": 0.0, "lat": 38.897996, "bike_id": "25f84ce5ed7ea174e8a76b3f9513ed70", "type": "electric_scooter", "is_reserved": 0, "lon": -77.0283465}, {"fusion_lat": 0.0, "name": "f43e2311b85f0838fce84472557e8640", "is_disabled": 0, "rental_uris": {"android": "https://dc.lft.to/lastmile_qr_scan", "ios": "https://dc.lft.to/lastmile_qr_scan"}, "fusion_lon": 0.0, "lat": 38.934040333333336, "bike_id": "f43e2311b85f0838fce84472557e8640", "type": "electric_scooter", "is_reserved": 0, "lon": -77.057465}, {"fusion_lat": 0.0, "name": "f291f2ffc1fe7ca1a2098c906abdefad", "is_disabled": 0, "rental_uris": {"android": "https://dc.lft.to/lastmile_qr_scan", "ios": "https://dc.lft.to/lastmile_qr_scan"}, "fusion_lon": 0.0, "lat": 38.8967405, "bike_id": "f291f2ffc1fe7ca1a2098c906abdefad", "type": "electric_scooter", "is_reserved": 0, "lon": -77.005197}, {"fusion_lat": 0.0, "name": "2dc661e4b634e788528dd88fd2198124", "is_disabled": 0, "rental_uris": {"android": "https://dc.lft.to/lastmile_qr_scan", "ios": "https://dc.lft.to/lastmile_qr_scan"}, "fusion_lon": 0.0, "lat": 38.90829083333333, "bike_id": "2dc661e4b634e788528dd88fd2198124", "type": "electric_scooter", "is_reserved": 0, "lon": -76.98423733333334}, {"fusion_lat": 0.0, "name": "c4437488367142271ee4efb7582fd6c5", "is_disabled": 0, "rental_uris": {"android": "https://dc.lft.to/lastmile_qr_scan", "ios": "https://dc.lft.to/lastmile_qr_scan"}, "fusion_lon": 0.0, "lat": 38.894914666666665, "bike_id": "c4437488367142271ee4efb7582fd6c5", "type": "electric_scooter", "is_reserved": 0, "lon": -77.00255216666666}, {"fusion_lat": 0.0, "name": "a31f0b52d9096923a78f67142df1ded2", "is_disabled": 0, "rental_uris": {"android": "https://dc.lft.to/lastmile_qr_scan", "ios": "https://dc.lft.to/lastmile_qr_scan"}, "fusion_lon": 0.0, "lat": 38.841314, "bike_id": "a31f0b52d9096923a78f67142df1ded2", "type": "electric_bike", "is_reserved": 0, "lon": -77.06307533333333}, {"fusion_lat": 0.0, "name": "06dc254ae77d728e13f5f96fd26aab4b", "is_disabled": 0, "rental_uris": {"android": "https://dc.lft.to/lastmile_qr_scan", "ios": "https://dc.lft.to/lastmile_qr_scan"}, "fusion_lon": 0.0, "lat": 38.892232166666666, "bike_id": "06dc254ae77d728e13f5f96fd26aab4b", "type": "electric_scooter", "is_reserved": 0, "lon": -77.045086}, {"fusion_lat": 0.0, "name": "930deb0eae3b0711d73d096b47ff51c9", "is_disabled": 0, "rental_uris": {"android": "https://dc.lft.to/lastmile_qr_scan", "ios": "https://dc.lft.to/lastmile_qr_scan"}, "fusion_lon": 0.0, "lat": 38.899624833333334, "bike_id": "930deb0eae3b0711d73d096b47ff51c9", "type": "electric_scooter", "is_reserved": 0, "lon": -76.9816435}, {"fusion_lat": 0.0, "name": "1d2a4044e9d47027c584635e28e6fb45", "is_disabled": 0, "rental_uris": {"android": "https://dc.lft.to/lastmile_qr_scan", "ios": "https://dc.lft.to/lastmile_qr_scan"}, "fusion_lon": 0.0, "lat": 38.90985933333333, "bike_id": "1d2a4044e9d47027c584635e28e6fb45", "type": "electric_scooter", "is_reserved": 0, "lon": -77.03837233333333}, {"fusion_lat": 0.0, "name": "60ef2944ca2b61fd6890936f88918372", "is_disabled": 0, "rental_uris": {"android": "https://dc.lft.to/lastmile_qr_scan", "ios": "https://dc.lft.to/lastmile_qr_scan"}, "fusion_lon": 0.0, "lat": 38.9063295, "bike_id": "60ef2944ca2b61fd6890936f88918372", "type": "electric_scooter", "is_reserved": 0, "lon": -77.00600516666667}, {"fusion_lat": 0.0, "name": "4050fed4c17d037cc273ea42ac698ac5", "is_disabled": 0, "rental_uris": {"android": "https://dc.lft.to/lastmile_qr_scan", "ios": "https://dc.lft.to/lastmile_qr_scan"}, "fusion_lon": 0.0, "lat": 38.89838233333333, "bike_id": "4050fed4c17d037cc273ea42ac698ac5", "type": "electric_scooter", "is_reserved": 0, "lon": -77.0319255}, {"fusion_lat": 0.0, "name": "23b309074a0e03b66af28a77c482ed65", "is_disabled": 0, "rental_uris": {"android": "https://dc.lft.to/lastmile_qr_scan", "ios": "https://dc.lft.to/lastmile_qr_scan"}, "fusion_lon": 0.0, "lat": 38.94296, "bike_id": "23b309074a0e03b66af28a77c482ed65", "type": "electric_scooter", "is_reserved": 0, "lon": -77.02175316666667}, {"fusion_lat": 0.0, "name": "850ddcfff3ea77259b22594b1ec8ee33", "is_disabled": 0, "rental_uris": {"android": "https://dc.lft.to/lastmile_qr_scan", "ios": "https://dc.lft.to/lastmile_qr_scan"}, "fusion_lon": 0.0, "lat": 38.953100666666664, "bike_id": "850ddcfff3ea77259b22594b1ec8ee33", "type": "electric_bike", "is_reserved": 0, "lon": -77.00048116666666}, {"fusion_lat": 0.0, "name": "48468a176b63a231954c56e6d443d5da", "is_disabled": 0, "rental_uris": {"android": "https://dc.lft.to/lastmile_qr_scan", "ios": "https://dc.lft.to/lastmile_qr_scan"}, "fusion_lon": 0.0, "lat": 38.92393333333333, "bike_id": "48468a176b63a231954c56e6d443d5da", "type": "electric_scooter", "is_reserved": 0, "lon": -77.04302933333334}, {"fusion_lat": 0.0, "name": "513d6605aad7fb69f3646ea37ec920eb", "is_disabled": 0, "rental_uris": {"android": "https://dc.lft.to/lastmile_qr_scan", "ios": "https://dc.lft.to/lastmile_qr_scan"}, "fusion_lon": 0.0, "lat": 38.89753233333333, "bike_id": "513d6605aad7fb69f3646ea37ec920eb", "type": "electric_scooter", "is_reserved": 0, "lon": -77.02409083333333}, {"fusion_lat": 0.0, "name": "6f1328950e27aae873d5d66ee22dc29d", "is_disabled": 0, "rental_uris": {"android": "https://dc.lft.to/lastmile_qr_scan", "ios": "https://dc.lft.to/lastmile_qr_scan"}, "fusion_lon": 0.0, "lat": 38.931260333333334, "bike_id": "6f1328950e27aae873d5d66ee22dc29d", "type": "electric_scooter", "is_reserved": 0, "lon": -76.98443383333333}, {"fusion_lat": 0.0, "name": "cfdff3edb17b6f63579d64e86ea10d66", "is_disabled": 0, "rental_uris": {"android": "https://dc.lft.to/lastmile_qr_scan", "ios": "https://dc.lft.to/lastmile_qr_scan"}, "fusion_lon": 0.0, "lat": 38.90955316666667, "bike_id": "cfdff3edb17b6f63579d64e86ea10d66", "type": "electric_scooter", "is_reserved": 0, "lon": -76.98539566666666}, {"fusion_lat": 0.0, "name": "93628bc84adbd8b77358f6e4205362eb", "is_disabled": 0, "rental_uris": {"android": "https://dc.lft.to/lastmile_qr_scan", "ios": "https://dc.lft.to/lastmile_qr_scan"}, "fusion_lon": 0.0, "lat": 38.93399816666667, "bike_id": "93628bc84adbd8b77358f6e4205362eb", "type": "electric_scooter", "is_reserved": 0, "lon": -77.028424}, {"fusion_lat": 0.0, "name": "31576616f60a5f9e12575a7c9bdbf95d", "is_disabled": 0, "rental_uris": {"android": "https://dc.lft.to/lastmile_qr_scan", "ios": "https://dc.lft.to/lastmile_qr_scan"}, "fusion_lon": 0.0, "lat": 38.911632166666664, "bike_id": "31576616f60a5f9e12575a7c9bdbf95d", "type": "electric_scooter", "is_reserved": 0, "lon": -77.01626383333333}, {"fusion_lat": 0.0, "name": "4e13bada13892ff4a1587ea1da5528f1", "is_disabled": 0, "rental_uris": {"android": "https://dc.lft.to/lastmile_qr_scan", "ios": "https://dc.lft.to/lastmile_qr_scan"}, "fusion_lon": 0.0, "lat": 38.88180083333334, "bike_id": "4e13bada13892ff4a1587ea1da5528f1", "type": "electric_scooter", "is_reserved": 0, "lon": -76.9589675}, {"fusion_lat": 0.0, "name": "cc59a9a691620205e8436ff82a656e44", "is_disabled": 0, "rental_uris": {"android": "https://dc.lft.to/lastmile_qr_scan", "ios": "https://dc.lft.to/lastmile_qr_scan"}, "fusion_lon": 0.0, "lat": 38.919283, "bike_id": "cc59a9a691620205e8436ff82a656e44", "type": "electric_scooter", "is_reserved": 0, "lon": -77.0342095}, {"fusion_lat": 0.0, "name": "dd7fac2b17a25026ededed478e6acc74", "is_disabled": 0, "rental_uris": {"android": "https://dc.lft.to/lastmile_qr_scan", "ios": "https://dc.lft.to/lastmile_qr_scan"}, "fusion_lon": 0.0, "lat": 38.931793, "bike_id": "dd7fac2b17a25026ededed478e6acc74", "type": "electric_scooter", "is_reserved": 0, "lon": -77.0429805}, {"fusion_lat": 0.0, "name": "5953d80656b55288faf6075a4a2c69b3", "is_disabled": 0, "rental_uris": {"android": "https://dc.lft.to/lastmile_qr_scan", "ios": "https://dc.lft.to/lastmile_qr_scan"}, "fusion_lon": 0.0, "lat": 38.91620833333333, "bike_id": "5953d80656b55288faf6075a4a2c69b3", "type": "electric_scooter", "is_reserved": 0, "lon": -77.03641683333333}, {"fusion_lat": 0.0, "name": "10f236c5bbf7bb16e75c6cd1d5830e55", "is_disabled": 0, "rental_uris": {"android": "https://dc.lft.to/lastmile_qr_scan", "ios": "https://dc.lft.to/lastmile_qr_scan"}, "fusion_lon": 0.0, "lat": 38.920368, "bike_id": "10f236c5bbf7bb16e75c6cd1d5830e55", "type": "electric_scooter", "is_reserved": 0, "lon": -77.02588233333333}, {"fusion_lat": 0.0, "name": "de2b98f080cc1d049c0c5bbe0514058b", "is_disabled": 0, "rental_uris": {"android": "https://dc.lft.to/lastmile_qr_scan", "ios": "https://dc.lft.to/lastmile_qr_scan"}, "fusion_lon": 0.0, "lat": 38.93433516666666, "bike_id": "de2b98f080cc1d049c0c5bbe0514058b", "type": "electric_scooter", "is_reserved": 0, "lon": -77.03457383333334}, {"fusion_lat": 0.0, "name": "6203362fefc9a670b412487b91b5595f", "is_disabled": 0, "rental_uris": {"android": "https://dc.lft.to/lastmile_qr_scan", "ios": "https://dc.lft.to/lastmile_qr_scan"}, "fusion_lon": 0.0, "lat": 38.92185583333333, "bike_id": "6203362fefc9a670b412487b91b5595f", "type": "electric_scooter", "is_reserved": 0, "lon": -76.99752966666667}, {"fusion_lat": 0.0, "name": "930ca3e9c09c7c49d4574434f7d204fd", "is_disabled": 0, "rental_uris": {"android": "https://dc.lft.to/lastmile_qr_scan", "ios": "https://dc.lft.to/lastmile_qr_scan"},