{"data": {"bikes": [{"name": "2dd94e9e4fbff42455d7c08bba4b7f37", "is_disabled": 0, "lat": 38.9170595, "rental_uris": {"ios": "https://dc.lft.to/lastmile_qr_scan", "android": "https://dc.lft.to/lastmile_qr_scan"}, "bike_id": "2dd94e9e4fbff42455d7c08bba4b7f37", "type": "electric_scooter", "lon": -77.03033666666667, "is_reserved": 0, "fusion_lat": 0.0, "fusion_lon": 0.0}, {"name": "9c87eaa21a5350d0a210a0d3925a4046", "is_disabled": 0, "lat": 38.911273, "rental_uris": {"ios": "https://dc.lft.to/lastmile_qr_scan", "android": "https://dc.lft.to/lastmile_qr_scan"}, "bike_id": "9c87eaa21a5350d0a210a0d3925a4046", "type": "electric_scooter", "lon": -77.021942, "is_reserved": 0, "fusion_lat": 0.0, "fusion_lon": 0.0}, {"name": "aeb7fe7ec3f37c6e17562bcfc13f13a0", "is_disabled": 0, "lat": 38.917602333333335, "rental_uris": {"ios": "https://dc.lft.to/lastmile_qr_scan", "android": "https://dc.lft.to/lastmile_qr_scan"}, "bike_id": "aeb7fe7ec3f37c6e17562bcfc13f13a0", "type": "electric_scooter", "lon": -77.02279966666667, "is_reserved": 0, "fusion_lat": 0.0, "fusion_lon": 0.0}, {"name": "73597847d261425012e177cab3461474", "is_disabled": 0, "lat": 38.92152166666666, "rental_uris": {"ios": "https://dc.lft.to/lastmile_qr_scan", "android": "https://dc.lft.to/lastmile_qr_scan"}, "bike_id": "73597847d261425012e177cab3461474", "type": "electric_scooter", "lon": -77.0386935, "is_reserved": 0, "fusion_lat": 0.0, "fusion_lon": 0.0}, {"name": "6f22775d0a51564358fa437a4ca1a33c", "is_disabled": 0, "lat": 38.9170825, "rental_uris": {"ios": "https://dc.lft.to/lastmile_qr_scan", "android": "https://dc.lft.to/lastmile_qr_scan"}, "bike_id": "6f22775d0a51564358fa437a4ca1a33c", "type": "electric_scooter", "lon": -77.03865616666667, "is_reserved": 0, "fusion_lat": 0.0, "fusion_lon": 0.0}, {"name": "776e0cda0e6052395238686443e62976", "is_disabled": 0, "lat": 38.923193, "rental_uris": {"ios": "https://dc.lft.to/lastmile_qr_scan", "android": "https://dc.lft.to/lastmile_qr_scan"}, "bike_id": "776e0cda0e6052395238686443e62976", "type": "electric_scooter", "lon": -77.04348266666666, "is_reserved": 0, "fusion_lat": 0.0, "fusion_lon": 0.0}, {"name": "dbc110b3122f83719c27563d02c6ef8a", "is_disabled": 0, "lat": 38.918092, "rental_uris": {"ios": "https://dc.lft.to/lastmile_qr_scan", "android": "https://dc.lft.to/lastmile_qr_scan"}, "bike_id": "dbc110b3122f83719c27563d02c6ef8a", "type": "electric_scooter", "lon": -77.03178083333333, "is_reserved": 0, "fusion_lat": 0.0, "fusion_lon": 0.0}, {"name": "38ed0d096281b512c9e04cd03ce81cc9", "is_disabled": 0, "lat": 38.921535666666664, "rental_uris": {"ios": "https://dc.lft.to/lastmile_qr_scan", "android": "https://dc.lft.to/lastmile_qr_scan"}, "bike_id": "38ed0d096281b512c9e04cd03ce81cc9", "type": "electric_scooter", "lon": -77.03435466666667, "is_reserved": 0, "fusion_lat": 0.0, "fusion_lon": 0.0}, {"name": "eaf42917333821825b6888f7c948f082", "is_disabled": 0, "lat": 38.88727983333333, "rental_uris": {"ios": "https://dc.lft.to/lastmile_qr_scan", "android": "https://dc.lft.to/lastmile_qr_scan"}, "bike_id": "eaf42917333821825b6888f7c948f082", "type": "electric_scooter", "lon": -77.02579266666666, "is_reserved": 0, "fusion_lat": 0.0, "fusion_lon": 0.0}, {"name": "8927177e848bcc83f4e606c58243bd7f", "is_disabled": 0, "lat": 38.919328, "rental_uris": {"ios": "https://dc.lft.to/lastmile_qr_scan", "android": "https://dc.lft.to/lastmile_qr_scan"}, "bike_id": "8927177e848bcc83f4e606c58243bd7f", "type": "electric_scooter", "lon": -77.02488683333333, "is_reserved": 0, "fusion_lat": 0.0, "fusion_lon": 0.0}, {"name": "974bd4e18a5eae96c4160e1a6b4d2db0", "is_disabled": 0, "lat": 38.919147333333335, "rental_uris": {"ios": "https://dc.lft.to/lastmile_qr_scan", "android": "https://dc.lft.to/lastmile_qr_scan"}, "bike_id": "974bd4e18a5eae96c4160e1a6b4d2db0", "type": "electric_scooter", "lon": -77.02728566666667, "is_reserved": 0, "fusion_lat": 0.0, "fusion_lon": 0.0}, {"name": "8594e8c9529d959130343ff5304c1227", "is_disabled": 0, "lat": 38.900103333333334, "rental_uris": {"ios": "https://dc.lft.to/lastmile_qr_scan", "android": "https://dc.lft.to/lastmile_qr_scan"}, "bike_id": "8594e8c9529d959130343ff5304c1227", "type": "electric_scooter", "lon": -77.01157883333333, "is_reserved": 0, "fusion_lat": 0.0, "fusion_lon": 0.0}, {"name": "e47d2a6d9f869b82ad91cb432a2fd735", "is_disabled": 0, "lat": 38.897733833333334, "rental_uris": {"ios": "https://dc.lft.to/lastmile_qr_scan", "android": "https://dc.lft.to/lastmile_qr_scan"}, "bike_id": "e47d2a6d9f869b82ad91cb432a2fd735", "type": "electric_scooter", "lon": -76.9846035, "is_reserved": 0, "fusion_lat": 0.0, "fusion_lon": 0.0}, {"name": "479a81d681e9e2acb4fcffbf933995c8", "is_disabled": 0, "lat": 38.87697566666667, "rental_uris": {"ios": "https://dc.lft.to/lastmile_qr_scan", "android": "https://dc.lft.to/lastmile_qr_scan"}, "bike_id": "479a81d681e9e2acb4fcffbf933995c8", "type": "electric_scooter", "lon": -76.9967675, "is_reserved": 0, "fusion_lat": 0.0, "fusion_lon": 0.0}, {"name": "ad023a9e8ac8e71932ac03fb6f81401a", "is_disabled": 0, "lat": 39.03424783333333, "rental_uris": {"ios": "https://dc.lft.to/lastmile_qr_scan", "android": "https://dc.lft.to/lastmile_qr_scan"}, "bike_id": "ad023a9e8ac8e71932ac03fb6f81401a", "type": "electric_bike", "lon": -77.04321366666667, "is_reserved": 0, "fusion_lat": 0.0, "fusion_lon": 0.0}, {"name": "3603684f698da8af0a906ff35e7b2a02", "is_disabled": 0, "lat": 38.94335933333333, "rental_uris": {"ios": "https://dc.lft.to/lastmile_qr_scan", "android": "https://dc.lft.to/lastmile_qr_scan"}, "bike_id": "3603684f698da8af0a906ff35e7b2a02", "type": "electric_scooter", "lon": -77.06121133333333, "is_reserved": 0, "fusion_lat": 0.0, "fusion_lon": 0.0}, {"name": "5e9d8e62d1268ae972acb4821821f7c8", "is_disabled": 0, "lat": 38.90265316666667, "rental_uris": {"ios": "https://dc.lft.to/lastmile_qr_scan", "android": "https://dc.lft.to/lastmile_qr_scan"}, "bike_id": "5e9d8e62d1268ae972acb4821821f7c8", "type": "electric_scooter", "lon": -77.0325395, "is_reserved": 0, "fusion_lat": 0.0, "fusion_lon": 0.0}, {"name": "4e8744081f3f62e48f42fa7c61f3bfdb", "is_disabled": 0, "lat": 38.853632166666664, "rental_uris": {"ios": "https://dc.lft.to/lastmile_qr_scan", "android": "https://dc.lft.to/lastmile_qr_scan"}, "bike_id": "4e8744081f3f62e48f42fa7c61f3bfdb", "type": "electric_bike", "lon": -77.11490316666666, "is_reserved": 0, "fusion_lat": 0.0, "fusion_lon": 0.0}, {"name": "54e9db56fbc99efd675bb77dc19868cd", "is_disabled": 0, "lat": 38.93356683333333, "rental_uris": {"ios": "https://dc.lft.to/lastmile_qr_scan", "android": "https://dc.lft.to/lastmile_qr_scan"}, "bike_id": "54e9db56fbc99efd675bb77dc19868cd", "type": "electric_scooter", "lon": -77.03416116666666, "is_reserved": 0, "fusion_lat": 0.0, "fusion_lon": 0.0}, {"name": "56c10939cbc6f131254ef2e24481e33e", "is_disabled": 0, "lat": 38.873845333333335, "rental_uris": {"ios": "https://dc.lft.to/lastmile_qr_scan", "android": "https://dc.lft.to/lastmile_qr_scan"}, "bike_id": "56c10939cbc6f131254ef2e24481e33e", "type": "electric_scooter", "lon": -77.000412, "is_reserved": 0, "fusion_lat": 0.0, "fusion_lon": 0.0}, {"name": "0386cd794ce69682b874cbc78c6a4d23", "is_disabled": 0, "lat": 38.860637833333335, "rental_uris": {"ios": "https://dc.lft.to/lastmile_qr_scan", "android": "https://dc.lft.to/lastmile_qr_scan"}, "bike_id": "0386cd794ce69682b874cbc78c6a4d23", "type": "electric_scooter", "lon": -76.96711433333333, "is_reserved": 0, "fusion_lat": 0.0, "fusion_lon": 0.0}, {"name": "052644cfdc563d1b1dc67ddf1da0c6af", "is_disabled": 0, "lat": 38.8748105, "rental_uris": {"ios": "https://dc.lft.to/lastmile_qr_scan", "android": "https://dc.lft.to/lastmile_qr_scan"}, "bike_id": "052644cfdc563d1b1dc67ddf1da0c6af", "type": "electric_scooter", "lon": -77.00599, "is_reserved": 0, "fusion_lat": 0.0, "fusion_lon": 0.0}, {"name": "d433e5c801bd5d635609cab4efe4a8fd", "is_disabled": 0, "lat": 38.91683283333333, "rental_uris": {"ios": "https://dc.lft.to/lastmile_qr_scan", "android": "https://dc.lft.to/lastmile_qr_scan"}, "bike_id": "d433e5c801bd5d635609cab4efe4a8fd", "type": "electric_scooter", "lon": -77.02298766666667, "is_reserved": 0, "fusion_lat": 0.0, "fusion_lon": 0.0}, {"name": "1e0e7fd84352855779c448bde42c0d11", "is_disabled": 0, "lat": 38.87374166666667, "rental_uris": {"ios": "https://dc.lft.to/lastmile_qr_scan", "android": "https://dc.lft.to/lastmile_qr_scan"}, "bike_id": "1e0e7fd84352855779c448bde42c0d11", "type": "electric_scooter", "lon": -77.00126816666666, "is_reserved": 0, "fusion_lat": 0.0, "fusion_lon": 0.0}, {"name": "c02280c5f94ef2e5573cc33bcae0aefc", "is_disabled": 0, "lat": 38.92167766666667, "rental_uris": {"ios": "https://dc.lft.to/lastmile_qr_scan", "android": "https://dc.lft.to/lastmile_qr_scan"}, "bike_id": "c02280c5f94ef2e5573cc33bcae0aefc", "type": "electric_scooter", "lon": -77.02024883333333, "is_reserved": 0, "fusion_lat": 0.0, "fusion_lon": 0.0}, {"name": "195b2e290e7f8bede89ab1b1776e7596", "is_disabled": 0, "lat": 38.9193565, "rental_uris": {"ios": "https://dc.lft.to/lastmile_qr_scan", "android": "https://dc.lft.to/lastmile_qr_scan"}, "bike_id": "195b2e290e7f8bede89ab1b1776e7596", "type": "electric_scooter", "lon": -77.03173066666666, "is_reserved": 0, "fusion_lat": 0.0, "fusion_lon": 0.0}, {"name": "04e0d4439c7b178d0c638f8364dcad8b", "is_disabled": 0, "lat": 38.874731, "rental_uris": {"ios": "https://dc.lft.to/lastmile_qr_scan", "android": "https://dc.lft.to/lastmile_qr_scan"}, "bike_id": "04e0d4439c7b178d0c638f8364dcad8b", "type": "electric_scooter", "lon": -77.0056095, "is_reserved": 0, "fusion_lat": 0.0, "fusion_lon": 0.0}, {"name": "9408797ec38735c08c367e6e062445ba", "is_disabled": 0, "lat": 38.899483333333336, "rental_uris": {"ios": "https://dc.lft.to/lastmile_qr_scan", "android": "https://dc.lft.to/lastmile_qr_scan"}, "bike_id": "9408797ec38735c08c367e6e062445ba", "type": "electric_scooter", "lon": -77.04497466666666, "is_reserved": 0, "fusion_lat": 0.0, "fusion_lon": 0.0}, {"name": "dc6cb9ae709a7b73176641f450a1f2a6", "is_disabled": 0, "lat": 38.937478666666664, "rental_uris": {"ios": "https://dc.lft.to/lastmile_qr_scan", "android": "https://dc.lft.to/lastmile_qr_scan"}, "bike_id": "dc6cb9ae709a7b73176641f450a1f2a6", "type": "electric_bike", "lon": -77.02945533333333, "is_reserved": 0, "fusion_lat": 0.0, "fusion_lon": 0.0}, {"name": "d9cbbaabf729e66781bb71fe3e53841a", "is_disabled": 0, "lat": 38.91823633333333, "rental_uris": {"ios": "https://dc.lft.to/lastmile_qr_scan", "android": "https://dc.lft.to/lastmile_qr_scan"}, "bike_id": "d9cbbaabf729e66781bb71fe3e53841a", "type": "electric_scooter", "lon": -77.0320145, "is_reserved": 0, "fusion_lat": 0.0, "fusion_lon": 0.0}, {"name": "1653c0d07dd7c960d0963b83cf92bf44", "is_disabled": 0, "lat": 38.846162, "rental_uris": {"ios": "https://dc.lft.to/lastmile_qr_scan", "android": "https://dc.lft.to/lastmile_qr_scan"}, "bike_id": "1653c0d07dd7c960d0963b83cf92bf44", "type": "electric_bike", "lon": -76.96909366666667, "is_reserved": 0, "fusion_lat": 0.0, "fusion_lon": 0.0}, {"name": "9235fc4647296da8a383829a0a854846", "is_disabled": 0, "lat": 38.913075166666665, "rental_uris": {"ios": "https://dc.lft.to/lastmile_qr_scan", "android": "https://dc.lft.to/lastmile_qr_scan"}, "bike_id": "9235fc4647296da8a383829a0a854846", "type": "electric_scooter", "lon": -77.03187666666666, "is_reserved": 0, "fusion_lat": 0.0, "fusion_lon": 0.0}, {"name": "8cc0ce570fe0c1ed5a4a26cd66b5f256", "is_disabled": 0, "lat": 38.876751166666665, "rental_uris": {"ios": "https://dc.lft.to/lastmile_qr_scan", "android": "https://dc.lft.to/lastmile_qr_scan"}, "bike_id": "8cc0ce570fe0c1ed5a4a26cd66b5f256", "type": "electric_scooter", "lon": -77.00320816666667, "is_reserved": 0, "fusion_lat": 0.0, "fusion_lon": 0.0}, {"name": "8b4d999c082e8518d6c04171444c31af", "is_disabled": 0, "lat": 38.8976435, "rental_uris": {"ios": "https://dc.lft.to/lastmile_qr_scan", "android": "https://dc.lft.to/lastmile_qr_scan"}, "bike_id": "8b4d999c082e8518d6c04171444c31af", "type": "electric_scooter", "lon": -77.03295116666666, "is_reserved": 0, "fusion_lat": 0.0, "fusion_lon": 0.0}, {"name": "3b52eb731a92a2e703fedbca90d3d38a", "is_disabled": 0, "lat": 38.939141166666666, "rental_uris": {"ios": "https://dc.lft.to/lastmile_qr_scan", "android": "https://dc.lft.to/lastmile_qr_scan"}, "bike_id": "3b52eb731a92a2e703fedbca90d3d38a", "type": "electric_scooter", "lon": -77.02472566666667, "is_reserved": 0, "fusion_lat": 0.0, "fusion_lon": 0.0}, {"name": "7e33a27581c3b06b44ad0fba6076b035", "is_disabled": 0, "lat": 38.908553166666664, "rental_uris": {"ios": "https://dc.lft.to/lastmile_qr_scan", "android": "https://dc.lft.to/lastmile_qr_scan"}, "bike_id": "7e33a27581c3b06b44ad0fba6076b035", "type": "electric_scooter", "lon": -77.027206, "is_reserved": 0, "fusion_lat": 0.0, "fusion_lon": 0.0}, {"name": "8c980fcfe0c5a77afebc7c81acde26b6", "is_disabled": 0, "lat": 38.9045935, "rental_uris": {"ios": "https://dc.lft.to/lastmile_qr_scan", "android": "https://dc.lft.to/lastmile_qr_scan"}, "bike_id": "8c980fcfe0c5a77afebc7c81acde26b6", "type": "electric_scooter", "lon": -77.05336716666666, "is_reserved": 0, "fusion_lat": 0.0, "fusion_lon": 0.0}, {"name": "8efa816a95fe36ccd68dd84341e651b2", "is_disabled": 0, "lat": 38.8873665, "rental_uris": {"ios": "https://dc.lft.to/lastmile_qr_scan", "android": "https://dc.lft.to/lastmile_qr_scan"}, "bike_id": "8efa816a95fe36ccd68dd84341e651b2", "type": "electric_scooter", "lon": -77.0238275, "is_reserved": 0, "fusion_lat": 0.0, "fusion_lon": 0.0}, {"name": "c3b20a899af49a8a25ca019183769602", "is_disabled": 0, "lat": 38.90991983333333, "rental_uris": {"ios": "https://dc.lft.to/lastmile_qr_scan", "android": "https://dc.lft.to/lastmile_qr_scan"}, "bike_id": "c3b20a899af49a8a25ca019183769602", "type": "electric_scooter", "lon": -76.99467333333334, "is_reserved": 0, "fusion_lat": 0.0, "fusion_lon": 0.0}, {"name": "0fd1c9b227c39dc2cca46ae037f3e998", "is_disabled": 0, "lat": 38.892246, "rental_uris": {"ios": "https://dc.lft.to/lastmile_qr_scan", "android": "https://dc.lft.to/lastmile_qr_scan"}, "bike_id": "0fd1c9b227c39dc2cca46ae037f3e998", "type": "electric_scooter", "lon": -77.04328116666667, "is_reserved": 0, "fusion_lat": 0.0, "fusion_lon": 0.0}, {"name": "6ff35eedb0dd6f488b50831a6c950d2c", "is_disabled": 0, "lat": 38.912544, "rental_uris": {"ios": "https://dc.lft.to/lastmile_qr_scan", "android": "https://dc.lft.to/lastmile_qr_scan"}, "bike_id": "6ff35eedb0dd6f488b50831a6c950d2c", "type": "electric_scooter", "lon": -77.00778016666666, "is_reserved": 0, "fusion_lat": 0.0, "fusion_lon": 0.0}, {"name": "f798dd85b62d91f07e949a5f0686b5d7", "is_disabled": 0, "lat": 38.903382666666666, "rental_uris": {"ios": "https://dc.lft.to/lastmile_qr_scan", "android": "https://dc.lft.to/lastmile_qr_scan"}, "bike_id": "f798dd85b62d91f07e949a5f0686b5d7", "type": "electric_scooter", "lon": -77.0529175, "is_reserved": 0, "fusion_lat": 0.0, "fusion_lon": 0.0}, {"name": "c794a7d1119033cfbde72b37b886dc66", "is_disabled": 0, "lat": 38.9253075, "rental_uris": {"ios": "https://dc.lft.to/lastmile_qr_scan", "android": "https://dc.lft.to/lastmile_qr_scan"}, "bike_id": "c794a7d1119033cfbde72b37b886dc66", "type": "electric_scooter", "lon": -77.07710933333334, "is_reserved": 0, "fusion_lat": 0.0, "fusion_lon": 0.0}, {"name": "e2398d8b3a482528c71fdc9bb2fb4ce4", "is_disabled": 0, "lat": 38.912672, "rental_uris": {"ios": "https://dc.lft.to/lastmile_qr_scan", "android": "https://dc.lft.to/lastmile_qr_scan"}, "bike_id": "e2398d8b3a482528c71fdc9bb2fb4ce4", "type": "electric_scooter", "lon": -77.031527, "is_reserved": 0, "fusion_lat": 0.0, "fusion_lon": 0.0}, {"name": "11393bc2dad0ef3dd93673168a6c3de2", "is_disabled": 0, "lat": 38.888201, "rental_uris": {"ios": "https://dc.lft.to/lastmile_qr_scan", "android": "https://dc.lft.to/lastmile_qr_scan"}, "bike_id": "11393bc2dad0ef3dd93673168a6c3de2", "type": "electric_scooter", "lon": -76.97717433333334, "is_reserved": 0, "fusion_lat": 0.0, "fusion_lon": 0.0}, {"name": "ce3c8587b53f95369fd3faba7a16dcd0", "is_disabled": 0, "lat": 38.945178166666665, "rental_uris": {"ios": "https://dc.lft.to/lastmile_qr_scan", "android": "https://dc.lft.to/lastmile_qr_scan"}, "bike_id": "ce3c8587b53f95369fd3faba7a16dcd0", "type": "electric_bike", "lon": -77.00686116666667, "is_reserved": 0, "fusion_lat": 0.0, "fusion_lon": 0.0}, {"name": "00afde9f76c4187db78a6e16b722c1b2", "is_disabled": 0, "lat": 38.90690583333333, "rental_uris": {"ios": "https://dc.lft.to/lastmile_qr_scan", "android": "https://dc.lft.to/lastmile_qr_scan"}, "bike_id": "00afde9f76c4187db78a6e16b722c1b2", "type": "electric_scooter", "lon": -77.03598683333334, "is_reserved": 0, "fusion_lat": 0.0, "fusion_lon": 0.0}, {"name": "d3aa350975b9729f32647100d1d4e903", "is_disabled": 0, "lat": 38.8988955, "rental_uris": {"ios": "https://dc.lft.to/lastmile_qr_scan", "android": "https://dc.lft.to/lastmile_qr_scan"}, "bike_id": "d3aa350975b9729f32647100d1d4e903", "type": "electric_scooter", "lon": -76.9935755, "is_reserved": 0, "fusion_lat": 0.0, "fusion_lon": 0.0}, {"name": "4d42e428f239b600748648ecd0c6781a", "is_disabled": 0, "lat": 38.91152566666667, "rental_uris": {"ios": "https://dc.lft.to/lastmile_qr_scan", "android": "https://dc.lft.to/lastmile_qr_scan"}, "bike_id": "4d42e428f239b600748648ecd0c6781a", "type": "electric_scooter", "lon": -77.08752933333334, "is_reserved": 0, "fusion_lat": 0.0, "fusion_lon": 0.0}, {"name": "f83064f3f9f2aaa08960886f2adc24ee", "is_disabled": 0, "lat": 38.92440883333333, "rental_uris": {"ios": "https://dc.lft.to/lastmile_qr_scan", "android": "https://dc.lft.to/lastmile_qr_scan"}, "bike_id": "f83064f3f9f2aaa08960886f2adc24ee", "type": "electric_scooter", "lon": -77.05212733333333, "is_reserved": 0, "fusion_lat": 0.0, "fusion_lon": 0.0}, {"name": "789467fb4b8a97272c43e2506298298f", "is_disabled": 0, "lat": 38.9171435, "rental_uris": {"ios": "https://dc.lft.to/lastmile_qr_scan", "android": "https://dc.lft.to/lastmile_qr_scan"}, "bike_id": "789467fb4b8a97272c43e2506298298f", "type": "electric_scooter", "lon": -77.03118433333333, "is_reserved": 0, "fusion_lat": 0.0, "fusion_lon": 0.0}, {"name": "11f3fa46df2e4f32889725984e9f54ac", "is_disabled": 0, "lat": 38.8850505, "rental_uris": {"ios": "https://dc.lft.to/lastmile_qr_scan", "android": "https://dc.lft.to/lastmile_qr_scan"}, "bike_id": "11f3fa46df2e4f32889725984e9f54ac", "type": "electric_scooter", "lon": -77.01459183333333, "is_reserved": 0, "fusion_lat": 0.0, "fusion_lon": 0.0}, {"name": "4b27d4dd8d18e1484ca1c697fa877f0f", "is_disabled": 0, "lat": 38.89546, "rental_uris": {"ios": "https://dc.lft.to/lastmile_qr_scan", "android": "https://dc.lft.to/lastmile_qr_scan"}, "bike_id": "4b27d4dd8d18e1484ca1c697fa877f0f", "type": "electric_scooter", "lon": -76.98337516666666, "is_reserved": 0, "fusion_lat": 0.0, "fusion_lon": 0.0}, {"name": "0a8527ff2a5229b00e5ce9a5bf6f4296", "is_disabled": 0, "lat": 38.8982075, "rental_uris": {"ios": "https://dc.lft.to/lastmile_qr_scan", "android": "https://dc.lft.to/lastmile_qr_scan"}, "bike_id": "0a8527ff2a5229b00e5ce9a5bf6f4296", "type": "electric_scooter", "lon": -77.04611266666667, "is_reserved": 0, "fusion_lat": 0.0, "fusion_lon": 0.0}, {"name": "ebcd1224e6405c59d9f852f0428b8cdb", "is_disabled": 0, "lat": 38.915441666666666, "rental_uris": {"ios": "https://dc.lft.to/lastmile_qr_scan", "android": "https://dc.lft.to/lastmile_qr_scan"}, "bike_id": "ebcd1224e6405c59d9f852f0428b8cdb", "type": "electric_scooter", "lon": -77.03204416666667, "is_reserved": 0, "fusion_lat": 0.0, "fusion_lon": 0.0}, {"name": "2dacc461f7a33006e9d9aaa67277a183", "is_disabled": 0, "lat": 38.88823516666667, "rental_uris": {"ios": "https://dc.lft.to/lastmile_qr_scan", "android": "https://dc.lft.to/lastmile_qr_scan"}, "bike_id": "2dacc461f7a33006e9d9aaa67277a183", "type": "electric_scooter", "lon": -76.97719266666667, "is_reserved": 0, "fusion_lat": 0.0, "fusion_lon": 0.0}, {"name": "e3a4782c30884c2ef64ba23e9643b0eb", "is_disabled": 0, "lat": 38.90076833333333, "rental_uris": {"ios": "https://dc.lft.to/lastmile_qr_scan", "android": "https://dc.lft.to/lastmile_qr_scan"}, "bike_id": "e3a4782c30884c2ef64ba23e9643b0eb", "type": "electric_scooter", "lon": -77.0135825, "is_reserved": 0, "fusion_lat": 0.0, "fusion_lon": 0.0}, {"name": "b339bc64e1e362c89a4560ace4105a46", "is_disabled": 0, "lat": 38.907385, "rental_uris": {"ios": "https://dc.lft.to/lastmile_qr_scan", "android": "https://dc.lft.to/lastmile_qr_scan"}, "bike_id": "b339bc64e1e362c89a4560ace4105a46", "type": "electric_scooter", "lon": -77.0432855, "is_reserved": 0, "fusion_lat": 0.0, "fusion_lon": 0.0}, {"name": "603b2c6571e9a0eca0c32f7a1b9005eb", "is_disabled": 0, "lat": 38.887442, "rental_uris": {"ios": "https://dc.lft.to/lastmile_qr_scan", "android": "https://dc.lft.to/lastmile_qr_scan"}, "bike_id": "603b2c6571e9a0eca0c32f7a1b9005eb", "type": "electric_scooter", "lon": -77.02568716666667, "is_reserved": 0, "fusion_lat": 0.0, "fusion_lon": 0.0}, {"name": "822c49deb28bae700234d9a453cfe38d", "is_disabled": 0, "lat": 38.93479683333333, "rental_uris": {"ios": "https://dc.lft.to/lastmile_qr_scan", "android": "https://dc.lft.to/lastmile_qr_scan"}, "bike_id": "822c49deb28bae700234d9a453cfe38d", "type": "electric_scooter", "lon": -77.0726605, "is_reserved": 0, "fusion_lat": 0.0, "fusion_lon": 0.0}, {"name": "1df141f490d2acd72bad3bf5462d696c", "is_disabled": 0, "lat": 38.898767166666666, "rental_uris": {"ios": "https://dc.lft.to/lastmile_qr_scan", "android": "https://dc.lft.to/lastmile_qr_scan"}, "bike_id": "1df141f490d2acd72bad3bf5462d696c", "type": "electric_scooter", "lon": -76.931832, "is_reserved": 0, "fusion_lat": 0.0, "fusion_lon": 0.0}, {"name": "1608eb02687e6e9df5a96b0e179914f5", "is_disabled": 0, "lat": 38.909741, "rental_uris": {"ios": "https://dc.lft.to/lastmile_qr_scan", "android": "https://dc.lft.to/lastmile_qr_scan"}, "bike_id": "1608eb02687e6e9df5a96b0e179914f5", "type": "electric_scooter", "lon": -77.03205516666667, "is_reserved": 0, "fusion_lat": 0.0, "fusion_lon": 0.0}, {"name": "bf07a827d620aee20793dcced551873a", "is_disabled": 0, "lat": 38.903042, "rental_uris": {"ios": "https://dc.lft.to/lastmile_qr_scan", "android": "https://dc.lft.to/lastmile_qr_scan"}, "bike_id": "bf07a827d620aee20793dcced551873a", "type": "electric_scooter", "lon": -77.05814383333333, "is_reserved": 0, "fusion_lat": 0.0, "fusion_lon": 0.0}, {"name": "133bec3047f7ac584c8f4f22a900ddc9", "is_disabled": 0, "lat": 38.883753, "rental_uris": {"ios": "https://dc.lft.to/lastmile_qr_scan", "android": "https://dc.lft.to/lastmile_qr_scan"}, "bike_id": "133bec3047f7ac584c8f4f22a900ddc9", "type": "electric_scooter", "lon": -76.9951815, "is_reserved": 0, "fusion_lat": 0.0, "fusion_lon": 0.0}, {"name": "37f7747bd45dc5f9d3aa70b1326251dc", "is_disabled": 0, "lat": 38.90057483333333, "rental_uris": {"ios": "https://dc.lft.to/lastmile_qr_scan", "android": "https://dc.lft.to/lastmile_qr_scan"}, "bike_id": "37f7747bd45dc5f9d3aa70b1326251dc", "type": "electric_scooter", "lon": -76.99935083333334, "is_reserved": 0, "fusion_lat": 0.0, "fusion_lon": 0.0}, {"name": "63c7aaf8f6b6b7d842b38120cd5fe103", "is_disabled": 0, "lat": 38.907952333333334, "rental_uris": {"ios": "https://dc.lft.to/lastmile_qr_scan", "android": "https://dc.lft.to/lastmile_qr_scan"}, "bike_id": "63c7aaf8f6b6b7d842b38120cd5fe103", "type": "electric_scooter", "lon": -77.03442516666667, "is_reserved": 0, "fusion_lat": 0.0, "fusion_lon": 0.0}, {"name": "ead3a444e7522394c1e993e9f0e9d8f7", "is_disabled": 0, "lat": 38.92882066666667, "rental_uris": {"ios": "https://dc.lft.to/lastmile_qr_scan", "android": "https://dc.lft.to/lastmile_qr_scan"}, "bike_id": "ead3a444e7522394c1e993e9f0e9d8f7", "type": "electric_scooter", "lon": -77.0136155, "is_reserved": 0, "fusion_lat": 0.0, "fusion_lon": 0.0}, {"name": "71a2f4ce4760ae3f33d314b33222df3c", "is_disabled": 0, "lat": 38.946076833333336, "rental_uris": {"ios": "https://dc.lft.to/lastmile_qr_scan", "android": "https://dc.lft.to/lastmile_qr_scan"}, "bike_id": "71a2f4ce4760ae3f33d314b33222df3c", "type": "electric_scooter", "lon": -77.09683683333333, "is_reserved": 0, "fusion_lat": 0.0, "fusion_lon": 0.0}, {"name": "2e58e4c4d3d0469fabf866498d9d9fea", "is_disabled": 0, "lat": 38.92618516666667, "rental_uris": {"ios": "https://dc.lft.to/lastmile_qr_scan", "android": "https://dc.lft.to/lastmile_qr_scan"}, "bike_id": "2e58e4c4d3d0469fabf866498d9d9fea", "type": "electric_scooter", "lon": -77.0367385, "is_reserved": 0, "fusion_lat": 0.0, "fusion_lon": 0.0}, {"name": "3cc4070ede77f491e7c7b4e344f3f1d4", "is_disabled": 0, "lat": 38.92022083333333, "rental_uris": {"ios": "https://dc.lft.to/lastmile_qr_scan", "android": "https://dc.lft.to/lastmile_qr_scan"}, "bike_id": "3cc4070ede77f491e7c7b4e344f3f1d4", "type": "electric_scooter", "lon": -77.01316866666667, "is_reserved": 0, "fusion_lat": 0.0, "fusion_lon": 0.0}, {"name": "f46c1a68eacd9e8b015f4559e3d3df87", "is_disabled": 0, "lat": 38.9112025, "rental_uris": {"ios": "https://dc.lft.to/lastmile_qr_scan", "android": "https://dc.lft.to/lastmile_qr_scan"}, "bike_id": "f46c1a68eacd9e8b015f4559e3d3df87", "type": "electric_scooter", "lon": -77.007554, "is_reserved": 0, "fusion_lat": 0.0, "fusion_lon": 0.0}, {"name": "5865fb89afeae3b58e29e29784334faa", "is_disabled": 0, "lat": 38.892507, "rental_uris": {"ios": "https://dc.lft.to/lastmile_qr_scan", "android": "https://dc.lft.to/lastmile_qr_scan"}, "bike_id": "5865fb89afeae3b58e29e29784334faa", "type": "electric_scooter", "lon": -77.03956716666667, "is_reserved": 0, "fusion_lat": 0.0, "fusion_lon": 0.0}, {"name": "bab2debea05bfcf84c9bf9da88095938", "is_disabled": 0, "lat": 38.9056035, "rental_uris": {"ios": "https://dc.lft.to/lastmile_qr_scan", "android": "https://dc.lft.to/lastmile_qr_scan"}, "bike_id": "bab2debea05bfcf84c9bf9da88095938", "type": "electric_scooter", "lon": -77.00528733333333, "is_reserved": 0, "fusion_lat": 0.0, "fusion_lon": 0.0}, {"name": "97388938c09d25cce2771c9744fd4e87", "is_disabled": 0, "lat": 38.923241166666664, "rental_uris": {"ios": "https://dc.lft.to/lastmile_qr_scan", "android": "https://dc.lft.to/lastmile_qr_scan"}, "bike_id": "97388938c09d25cce2771c9744fd4e87", "type": "electric_scooter", "lon": -77.04029233333333, "is_reserved": 0, "fusion_lat": 0.0, "fusion_lon": 0.0}, {"name": "3bbb773e5e09c6d25817cc93fce47d37", "is_disabled": 0, "lat": 38.96444666666667, "rental_uris": {"ios": "https://dc.lft.to/lastmile_qr_scan", "android": "https://dc.lft.to/lastmile_qr_scan"}, "bike_id": "3bbb773e5e09c6d25817cc93fce47d37", "type": "electric_bike", "lon": -77.02067866666667, "is_reserved": 0, "fusion_lat": 0.0, "fusion_lon": 0.0}, {"name": "5c1bfbe7fe9777290a649b081d2ef7e1", "is_disabled": 0, "lat": 38.874931, "rental_uris": {"ios": "https://dc.lft.to/lastmile_qr_scan", "android": "https://dc.lft.to/lastmile_qr_scan"}, "bike_id": "5c1bfbe7fe9777290a649b081d2ef7e1", "type": "electric_scooter", "lon": -77.00846133333333, "is_reserved": 0, "fusion_lat": 0.0, "fusion_lon": 0.0}, {"name": "17ef6c1e18b04f98548cd838f6b06051", "is_disabled": 0, "lat": 38.93360233333333, "rental_uris": {"ios": "https://dc.lft.to/lastmile_qr_scan", "android": "https://dc.lft.to/lastmile_qr_scan"}, "bike_id": "17ef6c1e18b04f98548cd838f6b06051", "type": "electric_scooter", "lon": -77.07363116666667, "is_reserved": 0, "fusion_lat": 0.0, "fusion_lon": 0.0}, {"name": "6b9abef98505ec0bdb9c1748e336ddea", "is_disabled": 0, "lat": 38.8988345, "rental_uris": {"ios": "https://dc.lft.to/lastmile_qr_scan", "android": "https://dc.lft.to/lastmile_qr_scan"}, "bike_id": "6b9abef98505ec0bdb9c1748e336ddea", "type": "electric_scooter", "lon": -77.04356733333333, "is_reserved": 0, "fusion_lat": 0.0, "fusion_lon": 0.0}, {"name": "b940e7e7d293d9c1cf5a7e4bc4a2a4ab", "is_disabled": 0, "lat": 38.920743, "rental_uris": {"ios": "https://dc.lft.to/lastmile_qr_scan", "android": "https://dc.lft.to/lastmile_qr_scan"}, "bike_id": "b940e7e7d293d9c1cf5a7e4bc4a2a4ab", "type": "electric_scooter", "lon": -77.03200416666667, "is_reserved": 0, "fusion_lat": 0.0, "fusion_lon": 0.0}, {"name": "19c815aa3bf8a6ac8c126d3fad0805da", "is_disabled": 0, "lat": 38.91703483333333, "rental_uris": {"ios": "https://dc.lft.to/lastmile_qr_scan", "android": "https://dc.lft.to/lastmile_qr_scan"}, "bike_id": "19c815aa3bf8a6ac8c126d3fad0805da", "type": "electric_scooter", "lon": -77.02431616666667, "is_reserved": 0, "fusion_lat": 0.0, "fusion_lon": 0.0}, {"name": "bebf023da94f96a866ca7550bcdae244", "is_disabled": 0, "lat": 38.911245, "rental_uris": {"ios": "https://dc.lft.to/lastmile_qr_scan", "android": "https://dc.lft.to/lastmile_qr_scan"}, "bike_id": "bebf023da94f96a866ca7550bcdae244", "type": "electric_scooter", "lon": -77.04470583333334, "is_reserved": 0, "fusion_lat": 0.0, "fusion_lon": 0.0}, {"name": "f5b634675a607fb389915ae286f8a33a", "is_disabled": 0, "lat": 38.923209166666666, "rental_uris": {"ios": "https://dc.lft.to/lastmile_qr_scan", "android": "https://dc.lft.to/lastmile_qr_scan"}, "bike_id": "f5b634675a607fb389915ae286f8a33a", "type": "electric_scooter", "lon": -77.027004, "is_reserved": 0, "fusion_lat": 0.0, "fusion_lon": 0.0}, {"name": "63aedc04b862bd973b4e838c70d7f253", "is_disabled": 0, "lat": 38.91924216666666, "rental_uris": {"ios": "https://dc.lft.to/lastmile_qr_scan", "android": "https://dc.lft.to/lastmile_qr_scan"}, "bike_id": "63aedc04b862bd973b4e838c70d7f253", "type": "electric_scooter", "lon": -77.03424333333334, "is_reserved": 0, "fusion_lat": 0.0, "fusion_lon": 0.0}, {"name": "fa378bd95ce54cc349c6c16438b7ca70", "is_disabled": 0, "lat": 38.9201965, "rental_uris": {"ios": "https://dc.lft.to/lastmile_qr_scan", "android": "https://dc.lft.to/lastmile_qr_scan"}, "bike_id": "fa378bd95ce54cc349c6c16438b7ca70", "type": "electric_scooter", "lon": -77.08188933333334, "is_reserved": 0, "fusion_lat": 0.0, "fusion_lon": 0.0}, {"name": "764c4c3963cf0158e2113125ff800319", "is_disabled": 0, "lat": 38.895201666666665, "rental_uris": {"ios": "https://dc.lft.to/lastmile_qr_scan", "android": "https://dc.lft.to/lastmile_qr_scan"}, "bike_id": "764c4c3963cf0158e2113125ff800319", "type": "electric_scooter", "lon": -77.0036165, "is_reserved": 0, "fusion_lat": 0.0, "fusion_lon": 0.0}, {"name": "b3696b1f27f1dd90a7cb4401431653c5", "is_disabled": 0, "lat": 38.91841, "rental_uris": {"ios": "https://dc.lft.to/lastmile_qr_scan", "android": "https://dc.lft.to/lastmile_qr_scan"}, "bike_id": "b3696b1f27f1dd90a7cb4401431653c5", "type": "electric_scooter", "lon": -77.016105, "is_reserved": 0, "fusion_lat": 0.0, "fusion_lon": 0.0}, {"name": "a3fa530e09802b49f60f0ec44bad3fc7", "is_disabled": 0, "lat": 38.918153, "rental_uris": {"ios": "https://dc.lft.to/lastmile_qr_scan", "android": "https://dc.lft.to/lastmile_qr_scan"}, "bike_id": "a3fa530e09802b49f60f0ec44bad3fc7", "type": "electric_scooter", "lon": -77.0267995, "is_reserved": 0, "fusion_lat": 0.0, "fusion_lon": 0.0}, {"name": "75272c9e2e7b19f84ced0049b532df46", "is_disabled": 0, "lat": 38.9021465, "rental_uris": {"ios": "https://dc.lft.to/lastmile_qr_scan", "android": "https://dc.lft.to/lastmile_qr_scan"}, "bike_id": "75272c9e2e7b19f84ced0049b532df46", "type": "electric_scooter", "lon": -76.98613283333333, "is_reserved": 0, "fusion_lat": 0.0, "fusion_lon": 0.0}, {"name": "a4c8e8df77b4fa8d0d2f7c955f410eef", "is_disabled": 0, "lat": 38.957337333333335, "rental_uris": {"ios": "https://dc.lft.to/lastmile_qr_scan", "android": "https://dc.lft.to/lastmile_qr_scan"}, "bike_id": "a4c8e8df77b4fa8d0d2f7c955f410eef", "type": "electric_scooter", "lon": -77.02402783333334, "is_reserved": 0, "fusion_lat": 0.0, "fusion_lon": 0.0}, {"name": "a1bb0ac51e7ee83ed11fa7da0bb33d95", "is_disabled": 0, "lat": 38.91794, "rental_uris": {"ios": "https://dc.lft.to/lastmile_qr_scan", "android": "https://dc.lft.to/lastmile_qr_scan"}, "bike_id": "a1bb0ac51e7ee83ed11fa7da0bb33d95", "type": "electric_scooter", "lon": -77.0417295, "is_reserved": 0, "fusion_lat": 0.0, "fusion_lon": 0.0}, {"name": "dd8c5936e495375edb507cf87843744b", "is_disabled": 0, "lat": 38.919314166666666, "rental_uris": {"ios": "https://dc.lft.to/lastmile_qr_scan", "android": "https://dc.lft.to/lastmile_qr_scan"}, "bike_id": "dd8c5936e495375edb507cf87843744b", "type": "electric_scooter", "lon": -77.04170833333333, "is_reserved": 0, "fusion_lat": 0.0, "fusion_lon": 0.0}, {"name": "8f275b0fa1c9f7d31f06745d5a4b9631", "is_disabled": 0, "lat": 38.91764333333333, "rental_uris": {"ios": "https://dc.lft.to/lastmile_qr_scan", "android": "https://dc.lft.to/lastmile_qr_scan"}, "bike_id": "8f275b0fa1c9f7d31f06745d5a4b9631", "type": "electric_scooter", "lon": -77.00453483333334, "is_reserved": 0, "fusion_lat": 0.0, "fusion_lon": 0.0}, {"name": "e31e375876a00b279d32a46789a0c049", "is_disabled": 0, "lat": 38.928599, "rental_uris": {"ios": "https://dc.lft.to/lastmile_qr_scan", "android": "https://dc.lft.to/lastmile_qr_scan"}, "bike_id": "e31e375876a00b279d32a46789a0c049", "type": "electric_scooter", "lon": -77.0352755, "is_reserved": 0, "fusion_lat": 0.0, "fusion_lon": 0.0}, {"name": "24189c4c873f5005adf405f0aaa2d442", "is_disabled": 0, "lat": 38.8873425, "rental_uris": {"ios": "https://dc.lft.to/lastmile_qr_scan", "android": "https://dc.lft.to/lastmile_qr_scan"}, "bike_id": "24189c4c873f5005adf405f0aaa2d442", "type": "electric_scooter", "lon": -77.023826, "is_reserved": 0, "fusion_lat": 0.0, "fusion_lon": 0.0}, {"name": "1e5d86673efdfdde85ee25f9a5f44960", "is_disabled": 0, "lat": 38.90906066666667, "rental_uris": {"ios": "https://dc.lft.to/lastmile_qr_scan", "android": "https://dc.lft.to/lastmile_qr_scan"}, "bike_id": "1e5d86673efdfdde85ee25f9a5f44960", "type": "electric_scooter", "lon": -77.044212, "is_reserved": 0, "fusion_lat": 0.0, "fusion_lon": 0.0}, {"name": "0a7c9aed75f2d73f30f7d2089db09477", "is_disabled": 0, "lat": 38.873907333333335, "rental_uris": {"ios": "https://dc.lft.to/lastmile_qr_scan", "android": "https://dc.lft.to/lastmile_qr_scan"}, "bike_id": "0a7c9aed75f2d73f30f7d2089db09477", "type": "electric_scooter", "lon": -77.00208066666667, "is_reserved": 0, "fusion_lat": 0.0, "fusion_lon": 0.0}, {"name": "11722963d66dcaf7bcbae96d31587e5d", "is_disabled": 0, "lat": 38.90141916666666, "rental_uris": {"ios": "https://dc.lft.to/lastmile_qr_scan", "android": "https://dc.lft.to/lastmile_qr_scan"}, "bike_id": "11722963d66dcaf7bcbae96d31587e5d", "type": "electric_scooter", "lon": -77.04487916666666, "is_reserved": 0, "fusion_lat": 0.0, "fusion_lon": 0.0}, {"name": "cbc925c822e6b8fa34c3765f1b2af081", "is_disabled": 0, "lat": 38.9060895, "rental_uris": {"ios": "https://dc.lft.to/lastmile_qr_scan", "android": "https://dc.lft.to/lastmile_qr_scan"}, "bike_id": "cbc925c822e6b8fa34c3765f1b2af081", "type": "electric_scooter", "lon": -77.04140416666667, "is_reserved": 0, "fusion_lat": 0.0, "fusion_lon": 0.0}, {"name": "0f2df321555461a8353e815a1036c6cc", "is_disabled": 0, "lat": 38.988187833333335, "rental_uris": {"ios": "https://dc.lft.to/lastmile_qr_scan", "android": "https://dc.lft.to/lastmile_qr_scan"}, "bike_id": "0f2df321555461a8353e815a1036c6cc", "type": "electric_bike", "lon": -77.02646216666666, "is_reserved": 0, "fusion_lat": 0.0, "fusion_lon": 0.0}, {"name": "88e9cd8bee14b45c67a62ab3220ec214", "is_disabled": 0, "lat": 38.91702133333333, "rental_uris": {"ios": "https://dc.lft.to/lastmile_qr_scan", "android": "https://dc.lft.to/lastmile_qr_scan"}, "bike_id": "88e9cd8bee14b45c67a62ab3220ec214", "type": "electric_scooter", "lon": -77.02647083333333, "is_reserved": 0, "fusion_lat": 0.0, "fusion_lon": 0.0}, {"name": "d54b0eafc3055a707b1752b6680cd406", "is_disabled": 0, "lat": 38.91671083333333, "rental_uris": {"ios": "https://dc.lft.to/lastmile_qr_scan", "android": "https://dc.lft.to/lastmile_qr_scan"}, "bike_id": "d54b0eafc3055a707b1752b6680cd406", "type": "electric_scooter", "lon": -77.027178, "is_reserved": 0, "fusion_lat": 0.0, "fusion_lon": 0.0}, {"name": "0f343ad8a79c1111dd7bf5ef6d7148c1", "is_disabled": 0, "lat": 38.9938635, "rental_uris": {"ios": "https://dc.lft.to/lastmile_qr_scan", "android": "https://dc.lft.to/lastmile_qr_scan"}, "bike_id": "0f343ad8a79c1111dd7bf5ef6d7148c1", "type": "electric_bike", "lon": -76.92881983333334, "is_reserved": 0, "fusion_lat": 0.0, "fusion_lon": 0.0}, {"name": "1296e7750676e59024d70ba3713e4620", "is_disabled": 0, "lat": 38.927997166666664, "rental_uris": {"ios": "https://dc.lft.to/lastmile_qr_scan", "android": "https://dc.lft.to/lastmile_qr_scan"}, "bike_id": "1296e7750676e59024d70ba3713e4620", "type": "electric_scooter", "lon": -77.02293133333333, "is_reserved": 0, "fusion_lat": 0.0, "fusion_lon": 0.0}, {"name": "cdb22b7c8be5a3456bb6b430e3c9199a", "is_disabled": 0, "lat": 38.916549833333335, "rental_uris": {"ios": "https://dc.lft.to/lastmile_qr_scan", "android": "https://dc.lft.to/lastmile_qr_scan"}, "bike_id": "cdb22b7c8be5a3456bb6b430e3c9199a", "type": "electric_scooter", "lon": -77.022764, "is_reserved": 0, "fusion_lat": 0.0, "fusion_lon": 0.0}, {"name": "6e345436be63bc2770f12ed6e9723e98", "is_disabled": 0, "lat": 38.914086, "rental_uris": {"ios": "https://dc.lft.to/lastmile_qr_scan", "android": "https://dc.lft.to/lastmile_qr_scan"}, "bike_id": "6e345436be63bc2770f12ed6e9723e98", "type": "electric_scooter", "lon": -77.031635, "is_reserved": 0, "fusion_lat": 0.0, "fusion_lon": 0.0}, {"name": "3b564694ce6aa8e9ed99491fa1287e55", "is_disabled": 0, "lat": 38.884613333333334, "rental_uris": {"ios": "https://dc.lft.to/lastmile_qr_scan", "android": "https://dc.lft.to/lastmile_qr_scan"}, "bike_id": "3b564694ce6aa8e9ed99491fa1287e55", "type": "electric_bike", "lon": -76.9523645, "is_reserved": 0, "fusion_lat": 0.0, "fusion_lon": 0.0}, {"name": "40f77a01f14f25ed9ae15b45ccaa7931", "is_disabled": 0, "lat": 38.949212, "rental_uris": {"ios": "https://dc.lft.to/lastmile_qr_scan", "android": "https://dc.lft.to/lastmile_qr_scan"}, "bike_id": "40f77a01f14f25ed9ae15b45ccaa7931", "type": "electric_bike", "lon": -77.00795766666667, "is_reserved": 0, "fusion_lat": 0.0, "fusion_lon": 0.0}, {"name": "dacb50b8f50f2b26d0497009b2886ea6", "is_disabled": 0, "lat": 38.89829566666667, "rental_uris": {"ios": "https://dc.lft.to/lastmile_qr_scan", "android": "https://dc.lft.to/lastmile_qr_scan"}, "bike_id": "dacb50b8f50f2b26d0497009b2886ea6", "type": "electric_scooter", "lon": -77.02978683333333, "is_reserved": 0, "fusion_lat": 0.0, "fusion_lon": 0.0}, {"name": "55090e62a024ca3a93959fd116cb7f74", "is_disabled": 0, "lat": 38.9247535, "rental_uris": {"ios": "https://dc.lft.to/lastmile_qr_scan", "android": "https://dc.lft.to/lastmile_qr_scan"}, "bike_id": "55090e62a024ca3a93959fd116cb7f74", "type": "electric_scooter", "lon": -77.0352635, "is_reserved": 0, "fusion_lat": 0.0, "fusion_lon": 0.0}, {"name": "0b0088d1c8587f91dc766ba6de15e730", "is_disabled": 0, "lat": 38.892456333333335, "rental_uris": {"ios": "https://dc.lft.to/lastmile_qr_scan", "android": "https://dc.lft.to/lastmile_qr_scan"}, "bike_id": "0b0088d1c8587f91dc766ba6de15e730", "type": "electric_bike", "lon": -76.98541516666667, "is_reserved": 0, "fusion_lat": 0.0, "fusion_lon": 0.0}, {"name": "4e8fdf546f453f0e5f1fcebb78fbb41f", "is_disabled": 0, "lat": 38.91409016666667, "rental_uris": {"ios": "https://dc.lft.to/lastmile_qr_scan", "android": "https://dc.lft.to/lastmile_qr_scan"}, "bike_id": "4e8fdf546f453f0e5f1fcebb78fbb41f", "type": "electric_scooter", "lon": -77.02981083333333, "is_reserved": 0, "fusion_lat": 0.0, "fusion_lon": 0.0}, {"name": "993b47b6008c3d0ca761e1d783b20ffa", "is_disabled": 0, "lat": 38.9427445, "rental_uris": {"ios": "https://dc.lft.to/lastmile_qr_scan", "android": "https://dc.lft.to/lastmile_qr_scan"}, "bike_id": "993b47b6008c3d0ca761e1d783b20ffa", "type": "electric_scooter", "lon": -77.03257466666666, "is_reserved": 0, "fusion_lat": 0.0, "fusion_lon": 0.0}, {"name": "5e79b16f9e34223ca4d331274726a431", "is_disabled": 0, "lat": 38.88998, "rental_uris": {"ios": "https://dc.lft.to/lastmile_qr_scan", "android": "https://dc.lft.to/lastmile_qr_scan"}, "bike_id": "5e79b16f9e34223ca4d331274726a431", "type": "electric_scooter", "lon": -76.95432966666667, "is_reserved": 0, "fusion_lat": 0.0, "fusion_lon": 0.0}, {"name": "e73b1df75685b768947e5bc7e76ca05e", "is_disabled": 0, "lat": 38.9019855, "rental_uris": {"ios": "https://dc.lft.to/lastmile_qr_scan", "android": "https://dc.lft.to/lastmile_qr_scan"}, "bike_id": "e73b1df75685b768947e5bc7e76ca05e", "type": "electric_scooter", "lon": -77.02398083333334, "is_reserved": 0, "fusion_lat": 0.0, "fusion_lon": 0.0}, {"name": "a653db99f687779a4defe87a63c50abf", "is_disabled": 0, "lat": 38.89223583333333, "rental_uris": {"ios": "https://dc.lft.to/lastmile_qr_scan", "android": "https://dc.lft.to/lastmile_qr_scan"}, "bike_id": "a653db99f687779a4defe87a63c50abf", "type": "electric_scooter", "lon": -77.04323683333334, "is_reserved": 0, "fusion_lat": 0.0, "fusion_lon": 0.0}, {"name": "3d8855d79eae1f4851ce97533923a313", "is_disabled": 0, "lat": 38.90128983333334, "rental_uris": {"ios": "https://dc.lft.to/lastmile_qr_scan", "android": "https://dc.lft.to/lastmile_qr_scan"}, "bike_id": "3d8855d79eae1f4851ce97533923a313", "type": "electric_scooter", "lon": -77.04598766666666, "is_reserved": 0, "fusion_lat": 0.0, "fusion_lon": 0.0}, {"name": "a2e5f3300dcbde0bab7c132c29751787", "is_disabled": 0, "lat": 38.9055035, "rental_uris": {"ios": "https://dc.lft.to/lastmile_qr_scan", "android": "https://dc.lft.to/lastmile_qr_scan"}, "bike_id": "a2e5f3300dcbde0bab7c132c29751787", "type": "electric_scooter", "lon": -77.04952583333333, "is_reserved": 0, "fusion_lat": 0.0, "fusion_lon": 0.0}, {"name": "8b173471c959a4c1579f1d56b876b659", "is_disabled": 0, "lat": 38.83520333333333, "rental_uris": {"ios": "https://dc.lft.to/lastmile_qr_scan", "android": "https://dc.lft.to/lastmile_qr_scan"}, "bike_id": "8b173471c959a4c1579f1d56b876b659", "type": "electric_bike", "lon": -76.98674566666666, "is_reserved": 0, "fusion_lat": 0.0, "fusion_lon": 0.0}, {"name": "e69a8daa687bec74b1c4571d2fbc3cb6", "is_disabled": 0, "lat": 38.890085666666664, "rental_uris": {"ios": "https://dc.lft.to/lastmile_qr_scan", "android": "https://dc.lft.to/lastmile_qr_scan"}, "bike_id": "e69a8daa687bec74b1c4571d2fbc3cb6", "type": "electric_scooter", "lon": -76.93702383333333, "is_reserved": 0, "fusion_lat": 0.0, "fusion_lon": 0.0}, {"name": "dab0b8417774e0f6d39ad1bb83382bae", "is_disabled": 0, "lat": 38.890456666666665, "rental_uris": {"ios": "https://dc.lft.to/lastmile_qr_scan", "android": "https://dc.lft.to/lastmile_qr_scan"}, "bike_id": "dab0b8417774e0f6d39ad1bb83382bae", "type": "electric_scooter", "lon": -77.015072, "is_reserved": 0, "fusion_lat": 0.0, "fusion_lon": 0.0}, {"name": "747e2b2d3728f21323ba67be9bffdb78", "is_disabled": 0, "lat": 38.900636666666664, "rental_uris": {"ios": "https://dc.lft.to/lastmile_qr_scan", "android": "https://dc.lft.to/lastmile_qr_scan"}, "bike_id": "747e2b2d3728f21323ba67be9bffdb78", "type": "electric_scooter", "lon": -76.93385883333333, "is_reserved": 0, "fusion_lat": 0.0, "fusion_lon": 0.0}, {"name": "977a6fff1a6a05f0716749e864caf72f", "is_disabled": 0, "lat": 38.8874595, "rental_uris": {"ios": "https://dc.lft.to/lastmile_qr_scan", "android": "https://dc.lft.to/lastmile_qr_scan"}, "bike_id": "977a6fff1a6a05f0716749e864caf72f", "type": "electric_scooter", "lon": -77.01777783333333, "is_reserved": 0, "fusion_lat": 0.0, "fusion_lon": 0.0}, {"name": "0e24a1539e619be70b1c9cb46b512926", "is_disabled": 0, "lat": 38.8922105, "rental_uris": {"ios": "https://dc.lft.to/lastmile_qr_scan", "android": "https://dc.lft.to/lastmile_qr_scan"}, "bike_id": "0e24a1539e619be70b1c9cb46b512926", "type": "electric_scooter", "lon": -77.0222435, "is_reserved": 0, "fusion_lat": 0.0, "fusion_lon": 0.0}, {"name": "84ada3b2d0d9656c0aa2d9f78114c500", "is_disabled": 0, "lat": 38.847561, "rental_uris": {"ios": "https://dc.lft.to/lastmile_qr_scan", "android": "https://dc.lft.to/lastmile_qr_scan"}, "bike_id": "84ada3b2d0d9656c0aa2d9f78114c500", "type": "electric_scooter", "lon": -76.99499166666666, "is_reserved": 0, "fusion_lat": 0.0, "fusion_lon": 0.0}, {"name": "f317c65464e1f4b0379f3add395e317f", "is_disabled": 0, "lat": 38.906870166666664, "rental_uris": {"ios": "https://dc.lft.to/lastmile_qr_scan", "android": "https://dc.lft.to/lastmile_qr_scan"}, "bike_id": "f317c65464e1f4b0379f3add395e317f", "type": "electric_scooter", "lon": -77.02697116666667, "is_reserved": 0, "fusion_lat": 0.0, "fusion_lon": 0.0}, {"name": "329c536c57fcf5d34ead683f5d0ec999", "is_disabled": 0, "lat": 38.901707, "rental_uris": {"ios": "https://dc.lft.to/lastmile_qr_scan", "android": "https://dc.lft.to/lastmile_qr_scan"}, "bike_id": "329c536c57fcf5d34ead683f5d0ec999", "type": "electric_scooter", "lon": -76.99255966666666, "is_reserved": 0, "fusion_lat": 0.0, "fusion_lon": 0.0}, {"name": "449d77c1eeac34c70f5a3a2999525c06", "is_disabled": 0, "lat": 38.921524166666664, "rental_uris": {"ios": "https://dc.lft.to/lastmile_qr_scan", "android": "https://dc.lft.to/lastmile_qr_scan"}, "bike_id": "449d77c1eeac34c70f5a3a2999525c06", "type": "electric_scooter", "lon": -76.99352766666667, "is_reserved": 0, "fusion_lat": 0.0, "fusion_lon": 0.0}, {"name": "bb22af3228043fcce63c0481a9527e28", "is_disabled": 0, "lat": 38.935756833333336, "rental_uris": {"ios": "https://dc.lft.to/lastmile_qr_scan", "android": "https://dc.lft.to/lastmile_qr_scan"}, "bike_id": "bb22af3228043fcce63c0481a9527e28", "type": "electric_scooter", "lon": -77.03655416666666, "is_reserved": 0, "fusion_lat": 0.0, "fusion_lon": 0.0}, {"name": "fa3d409b7eeced2c8e2307cdf8be890d", "is_disabled": 0, "lat": 38.922520166666665, "rental_uris": {"ios": "https://dc.lft.to/lastmile_qr_scan", "android": "https://dc.lft.to/lastmile_qr_scan"}, "bike_id": "fa3d409b7eeced2c8e2307cdf8be890d", "type": "electric_scooter", "lon": -77.02810716666667, "is_reserved": 0, "fusion_lat": 0.0, "fusion_lon": 0.0}, {"name": "20a1d529820ba774fd7a343d9bb9d077", "is_disabled": 0, "lat": 38.91348, "rental_uris": {"ios": "https://dc.lft.to/lastmile_qr_scan", "android": "https://dc.lft.to/lastmile_qr_scan"}, "bike_id": "20a1d529820ba774fd7a343d9bb9d077", "type": "electric_scooter", "lon": -77.01741166666666, "is_reserved": 0, "fusion_lat": 0.0, "fusion_lon": 0.0}, {"name": "2156daaf0e9f6d5c4d93490ab5c2dd03", "is_disabled": 0, "lat": 38.907135, "rental_uris": {"ios": "https://dc.lft.to/lastmile_qr_scan", "android": "https://dc.lft.to/lastmile_qr_scan"}, "bike_id": "2156daaf0e9f6d5c4d93490ab5c2dd03", "type": "electric_scooter", "lon": -77.027152, "is_reserved": 0, "fusion_lat": 0.0, "fusion_lon": 0.0}, {"name": "aaa40c5743b926a29c71b17231f8dac3", "is_disabled": 0, "lat": 38.8834785, "rental_uris": {"ios": "https://dc.lft.to/lastmile_qr_scan", "android": "https://dc.lft.to/lastmile_qr_scan"}, "bike_id": "aaa40c5743b926a29c71b17231f8dac3", "type": "electric_scooter", "lon": -77.031679, "is_reserved": 0, "fusion_lat": 0.0, "fusion_lon": 0.0}, {"name": "a4a1efa06fb9792a3ea014bcc807038c", "is_disabled": 0, "lat": 38.887564, "rental_uris": {"ios": "https://dc.lft.to/lastmile_qr_scan", "android": "https://dc.lft.to/lastmile_qr_scan"}, "bike_id": "a4a1efa06fb9792a3ea014bcc807038c", "type": "electric_scooter", "lon": -76.99605283333334, "is_reserved": 0, "fusion_lat": 0.0, "fusion_lon": 0.0}, {"name": "85097663a4503b58308f953943e05174", "is_disabled": 0, "lat": 38.922565666666664, "rental_uris": {"ios": "https://dc.lft.to/lastmile_qr_scan", "android": "https://dc.lft.to/lastmile_qr_scan"}, "bike_id": "85097663a4503b58308f953943e05174", "type": "electric_scooter", "lon": -77.01950133333334, "is_reserved": 0, "fusion_lat": 0.0, "fusion_lon": 0.0}, {"name": "8ce4c266de2aea72a15a25a4a3208f32", "is_disabled": 0, "lat": 38.89697966666667, "rental_uris": {"ios": "https://dc.lft.to/lastmile_qr_scan", "android": "https://dc.lft.to/lastmile_qr_scan"}, "bike_id": "8ce4c266de2aea72a15a25a4a3208f32", "type": "electric_bike", "lon": -76.96305216666667, "is_reserved": 0, "fusion_lat": 0.0, "fusion_lon": 0.0}, {"name": "a617c8e250a9fa53a0dfb2bf5c53d503", "is_disabled": 0, "lat": 38.941852, "rental_uris": {"ios": "https://dc.lft.to/lastmile_qr_scan", "android": "https://dc.lft.to/lastmile_qr_scan"}, "bike_id": "a617c8e250a9fa53a0dfb2bf5c53d503", "type": "electric_scooter", "lon": -77.026153, "is_reserved": 0, "fusion_lat": 0.0, "fusion_lon": 0.0}, {"name": "4b5a405a552bb85ae59d006bcac8c065", "is_disabled": 0, "lat": 38.9055475, "rental_uris": {"ios": "https://dc.lft.to/lastmile_qr_scan", "android": "https://dc.lft.to/lastmile_qr_scan"}, "bike_id": "4b5a405a552bb85ae59d006bcac8c065", "type": "electric_scooter", "lon": -77.04657283333333, "is_reserved": 0, "fusion_lat": 0.0, "fusion_lon": 0.0}, {"name": "23b7b1d7aea7f6b65cc5035e0cdad323", "is_disabled": 0, "lat": 38.9002935, "rental_uris": {"ios": "https://dc.lft.to/lastmile_qr_scan", "android": "https://dc.lft.to/lastmile_qr_scan"}, "bike_id": "23b7b1d7aea7f6b65cc5035e0cdad323", "type": "electric_scooter", "lon": -76.9996995, "is_reserved": 0, "fusion_lat": 0.0, "fusion_lon": 0.0}, {"name": "1586bee2eb711b0b710b06219a7b91bf", "is_disabled": 0, "lat": 38.927689, "rental_uris": {"ios": "https://dc.lft.to/lastmile_qr_scan", "android": "https://dc.lft.to/lastmile_qr_scan"}, "bike_id": "1586bee2eb711b0b710b06219a7b91bf", "type": "electric_scooter", "lon": -77.03244266666667, "is_reserved": 0, "fusion_lat": 0.0, "fusion_lon": 0.0}, {"name": "269b382acb414a9591865c1f1d755b55", "is_disabled": 0, "lat": 38.906492, "rental_uris": {"ios": "https://dc.lft.to/lastmile_qr_scan", "android": "https://dc.lft.to/lastmile_qr_scan"}, "bike_id": "269b382acb414a9591865c1f1d755b55", "type": "electric_scooter", "lon": -77.04325566666667, "is_reserved": 0, "fusion_lat": 0.0, "fusion_lon": 0.0}, {"name": "5b43bcabf7899f46593ed032b53e8fea", "is_disabled": 0, "lat": 38.89760416666667, "rental_uris": {"ios": "https://dc.lft.to/lastmile_qr_scan", "android": "https://dc.lft.to/lastmile_qr_scan"}, "bike_id": "5b43bcabf7899f46593ed032b53e8fea", "type": "electric_scooter", "lon": -77.032922, "is_reserved": 0, "fusion_lat": 0.0, "fusion_lon": 0.0}, {"name": "98a9fa1676445dd14e819efb1466cc10", "is_disabled": 0, "lat": 38.8975755, "rental_uris": {"ios": "https://dc.lft.to/lastmile_qr_scan", "android": "https://dc.lft.to/lastmile_qr_scan"}, "bike_id": "98a9fa1676445dd14e819efb1466cc10", "type": "electric_scooter", "lon": -77.0446355, "is_reserved": 0, "fusion_lat": 0.0, "fusion_lon": 0.0}, {"name": "6393185056d2317a63e9f3734518cf49", "is_disabled": 0, "lat": 38.99687933333333, "rental_uris": {"ios": "https://dc.lft.to/lastmile_qr_scan", "android": "https://dc.lft.to/lastmile_qr_scan"}, "bike_id": "6393185056d2317a63e9f3734518cf49", "type": "electric_bike", "lon": -77.02540916666666, "is_reserved": 0, "fusion_lat": 0.0, "fusion_lon": 0.0}, {"name": "95702c9a673dabdaf62929cd46869f4f", "is_disabled": 0, "lat": 38.92847066666667, "rental_uris": {"ios": "https://dc.lft.to/lastmile_qr_scan", "android": "https://dc.lft.to/lastmile_qr_scan"}, "bike_id": "95702c9a673dabdaf62929cd46869f4f", "type": "electric_bike", "lon": -77.02059333333334, "is_reserved": 0, "fusion_lat": 0.0, "fusion_lon": 0.0}, {"name": "05360af4f1cbffb7349cc8dcb7ac38d7", "is_disabled": 0, "lat": 38.914859166666666, "rental_uris": {"ios": "https://dc.lft.to/lastmile_qr_scan", "android": "https://dc.lft.to/lastmile_qr_scan"}, "bike_id": "05360af4f1cbffb7349cc8dcb7ac38d7", "type": "electric_scooter", "lon": -77.04253066666666, "is_reserved": 0, "fusion_lat": 0.0, "fusion_lon": 0.0}, {"name": "5c2386a56517b91fe7e40afdd9eb622a", "is_disabled": 0, "lat": 38.9057325, "rental_uris": {"ios": "https://dc.lft.to/lastmile_qr_scan", "android": "https://dc.lft.to/lastmile_qr_scan"}, "bike_id": "5c2386a56517b91fe7e40afdd9eb622a", "type": "electric_scooter", "lon": -77.00795683333334, "is_reserved": 0, "fusion_lat": 0.0, "fusion_lon": 0.0}, {"name": "4aa2503ea33ae25271ec0ff64ddc98c3", "is_disabled": 0, "lat": 38.93050083333333, "rental_uris": {"ios": "https://dc.lft.to/lastmile_qr_scan", "android": "https://dc.lft.to/lastmile_qr_scan"}, "bike_id": "4aa2503ea33ae25271ec0ff64ddc98c3", "type": "electric_bike", "lon": -77.03893783333334, "is_reserved": 0, "fusion_lat": 0.0, "fusion_lon": 0.0}, {"name": "4d59aacf608051bcd56a73fc9518e91b", "is_disabled": 0, "lat": 38.9124735, "rental_uris": {"ios": "https://dc.lft.to/lastmile_qr_scan", "android": "https://dc.lft.to/lastmile_qr_scan"}, "bike_id": "4d59aacf608051bcd56a73fc9518e91b", "type": "electric_scooter", "lon": -77.0365815, "is_reserved": 0, "fusion_lat": 0.0, "fusion_lon": 0.0}, {"name": "8c02df03fa0dbd067ee816f33eea3e8f", "is_disabled": 0, "lat": 38.924254833333336, "rental_uris": {"ios": "https://dc.lft.to/lastmile_qr_scan", "android": "https://dc.lft.to/lastmile_qr_scan"}, "bike_id": "8c02df03fa0dbd067ee816f33eea3e8f", "type": "electric_scooter", "lon": -77.02709466666667, "is_reserved": 0, "fusion_lat": 0.0, "fusion_lon": 0.0}, {"name": "079c8837a357d53f962b5d1ec434db88", "is_disabled": 0, "lat": 38.91591566666666, "rental_uris": {"ios": "https://dc.lft.to/lastmile_qr_scan", "android": "https://dc.lft.to/lastmile_qr_scan"}, "bike_id": "079c8837a357d53f962b5d1ec434db88", "type": "electric_scooter", "lon": -77.03205583333333, "is_reserved": 0, "fusion_lat": 0.0, "fusion_lon": 0.0}, {"name": "a5d57b9129ad6eaff0721716bbb0ef54", "is_disabled": 0, "lat": 38.92145266666667, "rental_uris": {"ios": "https://dc.lft.to/lastmile_qr_scan", "android": "https://dc.lft.to/lastmile_qr_scan"}, "bike_id": "a5d57b9129ad6eaff0721716bbb0ef54", "type": "electric_scooter", "lon": -77.04354466666666, "is_reserved": 0, "fusion_lat": 0.0, "fusion_lon": 0.0}, {"name": "9c1a8b04d0b0d71bf26d98aab1b899b0", "is_disabled": 0, "lat": 38.90820216666667, "rental_uris": {"ios": "https://dc.lft.to/lastmile_qr_scan", "android": "https://dc.lft.to/lastmile_qr_scan"}, "bike_id": "9c1a8b04d0b0d71bf26d98aab1b899b0", "type": "electric_scooter", "lon": -77.04171433333333, "is_reserved": 0, "fusion_lat": 0.0, "fusion_lon": 0.0}, {"name": "571723b5741e767d20200fb28960b32e", "is_disabled": 0, "lat": 38.907575333333334, "rental_uris": {"ios": "https://dc.lft.to/lastmile_qr_scan", "android": "https://dc.lft.to/lastmile_qr_scan"}, "bike_id": "571723b5741e767d20200fb28960b32e", "type": "electric_scooter", "lon": -77.035816, "is_reserved": 0, "fusion_lat": 0.0, "fusion_lon": 0.0}, {"name": "2046e2183c816778a5e63fc6ba3463a1", "is_disabled": 0, "lat": 38.87671516666666, "rental_uris": {"ios": "https://dc.lft.to/lastmile_qr_scan", "android": "https://dc.lft.to/lastmile_qr_scan"}, "bike_id": "2046e2183c816778a5e63fc6ba3463a1", "type": "electric_scooter", "lon": -77.00308966666667, "is_reserved": 0, "fusion_lat": 0.0, "fusion_lon": 0.0}, {"name": "ecf5947087de7794520eb522fabcbac6", "is_disabled": 0, "lat": 38.89800616666667, "rental_uris": {"ios": "https://dc.lft.to/lastmile_qr_scan", "android": "https://dc.lft.to/lastmile_qr_scan"}, "bike_id": "ecf5947087de7794520eb522fabcbac6", "type": "electric_scooter", "lon": -77.04616083333333, "is_reserved": 0, "fusion_lat": 0.0, "fusion_lon": 0.0}, {"name": "09a0f073e7e5a032bd085ee0e1962745", "is_disabled": 0, "lat": 38.892654666666665, "rental_uris": {"ios": "https://dc.lft.to/lastmile_qr_scan", "android": "https://dc.lft.to/lastmile_qr_scan"}, "bike_id": "09a0f073e7e5a032bd085ee0e1962745", "type": "electric_scooter", "lon": -77.04657716666667, "is_reserved": 0, "fusion_lat": 0.0, "fusion_lon": 0.0}, {"name": "3922cdfaf0b8855ab3fd2f91fec75ee2", "is_disabled": 0, "lat": 38.91351366666667, "rental_uris": {"ios": "https://dc.lft.to/lastmile_qr_scan", "android": "https://dc.lft.to/lastmile_qr_scan"}, "bike_id": "3922cdfaf0b8855ab3fd2f91fec75ee2", "type": "electric_scooter", "lon": -77.0205705, "is_reserved": 0, "fusion_lat": 0.0, "fusion_lon": 0.0}, {"name": "26e0b52324a3c558ed80ab846596de8c", "is_disabled": 0, "lat": 38.92328833333333, "rental_uris": {"ios": "https://dc.lft.to/lastmile_qr_scan", "android": "https://dc.lft.to/lastmile_qr_scan"}, "bike_id": "26e0b52324a3c558ed80ab846596de8c", "type": "electric_scooter", "lon": -77.04613316666666, "is_reserved": 0, "fusion_lat": 0.0, "fusion_lon": 0.0}, {"name": "90dc0651df5a06159c8d04e4085c35d6", "is_disabled": 0, "lat": 38.900203, "rental_uris": {"ios": "https://dc.lft.to/lastmile_qr_scan", "android": "https://dc.lft.to/lastmile_qr_scan"}, "bike_id": "90dc0651df5a06159c8d04e4085c35d6", "type": "electric_scooter", "lon": -76.99868966666666, "is_reserved": 0, "fusion_lat": 0.0, "fusion_lon": 0.0}, {"name": "c8c9cdd563ef45d503802bcdbbdfdfc5", "is_disabled": 0, "lat": 38.964505833333334, "rental_uris": {"ios": "https://dc.lft.to/lastmile_qr_scan", "android": "https://dc.lft.to/lastmile_qr_scan"}, "bike_id": "c8c9cdd563ef45d503802bcdbbdfdfc5", "type": "electric_bike", "lon": -77.022373, "is_reserved": 0, "fusion_lat": 0.0, "fusion_lon": 0.0}, {"name": "709558db55a4cc658cea3c7eaab287b8", "is_disabled": 0, "lat": 38.92231666666667, "rental_uris": {"ios": "https://dc.lft.to/lastmile_qr_scan", "android": "https://dc.lft.to/lastmile_qr_scan"}, "bike_id": "709558db55a4cc658cea3c7eaab287b8", "type": "electric_bike", "lon": -77.02340216666667, "is_reserved": 0, "fusion_lat": 0.0, "fusion_lon": 0.0}, {"name": "e0c89d45fd19458dfa7930fa747c701f", "is_disabled": 0, "lat": 38.86372266666667, "rental_uris": {"ios": "https://dc.lft.to/lastmile_qr_scan", "android": "https://dc.lft.to/lastmile_qr_scan"}, "bike_id": "e0c89d45fd19458dfa7930fa747c701f", "type": "electric_scooter", "lon": -77.01361733333333, "is_reserved": 0, "fusion_lat": 0.0, "fusion_lon": 0.0}, {"name": "678ddf474e729bd855eb0108d753c2ca", "is_disabled": 0, "lat": 38.91955683333333, "rental_uris": {"ios": "https://dc.lft.to/lastmile_qr_scan", "android": "https://dc.lft.to/lastmile_qr_scan"}, "bike_id": "678ddf474e729bd855eb0108d753c2ca", "type": "electric_scooter", "lon": -77.01875666666666, "is_reserved": 0, "fusion_lat": 0.0, "fusion_lon": 0.0}, {"name": "1abe9465a4838b344ee5aa970711494d", "is_disabled": 0, "lat": 38.90674116666667, "rental_uris": {"ios": "https://dc.lft.to/lastmile_qr_scan", "android": "https://dc.lft.to/lastmile_qr_scan"}, "bike_id": "1abe9465a4838b344ee5aa970711494d", "type": "electric_scooter", "lon": -77.0381035, "is_reserved": 0, "fusion_lat": 0.0, "fusion_lon": 0.0}, {"name": "190b9d96599c8cf8b7c29b65f509fde5", "is_disabled": 0, "lat": 38.916797333333335, "rental_uris": {"ios": "https://dc.lft.to/lastmile_qr_scan", "android": "https://dc.lft.to/lastmile_qr_scan"}, "bike_id": "190b9d96599c8cf8b7c29b65f509fde5", "type": "electric_scooter", "lon": -77.03685616666667, "is_reserved": 0, "fusion_lat": 0.0, "fusion_lon": 0.0}, {"name": "3ff2b1508685e88cf86b77e724978dca", "is_disabled": 0, "lat": 38.903131333333334, "rental_uris": {"ios": "https://dc.lft.to/lastmile_qr_scan", "android": "https://dc.lft.to/lastmile_qr_scan"}, "bike_id": "3ff2b1508685e88cf86b77e724978dca", "type": "electric_scooter", "lon": -77.04868216666667, "is_reserved": 0, "fusion_lat": 0.0, "fusion_lon": 0.0}, {"name": "2613eb7122373303422fa4092d9b9085", "is_disabled": 0, "lat": 38.92414816666667, "rental_uris": {"ios": "https://dc.lft.to/lastmile_qr_scan", "android": "https://dc.lft.to/lastmile_qr_scan"}, "bike_id": "2613eb7122373303422fa4092d9b9085", "type": "electric_scooter", "lon": -77.0652735, "is_reserved": 0, "fusion_lat": 0.0, "fusion_lon": 0.0}, {"name": "c68184a3088216bca27434f01e644142", "is_disabled": 0, "lat": 38.93086383333333, "rental_uris": {"ios": "https://dc.lft.to/lastmile_qr_scan", "android": "https://dc.lft.to/lastmile_qr_scan"}, "bike_id": "c68184a3088216bca27434f01e644142", "type": "electric_scooter", "lon": -77.02007733333333, "is_reserved": 0, "fusion_lat": 0.0, "fusion_lon": 0.0}, {"name": "ffe6475cfc466a40e35da3f4a57d61ab", "is_disabled": 0, "lat": 38.9231965, "rental_uris": {"ios": "https://dc.lft.to/lastmile_qr_scan", "android": "https://dc.lft.to/lastmile_qr_scan"}, "bike_id": "ffe6475cfc466a40e35da3f4a57d61ab", "type": "electric_scooter", "lon": -77.04042633333333, "is_reserved": 0, "fusion_lat": 0.0, "fusion_lon": 0.0}, {"name": "f35e18ddddf057e1449711e51886cbd9", "is_disabled": 0, "lat": 38.911076, "rental_uris": {"ios": "https://dc.lft.to/lastmile_qr_scan", "android": "https://dc.lft.to/lastmile_qr_scan"}, "bike_id": "f35e18ddddf057e1449711e51886cbd9", "type": "electric_scooter", "lon": -77.03161233333333, "is_reserved": 0, "fusion_lat": 0.0, "fusion_lon": 0.0}, {"name": "56d8b48cdbba1b1feab1ffcbd737000b", "is_disabled": 0, "lat": 38.901056, "rental_uris": {"ios": "https://dc.lft.to/lastmile_qr_scan", "android": "https://dc.lft.to/lastmile_qr_scan"}, "bike_id": "56d8b48cdbba1b1feab1ffcbd737000b", "type": "electric_scooter", "lon": -76.93046183333334, "is_reserved": 0, "fusion_lat": 0.0, "fusion_lon": 0.0}, {"name": "33c8af37cda5711dce750e01215f2d94", "is_disabled": 0, "lat": 38.922227666666664, "rental_uris": {"ios": "https://dc.lft.to/lastmile_qr_scan", "android": "https://dc.lft.to/lastmile_qr_scan"}, "bike_id": "33c8af37cda5711dce750e01215f2d94", "type": "electric_scooter", "lon": -77.02120233333333, "is_reserved": 0, "fusion_lat": 0.0, "fusion_lon": 0.0}, {"name": "9dcdfb4d22e91a335a23db1894f2b1d1", "is_disabled": 0, "lat": 38.90287766666667, "rental_uris": {"ios": "https://dc.lft.to/lastmile_qr_scan", "android": "https://dc.lft.to/lastmile_qr_scan"}, "bike_id": "9dcdfb4d22e91a335a23db1894f2b1d1", "type": "electric_scooter", "lon": -77.02310066666666, "is_reserved": 0, "fusion_lat": 0.0, "fusion_lon": 0.0}, {"name": "ba40b0463c0883603239ec4bd51f8537", "is_disabled": 0, "lat": 38.860147166666664, "rental_uris": {"ios": "https://dc.lft.to/lastmile_qr_scan", "android": "https://dc.lft.to/lastmile_qr_scan"}, "bike_id": "ba40b0463c0883603239ec4bd51f8537", "type": "electric_scooter", "lon": -76.9670285, "is_reserved": 0, "fusion_lat": 0.0, "fusion_lon": 0.0}, {"name": "01f4cfa2f015d966912f8d6ce3a333c7", "is_disabled": 0, "lat": 38.8941885, "rental_uris": {"ios": "https://dc.lft.to/lastmile_qr_scan", "android": "https://dc.lft.to/lastmile_qr_scan"}, "bike_id": "01f4cfa2f015d966912f8d6ce3a333c7", "type": "electric_scooter", "lon": -77.02186983333333, "is_reserved": 0, "fusion_lat": 0.0, "fusion_lon": 0.0}, {"name": "abab6bc9413228dacd1f2e48429470d6", "is_disabled": 0, "lat": 38.9079725, "rental_uris": {"ios": "https://dc.lft.to/lastmile_qr_scan", "android": "https://dc.lft.to/lastmile_qr_scan"}, "bike_id": "abab6bc9413228dacd1f2e48429470d6", "type": "electric_scooter", "lon": -77.042242, "is_reserved": 0, "fusion_lat": 0.0, "fusion_lon": 0.0}, {"name": "fff3284b1d03c621155746a0703b9b2f", "is_disabled": 0, "lat": 38.931821166666666, "rental_uris": {"ios": "https://dc.lft.to/lastmile_qr_scan", "android": "https://dc.lft.to/lastmile_qr_scan"}, "bike_id": "fff3284b1d03c621155746a0703b9b2f", "type": "electric_scooter", "lon": -77.020037, "is_reserved": 0, "fusion_lat": 0.0, "fusion_lon": 0.0}, {"name": "829343fd76e4259a8ffbcfebe156c825", "is_disabled": 0, "lat": 38.92477866666667, "rental_uris": {"ios": "https://dc.lft.to/lastmile_qr_scan", "android": "https://dc.lft.to/lastmile_qr_scan"}, "bike_id": "829343fd76e4259a8ffbcfebe156c825", "type": "electric_scooter", "lon": -77.020768, "is_reserved": 0, "fusion_lat": 0.0, "fusion_lon": 0.0}, {"name": "5e2d1cdcaa176d6db2ecbf24491d891d", "is_disabled": 0, "lat": 38.906828833333336, "rental_uris": {"ios": "https://dc.lft.to/lastmile_qr_scan", "android": "https://dc.lft.to/lastmile_qr_scan"}, "bike_id": "5e2d1cdcaa176d6db2ecbf24491d891d", "type": "electric_scooter", "lon": -77.03811216666666, "is_reserved": 0, "fusion_lat": 0.0, "fusion_lon": 0.0}, {"name": "6c5e2ebd096d07f9cafcb2127351acbb", "is_disabled": 0, "lat": 38.9021015, "rental_uris": {"ios": "https://dc.lft.to/lastmile_qr_scan", "android": "https://dc.lft.to/lastmile_qr_scan"}, "bike_id": "6c5e2ebd096d07f9cafcb2127351acbb", "type": "electric_scooter", "lon": -77.02293766666666, "is_reserved": 0, "fusion_lat": 0.0, "fusion_lon": 0.0}, {"name": "62466e7061987d029b68c4895cea4d59", "is_disabled": 0, "lat": 38.92340883333333, "rental_uris": {"ios": "https://dc.lft.to/lastmile_qr_scan", "android": "https://dc.lft.to/lastmile_qr_scan"}, "bike_id": "62466e7061987d029b68c4895cea4d59", "type": "electric_scooter", "lon": -77.05217966666666, "is_reserved": 0, "fusion_lat": 0.0, "fusion_lon": 0.0}, {"name": "e8121179b7e6267fe2b5ef05a38cb95d", "is_disabled": 0, "lat": 38.91800166666667, "rental_uris": {"ios": "https://dc.lft.to/lastmile_qr_scan", "android": "https://dc.lft.to/lastmile_qr_scan"}, "bike_id": "e8121179b7e6267fe2b5ef05a38cb95d", "type": "electric_scooter", "lon": -77.03191183333334, "is_reserved": 0, "fusion_lat": 0.0, "fusion_lon": 0.0}, {"name": "7fbcdd32a26fddfa7aa5e69762b56c7a", "is_disabled": 0, "lat": 38.900217833333336, "rental_uris": {"ios": "https://dc.lft.to/lastmile_qr_scan", "android": "https://dc.lft.to/lastmile_qr_scan"}, "bike_id": "7fbcdd32a26fddfa7aa5e69762b56c7a", "type": "electric_scooter", "lon": -77.00537766666666, "is_reserved": 0, "fusion_lat": 0.0, "fusion_lon": 0.0}, {"name": "7010ff1734e2afedb35abdcdf697d54a", "is_disabled": 0, "lat": 38.89241116666667, "rental_uris": {"ios": "https://dc.lft.to/lastmile_qr_scan", "android": "https://dc.lft.to/lastmile_qr_scan"}, "bike_id": "7010ff1734e2afedb35abdcdf697d54a", "type": "electric_scooter", "lon": -77.03187833333334, "is_reserved": 0, "fusion_lat": 0.0, "fusion_lon": 0.0}, {"name": "67f5397720886bdc9583d2457932f3ca", "is_disabled": 0, "lat": 38.997815833333334, "rental_uris": {"ios": "https://dc.lft.to/lastmile_qr_scan", "android": "https://dc.lft.to/lastmile_qr_scan"}, "bike_id": "67f5397720886bdc9583d2457932f3ca", "type": "electric_bike", "lon": -77.04714466666667, "is_reserved": 0, "fusion_lat": 0.0, "fusion_lon": 0.0}, {"name": "d65e5887756ee11089e235c681cdad0f", "is_disabled": 0, "lat": 38.900252, "rental_uris": {"ios": "https://dc.lft.to/lastmile_qr_scan", "android": "https://dc.lft.to/lastmile_qr_scan"}, "bike_id": "d65e5887756ee11089e235c681cdad0f", "type": "electric_scooter", "lon": -76.99620383333334, "is_reserved": 0, "fusion_lat": 0.0, "fusion_lon": 0.0}, {"name": "aac8d5cdc5488d4475954070b55695be", "is_disabled": 0, "lat": 38.902359, "rental_uris": {"ios": "https://dc.lft.to/lastmile_qr_scan", "android": "https://dc.lft.to/lastmile_qr_scan"}, "bike_id": "aac8d5cdc5488d4475954070b55695be", "type": "electric_scooter", "lon": -77.01772, "is_reserved": 0, "fusion_lat": 0.0, "fusion_lon": 0.0}, {"name": "4122cb841c9b2da5dd97afdc46638a19", "is_disabled": 0, "lat": 38.942863, "rental_uris": {"ios": "https://dc.lft.to/lastmile_qr_scan", "android": "https://dc.lft.to/lastmile_qr_scan"}, "bike_id": "4122cb841c9b2da5dd97afdc46638a19", "type": "electric_scooter", "lon": -77.0292145, "is_reserved": 0, "fusion_lat": 0.0, "fusion_lon": 0.0}, {"name": "da4475f0b19c1ec69266d1e4ff643603", "is_disabled": 0, "lat": 38.900823333333335, "rental_uris": {"ios": "https://dc.lft.to/lastmile_qr_scan", "android": "https://dc.lft.to/lastmile_qr_scan"}, "bike_id": "da4475f0b19c1ec69266d1e4ff643603", "type": "electric_scooter", "lon": -77.0474745, "is_reserved": 0, "fusion_lat": 0.0, "fusion_lon": 0.0}, {"name": "d658b3ad5b4a35fb0d2add8586bb644b", "is_disabled": 0, "lat": 38.9193195, "rental_uris": {"ios": "https://dc.lft.to/lastmile_qr_scan", "android": "https://dc.lft.to/lastmile_qr_scan"}, "bike_id": "d658b3ad5b4a35fb0d2add8586bb644b", "type": "electric_scooter", "lon": -77.03057266666667, "is_reserved": 0, "fusion_lat": 0.0, "fusion_lon": 0.0}, {"name": "7701d7cf875262203d8aab42fd3d4431", "is_disabled": 0, "lat": 38.90952866666667, "rental_uris": {"ios": "https://dc.lft.to/lastmile_qr_scan", "android": "https://dc.lft.to/lastmile_qr_scan"}, "bike_id": "7701d7cf875262203d8aab42fd3d4431", "type": "electric_scooter", "lon": -76.9853895, "is_reserved": 0, "fusion_lat": 0.0, "fusion_lon": 0.0}, {"name": "edf6d8feb8800c69b4dd1f58bff84670", "is_disabled": 0, "lat": 38.92568333333333, "rental_uris": {"ios": "https://dc.lft.to/lastmile_qr_scan", "android": "https://dc.lft.to/lastmile_qr_scan"}, "bike_id": "edf6d8feb8800c69b4dd1f58bff84670", "type": "electric_scooter", "lon": -77.0525995, "is_reserved": 0, "fusion_lat": 0.0, "fusion_lon": 0.0}, {"name": "e46fdab2a49c528ade76faa1b7ecbc1c", "is_disabled": 0, "lat": 38.920379833333335, "rental_uris": {"ios": "https://dc.lft.to/lastmile_qr_scan", "android": "https://dc.lft.to/lastmile_qr_scan"}, "bike_id": "e46fdab2a49c528ade76faa1b7ecbc1c", "type": "electric_scooter", "lon": -77.07141166666666, "is_reserved": 0, "fusion_lat": 0.0, "fusion_lon": 0.0}, {"name": "3900bdb2f8d2544fc76fedecfb744305", "is_disabled": 0, "lat": 38.92254233333333, "rental_uris": {"ios": "https://dc.lft.to/lastmile_qr_scan", "android": "https://dc.lft.to/lastmile_qr_scan"}, "bike_id": "3900bdb2f8d2544fc76fedecfb744305", "type": "electric_scooter", "lon": -77.01935266666666, "is_reserved": 0, "fusion_lat": 0.0, "fusion_lon": 0.0}, {"name": "987d9c613132ea24156cb79224c3b1d5", "is_disabled": 0, "lat": 38.9019755, "rental_uris": {"ios": "https://dc.lft.to/lastmile_qr_scan", "android": "https://dc.lft.to/lastmile_qr_scan"}, "bike_id": "987d9c613132ea24156cb79224c3b1d5", "type": "electric_scooter", "lon": -77.0500585, "is_reserved": 0, "fusion_lat": 0.0, "fusion_lon": 0.0}, {"name": "c6788698c194a7fb51fb5833b5df2e20", "is_disabled": 0, "lat": 38.9090555, "rental_uris": {"ios": "https://dc.lft.to/lastmile_qr_scan", "android": "https://dc.lft.to/lastmile_qr_scan"}, "bike_id": "c6788698c194a7fb51fb5833b5df2e20", "type": "electric_scooter", "lon": -77.0271455, "is_reserved": 0, "fusion_lat": 0.0, "fusion_lon": 0.0}, {"name": "90290cc45efcb33090052e499debd727", "is_disabled": 0, "lat": 38.89608466666667, "rental_uris": {"ios": "https://dc.lft.to/lastmile_qr_scan", "android": "https://dc.lft.to/lastmile_qr_scan"}, "bike_id": "90290cc45efcb33090052e499debd727", "type": "electric_scooter", "lon": -76.98107233333333, "is_reserved": 0, "fusion_lat": 0.0, "fusion_lon": 0.0}, {"name": "ee7d65f94468a691998e1b4720d521e9", "is_disabled": 0, "lat": 38.89518916666667, "rental_uris": {"ios": "https://dc.lft.to/lastmile_qr_scan", "android": "https://dc.lft.to/lastmile_qr_scan"}, "bike_id": "ee7d65f94468a691998e1b4720d521e9", "type": "electric_scooter", "lon": -77.003616, "is_reserved": 0, "fusion_lat": 0.0, "fusion_lon": 0.0}, {"name": "9a459596f32895e55cd54f9e6a292fc3", "is_disabled": 0, "lat": 38.902274, "rental_uris": {"ios": "https://dc.lft.to/lastmile_qr_scan", "android": "https://dc.lft.to/lastmile_qr_scan"}, "bike_id": "9a459596f32895e55cd54f9e6a292fc3", "type": "electric_scooter", "lon": -77.02348483333333, "is_reserved": 0, "fusion_lat": 0.0, "fusion_lon": 0.0}, {"name": "37136109de497911f8948c22fef67576", "is_disabled": 0, "lat": 38.911048666666666, "rental_uris": {"ios": "https://dc.lft.to/lastmile_qr_scan", "android": "https://dc.lft.to/lastmile_qr_scan"}, "bike_id": "37136109de497911f8948c22fef67576", "type": "electric_scooter", "lon": -77.021003, "is_reserved": 0, "fusion_lat": 0.0, "fusion_lon": 0.0}, {"name": "40079154fba94d97db369c44dc05b95f", "is_disabled": 0, "lat": 38.89033583333333, "rental_uris": {"ios": "https://dc.lft.to/lastmile_qr_scan", "android": "https://dc.lft.to/lastmile_qr_scan"}, "bike_id": "40079154fba94d97db369c44dc05b95f", "type": "electric_scooter", "lon": -76.93756666666667, "is_reserved": 0, "fusion_lat": 0.0, "fusion_lon": 0.0}, {"name": "201287b049d6ec517e9904a2f2f86ce2", "is_disabled": 0, "lat": 38.90675616666667, "rental_uris": {"ios": "https://dc.lft.to/lastmile_qr_scan", "android": "https://dc.lft.to/lastmile_qr_scan"}, "bike_id": "201287b049d6ec517e9904a2f2f86ce2", "type": "electric_scooter", "lon": -77.0106425, "is_reserved": 0, "fusion_lat": 0.0, "fusion_lon": 0.0}, {"name": "fdbfdda8c70086b5339729f4aed6e9c2", "is_disabled": 0, "lat": 38.93223866666666, "rental_uris": {"ios": "https://dc.lft.to/lastmile_qr_scan", "android": "https://dc.lft.to/lastmile_qr_scan"}, "bike_id": "fdbfdda8c70086b5339729f4aed6e9c2", "type": "electric_scooter", "lon": -76.99491133333333, "is_reserved": 0, "fusion_lat": 0.0, "fusion_lon": 0.0}, {"name": "38e80d04311c49aa17d36c47faace802", "is_disabled": 0, "lat": 38.9234445, "rental_uris": {"ios": "https://dc.lft.to/lastmile_qr_scan", "android": "https://dc.lft.to/lastmile_qr_scan"}, "bike_id": "38e80d04311c49aa17d36c47faace802", "type": "electric_scooter", "lon": -77.05179683333333, "is_reserved": 0, "fusion_lat": 0.0, "fusion_lon": 0.0}, {"name": "3a2459cd39ed92c8e0966e1568303ba8", "is_disabled": 0, "lat": 38.91800583333333, "rental_uris": {"ios": "https://dc.lft.to/lastmile_qr_scan", "android": "https://dc.lft.to/lastmile_qr_scan"}, "bike_id": "3a2459cd39ed92c8e0966e1568303ba8", "type": "electric_scooter", "lon": -77.0270835, "is_reserved": 0, "fusion_lat": 0.0, "fusion_lon": 0.0}, {"name": "1ba65e47ff12eb6ab8094f647f39d8d8", "is_disabled": 0, "lat": 38.905639, "rental_uris": {"ios": "https://dc.lft.to/lastmile_qr_scan", "android": "https://dc.lft.to/lastmile_qr_scan"}, "bike_id": "1ba65e47ff12eb6ab8094f647f39d8d8", "type": "electric_scooter", "lon": -77.00613166666666, "is_reserved": 0, "fusion_lat": 0.0, "fusion_lon": 0.0}, {"name": "e5239f56f89df85098b328d25b12a091", "is_disabled": 0, "lat": 38.907485666666666, "rental_uris": {"ios": "https://dc.lft.to/lastmile_qr_scan", "android": "https://dc.lft.to/lastmile_qr_scan"}, "bike_id": "e5239f56f89df85098b328d25b12a091", "type": "electric_scooter", "lon": -77.04156016666667, "is_reserved": 0, "fusion_lat": 0.0, "fusion_lon": 0.0}, {"name": "27a4a5f70d18ac5c9101611413a57666", "is_disabled": 0, "lat": 38.8961265, "rental_uris": {"ios": "https://dc.lft.to/lastmile_qr_scan", "android": "https://dc.lft.to/lastmile_qr_scan"}, "bike_id": "27a4a5f70d18ac5c9101611413a57666", "type": "electric_scooter", "lon": -77.0459835, "is_reserved": 0, "fusion_lat": 0.0, "fusion_lon": 0.0}, {"name": "ab3a2175a0f0fd7aa5cb4e87e562182d", "is_disabled": 0, "lat": 38.92450483333333, "rental_uris": {"ios": "https://dc.lft.to/lastmile_qr_scan", "android": "https://dc.lft.to/lastmile_qr_scan"}, "bike_id": "ab3a2175a0f0fd7aa5cb4e87e562182d", "type": "electric_scooter", "lon": -77.03971466666667, "is_reserved": 0, "fusion_lat": 0.0, "fusion_lon": 0.0}, {"name": "7b3733ae56dace7ca5faed0cbda7a641", "is_disabled": 0, "lat": 38.90728983333333, "rental_uris": {"ios": "https://dc.lft.to/lastmile_qr_scan", "android": "https://dc.lft.to/lastmile_qr_scan"}, "bike_id": "7b3733ae56dace7ca5faed0cbda7a641", "type": "electric_scooter", "lon": -77.03204216666667, "is_reserved": 0, "fusion_lat": 0.0, "fusion_lon": 0.0}, {"name": "5f16d65a369cc8bb5822e719ab5c6468", "is_disabled": 0, "lat": 38.9213565, "rental_uris": {"ios": "https://dc.lft.to/lastmile_qr_scan", "android": "https://dc.lft.to/lastmile_qr_scan"}, "bike_id": "5f16d65a369cc8bb5822e719ab5c6468", "type": "electric_scooter", "lon": -77.044234, "is_reserved": 0, "fusion_lat": 0.0, "fusion_lon": 0.0}, {"name": "54023ec69a29fe7c727e4774d6776139", "is_disabled": 0, "lat": 38.90121833333333, "rental_uris": {"ios": "https://dc.lft.to/lastmile_qr_scan", "android": "https://dc.lft.to/lastmile_qr_scan"}, "bike_id": "54023ec69a29fe7c727e4774d6776139", "type": "electric_scooter", "lon": -77.0500115, "is_reserved": 0, "fusion_lat": 0.0, "fusion_lon": 0.0}, {"name": "66d3b377392e8fd3d2101c14b648d960", "is_disabled": 0, "lat": 38.88740966666667, "rental_uris": {"ios": "https://dc.lft.to/lastmile_qr_scan", "android": "https://dc.lft.to/lastmile_qr_scan"}, "bike_id": "66d3b377392e8fd3d2101c14b648d960", "type": "electric_scooter", "lon": -77.02132133333333, "is_reserved": 0, "fusion_lat": 0.0, "fusion_lon": 0.0}, {"name": "e797dc40a14b9811cdad7723c3ede5d7", "is_disabled": 0, "lat": 38.90293466666667, "rental_uris": {"ios": "https://dc.lft.to/lastmile_qr_scan", "android": "https://dc.lft.to/lastmile_qr_scan"}, "bike_id": "e797dc40a14b9811cdad7723c3ede5d7", "type": "electric_scooter", "lon": -77.01628233333334, "is_reserved": 0, "fusion_lat": 0.0, "fusion_lon": 0.0}, {"name": "80716421620ab79a14d3b5a86eba5811", "is_disabled": 0, "lat": 38.925846166666666, "rental_uris": {"ios": "https://dc.lft.to/lastmile_qr_scan", "android": "https://dc.lft.to/lastmile_qr_scan"}, "bike_id": "80716421620ab79a14d3b5a86eba5811", "type": "electric_scooter", "lon": -77.0298105, "is_reserved": 0, "fusion_lat": 0.0, "fusion_lon": 0.0}, {"name": "f854c83996efbce099be556d307de3f6", "is_disabled": 0, "lat": 38.92160233333333, "rental_uris": {"ios": "https://dc.lft.to/lastmile_qr_scan", "android": "https://dc.lft.to/lastmile_qr_scan"}, "bike_id": "f854c83996efbce099be556d307de3f6", "type": "electric_scooter", "lon": -77.032537, "is_reserved": 0, "fusion_lat": 0.0, "fusion_lon": 0.0}, {"name": "a07881d25bff62157a82197c3a638a5f", "is_disabled": 0, "lat": 38.90651283333333, "rental_uris": {"ios": "https://dc.lft.to/lastmile_qr_scan", "android": "https://dc.lft.to/lastmile_qr_scan"}, "bike_id": "a07881d25bff62157a82197c3a638a5f", "type": "electric_scooter", "lon": -77.0413515, "is_reserved": 0, "fusion_lat": 0.0, "fusion_lon": 0.0}, {"name": "91f56f6318cc65dcd1dcb96f229374c6", "is_disabled": 0, "lat": 38.919623, "rental_uris": {"ios": "https://dc.lft.to/lastmile_qr_scan", "android": "https://dc.lft.to/lastmile_qr_scan"}, "bike_id": "91f56f6318cc65dcd1dcb96f229374c6", "type": "electric_scooter", "lon": -77.02394516666666, "is_reserved": 0, "fusion_lat": 0.0, "fusion_lon": 0.0}, {"name": "1a5a3afa729a2a2e3197c7efeacbdc60", "is_disabled": 0, "lat": 38.932792666666664, "rental_uris": {"ios": "https://dc.lft.to/lastmile_qr_scan", "android": "https://dc.lft.to/lastmile_qr_scan"}, "bike_id": "1a5a3afa729a2a2e3197c7efeacbdc60", "type": "electric_scooter", "lon": -77.02863266666667, "is_reserved": 0, "fusion_lat": 0.0, "fusion_lon": 0.0}, {"name": "64291172f351f934267cb2e76a0ab3ef", "is_disabled": 0, "lat": 38.90078283333333, "rental_uris": {"ios": "https://dc.lft.to/lastmile_qr_scan", "android": "https://dc.lft.to/lastmile_qr_scan"}, "bike_id": "64291172f351f934267cb2e76a0ab3ef", "type": "electric_scooter", "lon": -77.04916366666667, "is_reserved": 0, "fusion_lat": 0.0, "fusion_lon": 0.0}, {"name": "70e8a82d38a070fa79a9c2967f0f4b52", "is_disabled": 0, "lat": 38.9019775, "rental_uris": {"ios": "https://dc.lft.to/lastmile_qr_scan", "android": "https://dc.lft.to/lastmile_qr_scan"}, "bike_id": "70e8a82d38a070fa79a9c2967f0f4b52", "type": "electric_scooter", "lon": -77.02374083333333, "is_reserved": 0, "fusion_lat": 0.0, "fusion_lon": 0.0}, {"name": "efe6af594b300b1a26d651505bcb0551", "is_disabled": 0, "lat": 38.91962683333333, "rental_uris": {"ios": "https://dc.lft.to/lastmile_qr_scan", "android": "https://dc.lft.to/lastmile_qr_scan"}, "bike_id": "efe6af594b300b1a26d651505bcb0551", "type": "electric_scooter", "lon": -77.02414766666666, "is_reserved": 0, "fusion_lat": 0.0, "fusion_lon": 0.0}, {"name": "bef3a316f850ca2d82d3a3c2840e2cc6", "is_disabled": 0, "lat": 38.9231835, "rental_uris": {"ios": "https://dc.lft.to/lastmile_qr_scan", "android": "https://dc.lft.to/lastmile_qr_scan"}, "bike_id": "bef3a316f850ca2d82d3a3c2840e2cc6", "type": "electric_scooter", "lon": -77.04041183333334, "is_reserved": 0, "fusion_lat": 0.0, "fusion_lon": 0.0}, {"name": "a14b1b3de102940aefdc3d86481e6fc8", "is_disabled": 0, "lat": 39.01080866666667, "rental_uris": {"ios": "https://dc.lft.to/lastmile_qr_scan", "android": "https://dc.lft.to/lastmile_qr_scan"}, "bike_id": "a14b1b3de102940aefdc3d86481e6fc8", "type": "electric_bike", "lon": -76.91063316666667, "is_reserved": 0, "fusion_lat": 0.0, "fusion_lon": 0.0}, {"name": "7f8cd0829d09d3f5b26059f9d0dc5d7c", "is_disabled": 0, "lat": 38.89224866666667, "rental_uris": {"ios": "https://dc.lft.to/lastmile_qr_scan", "android": "https://dc.lft.to/lastmile_qr_scan"}, "bike_id": "7f8cd0829d09d3f5b26059f9d0dc5d7c", "type": "electric_scooter", "lon": -77.045017, "is_reserved": 0, "fusion_lat": 0.0, "fusion_lon": 0.0}, {"name": "9cdba1f8a789451a27d5f7b5b81ccbef", "is_disabled": 0, "lat": 38.91699716666667, "rental_uris": {"ios": "https://dc.lft.to/lastmile_qr_scan", "android": "https://dc.lft.to/lastmile_qr_scan"}, "bike_id": "9cdba1f8a789451a27d5f7b5b81ccbef", "type": "electric_scooter", "lon": -77.02428716666667, "is_reserved": 0, "fusion_lat": 0.0, "fusion_lon": 0.0}, {"name": "5ab7f3e3528757b6daaaac80286e0ab7", "is_disabled": 0, "lat": 38.92416266666667, "rental_uris": {"ios": "https://dc.lft.to/lastmile_qr_scan", "android": "https://dc.lft.to/lastmile_qr_scan"}, "bike_id": "5ab7f3e3528757b6daaaac80286e0ab7", "type": "electric_scooter", "lon": -77.036355, "is_reserved": 0, "fusion_lat": 0.0, "fusion_lon": 0.0}, {"name": "46f31c80aa64f4d6613ff95bd6f505c6", "is_disabled": 0, "lat": 38.9062085, "rental_uris": {"ios": "https://dc.lft.to/lastmile_qr_scan", "android": "https://dc.lft.to/lastmile_qr_scan"}, "bike_id": "46f31c80aa64f4d6613ff95bd6f505c6", "type": "electric_scooter", "lon": -77.0148535, "is_reserved": 0, "fusion_lat": 0.0, "fusion_lon": 0.0}, {"name": "83ea44bcfbfd9ce30402cef41f32e7bd", "is_disabled": 0, "lat": 38.88762216666667, "rental_uris": {"ios": "https://dc.lft.to/lastmile_qr_scan", "android": "https://dc.lft.to/lastmile_qr_scan"}, "bike_id": "83ea44bcfbfd9ce30402cef41f32e7bd", "type": "electric_scooter", "lon": -77.02937133333333, "is_reserved": 0, "fusion_lat": 0.0, "fusion_lon": 0.0}, {"name": "b41e4f40b920278a3a46dda0f2923256", "is_disabled": 0, "lat": 38.90118416666667, "rental_uris": {"ios": "https://dc.lft.to/lastmile_qr_scan", "android": "https://dc.lft.to/lastmile_qr_scan"}, "bike_id": "b41e4f40b920278a3a46dda0f2923256", "type": "electric_scooter", "lon": -77.03390833333333, "is_reserved": 0, "fusion_lat": 0.0, "fusion_lon": 0.0}, {"name": "8c998087c0ce0380d94942d6aaa7d765", "is_disabled": 0, "lat": 38.90553366666666, "rental_uris": {"ios": "https://dc.lft.to/lastmile_qr_scan", "android": "https://dc.lft.to/lastmile_qr_scan"}, "bike_id": "8c998087c0ce0380d94942d6aaa7d765", "type": "electric_scooter", "lon": -77.04659366666667, "is_reserved": 0, "fusion_lat": 0.0, "fusion_lon": 0.0}, {"name": "265f8fed03db511a64a2969c15b30ea4", "is_disabled": 0, "lat": 38.90024566666666, "rental_uris": {"ios": "https://dc.lft.to/lastmile_qr_scan", "android": "https://dc.lft.to/lastmile_qr_scan"}, "bike_id": "265f8fed03db511a64a2969c15b30ea4", "type": "electric_scooter", "lon": -76.993131, "is_reserved": 0, "fusion_lat": 0.0, "fusion_lon": 0.0}, {"name": "a5bef71e5ea2db82e631692c1f10ed7e", "is_disabled": 0, "lat": 38.931908166666666, "rental_uris": {"ios": "https://dc.lft.to/lastmile_qr_scan", "android": "https://dc.lft.to/lastmile_qr_scan"}, "bike_id": "a5bef71e5ea2db82e631692c1f10ed7e", "type": "electric_scooter", "lon": -77.03307833333334, "is_reserved": 0, "fusion_lat": 0.0, "fusion_lon": 0.0}, {"name": "d970ed96c0960716abc79136163eebc0", "is_disabled": 0, "lat": 38.897580166666664, "rental_uris": {"ios": "https://dc.lft.to/lastmile_qr_scan", "android": "https://dc.lft.to/lastmile_qr_scan"}, "bike_id": "d970ed96c0960716abc79136163eebc0", "type": "electric_scooter", "lon": -77.02720433333333, "is_reserved": 0, "fusion_lat": 0.0, "fusion_lon": 0.0}, {"name": "0c174e98642843d51089935e8e29873d", "is_disabled": 0, "lat": 38.91636916666667, "rental_uris": {"ios": "https://dc.lft.to/lastmile_qr_scan", "android": "https://dc.lft.to/lastmile_qr_scan"}, "bike_id": "0c174e98642843d51089935e8e29873d", "type": "electric_scooter", "lon": -77.05074033333334, "is_reserved": 0, "fusion_lat": 0.0, "fusion_lon": 0.0}, {"name": "5fe6cced0f9ddf796642c1fda53cdaeb", "is_disabled": 0, "lat": 38.91852383333333, "rental_uris": {"ios": "https://dc.lft.to/lastmile_qr_scan", "android": "https://dc.lft.to/lastmile_qr_scan"}, "bike_id": "5fe6cced0f9ddf796642c1fda53cdaeb", "type": "electric_scooter", "lon": -77.0230965, "is_reserved": 0, "fusion_lat": 0.0, "fusion_lon": 0.0}, {"name": "b094bbe993027ac6faca49d6220870e2", "is_disabled": 0, "lat": 38.954229, "rental_uris": {"ios": "https://dc.lft.to/lastmile_qr_scan", "android": "https://dc.lft.to/lastmile_qr_scan"}, "bike_id": "b094bbe993027ac6faca49d6220870e2", "type": "electric_scooter", "lon": -77.02762866666667, "is_reserved": 0, "fusion_lat": 0.0, "fusion_lon": 0.0}, {"name": "041f10db0e5492f248998f38882cc19d", "is_disabled": 0, "lat": 38.919627, "rental_uris": {"ios": "https://dc.lft.to/lastmile_qr_scan", "android": "https://dc.lft.to/lastmile_qr_scan"}, "bike_id": "041f10db0e5492f248998f38882cc19d", "type": "electric_scooter", "lon": -77.0241015, "is_reserved": 0, "fusion_lat": 0.0, "fusion_lon": 0.0}, {"name": "f01cfcd29481d6198d3d7e5c61615405", "is_disabled": 0, "lat": 38.900044333333334, "rental_uris": {"ios": "https://dc.lft.to/lastmile_qr_scan", "android": "https://dc.lft.to/lastmile_qr_scan"}, "bike_id": "f01cfcd29481d6198d3d7e5c61615405", "type": "electric_scooter", "lon": -76.99851033333333, "is_reserved": 0, "fusion_lat": 0.0, "fusion_lon": 0.0}, {"name": "fe0af655d618091b1189e677184f36ca", "is_disabled": 0, "lat": 38.909050666666666, "rental_uris": {"ios": "https://dc.lft.to/lastmile_qr_scan", "android": "https://dc.lft.to/lastmile_qr_scan"}, "bike_id": "fe0af655d618091b1189e677184f36ca", "type": "electric_scooter", "lon": -77.044103, "is_reserved": 0, "fusion_lat": 0.0, "fusion_lon": 0.0}, {"name": "f065c47e583f4661a9c25b3be3000596", "is_disabled": 0, "lat": 38.89357483333333, "rental_uris": {"ios": "https://dc.lft.to/lastmile_qr_scan", "android": "https://dc.lft.to/lastmile_qr_scan"}, "bike_id": "f065c47e583f4661a9c25b3be3000596", "type": "electric_scooter", "lon": -76.98654983333333, "is_reserved": 0, "fusion_lat": 0.0, "fusion_lon": 0.0}, {"name": "b40d844237c85d4117c1ae7d0a09ff82", "is_disabled": 0, "lat": 38.89850033333333, "rental_uris": {"ios": "https://dc.lft.to/lastmile_qr_scan", "android": "https://dc.lft.to/lastmile_qr_scan"}, "bike_id": "b40d844237c85d4117c1ae7d0a09ff82", "type": "electric_scooter", "lon": -76.94259383333333, "is_reserved": 0, "fusion_lat": 0.0, "fusion_lon": 0.0}, {"name": "08a593c30647b9fa950c0b539131a593", "is_disabled": 0, "lat": 38.897186833333336, "rental_uris": {"ios": "https://dc.lft.to/lastmile_qr_scan", "android": "https://dc.lft.to/lastmile_qr_scan"}, "bike_id": "08a593c30647b9fa950c0b539131a593", "type": "electric_scooter", "lon": -77.00797383333334, "is_reserved": 0, "fusion_lat": 0.0, "fusion_lon": 0.0}, {"name": "89b79c935773273a95e732343494cc7b", "is_disabled": 0, "lat": 38.899730166666664, "rental_uris": {"ios": "https://dc.lft.to/lastmile_qr_scan", "android": "https://dc.lft.to/lastmile_qr_scan"}, "bike_id": "89b79c935773273a95e732343494cc7b", "type": "electric_scooter", "lon": -77.02707266666667, "is_reserved": 0, "fusion_lat": 0.0, "fusion_lon": 0.0}, {"name": "47a745effd563f99fbdf21d5d7f34bcb", "is_disabled": 0, "lat": 38.8921965, "rental_uris": {"ios": "https://dc.lft.to/lastmile_qr_scan", "android": "https://dc.lft.to/lastmile_qr_scan"}, "bike_id": "47a745effd563f99fbdf21d5d7f34bcb", "type": "electric_scooter", "lon": -77.02307483333334, "is_reserved": 0, "fusion_lat": 0.0, "fusion_lon": 0.0}, {"name": "6a5bf2990f548d8c263c03735489e96c", "is_disabled": 0, "lat": 38.90145066666667, "rental_uris": {"ios": "https://dc.lft.to/lastmile_qr_scan", "android": "https://dc.lft.to/lastmile_qr_scan"}, "bike_id": "6a5bf2990f548d8c263c03735489e96c", "type": "electric_scooter", "lon": -77.02593066666667, "is_reserved": 0, "fusion_lat": 0.0, "fusion_lon": 0.0}, {"name": "330ee25981d58fb1281cde61c7b69b0c", "is_disabled": 0, "lat": 38.934107, "rental_uris": {"ios": "https://dc.lft.to/lastmile_qr_scan", "android": "https://dc.lft.to/lastmile_qr_scan"}, "bike_id": "330ee25981d58fb1281cde61c7b69b0c", "type": "electric_scooter", "lon": -77.02201983333333, "is_reserved": 0, "fusion_lat": 0.0, "fusion_lon": 0.0}, {"name": "0a83ff59bdb89725f6bf528a3262f116", "is_disabled": 0, "lat": 38.903571, "rental_uris": {"ios": "https://dc.lft.to/lastmile_qr_scan", "android": "https://dc.lft.to/lastmile_qr_scan"}, "bike_id": "0a83ff59bdb89725f6bf528a3262f116", "type": "electric_scooter", "lon": -77.03854816666667, "is_reserved": 0, "fusion_lat": 0.0, "fusion_lon": 0.0}, {"name": "5fb84cc2ff2c12b8a6bc1900f2ed270e", "is_disabled": 0, "lat": 38.9170995, "rental_uris": {"ios": "https://dc.lft.to/lastmile_qr_scan", "android": "https://dc.lft.to/lastmile_qr_scan"}, "bike_id": "5fb84cc2ff2c12b8a6bc1900f2ed270e", "type": "electric_scooter", "lon": -77.02900733333334, "is_reserved": 0, "fusion_lat": 0.0, "fusion_lon": 0.0}, {"name": "2d97c4601ed21c220ae69abb4398d394", "is_disabled": 0, "lat": 38.922576, "rental_uris": {"ios": "https://dc.lft.to/lastmile_qr_scan", "android": "https://dc.lft.to/lastmile_qr_scan"}, "bike_id": "2d97c4601ed21c220ae69abb4398d394", "type": "electric_bike", "lon": -76.9865155, "is_reserved": 0, "fusion_lat": 0.0, "fusion_lon": 0.0}, {"name": "78165749100cdd7ac583bbc84ccf26f4", "is_disabled": 0, "lat": 38.92719316666667, "rental_uris": {"ios": "https://dc.lft.to/lastmile_qr_scan", "android": "https://dc.lft.to/lastmile_qr_scan"}, "bike_id": "78165749100cdd7ac583bbc84ccf26f4", "type": "electric_scooter", "lon": -77.0534855, "is_reserved": 0, "fusion_lat": 0.0, "fusion_lon": 0.0}, {"name": "444d4d48dbf5f96097a3bb94d606ca00", "is_disabled": 0, "lat": 38.90892916666667, "rental_uris": {"ios": "https://dc.lft.to/lastmile_qr_scan", "android": "https://dc.lft.to/lastmile_qr_scan"}, "bike_id": "444d4d48dbf5f96097a3bb94d606ca00", "type": "electric_scooter", "lon": -77.04393016666667, "is_reserved": 0, "fusion_lat": 0.0, "fusion_lon": 0.0}, {"name": "62a06ba5d9ab3b0024de3758d06c8e71", "is_disabled": 0, "lat": 38.897286, "rental_uris": {"ios": "https://dc.lft.to/lastmile_qr_scan", "android": "https://dc.lft.to/lastmile_qr_scan"}, "bike_id": "62a06ba5d9ab3b0024de3758d06c8e71", "type": "electric_scooter", "lon": -77.01871533333333, "is_reserved": 0, "fusion_lat": 0.0, "fusion_lon": 0.0}, {"name": "f96557e0247a54c59dad3aed922fa11f", "is_disabled": 0, "lat": 38.934543166666664, "rental_uris": {"ios": "https://dc.lft.to/lastmile_qr_scan", "android": "https://dc.lft.to/lastmile_qr_scan"}, "bike_id": "f96557e0247a54c59dad3aed922fa11f", "type": "electric_scooter", "lon": -77.03864516666667, "is_reserved": 0, "fusion_lat": 0.0, "fusion_lon": 0.0}, {"name": "007c15df0538b4e8e97680a39a028e83", "is_disabled": 0, "lat": 38.91700816666667, "rental_uris": {"ios": "https://dc.lft.to/lastmile_qr_scan", "android": "https://dc.lft.to/lastmile_qr_scan"}, "bike_id": "007c15df0538b4e8e97680a39a028e83", "type": "electric_scooter", "lon": -77.027415, "is_reserved": 0, "fusion_lat": 0.0, "fusion_lon": 0.0}, {"name": "6c8f9f00c1b9d09652ac125c313e43f3", "is_disabled": 0, "lat": 38.9467855, "rental_uris": {"ios": "https://dc.lft.to/lastmile_qr_scan", "android": "https://dc.lft.to/lastmile_qr_scan"}, "bike_id": "6c8f9f00c1b9d09652ac125c313e43f3", "type": "electric_bike", "lon": -76.95670533333333, "is_reserved": 0, "fusion_lat": 0.0, "fusion_lon": 0.0}, {"name": "cbd1eb2395dd6ff133b45ec275bc4893", "is_disabled": 0, "lat": 38.897243833333334, "rental_uris": {"ios": "https://dc.lft.to/lastmile_qr_scan", "android": "https://dc.lft.to/lastmile_qr_scan"}, "bike_id": "cbd1eb2395dd6ff133b45ec275bc4893", "type": "electric_scooter", "lon": -77.00341816666666, "is_reserved": 0, "fusion_lat": 0.0, "fusion_lon": 0.0}, {"name": "01cbd39276eb718439b092b24bd419f4", "is_disabled": 0, "lat": 38.91700766666666, "rental_uris": {"ios": "https://dc.lft.to/lastmile_qr_scan", "android": "https://dc.lft.to/lastmile_qr_scan"}, "bike_id": "01cbd39276eb718439b092b24bd419f4", "type": "electric_scooter", "lon": -77.0264345, "is_reserved": 0, "fusion_lat": 0.0, "fusion_lon": 0.0}, {"name": "cb2dbcc7be718f74b60175de96d945b8", "is_disabled": 0, "lat": 38.909773333333334, "rental_uris": {"ios": "https://dc.lft.to/lastmile_qr_scan", "android": "https://dc.lft.to/lastmile_qr_scan"}, "bike_id": "cb2dbcc7be718f74b60175de96d945b8", "type": "electric_scooter", "lon": -77.0343695, "is_reserved": 0, "fusion_lat": 0.0, "fusion_lon": 0.0}, {"name": "ff205003e7ca20eda7f9940c619b35a7", "is_disabled": 0, "lat": 38.90952566666667, "rental_uris": {"ios": "https://dc.lft.to/lastmile_qr_scan", "android": "https://dc.lft.to/lastmile_qr_scan"}, "bike_id": "ff205003e7ca20eda7f9940c619b35a7", "type": "electric_scooter", "lon": -77.02715533333334, "is_reserved": 0, "fusion_lat": 0.0, "fusion_lon": 0.0}, {"name": "48c7b37cd5e63cf51993e69f3d28fbb0", "is_disabled": 0, "lat": 38.9085775, "rental_uris": {"ios": "https://dc.lft.to/lastmile_qr_scan", "android": "https://dc.lft.to/lastmile_qr_scan"}, "bike_id": "48c7b37cd5e63cf51993e69f3d28fbb0", "type": "electric_bike", "lon": -77.04433383333334, "is_reserved": 0, "fusion_lat": 0.0, "fusion_lon": 0.0}, {"name": "6e593f7a3d9d067fb382647c33694da2", "is_disabled": 0, "lat": 38.8999785, "rental_uris": {"ios": "https://dc.lft.to/lastmile_qr_scan", "android": "https://dc.lft.to/lastmile_qr_scan"}, "bike_id": "6e593f7a3d9d067fb382647c33694da2", "type": "electric_scooter", "lon": -77.02303316666666, "is_reserved": 0, "fusion_lat": 0.0, "fusion_lon": 0.0}, {"name": "ce94a4a6d43098129ec81935bd479209", "is_disabled": 0, "lat": 38.93245666666667, "rental_uris": {"ios": "https://dc.lft.to/lastmile_qr_scan", "android": "https://dc.lft.to/lastmile_qr_scan"}, "bike_id": "ce94a4a6d43098129ec81935bd479209", "type": "electric_scooter", "lon": -77.02966233333333, "is_reserved": 0, "fusion_lat": 0.0, "fusion_lon": 0.0}, {"name": "795960d64940da4d24b9238d91800aab", "is_disabled": 0, "lat": 38.8922375, "rental_uris": {"ios": "https://dc.lft.to/lastmile_qr_scan", "android": "https://dc.lft.to/lastmile_qr_scan"}, "bike_id": "795960d64940da4d24b9238d91800aab", "type": "electric_scooter", "lon": -77.04504683333333, "is_reserved": 0, "fusion_lat": 0.0, "fusion_lon": 0.0}, {"name": "6de46d92f5e34611c522d42d1f070c9e", "is_disabled": 0, "lat": 38.9401095, "rental_uris": {"ios": "https://dc.lft.to/lastmile_qr_scan", "android": "https://dc.lft.to/lastmile_qr_scan"}, "bike_id": "6de46d92f5e34611c522d42d1f070c9e", "type": "electric_scooter", "lon": -77.0253895, "is_reserved": 0, "fusion_lat": 0.0, "fusion_lon": 0.0}, {"name": "de30bbfde45d6361c00bd692750a80f8", "is_disabled": 0, "lat": 38.905573, "rental_uris": {"ios": "https://dc.lft.to/lastmile_qr_scan", "android": "https://dc.lft.to/lastmile_qr_scan"}, "bike_id": "de30bbfde45d6361c00bd692750a80f8", "type": "electric_scooter", "lon": -77.0058705, "is_reserved": 0, "fusion_lat": 0.0, "fusion_lon": 0.0}, {"name": "a4baa42127b61b3ec3545139f276cf62", "is_disabled": 0, "lat": 38.90714416666667, "rental_uris": {"ios": "https://dc.lft.to/lastmile_qr_scan", "android": "https://dc.lft.to/lastmile_qr_scan"}, "bike_id": "a4baa42127b61b3ec3545139f276cf62", "type": "electric_scooter", "lon": -77.02713416666667, "is_reserved": 0, "fusion_lat": 0.0, "fusion_lon": 0.0}, {"name": "6f3ba0aa0f815c9c1c2feab8ca3c6699", "is_disabled": 0, "lat": 38.906909666666664, "rental_uris": {"ios": "https://dc.lft.to/lastmile_qr_scan", "android": "https://dc.lft.to/lastmile_qr_scan"}, "bike_id": "6f3ba0aa0f815c9c1c2feab8ca3c6699", "type": "electric_scooter", "lon": -77.03666166666666, "is_reserved": 0, "fusion_lat": 0.0, "fusion_lon": 0.0}, {"name": "3cda09d27e3aebdcbc4343cc9ae416f5", "is_disabled": 0, "lat": 38.947288, "rental_uris": {"ios": "https://dc.lft.to/lastmile_qr_scan", "android": "https://dc.lft.to/lastmile_qr_scan"}, "bike_id": "3cda09d27e3aebdcbc4343cc9ae416f5", "type": "electric_scooter", "lon": -77.02767033333333, "is_reserved": 0, "fusion_lat": 0.0, "fusion_lon": 0.0}, {"name": "c8c74a634a41f6e1cfade0ef70c6c3e7", "is_disabled": 0, "lat": 38.924796666666666, "rental_uris": {"ios": "https://dc.lft.to/lastmile_qr_scan", "android": "https://dc.lft.to/lastmile_qr_scan"}, "bike_id": "c8c74a634a41f6e1cfade0ef70c6c3e7", "type": "electric_scooter", "lon": -77.03953916666667, "is_reserved": 0, "fusion_lat": 0.0, "fusion_lon": 0.0}, {"name": "33c70361abc1d9c1f27a964d122bb14f", "is_disabled": 0, "lat": 38.910155833333334, "rental_uris": {"ios": "https://dc.lft.to/lastmile_qr_scan", "android": "https://dc.lft.to/lastmile_qr_scan"}, "bike_id": "33c70361abc1d9c1f27a964d122bb14f", "type": "electric_scooter", "lon": -77.03856633333334, "is_reserved": 0, "fusion_lat": 0.0, "fusion_lon": 0.0}, {"name": "913a1cf0ce38e97039269ffd6cfbb479", "is_disabled": 0, "lat": 38.907456333333336, "rental_uris": {"ios": "https://dc.lft.to/lastmile_qr_scan", "android": "https://dc.lft.to/lastmile_qr_scan"}, "bike_id": "913a1cf0ce38e97039269ffd6cfbb479", "type": "electric_scooter", "lon": -77.034702, "is_reserved": 0, "fusion_lat": 0.0, "fusion_lon": 0.0}, {"name": "6018f5724e09dec3783cd3c51ac4a040", "is_disabled": 0, "lat": 38.9141355, "rental_uris": {"ios": "https://dc.lft.to/lastmile_qr_scan", "android": "https://dc.lft.to/lastmile_qr_scan"}, "bike_id": "6018f5724e09dec3783cd3c51ac4a040", "type": "electric_scooter", "lon": -77.02480366666667, "is_reserved": 0, "fusion_lat": 0.0, "fusion_lon": 0.0}, {"name": "d70122f3ab09a44954a96722ddec6cd6", "is_disabled": 0, "lat": 38.8874415, "rental_uris": {"ios": "https://dc.lft.to/lastmile_qr_scan", "android": "https://dc.lft.to/lastmile_qr_scan"}, "bike_id": "d70122f3ab09a44954a96722ddec6cd6", "type": "electric_scooter", "lon": -77.01774716666667, "is_reserved": 0, "fusion_lat": 0.0, "fusion_lon": 0.0}, {"name": "8d61963b2e65ffb00e6c7e8ae11e3da1", "is_disabled": 0, "lat": 38.9623605, "rental_uris": {"ios": "https://dc.lft.to/lastmile_qr_scan", "android": "https://dc.lft.to/lastmile_qr_scan"}, "bike_id": "8d61963b2e65ffb00e6c7e8ae11e3da1", "type": "electric_bike", "lon": -76.92796666666666, "is_reserved": 0, "fusion_lat": 0.0, "fusion_lon": 0.0}, {"name": "9187eec9c01dea55f03512a0ed087f97", "is_disabled": 0, "lat": 38.907822, "rental_uris": {"ios": "https://dc.lft.to/lastmile_qr_scan", "android": "https://dc.lft.to/lastmile_qr_scan"}, "bike_id": "9187eec9c01dea55f03512a0ed087f97", "type": "electric_scooter", "lon": -77.03440483333334, "is_reserved": 0, "fusion_lat": 0.0, "fusion_lon": 0.0}, {"name": "70af194285d71a4b28d350279844c6f7", "is_disabled": 0, "lat": 38.901430166666664, "rental_uris": {"ios": "https://dc.lft.to/lastmile_qr_scan", "android": "https://dc.lft.to/lastmile_qr_scan"}, "bike_id": "70af194285d71a4b28d350279844c6f7", "type": "electric_scooter", "lon": -77.04152133333334, "is_reserved": 0, "fusion_lat": 0.0, "fusion_lon": 0.0}, {"name": "dcf8167d85d2af4d621fc190fbabddaf", "is_disabled": 0, "lat": 38.92036683333333, "rental_uris": {"ios": "https://dc.lft.to/lastmile_qr_scan", "android": "https://dc.lft.to/lastmile_qr_scan"}, "bike_id": "dcf8167d85d2af4d621fc190fbabddaf", "type": "electric_scooter", "lon": -76.9899235, "is_reserved": 0, "fusion_lat": 0.0, "fusion_lon": 0.0}, {"name": "518fcad7f2854a2a49dafa2a65208930", "is_disabled": 0, "lat": 38.887404, "rental_uris": {"ios": "https://dc.lft.to/lastmile_qr_scan", "android": "https://dc.lft.to/lastmile_qr_scan"}, "bike_id": "518fcad7f2854a2a49dafa2a65208930", "type": "electric_scooter", "lon": -77.0212535, "is_reserved": 0, "fusion_lat": 0.0, "fusion_lon": 0.0}, {"name": "e4c8b2925f8976d1e7d38a726e0304a3", "is_disabled": 0, "lat": 38.902484666666666, "rental_uris": {"ios": "https://dc.lft.to/lastmile_qr_scan", "android": "https://dc.lft.to/lastmile_qr_scan"}, "bike_id": "e4c8b2925f8976d1e7d38a726e0304a3", "type": "electric_scooter", "lon": -77.04546033333334, "is_reserved": 0, "fusion_lat": 0.0, "fusion_lon": 0.0}, {"name": "3b93f3fd3871222430c14bf2ab07eb13", "is_disabled": 0, "lat": 38.932495833333334, "rental_uris": {"ios": "https://dc.lft.to/lastmile_qr_scan", "android": "https://dc.lft.to/lastmile_qr_scan"}, "bike_id": "3b93f3fd3871222430c14bf2ab07eb13", "type": "electric_scooter", "lon": -77.02950033333333, "is_reserved": 0, "fusion_lat": 0.0, "fusion_lon": 0.0}, {"name": "aa877db3dc88864363c6c89e662e826e", "is_disabled": 0, "lat": 38.812563, "rental_uris": {"ios": "https://dc.lft.to/lastmile_qr_scan", "android": "https://dc.lft.to/lastmile_qr_scan"}, "bike_id": "aa877db3dc88864363c6c89e662e826e", "type": "electric_bike", "lon": -77.117631, "is_reserved": 0, "fusion_lat": 0.0, "fusion_lon": 0.0}, {"name": "06d0eee0205756aa24fb036db3653d6c", "is_disabled": 0, "lat": 38.892221, "rental_uris": {"ios": "https://dc.lft.to/lastmile_qr_scan", "android": "https://dc.lft.to/lastmile_qr_scan"},