{"data": {"bikes": [{"rental_uris": {"ios": "https://dc.lft.to/lastmile_qr_scan", "android": "https://dc.lft.to/lastmile_qr_scan"}, "lon": -77.0102255, "type": "electric_scooter", "fusion_lat": 0.0, "lat": 38.918046833333335, "name": "85d18425da9fbf9c3533acd4313a58f7", "fusion_lon": 0.0, "bike_id": "85d18425da9fbf9c3533acd4313a58f7", "is_disabled": 0, "is_reserved": 0}, {"rental_uris": {"ios": "https://dc.lft.to/lastmile_qr_scan", "android": "https://dc.lft.to/lastmile_qr_scan"}, "lon": -76.99000366666667, "type": "electric_scooter", "fusion_lat": 0.0, "lat": 38.9038875, "name": "613fcc3e73412eab9069a32fcb0c891a", "fusion_lon": 0.0, "bike_id": "613fcc3e73412eab9069a32fcb0c891a", "is_disabled": 0, "is_reserved": 0}, {"rental_uris": {"ios": "https://dc.lft.to/lastmile_qr_scan", "android": "https://dc.lft.to/lastmile_qr_scan"}, "lon": -77.03752933333334, "type": "electric_scooter", "fusion_lat": 0.0, "lat": 38.91253716666667, "name": "e4ebd238aa0df9824e562e0799144ff9", "fusion_lon": 0.0, "bike_id": "e4ebd238aa0df9824e562e0799144ff9", "is_disabled": 0, "is_reserved": 0}, {"rental_uris": {"ios": "https://dc.lft.to/lastmile_qr_scan", "android": "https://dc.lft.to/lastmile_qr_scan"}, "lon": -76.998358, "type": "electric_scooter", "fusion_lat": 0.0, "lat": 38.90033283333333, "name": "c1a806dad5e497cb1765f111142b2707", "fusion_lon": 0.0, "bike_id": "c1a806dad5e497cb1765f111142b2707", "is_disabled": 0, "is_reserved": 0}, {"rental_uris": {"ios": "https://dc.lft.to/lastmile_qr_scan", "android": "https://dc.lft.to/lastmile_qr_scan"}, "lon": -76.98309033333334, "type": "electric_scooter", "fusion_lat": 0.0, "lat": 38.899766, "name": "cff17ff75aaa3b80311e7a578ef601df", "fusion_lon": 0.0, "bike_id": "cff17ff75aaa3b80311e7a578ef601df", "is_disabled": 0, "is_reserved": 0}, {"rental_uris": {"ios": "https://dc.lft.to/lastmile_qr_scan", "android": "https://dc.lft.to/lastmile_qr_scan"}, "lon": -77.05756816666667, "type": "electric_scooter", "fusion_lat": 0.0, "lat": 38.934178333333335, "name": "67923ac9becc46d3efe0ebf36e8c667a", "fusion_lon": 0.0, "bike_id": "67923ac9becc46d3efe0ebf36e8c667a", "is_disabled": 0, "is_reserved": 0}, {"rental_uris": {"ios": "https://dc.lft.to/lastmile_qr_scan", "android": "https://dc.lft.to/lastmile_qr_scan"}, "lon": -76.9955285, "type": "electric_scooter", "fusion_lat": 0.0, "lat": 38.86231816666667, "name": "4401887ee642fbff148bc44566640feb", "fusion_lon": 0.0, "bike_id": "4401887ee642fbff148bc44566640feb", "is_disabled": 0, "is_reserved": 0}, {"rental_uris": {"ios": "https://dc.lft.to/lastmile_qr_scan", "android": "https://dc.lft.to/lastmile_qr_scan"}, "lon": -77.01991566666666, "type": "electric_scooter", "fusion_lat": 0.0, "lat": 38.9378405, "name": "59cdce911485edd7bfbb8d130cda3517", "fusion_lon": 0.0, "bike_id": "59cdce911485edd7bfbb8d130cda3517", "is_disabled": 0, "is_reserved": 0}, {"rental_uris": {"ios": "https://dc.lft.to/lastmile_qr_scan", "android": "https://dc.lft.to/lastmile_qr_scan"}, "lon": -77.05930216666667, "type": "electric_scooter", "fusion_lat": 0.0, "lat": 38.9095355, "name": "7784814169f2a8d4774be08abdae7572", "fusion_lon": 0.0, "bike_id": "7784814169f2a8d4774be08abdae7572", "is_disabled": 0, "is_reserved": 0}, {"rental_uris": {"ios": "https://dc.lft.to/lastmile_qr_scan", "android": "https://dc.lft.to/lastmile_qr_scan"}, "lon": -77.03147783333333, "type": "electric_scooter", "fusion_lat": 0.0, "lat": 38.9140305, "name": "db693d00be22509e4dc2372e87aae812", "fusion_lon": 0.0, "bike_id": "db693d00be22509e4dc2372e87aae812", "is_disabled": 0, "is_reserved": 0}, {"rental_uris": {"ios": "https://dc.lft.to/lastmile_qr_scan", "android": "https://dc.lft.to/lastmile_qr_scan"}, "lon": -77.03472833333333, "type": "electric_scooter", "fusion_lat": 0.0, "lat": 38.934256833333336, "name": "916c2531f527db113a1bae98dad325dc", "fusion_lon": 0.0, "bike_id": "916c2531f527db113a1bae98dad325dc", "is_disabled": 0, "is_reserved": 0}, {"rental_uris": {"ios": "https://dc.lft.to/lastmile_qr_scan", "android": "https://dc.lft.to/lastmile_qr_scan"}, "lon": -77.00780316666666, "type": "electric_bike", "fusion_lat": 0.0, "lat": 38.878427, "name": "dab99ab1d5b1df3448463bea97794e2b", "fusion_lon": 0.0, "bike_id": "dab99ab1d5b1df3448463bea97794e2b", "is_disabled": 0, "is_reserved": 0}, {"rental_uris": {"ios": "https://dc.lft.to/lastmile_qr_scan", "android": "https://dc.lft.to/lastmile_qr_scan"}, "lon": -77.045568, "type": "electric_scooter", "fusion_lat": 0.0, "lat": 38.892251, "name": "41bc9ea8ee1ecaed03212567b978c7e7", "fusion_lon": 0.0, "bike_id": "41bc9ea8ee1ecaed03212567b978c7e7", "is_disabled": 0, "is_reserved": 0}, {"rental_uris": {"ios": "https://dc.lft.to/lastmile_qr_scan", "android": "https://dc.lft.to/lastmile_qr_scan"}, "lon": -77.05322716666667, "type": "electric_scooter", "fusion_lat": 0.0, "lat": 38.90649166666667, "name": "b0dc98a0f1fd12c20c423d22635e0d0c", "fusion_lon": 0.0, "bike_id": "b0dc98a0f1fd12c20c423d22635e0d0c", "is_disabled": 0, "is_reserved": 0}, {"rental_uris": {"ios": "https://dc.lft.to/lastmile_qr_scan", "android": "https://dc.lft.to/lastmile_qr_scan"}, "lon": -77.00735433333334, "type": "electric_scooter", "fusion_lat": 0.0, "lat": 38.87901766666667, "name": "3d197c8b5d4e3e582ac2784f6f3a8bc3", "fusion_lon": 0.0, "bike_id": "3d197c8b5d4e3e582ac2784f6f3a8bc3", "is_disabled": 0, "is_reserved": 0}, {"rental_uris": {"ios": "https://dc.lft.to/lastmile_qr_scan", "android": "https://dc.lft.to/lastmile_qr_scan"}, "lon": -76.997017, "type": "electric_scooter", "fusion_lat": 0.0, "lat": 38.901009333333334, "name": "a7b4b131dbb4f1713af20c335c92794a", "fusion_lon": 0.0, "bike_id": "a7b4b131dbb4f1713af20c335c92794a", "is_disabled": 0, "is_reserved": 0}, {"rental_uris": {"ios": "https://dc.lft.to/lastmile_qr_scan", "android": "https://dc.lft.to/lastmile_qr_scan"}, "lon": -76.93232566666667, "type": "electric_bike", "fusion_lat": 0.0, "lat": 38.86590666666667, "name": "ea8be90fb690c53ff946b25f594de355", "fusion_lon": 0.0, "bike_id": "ea8be90fb690c53ff946b25f594de355", "is_disabled": 0, "is_reserved": 0}, {"rental_uris": {"ios": "https://dc.lft.to/lastmile_qr_scan", "android": "https://dc.lft.to/lastmile_qr_scan"}, "lon": -76.99517233333333, "type": "electric_scooter", "fusion_lat": 0.0, "lat": 38.89480016666667, "name": "6c0aeef1492dfd06828cf7f1a82d85cd", "fusion_lon": 0.0, "bike_id": "6c0aeef1492dfd06828cf7f1a82d85cd", "is_disabled": 0, "is_reserved": 0}, {"rental_uris": {"ios": "https://dc.lft.to/lastmile_qr_scan", "android": "https://dc.lft.to/lastmile_qr_scan"}, "lon": -77.03421633333333, "type": "electric_scooter", "fusion_lat": 0.0, "lat": 38.91926266666667, "name": "f60ade4b3a1b24f28b16e5415f918977", "fusion_lon": 0.0, "bike_id": "f60ade4b3a1b24f28b16e5415f918977", "is_disabled": 0, "is_reserved": 0}, {"rental_uris": {"ios": "https://dc.lft.to/lastmile_qr_scan", "android": "https://dc.lft.to/lastmile_qr_scan"}, "lon": -76.97294616666667, "type": "electric_scooter", "fusion_lat": 0.0, "lat": 38.9033875, "name": "5b7015988c00a734bc0b43d7d7447e31", "fusion_lon": 0.0, "bike_id": "5b7015988c00a734bc0b43d7d7447e31", "is_disabled": 0, "is_reserved": 0}, {"rental_uris": {"ios": "https://dc.lft.to/lastmile_qr_scan", "android": "https://dc.lft.to/lastmile_qr_scan"}, "lon": -77.129607, "type": "electric_bike", "fusion_lat": 0.0, "lat": 38.85218016666666, "name": "36fa375a614e39afb4e5647e8dc83f88", "fusion_lon": 0.0, "bike_id": "36fa375a614e39afb4e5647e8dc83f88", "is_disabled": 0, "is_reserved": 0}, {"rental_uris": {"ios": "https://dc.lft.to/lastmile_qr_scan", "android": "https://dc.lft.to/lastmile_qr_scan"}, "lon": -76.94214933333333, "type": "electric_scooter", "fusion_lat": 0.0, "lat": 38.89667383333333, "name": "02ac0d627bd96f9e5156d895c5cf87d4", "fusion_lon": 0.0, "bike_id": "02ac0d627bd96f9e5156d895c5cf87d4", "is_disabled": 0, "is_reserved": 0}, {"rental_uris": {"ios": "https://dc.lft.to/lastmile_qr_scan", "android": "https://dc.lft.to/lastmile_qr_scan"}, "lon": -77.092081, "type": "electric_scooter", "fusion_lat": 0.0, "lat": 38.9413315, "name": "2dc7c093d15d1fa489778ee5594aaeb1", "fusion_lon": 0.0, "bike_id": "2dc7c093d15d1fa489778ee5594aaeb1", "is_disabled": 0, "is_reserved": 0}, {"rental_uris": {"ios": "https://dc.lft.to/lastmile_qr_scan", "android": "https://dc.lft.to/lastmile_qr_scan"}, "lon": -77.00345033333333, "type": "electric_scooter", "fusion_lat": 0.0, "lat": 38.8935815, "name": "5959976cd519a3c64bfffcbc52d7205f", "fusion_lon": 0.0, "bike_id": "5959976cd519a3c64bfffcbc52d7205f", "is_disabled": 0, "is_reserved": 0}, {"rental_uris": {"ios": "https://dc.lft.to/lastmile_qr_scan", "android": "https://dc.lft.to/lastmile_qr_scan"}, "lon": -77.054759, "type": "electric_scooter", "fusion_lat": 0.0, "lat": 38.8939085, "name": "e1396092cf8cd55a3258c054c4050aa1", "fusion_lon": 0.0, "bike_id": "e1396092cf8cd55a3258c054c4050aa1", "is_disabled": 0, "is_reserved": 0}, {"rental_uris": {"ios": "https://dc.lft.to/lastmile_qr_scan", "android": "https://dc.lft.to/lastmile_qr_scan"}, "lon": -77.02963866666667, "type": "electric_scooter", "fusion_lat": 0.0, "lat": 38.9072835, "name": "d2648c70eea9668c9efa7a62e5001c13", "fusion_lon": 0.0, "bike_id": "d2648c70eea9668c9efa7a62e5001c13", "is_disabled": 0, "is_reserved": 0}, {"rental_uris": {"ios": "https://dc.lft.to/lastmile_qr_scan", "android": "https://dc.lft.to/lastmile_qr_scan"}, "lon": -77.02946783333333, "type": "electric_scooter", "fusion_lat": 0.0, "lat": 38.90375866666667, "name": "73e18e06f5918e57bc6f47cda825846b", "fusion_lon": 0.0, "bike_id": "73e18e06f5918e57bc6f47cda825846b", "is_disabled": 0, "is_reserved": 0}, {"rental_uris": {"ios": "https://dc.lft.to/lastmile_qr_scan", "android": "https://dc.lft.to/lastmile_qr_scan"}, "lon": -77.02480883333334, "type": "electric_scooter", "fusion_lat": 0.0, "lat": 38.933525, "name": "6aee9b0ca79da905eb737c46d0810d88", "fusion_lon": 0.0, "bike_id": "6aee9b0ca79da905eb737c46d0810d88", "is_disabled": 0, "is_reserved": 0}, {"rental_uris": {"ios": "https://dc.lft.to/lastmile_qr_scan", "android": "https://dc.lft.to/lastmile_qr_scan"}, "lon": -77.00651633333334, "type": "electric_scooter", "fusion_lat": 0.0, "lat": 38.90862033333333, "name": "23f65a3fd046ed78f5570be5afcee00d", "fusion_lon": 0.0, "bike_id": "23f65a3fd046ed78f5570be5afcee00d", "is_disabled": 0, "is_reserved": 0}, {"rental_uris": {"ios": "https://dc.lft.to/lastmile_qr_scan", "android": "https://dc.lft.to/lastmile_qr_scan"}, "lon": -77.14988433333333, "type": "electric_bike", "fusion_lat": 0.0, "lat": 39.094590333333336, "name": "ec69c39a0e363439f4af1ff6604133ca", "fusion_lon": 0.0, "bike_id": "ec69c39a0e363439f4af1ff6604133ca", "is_disabled": 0, "is_reserved": 0}, {"rental_uris": {"ios": "https://dc.lft.to/lastmile_qr_scan", "android": "https://dc.lft.to/lastmile_qr_scan"}, "lon": -77.02215866666667, "type": "electric_scooter", "fusion_lat": 0.0, "lat": 38.912706166666666, "name": "5ca42424ab65a263b8a8ad032dd6608e", "fusion_lon": 0.0, "bike_id": "5ca42424ab65a263b8a8ad032dd6608e", "is_disabled": 0, "is_reserved": 0}, {"rental_uris": {"ios": "https://dc.lft.to/lastmile_qr_scan", "android": "https://dc.lft.to/lastmile_qr_scan"}, "lon": -77.19909233333334, "type": "electric_bike", "fusion_lat": 0.0, "lat": 38.87527566666667, "name": "acb278826c2a778af5cce7cc62d726ad", "fusion_lon": 0.0, "bike_id": "acb278826c2a778af5cce7cc62d726ad", "is_disabled": 0, "is_reserved": 0}, {"rental_uris": {"ios": "https://dc.lft.to/lastmile_qr_scan", "android": "https://dc.lft.to/lastmile_qr_scan"}, "lon": -77.0506075, "type": "electric_scooter", "fusion_lat": 0.0, "lat": 38.905241, "name": "cd0aebe57a771db096fc2fd43d8938ec", "fusion_lon": 0.0, "bike_id": "cd0aebe57a771db096fc2fd43d8938ec", "is_disabled": 0, "is_reserved": 0}, {"rental_uris": {"ios": "https://dc.lft.to/lastmile_qr_scan", "android": "https://dc.lft.to/lastmile_qr_scan"}, "lon": -77.035679, "type": "electric_scooter", "fusion_lat": 0.0, "lat": 38.91633, "name": "1266507f830392ee3f77a8bbbd9d6886", "fusion_lon": 0.0, "bike_id": "1266507f830392ee3f77a8bbbd9d6886", "is_disabled": 0, "is_reserved": 0}, {"rental_uris": {"ios": "https://dc.lft.to/lastmile_qr_scan", "android": "https://dc.lft.to/lastmile_qr_scan"}, "lon": -77.02681516666667, "type": "electric_scooter", "fusion_lat": 0.0, "lat": 38.8920895, "name": "accbe4c271d8f2789db1d4efdcbe53f7", "fusion_lon": 0.0, "bike_id": "accbe4c271d8f2789db1d4efdcbe53f7", "is_disabled": 0, "is_reserved": 0}, {"rental_uris": {"ios": "https://dc.lft.to/lastmile_qr_scan", "android": "https://dc.lft.to/lastmile_qr_scan"}, "lon": -77.02959166666666, "type": "electric_scooter", "fusion_lat": 0.0, "lat": 38.90499533333333, "name": "012fe5351ef85b9e35992b3d6848cf5e", "fusion_lon": 0.0, "bike_id": "012fe5351ef85b9e35992b3d6848cf5e", "is_disabled": 0, "is_reserved": 0}, {"rental_uris": {"ios": "https://dc.lft.to/lastmile_qr_scan", "android": "https://dc.lft.to/lastmile_qr_scan"}, "lon": -76.99675283333333, "type": "electric_scooter", "fusion_lat": 0.0, "lat": 38.910154, "name": "432dad84407437c9636dc428f38cfc30", "fusion_lon": 0.0, "bike_id": "432dad84407437c9636dc428f38cfc30", "is_disabled": 0, "is_reserved": 0}, {"rental_uris": {"ios": "https://dc.lft.to/lastmile_qr_scan", "android": "https://dc.lft.to/lastmile_qr_scan"}, "lon": -77.025868, "type": "electric_scooter", "fusion_lat": 0.0, "lat": 38.89247, "name": "48522023ff70710ea87d6651139c8644", "fusion_lon": 0.0, "bike_id": "48522023ff70710ea87d6651139c8644", "is_disabled": 0, "is_reserved": 0}, {"rental_uris": {"ios": "https://dc.lft.to/lastmile_qr_scan", "android": "https://dc.lft.to/lastmile_qr_scan"}, "lon": -76.99562183333333, "type": "electric_scooter", "fusion_lat": 0.0, "lat": 38.92877933333333, "name": "a24d22d6b1167b0a7380e899b490f95f", "fusion_lon": 0.0, "bike_id": "a24d22d6b1167b0a7380e899b490f95f", "is_disabled": 0, "is_reserved": 0}, {"rental_uris": {"ios": "https://dc.lft.to/lastmile_qr_scan", "android": "https://dc.lft.to/lastmile_qr_scan"}, "lon": -77.00762816666666, "type": "electric_scooter", "fusion_lat": 0.0, "lat": 38.905876, "name": "ecf254ec272fe351495086e0ebf770a7", "fusion_lon": 0.0, "bike_id": "ecf254ec272fe351495086e0ebf770a7", "is_disabled": 0, "is_reserved": 0}, {"rental_uris": {"ios": "https://dc.lft.to/lastmile_qr_scan", "android": "https://dc.lft.to/lastmile_qr_scan"}, "lon": -76.938791, "type": "electric_scooter", "fusion_lat": 0.0, "lat": 38.90084383333333, "name": "76d6af2ecd9e77699a9cd7c0db856484", "fusion_lon": 0.0, "bike_id": "76d6af2ecd9e77699a9cd7c0db856484", "is_disabled": 0, "is_reserved": 0}, {"rental_uris": {"ios": "https://dc.lft.to/lastmile_qr_scan", "android": "https://dc.lft.to/lastmile_qr_scan"}, "lon": -77.0119005, "type": "electric_scooter", "fusion_lat": 0.0, "lat": 38.90023733333334, "name": "36ea3e0b4b33f55c76735894367358e3", "fusion_lon": 0.0, "bike_id": "36ea3e0b4b33f55c76735894367358e3", "is_disabled": 0, "is_reserved": 0}, {"rental_uris": {"ios": "https://dc.lft.to/lastmile_qr_scan", "android": "https://dc.lft.to/lastmile_qr_scan"}, "lon": -77.03728483333333, "type": "electric_scooter", "fusion_lat": 0.0, "lat": 38.91117833333333, "name": "7b596a02bb6460411bb506d9920f0876", "fusion_lon": 0.0, "bike_id": "7b596a02bb6460411bb506d9920f0876", "is_disabled": 0, "is_reserved": 0}, {"rental_uris": {"ios": "https://dc.lft.to/lastmile_qr_scan", "android": "https://dc.lft.to/lastmile_qr_scan"}, "lon": -77.01514066666667, "type": "electric_scooter", "fusion_lat": 0.0, "lat": 38.887328, "name": "25de82155d9e3b4ba2da9ae3b252d1f3", "fusion_lon": 0.0, "bike_id": "25de82155d9e3b4ba2da9ae3b252d1f3", "is_disabled": 0, "is_reserved": 0}, {"rental_uris": {"ios": "https://dc.lft.to/lastmile_qr_scan", "android": "https://dc.lft.to/lastmile_qr_scan"}, "lon": -77.03183266666667, "type": "electric_scooter", "fusion_lat": 0.0, "lat": 38.91158433333333, "name": "a38a22e975f1f8ab581bd58b1e4e935a", "fusion_lon": 0.0, "bike_id": "a38a22e975f1f8ab581bd58b1e4e935a", "is_disabled": 0, "is_reserved": 0}, {"rental_uris": {"ios": "https://dc.lft.to/lastmile_qr_scan", "android": "https://dc.lft.to/lastmile_qr_scan"}, "lon": -76.99273016666666, "type": "electric_scooter", "fusion_lat": 0.0, "lat": 38.89683, "name": "71e48517a571c87b9c5ffb89554cc345", "fusion_lon": 0.0, "bike_id": "71e48517a571c87b9c5ffb89554cc345", "is_disabled": 0, "is_reserved": 0}, {"rental_uris": {"ios": "https://dc.lft.to/lastmile_qr_scan", "android": "https://dc.lft.to/lastmile_qr_scan"}, "lon": -77.03355966666666, "type": "electric_scooter", "fusion_lat": 0.0, "lat": 38.885116333333336, "name": "317e4d0a1830cfaf7ad365a86a0c9f1d", "fusion_lon": 0.0, "bike_id": "317e4d0a1830cfaf7ad365a86a0c9f1d", "is_disabled": 0, "is_reserved": 0}, {"rental_uris": {"ios": "https://dc.lft.to/lastmile_qr_scan", "android": "https://dc.lft.to/lastmile_qr_scan"}, "lon": -77.10706283333333, "type": "electric_bike", "fusion_lat": 0.0, "lat": 38.85550333333333, "name": "b0c3dcd4fd15f6dc12610ff03d4bc54d", "fusion_lon": 0.0, "bike_id": "b0c3dcd4fd15f6dc12610ff03d4bc54d", "is_disabled": 0, "is_reserved": 0}, {"rental_uris": {"ios": "https://dc.lft.to/lastmile_qr_scan", "android": "https://dc.lft.to/lastmile_qr_scan"}, "lon": -77.06530283333333, "type": "electric_scooter", "fusion_lat": 0.0, "lat": 38.91127316666667, "name": "6f8c7d27cf761301677eeb9624c2b99d", "fusion_lon": 0.0, "bike_id": "6f8c7d27cf761301677eeb9624c2b99d", "is_disabled": 0, "is_reserved": 0}, {"rental_uris": {"ios": "https://dc.lft.to/lastmile_qr_scan", "android": "https://dc.lft.to/lastmile_qr_scan"}, "lon": -77.04182016666667, "type": "electric_scooter", "fusion_lat": 0.0, "lat": 38.90547883333333, "name": "a1c878ca333f372f902ecbc6e0ab4c1e", "fusion_lon": 0.0, "bike_id": "a1c878ca333f372f902ecbc6e0ab4c1e", "is_disabled": 0, "is_reserved": 0}, {"rental_uris": {"ios": "https://dc.lft.to/lastmile_qr_scan", "android": "https://dc.lft.to/lastmile_qr_scan"}, "lon": -77.023351, "type": "electric_scooter", "fusion_lat": 0.0, "lat": 38.92888633333333, "name": "45e04a33f4cfd73ec0afffb87e74708b", "fusion_lon": 0.0, "bike_id": "45e04a33f4cfd73ec0afffb87e74708b", "is_disabled": 0, "is_reserved": 0}, {"rental_uris": {"ios": "https://dc.lft.to/lastmile_qr_scan", "android": "https://dc.lft.to/lastmile_qr_scan"}, "lon": -77.03177933333333, "type": "electric_scooter", "fusion_lat": 0.0, "lat": 38.9126465, "name": "16e3cf84b4671d8fb66eaf6e79699177", "fusion_lon": 0.0, "bike_id": "16e3cf84b4671d8fb66eaf6e79699177", "is_disabled": 0, "is_reserved": 0}, {"rental_uris": {"ios": "https://dc.lft.to/lastmile_qr_scan", "android": "https://dc.lft.to/lastmile_qr_scan"}, "lon": -76.99514333333333, "type": "electric_scooter", "fusion_lat": 0.0, "lat": 38.894808166666664, "name": "0061d2eb3ffa80d98f7a640da10e8a99", "fusion_lon": 0.0, "bike_id": "0061d2eb3ffa80d98f7a640da10e8a99", "is_disabled": 0, "is_reserved": 0}, {"rental_uris": {"ios": "https://dc.lft.to/lastmile_qr_scan", "android": "https://dc.lft.to/lastmile_qr_scan"}, "lon": -77.0530525, "type": "electric_scooter", "fusion_lat": 0.0, "lat": 38.902621, "name": "e842f34273fc93bf705243e4ba0e9c5e", "fusion_lon": 0.0, "bike_id": "e842f34273fc93bf705243e4ba0e9c5e", "is_disabled": 0, "is_reserved": 0}, {"rental_uris": {"ios": "https://dc.lft.to/lastmile_qr_scan", "android": "https://dc.lft.to/lastmile_qr_scan"}, "lon": -77.03646166666667, "type": "electric_scooter", "fusion_lat": 0.0, "lat": 38.9079335, "name": "ca9d1a55a1ea4f7fae8a67e138694681", "fusion_lon": 0.0, "bike_id": "ca9d1a55a1ea4f7fae8a67e138694681", "is_disabled": 0, "is_reserved": 0}, {"rental_uris": {"ios": "https://dc.lft.to/lastmile_qr_scan", "android": "https://dc.lft.to/lastmile_qr_scan"}, "lon": -76.94855716666666, "type": "electric_scooter", "fusion_lat": 0.0, "lat": 38.88300683333333, "name": "afa9f933140e790fef46601027aa7642", "fusion_lon": 0.0, "bike_id": "afa9f933140e790fef46601027aa7642", "is_disabled": 0, "is_reserved": 0}, {"rental_uris": {"ios": "https://dc.lft.to/lastmile_qr_scan", "android": "https://dc.lft.to/lastmile_qr_scan"}, "lon": -76.9484745, "type": "electric_scooter", "fusion_lat": 0.0, "lat": 38.89483333333333, "name": "87220c93263ce0fd548d79f305e72553", "fusion_lon": 0.0, "bike_id": "87220c93263ce0fd548d79f305e72553", "is_disabled": 0, "is_reserved": 0}, {"rental_uris": {"ios": "https://dc.lft.to/lastmile_qr_scan", "android": "https://dc.lft.to/lastmile_qr_scan"}, "lon": -77.02961116666667, "type": "electric_scooter", "fusion_lat": 0.0, "lat": 38.9172055, "name": "ac67c9603af50267b669bdefe6851a2f", "fusion_lon": 0.0, "bike_id": "ac67c9603af50267b669bdefe6851a2f", "is_disabled": 0, "is_reserved": 0}, {"rental_uris": {"ios": "https://dc.lft.to/lastmile_qr_scan", "android": "https://dc.lft.to/lastmile_qr_scan"}, "lon": -77.01505266666666, "type": "electric_scooter", "fusion_lat": 0.0, "lat": 38.907209333333334, "name": "c748abe12a8591328ff366fdfa8bcb2f", "fusion_lon": 0.0, "bike_id": "c748abe12a8591328ff366fdfa8bcb2f", "is_disabled": 0, "is_reserved": 0}, {"rental_uris": {"ios": "https://dc.lft.to/lastmile_qr_scan", "android": "https://dc.lft.to/lastmile_qr_scan"}, "lon": -77.069205, "type": "electric_bike", "fusion_lat": 0.0, "lat": 38.909774666666664, "name": "6576c752685e320a689e8c03940cf676", "fusion_lon": 0.0, "bike_id": "6576c752685e320a689e8c03940cf676", "is_disabled": 0, "is_reserved": 0}, {"rental_uris": {"ios": "https://dc.lft.to/lastmile_qr_scan", "android": "https://dc.lft.to/lastmile_qr_scan"}, "lon": -76.931793, "type": "electric_scooter", "fusion_lat": 0.0, "lat": 38.89883733333333, "name": "195b83d00692ca55fdc7bff388be8ea2", "fusion_lon": 0.0, "bike_id": "195b83d00692ca55fdc7bff388be8ea2", "is_disabled": 0, "is_reserved": 0}, {"rental_uris": {"ios": "https://dc.lft.to/lastmile_qr_scan", "android": "https://dc.lft.to/lastmile_qr_scan"}, "lon": -77.0466945, "type": "electric_scooter", "fusion_lat": 0.0, "lat": 38.8933585, "name": "921c79b9a04ce3e3ea4e7fafc64c27fe", "fusion_lon": 0.0, "bike_id": "921c79b9a04ce3e3ea4e7fafc64c27fe", "is_disabled": 0, "is_reserved": 0}, {"rental_uris": {"ios": "https://dc.lft.to/lastmile_qr_scan", "android": "https://dc.lft.to/lastmile_qr_scan"}, "lon": -77.002099, "type": "electric_scooter", "fusion_lat": 0.0, "lat": 38.902207833333335, "name": "328058055eb5c0f44615b1397f1f573f", "fusion_lon": 0.0, "bike_id": "328058055eb5c0f44615b1397f1f573f", "is_disabled": 0, "is_reserved": 0}, {"rental_uris": {"ios": "https://dc.lft.to/lastmile_qr_scan", "android": "https://dc.lft.to/lastmile_qr_scan"}, "lon": -77.05146116666667, "type": "electric_scooter", "fusion_lat": 0.0, "lat": 38.89775216666666, "name": "7b055da6e60898d5962a963425aa28aa", "fusion_lon": 0.0, "bike_id": "7b055da6e60898d5962a963425aa28aa", "is_disabled": 0, "is_reserved": 0}, {"rental_uris": {"ios": "https://dc.lft.to/lastmile_qr_scan", "android": "https://dc.lft.to/lastmile_qr_scan"}, "lon": -77.018581, "type": "electric_scooter", "fusion_lat": 0.0, "lat": 38.900801, "name": "17a651bc5502bdb979cbf333e24aca1d", "fusion_lon": 0.0, "bike_id": "17a651bc5502bdb979cbf333e24aca1d", "is_disabled": 0, "is_reserved": 0}, {"rental_uris": {"ios": "https://dc.lft.to/lastmile_qr_scan", "android": "https://dc.lft.to/lastmile_qr_scan"}, "lon": -77.12035516666667, "type": "electric_bike", "fusion_lat": 0.0, "lat": 38.855118166666664, "name": "9211fc40257999075284c5ef544900b8", "fusion_lon": 0.0, "bike_id": "9211fc40257999075284c5ef544900b8", "is_disabled": 0, "is_reserved": 0}, {"rental_uris": {"ios": "https://dc.lft.to/lastmile_qr_scan", "android": "https://dc.lft.to/lastmile_qr_scan"}, "lon": -76.9497385, "type": "electric_scooter", "fusion_lat": 0.0, "lat": 38.8937265, "name": "83bc3ab47cf475f551775ee9a7d16df3", "fusion_lon": 0.0, "bike_id": "83bc3ab47cf475f551775ee9a7d16df3", "is_disabled": 0, "is_reserved": 0}, {"rental_uris": {"ios": "https://dc.lft.to/lastmile_qr_scan", "android": "https://dc.lft.to/lastmile_qr_scan"}, "lon": -77.03197216666666, "type": "electric_scooter", "fusion_lat": 0.0, "lat": 38.886229166666666, "name": "17bccf46c0af920032b1f3602ce60f81", "fusion_lon": 0.0, "bike_id": "17bccf46c0af920032b1f3602ce60f81", "is_disabled": 0, "is_reserved": 0}, {"rental_uris": {"ios": "https://dc.lft.to/lastmile_qr_scan", "android": "https://dc.lft.to/lastmile_qr_scan"}, "lon": -77.0297595, "type": "electric_scooter", "fusion_lat": 0.0, "lat": 38.962256333333336, "name": "d1cd3c716adeecddc69a6c0b17e3db0a", "fusion_lon": 0.0, "bike_id": "d1cd3c716adeecddc69a6c0b17e3db0a", "is_disabled": 0, "is_reserved": 0}, {"rental_uris": {"ios": "https://dc.lft.to/lastmile_qr_scan", "android": "https://dc.lft.to/lastmile_qr_scan"}, "lon": -77.0013745, "type": "electric_scooter", "fusion_lat": 0.0, "lat": 38.9040495, "name": "87e467da8a304951ae10289e05967284", "fusion_lon": 0.0, "bike_id": "87e467da8a304951ae10289e05967284", "is_disabled": 0, "is_reserved": 0}, {"rental_uris": {"ios": "https://dc.lft.to/lastmile_qr_scan", "android": "https://dc.lft.to/lastmile_qr_scan"}, "lon": -77.00877716666666, "type": "electric_scooter", "fusion_lat": 0.0, "lat": 38.914003666666666, "name": "89793063a28e7e7478ad381f1e927d73", "fusion_lon": 0.0, "bike_id": "89793063a28e7e7478ad381f1e927d73", "is_disabled": 0, "is_reserved": 0}, {"rental_uris": {"ios": "https://dc.lft.to/lastmile_qr_scan", "android": "https://dc.lft.to/lastmile_qr_scan"}, "lon": -77.10340783333334, "type": "electric_bike", "fusion_lat": 0.0, "lat": 38.8522585, "name": "e8b8ea1e86968529ef8481fff92de4f2", "fusion_lon": 0.0, "bike_id": "e8b8ea1e86968529ef8481fff92de4f2", "is_disabled": 0, "is_reserved": 0}, {"rental_uris": {"ios": "https://dc.lft.to/lastmile_qr_scan", "android": "https://dc.lft.to/lastmile_qr_scan"}, "lon": -76.94791983333333, "type": "electric_scooter", "fusion_lat": 0.0, "lat": 38.89631633333333, "name": "e00ac47b78e3f0e3bb4a33fc6cabf750", "fusion_lon": 0.0, "bike_id": "e00ac47b78e3f0e3bb4a33fc6cabf750", "is_disabled": 0, "is_reserved": 0}, {"rental_uris": {"ios": "https://dc.lft.to/lastmile_qr_scan", "android": "https://dc.lft.to/lastmile_qr_scan"}, "lon": -77.04006316666667, "type": "electric_scooter", "fusion_lat": 0.0, "lat": 38.918142333333336, "name": "002bee8e1898fe27519432a6ca163e58", "fusion_lon": 0.0, "bike_id": "002bee8e1898fe27519432a6ca163e58", "is_disabled": 0, "is_reserved": 0}, {"rental_uris": {"ios": "https://dc.lft.to/lastmile_qr_scan", "android": "https://dc.lft.to/lastmile_qr_scan"}, "lon": -77.02209083333334, "type": "electric_scooter", "fusion_lat": 0.0, "lat": 38.90525483333333, "name": "ca892d4f5444e292dcf245db52fea553", "fusion_lon": 0.0, "bike_id": "ca892d4f5444e292dcf245db52fea553", "is_disabled": 0, "is_reserved": 0}, {"rental_uris": {"ios": "https://dc.lft.to/lastmile_qr_scan", "android": "https://dc.lft.to/lastmile_qr_scan"}, "lon": -76.9914875, "type": "electric_scooter", "fusion_lat": 0.0, "lat": 38.8934505, "name": "2ec18ad166318d579a2ab3a7e86c07d0", "fusion_lon": 0.0, "bike_id": "2ec18ad166318d579a2ab3a7e86c07d0", "is_disabled": 0, "is_reserved": 0}, {"rental_uris": {"ios": "https://dc.lft.to/lastmile_qr_scan", "android": "https://dc.lft.to/lastmile_qr_scan"}, "lon": -77.0178245, "type": "electric_scooter", "fusion_lat": 0.0, "lat": 38.9039195, "name": "5e733443b7ddbf6d4c7a54c134c1f6c2", "fusion_lon": 0.0, "bike_id": "5e733443b7ddbf6d4c7a54c134c1f6c2", "is_disabled": 0, "is_reserved": 0}, {"rental_uris": {"ios": "https://dc.lft.to/lastmile_qr_scan", "android": "https://dc.lft.to/lastmile_qr_scan"}, "lon": -76.9732935, "type": "electric_scooter", "fusion_lat": 0.0, "lat": 38.904788333333336, "name": "dd3748fde41d250bcb6d09c3e270b809", "fusion_lon": 0.0, "bike_id": "dd3748fde41d250bcb6d09c3e270b809", "is_disabled": 0, "is_reserved": 0}, {"rental_uris": {"ios": "https://dc.lft.to/lastmile_qr_scan", "android": "https://dc.lft.to/lastmile_qr_scan"}, "lon": -77.001381, "type": "electric_scooter", "fusion_lat": 0.0, "lat": 38.90407483333333, "name": "5f82caf62cf8cf859a27dba6c0a2743d", "fusion_lon": 0.0, "bike_id": "5f82caf62cf8cf859a27dba6c0a2743d", "is_disabled": 0, "is_reserved": 0}, {"rental_uris": {"ios": "https://dc.lft.to/lastmile_qr_scan", "android": "https://dc.lft.to/lastmile_qr_scan"}, "lon": -77.03347466666666, "type": "electric_scooter", "fusion_lat": 0.0, "lat": 38.92871616666667, "name": "d98222b28dde6da54dffe15e2677352f", "fusion_lon": 0.0, "bike_id": "d98222b28dde6da54dffe15e2677352f", "is_disabled": 0, "is_reserved": 0}, {"rental_uris": {"ios": "https://dc.lft.to/lastmile_qr_scan", "android": "https://dc.lft.to/lastmile_qr_scan"}, "lon": -77.03794533333334, "type": "electric_scooter", "fusion_lat": 0.0, "lat": 38.93031783333333, "name": "55737de3375760f8814634fae3c19c88", "fusion_lon": 0.0, "bike_id": "55737de3375760f8814634fae3c19c88", "is_disabled": 0, "is_reserved": 0}, {"rental_uris": {"ios": "https://dc.lft.to/lastmile_qr_scan", "android": "https://dc.lft.to/lastmile_qr_scan"}, "lon": -77.01108983333333, "type": "electric_bike", "fusion_lat": 0.0, "lat": 38.96304766666667, "name": "a36dc546eaf3228945df077b172c589f", "fusion_lon": 0.0, "bike_id": "a36dc546eaf3228945df077b172c589f", "is_disabled": 0, "is_reserved": 0}, {"rental_uris": {"ios": "https://dc.lft.to/lastmile_qr_scan", "android": "https://dc.lft.to/lastmile_qr_scan"}, "lon": -77.04861933333333, "type": "electric_scooter", "fusion_lat": 0.0, "lat": 38.90530233333333, "name": "a5d8db62d3a79dba5e99d5133f220167", "fusion_lon": 0.0, "bike_id": "a5d8db62d3a79dba5e99d5133f220167", "is_disabled": 0, "is_reserved": 0}, {"rental_uris": {"ios": "https://dc.lft.to/lastmile_qr_scan", "android": "https://dc.lft.to/lastmile_qr_scan"}, "lon": -77.10900133333334, "type": "electric_bike", "fusion_lat": 0.0, "lat": 38.83041816666667, "name": "78676a8088a059f0a0f51fb93e217570", "fusion_lon": 0.0, "bike_id": "78676a8088a059f0a0f51fb93e217570", "is_disabled": 0, "is_reserved": 0}, {"rental_uris": {"ios": "https://dc.lft.to/lastmile_qr_scan", "android": "https://dc.lft.to/lastmile_qr_scan"}, "lon": -77.03842283333333, "type": "electric_scooter", "fusion_lat": 0.0, "lat": 38.91098083333333, "name": "5fb4ab228086b3c88c1ac415e36730a2", "fusion_lon": 0.0, "bike_id": "5fb4ab228086b3c88c1ac415e36730a2", "is_disabled": 0, "is_reserved": 0}, {"rental_uris": {"ios": "https://dc.lft.to/lastmile_qr_scan", "android": "https://dc.lft.to/lastmile_qr_scan"}, "lon": -77.0248455, "type": "electric_scooter", "fusion_lat": 0.0, "lat": 38.90412216666667, "name": "d5a37087843c4ab31216ad99922fb22f", "fusion_lon": 0.0, "bike_id": "d5a37087843c4ab31216ad99922fb22f", "is_disabled": 0, "is_reserved": 0}, {"rental_uris": {"ios": "https://dc.lft.to/lastmile_qr_scan", "android": "https://dc.lft.to/lastmile_qr_scan"}, "lon": -77.04717116666667, "type": "electric_scooter", "fusion_lat": 0.0, "lat": 38.90951883333334, "name": "165a8b48c85c003d172c43bd97802754", "fusion_lon": 0.0, "bike_id": "165a8b48c85c003d172c43bd97802754", "is_disabled": 0, "is_reserved": 0}, {"rental_uris": {"ios": "https://dc.lft.to/lastmile_qr_scan", "android": "https://dc.lft.to/lastmile_qr_scan"}, "lon": -77.0220565, "type": "electric_scooter", "fusion_lat": 0.0, "lat": 38.91539783333333, "name": "da737484dc578467655111eb67661f28", "fusion_lon": 0.0, "bike_id": "da737484dc578467655111eb67661f28", "is_disabled": 0, "is_reserved": 0}, {"rental_uris": {"ios": "https://dc.lft.to/lastmile_qr_scan", "android": "https://dc.lft.to/lastmile_qr_scan"}, "lon": -77.03302983333333, "type": "electric_scooter", "fusion_lat": 0.0, "lat": 38.901404, "name": "d719e54a094c15a6f8d0a434f0990444", "fusion_lon": 0.0, "bike_id": "d719e54a094c15a6f8d0a434f0990444", "is_disabled": 0, "is_reserved": 0}, {"rental_uris": {"ios": "https://dc.lft.to/lastmile_qr_scan", "android": "https://dc.lft.to/lastmile_qr_scan"}, "lon": -77.03658616666667, "type": "electric_scooter", "fusion_lat": 0.0, "lat": 38.93084233333333, "name": "c468f072bbc50589006afd68a9409fab", "fusion_lon": 0.0, "bike_id": "c468f072bbc50589006afd68a9409fab", "is_disabled": 0, "is_reserved": 0}, {"rental_uris": {"ios": "https://dc.lft.to/lastmile_qr_scan", "android": "https://dc.lft.to/lastmile_qr_scan"}, "lon": -77.06348116666666, "type": "electric_scooter", "fusion_lat": 0.0, "lat": 38.94444383333333, "name": "12e1e989aa217956d24d4bba0c03ea7a", "fusion_lon": 0.0, "bike_id": "12e1e989aa217956d24d4bba0c03ea7a", "is_disabled": 0, "is_reserved": 0}, {"rental_uris": {"ios": "https://dc.lft.to/lastmile_qr_scan", "android": "https://dc.lft.to/lastmile_qr_scan"}, "lon": -77.02807983333334, "type": "electric_scooter", "fusion_lat": 0.0, "lat": 38.9307915, "name": "74be7dc8546c9affc65d6659406415de", "fusion_lon": 0.0, "bike_id": "74be7dc8546c9affc65d6659406415de", "is_disabled": 0, "is_reserved": 0}, {"rental_uris": {"ios": "https://dc.lft.to/lastmile_qr_scan", "android": "https://dc.lft.to/lastmile_qr_scan"}, "lon": -77.02787116666667, "type": "electric_scooter", "fusion_lat": 0.0, "lat": 38.923763666666666, "name": "a274f15d8f202b646a088cb28a8fc865", "fusion_lon": 0.0, "bike_id": "a274f15d8f202b646a088cb28a8fc865", "is_disabled": 0, "is_reserved": 0}, {"rental_uris": {"ios": "https://dc.lft.to/lastmile_qr_scan", "android": "https://dc.lft.to/lastmile_qr_scan"}, "lon": -77.03429916666667, "type": "electric_scooter", "fusion_lat": 0.0, "lat": 38.91913183333333, "name": "63914b81d0a32e859365b8ec149a7a3c", "fusion_lon": 0.0, "bike_id": "63914b81d0a32e859365b8ec149a7a3c", "is_disabled": 0, "is_reserved": 0}, {"rental_uris": {"ios": "https://dc.lft.to/lastmile_qr_scan", "android": "https://dc.lft.to/lastmile_qr_scan"}, "lon": -76.947218, "type": "electric_scooter", "fusion_lat": 0.0, "lat": 38.8968245, "name": "f4e3b21a14a15392f59109845dc660a5", "fusion_lon": 0.0, "bike_id": "f4e3b21a14a15392f59109845dc660a5", "is_disabled": 0, "is_reserved": 0}, {"rental_uris": {"ios": "https://dc.lft.to/lastmile_qr_scan", "android": "https://dc.lft.to/lastmile_qr_scan"}, "lon": -77.04173666666667, "type": "electric_scooter", "fusion_lat": 0.0, "lat": 38.903769, "name": "ebb41c4ff5d664d7a6ea58579d06b9be", "fusion_lon": 0.0, "bike_id": "ebb41c4ff5d664d7a6ea58579d06b9be", "is_disabled": 0, "is_reserved": 0}, {"rental_uris": {"ios": "https://dc.lft.to/lastmile_qr_scan", "android": "https://dc.lft.to/lastmile_qr_scan"}, "lon": -77.021556, "type": "electric_scooter", "fusion_lat": 0.0, "lat": 38.92827366666667, "name": "cc83bdc14923874b2e720bc7225591e1", "fusion_lon": 0.0, "bike_id": "cc83bdc14923874b2e720bc7225591e1", "is_disabled": 0, "is_reserved": 0}, {"rental_uris": {"ios": "https://dc.lft.to/lastmile_qr_scan", "android": "https://dc.lft.to/lastmile_qr_scan"}, "lon": -77.024885, "type": "electric_scooter", "fusion_lat": 0.0, "lat": 38.89742483333333, "name": "74db9c15694112c381fafa44f6c47d21", "fusion_lon": 0.0, "bike_id": "74db9c15694112c381fafa44f6c47d21", "is_disabled": 0, "is_reserved": 0}, {"rental_uris": {"ios": "https://dc.lft.to/lastmile_qr_scan", "android": "https://dc.lft.to/lastmile_qr_scan"}, "lon": -76.998289, "type": "electric_scooter", "fusion_lat": 0.0, "lat": 38.9004075, "name": "39b451d1f41341d4fb22453d6397b5d8", "fusion_lon": 0.0, "bike_id": "39b451d1f41341d4fb22453d6397b5d8", "is_disabled": 0, "is_reserved": 0}, {"rental_uris": {"ios": "https://dc.lft.to/lastmile_qr_scan", "android": "https://dc.lft.to/lastmile_qr_scan"}, "lon": -76.98853783333334, "type": "electric_scooter", "fusion_lat": 0.0, "lat": 38.90344266666666, "name": "106beddac9e4d3c132e2a88fc5b34b20", "fusion_lon": 0.0, "bike_id": "106beddac9e4d3c132e2a88fc5b34b20", "is_disabled": 0, "is_reserved": 0}, {"rental_uris": {"ios": "https://dc.lft.to/lastmile_qr_scan", "android": "https://dc.lft.to/lastmile_qr_scan"}, "lon": -77.04825116666666, "type": "electric_scooter", "fusion_lat": 0.0, "lat": 38.90957516666667, "name": "4f9d4871df41c145a6254d51dc68d711", "fusion_lon": 0.0, "bike_id": "4f9d4871df41c145a6254d51dc68d711", "is_disabled": 0, "is_reserved": 0}, {"rental_uris": {"ios": "https://dc.lft.to/lastmile_qr_scan", "android": "https://dc.lft.to/lastmile_qr_scan"}, "lon": -76.92880883333333, "type": "electric_scooter", "fusion_lat": 0.0, "lat": 38.884415833333335, "name": "54ad19620d9bb6f1789f44f65c9035ea", "fusion_lon": 0.0, "bike_id": "54ad19620d9bb6f1789f44f65c9035ea", "is_disabled": 0, "is_reserved": 0}, {"rental_uris": {"ios": "https://dc.lft.to/lastmile_qr_scan", "android": "https://dc.lft.to/lastmile_qr_scan"}, "lon": -76.94841666666667, "type": "electric_scooter", "fusion_lat": 0.0, "lat": 38.884029166666664, "name": "e1cc98a697b95e314d764392e4f01fa7", "fusion_lon": 0.0, "bike_id": "e1cc98a697b95e314d764392e4f01fa7", "is_disabled": 0, "is_reserved": 0}, {"rental_uris": {"ios": "https://dc.lft.to/lastmile_qr_scan", "android": "https://dc.lft.to/lastmile_qr_scan"}, "lon": -77.03653166666666, "type": "electric_scooter", "fusion_lat": 0.0, "lat": 38.902813333333334, "name": "2519119d6a3bb53b5dcfb6b3a6441e99", "fusion_lon": 0.0, "bike_id": "2519119d6a3bb53b5dcfb6b3a6441e99", "is_disabled": 0, "is_reserved": 0}, {"rental_uris": {"ios": "https://dc.lft.to/lastmile_qr_scan", "android": "https://dc.lft.to/lastmile_qr_scan"}, "lon": -76.9568155, "type": "electric_bike", "fusion_lat": 0.0, "lat": 38.94728666666666, "name": "ae9ba118f7a646f88f3c1ce1e705df51", "fusion_lon": 0.0, "bike_id": "ae9ba118f7a646f88f3c1ce1e705df51", "is_disabled": 0, "is_reserved": 0}, {"rental_uris": {"ios": "https://dc.lft.to/lastmile_qr_scan", "android": "https://dc.lft.to/lastmile_qr_scan"}, "lon": -77.03661433333333, "type": "electric_scooter", "fusion_lat": 0.0, "lat": 38.91709483333333, "name": "b576a8eaf89f73f6f72f6551b22866e3", "fusion_lon": 0.0, "bike_id": "b576a8eaf89f73f6f72f6551b22866e3", "is_disabled": 0, "is_reserved": 0}, {"rental_uris": {"ios": "https://dc.lft.to/lastmile_qr_scan", "android": "https://dc.lft.to/lastmile_qr_scan"}, "lon": -77.03870133333334, "type": "electric_scooter", "fusion_lat": 0.0, "lat": 38.915684, "name": "f00c8f1d8959509e100acbecfbe7db9b", "fusion_lon": 0.0, "bike_id": "f00c8f1d8959509e100acbecfbe7db9b", "is_disabled": 0, "is_reserved": 0}, {"rental_uris": {"ios": "https://dc.lft.to/lastmile_qr_scan", "android": "https://dc.lft.to/lastmile_qr_scan"}, "lon": -77.03837866666667, "type": "electric_scooter", "fusion_lat": 0.0, "lat": 38.907483, "name": "51fc26cafb07cf6ef3309fe576b0f5cd", "fusion_lon": 0.0, "bike_id": "51fc26cafb07cf6ef3309fe576b0f5cd", "is_disabled": 0, "is_reserved": 0}, {"rental_uris": {"ios": "https://dc.lft.to/lastmile_qr_scan", "android": "https://dc.lft.to/lastmile_qr_scan"}, "lon": -77.08051783333333, "type": "electric_bike", "fusion_lat": 0.0, "lat": 38.84844583333334, "name": "380a349edc0758590f40f25bf9efec67", "fusion_lon": 0.0, "bike_id": "380a349edc0758590f40f25bf9efec67", "is_disabled": 0, "is_reserved": 0}, {"rental_uris": {"ios": "https://dc.lft.to/lastmile_qr_scan", "android": "https://dc.lft.to/lastmile_qr_scan"}, "lon": -77.02949033333333, "type": "electric_scooter", "fusion_lat": 0.0, "lat": 38.91718683333333, "name": "6ef7e4a22770fbaf33be8d8e67868001", "fusion_lon": 0.0, "bike_id": "6ef7e4a22770fbaf33be8d8e67868001", "is_disabled": 0, "is_reserved": 0}, {"rental_uris": {"ios": "https://dc.lft.to/lastmile_qr_scan", "android": "https://dc.lft.to/lastmile_qr_scan"}, "lon": -76.974175, "type": "electric_scooter", "fusion_lat": 0.0, "lat": 38.902356166666664, "name": "3d1912185867c14a770acc72ac641bc4", "fusion_lon": 0.0, "bike_id": "3d1912185867c14a770acc72ac641bc4", "is_disabled": 0, "is_reserved": 0}, {"rental_uris": {"ios": "https://dc.lft.to/lastmile_qr_scan", "android": "https://dc.lft.to/lastmile_qr_scan"}, "lon": -76.98518583333333, "type": "electric_scooter", "fusion_lat": 0.0, "lat": 38.9100325, "name": "2e9b600f2c65150375c8ffaabb02a55e", "fusion_lon": 0.0, "bike_id": "2e9b600f2c65150375c8ffaabb02a55e", "is_disabled": 0, "is_reserved": 0}, {"rental_uris": {"ios": "https://dc.lft.to/lastmile_qr_scan", "android": "https://dc.lft.to/lastmile_qr_scan"}, "lon": -77.03410066666666, "type": "electric_scooter", "fusion_lat": 0.0, "lat": 38.9242675, "name": "11caf8e9a84467230120525713f851b1", "fusion_lon": 0.0, "bike_id": "11caf8e9a84467230120525713f851b1", "is_disabled": 0, "is_reserved": 0}, {"rental_uris": {"ios": "https://dc.lft.to/lastmile_qr_scan", "android": "https://dc.lft.to/lastmile_qr_scan"}, "lon": -76.98611433333333, "type": "electric_scooter", "fusion_lat": 0.0, "lat": 38.87841366666667, "name": "edbd4c7119d1a4aa5fd314ecd04d8d59", "fusion_lon": 0.0, "bike_id": "edbd4c7119d1a4aa5fd314ecd04d8d59", "is_disabled": 0, "is_reserved": 0}, {"rental_uris": {"ios": "https://dc.lft.to/lastmile_qr_scan", "android": "https://dc.lft.to/lastmile_qr_scan"}, "lon": -77.00336416666667, "type": "electric_bike", "fusion_lat": 0.0, "lat": 38.876531, "name": "f0d92199a867b30e0f4fad444d67624d", "fusion_lon": 0.0, "bike_id": "f0d92199a867b30e0f4fad444d67624d", "is_disabled": 0, "is_reserved": 0}, {"rental_uris": {"ios": "https://dc.lft.to/lastmile_qr_scan", "android": "https://dc.lft.to/lastmile_qr_scan"}, "lon": -77.03179166666666, "type": "electric_scooter", "fusion_lat": 0.0, "lat": 38.89343233333334, "name": "104587c200e1b67cd2f2e77e9a38ce3f", "fusion_lon": 0.0, "bike_id": "104587c200e1b67cd2f2e77e9a38ce3f", "is_disabled": 0, "is_reserved": 0}, {"rental_uris": {"ios": "https://dc.lft.to/lastmile_qr_scan", "android": "https://dc.lft.to/lastmile_qr_scan"}, "lon": -76.92846933333334, "type": "electric_scooter", "fusion_lat": 0.0, "lat": 38.8835525, "name": "deb5839ae1a94129af966ca6c2b0feb0", "fusion_lon": 0.0, "bike_id": "deb5839ae1a94129af966ca6c2b0feb0", "is_disabled": 0, "is_reserved": 0}, {"rental_uris": {"ios": "https://dc.lft.to/lastmile_qr_scan", "android": "https://dc.lft.to/lastmile_qr_scan"}, "lon": -77.01117216666667, "type": "electric_scooter", "fusion_lat": 0.0, "lat": 38.87079, "name": "c41f9bf05858abe0a5ffe8af08d1259d", "fusion_lon": 0.0, "bike_id": "c41f9bf05858abe0a5ffe8af08d1259d", "is_disabled": 0, "is_reserved": 0}, {"rental_uris": {"ios": "https://dc.lft.to/lastmile_qr_scan", "android": "https://dc.lft.to/lastmile_qr_scan"}, "lon": -77.03925983333333, "type": "electric_scooter", "fusion_lat": 0.0, "lat": 38.902818, "name": "dbc6aa619d647601aae93c4e95b40807", "fusion_lon": 0.0, "bike_id": "dbc6aa619d647601aae93c4e95b40807", "is_disabled": 0, "is_reserved": 0}, {"rental_uris": {"ios": "https://dc.lft.to/lastmile_qr_scan", "android": "https://dc.lft.to/lastmile_qr_scan"}, "lon": -76.99461033333333, "type": "electric_scooter", "fusion_lat": 0.0, "lat": 38.851623833333335, "name": "7809d3601546aaed1bee5de268d80d89", "fusion_lon": 0.0, "bike_id": "7809d3601546aaed1bee5de268d80d89", "is_disabled": 0, "is_reserved": 0}, {"rental_uris": {"ios": "https://dc.lft.to/lastmile_qr_scan", "android": "https://dc.lft.to/lastmile_qr_scan"}, "lon": -77.03578483333334, "type": "electric_scooter", "fusion_lat": 0.0, "lat": 38.93973783333333, "name": "cfe5d3e8147f4d8d3a20e589b2d4046e", "fusion_lon": 0.0, "bike_id": "cfe5d3e8147f4d8d3a20e589b2d4046e", "is_disabled": 0, "is_reserved": 0}, {"rental_uris": {"ios": "https://dc.lft.to/lastmile_qr_scan", "android": "https://dc.lft.to/lastmile_qr_scan"}, "lon": -76.93158633333333, "type": "electric_scooter", "fusion_lat": 0.0, "lat": 38.898752333333334, "name": "227dbcc510cb55346682822bcea2426a", "fusion_lon": 0.0, "bike_id": "227dbcc510cb55346682822bcea2426a", "is_disabled": 0, "is_reserved": 0}, {"rental_uris": {"ios": "https://dc.lft.to/lastmile_qr_scan", "android": "https://dc.lft.to/lastmile_qr_scan"}, "lon": -77.04743866666666, "type": "electric_scooter", "fusion_lat": 0.0, "lat": 38.91766766666667, "name": "e9b73d00a3b3a3c7e7c79f93d7ce039b", "fusion_lon": 0.0, "bike_id": "e9b73d00a3b3a3c7e7c79f93d7ce039b", "is_disabled": 0, "is_reserved": 0}, {"rental_uris": {"ios": "https://dc.lft.to/lastmile_qr_scan", "android": "https://dc.lft.to/lastmile_qr_scan"}, "lon": -77.03175916666666, "type": "electric_scooter", "fusion_lat": 0.0, "lat": 38.91924316666667, "name": "819ea17dac9149befc9a6f663721d5af", "fusion_lon": 0.0, "bike_id": "819ea17dac9149befc9a6f663721d5af", "is_disabled": 0, "is_reserved": 0}, {"rental_uris": {"ios": "https://dc.lft.to/lastmile_qr_scan", "android": "https://dc.lft.to/lastmile_qr_scan"}, "lon": -76.931785, "type": "electric_scooter", "fusion_lat": 0.0, "lat": 38.89885683333333, "name": "5c00c7572b5d2bce542b52e7a1d7e05e", "fusion_lon": 0.0, "bike_id": "5c00c7572b5d2bce542b52e7a1d7e05e", "is_disabled": 0, "is_reserved": 0}, {"rental_uris": {"ios": "https://dc.lft.to/lastmile_qr_scan", "android": "https://dc.lft.to/lastmile_qr_scan"}, "lon": -76.99486466666667, "type": "electric_scooter", "fusion_lat": 0.0, "lat": 38.8623525, "name": "b4154e12998d9f6641e787dd7a2480e9", "fusion_lon": 0.0, "bike_id": "b4154e12998d9f6641e787dd7a2480e9", "is_disabled": 0, "is_reserved": 0}, {"rental_uris": {"ios": "https://dc.lft.to/lastmile_qr_scan", "android": "https://dc.lft.to/lastmile_qr_scan"}, "lon": -76.9980345, "type": "electric_scooter", "fusion_lat": 0.0, "lat": 38.90002833333333, "name": "e8bb533e4bc07092624ee503e28d5f53", "fusion_lon": 0.0, "bike_id": "e8bb533e4bc07092624ee503e28d5f53", "is_disabled": 0, "is_reserved": 0}, {"rental_uris": {"ios": "https://dc.lft.to/lastmile_qr_scan", "android": "https://dc.lft.to/lastmile_qr_scan"}, "lon": -77.35312416666666, "type": "electric_bike", "fusion_lat": 0.0, "lat": 38.950031333333335, "name": "5139c5f9a76120533dc3227b6b84e428", "fusion_lon": 0.0, "bike_id": "5139c5f9a76120533dc3227b6b84e428", "is_disabled": 0, "is_reserved": 0}, {"rental_uris": {"ios": "https://dc.lft.to/lastmile_qr_scan", "android": "https://dc.lft.to/lastmile_qr_scan"}, "lon": -77.02844433333334, "type": "electric_scooter", "fusion_lat": 0.0, "lat": 38.9426355, "name": "c083f241a1f9ab840cfbd2117db396b7", "fusion_lon": 0.0, "bike_id": "c083f241a1f9ab840cfbd2117db396b7", "is_disabled": 0, "is_reserved": 0}, {"rental_uris": {"ios": "https://dc.lft.to/lastmile_qr_scan", "android": "https://dc.lft.to/lastmile_qr_scan"}, "lon": -77.00726583333334, "type": "electric_scooter", "fusion_lat": 0.0, "lat": 38.884910833333336, "name": "ed1f6d27f7ba628a60679a6fec78626a", "fusion_lon": 0.0, "bike_id": "ed1f6d27f7ba628a60679a6fec78626a", "is_disabled": 0, "is_reserved": 0}, {"rental_uris": {"ios": "https://dc.lft.to/lastmile_qr_scan", "android": "https://dc.lft.to/lastmile_qr_scan"}, "lon": -77.03310416666666, "type": "electric_scooter", "fusion_lat": 0.0, "lat": 38.90140483333333, "name": "6e598c187e59c298a97f7a4f72ef3dff", "fusion_lon": 0.0, "bike_id": "6e598c187e59c298a97f7a4f72ef3dff", "is_disabled": 0, "is_reserved": 0}, {"rental_uris": {"ios": "https://dc.lft.to/lastmile_qr_scan", "android": "https://dc.lft.to/lastmile_qr_scan"}, "lon": -77.025499, "type": "electric_scooter", "fusion_lat": 0.0, "lat": 38.892251333333334, "name": "40500e96919ef3c03a95c46470ac5516", "fusion_lon": 0.0, "bike_id": "40500e96919ef3c03a95c46470ac5516", "is_disabled": 0, "is_reserved": 0}, {"rental_uris": {"ios": "https://dc.lft.to/lastmile_qr_scan", "android": "https://dc.lft.to/lastmile_qr_scan"}, "lon": -77.057479, "type": "electric_scooter", "fusion_lat": 0.0, "lat": 38.935355, "name": "cb6b9dd7bb4a8b6bca56d9fdd076d325", "fusion_lon": 0.0, "bike_id": "cb6b9dd7bb4a8b6bca56d9fdd076d325", "is_disabled": 0, "is_reserved": 0}, {"rental_uris": {"ios": "https://dc.lft.to/lastmile_qr_scan", "android": "https://dc.lft.to/lastmile_qr_scan"}, "lon": -77.0885075, "type": "electric_bike", "fusion_lat": 0.0, "lat": 38.84088933333334, "name": "b321018263d4c3764934136e829ccede", "fusion_lon": 0.0, "bike_id": "b321018263d4c3764934136e829ccede", "is_disabled": 0, "is_reserved": 0}, {"rental_uris": {"ios": "https://dc.lft.to/lastmile_qr_scan", "android": "https://dc.lft.to/lastmile_qr_scan"}, "lon": -77.07556, "type": "electric_bike", "fusion_lat": 0.0, "lat": 38.91048766666667, "name": "05b18535263a7eb65feeca10c767366d", "fusion_lon": 0.0, "bike_id": "05b18535263a7eb65feeca10c767366d", "is_disabled": 0, "is_reserved": 0}, {"rental_uris": {"ios": "https://dc.lft.to/lastmile_qr_scan", "android": "https://dc.lft.to/lastmile_qr_scan"}, "lon": -77.017033, "type": "electric_scooter", "fusion_lat": 0.0, "lat": 38.879218, "name": "00125a2ac5af249a8620f05639e89fa8", "fusion_lon": 0.0, "bike_id": "00125a2ac5af249a8620f05639e89fa8", "is_disabled": 0, "is_reserved": 0}, {"rental_uris": {"ios": "https://dc.lft.to/lastmile_qr_scan", "android": "https://dc.lft.to/lastmile_qr_scan"}, "lon": -77.0005225, "type": "electric_scooter", "fusion_lat": 0.0, "lat": 38.888995666666666, "name": "56c3d032e42646078864375987e01dfd", "fusion_lon": 0.0, "bike_id": "56c3d032e42646078864375987e01dfd", "is_disabled": 0, "is_reserved": 0}, {"rental_uris": {"ios": "https://dc.lft.to/lastmile_qr_scan", "android": "https://dc.lft.to/lastmile_qr_scan"}, "lon": -77.01842833333333, "type": "electric_scooter", "fusion_lat": 0.0, "lat": 38.9093965, "name": "c572af56edec88a4629a816c7504ba03", "fusion_lon": 0.0, "bike_id": "c572af56edec88a4629a816c7504ba03", "is_disabled": 0, "is_reserved": 0}, {"rental_uris": {"ios": "https://dc.lft.to/lastmile_qr_scan", "android": "https://dc.lft.to/lastmile_qr_scan"}, "lon": -77.01108416666666, "type": "electric_scooter", "fusion_lat": 0.0, "lat": 38.90368216666667, "name": "624445e9fd54b078515b7ad7e838f456", "fusion_lon": 0.0, "bike_id": "624445e9fd54b078515b7ad7e838f456", "is_disabled": 0, "is_reserved": 0}, {"rental_uris": {"ios": "https://dc.lft.to/lastmile_qr_scan", "android": "https://dc.lft.to/lastmile_qr_scan"}, "lon": -77.022174, "type": "electric_scooter", "fusion_lat": 0.0, "lat": 38.891948166666666, "name": "d022a546dfe15a3735e780b371ef68d8", "fusion_lon": 0.0, "bike_id": "d022a546dfe15a3735e780b371ef68d8", "is_disabled": 0, "is_reserved": 0}, {"rental_uris": {"ios": "https://dc.lft.to/lastmile_qr_scan", "android": "https://dc.lft.to/lastmile_qr_scan"}, "lon": -77.01833, "type": "electric_scooter", "fusion_lat": 0.0, "lat": 38.9125615, "name": "8570c4928978c7541e78c6b16bcd3bcf", "fusion_lon": 0.0, "bike_id": "8570c4928978c7541e78c6b16bcd3bcf", "is_disabled": 0, "is_reserved": 0}, {"rental_uris": {"ios": "https://dc.lft.to/lastmile_qr_scan", "android": "https://dc.lft.to/lastmile_qr_scan"}, "lon": -77.02406833333333, "type": "electric_scooter", "fusion_lat": 0.0, "lat": 38.91107016666667, "name": "3496b92f9d9de134970a5203daebcf8d", "fusion_lon": 0.0, "bike_id": "3496b92f9d9de134970a5203daebcf8d", "is_disabled": 0, "is_reserved": 0}, {"rental_uris": {"ios": "https://dc.lft.to/lastmile_qr_scan", "android": "https://dc.lft.to/lastmile_qr_scan"}, "lon": -77.03187533333333, "type": "electric_scooter", "fusion_lat": 0.0, "lat": 38.917619333333334, "name": "c0a5d4f7801d03456c8da904f721852c", "fusion_lon": 0.0, "bike_id": "c0a5d4f7801d03456c8da904f721852c", "is_disabled": 0, "is_reserved": 0}, {"rental_uris": {"ios": "https://dc.lft.to/lastmile_qr_scan", "android": "https://dc.lft.to/lastmile_qr_scan"}, "lon": -77.045508, "type": "electric_scooter", "fusion_lat": 0.0, "lat": 38.91793833333333, "name": "e81b7d46b228fce75b97fe9befe8340f", "fusion_lon": 0.0, "bike_id": "e81b7d46b228fce75b97fe9befe8340f", "is_disabled": 0, "is_reserved": 0}, {"rental_uris": {"ios": "https://dc.lft.to/lastmile_qr_scan", "android": "https://dc.lft.to/lastmile_qr_scan"}, "lon": -77.01712283333333, "type": "electric_scooter", "fusion_lat": 0.0, "lat": 38.9202965, "name": "d2df7b36b0d4bd779911b8ea62abb607", "fusion_lon": 0.0, "bike_id": "d2df7b36b0d4bd779911b8ea62abb607", "is_disabled": 0, "is_reserved": 0}, {"rental_uris": {"ios": "https://dc.lft.to/lastmile_qr_scan", "android": "https://dc.lft.to/lastmile_qr_scan"}, "lon": -77.0387285, "type": "electric_scooter", "fusion_lat": 0.0, "lat": 38.9156085, "name": "99e6b449ab9435e9c74d07037b7d116d", "fusion_lon": 0.0, "bike_id": "99e6b449ab9435e9c74d07037b7d116d", "is_disabled": 0, "is_reserved": 0}, {"rental_uris": {"ios": "https://dc.lft.to/lastmile_qr_scan", "android": "https://dc.lft.to/lastmile_qr_scan"}, "lon": -77.01320816666667, "type": "electric_scooter", "fusion_lat": 0.0, "lat": 38.900430666666665, "name": "cec5a97c50414a09fd914ccc95e5cc94", "fusion_lon": 0.0, "bike_id": "cec5a97c50414a09fd914ccc95e5cc94", "is_disabled": 0, "is_reserved": 0}, {"rental_uris": {"ios": "https://dc.lft.to/lastmile_qr_scan", "android": "https://dc.lft.to/lastmile_qr_scan"}, "lon": -77.02835683333333, "type": "electric_scooter", "fusion_lat": 0.0, "lat": 38.88770066666667, "name": "b6870561f3ede324143e5570f28ddaa8", "fusion_lon": 0.0, "bike_id": "b6870561f3ede324143e5570f28ddaa8", "is_disabled": 0, "is_reserved": 0}, {"rental_uris": {"ios": "https://dc.lft.to/lastmile_qr_scan", "android": "https://dc.lft.to/lastmile_qr_scan"}, "lon": -76.999343, "type": "electric_scooter", "fusion_lat": 0.0, "lat": 38.896194, "name": "45caa74eaccf487daacec2159b630a65", "fusion_lon": 0.0, "bike_id": "45caa74eaccf487daacec2159b630a65", "is_disabled": 0, "is_reserved": 0}, {"rental_uris": {"ios": "https://dc.lft.to/lastmile_qr_scan", "android": "https://dc.lft.to/lastmile_qr_scan"}, "lon": -77.0368695, "type": "electric_scooter", "fusion_lat": 0.0, "lat": 38.92264433333333, "name": "847e375da8023c8e4e403f6509feadeb", "fusion_lon": 0.0, "bike_id": "847e375da8023c8e4e403f6509feadeb", "is_disabled": 0, "is_reserved": 0}, {"rental_uris": {"ios": "https://dc.lft.to/lastmile_qr_scan", "android": "https://dc.lft.to/lastmile_qr_scan"}, "lon": -77.03827, "type": "electric_scooter", "fusion_lat": 0.0, "lat": 38.90775083333333, "name": "f37a27a10bb0fb908aad95164915eb90", "fusion_lon": 0.0, "bike_id": "f37a27a10bb0fb908aad95164915eb90", "is_disabled": 0, "is_reserved": 0}, {"rental_uris": {"ios": "https://dc.lft.to/lastmile_qr_scan", "android": "https://dc.lft.to/lastmile_qr_scan"}, "lon": -77.02219783333334, "type": "electric_scooter", "fusion_lat": 0.0, "lat": 38.893474166666664, "name": "b789024a688defe0ded39b162c02119e", "fusion_lon": 0.0, "bike_id": "b789024a688defe0ded39b162c02119e", "is_disabled": 0, "is_reserved": 0}, {"rental_uris": {"ios": "https://dc.lft.to/lastmile_qr_scan", "android": "https://dc.lft.to/lastmile_qr_scan"}, "lon": -76.99903583333334, "type": "electric_scooter", "fusion_lat": 0.0, "lat": 38.909389833333336, "name": "ce5afbfe38ae5e4a4e6ad1eb689629d0", "fusion_lon": 0.0, "bike_id": "ce5afbfe38ae5e4a4e6ad1eb689629d0", "is_disabled": 0, "is_reserved": 0}, {"rental_uris": {"ios": "https://dc.lft.to/lastmile_qr_scan", "android": "https://dc.lft.to/lastmile_qr_scan"}, "lon": -77.0517695, "type": "electric_scooter", "fusion_lat": 0.0, "lat": 38.9241405, "name": "c064cb9c5d93d175d123b5b329221bed", "fusion_lon": 0.0, "bike_id": "c064cb9c5d93d175d123b5b329221bed", "is_disabled": 0, "is_reserved": 0}, {"rental_uris": {"ios": "https://dc.lft.to/lastmile_qr_scan", "android": "https://dc.lft.to/lastmile_qr_scan"}, "lon": -77.02816933333334, "type": "electric_scooter", "fusion_lat": 0.0, "lat": 38.90931283333333, "name": "91a30de2018b8d17c26a0c6c0a5b0a7c", "fusion_lon": 0.0, "bike_id": "91a30de2018b8d17c26a0c6c0a5b0a7c", "is_disabled": 0, "is_reserved": 0}, {"rental_uris": {"ios": "https://dc.lft.to/lastmile_qr_scan", "android": "https://dc.lft.to/lastmile_qr_scan"}, "lon": -76.96885266666666, "type": "electric_bike", "fusion_lat": 0.0, "lat": 38.84594966666667, "name": "1808bae8abfb1cd60a227d734a9560a5", "fusion_lon": 0.0, "bike_id": "1808bae8abfb1cd60a227d734a9560a5", "is_disabled": 0, "is_reserved": 0}, {"rental_uris": {"ios": "https://dc.lft.to/lastmile_qr_scan", "android": "https://dc.lft.to/lastmile_qr_scan"}, "lon": -77.027497, "type": "electric_scooter", "fusion_lat": 0.0, "lat": 38.966275333333336, "name": "acdfe72a8c4f4d1f5b1e3f89060c7090", "fusion_lon": 0.0, "bike_id": "acdfe72a8c4f4d1f5b1e3f89060c7090", "is_disabled": 0, "is_reserved": 0}, {"rental_uris": {"ios": "https://dc.lft.to/lastmile_qr_scan", "android": "https://dc.lft.to/lastmile_qr_scan"}, "lon": -76.970135, "type": "electric_bike", "fusion_lat": 0.0, "lat": 38.86369533333333, "name": "44ad9f02ceee611fe479635497937484", "fusion_lon": 0.0, "bike_id": "44ad9f02ceee611fe479635497937484", "is_disabled": 0, "is_reserved": 0}, {"rental_uris": {"ios": "https://dc.lft.to/lastmile_qr_scan", "android": "https://dc.lft.to/lastmile_qr_scan"}, "lon": -77.00753433333334, "type": "electric_scooter", "fusion_lat": 0.0, "lat": 38.87645533333333, "name": "3b4b1c96fc1efe8b20b21998644383e8", "fusion_lon": 0.0, "bike_id": "3b4b1c96fc1efe8b20b21998644383e8", "is_disabled": 0, "is_reserved": 0}, {"rental_uris": {"ios": "https://dc.lft.to/lastmile_qr_scan", "android": "https://dc.lft.to/lastmile_qr_scan"}, "lon": -76.98498633333334, "type": "electric_scooter", "fusion_lat": 0.0, "lat": 38.86042666666667, "name": "34563ed13a89e65a36a4f8e8e6ac7d4d", "fusion_lon": 0.0, "bike_id": "34563ed13a89e65a36a4f8e8e6ac7d4d", "is_disabled": 0, "is_reserved": 0}, {"rental_uris": {"ios": "https://dc.lft.to/lastmile_qr_scan", "android": "https://dc.lft.to/lastmile_qr_scan"}, "lon": -76.99531533333334, "type": "electric_scooter", "fusion_lat": 0.0, "lat": 38.926714833333335, "name": "5e04d3fb735becec810538a8095ccc2a", "fusion_lon": 0.0, "bike_id": "5e04d3fb735becec810538a8095ccc2a", "is_disabled": 0, "is_reserved": 0}, {"rental_uris": {"ios": "https://dc.lft.to/lastmile_qr_scan", "android": "https://dc.lft.to/lastmile_qr_scan"}, "lon": -76.99514533333334, "type": "electric_scooter", "fusion_lat": 0.0, "lat": 38.844717333333335, "name": "a02a42d3a0ce2616e94efa93cc00ff20", "fusion_lon": 0.0, "bike_id": "a02a42d3a0ce2616e94efa93cc00ff20", "is_disabled": 0, "is_reserved": 0}, {"rental_uris": {"ios": "https://dc.lft.to/lastmile_qr_scan", "android": "https://dc.lft.to/lastmile_qr_scan"}, "lon": -77.030141, "type": "electric_scooter", "fusion_lat": 0.0, "lat": 38.919187, "name": "912e3b7dfd0b2025455f1964b2736124", "fusion_lon": 0.0, "bike_id": "912e3b7dfd0b2025455f1964b2736124", "is_disabled": 0, "is_reserved": 0}, {"rental_uris": {"ios": "https://dc.lft.to/lastmile_qr_scan", "android": "https://dc.lft.to/lastmile_qr_scan"}, "lon": -77.0293035, "type": "electric_scooter", "fusion_lat": 0.0, "lat": 38.89986283333333, "name": "cacb6c9b77400a5c85e7556bf5159fe6", "fusion_lon": 0.0, "bike_id": "cacb6c9b77400a5c85e7556bf5159fe6", "is_disabled": 0, "is_reserved": 0}, {"rental_uris": {"ios": "https://dc.lft.to/lastmile_qr_scan", "android": "https://dc.lft.to/lastmile_qr_scan"}, "lon": -77.03309, "type": "electric_scooter", "fusion_lat": 0.0, "lat": 38.90140383333333, "name": "18410ef692b5929a370878e19676117f", "fusion_lon": 0.0, "bike_id": "18410ef692b5929a370878e19676117f", "is_disabled": 0, "is_reserved": 0}, {"rental_uris": {"ios": "https://dc.lft.to/lastmile_qr_scan", "android": "https://dc.lft.to/lastmile_qr_scan"}, "lon": -77.0320335, "type": "electric_scooter", "fusion_lat": 0.0, "lat": 38.893348, "name": "8d89476f7a5e0806eaeb0a34274cc350", "fusion_lon": 0.0, "bike_id": "8d89476f7a5e0806eaeb0a34274cc350", "is_disabled": 0, "is_reserved": 0}, {"rental_uris": {"ios": "https://dc.lft.to/lastmile_qr_scan", "android": "https://dc.lft.to/lastmile_qr_scan"}, "lon": -76.9884525, "type": "electric_bike", "fusion_lat": 0.0, "lat": 38.8427175, "name": "9aae6e6f93839d7ffed72d14fdd21558", "fusion_lon": 0.0, "bike_id": "9aae6e6f93839d7ffed72d14fdd21558", "is_disabled": 0, "is_reserved": 0}, {"rental_uris": {"ios": "https://dc.lft.to/lastmile_qr_scan", "android": "https://dc.lft.to/lastmile_qr_scan"}, "lon": -77.0321725, "type": "electric_scooter", "fusion_lat": 0.0, "lat": 38.91554983333333, "name": "d7f84ec82e68ad73155ee643d70e48c3", "fusion_lon": 0.0, "bike_id": "d7f84ec82e68ad73155ee643d70e48c3", "is_disabled": 0, "is_reserved": 0}, {"rental_uris": {"ios": "https://dc.lft.to/lastmile_qr_scan", "android": "https://dc.lft.to/lastmile_qr_scan"}, "lon": -77.0245835, "type": "electric_scooter", "fusion_lat": 0.0, "lat": 38.918346166666666, "name": "0f17990eca7b50f455c55e2a08a7835f", "fusion_lon": 0.0, "bike_id": "0f17990eca7b50f455c55e2a08a7835f", "is_disabled": 0, "is_reserved": 0}, {"rental_uris": {"ios": "https://dc.lft.to/lastmile_qr_scan", "android": "https://dc.lft.to/lastmile_qr_scan"}, "lon": -77.03652116666666, "type": "electric_scooter", "fusion_lat": 0.0, "lat": 38.90286, "name": "b47f12f18170ca0ec3eb938e110c5595", "fusion_lon": 0.0, "bike_id": "b47f12f18170ca0ec3eb938e110c5595", "is_disabled": 0, "is_reserved": 0}, {"rental_uris": {"ios": "https://dc.lft.to/lastmile_qr_scan", "android": "https://dc.lft.to/lastmile_qr_scan"}, "lon": -76.97602, "type": "electric_scooter", "fusion_lat": 0.0, "lat": 38.9020675, "name": "adb499610d9045f0b675a8fc8012a264", "fusion_lon": 0.0, "bike_id": "adb499610d9045f0b675a8fc8012a264", "is_disabled": 0, "is_reserved": 0}, {"rental_uris": {"ios": "https://dc.lft.to/lastmile_qr_scan", "android": "https://dc.lft.to/lastmile_qr_scan"}, "lon": -77.12984433333334, "type": "electric_bike", "fusion_lat": 0.0, "lat": 38.79985716666667, "name": "3c98e081177a8e6ff78903984ea63ad4", "fusion_lon": 0.0, "bike_id": "3c98e081177a8e6ff78903984ea63ad4", "is_disabled": 0, "is_reserved": 0}, {"rental_uris": {"ios": "https://dc.lft.to/lastmile_qr_scan", "android": "https://dc.lft.to/lastmile_qr_scan"}, "lon": -77.050234, "type": "electric_scooter", "fusion_lat": 0.0, "lat": 38.92355833333333, "name": "82204036dbb6e6d4b1358f4ffed5c8bd", "fusion_lon": 0.0, "bike_id": "82204036dbb6e6d4b1358f4ffed5c8bd", "is_disabled": 0, "is_reserved": 0}, {"rental_uris": {"ios": "https://dc.lft.to/lastmile_qr_scan", "android": "https://dc.lft.to/lastmile_qr_scan"}, "lon": -77.05771466666667, "type": "electric_bike", "fusion_lat": 0.0, "lat": 38.924892666666665, "name": "fc82c43655d59efbe3be5dc00fd84a4b", "fusion_lon": 0.0, "bike_id": "fc82c43655d59efbe3be5dc00fd84a4b", "is_disabled": 0, "is_reserved": 0}, {"rental_uris": {"ios": "https://dc.lft.to/lastmile_qr_scan", "android": "https://dc.lft.to/lastmile_qr_scan"}, "lon": -77.02382566666667, "type": "electric_bike", "fusion_lat": 0.0, "lat": 38.994375833333336, "name": "b5022ae1d58a975b3aee855dd8792b88", "fusion_lon": 0.0, "bike_id": "b5022ae1d58a975b3aee855dd8792b88", "is_disabled": 0, "is_reserved": 0}, {"rental_uris": {"ios": "https://dc.lft.to/lastmile_qr_scan", "android": "https://dc.lft.to/lastmile_qr_scan"}, "lon": -77.017522, "type": "electric_scooter", "fusion_lat": 0.0, "lat": 38.877146, "name": "b2810c9f9ac883ef31156317cb56467d", "fusion_lon": 0.0, "bike_id": "b2810c9f9ac883ef31156317cb56467d", "is_disabled": 0, "is_reserved": 0}, {"rental_uris": {"ios": "https://dc.lft.to/lastmile_qr_scan", "android": "https://dc.lft.to/lastmile_qr_scan"}, "lon": -77.07045266666667, "type": "electric_bike", "fusion_lat": 0.0, "lat": 38.82446216666666, "name": "610094663a4cd2bfa5af9203fce46587", "fusion_lon": 0.0, "bike_id": "610094663a4cd2bfa5af9203fce46587", "is_disabled": 0, "is_reserved": 0}, {"rental_uris": {"ios": "https://dc.lft.to/lastmile_qr_scan", "android": "https://dc.lft.to/lastmile_qr_scan"}, "lon": -77.0295115, "type": "electric_scooter", "fusion_lat": 0.0, "lat": 38.905034, "name": "0d5cfdac9d0658eeaab6b3a2462f4d89", "fusion_lon": 0.0, "bike_id": "0d5cfdac9d0658eeaab6b3a2462f4d89", "is_disabled": 0, "is_reserved": 0}, {"rental_uris": {"ios": "https://dc.lft.to/lastmile_qr_scan", "android": "https://dc.lft.to/lastmile_qr_scan"}, "lon": -77.03110366666667, "type": "electric_scooter", "fusion_lat": 0.0, "lat": 38.911807, "name": "d3f87df19e1bc3a5ff7f02875d027294", "fusion_lon": 0.0, "bike_id": "d3f87df19e1bc3a5ff7f02875d027294", "is_disabled": 0, "is_reserved": 0}, {"rental_uris": {"ios": "https://dc.lft.to/lastmile_qr_scan", "android": "https://dc.lft.to/lastmile_qr_scan"}, "lon": -77.03211283333333, "type": "electric_scooter", "fusion_lat": 0.0, "lat": 38.91730533333333, "name": "a1ab09c11f7622b1909f757b9bf653a8", "fusion_lon": 0.0, "bike_id": "a1ab09c11f7622b1909f757b9bf653a8", "is_disabled": 0, "is_reserved": 0}, {"rental_uris": {"ios": "https://dc.lft.to/lastmile_qr_scan", "android": "https://dc.lft.to/lastmile_qr_scan"}, "lon": -77.0688895, "type": "electric_scooter", "fusion_lat": 0.0, "lat": 38.940263333333334, "name": "72755c2dbc4580efd338a1a5523f5c59", "fusion_lon": 0.0, "bike_id": "72755c2dbc4580efd338a1a5523f5c59", "is_disabled": 0, "is_reserved": 0}, {"rental_uris": {"ios": "https://dc.lft.to/lastmile_qr_scan", "android": "https://dc.lft.to/lastmile_qr_scan"}, "lon": -77.12814316666666, "type": "electric_bike", "fusion_lat": 0.0, "lat": 38.86526883333333, "name": "4b5d89947342397c2e0339ecbe2b51a2", "fusion_lon": 0.0, "bike_id": "4b5d89947342397c2e0339ecbe2b51a2", "is_disabled": 0, "is_reserved": 0}, {"rental_uris": {"ios": "https://dc.lft.to/lastmile_qr_scan", "android": "https://dc.lft.to/lastmile_qr_scan"}, "lon": -77.0221965, "type": "electric_scooter", "fusion_lat": 0.0, "lat": 38.89353583333333, "name": "2434dd90896c42a2ff0210030dc15d63", "fusion_lon": 0.0, "bike_id": "2434dd90896c42a2ff0210030dc15d63", "is_disabled": 0, "is_reserved": 0}, {"rental_uris": {"ios": "https://dc.lft.to/lastmile_qr_scan", "android": "https://dc.lft.to/lastmile_qr_scan"}, "lon": -77.06397333333334, "type": "electric_scooter", "fusion_lat": 0.0, "lat": 38.929037666666666, "name": "3377588c78de97a3faacc29c80a31378", "fusion_lon": 0.0, "bike_id": "3377588c78de97a3faacc29c80a31378", "is_disabled": 0, "is_reserved": 0}, {"rental_uris": {"ios": "https://dc.lft.to/lastmile_qr_scan", "android": "https://dc.lft.to/lastmile_qr_scan"}, "lon": -76.91602966666666, "type": "electric_bike", "fusion_lat": 0.0, "lat": 38.879829, "name": "3b1464e85ed0ba384aa245fe333aed97", "fusion_lon": 0.0, "bike_id": "3b1464e85ed0ba384aa245fe333aed97", "is_disabled": 0, "is_reserved": 0}, {"rental_uris": {"ios": "https://dc.lft.to/lastmile_qr_scan", "android": "https://dc.lft.to/lastmile_qr_scan"}, "lon": -77.0397055, "type": "electric_scooter", "fusion_lat": 0.0, "lat": 38.902758666666664, "name": "1d7579c75a25c4be25fa4945bf6a30dd", "fusion_lon": 0.0, "bike_id": "1d7579c75a25c4be25fa4945bf6a30dd", "is_disabled": 0, "is_reserved": 0}, {"rental_uris": {"ios": "https://dc.lft.to/lastmile_qr_scan", "android": "https://dc.lft.to/lastmile_qr_scan"}, "lon": -77.02001766666666, "type": "electric_scooter", "fusion_lat": 0.0, "lat": 38.8924815, "name": "46c92e6fdfdc3a995e551427ec5ff6b3", "fusion_lon": 0.0, "bike_id": "46c92e6fdfdc3a995e551427ec5ff6b3", "is_disabled": 0, "is_reserved": 0}, {"rental_uris": {"ios": "https://dc.lft.to/lastmile_qr_scan", "android": "https://dc.lft.to/lastmile_qr_scan"}, "lon": -77.03121666666667, "type": "electric_scooter", "fusion_lat": 0.0, "lat": 38.911123, "name": "08d966fed8cead3e44523f642f562051", "fusion_lon": 0.0, "bike_id": "08d966fed8cead3e44523f642f562051", "is_disabled": 0, "is_reserved": 0}, {"rental_uris": {"ios": "https://dc.lft.to/lastmile_qr_scan", "android": "https://dc.lft.to/lastmile_qr_scan"}, "lon": -77.01820833333333, "type": "electric_scooter", "fusion_lat": 0.0, "lat": 38.9081125, "name": "09979e1ce14f17f040cde916163faa6c", "fusion_lon": 0.0, "bike_id": "09979e1ce14f17f040cde916163faa6c", "is_disabled": 0, "is_reserved": 0}, {"rental_uris": {"ios": "https://dc.lft.to/lastmile_qr_scan", "android": "https://dc.lft.to/lastmile_qr_scan"}, "lon": -77.023158, "type": "electric_scooter", "fusion_lat": 0.0, "lat": 38.88733283333333, "name": "037b657b40316ad2ca25a2cfcc92c50b", "fusion_lon": 0.0, "bike_id": "037b657b40316ad2ca25a2cfcc92c50b", "is_disabled": 0, "is_reserved": 0}, {"rental_uris": {"ios": "https://dc.lft.to/lastmile_qr_scan", "android": "https://dc.lft.to/lastmile_qr_scan"}, "lon": -76.976099, "type": "electric_bike", "fusion_lat": 0.0, "lat": 38.9131175, "name": "d955095c8be9ed7ba7f1d79b8f67000f", "fusion_lon": 0.0, "bike_id": "d955095c8be9ed7ba7f1d79b8f67000f", "is_disabled": 0, "is_reserved": 0}, {"rental_uris": {"ios": "https://dc.lft.to/lastmile_qr_scan", "android": "https://dc.lft.to/lastmile_qr_scan"}, "lon": -77.05014916666667, "type": "electric_scooter", "fusion_lat": 0.0, "lat": 38.9008225, "name": "853f5caf70831b3d2130729cdb013e7d", "fusion_lon": 0.0, "bike_id": "853f5caf70831b3d2130729cdb013e7d", "is_disabled": 0, "is_reserved": 0}, {"rental_uris": {"ios": "https://dc.lft.to/lastmile_qr_scan", "android": "https://dc.lft.to/lastmile_qr_scan"}, "lon": -77.0439065, "type": "electric_scooter", "fusion_lat": 0.0, "lat": 38.92273683333333, "name": "9730139b694443a5d1c19724331b5a5b", "fusion_lon": 0.0, "bike_id": "9730139b694443a5d1c19724331b5a5b", "is_disabled": 0, "is_reserved": 0}, {"rental_uris": {"ios": "https://dc.lft.to/lastmile_qr_scan", "android": "https://dc.lft.to/lastmile_qr_scan"}, "lon": -76.99031616666667, "type": "electric_scooter", "fusion_lat": 0.0, "lat": 38.858717166666665, "name": "7d5348e85c40221132e8c2289c163ffa", "fusion_lon": 0.0, "bike_id": "7d5348e85c40221132e8c2289c163ffa", "is_disabled": 0, "is_reserved": 0}, {"rental_uris": {"ios": "https://dc.lft.to/lastmile_qr_scan", "android": "https://dc.lft.to/lastmile_qr_scan"}, "lon": -77.01519466666667, "type": "electric_scooter", "fusion_lat": 0.0, "lat": 38.9187185, "name": "e954fde1b5890e828c8f799a0452160f", "fusion_lon": 0.0, "bike_id": "e954fde1b5890e828c8f799a0452160f", "is_disabled": 0, "is_reserved": 0}, {"rental_uris": {"ios": "https://dc.lft.to/lastmile_qr_scan", "android": "https://dc.lft.to/lastmile_qr_scan"}, "lon": -76.97190916666666, "type": "electric_scooter", "fusion_lat": 0.0, "lat": 38.912657833333334, "name": "88db9a4343a0429cb721bdc6bde51e57", "fusion_lon": 0.0, "bike_id": "88db9a4343a0429cb721bdc6bde51e57", "is_disabled": 0, "is_reserved": 0}, {"rental_uris": {"ios": "https://dc.lft.to/lastmile_qr_scan", "android": "https://dc.lft.to/lastmile_qr_scan"}, "lon": -77.0669635, "type": "electric_scooter", "fusion_lat": 0.0, "lat": 38.90974533333333, "name": "8fea9a508d36ff4e80e5005f0560158a", "fusion_lon": 0.0, "bike_id": "8fea9a508d36ff4e80e5005f0560158a", "is_disabled": 0, "is_reserved": 0}, {"rental_uris": {"ios": "https://dc.lft.to/lastmile_qr_scan", "android": "https://dc.lft.to/lastmile_qr_scan"}, "lon": -77.0736315, "type": "electric_scooter", "fusion_lat": 0.0, "lat": 38.9373035, "name": "1829b217b690a4a180e02af5b712fb2d", "fusion_lon": 0.0, "bike_id": "1829b217b690a4a180e02af5b712fb2d", "is_disabled": 0, "is_reserved": 0}, {"rental_uris": {"ios": "https://dc.lft.to/lastmile_qr_scan", "android": "https://dc.lft.to/lastmile_qr_scan"}, "lon": -77.02929416666667, "type": "electric_scooter", "fusion_lat": 0.0, "lat": 38.882190666666666, "name": "1977e5235f53b39687cec803a2958f14", "fusion_lon": 0.0, "bike_id": "1977e5235f53b39687cec803a2958f14", "is_disabled": 0, "is_reserved": 0}, {"rental_uris": {"ios": "https://dc.lft.to/lastmile_qr_scan", "android": "https://dc.lft.to/lastmile_qr_scan"}, "lon": -77.04221133333333, "type": "electric_scooter", "fusion_lat": 0.0, "lat": 38.911155, "name": "d2af4b12cf4f772164c0aaa10d1c45eb", "fusion_lon": 0.0, "bike_id": "d2af4b12cf4f772164c0aaa10d1c45eb", "is_disabled": 0, "is_reserved": 0}, {"rental_uris": {"ios": "https://dc.lft.to/lastmile_qr_scan", "android": "https://dc.lft.to/lastmile_qr_scan"}, "lon": -77.01868033333334, "type": "electric_scooter", "fusion_lat": 0.0, "lat": 38.94889516666667, "name": "48bc03a1428d9c30bab8d4bf06f4b8f0", "fusion_lon": 0.0, "bike_id": "48bc03a1428d9c30bab8d4bf06f4b8f0", "is_disabled": 0, "is_reserved": 0}, {"rental_uris": {"ios": "https://dc.lft.to/lastmile_qr_scan", "android": "https://dc.lft.to/lastmile_qr_scan"}, "lon": -77.05565866666667, "type": "electric_scooter", "fusion_lat": 0.0, "lat": 38.9000915, "name": "6e4b828270bacff270d1d2dc5469ef50", "fusion_lon": 0.0, "bike_id": "6e4b828270bacff270d1d2dc5469ef50", "is_disabled": 0, "is_reserved": 0}, {"rental_uris": {"ios": "https://dc.lft.to/lastmile_qr_scan", "android": "https://dc.lft.to/lastmile_qr_scan"}, "lon": -76.99338333333333, "type": "electric_bike", "fusion_lat": 0.0, "lat": 38.96195133333333, "name": "98f7ff818846bcc9456076d51f53f7d8", "fusion_lon": 0.0, "bike_id": "98f7ff818846bcc9456076d51f53f7d8", "is_disabled": 0, "is_reserved": 0}, {"rental_uris": {"ios": "https://dc.lft.to/lastmile_qr_scan", "android": "https://dc.lft.to/lastmile_qr_scan"}, "lon": -76.97634333333333, "type": "electric_scooter", "fusion_lat": 0.0, "lat": 38.905737, "name": "27e7a8d834fb646b01688a6235094740", "fusion_lon": 0.0, "bike_id": "27e7a8d834fb646b01688a6235094740", "is_disabled": 0, "is_reserved": 0}, {"rental_uris": {"ios": "https://dc.lft.to/lastmile_qr_scan", "android": "https://dc.lft.to/lastmile_qr_scan"}, "lon": -77.048141, "type": "electric_scooter", "fusion_lat": 0.0, "lat": 38.897497666666666, "name": "1b42fbfa91d7e2f6ffe8f8d675883400", "fusion_lon": 0.0, "bike_id": "1b42fbfa91d7e2f6ffe8f8d675883400", "is_disabled": 0, "is_reserved": 0}, {"rental_uris": {"ios": "https://dc.lft.to/lastmile_qr_scan", "android": "https://dc.lft.to/lastmile_qr_scan"}, "lon": -77.03187116666666, "type": "electric_scooter", "fusion_lat": 0.0, "lat": 38.908437, "name": "46e4c9c7ceaf974912f848fb6ddedc66", "fusion_lon": 0.0, "bike_id": "46e4c9c7ceaf974912f848fb6ddedc66", "is_disabled": 0, "is_reserved": 0}, {"rental_uris": {"ios": "https://dc.lft.to/lastmile_qr_scan", "android": "https://dc.lft.to/lastmile_qr_scan"}, "lon": -77.0664175, "type": "electric_scooter", "fusion_lat": 0.0, "lat": 38.9137815, "name": "5d9c2bc97d8f9da6fb259f439c0436d7", "fusion_lon": 0.0, "bike_id": "5d9c2bc97d8f9da6fb259f439c0436d7", "is_disabled": 0, "is_reserved": 0}, {"rental_uris": {"ios": "https://dc.lft.to/lastmile_qr_scan", "android": "https://dc.lft.to/lastmile_qr_scan"}, "lon": -77.04600216666667, "type": "electric_scooter", "fusion_lat": 0.0, "lat": 38.9026875, "name": "199d86a74e13173eca5147e500d9354c", "fusion_lon": 0.0, "bike_id": "199d86a74e13173eca5147e500d9354c", "is_disabled": 0, "is_reserved": 0}, {"rental_uris": {"ios": "https://dc.lft.to/lastmile_qr_scan", "android": "https://dc.lft.to/lastmile_qr_scan"}, "lon": -76.96527833333333, "type": "electric_scooter", "fusion_lat": 0.0, "lat": 38.87627633333334, "name": "6847ee6cdd03e147241a3ae312e9aa3f", "fusion_lon": 0.0, "bike_id": "6847ee6cdd03e147241a3ae312e9aa3f", "is_disabled": 0, "is_reserved": 0}, {"rental_uris": {"ios": "https://dc.lft.to/lastmile_qr_scan", "android": "https://dc.lft.to/lastmile_qr_scan"}, "lon": -77.01522233333333, "type": "electric_scooter", "fusion_lat": 0.0, "lat": 38.91608316666667, "name": "b4deb5853e54ceebb624f2b1b91cd9d4", "fusion_lon": 0.0, "bike_id": "b4deb5853e54ceebb624f2b1b91cd9d4", "is_disabled": 0, "is_reserved": 0}, {"rental_uris": {"ios": "https://dc.lft.to/lastmile_qr_scan", "android": "https://dc.lft.to/lastmile_qr_scan"}, "lon": -76.9893415, "type": "electric_bike", "fusion_lat": 0.0, "lat": 38.9285555, "name": "ea1ff320acef8cbd6fb055cf5130aa82", "fusion_lon": 0.0, "bike_id": "ea1ff320acef8cbd6fb055cf5130aa82", "is_disabled": 0, "is_reserved": 0}, {"rental_uris": {"ios": "https://dc.lft.to/lastmile_qr_scan", "android": "https://dc.lft.to/lastmile_qr_scan"}, "lon": -77.000716, "type": "electric_scooter", "fusion_lat": 0.0, "lat": 38.92552166666667, "name": "1fc46b09c79608d05c21084765cbd3b2", "fusion_lon": 0.0, "bike_id": "1fc46b09c79608d05c21084765cbd3b2", "is_disabled": 0, "is_reserved": 0}, {"rental_uris": {"ios": "https://dc.lft.to/lastmile_qr_scan", "android": "https://dc.lft.to/lastmile_qr_scan"}, "lon": -77.04825516666666, "type": "electric_scooter", "fusion_lat": 0.0, "lat": 38.920349333333334, "name": "2c475b4159c3e68404c1283c31b23130", "fusion_lon": 0.0, "bike_id": "2c475b4159c3e68404c1283c31b23130", "is_disabled": 0, "is_reserved": 0}, {"rental_uris": {"ios": "https://dc.lft.to/lastmile_qr_scan", "android": "https://dc.lft.to/lastmile_qr_scan"}, "lon": -77.02700583333333, "type": "electric_scooter", "fusion_lat": 0.0, "lat": 38.905804333333336, "name": "91868719333163bfb2e29cbb9a7db6bf", "fusion_lon": 0.0, "bike_id": "91868719333163bfb2e29cbb9a7db6bf", "is_disabled": 0, "is_reserved": 0}, {"rental_uris": {"ios": "https://dc.lft.to/lastmile_qr_scan", "android": "https://dc.lft.to/lastmile_qr_scan"}, "lon": -76.9466595, "type": "electric_scooter", "fusion_lat": 0.0, "lat": 38.89866766666667, "name": "f8526ca6d9a42235f4050a47185ae5e2", "fusion_lon": 0.0, "bike_id": "f8526ca6d9a42235f4050a47185ae5e2", "is_disabled": 0, "is_reserved": 0}, {"rental_uris": {"ios": "https://dc.lft.to/lastmile_qr_scan", "android": "https://dc.lft.to/lastmile_qr_scan"}, "lon": -76.99819366666667, "type": "electric_bike", "fusion_lat": 0.0, "lat": 38.84432366666667, "name": "c878026f4a6a9344e052ac3115742b94", "fusion_lon": 0.0, "bike_id": "c878026f4a6a9344e052ac3115742b94", "is_disabled": 0, "is_reserved": 0}, {"rental_uris": {"ios": "https://dc.lft.to/lastmile_qr_scan", "android": "https://dc.lft.to/lastmile_qr_scan"}, "lon": -77.01190116666666, "type": "electric_scooter", "fusion_lat": 0.0, "lat": 38.915482833333336, "name": "94e6771f526e622116f94c49ef3e9a0b", "fusion_lon": 0.0, "bike_id": "94e6771f526e622116f94c49ef3e9a0b", "is_disabled": 0, "is_reserved": 0}, {"rental_uris": {"ios": "https://dc.lft.to/lastmile_qr_scan", "android": "https://dc.lft.to/lastmile_qr_scan"}, "lon": -77.0387, "type": "electric_scooter", "fusion_lat": 0.0, "lat": 38.91545833333333, "name": "7a445602b74cf2af245702fea5bbabfc", "fusion_lon": 0.0, "bike_id": "7a445602b74cf2af245702fea5bbabfc", "is_disabled": 0, "is_reserved": 0}, {"rental_uris": {"ios": "https://dc.lft.to/lastmile_qr_scan", "android": "https://dc.lft.to/lastmile_qr_scan"}, "lon": -77.040338, "type": "electric_scooter", "fusion_lat": 0.0, "lat": 38.9188225, "name": "c451ab924d1986ea40f30951638f9d84", "fusion_lon": 0.0, "bike_id": "c451ab924d1986ea40f30951638f9d84", "is_disabled": 0, "is_reserved": 0}, {"rental_uris": {"ios": "https://dc.lft.to/lastmile_qr_scan", "android": "https://dc.lft.to/lastmile_qr_scan"}, "lon": -77.0060105, "type": "electric_scooter", "fusion_lat": 0.0, "lat": 38.90629933333334, "name": "b7e49aa1eb0e97a5a90742f68b8f2258", "fusion_lon": 0.0, "bike_id": "b7e49aa1eb0e97a5a90742f68b8f2258", "is_disabled": 0, "is_reserved": 0}, {"rental_uris": {"ios": "https://dc.lft.to/lastmile_qr_scan", "android": "https://dc.lft.to/lastmile_qr_scan"}, "lon": -76.9319615, "type": "electric_scooter", "fusion_lat": 0.0, "lat": 38.889928, "name": "500b385813365b48c87598fc26d1329a", "fusion_lon": 0.0, "bike_id": "500b385813365b48c87598fc26d1329a", "is_disabled": 0, "is_reserved": 0}, {"rental_uris": {"ios": "https://dc.lft.to/lastmile_qr_scan", "android": "https://dc.lft.to/lastmile_qr_scan"}, "lon": -77.03164233333334, "type": "electric_scooter", "fusion_lat": 0.0, "lat": 38.9156275, "name": "ccfa9c2ec4b36bfc5154b8fbbe620b24", "fusion_lon": 0.0, "bike_id": "ccfa9c2ec4b36bfc5154b8fbbe620b24", "is_disabled": 0, "is_reserved": 0}, {"rental_uris": {"ios": "https://dc.lft.to/lastmile_qr_scan", "android": "https://dc.lft.to/lastmile_qr_scan"}, "lon": -77.008764, "type": "electric_scooter", "fusion_lat": 0.0, "lat": 38.90574616666667, "name": "c9ed2241b0cd1dc997f43924508d5537", "fusion_lon": 0.0, "bike_id": "c9ed2241b0cd1dc997f43924508d5537", "is_disabled": 0, "is_reserved": 0}, {"rental_uris": {"ios": "https://dc.lft.to/lastmile_qr_scan", "android": "https://dc.lft.to/lastmile_qr_scan"}, "lon": -77.0177615, "type": "electric_scooter", "fusion_lat": 0.0, "lat": 38.9039555, "name": "b404db7d26b72d119108fb6369425c2e", "fusion_lon": 0.0, "bike_id": "b404db7d26b72d119108fb6369425c2e", "is_disabled": 0, "is_reserved": 0}, {"rental_uris": {"ios": "https://dc.lft.to/lastmile_qr_scan", "android": "https://dc.lft.to/lastmile_qr_scan"}, "lon": -77.075254, "type": "electric_scooter", "fusion_lat": 0.0, "lat": 38.90880533333333, "name": "78faebda2ca889bea619155379c12989", "fusion_lon": 0.0, "bike_id": "78faebda2ca889bea619155379c12989", "is_disabled": 0, "is_reserved": 0}, {"rental_uris": {"ios": "https://dc.lft.to/lastmile_qr_scan", "android": "https://dc.lft.to/lastmile_qr_scan"}, "lon": -77.0218815, "type": "electric_scooter", "fusion_lat": 0.0, "lat": 38.892518833333334, "name": "2a77cdf0739918f45668d3832dc9d953", "fusion_lon": 0.0, "bike_id": "2a77cdf0739918f45668d3832dc9d953", "is_disabled": 0, "is_reserved": 0}, {"rental_uris": {"ios": "https://dc.lft.to/lastmile_qr_scan", "android": "https://dc.lft.to/lastmile_qr_scan"}, "lon": -76.9870555, "type": "electric_scooter", "fusion_lat": 0.0, "lat": 38.90150383333334, "name": "48678fc4a065b61255b5ad7ea6d2d913", "fusion_lon": 0.0, "bike_id": "48678fc4a065b61255b5ad7ea6d2d913", "is_disabled": 0, "is_reserved": 0}, {"rental_uris": {"ios": "https://dc.lft.to/lastmile_qr_scan", "android": "https://dc.lft.to/lastmile_qr_scan"}, "lon": -76.97439466666667, "type": "electric_scooter", "fusion_lat": 0.0, "lat": 38.863992, "name": "ab62f37ca452e978bb136bbba593b91e", "fusion_lon": 0.0, "bike_id": "ab62f37ca452e978bb136bbba593b91e", "is_disabled": 0, "is_reserved": 0}, {"rental_uris": {"ios": "https://dc.lft.to/lastmile_qr_scan", "android": "https://dc.lft.to/lastmile_qr_scan"}, "lon": -77.0298675, "type": "electric_scooter", "fusion_lat": 0.0, "lat": 38.92472816666667, "name": "26ddadd85798c34312a682cc2c9bbb4d", "fusion_lon": 0.0, "bike_id": "26ddadd85798c34312a682cc2c9bbb4d", "is_disabled": 0, "is_reserved": 0}, {"rental_uris": {"ios": "https://dc.lft.to/lastmile_qr_scan", "android": "https://dc.lft.to/lastmile_qr_scan"}, "lon": -77.03454716666667, "type": "electric_scooter", "fusion_lat": 0.0, "lat": 38.90757166666667, "name": "56dee782800ecf9cfd5fc39f784a9a91", "fusion_lon": 0.0, "bike_id": "56dee782800ecf9cfd5fc39f784a9a91", "is_disabled": 0, "is_reserved": 0}, {"rental_uris": {"ios": "https://dc.lft.to/lastmile_qr_scan", "android": "https://dc.lft.to/lastmile_qr_scan"}, "lon": -77.03636683333333, "type": "electric_scooter", "fusion_lat": 0.0, "lat": 38.93718366666667, "name": "91bcaa9b1a5fe17fd5008553c4b2e316", "fusion_lon": 0.0, "bike_id": "91bcaa9b1a5fe17fd5008553c4b2e316", "is_disabled": 0, "is_reserved": 0}, {"rental_uris": {"ios": "https://dc.lft.to/lastmile_qr_scan", "android": "https://dc.lft.to/lastmile_qr_scan"}, "lon": -77.03280483333333, "type": "electric_scooter", "fusion_lat": 0.0, "lat": 38.93200216666666, "name": "93a63a2753247f2d0d5b8fe4ff3ce925", "fusion_lon": 0.0, "bike_id": "93a63a2753247f2d0d5b8fe4ff3ce925", "is_disabled": 0, "is_reserved": 0}, {"rental_uris": {"ios": "https://dc.lft.to/lastmile_qr_scan", "android": "https://dc.lft.to/lastmile_qr_scan"}, "lon": -77.04343, "type": "electric_scooter", "fusion_lat": 0.0, "lat": 38.90824416666667, "name": "8808cd600b0e2c4ec352899f9072c066", "fusion_lon": 0.0, "bike_id": "8808cd600b0e2c4ec352899f9072c066", "is_disabled": 0, "is_reserved": 0}, {"rental_uris": {"ios": "https://dc.lft.to/lastmile_qr_scan", "android": "https://dc.lft.to/lastmile_qr_scan"}, "lon": -77.07168083333333, "type": "electric_scooter", "fusion_lat": 0.0, "lat": 38.90739283333333, "name": "7eac050111b1d2ffa060be89277fa193", "fusion_lon": 0.0, "bike_id": "7eac050111b1d2ffa060be89277fa193", "is_disabled": 0, "is_reserved": 0}, {"rental_uris": {"ios": "https://dc.lft.to/lastmile_qr_scan", "android": "https://dc.lft.to/lastmile_qr_scan"}, "lon": -76.99146283333333, "type": "electric_scooter", "fusion_lat": 0.0, "lat": 38.885913, "name": "896d1699bd8b2a29be3dc50ba9061c8d", "fusion_lon": 0.0, "bike_id": "896d1699bd8b2a29be3dc50ba9061c8d", "is_disabled": 0, "is_reserved": 0}, {"rental_uris": {"ios": "https://dc.lft.to/lastmile_qr_scan", "android": "https://dc.lft.to/lastmile_qr_scan"}, "lon": -77.03202183333333, "type": "electric_scooter", "fusion_lat": 0.0, "lat": 38.893845666666664, "name": "17ca55ed39ed97f390c2bf90917fdd1f", "fusion_lon": 0.0, "bike_id": "17ca55ed39ed97f390c2bf90917fdd1f", "is_disabled": 0, "is_reserved": 0}, {"rental_uris": {"ios": "https://dc.lft.to/lastmile_qr_scan", "android": "https://dc.lft.to/lastmile_qr_scan"}, "lon": -77.0426645, "type": "electric_scooter", "fusion_lat": 0.0, "lat": 38.93409666666667, "name": "6bbd5af9fb7a5e892e0765433626ef59", "fusion_lon": 0.0, "bike_id": "6bbd5af9fb7a5e892e0765433626ef59", "is_disabled": 0, "is_reserved": 0}, {"rental_uris": {"ios": "https://dc.lft.to/lastmile_qr_scan", "android": "https://dc.lft.to/lastmile_qr_scan"}, "lon": -77.02203183333333, "type": "electric_scooter", "fusion_lat": 0.0, "lat": 38.91537483333333, "name": "4942a00355c81b6dd5887942e40aec1b", "fusion_lon": 0.0, "bike_id": "4942a00355c81b6dd5887942e40aec1b", "is_disabled": 0, "is_reserved": 0}, {"rental_uris": {"ios": "https://dc.lft.to/lastmile_qr_scan", "android": "https://dc.lft.to/lastmile_qr_scan"}, "lon": -76.946304, "type": "electric_bike", "fusion_lat": 0.0, "lat": 38.94623, "name": "6257130ba3b9e962d70cb56d7c2a2f6d", "fusion_lon": 0.0, "bike_id": "6257130ba3b9e962d70cb56d7c2a2f6d", "is_disabled": 0, "is_reserved": 0}, {"rental_uris": {"ios": "https://dc.lft.to/lastmile_qr_scan", "android": "https://dc.lft.to/lastmile_qr_scan"}, "lon": -77.05073233333333, "type": "electric_scooter", "fusion_lat": 0.0, "lat": 38.8960885, "name": "32a285644dd2f893c3f24d210cd0409d", "fusion_lon": 0.0, "bike_id": "32a285644dd2f893c3f24d210cd0409d", "is_disabled": 0, "is_reserved": 0}, {"rental_uris": {"ios": "https://dc.lft.to/lastmile_qr_scan", "android": "https://dc.lft.to/lastmile_qr_scan"}, "lon": -77.0058835, "type": "electric_scooter", "fusion_lat": 0.0, "lat": 38.9056365, "name": "92a28e4ee7793017b9f03ef87222089d", "fusion_lon": 0.0, "bike_id": "92a28e4ee7793017b9f03ef87222089d", "is_disabled": 0, "is_reserved": 0}, {"rental_uris": {"ios": "https://dc.lft.to/lastmile_qr_scan", "android": "https://dc.lft.to/lastmile_qr_scan"}, "lon": -77.03959483333334, "type": "electric_scooter", "fusion_lat": 0.0, "lat": 38.8924295, "name": "92bf8c6bb1b121c708a469f61e515aec", "fusion_lon": 0.0, "bike_id": "92bf8c6bb1b121c708a469f61e515aec", "is_disabled": 0, "is_reserved": 0}, {"rental_uris": {"ios": "https://dc.lft.to/lastmile_qr_scan", "android": "https://dc.lft.to/lastmile_qr_scan"}, "lon": -77.0220975, "type": "electric_scooter", "fusion_lat": 0.0, "lat": 38.90827933333333, "name": "5a18070f16e32608933f52edcfbda674", "fusion_lon": 0.0, "bike_id": "5a18070f16e32608933f52edcfbda674", "is_disabled": 0, "is_reserved": 0}, {"rental_uris": {"ios": "https://dc.lft.to/lastmile_qr_scan", "android": "https://dc.lft.to/lastmile_qr_scan"}, "lon": -76.9720765, "type": "electric_scooter", "fusion_lat": 0.0, "lat": 38.85501516666667, "name": "0bb03f6646b4bb09ceb927773254e63c", "fusion_lon": 0.0, "bike_id": "0bb03f6646b4bb09ceb927773254e63c", "is_disabled": 0, "is_reserved": 0}, {"rental_uris": {"ios": "https://dc.lft.to/lastmile_qr_scan", "android": "https://dc.lft.to/lastmile_qr_scan"}, "lon": -76.998857, "type": "electric_scooter", "fusion_lat": 0.0, "lat": 38.90756016666667, "name": "76ad2dd8ac244c680023482e198999b7", "fusion_lon": 0.0, "bike_id": "76ad2dd8ac244c680023482e198999b7", "is_disabled": 0, "is_reserved": 0}, {"rental_uris": {"ios": "https://dc.lft.to/lastmile_qr_scan", "android": "https://dc.lft.to/lastmile_qr_scan"}, "lon": -77.0516055, "type": "electric_scooter", "fusion_lat": 0.0, "lat": 38.905876666666664, "name": "67af773b28ad8765f3ec20f16390b2cd", "fusion_lon": 0.0, "bike_id": "67af773b28ad8765f3ec20f16390b2cd", "is_disabled": 0, "is_reserved": 0}, {"rental_uris": {"ios": "https://dc.lft.to/lastmile_qr_scan", "android": "https://dc.lft.to/lastmile_qr_scan"}, "lon": -77.03851833333333, "type": "electric_scooter", "fusion_lat": 0.0, "lat": 38.9154515, "name": "3d78a3e037c3f4d245a89c617b3febc7", "fusion_lon": 0.0, "bike_id": "3d78a3e037c3f4d245a89c617b3febc7", "is_disabled": 0, "is_reserved": 0}, {"rental_uris": {"ios": "https://dc.lft.to/lastmile_qr_scan", "android": "https://dc.lft.to/lastmile_qr_scan"}, "lon": -76.9553965, "type": "electric_scooter", "fusion_lat": 0.0, "lat": 38.887636, "name": "730ed8b57e4becd2ff16becedd6bf2a9", "fusion_lon": 0.0, "bike_id": "730ed8b57e4becd2ff16becedd6bf2a9", "is_disabled": 0, "is_reserved": 0}, {"rental_uris": {"ios": "https://dc.lft.to/lastmile_qr_scan", "android": "https://dc.lft.to/lastmile_qr_scan"}, "lon": -77.02401283333333, "type": "electric_scooter", "fusion_lat": 0.0, "lat": 38.9069935, "name": "08b424e2f6b3e4441120a5c10471c4fd", "fusion_lon": 0.0, "bike_id": "08b424e2f6b3e4441120a5c10471c4fd", "is_disabled": 0, "is_reserved": 0}, {"rental_uris": {"ios": "https://dc.lft.to/lastmile_qr_scan", "android": "https://dc.lft.to/lastmile_qr_scan"}, "lon": -77.0416915, "type": "electric_scooter", "fusion_lat": 0.0, "lat": 38.91023366666667, "name": "28e143ba1680cadba5984fc76a7b511a", "fusion_lon": 0.0, "bike_id": "28e143ba1680cadba5984fc76a7b511a", "is_disabled": 0, "is_reserved": 0}, {"rental_uris": {"ios": "https://dc.lft.to/lastmile_qr_scan", "android": "https://dc.lft.to/lastmile_qr_scan"}, "lon": -76.99073116666666, "type": "electric_scooter", "fusion_lat": 0.0, "lat": 38.904173166666666, "name": "7a3d58d3cdd21144435194533c62be25", "fusion_lon": 0.0, "bike_id": "7a3d58d3cdd21144435194533c62be25", "is_disabled": 0, "is_reserved": 0}, {"rental_uris": {"ios": "https://dc.lft.to/lastmile_qr_scan", "android": "https://dc.lft.to/lastmile_qr_scan"}, "lon": -77.034864, "type": "electric_scooter", "fusion_lat": 0.0, "lat": 38.91918283333333, "name": "61d146e6a14b7ef4a1e28b7c8b26944c", "fusion_lon": 0.0, "bike_id": "61d146e6a14b7ef4a1e28b7c8b26944c", "is_disabled": 0, "is_reserved": 0}, {"rental_uris": {"ios": "https://dc.lft.to/lastmile_qr_scan", "android": "https://dc.lft.to/lastmile_qr_scan"}, "lon": -77.005065, "type": "electric_scooter", "fusion_lat": 0.0, "lat": 38.87534516666667, "name": "1ff6b2a6230a2fee690f412a4a25eb10", "fusion_lon": 0.0, "bike_id": "1ff6b2a6230a2fee690f412a4a25eb10", "is_disabled": 0, "is_reserved": 0}, {"rental_uris": {"ios": "https://dc.lft.to/lastmile_qr_scan", "android": "https://dc.lft.to/lastmile_qr_scan"}, "lon": -77.00930216666667, "type": "electric_scooter", "fusion_lat": 0.0, "lat": 38.91694316666667, "name": "9daf5f9067996a715d161f6364e279db", "fusion_lon": 0.0, "bike_id": "9daf5f9067996a715d161f6364e279db", "is_disabled": 0, "is_reserved": 0}, {"rental_uris": {"ios": "https://dc.lft.to/lastmile_qr_scan", "android": "https://dc.lft.to/lastmile_qr_scan"}, "lon": -77.03433483333333, "type": "electric_scooter", "fusion_lat": 0.0, "lat": 38.9272675, "name": "de8a6003fd6a7055ab51928cdcc9e83d", "fusion_lon": 0.0, "bike_id": "de8a6003fd6a7055ab51928cdcc9e83d", "is_disabled": 0, "is_reserved": 0}, {"rental_uris": {"ios": "https://dc.lft.to/lastmile_qr_scan", "android": "https://dc.lft.to/lastmile_qr_scan"}, "lon": -77.02498366666667, "type": "electric_scooter", "fusion_lat": 0.0, "lat": 38.942865833333336, "name": "3218fdd101d2497046443f3b9e6a024f", "fusion_lon": 0.0, "bike_id": "3218fdd101d2497046443f3b9e6a024f", "is_disabled": 0, "is_reserved": 0}, {"rental_uris": {"ios": "https://dc.lft.to/lastmile_qr_scan", "android": "https://dc.lft.to/lastmile_qr_scan"}, "lon": -77.06471716666667, "type": "electric_bike", "fusion_lat": 0.0, "lat": 38.9737965, "name": "4c02e00b9e5b951259a7b3d0bd686895", "fusion_lon": 0.0, "bike_id": "4c02e00b9e5b951259a7b3d0bd686895", "is_disabled": 0, "is_reserved": 0}, {"rental_uris": {"ios": "https://dc.lft.to/lastmile_qr_scan", "android": "https://dc.lft.to/lastmile_qr_scan"}, "lon": -76.99169733333333, "type": "electric_scooter", "fusion_lat": 0.0, "lat": 38.879242166666664, "name": "8c21763c27c3047c99bc81807f350d40", "fusion_lon": 0.0, "bike_id": "8c21763c27c3047c99bc81807f350d40", "is_disabled": 0, "is_reserved": 0}, {"rental_uris": {"ios": "https://dc.lft.to/lastmile_qr_scan", "android": "https://dc.lft.to/lastmile_qr_scan"}, "lon": -77.046271, "type": "electric_bike", "fusion_lat": 0.0, "lat": 38.999055, "name": "f52e624a40d9173b6f9b75e803fb0799", "fusion_lon": 0.0, "bike_id": "f52e624a40d9173b6f9b75e803fb0799", "is_disabled": 0, "is_reserved": 0}, {"rental_uris": {"ios": "https://dc.lft.to/lastmile_qr_scan", "android": "https://dc.lft.to/lastmile_qr_scan"}, "lon": -77.0207505, "type": "electric_scooter", "fusion_lat": 0.0, "lat": 38.903941, "name": "373d5ce37d971fd1962f0225b303164a", "fusion_lon": 0.0, "bike_id": "373d5ce37d971fd1962f0225b303164a", "is_disabled": 0, "is_reserved": 0}, {"rental_uris": {"ios": "https://dc.lft.to/lastmile_qr_scan", "android": "https://dc.lft.to/lastmile_qr_scan"}, "lon": -77.00215133333333, "type": "electric_scooter", "fusion_lat": 0.0, "lat": 38.905159, "name": "865264acbfcc28368d4c243ff15cb233", "fusion_lon": 0.0, "bike_id": "865264acbfcc28368d4c243ff15cb233", "is_disabled": 0, "is_reserved": 0}, {"rental_uris": {"ios": "https://dc.lft.to/lastmile_qr_scan", "android": "https://dc.lft.to/lastmile_qr_scan"}, "lon": -77.002544, "type": "electric_scooter", "fusion_lat": 0.0, "lat": 38.90121033333333, "name": "7e4407456aae908b5ac1410f781445e1", "fusion_lon": 0.0, "bike_id": "7e4407456aae908b5ac1410f781445e1", "is_disabled": 0, "is_reserved": 0}, {"rental_uris": {"ios": "https://dc.lft.to/lastmile_qr_scan", "android": "https://dc.lft.to/lastmile_qr_scan"}, "lon": -77.02701583333334, "type": "electric_scooter", "fusion_lat": 0.0, "lat": 38.90017316666667, "name": "06a5b70be4c936f4f40bcf57a85c147d", "fusion_lon": 0.0, "bike_id": "06a5b70be4c936f4f40bcf57a85c147d", "is_disabled": 0, "is_reserved": 0}, {"rental_uris": {"ios": "https://dc.lft.to/lastmile_qr_scan", "android": "https://dc.lft.to/lastmile_qr_scan"}, "lon": -77.03896016666667, "type": "electric_scooter", "fusion_lat": 0.0, "lat": 38.90803733333333, "name": "2bddb25bb87a5302d3aaa6ad7ba4a2d4", "fusion_lon": 0.0, "bike_id": "2bddb25bb87a5302d3aaa6ad7ba4a2d4", "is_disabled": 0, "is_reserved": 0}, {"rental_uris": {"ios": "https://dc.lft.to/lastmile_qr_scan", "android": "https://dc.lft.to/lastmile_qr_scan"}, "lon": -77.03994883333333, "type": "electric_scooter", "fusion_lat": 0.0, "lat": 38.90020283333333, "name": "64347f121c3f1fb4a49a68542139def1", "fusion_lon": 0.0, "bike_id": "64347f121c3f1fb4a49a68542139def1", "is_disabled": 0, "is_reserved": 0}, {"rental_uris": {"ios": "https://dc.lft.to/lastmile_qr_scan", "android": "https://dc.lft.to/lastmile_qr_scan"}, "lon": -77.00459483333333, "type": "electric_scooter", "fusion_lat": 0.0, "lat": 38.911904166666666, "name": "6d9d711ea91b4d4bf364c35ec1081a4f", "fusion_lon": 0.0, "bike_id": "6d9d711ea91b4d4bf364c35ec1081a4f", "is_disabled": 0, "is_reserved": 0}, {"rental_uris": {"ios": "https://dc.lft.to/lastmile_qr_scan", "android": "https://dc.lft.to/lastmile_qr_scan"}, "lon": -76.97823366666667, "type": "electric_scooter", "fusion_lat": 0.0, "lat": 38.895221, "name": "6ece3bb45729da23673102046eeec44b", "fusion_lon": 0.0, "bike_id": "6ece3bb45729da23673102046eeec44b", "is_disabled": 0, "is_reserved": 0}, {"rental_uris": {"ios": "https://dc.lft.to/lastmile_qr_scan", "android": "https://dc.lft.to/lastmile_qr_scan"}, "lon": -77.01744166666667, "type": "electric_scooter", "fusion_lat": 0.0, "lat": 38.8771645, "name": "6b461b974d56d4cc4d300630a1405038", "fusion_lon": 0.0, "bike_id": "6b461b974d56d4cc4d300630a1405038", "is_disabled": 0, "is_reserved": 0}, {"rental_uris": {"ios": "https://dc.lft.to/lastmile_qr_scan", "android": "https://dc.lft.to/lastmile_qr_scan"}, "lon": -76.99024966666667, "type": "electric_scooter", "fusion_lat": 0.0, "lat": 38.85864266666667, "name": "32bb495c11a66bd8fcd618f134056980", "fusion_lon": 0.0, "bike_id": "32bb495c11a66bd8fcd618f134056980", "is_disabled": 0, "is_reserved": 0}, {"rental_uris": {"ios": "https://dc.lft.to/lastmile_qr_scan", "android": "https://dc.lft.to/lastmile_qr_scan"}, "lon": -77.01749516666666, "type": "electric_scooter", "fusion_lat": 0.0, "lat": 38.905610333333335, "name": "c6faadbedeee83c510cf40e2fb4beee1", "fusion_lon": 0.0, "bike_id": "c6faadbedeee83c510cf40e2fb4beee1", "is_disabled": 0, "is_reserved": 0}, {"rental_uris": {"ios": "https://dc.lft.to/lastmile_qr_scan", "android": "https://dc.lft.to/lastmile_qr_scan"}, "lon": -77.02586233333334, "type": "electric_scooter", "fusion_lat": 0.0, "lat": 38.920347166666666, "name": "194c8509d02e51fe01286d333ae58264", "fusion_lon": 0.0, "bike_id": "194c8509d02e51fe01286d333ae58264", "is_disabled": 0, "is_reserved": 0}, {"rental_uris": {"ios": "https://dc.lft.to/lastmile_qr_scan", "android": "https://dc.lft.to/lastmile_qr_scan"}, "lon": -77.043003, "type": "electric_scooter", "fusion_lat": 0.0, "lat": 38.922990166666665, "name": "763d7250c2a158eac6cc62e4a7dcc8e0", "fusion_lon": 0.0, "bike_id": "763d7250c2a158eac6cc62e4a7dcc8e0", "is_disabled": 0, "is_reserved": 0}, {"rental_uris": {"ios": "https://dc.lft.to/lastmile_qr_scan", "android": "https://dc.lft.to/lastmile_qr_scan"}, "lon": -77.03623916666666, "type": "electric_scooter", "fusion_lat": 0.0, "lat": 38.93739466666667, "name": "c0afaf141b5a9103c27cd22969cc5b60", "fusion_lon": 0.0, "bike_id": "c0afaf141b5a9103c27cd22969cc5b60", "is_disabled": 0, "is_reserved": 0}, {"rental_uris": {"ios": "https://dc.lft.to/lastmile_qr_scan", "android": "https://dc.lft.to/lastmile_qr_scan"}, "lon": -77.01860833333333, "type": "electric_scooter", "fusion_lat": 0.0, "lat": 38.89261233333333, "name": "1e9f21ed96480de67c28189b7d1c84a7", "fusion_lon": 0.0, "bike_id": "1e9f21ed96480de67c28189b7d1c84a7", "is_disabled": 0, "is_reserved": 0}, {"rental_uris": {"ios": "https://dc.lft.to/lastmile_qr_scan", "android": "https://dc.lft.to/lastmile_qr_scan"}, "lon": -77.00258233333334, "type": "electric_bike", "fusion_lat": 0.0, "lat": 38.911756, "name": "285c36b0a766b784b0b08a92255548f7", "fusion_lon": 0.0, "bike_id": "285c36b0a766b784b0b08a92255548f7", "is_disabled": 0, "is_reserved": 0}, {"rental_uris": {"ios": "https://dc.lft.to/lastmile_qr_scan", "android": "https://dc.lft.to/lastmile_qr_scan"}, "lon": -77.02555633333333, "type": "electric_scooter", "fusion_lat": 0.0, "lat": 38.89230233333333, "name": "8318156f52fd0b5f3133219c977e2439", "fusion_lon": 0.0, "bike_id": "8318156f52fd0b5f3133219c977e2439", "is_disabled": 0, "is_reserved": 0}, {"rental_uris": {"ios": "https://dc.lft.to/lastmile_qr_scan", "android": "https://dc.lft.to/lastmile_qr_scan"}, "lon": -77.18292516666666, "type": "electric_bike", "fusion_lat": 0.0, "lat": 38.883394, "name": "18591a67ef4ab03e3f9276923903ffac", "fusion_lon": 0.0, "bike_id": "18591a67ef4ab03e3f9276923903ffac", "is_disabled": 0, "is_reserved": 0}, {"rental_uris": {"ios": "https://dc.lft.to/lastmile_qr_scan", "android": "https://dc.lft.to/lastmile_qr_scan"}, "lon": -77.0634675, "type": "electric_scooter", "fusion_lat": 0.0, "lat": 38.944427, "name": "0fe511f4c4c5f32ebdf371e00943873c", "fusion_lon": 0.0, "bike_id": "0fe511f4c4c5f32ebdf371e00943873c", "is_disabled": 0, "is_reserved": 0}, {"rental_uris": {"ios": "https://dc.lft.to/lastmile_qr_scan", "android": "https://dc.lft.to/lastmile_qr_scan"}, "lon": -77.03314966666667, "type": "electric_scooter", "fusion_lat": 0.0, "lat": 38.90131133333333, "name": "3d2d1f27971c6ea56df45ca00ccedfc6", "fusion_lon": 0.0, "bike_id": "3d2d1f27971c6ea56df45ca00ccedfc6", "is_disabled": 0, "is_reserved": 0}, {"rental_uris": {"ios": "https://dc.lft.to/lastmile_qr_scan", "android": "https://dc.lft.to/lastmile_qr_scan"}, "lon": -77.0637995, "type": "electric_scooter", "fusion_lat": 0.0, "lat": 38.905046166666665, "name": "94a31b763420b62a46d6aa3608946d1e", "fusion_lon": 0.0, "bike_id": "94a31b763420b62a46d6aa3608946d1e", "is_disabled": 0, "is_reserved": 0}, {"rental_uris": {"ios": "https://dc.lft.to/lastmile_qr_scan", "android": "https://dc.lft.to/lastmile_qr_scan"}, "lon": -77.05143033333333, "type": "electric_scooter", "fusion_lat": 0.0, "lat": 38.9053365, "name": "536c09b06cf040af4b0f20344f57a3be", "fusion_lon": 0.0, "bike_id": "536c09b06cf040af4b0f20344f57a3be", "is_disabled": 0, "is_reserved": 0}, {"rental_uris": {"ios": "https://dc.lft.to/lastmile_qr_scan", "android": "https://dc.lft.to/lastmile_qr_scan"}, "lon": -77.03814933333334, "type": "electric_scooter", "fusion_lat": 0.0, "lat": 38.90675866666667, "name": "8898bd36eb0470eb6efd9c0d002fd863", "fusion_lon": 0.0, "bike_id": "8898bd36eb0470eb6efd9c0d002fd863", "is_disabled": 0, "is_reserved": 0}, {"rental_uris": {"ios": "https://dc.lft.to/lastmile_qr_scan", "android": "https://dc.lft.to/lastmile_qr_scan"}, "lon": -77.04331016666667, "type": "electric_scooter", "fusion_lat": 0.0, "lat": 38.8965825, "name": "f1f4d0ab6856625cf122ddcee32657c6", "fusion_lon": 0.0, "bike_id": "f1f4d0ab6856625cf122ddcee32657c6", "is_disabled": 0, "is_reserved": 0},