{"data": {"bikes": [{"bike_id": "13dd8c7cf85700f4fbea8237371d0e1a", "fusion_lon": 0.0, "type": "electric_scooter", "name": "13dd8c7cf85700f4fbea8237371d0e1a", "rental_uris": {"android": "https://dc.lft.to/lastmile_qr_scan", "ios": "https://dc.lft.to/lastmile_qr_scan"}, "fusion_lat": 0.0, "lat": 38.9084405, "is_disabled": 0, "lon": -77.02698133333334, "is_reserved": 0}, {"bike_id": "e05f94839c0a202cf08ff61e9f780635", "fusion_lon": 0.0, "type": "electric_scooter", "name": "e05f94839c0a202cf08ff61e9f780635", "rental_uris": {"android": "https://dc.lft.to/lastmile_qr_scan", "ios": "https://dc.lft.to/lastmile_qr_scan"}, "fusion_lat": 0.0, "lat": 38.949272, "is_disabled": 0, "lon": -77.019359, "is_reserved": 0}, {"bike_id": "fbd8f187a8b766353c70cbe0c2535f39", "fusion_lon": 0.0, "type": "electric_scooter", "name": "fbd8f187a8b766353c70cbe0c2535f39", "rental_uris": {"android": "https://dc.lft.to/lastmile_qr_scan", "ios": "https://dc.lft.to/lastmile_qr_scan"}, "fusion_lat": 0.0, "lat": 38.925766833333334, "is_disabled": 0, "lon": -77.043737, "is_reserved": 0}, {"bike_id": "54157c171eb063a1312b311e88368f87", "fusion_lon": 0.0, "type": "electric_scooter", "name": "54157c171eb063a1312b311e88368f87", "rental_uris": {"android": "https://dc.lft.to/lastmile_qr_scan", "ios": "https://dc.lft.to/lastmile_qr_scan"}, "fusion_lat": 0.0, "lat": 38.93081983333333, "is_disabled": 0, "lon": -77.03273316666667, "is_reserved": 0}, {"bike_id": "799f265a56903bf9f522141e438bc513", "fusion_lon": 0.0, "type": "electric_bike", "name": "799f265a56903bf9f522141e438bc513", "rental_uris": {"android": "https://dc.lft.to/lastmile_qr_scan", "ios": "https://dc.lft.to/lastmile_qr_scan"}, "fusion_lat": 0.0, "lat": 38.911345833333336, "is_disabled": 0, "lon": -77.06574366666666, "is_reserved": 0}, {"bike_id": "443cec968edf7b136fd919c9b1c8b2da", "fusion_lon": 0.0, "type": "electric_scooter", "name": "443cec968edf7b136fd919c9b1c8b2da", "rental_uris": {"android": "https://dc.lft.to/lastmile_qr_scan", "ios": "https://dc.lft.to/lastmile_qr_scan"}, "fusion_lat": 0.0, "lat": 38.9356935, "is_disabled": 0, "lon": -77.0213355, "is_reserved": 0}, {"bike_id": "8b8c0da2ee33312475efe5ea3e730c11", "fusion_lon": 0.0, "type": "electric_scooter", "name": "8b8c0da2ee33312475efe5ea3e730c11", "rental_uris": {"android": "https://dc.lft.to/lastmile_qr_scan", "ios": "https://dc.lft.to/lastmile_qr_scan"}, "fusion_lat": 0.0, "lat": 38.909742, "is_disabled": 0, "lon": -77.03389133333333, "is_reserved": 0}, {"bike_id": "9f3a84b4817f1c4deeb3dcb5d9559510", "fusion_lon": 0.0, "type": "electric_scooter", "name": "9f3a84b4817f1c4deeb3dcb5d9559510", "rental_uris": {"android": "https://dc.lft.to/lastmile_qr_scan", "ios": "https://dc.lft.to/lastmile_qr_scan"}, "fusion_lat": 0.0, "lat": 38.8429045, "is_disabled": 0, "lon": -76.9994665, "is_reserved": 0}, {"bike_id": "d3c97ff9db323323bdfa278f2cff1d2c", "fusion_lon": 0.0, "type": "electric_scooter", "name": "d3c97ff9db323323bdfa278f2cff1d2c", "rental_uris": {"android": "https://dc.lft.to/lastmile_qr_scan", "ios": "https://dc.lft.to/lastmile_qr_scan"}, "fusion_lat": 0.0, "lat": 38.92075916666667, "is_disabled": 0, "lon": -77.03814733333333, "is_reserved": 0}, {"bike_id": "7a97beb18796ef3be9a7564cb6a88330", "fusion_lon": 0.0, "type": "electric_scooter", "name": "7a97beb18796ef3be9a7564cb6a88330", "rental_uris": {"android": "https://dc.lft.to/lastmile_qr_scan", "ios": "https://dc.lft.to/lastmile_qr_scan"}, "fusion_lat": 0.0, "lat": 38.89861033333333, "is_disabled": 0, "lon": -77.0331525, "is_reserved": 0}, {"bike_id": "ffa82cb11b9bb9df16b07a0e35f0f5f1", "fusion_lon": 0.0, "type": "electric_scooter", "name": "ffa82cb11b9bb9df16b07a0e35f0f5f1", "rental_uris": {"android": "https://dc.lft.to/lastmile_qr_scan", "ios": "https://dc.lft.to/lastmile_qr_scan"}, "fusion_lat": 0.0, "lat": 38.87200516666667, "is_disabled": 0, "lon": -77.0125215, "is_reserved": 0}, {"bike_id": "569fe460f3e02c6dc384e00dd5949d23", "fusion_lon": 0.0, "type": "electric_scooter", "name": "569fe460f3e02c6dc384e00dd5949d23", "rental_uris": {"android": "https://dc.lft.to/lastmile_qr_scan", "ios": "https://dc.lft.to/lastmile_qr_scan"}, "fusion_lat": 0.0, "lat": 38.90786166666667, "is_disabled": 0, "lon": -77.045106, "is_reserved": 0}, {"bike_id": "7cab548640e4f3b19de39f284c7d44f5", "fusion_lon": 0.0, "type": "electric_scooter", "name": "7cab548640e4f3b19de39f284c7d44f5", "rental_uris": {"android": "https://dc.lft.to/lastmile_qr_scan", "ios": "https://dc.lft.to/lastmile_qr_scan"}, "fusion_lat": 0.0, "lat": 38.911886, "is_disabled": 0, "lon": -77.00549966666667, "is_reserved": 0}, {"bike_id": "38db43ecb3a375897a7a3b61e4014992", "fusion_lon": 0.0, "type": "electric_scooter", "name": "38db43ecb3a375897a7a3b61e4014992", "rental_uris": {"android": "https://dc.lft.to/lastmile_qr_scan", "ios": "https://dc.lft.to/lastmile_qr_scan"}, "fusion_lat": 0.0, "lat": 38.88757283333333, "is_disabled": 0, "lon": -77.03356933333333, "is_reserved": 0}, {"bike_id": "b82a4064b4e34b0303df98339a9abe7c", "fusion_lon": 0.0, "type": "electric_scooter", "name": "b82a4064b4e34b0303df98339a9abe7c", "rental_uris": {"android": "https://dc.lft.to/lastmile_qr_scan", "ios": "https://dc.lft.to/lastmile_qr_scan"}, "fusion_lat": 0.0, "lat": 38.911633, "is_disabled": 0, "lon": -77.0238475, "is_reserved": 0}, {"bike_id": "c3ed413de573b61688eaed7ddcc5354d", "fusion_lon": 0.0, "type": "electric_scooter", "name": "c3ed413de573b61688eaed7ddcc5354d", "rental_uris": {"android": "https://dc.lft.to/lastmile_qr_scan", "ios": "https://dc.lft.to/lastmile_qr_scan"}, "fusion_lat": 0.0, "lat": 38.89526266666667, "is_disabled": 0, "lon": -76.9489705, "is_reserved": 0}, {"bike_id": "7de84817e5cdcf4f953e685dfd240101", "fusion_lon": 0.0, "type": "electric_scooter", "name": "7de84817e5cdcf4f953e685dfd240101", "rental_uris": {"android": "https://dc.lft.to/lastmile_qr_scan", "ios": "https://dc.lft.to/lastmile_qr_scan"}, "fusion_lat": 0.0, "lat": 38.916012, "is_disabled": 0, "lon": -77.02698783333334, "is_reserved": 0}, {"bike_id": "7db085feb44d1f5c4d723a92b46c1cc4", "fusion_lon": 0.0, "type": "electric_scooter", "name": "7db085feb44d1f5c4d723a92b46c1cc4", "rental_uris": {"android": "https://dc.lft.to/lastmile_qr_scan", "ios": "https://dc.lft.to/lastmile_qr_scan"}, "fusion_lat": 0.0, "lat": 38.901988, "is_disabled": 0, "lon": -77.02374933333333, "is_reserved": 0}, {"bike_id": "c7999977ec360277eb0bd8728b5c8f15", "fusion_lon": 0.0, "type": "electric_scooter", "name": "c7999977ec360277eb0bd8728b5c8f15", "rental_uris": {"android": "https://dc.lft.to/lastmile_qr_scan", "ios": "https://dc.lft.to/lastmile_qr_scan"}, "fusion_lat": 0.0, "lat": 38.92654433333333, "is_disabled": 0, "lon": -77.02474883333333, "is_reserved": 0}, {"bike_id": "d9b13402b3ee8a0d66cf3373258dbe4f", "fusion_lon": 0.0, "type": "electric_scooter", "name": "d9b13402b3ee8a0d66cf3373258dbe4f", "rental_uris": {"android": "https://dc.lft.to/lastmile_qr_scan", "ios": "https://dc.lft.to/lastmile_qr_scan"}, "fusion_lat": 0.0, "lat": 38.90153633333333, "is_disabled": 0, "lon": -77.041914, "is_reserved": 0}, {"bike_id": "58c17e5b2bbf04d88495ea0e28059830", "fusion_lon": 0.0, "type": "electric_scooter", "name": "58c17e5b2bbf04d88495ea0e28059830", "rental_uris": {"android": "https://dc.lft.to/lastmile_qr_scan", "ios": "https://dc.lft.to/lastmile_qr_scan"}, "fusion_lat": 0.0, "lat": 38.8992125, "is_disabled": 0, "lon": -77.05526533333334, "is_reserved": 0}, {"bike_id": "3adf9da6f8759ae6fbb2c5cb7dfcb100", "fusion_lon": 0.0, "type": "electric_scooter", "name": "3adf9da6f8759ae6fbb2c5cb7dfcb100", "rental_uris": {"android": "https://dc.lft.to/lastmile_qr_scan", "ios": "https://dc.lft.to/lastmile_qr_scan"}, "fusion_lat": 0.0, "lat": 38.90042483333333, "is_disabled": 0, "lon": -76.98176983333333, "is_reserved": 0}, {"bike_id": "5ef25877bb7a8f5498faed182aad06d6", "fusion_lon": 0.0, "type": "electric_bike", "name": "5ef25877bb7a8f5498faed182aad06d6", "rental_uris": {"android": "https://dc.lft.to/lastmile_qr_scan", "ios": "https://dc.lft.to/lastmile_qr_scan"}, "fusion_lat": 0.0, "lat": 38.9251045, "is_disabled": 0, "lon": -76.9822265, "is_reserved": 0}, {"bike_id": "2a7926262ebe5daeaf0df0696cddbd38", "fusion_lon": 0.0, "type": "electric_scooter", "name": "2a7926262ebe5daeaf0df0696cddbd38", "rental_uris": {"android": "https://dc.lft.to/lastmile_qr_scan", "ios": "https://dc.lft.to/lastmile_qr_scan"}, "fusion_lat": 0.0, "lat": 38.900316, "is_disabled": 0, "lon": -76.987791, "is_reserved": 0}, {"bike_id": "0327fbe0c682029688391b7e5104bbdd", "fusion_lon": 0.0, "type": "electric_scooter", "name": "0327fbe0c682029688391b7e5104bbdd", "rental_uris": {"android": "https://dc.lft.to/lastmile_qr_scan", "ios": "https://dc.lft.to/lastmile_qr_scan"}, "fusion_lat": 0.0, "lat": 38.900115, "is_disabled": 0, "lon": -76.97750266666667, "is_reserved": 0}, {"bike_id": "7f78bc0836ba576e73e9b1dbaa61472e", "fusion_lon": 0.0, "type": "electric_bike", "name": "7f78bc0836ba576e73e9b1dbaa61472e", "rental_uris": {"android": "https://dc.lft.to/lastmile_qr_scan", "ios": "https://dc.lft.to/lastmile_qr_scan"}, "fusion_lat": 0.0, "lat": 38.889618, "is_disabled": 0, "lon": -76.948738, "is_reserved": 0}, {"bike_id": "d898b5c4e4d7bd72b3a636b945cc915b", "fusion_lon": 0.0, "type": "electric_scooter", "name": "d898b5c4e4d7bd72b3a636b945cc915b", "rental_uris": {"android": "https://dc.lft.to/lastmile_qr_scan", "ios": "https://dc.lft.to/lastmile_qr_scan"}, "fusion_lat": 0.0, "lat": 38.8994605, "is_disabled": 0, "lon": -77.02019933333334, "is_reserved": 0}, {"bike_id": "73bd65254e7bed5f6dbb7056bdec6bc8", "fusion_lon": 0.0, "type": "electric_scooter", "name": "73bd65254e7bed5f6dbb7056bdec6bc8", "rental_uris": {"android": "https://dc.lft.to/lastmile_qr_scan", "ios": "https://dc.lft.to/lastmile_qr_scan"}, "fusion_lat": 0.0, "lat": 38.92635416666667, "is_disabled": 0, "lon": -77.03791, "is_reserved": 0}, {"bike_id": "05914118e2af90dfc0614bd7031873ce", "fusion_lon": 0.0, "type": "electric_bike", "name": "05914118e2af90dfc0614bd7031873ce", "rental_uris": {"android": "https://dc.lft.to/lastmile_qr_scan", "ios": "https://dc.lft.to/lastmile_qr_scan"}, "fusion_lat": 0.0, "lat": 38.855533, "is_disabled": 0, "lon": -77.10711416666666, "is_reserved": 0}, {"bike_id": "289470a269ced683bbc4602125766857", "fusion_lon": 0.0, "type": "electric_bike", "name": "289470a269ced683bbc4602125766857", "rental_uris": {"android": "https://dc.lft.to/lastmile_qr_scan", "ios": "https://dc.lft.to/lastmile_qr_scan"}, "fusion_lat": 0.0, "lat": 38.992233, "is_disabled": 0, "lon": -76.87809066666667, "is_reserved": 0}, {"bike_id": "3d3ccddfc0beacc05599063eeec78306", "fusion_lon": 0.0, "type": "electric_scooter", "name": "3d3ccddfc0beacc05599063eeec78306", "rental_uris": {"android": "https://dc.lft.to/lastmile_qr_scan", "ios": "https://dc.lft.to/lastmile_qr_scan"}, "fusion_lat": 0.0, "lat": 38.9149625, "is_disabled": 0, "lon": -77.0120555, "is_reserved": 0}, {"bike_id": "d7c28633845128399868dfb7e73bfc8f", "fusion_lon": 0.0, "type": "electric_scooter", "name": "d7c28633845128399868dfb7e73bfc8f", "rental_uris": {"android": "https://dc.lft.to/lastmile_qr_scan", "ios": "https://dc.lft.to/lastmile_qr_scan"}, "fusion_lat": 0.0, "lat": 38.884855, "is_disabled": 0, "lon": -77.0234255, "is_reserved": 0}, {"bike_id": "de402310e55ef7bcdf9c3d6b0aec0c9b", "fusion_lon": 0.0, "type": "electric_scooter", "name": "de402310e55ef7bcdf9c3d6b0aec0c9b", "rental_uris": {"android": "https://dc.lft.to/lastmile_qr_scan", "ios": "https://dc.lft.to/lastmile_qr_scan"}, "fusion_lat": 0.0, "lat": 38.90887133333333, "is_disabled": 0, "lon": -77.03265766666667, "is_reserved": 0}, {"bike_id": "c8f2d52b431e8898b3dfa4e9d05cd9f7", "fusion_lon": 0.0, "type": "electric_scooter", "name": "c8f2d52b431e8898b3dfa4e9d05cd9f7", "rental_uris": {"android": "https://dc.lft.to/lastmile_qr_scan", "ios": "https://dc.lft.to/lastmile_qr_scan"}, "fusion_lat": 0.0, "lat": 38.86716916666666, "is_disabled": 0, "lon": -76.98733733333333, "is_reserved": 0}, {"bike_id": "188736bb3a7de7ee7461df1e7a187050", "fusion_lon": 0.0, "type": "electric_scooter", "name": "188736bb3a7de7ee7461df1e7a187050", "rental_uris": {"android": "https://dc.lft.to/lastmile_qr_scan", "ios": "https://dc.lft.to/lastmile_qr_scan"}, "fusion_lat": 0.0, "lat": 38.902481, "is_disabled": 0, "lon": -77.032613, "is_reserved": 0}, {"bike_id": "5795822bc5f164ec793ad3199774ff30", "fusion_lon": 0.0, "type": "electric_scooter", "name": "5795822bc5f164ec793ad3199774ff30", "rental_uris": {"android": "https://dc.lft.to/lastmile_qr_scan", "ios": "https://dc.lft.to/lastmile_qr_scan"}, "fusion_lat": 0.0, "lat": 38.924015, "is_disabled": 0, "lon": -77.04093483333334, "is_reserved": 0}, {"bike_id": "44ff38f8343dbae91aee12d050ac8e64", "fusion_lon": 0.0, "type": "electric_scooter", "name": "44ff38f8343dbae91aee12d050ac8e64", "rental_uris": {"android": "https://dc.lft.to/lastmile_qr_scan", "ios": "https://dc.lft.to/lastmile_qr_scan"}, "fusion_lat": 0.0, "lat": 38.94636766666667, "is_disabled": 0, "lon": -77.018423, "is_reserved": 0}, {"bike_id": "95378dffe6aea76614f0231f4bfa818c", "fusion_lon": 0.0, "type": "electric_scooter", "name": "95378dffe6aea76614f0231f4bfa818c", "rental_uris": {"android": "https://dc.lft.to/lastmile_qr_scan", "ios": "https://dc.lft.to/lastmile_qr_scan"}, "fusion_lat": 0.0, "lat": 38.95848133333333, "is_disabled": 0, "lon": -77.02906133333333, "is_reserved": 0}, {"bike_id": "03f5756c3b87d23b02207992768d2f2a", "fusion_lon": 0.0, "type": "electric_scooter", "name": "03f5756c3b87d23b02207992768d2f2a", "rental_uris": {"android": "https://dc.lft.to/lastmile_qr_scan", "ios": "https://dc.lft.to/lastmile_qr_scan"}, "fusion_lat": 0.0, "lat": 38.89619233333333, "is_disabled": 0, "lon": -76.999336, "is_reserved": 0}, {"bike_id": "ad83a9196bd509852b1c1136ab7530b1", "fusion_lon": 0.0, "type": "electric_bike", "name": "ad83a9196bd509852b1c1136ab7530b1", "rental_uris": {"android": "https://dc.lft.to/lastmile_qr_scan", "ios": "https://dc.lft.to/lastmile_qr_scan"}, "fusion_lat": 0.0, "lat": 38.90971666666667, "is_disabled": 0, "lon": -77.08822366666666, "is_reserved": 0}, {"bike_id": "bceb731be3388216d6954ad47c21e383", "fusion_lon": 0.0, "type": "electric_scooter", "name": "bceb731be3388216d6954ad47c21e383", "rental_uris": {"android": "https://dc.lft.to/lastmile_qr_scan", "ios": "https://dc.lft.to/lastmile_qr_scan"}, "fusion_lat": 0.0, "lat": 38.90569216666667, "is_disabled": 0, "lon": -77.02408183333333, "is_reserved": 0}, {"bike_id": "459ecc884633242621f54601b7d12cda", "fusion_lon": 0.0, "type": "electric_scooter", "name": "459ecc884633242621f54601b7d12cda", "rental_uris": {"android": "https://dc.lft.to/lastmile_qr_scan", "ios": "https://dc.lft.to/lastmile_qr_scan"}, "fusion_lat": 0.0, "lat": 38.8804475, "is_disabled": 0, "lon": -77.03064983333333, "is_reserved": 0}, {"bike_id": "681429a2fe73c06016053fcda3488066", "fusion_lon": 0.0, "type": "electric_scooter", "name": "681429a2fe73c06016053fcda3488066", "rental_uris": {"android": "https://dc.lft.to/lastmile_qr_scan", "ios": "https://dc.lft.to/lastmile_qr_scan"}, "fusion_lat": 0.0, "lat": 38.90966266666667, "is_disabled": 0, "lon": -77.02404133333333, "is_reserved": 0}, {"bike_id": "9f6b0f198c19bc4d8f6f3f768d57c79f", "fusion_lon": 0.0, "type": "electric_bike", "name": "9f6b0f198c19bc4d8f6f3f768d57c79f", "rental_uris": {"android": "https://dc.lft.to/lastmile_qr_scan", "ios": "https://dc.lft.to/lastmile_qr_scan"}, "fusion_lat": 0.0, "lat": 38.86907466666667, "is_disabled": 0, "lon": -77.13178716666667, "is_reserved": 0}, {"bike_id": "e98190c2244615cc52c1eb1ff35ba06d", "fusion_lon": 0.0, "type": "electric_bike", "name": "e98190c2244615cc52c1eb1ff35ba06d", "rental_uris": {"android": "https://dc.lft.to/lastmile_qr_scan", "ios": "https://dc.lft.to/lastmile_qr_scan"}, "fusion_lat": 0.0, "lat": 38.99680166666667, "is_disabled": 0, "lon": -77.03801916666667, "is_reserved": 0}, {"bike_id": "3e4c4b048951f5100c17b30580142226", "fusion_lon": 0.0, "type": "electric_scooter", "name": "3e4c4b048951f5100c17b30580142226", "rental_uris": {"android": "https://dc.lft.to/lastmile_qr_scan", "ios": "https://dc.lft.to/lastmile_qr_scan"}, "fusion_lat": 0.0, "lat": 38.894429833333334, "is_disabled": 0, "lon": -76.94777083333334, "is_reserved": 0}, {"bike_id": "d3f404c0c0dee31ca1d7f7e811a7967b", "fusion_lon": 0.0, "type": "electric_scooter", "name": "d3f404c0c0dee31ca1d7f7e811a7967b", "rental_uris": {"android": "https://dc.lft.to/lastmile_qr_scan", "ios": "https://dc.lft.to/lastmile_qr_scan"}, "fusion_lat": 0.0, "lat": 38.88327133333333, "is_disabled": 0, "lon": -77.025976, "is_reserved": 0}, {"bike_id": "d7942d9955d1a439eee8679d88c1fc12", "fusion_lon": 0.0, "type": "electric_scooter", "name": "d7942d9955d1a439eee8679d88c1fc12", "rental_uris": {"android": "https://dc.lft.to/lastmile_qr_scan", "ios": "https://dc.lft.to/lastmile_qr_scan"}, "fusion_lat": 0.0, "lat": 38.929553, "is_disabled": 0, "lon": -77.03423, "is_reserved": 0}, {"bike_id": "cae74961d4d5eacb8cae8b401268ecf7", "fusion_lon": 0.0, "type": "electric_scooter", "name": "cae74961d4d5eacb8cae8b401268ecf7", "rental_uris": {"android": "https://dc.lft.to/lastmile_qr_scan", "ios": "https://dc.lft.to/lastmile_qr_scan"}, "fusion_lat": 0.0, "lat": 38.91666166666667, "is_disabled": 0, "lon": -77.01920833333334, "is_reserved": 0}, {"bike_id": "932ff08998ddee970cde546dfd1235f2", "fusion_lon": 0.0, "type": "electric_scooter", "name": "932ff08998ddee970cde546dfd1235f2", "rental_uris": {"android": "https://dc.lft.to/lastmile_qr_scan", "ios": "https://dc.lft.to/lastmile_qr_scan"}, "fusion_lat": 0.0, "lat": 38.907245, "is_disabled": 0, "lon": -77.04277816666666, "is_reserved": 0}, {"bike_id": "5319bddfbd93ffca250c37c987b4b26c", "fusion_lon": 0.0, "type": "electric_scooter", "name": "5319bddfbd93ffca250c37c987b4b26c", "rental_uris": {"android": "https://dc.lft.to/lastmile_qr_scan", "ios": "https://dc.lft.to/lastmile_qr_scan"}, "fusion_lat": 0.0, "lat": 38.911072, "is_disabled": 0, "lon": -77.0481695, "is_reserved": 0}, {"bike_id": "e3a421e5705cb27fde8b61f2ab6173ca", "fusion_lon": 0.0, "type": "electric_scooter", "name": "e3a421e5705cb27fde8b61f2ab6173ca", "rental_uris": {"android": "https://dc.lft.to/lastmile_qr_scan", "ios": "https://dc.lft.to/lastmile_qr_scan"}, "fusion_lat": 0.0, "lat": 38.91553666666667, "is_disabled": 0, "lon": -77.02631433333333, "is_reserved": 0}, {"bike_id": "cb305c1a1f024f830f14789fb29aa72e", "fusion_lon": 0.0, "type": "electric_scooter", "name": "cb305c1a1f024f830f14789fb29aa72e", "rental_uris": {"android": "https://dc.lft.to/lastmile_qr_scan", "ios": "https://dc.lft.to/lastmile_qr_scan"}, "fusion_lat": 0.0, "lat": 38.92265666666667, "is_disabled": 0, "lon": -77.02961783333333, "is_reserved": 0}, {"bike_id": "13a7b9d380df9082a4ab9a2abe1d744e", "fusion_lon": 0.0, "type": "electric_scooter", "name": "13a7b9d380df9082a4ab9a2abe1d744e", "rental_uris": {"android": "https://dc.lft.to/lastmile_qr_scan", "ios": "https://dc.lft.to/lastmile_qr_scan"}, "fusion_lat": 0.0, "lat": 38.915784333333335, "is_disabled": 0, "lon": -77.04665316666667, "is_reserved": 0}, {"bike_id": "2c53f6d1d0f24d0dd9ae28d5bc974b68", "fusion_lon": 0.0, "type": "electric_scooter", "name": "2c53f6d1d0f24d0dd9ae28d5bc974b68", "rental_uris": {"android": "https://dc.lft.to/lastmile_qr_scan", "ios": "https://dc.lft.to/lastmile_qr_scan"}, "fusion_lat": 0.0, "lat": 38.8818845, "is_disabled": 0, "lon": -77.0035175, "is_reserved": 0}, {"bike_id": "a34ed9c69e8bc641d63a34bd8ddd5787", "fusion_lon": 0.0, "type": "electric_scooter", "name": "a34ed9c69e8bc641d63a34bd8ddd5787", "rental_uris": {"android": "https://dc.lft.to/lastmile_qr_scan", "ios": "https://dc.lft.to/lastmile_qr_scan"}, "fusion_lat": 0.0, "lat": 38.912074833333335, "is_disabled": 0, "lon": -77.01447716666667, "is_reserved": 0}, {"bike_id": "ff29f285f6801a436dd7e4e91d131d00", "fusion_lon": 0.0, "type": "electric_scooter", "name": "ff29f285f6801a436dd7e4e91d131d00", "rental_uris": {"android": "https://dc.lft.to/lastmile_qr_scan", "ios": "https://dc.lft.to/lastmile_qr_scan"}, "fusion_lat": 0.0, "lat": 38.9143515, "is_disabled": 0, "lon": -77.01803483333333, "is_reserved": 0}, {"bike_id": "d5be8ab53cbea4083151ae0df79d1146", "fusion_lon": 0.0, "type": "electric_scooter", "name": "d5be8ab53cbea4083151ae0df79d1146", "rental_uris": {"android": "https://dc.lft.to/lastmile_qr_scan", "ios": "https://dc.lft.to/lastmile_qr_scan"}, "fusion_lat": 0.0, "lat": 38.91940183333333, "is_disabled": 0, "lon": -77.01358983333333, "is_reserved": 0}, {"bike_id": "6e58e88c143ae5872bebf2ffb99b7d4b", "fusion_lon": 0.0, "type": "electric_scooter", "name": "6e58e88c143ae5872bebf2ffb99b7d4b", "rental_uris": {"android": "https://dc.lft.to/lastmile_qr_scan", "ios": "https://dc.lft.to/lastmile_qr_scan"}, "fusion_lat": 0.0, "lat": 38.908650333333334, "is_disabled": 0, "lon": -77.012495, "is_reserved": 0}, {"bike_id": "e954ae881f7d4f248d9cba8556c98d36", "fusion_lon": 0.0, "type": "electric_scooter", "name": "e954ae881f7d4f248d9cba8556c98d36", "rental_uris": {"android": "https://dc.lft.to/lastmile_qr_scan", "ios": "https://dc.lft.to/lastmile_qr_scan"}, "fusion_lat": 0.0, "lat": 38.922787166666666, "is_disabled": 0, "lon": -76.99413783333333, "is_reserved": 0}, {"bike_id": "cc3f9d0309cfffd703abee72143eca74", "fusion_lon": 0.0, "type": "electric_scooter", "name": "cc3f9d0309cfffd703abee72143eca74", "rental_uris": {"android": "https://dc.lft.to/lastmile_qr_scan", "ios": "https://dc.lft.to/lastmile_qr_scan"}, "fusion_lat": 0.0, "lat": 38.90019, "is_disabled": 0, "lon": -76.98847433333333, "is_reserved": 0}, {"bike_id": "99a245e0123d0b4d3a5a842cd672e423", "fusion_lon": 0.0, "type": "electric_scooter", "name": "99a245e0123d0b4d3a5a842cd672e423", "rental_uris": {"android": "https://dc.lft.to/lastmile_qr_scan", "ios": "https://dc.lft.to/lastmile_qr_scan"}, "fusion_lat": 0.0, "lat": 38.87481916666667, "is_disabled": 0, "lon": -76.96521666666666, "is_reserved": 0}, {"bike_id": "6dca1c39ebe7b6b49639f74de4fcc304", "fusion_lon": 0.0, "type": "electric_scooter", "name": "6dca1c39ebe7b6b49639f74de4fcc304", "rental_uris": {"android": "https://dc.lft.to/lastmile_qr_scan", "ios": "https://dc.lft.to/lastmile_qr_scan"}, "fusion_lat": 0.0, "lat": 38.933356, "is_disabled": 0, "lon": -77.0326315, "is_reserved": 0}, {"bike_id": "1b8d1be6cd9c16b18c0ce3552d5931c7", "fusion_lon": 0.0, "type": "electric_scooter", "name": "1b8d1be6cd9c16b18c0ce3552d5931c7", "rental_uris": {"android": "https://dc.lft.to/lastmile_qr_scan", "ios": "https://dc.lft.to/lastmile_qr_scan"}, "fusion_lat": 0.0, "lat": 38.91213033333333, "is_disabled": 0, "lon": -77.03843916666666, "is_reserved": 0}, {"bike_id": "687b26fdf622dbbdf5d788dfa3f493d0", "fusion_lon": 0.0, "type": "electric_scooter", "name": "687b26fdf622dbbdf5d788dfa3f493d0", "rental_uris": {"android": "https://dc.lft.to/lastmile_qr_scan", "ios": "https://dc.lft.to/lastmile_qr_scan"}, "fusion_lat": 0.0, "lat": 38.9499975, "is_disabled": 0, "lon": -77.0271255, "is_reserved": 0}, {"bike_id": "7e3fbf7a62a1f0f520e9a36ae08d25fd", "fusion_lon": 0.0, "type": "electric_scooter", "name": "7e3fbf7a62a1f0f520e9a36ae08d25fd", "rental_uris": {"android": "https://dc.lft.to/lastmile_qr_scan", "ios": "https://dc.lft.to/lastmile_qr_scan"}, "fusion_lat": 0.0, "lat": 38.917089833333335, "is_disabled": 0, "lon": -77.03866133333334, "is_reserved": 0}, {"bike_id": "7036ffe73888d15b0d8b1954f4ffc467", "fusion_lon": 0.0, "type": "electric_scooter", "name": "7036ffe73888d15b0d8b1954f4ffc467", "rental_uris": {"android": "https://dc.lft.to/lastmile_qr_scan", "ios": "https://dc.lft.to/lastmile_qr_scan"}, "fusion_lat": 0.0, "lat": 38.883807833333336, "is_disabled": 0, "lon": -77.019724, "is_reserved": 0}, {"bike_id": "57bded1e72f2a35d7fd95b981563e442", "fusion_lon": 0.0, "type": "electric_scooter", "name": "57bded1e72f2a35d7fd95b981563e442", "rental_uris": {"android": "https://dc.lft.to/lastmile_qr_scan", "ios": "https://dc.lft.to/lastmile_qr_scan"}, "fusion_lat": 0.0, "lat": 38.88741016666667, "is_disabled": 0, "lon": -77.0153715, "is_reserved": 0}, {"bike_id": "4a8426b69b50b11cf33ef6d034735c46", "fusion_lon": 0.0, "type": "electric_scooter", "name": "4a8426b69b50b11cf33ef6d034735c46", "rental_uris": {"android": "https://dc.lft.to/lastmile_qr_scan", "ios": "https://dc.lft.to/lastmile_qr_scan"}, "fusion_lat": 0.0, "lat": 38.917720833333334, "is_disabled": 0, "lon": -77.02296966666667, "is_reserved": 0}, {"bike_id": "f95d08b1a873b5dde3804ff4099d84c7", "fusion_lon": 0.0, "type": "electric_scooter", "name": "f95d08b1a873b5dde3804ff4099d84c7", "rental_uris": {"android": "https://dc.lft.to/lastmile_qr_scan", "ios": "https://dc.lft.to/lastmile_qr_scan"}, "fusion_lat": 0.0, "lat": 38.92018916666667, "is_disabled": 0, "lon": -77.04078516666667, "is_reserved": 0}, {"bike_id": "187a087a9ae7653cf7ce068686f8912f", "fusion_lon": 0.0, "type": "electric_scooter", "name": "187a087a9ae7653cf7ce068686f8912f", "rental_uris": {"android": "https://dc.lft.to/lastmile_qr_scan", "ios": "https://dc.lft.to/lastmile_qr_scan"}, "fusion_lat": 0.0, "lat": 38.8620375, "is_disabled": 0, "lon": -76.9950845, "is_reserved": 0}, {"bike_id": "3cb25e455c2d66de71bf0866f328cd45", "fusion_lon": 0.0, "type": "electric_scooter", "name": "3cb25e455c2d66de71bf0866f328cd45", "rental_uris": {"android": "https://dc.lft.to/lastmile_qr_scan", "ios": "https://dc.lft.to/lastmile_qr_scan"}, "fusion_lat": 0.0, "lat": 38.92794683333334, "is_disabled": 0, "lon": -77.03195483333333, "is_reserved": 0}, {"bike_id": "ba0050e1e3880b0876d8c63608fe083e", "fusion_lon": 0.0, "type": "electric_scooter", "name": "ba0050e1e3880b0876d8c63608fe083e", "rental_uris": {"android": "https://dc.lft.to/lastmile_qr_scan", "ios": "https://dc.lft.to/lastmile_qr_scan"}, "fusion_lat": 0.0, "lat": 38.82260133333333, "is_disabled": 0, "lon": -77.00205083333333, "is_reserved": 0}, {"bike_id": "b69689c86bea917f40994881d7c3fa8a", "fusion_lon": 0.0, "type": "electric_bike", "name": "b69689c86bea917f40994881d7c3fa8a", "rental_uris": {"android": "https://dc.lft.to/lastmile_qr_scan", "ios": "https://dc.lft.to/lastmile_qr_scan"}, "fusion_lat": 0.0, "lat": 38.845172166666664, "is_disabled": 0, "lon": -77.07794083333333, "is_reserved": 0}, {"bike_id": "6b1274fa98a56c5ed41be0d6e527c85c", "fusion_lon": 0.0, "type": "electric_scooter", "name": "6b1274fa98a56c5ed41be0d6e527c85c", "rental_uris": {"android": "https://dc.lft.to/lastmile_qr_scan", "ios": "https://dc.lft.to/lastmile_qr_scan"}, "fusion_lat": 0.0, "lat": 38.97236083333333, "is_disabled": 0, "lon": -77.02711066666667, "is_reserved": 0}, {"bike_id": "4663aa3dba705b53c489dbadc12fb105", "fusion_lon": 0.0, "type": "electric_scooter", "name": "4663aa3dba705b53c489dbadc12fb105", "rental_uris": {"android": "https://dc.lft.to/lastmile_qr_scan", "ios": "https://dc.lft.to/lastmile_qr_scan"}, "fusion_lat": 0.0, "lat": 38.901172, "is_disabled": 0, "lon": -77.04987866666667, "is_reserved": 0}, {"bike_id": "cc27667c7f3beccfc25c482cb9c8e400", "fusion_lon": 0.0, "type": "electric_scooter", "name": "cc27667c7f3beccfc25c482cb9c8e400", "rental_uris": {"android": "https://dc.lft.to/lastmile_qr_scan", "ios": "https://dc.lft.to/lastmile_qr_scan"}, "fusion_lat": 0.0, "lat": 38.89883916666667, "is_disabled": 0, "lon": -76.931724, "is_reserved": 0}, {"bike_id": "4db6f85d29e4cfda085f54610d11589c", "fusion_lon": 0.0, "type": "electric_scooter", "name": "4db6f85d29e4cfda085f54610d11589c", "rental_uris": {"android": "https://dc.lft.to/lastmile_qr_scan", "ios": "https://dc.lft.to/lastmile_qr_scan"}, "fusion_lat": 0.0, "lat": 38.8797155, "is_disabled": 0, "lon": -76.99501133333334, "is_reserved": 0}, {"bike_id": "bab7c5152823fe17413cd2f7015ca87b", "fusion_lon": 0.0, "type": "electric_scooter", "name": "bab7c5152823fe17413cd2f7015ca87b", "rental_uris": {"android": "https://dc.lft.to/lastmile_qr_scan", "ios": "https://dc.lft.to/lastmile_qr_scan"}, "fusion_lat": 0.0, "lat": 38.88627066666667, "is_disabled": 0, "lon": -77.03170066666667, "is_reserved": 0}, {"bike_id": "8035c416e5792528195bace8e91e8a02", "fusion_lon": 0.0, "type": "electric_scooter", "name": "8035c416e5792528195bace8e91e8a02", "rental_uris": {"android": "https://dc.lft.to/lastmile_qr_scan", "ios": "https://dc.lft.to/lastmile_qr_scan"}, "fusion_lat": 0.0, "lat": 38.904084833333336, "is_disabled": 0, "lon": -77.0327045, "is_reserved": 0}, {"bike_id": "caab44eb74468d7cc13fb51de1b82ff0", "fusion_lon": 0.0, "type": "electric_scooter", "name": "caab44eb74468d7cc13fb51de1b82ff0", "rental_uris": {"android": "https://dc.lft.to/lastmile_qr_scan", "ios": "https://dc.lft.to/lastmile_qr_scan"}, "fusion_lat": 0.0, "lat": 38.915407333333334, "is_disabled": 0, "lon": -77.01221866666667, "is_reserved": 0}, {"bike_id": "cb4711dce8d25c42e2135acdd9c38f22", "fusion_lon": 0.0, "type": "electric_scooter", "name": "cb4711dce8d25c42e2135acdd9c38f22", "rental_uris": {"android": "https://dc.lft.to/lastmile_qr_scan", "ios": "https://dc.lft.to/lastmile_qr_scan"}, "fusion_lat": 0.0, "lat": 38.9022375, "is_disabled": 0, "lon": -77.002103, "is_reserved": 0}, {"bike_id": "5fe8218aeedf8008d0c97d874e96bf75", "fusion_lon": 0.0, "type": "electric_scooter", "name": "5fe8218aeedf8008d0c97d874e96bf75", "rental_uris": {"android": "https://dc.lft.to/lastmile_qr_scan", "ios": "https://dc.lft.to/lastmile_qr_scan"}, "fusion_lat": 0.0, "lat": 38.89334483333333, "is_disabled": 0, "lon": -77.04660366666667, "is_reserved": 0}, {"bike_id": "10a755c5f7fa8525bd0b65f67eabaa6b", "fusion_lon": 0.0, "type": "electric_scooter", "name": "10a755c5f7fa8525bd0b65f67eabaa6b", "rental_uris": {"android": "https://dc.lft.to/lastmile_qr_scan", "ios": "https://dc.lft.to/lastmile_qr_scan"}, "fusion_lat": 0.0, "lat": 38.907788333333336, "is_disabled": 0, "lon": -77.03856133333333, "is_reserved": 0}, {"bike_id": "6f856cd1a592c41d3cf0662854fb2b09", "fusion_lon": 0.0, "type": "electric_bike", "name": "6f856cd1a592c41d3cf0662854fb2b09", "rental_uris": {"android": "https://dc.lft.to/lastmile_qr_scan", "ios": "https://dc.lft.to/lastmile_qr_scan"}, "fusion_lat": 0.0, "lat": 38.917364, "is_disabled": 0, "lon": -77.0016685, "is_reserved": 0}, {"bike_id": "58d4c4063d7b4684a5bb7f683221d6ec", "fusion_lon": 0.0, "type": "electric_scooter", "name": "58d4c4063d7b4684a5bb7f683221d6ec", "rental_uris": {"android": "https://dc.lft.to/lastmile_qr_scan", "ios": "https://dc.lft.to/lastmile_qr_scan"}, "fusion_lat": 0.0, "lat": 38.90285566666667, "is_disabled": 0, "lon": -77.02201883333333, "is_reserved": 0}, {"bike_id": "bc5c45cea1ff8021c8d5b2c2d6d62ca4", "fusion_lon": 0.0, "type": "electric_scooter", "name": "bc5c45cea1ff8021c8d5b2c2d6d62ca4", "rental_uris": {"android": "https://dc.lft.to/lastmile_qr_scan", "ios": "https://dc.lft.to/lastmile_qr_scan"}, "fusion_lat": 0.0, "lat": 38.90207266666667, "is_disabled": 0, "lon": -77.02205333333333, "is_reserved": 0}, {"bike_id": "62e2908bf0dc9525afdf99f1ea16af49", "fusion_lon": 0.0, "type": "electric_scooter", "name": "62e2908bf0dc9525afdf99f1ea16af49", "rental_uris": {"android": "https://dc.lft.to/lastmile_qr_scan", "ios": "https://dc.lft.to/lastmile_qr_scan"}, "fusion_lat": 0.0, "lat": 38.940317, "is_disabled": 0, "lon": -77.02965183333333, "is_reserved": 0}, {"bike_id": "672bc82d5a61f5fa96be5fbd21bef8be", "fusion_lon": 0.0, "type": "electric_scooter", "name": "672bc82d5a61f5fa96be5fbd21bef8be", "rental_uris": {"android": "https://dc.lft.to/lastmile_qr_scan", "ios": "https://dc.lft.to/lastmile_qr_scan"}, "fusion_lat": 0.0, "lat": 38.911126333333335, "is_disabled": 0, "lon": -77.04499216666666, "is_reserved": 0}, {"bike_id": "240baaee3c6f452de3aecf52b9cc6a18", "fusion_lon": 0.0, "type": "electric_scooter", "name": "240baaee3c6f452de3aecf52b9cc6a18", "rental_uris": {"android": "https://dc.lft.to/lastmile_qr_scan", "ios": "https://dc.lft.to/lastmile_qr_scan"}, "fusion_lat": 0.0, "lat": 38.87703416666667, "is_disabled": 0, "lon": -77.01590366666667, "is_reserved": 0}, {"bike_id": "ed1b0afc642b4ba14fa37d2635ace57f", "fusion_lon": 0.0, "type": "electric_scooter", "name": "ed1b0afc642b4ba14fa37d2635ace57f", "rental_uris": {"android": "https://dc.lft.to/lastmile_qr_scan", "ios": "https://dc.lft.to/lastmile_qr_scan"}, "fusion_lat": 0.0, "lat": 38.900734, "is_disabled": 0, "lon": -77.04838066666667, "is_reserved": 0}, {"bike_id": "b07985f8ac46a3cd697cf566bae9bfef", "fusion_lon": 0.0, "type": "electric_bike", "name": "b07985f8ac46a3cd697cf566bae9bfef", "rental_uris": {"android": "https://dc.lft.to/lastmile_qr_scan", "ios": "https://dc.lft.to/lastmile_qr_scan"}, "fusion_lat": 0.0, "lat": 38.90320616666666, "is_disabled": 0, "lon": -76.991234, "is_reserved": 0}, {"bike_id": "a66860e542ce0a82919076004cdfc427", "fusion_lon": 0.0, "type": "electric_bike", "name": "a66860e542ce0a82919076004cdfc427", "rental_uris": {"android": "https://dc.lft.to/lastmile_qr_scan", "ios": "https://dc.lft.to/lastmile_qr_scan"}, "fusion_lat": 0.0, "lat": 38.89814483333333, "is_disabled": 0, "lon": -77.0060225, "is_reserved": 0}, {"bike_id": "76447dd93008abeac5568758085ca8aa", "fusion_lon": 0.0, "type": "electric_scooter", "name": "76447dd93008abeac5568758085ca8aa", "rental_uris": {"android": "https://dc.lft.to/lastmile_qr_scan", "ios": "https://dc.lft.to/lastmile_qr_scan"}, "fusion_lat": 0.0, "lat": 38.922507, "is_disabled": 0, "lon": -77.03072283333333, "is_reserved": 0}, {"bike_id": "ad9c0b61d86b5ccb03b17e391ffd3935", "fusion_lon": 0.0, "type": "electric_scooter", "name": "ad9c0b61d86b5ccb03b17e391ffd3935", "rental_uris": {"android": "https://dc.lft.to/lastmile_qr_scan", "ios": "https://dc.lft.to/lastmile_qr_scan"}, "fusion_lat": 0.0, "lat": 38.903920166666666, "is_disabled": 0, "lon": -77.03374833333334, "is_reserved": 0}, {"bike_id": "876cd1cb0723cd76309d9130921d1a34", "fusion_lon": 0.0, "type": "electric_scooter", "name": "876cd1cb0723cd76309d9130921d1a34", "rental_uris": {"android": "https://dc.lft.to/lastmile_qr_scan", "ios": "https://dc.lft.to/lastmile_qr_scan"}, "fusion_lat": 0.0, "lat": 38.91892416666666, "is_disabled": 0, "lon": -77.04118816666667, "is_reserved": 0}, {"bike_id": "d4262e42e018331f6a1817cc73c0cf75", "fusion_lon": 0.0, "type": "electric_scooter", "name": "d4262e42e018331f6a1817cc73c0cf75", "rental_uris": {"android": "https://dc.lft.to/lastmile_qr_scan", "ios": "https://dc.lft.to/lastmile_qr_scan"}, "fusion_lat": 0.0, "lat": 38.90001216666667, "is_disabled": 0, "lon": -76.98414716666667, "is_reserved": 0}, {"bike_id": "7f3d297d90efd591b324bd16b0b8c3e1", "fusion_lon": 0.0, "type": "electric_scooter", "name": "7f3d297d90efd591b324bd16b0b8c3e1", "rental_uris": {"android": "https://dc.lft.to/lastmile_qr_scan", "ios": "https://dc.lft.to/lastmile_qr_scan"}, "fusion_lat": 0.0, "lat": 38.87914766666667, "is_disabled": 0, "lon": -77.02357433333333, "is_reserved": 0}, {"bike_id": "8e51c9dbe37d7dbc8c6ac4e2c7fc095d", "fusion_lon": 0.0, "type": "electric_scooter", "name": "8e51c9dbe37d7dbc8c6ac4e2c7fc095d", "rental_uris": {"android": "https://dc.lft.to/lastmile_qr_scan", "ios": "https://dc.lft.to/lastmile_qr_scan"}, "fusion_lat": 0.0, "lat": 38.919281833333336, "is_disabled": 0, "lon": -77.03128133333334, "is_reserved": 0}, {"bike_id": "fcafbf98fe66cc318a94438d531d8da5", "fusion_lon": 0.0, "type": "electric_scooter", "name": "fcafbf98fe66cc318a94438d531d8da5", "rental_uris": {"android": "https://dc.lft.to/lastmile_qr_scan", "ios": "https://dc.lft.to/lastmile_qr_scan"}, "fusion_lat": 0.0, "lat": 38.90685233333333, "is_disabled": 0, "lon": -77.06341133333333, "is_reserved": 0}, {"bike_id": "bf9d296c55ab712c776745f9a0d44fa9", "fusion_lon": 0.0, "type": "electric_bike", "name": "bf9d296c55ab712c776745f9a0d44fa9", "rental_uris": {"android": "https://dc.lft.to/lastmile_qr_scan", "ios": "https://dc.lft.to/lastmile_qr_scan"}, "fusion_lat": 0.0, "lat": 38.95084583333333, "is_disabled": 0, "lon": -77.01225383333333, "is_reserved": 0}, {"bike_id": "a6f9ef18ca73ced68a6ed524f0a155b6", "fusion_lon": 0.0, "type": "electric_scooter", "name": "a6f9ef18ca73ced68a6ed524f0a155b6", "rental_uris": {"android": "https://dc.lft.to/lastmile_qr_scan", "ios": "https://dc.lft.to/lastmile_qr_scan"}, "fusion_lat": 0.0, "lat": 38.92899166666667, "is_disabled": 0, "lon": -76.9847385, "is_reserved": 0}, {"bike_id": "35c6640166f741bafbef51dfaa307014", "fusion_lon": 0.0, "type": "electric_scooter", "name": "35c6640166f741bafbef51dfaa307014", "rental_uris": {"android": "https://dc.lft.to/lastmile_qr_scan", "ios": "https://dc.lft.to/lastmile_qr_scan"}, "fusion_lat": 0.0, "lat": 38.8907745, "is_disabled": 0, "lon": -76.9192105, "is_reserved": 0}, {"bike_id": "5e4ff29ec65e0ad98ecd8339be13c4b5", "fusion_lon": 0.0, "type": "electric_scooter", "name": "5e4ff29ec65e0ad98ecd8339be13c4b5", "rental_uris": {"android": "https://dc.lft.to/lastmile_qr_scan", "ios": "https://dc.lft.to/lastmile_qr_scan"}, "fusion_lat": 0.0, "lat": 38.93423883333333, "is_disabled": 0, "lon": -77.04399966666666, "is_reserved": 0}, {"bike_id": "1ef9de23edfc3c5f3f36cc303660f50a", "fusion_lon": 0.0, "type": "electric_scooter", "name": "1ef9de23edfc3c5f3f36cc303660f50a", "rental_uris": {"android": "https://dc.lft.to/lastmile_qr_scan", "ios": "https://dc.lft.to/lastmile_qr_scan"}, "fusion_lat": 0.0, "lat": 38.904572333333334, "is_disabled": 0, "lon": -77.03466866666666, "is_reserved": 0}, {"bike_id": "fa3a8b87088a0ef01cf9de1861d9b68b", "fusion_lon": 0.0, "type": "electric_scooter", "name": "fa3a8b87088a0ef01cf9de1861d9b68b", "rental_uris": {"android": "https://dc.lft.to/lastmile_qr_scan", "ios": "https://dc.lft.to/lastmile_qr_scan"}, "fusion_lat": 0.0, "lat": 38.905809833333336, "is_disabled": 0, "lon": -77.03065, "is_reserved": 0}, {"bike_id": "282fee25d2d20ae369f26b33d27c6eab", "fusion_lon": 0.0, "type": "electric_scooter", "name": "282fee25d2d20ae369f26b33d27c6eab", "rental_uris": {"android": "https://dc.lft.to/lastmile_qr_scan", "ios": "https://dc.lft.to/lastmile_qr_scan"}, "fusion_lat": 0.0, "lat": 38.921600166666664, "is_disabled": 0, "lon": -77.04705916666667, "is_reserved": 0}, {"bike_id": "8391351146ef0ed64a7e12944a9ea933", "fusion_lon": 0.0, "type": "electric_scooter", "name": "8391351146ef0ed64a7e12944a9ea933", "rental_uris": {"android": "https://dc.lft.to/lastmile_qr_scan", "ios": "https://dc.lft.to/lastmile_qr_scan"}, "fusion_lat": 0.0, "lat": 38.920671166666665, "is_disabled": 0, "lon": -77.03822866666667, "is_reserved": 0}, {"bike_id": "c5bb9caa6e18b5e3e4723b9a1fba4bd9", "fusion_lon": 0.0, "type": "electric_bike", "name": "c5bb9caa6e18b5e3e4723b9a1fba4bd9", "rental_uris": {"android": "https://dc.lft.to/lastmile_qr_scan", "ios": "https://dc.lft.to/lastmile_qr_scan"}, "fusion_lat": 0.0, "lat": 38.83042733333333, "is_disabled": 0, "lon": -77.10901916666667, "is_reserved": 0}, {"bike_id": "7b41a749a6688e3e23bac9f37a4dc71e", "fusion_lon": 0.0, "type": "electric_scooter", "name": "7b41a749a6688e3e23bac9f37a4dc71e", "rental_uris": {"android": "https://dc.lft.to/lastmile_qr_scan", "ios": "https://dc.lft.to/lastmile_qr_scan"}, "fusion_lat": 0.0, "lat": 38.915474, "is_disabled": 0, "lon": -77.0386395, "is_reserved": 0}, {"bike_id": "6898d4dbf01cd54bafd190bca0e2e901", "fusion_lon": 0.0, "type": "electric_scooter", "name": "6898d4dbf01cd54bafd190bca0e2e901", "rental_uris": {"android": "https://dc.lft.to/lastmile_qr_scan", "ios": "https://dc.lft.to/lastmile_qr_scan"}, "fusion_lat": 0.0, "lat": 38.90412216666667, "is_disabled": 0, "lon": -77.00135016666667, "is_reserved": 0}, {"bike_id": "62ebf5ebd9a8cf632700c03a27927451", "fusion_lon": 0.0, "type": "electric_bike", "name": "62ebf5ebd9a8cf632700c03a27927451", "rental_uris": {"android": "https://dc.lft.to/lastmile_qr_scan", "ios": "https://dc.lft.to/lastmile_qr_scan"}, "fusion_lat": 0.0, "lat": 38.92606033333333, "is_disabled": 0, "lon": -77.0243295, "is_reserved": 0}, {"bike_id": "d65069283ab77629f50725d8480578b6", "fusion_lon": 0.0, "type": "electric_bike", "name": "d65069283ab77629f50725d8480578b6", "rental_uris": {"android": "https://dc.lft.to/lastmile_qr_scan", "ios": "https://dc.lft.to/lastmile_qr_scan"}, "fusion_lat": 0.0, "lat": 38.8918425, "is_disabled": 0, "lon": -76.95027216666666, "is_reserved": 0}, {"bike_id": "bd7ff75627ea8ad6155bfdea20b5f932", "fusion_lon": 0.0, "type": "electric_scooter", "name": "bd7ff75627ea8ad6155bfdea20b5f932", "rental_uris": {"android": "https://dc.lft.to/lastmile_qr_scan", "ios": "https://dc.lft.to/lastmile_qr_scan"}, "fusion_lat": 0.0, "lat": 38.906549166666665, "is_disabled": 0, "lon": -77.02975166666667, "is_reserved": 0}, {"bike_id": "ec0cc3f4dd53f93745d015263a460f16", "fusion_lon": 0.0, "type": "electric_bike", "name": "ec0cc3f4dd53f93745d015263a460f16", "rental_uris": {"android": "https://dc.lft.to/lastmile_qr_scan", "ios": "https://dc.lft.to/lastmile_qr_scan"}, "fusion_lat": 0.0, "lat": 38.96305616666667, "is_disabled": 0, "lon": -77.01106916666667, "is_reserved": 0}, {"bike_id": "6c7a7c47805dc31bade5c371f2c7ae7d", "fusion_lon": 0.0, "type": "electric_scooter", "name": "6c7a7c47805dc31bade5c371f2c7ae7d", "rental_uris": {"android": "https://dc.lft.to/lastmile_qr_scan", "ios": "https://dc.lft.to/lastmile_qr_scan"}, "fusion_lat": 0.0, "lat": 38.904819333333336, "is_disabled": 0, "lon": -76.97338133333334, "is_reserved": 0}, {"bike_id": "72866cb98a869900126ed12019bd570c", "fusion_lon": 0.0, "type": "electric_scooter", "name": "72866cb98a869900126ed12019bd570c", "rental_uris": {"android": "https://dc.lft.to/lastmile_qr_scan", "ios": "https://dc.lft.to/lastmile_qr_scan"}, "fusion_lat": 0.0, "lat": 38.90270666666667, "is_disabled": 0, "lon": -77.03462333333333, "is_reserved": 0}, {"bike_id": "d366e014b3c816b7462f0eb077404df3", "fusion_lon": 0.0, "type": "electric_scooter", "name": "d366e014b3c816b7462f0eb077404df3", "rental_uris": {"android": "https://dc.lft.to/lastmile_qr_scan", "ios": "https://dc.lft.to/lastmile_qr_scan"}, "fusion_lat": 0.0, "lat": 38.924884166666665, "is_disabled": 0, "lon": -77.02137066666667, "is_reserved": 0}, {"bike_id": "8931cfa9a01b07696908717fa6f1da78", "fusion_lon": 0.0, "type": "electric_scooter", "name": "8931cfa9a01b07696908717fa6f1da78", "rental_uris": {"android": "https://dc.lft.to/lastmile_qr_scan", "ios": "https://dc.lft.to/lastmile_qr_scan"}, "fusion_lat": 0.0, "lat": 38.90015533333333, "is_disabled": 0, "lon": -76.991204, "is_reserved": 0}, {"bike_id": "19fde81bf7522b39f6e3523a2d5b6030", "fusion_lon": 0.0, "type": "electric_scooter", "name": "19fde81bf7522b39f6e3523a2d5b6030", "rental_uris": {"android": "https://dc.lft.to/lastmile_qr_scan", "ios": "https://dc.lft.to/lastmile_qr_scan"}, "fusion_lat": 0.0, "lat": 38.93879716666667, "is_disabled": 0, "lon": -77.0248415, "is_reserved": 0}, {"bike_id": "9a85f1a7aeac81ac6d9c37dd8f469e59", "fusion_lon": 0.0, "type": "electric_scooter", "name": "9a85f1a7aeac81ac6d9c37dd8f469e59", "rental_uris": {"android": "https://dc.lft.to/lastmile_qr_scan", "ios": "https://dc.lft.to/lastmile_qr_scan"}, "fusion_lat": 0.0, "lat": 38.927819166666666, "is_disabled": 0, "lon": -77.03704883333333, "is_reserved": 0}, {"bike_id": "20ae0f0317d59f19a104b7512761ead0", "fusion_lon": 0.0, "type": "electric_scooter", "name": "20ae0f0317d59f19a104b7512761ead0", "rental_uris": {"android": "https://dc.lft.to/lastmile_qr_scan", "ios": "https://dc.lft.to/lastmile_qr_scan"}, "fusion_lat": 0.0, "lat": 38.9237505, "is_disabled": 0, "lon": -77.02804933333333, "is_reserved": 0}, {"bike_id": "56034c7aa6fe2ad5d1e2760f24f590f6", "fusion_lon": 0.0, "type": "electric_scooter", "name": "56034c7aa6fe2ad5d1e2760f24f590f6", "rental_uris": {"android": "https://dc.lft.to/lastmile_qr_scan", "ios": "https://dc.lft.to/lastmile_qr_scan"}, "fusion_lat": 0.0, "lat": 38.93758316666667, "is_disabled": 0, "lon": -77.03281883333334, "is_reserved": 0}, {"bike_id": "ce1fecd454c5fccf31155a4e61184d7f", "fusion_lon": 0.0, "type": "electric_bike", "name": "ce1fecd454c5fccf31155a4e61184d7f", "rental_uris": {"android": "https://dc.lft.to/lastmile_qr_scan", "ios": "https://dc.lft.to/lastmile_qr_scan"}, "fusion_lat": 0.0, "lat": 38.990644833333334, "is_disabled": 0, "lon": -77.10026366666666, "is_reserved": 0}, {"bike_id": "5faa8d423704d75f4aba812bb3b5e110", "fusion_lon": 0.0, "type": "electric_scooter", "name": "5faa8d423704d75f4aba812bb3b5e110", "rental_uris": {"android": "https://dc.lft.to/lastmile_qr_scan", "ios": "https://dc.lft.to/lastmile_qr_scan"}, "fusion_lat": 0.0, "lat": 38.89887733333333, "is_disabled": 0, "lon": -76.98567916666667, "is_reserved": 0}, {"bike_id": "31e958f9e452832d9778f9b2314324ae", "fusion_lon": 0.0, "type": "electric_scooter", "name": "31e958f9e452832d9778f9b2314324ae", "rental_uris": {"android": "https://dc.lft.to/lastmile_qr_scan", "ios": "https://dc.lft.to/lastmile_qr_scan"}, "fusion_lat": 0.0, "lat": 38.9125635, "is_disabled": 0, "lon": -77.0408845, "is_reserved": 0}, {"bike_id": "52bb3e5afa7120448c91389645c0fba1", "fusion_lon": 0.0, "type": "electric_scooter", "name": "52bb3e5afa7120448c91389645c0fba1", "rental_uris": {"android": "https://dc.lft.to/lastmile_qr_scan", "ios": "https://dc.lft.to/lastmile_qr_scan"}, "fusion_lat": 0.0, "lat": 38.9119555, "is_disabled": 0, "lon": -77.01816516666666, "is_reserved": 0}, {"bike_id": "dfa244ee13d0e2887f7683cdee906873", "fusion_lon": 0.0, "type": "electric_scooter", "name": "dfa244ee13d0e2887f7683cdee906873", "rental_uris": {"android": "https://dc.lft.to/lastmile_qr_scan", "ios": "https://dc.lft.to/lastmile_qr_scan"}, "fusion_lat": 0.0, "lat": 38.90692333333333, "is_disabled": 0, "lon": -77.01000033333334, "is_reserved": 0}, {"bike_id": "6309f9ec13b19c0198ee84604e40530c", "fusion_lon": 0.0, "type": "electric_scooter", "name": "6309f9ec13b19c0198ee84604e40530c", "rental_uris": {"android": "https://dc.lft.to/lastmile_qr_scan", "ios": "https://dc.lft.to/lastmile_qr_scan"}, "fusion_lat": 0.0, "lat": 38.917129833333334, "is_disabled": 0, "lon": -77.039015, "is_reserved": 0}, {"bike_id": "0cedcc7b03e3e90586e4ff2fff307c57", "fusion_lon": 0.0, "type": "electric_scooter", "name": "0cedcc7b03e3e90586e4ff2fff307c57", "rental_uris": {"android": "https://dc.lft.to/lastmile_qr_scan", "ios": "https://dc.lft.to/lastmile_qr_scan"}, "fusion_lat": 0.0, "lat": 38.90700833333333, "is_disabled": 0, "lon": -77.005889, "is_reserved": 0}, {"bike_id": "2ecbf9d46f825efe7413c13a17f6e4d1", "fusion_lon": 0.0, "type": "electric_bike", "name": "2ecbf9d46f825efe7413c13a17f6e4d1", "rental_uris": {"android": "https://dc.lft.to/lastmile_qr_scan", "ios": "https://dc.lft.to/lastmile_qr_scan"}, "fusion_lat": 0.0, "lat": 38.874925833333336, "is_disabled": 0, "lon": -77.048988, "is_reserved": 0}, {"bike_id": "0d17b758706d33f4f3fae2fe92a8fef2", "fusion_lon": 0.0, "type": "electric_scooter", "name": "0d17b758706d33f4f3fae2fe92a8fef2", "rental_uris": {"android": "https://dc.lft.to/lastmile_qr_scan", "ios": "https://dc.lft.to/lastmile_qr_scan"}, "fusion_lat": 0.0, "lat": 38.898304333333336, "is_disabled": 0, "lon": -76.94650133333333, "is_reserved": 0}, {"bike_id": "3df0e41459577522a5e88448630c25e3", "fusion_lon": 0.0, "type": "electric_scooter", "name": "3df0e41459577522a5e88448630c25e3", "rental_uris": {"android": "https://dc.lft.to/lastmile_qr_scan", "ios": "https://dc.lft.to/lastmile_qr_scan"}, "fusion_lat": 0.0, "lat": 38.9327555, "is_disabled": 0, "lon": -77.0443415, "is_reserved": 0}, {"bike_id": "8f8aece2236242b52fec7fa83728b567", "fusion_lon": 0.0, "type": "electric_scooter", "name": "8f8aece2236242b52fec7fa83728b567", "rental_uris": {"android": "https://dc.lft.to/lastmile_qr_scan", "ios": "https://dc.lft.to/lastmile_qr_scan"}, "fusion_lat": 0.0, "lat": 38.920525166666664, "is_disabled": 0, "lon": -77.041787, "is_reserved": 0}, {"bike_id": "9a34b8defb8219efe06e2ce22e2ac6cc", "fusion_lon": 0.0, "type": "electric_scooter", "name": "9a34b8defb8219efe06e2ce22e2ac6cc", "rental_uris": {"android": "https://dc.lft.to/lastmile_qr_scan", "ios": "https://dc.lft.to/lastmile_qr_scan"}, "fusion_lat": 0.0, "lat": 38.91760266666667, "is_disabled": 0, "lon": -77.01602983333333, "is_reserved": 0}, {"bike_id": "1c585de6f66a89837f497e0ac9b3e5e3", "fusion_lon": 0.0, "type": "electric_scooter", "name": "1c585de6f66a89837f497e0ac9b3e5e3", "rental_uris": {"android": "https://dc.lft.to/lastmile_qr_scan", "ios": "https://dc.lft.to/lastmile_qr_scan"}, "fusion_lat": 0.0, "lat": 38.906692, "is_disabled": 0, "lon": -77.07299116666667, "is_reserved": 0}, {"bike_id": "3ff24cab61a2ca96ff68d42840c2a5e2", "fusion_lon": 0.0, "type": "electric_scooter", "name": "3ff24cab61a2ca96ff68d42840c2a5e2", "rental_uris": {"android": "https://dc.lft.to/lastmile_qr_scan", "ios": "https://dc.lft.to/lastmile_qr_scan"}, "fusion_lat": 0.0, "lat": 38.918471833333335, "is_disabled": 0, "lon": -77.02323816666667, "is_reserved": 0}, {"bike_id": "81c21186749abd6ae1a485dc20217438", "fusion_lon": 0.0, "type": "electric_scooter", "name": "81c21186749abd6ae1a485dc20217438", "rental_uris": {"android": "https://dc.lft.to/lastmile_qr_scan", "ios": "https://dc.lft.to/lastmile_qr_scan"}, "fusion_lat": 0.0, "lat": 38.910200333333336, "is_disabled": 0, "lon": -77.0526925, "is_reserved": 0}, {"bike_id": "8d594784558593608449f85dc974d0c2", "fusion_lon": 0.0, "type": "electric_scooter", "name": "8d594784558593608449f85dc974d0c2", "rental_uris": {"android": "https://dc.lft.to/lastmile_qr_scan", "ios": "https://dc.lft.to/lastmile_qr_scan"}, "fusion_lat": 0.0, "lat": 38.900431833333336, "is_disabled": 0, "lon": -77.04480133333334, "is_reserved": 0}, {"bike_id": "9ad18e8bb4aee4032ea05439af71e9aa", "fusion_lon": 0.0, "type": "electric_scooter", "name": "9ad18e8bb4aee4032ea05439af71e9aa", "rental_uris": {"android": "https://dc.lft.to/lastmile_qr_scan", "ios": "https://dc.lft.to/lastmile_qr_scan"}, "fusion_lat": 0.0, "lat": 38.9105595, "is_disabled": 0, "lon": -77.022045, "is_reserved": 0}, {"bike_id": "4aef8143564c0f3949f9b4f3cf498216", "fusion_lon": 0.0, "type": "electric_scooter", "name": "4aef8143564c0f3949f9b4f3cf498216", "rental_uris": {"android": "https://dc.lft.to/lastmile_qr_scan", "ios": "https://dc.lft.to/lastmile_qr_scan"}, "fusion_lat": 0.0, "lat": 38.92103483333333, "is_disabled": 0, "lon": -77.03663016666667, "is_reserved": 0}, {"bike_id": "f229723c91a254a238462ffc35309af5", "fusion_lon": 0.0, "type": "electric_scooter", "name": "f229723c91a254a238462ffc35309af5", "rental_uris": {"android": "https://dc.lft.to/lastmile_qr_scan", "ios": "https://dc.lft.to/lastmile_qr_scan"}, "fusion_lat": 0.0, "lat": 38.90286316666667, "is_disabled": 0, "lon": -77.03644333333334, "is_reserved": 0}, {"bike_id": "59fe9c639e793689da68f03596f829a9", "fusion_lon": 0.0, "type": "electric_bike", "name": "59fe9c639e793689da68f03596f829a9", "rental_uris": {"android": "https://dc.lft.to/lastmile_qr_scan", "ios": "https://dc.lft.to/lastmile_qr_scan"}, "fusion_lat": 0.0, "lat": 38.93212883333333, "is_disabled": 0, "lon": -77.02347533333334, "is_reserved": 0}, {"bike_id": "8d4e447920b91d090291fcca325451b0", "fusion_lon": 0.0, "type": "electric_scooter", "name": "8d4e447920b91d090291fcca325451b0", "rental_uris": {"android": "https://dc.lft.to/lastmile_qr_scan", "ios": "https://dc.lft.to/lastmile_qr_scan"}, "fusion_lat": 0.0, "lat": 38.9112885, "is_disabled": 0, "lon": -77.02188933333333, "is_reserved": 0}, {"bike_id": "427eeabe1d66c092fc9fbfff49445ada", "fusion_lon": 0.0, "type": "electric_scooter", "name": "427eeabe1d66c092fc9fbfff49445ada", "rental_uris": {"android": "https://dc.lft.to/lastmile_qr_scan", "ios": "https://dc.lft.to/lastmile_qr_scan"}, "fusion_lat": 0.0, "lat": 38.918799166666666, "is_disabled": 0, "lon": -77.03766633333333, "is_reserved": 0}, {"bike_id": "8d68a608b94f0866af9f7858277f99f9", "fusion_lon": 0.0, "type": "electric_scooter", "name": "8d68a608b94f0866af9f7858277f99f9", "rental_uris": {"android": "https://dc.lft.to/lastmile_qr_scan", "ios": "https://dc.lft.to/lastmile_qr_scan"}, "fusion_lat": 0.0, "lat": 38.928830833333336, "is_disabled": 0, "lon": -77.02710866666666, "is_reserved": 0}, {"bike_id": "4c9b89bff6f23591cc4e234a35e1059b", "fusion_lon": 0.0, "type": "electric_scooter", "name": "4c9b89bff6f23591cc4e234a35e1059b", "rental_uris": {"android": "https://dc.lft.to/lastmile_qr_scan", "ios": "https://dc.lft.to/lastmile_qr_scan"}, "fusion_lat": 0.0, "lat": 38.914267, "is_disabled": 0, "lon": -77.03809816666667, "is_reserved": 0}, {"bike_id": "b3e4deb04d573ed9d484b4961b165eda", "fusion_lon": 0.0, "type": "electric_scooter", "name": "b3e4deb04d573ed9d484b4961b165eda", "rental_uris": {"android": "https://dc.lft.to/lastmile_qr_scan", "ios": "https://dc.lft.to/lastmile_qr_scan"}, "fusion_lat": 0.0, "lat": 38.91820083333333, "is_disabled": 0, "lon": -77.03205816666667, "is_reserved": 0}, {"bike_id": "54dfb843cdde083c90c84a0e15a7bdae", "fusion_lon": 0.0, "type": "electric_bike", "name": "54dfb843cdde083c90c84a0e15a7bdae", "rental_uris": {"android": "https://dc.lft.to/lastmile_qr_scan", "ios": "https://dc.lft.to/lastmile_qr_scan"}, "fusion_lat": 0.0, "lat": 38.8506785, "is_disabled": 0, "lon": -76.97327083333333, "is_reserved": 0}, {"bike_id": "52cd70d9e73d5adcc08301e6bd8acc1c", "fusion_lon": 0.0, "type": "electric_scooter", "name": "52cd70d9e73d5adcc08301e6bd8acc1c", "rental_uris": {"android": "https://dc.lft.to/lastmile_qr_scan", "ios": "https://dc.lft.to/lastmile_qr_scan"}, "fusion_lat": 0.0, "lat": 38.937021, "is_disabled": 0, "lon": -77.05597633333333, "is_reserved": 0}, {"bike_id": "fc152f9b5c7fb5fcc50741205f738748", "fusion_lon": 0.0, "type": "electric_bike", "name": "fc152f9b5c7fb5fcc50741205f738748", "rental_uris": {"android": "https://dc.lft.to/lastmile_qr_scan", "ios": "https://dc.lft.to/lastmile_qr_scan"}, "fusion_lat": 0.0, "lat": 38.89566716666667, "is_disabled": 0, "lon": -77.12741816666667, "is_reserved": 0}, {"bike_id": "53b303dc795e49100a157d0f855a690c", "fusion_lon": 0.0, "type": "electric_scooter", "name": "53b303dc795e49100a157d0f855a690c", "rental_uris": {"android": "https://dc.lft.to/lastmile_qr_scan", "ios": "https://dc.lft.to/lastmile_qr_scan"}, "fusion_lat": 0.0, "lat": 38.909452, "is_disabled": 0, "lon": -77.026906, "is_reserved": 0}, {"bike_id": "1a7b8609da8a67f571556e130643be21", "fusion_lon": 0.0, "type": "electric_scooter", "name": "1a7b8609da8a67f571556e130643be21", "rental_uris": {"android": "https://dc.lft.to/lastmile_qr_scan", "ios": "https://dc.lft.to/lastmile_qr_scan"}, "fusion_lat": 0.0, "lat": 38.9191585, "is_disabled": 0, "lon": -77.04631766666667, "is_reserved": 0}, {"bike_id": "fb1c3abb835dc42633c808c76a824435", "fusion_lon": 0.0, "type": "electric_scooter", "name": "fb1c3abb835dc42633c808c76a824435", "rental_uris": {"android": "https://dc.lft.to/lastmile_qr_scan", "ios": "https://dc.lft.to/lastmile_qr_scan"}, "fusion_lat": 0.0, "lat": 38.928277333333334, "is_disabled": 0, "lon": -77.02256633333333, "is_reserved": 0}, {"bike_id": "8da6fa1b6db3720144e656da68937fdf", "fusion_lon": 0.0, "type": "electric_scooter", "name": "8da6fa1b6db3720144e656da68937fdf", "rental_uris": {"android": "https://dc.lft.to/lastmile_qr_scan", "ios": "https://dc.lft.to/lastmile_qr_scan"}, "fusion_lat": 0.0, "lat": 38.92570516666667, "is_disabled": 0, "lon": -77.05259266666667, "is_reserved": 0}, {"bike_id": "f577b1a8b9f17ebb38871e79decc50c8", "fusion_lon": 0.0, "type": "electric_scooter", "name": "f577b1a8b9f17ebb38871e79decc50c8", "rental_uris": {"android": "https://dc.lft.to/lastmile_qr_scan", "ios": "https://dc.lft.to/lastmile_qr_scan"}, "fusion_lat": 0.0, "lat": 38.88021216666667, "is_disabled": 0, "lon": -76.98068716666667, "is_reserved": 0}, {"bike_id": "c28023aafc6a1d5955005e914bf4cba2", "fusion_lon": 0.0, "type": "electric_scooter", "name": "c28023aafc6a1d5955005e914bf4cba2", "rental_uris": {"android": "https://dc.lft.to/lastmile_qr_scan", "ios": "https://dc.lft.to/lastmile_qr_scan"}, "fusion_lat": 0.0, "lat": 38.92268083333333, "is_disabled": 0, "lon": -77.03683433333333, "is_reserved": 0}, {"bike_id": "68ea6e38366ba04761a3e8b764e68426", "fusion_lon": 0.0, "type": "electric_scooter", "name": "68ea6e38366ba04761a3e8b764e68426", "rental_uris": {"android": "https://dc.lft.to/lastmile_qr_scan", "ios": "https://dc.lft.to/lastmile_qr_scan"}, "fusion_lat": 0.0, "lat": 38.892278833333336, "is_disabled": 0, "lon": -77.05003316666667, "is_reserved": 0}, {"bike_id": "72fb64012f07559541000972b0a2dbe3", "fusion_lon": 0.0, "type": "electric_scooter", "name": "72fb64012f07559541000972b0a2dbe3", "rental_uris": {"android": "https://dc.lft.to/lastmile_qr_scan", "ios": "https://dc.lft.to/lastmile_qr_scan"}, "fusion_lat": 0.0, "lat": 38.930636, "is_disabled": 0, "lon": -77.0280445, "is_reserved": 0}, {"bike_id": "017ce0c8c0c07293711b503aed253684", "fusion_lon": 0.0, "type": "electric_scooter", "name": "017ce0c8c0c07293711b503aed253684", "rental_uris": {"android": "https://dc.lft.to/lastmile_qr_scan", "ios": "https://dc.lft.to/lastmile_qr_scan"}, "fusion_lat": 0.0, "lat": 38.875132666666666, "is_disabled": 0, "lon": -77.01760233333333, "is_reserved": 0}, {"bike_id": "ea717b06638795c1a61039c5af1e3040", "fusion_lon": 0.0, "type": "electric_scooter", "name": "ea717b06638795c1a61039c5af1e3040", "rental_uris": {"android": "https://dc.lft.to/lastmile_qr_scan", "ios": "https://dc.lft.to/lastmile_qr_scan"}, "fusion_lat": 0.0, "lat": 38.84620616666667, "is_disabled": 0, "lon": -76.9963305, "is_reserved": 0}, {"bike_id": "ceba56ae49b09098686deacd26900250", "fusion_lon": 0.0, "type": "electric_scooter", "name": "ceba56ae49b09098686deacd26900250", "rental_uris": {"android": "https://dc.lft.to/lastmile_qr_scan", "ios": "https://dc.lft.to/lastmile_qr_scan"}, "fusion_lat": 0.0, "lat": 38.887675, "is_disabled": 0, "lon": -76.92708416666666, "is_reserved": 0}, {"bike_id": "e141fa47c642166c5feee40f55beff63", "fusion_lon": 0.0, "type": "electric_scooter", "name": "e141fa47c642166c5feee40f55beff63", "rental_uris": {"android": "https://dc.lft.to/lastmile_qr_scan", "ios": "https://dc.lft.to/lastmile_qr_scan"}, "fusion_lat": 0.0, "lat": 38.91706683333334, "is_disabled": 0, "lon": -77.00112716666666, "is_reserved": 0}, {"bike_id": "5e5cb1fdc90d4742cb023d5cfcea464e", "fusion_lon": 0.0, "type": "electric_scooter", "name": "5e5cb1fdc90d4742cb023d5cfcea464e", "rental_uris": {"android": "https://dc.lft.to/lastmile_qr_scan", "ios": "https://dc.lft.to/lastmile_qr_scan"}, "fusion_lat": 0.0, "lat": 38.906804666666666, "is_disabled": 0, "lon": -77.02705383333333, "is_reserved": 0}, {"bike_id": "643e36c96ef633fe6acd4220744dcda5", "fusion_lon": 0.0, "type": "electric_scooter", "name": "643e36c96ef633fe6acd4220744dcda5", "rental_uris": {"android": "https://dc.lft.to/lastmile_qr_scan", "ios": "https://dc.lft.to/lastmile_qr_scan"}, "fusion_lat": 0.0, "lat": 38.9565145, "is_disabled": 0, "lon": -77.03289933333333, "is_reserved": 0}, {"bike_id": "8bc48f0a79b1a6491a0dc439f2538c35", "fusion_lon": 0.0, "type": "electric_bike", "name": "8bc48f0a79b1a6491a0dc439f2538c35", "rental_uris": {"android": "https://dc.lft.to/lastmile_qr_scan", "ios": "https://dc.lft.to/lastmile_qr_scan"}, "fusion_lat": 0.0, "lat": 38.83610616666667, "is_disabled": 0, "lon": -77.00372566666667, "is_reserved": 0}, {"bike_id": "491bd1fc54a7ed0533588d7741e18e35", "fusion_lon": 0.0, "type": "electric_scooter", "name": "491bd1fc54a7ed0533588d7741e18e35", "rental_uris": {"android": "https://dc.lft.to/lastmile_qr_scan", "ios": "https://dc.lft.to/lastmile_qr_scan"}, "fusion_lat": 0.0, "lat": 38.893473166666666, "is_disabled": 0, "lon": -77.01161666666667, "is_reserved": 0}, {"bike_id": "0833f8862baa06ee087e9cffda2e4adb", "fusion_lon": 0.0, "type": "electric_bike", "name": "0833f8862baa06ee087e9cffda2e4adb", "rental_uris": {"android": "https://dc.lft.to/lastmile_qr_scan", "ios": "https://dc.lft.to/lastmile_qr_scan"}, "fusion_lat": 0.0, "lat": 38.975910999999996, "is_disabled": 0, "lon": -77.03519133333333, "is_reserved": 0}, {"bike_id": "b972ece312a26664f17f4f513486b758", "fusion_lon": 0.0, "type": "electric_scooter", "name": "b972ece312a26664f17f4f513486b758", "rental_uris": {"android": "https://dc.lft.to/lastmile_qr_scan", "ios": "https://dc.lft.to/lastmile_qr_scan"}, "fusion_lat": 0.0, "lat": 38.908704666666665, "is_disabled": 0, "lon": -77.02415016666667, "is_reserved": 0}, {"bike_id": "3d26ec4b08e5c2ce24379817193ff780", "fusion_lon": 0.0, "type": "electric_scooter", "name": "3d26ec4b08e5c2ce24379817193ff780", "rental_uris": {"android": "https://dc.lft.to/lastmile_qr_scan", "ios": "https://dc.lft.to/lastmile_qr_scan"}, "fusion_lat": 0.0, "lat": 38.88323066666667, "is_disabled": 0, "lon": -76.94945816666667, "is_reserved": 0}, {"bike_id": "527dba72775295411c931e912cec5eca", "fusion_lon": 0.0, "type": "electric_bike", "name": "527dba72775295411c931e912cec5eca", "rental_uris": {"android": "https://dc.lft.to/lastmile_qr_scan", "ios": "https://dc.lft.to/lastmile_qr_scan"}, "fusion_lat": 0.0, "lat": 38.837356166666666, "is_disabled": 0, "lon": -77.095496, "is_reserved": 0}, {"bike_id": "1943266d8984702493d55acd7acce3fc", "fusion_lon": 0.0, "type": "electric_scooter", "name": "1943266d8984702493d55acd7acce3fc", "rental_uris": {"android": "https://dc.lft.to/lastmile_qr_scan", "ios": "https://dc.lft.to/lastmile_qr_scan"}, "fusion_lat": 0.0, "lat": 38.84424816666667, "is_disabled": 0, "lon": -76.99782, "is_reserved": 0}, {"bike_id": "4eeee0a642a17adaad9917013186d4fb", "fusion_lon": 0.0, "type": "electric_scooter", "name": "4eeee0a642a17adaad9917013186d4fb", "rental_uris": {"android": "https://dc.lft.to/lastmile_qr_scan", "ios": "https://dc.lft.to/lastmile_qr_scan"}, "fusion_lat": 0.0, "lat": 38.907282, "is_disabled": 0, "lon": -77.04281416666667, "is_reserved": 0}, {"bike_id": "5df3cdb9d11ae77b873eda5741971ae9", "fusion_lon": 0.0, "type": "electric_scooter", "name": "5df3cdb9d11ae77b873eda5741971ae9", "rental_uris": {"android": "https://dc.lft.to/lastmile_qr_scan", "ios": "https://dc.lft.to/lastmile_qr_scan"}, "fusion_lat": 0.0, "lat": 38.88810333333333, "is_disabled": 0, "lon": -76.99838416666667, "is_reserved": 0}, {"bike_id": "d2dc9379502c313b7390a3e9ea1f158b", "fusion_lon": 0.0, "type": "electric_scooter", "name": "d2dc9379502c313b7390a3e9ea1f158b", "rental_uris": {"android": "https://dc.lft.to/lastmile_qr_scan", "ios": "https://dc.lft.to/lastmile_qr_scan"}, "fusion_lat": 0.0, "lat": 38.90857916666667, "is_disabled": 0, "lon": -77.03294883333334, "is_reserved": 0}, {"bike_id": "938779dbc95bb6c9ce300d8bf888819a", "fusion_lon": 0.0, "type": "electric_scooter", "name": "938779dbc95bb6c9ce300d8bf888819a", "rental_uris": {"android": "https://dc.lft.to/lastmile_qr_scan", "ios": "https://dc.lft.to/lastmile_qr_scan"}, "fusion_lat": 0.0, "lat": 38.89956166666666, "is_disabled": 0, "lon": -76.9856455, "is_reserved": 0}, {"bike_id": "2b1f608a4034737fa03eb23d159693ec", "fusion_lon": 0.0, "type": "electric_scooter", "name": "2b1f608a4034737fa03eb23d159693ec", "rental_uris": {"android": "https://dc.lft.to/lastmile_qr_scan", "ios": "https://dc.lft.to/lastmile_qr_scan"}, "fusion_lat": 0.0, "lat": 38.91271733333333, "is_disabled": 0, "lon": -77.03720933333334, "is_reserved": 0}, {"bike_id": "5ce79c1f0c633351c818c287b57168ce", "fusion_lon": 0.0, "type": "electric_scooter", "name": "5ce79c1f0c633351c818c287b57168ce", "rental_uris": {"android": "https://dc.lft.to/lastmile_qr_scan", "ios": "https://dc.lft.to/lastmile_qr_scan"}, "fusion_lat": 0.0, "lat": 38.922988833333335, "is_disabled": 0, "lon": -77.04145733333333, "is_reserved": 0}, {"bike_id": "22990b077b7f6cd6d6377741902f67db", "fusion_lon": 0.0, "type": "electric_scooter", "name": "22990b077b7f6cd6d6377741902f67db", "rental_uris": {"android": "https://dc.lft.to/lastmile_qr_scan", "ios": "https://dc.lft.to/lastmile_qr_scan"}, "fusion_lat": 0.0, "lat": 38.930735, "is_disabled": 0, "lon": -77.0278235, "is_reserved": 0}, {"bike_id": "00057ec477299dfc40d715f087a37524", "fusion_lon": 0.0, "type": "electric_scooter", "name": "00057ec477299dfc40d715f087a37524", "rental_uris": {"android": "https://dc.lft.to/lastmile_qr_scan", "ios": "https://dc.lft.to/lastmile_qr_scan"}, "fusion_lat": 0.0, "lat": 38.90012516666667, "is_disabled": 0, "lon": -77.00112383333334, "is_reserved": 0}, {"bike_id": "9d9a9f04f20a7c2f8cce0345825cc2b5", "fusion_lon": 0.0, "type": "electric_scooter", "name": "9d9a9f04f20a7c2f8cce0345825cc2b5", "rental_uris": {"android": "https://dc.lft.to/lastmile_qr_scan", "ios": "https://dc.lft.to/lastmile_qr_scan"}, "fusion_lat": 0.0, "lat": 38.920263, "is_disabled": 0, "lon": -77.03728666666666, "is_reserved": 0}, {"bike_id": "4615f63bd44caf66ec1fbe2904ef87c5", "fusion_lon": 0.0, "type": "electric_scooter", "name": "4615f63bd44caf66ec1fbe2904ef87c5", "rental_uris": {"android": "https://dc.lft.to/lastmile_qr_scan", "ios": "https://dc.lft.to/lastmile_qr_scan"}, "fusion_lat": 0.0, "lat": 38.924421833333334, "is_disabled": 0, "lon": -77.05208016666667, "is_reserved": 0}, {"bike_id": "07f1252afd7ad576ef209d958d4e59c6", "fusion_lon": 0.0, "type": "electric_scooter", "name": "07f1252afd7ad576ef209d958d4e59c6", "rental_uris": {"android": "https://dc.lft.to/lastmile_qr_scan", "ios": "https://dc.lft.to/lastmile_qr_scan"}, "fusion_lat": 0.0, "lat": 38.900395333333336, "is_disabled": 0, "lon": -76.988318, "is_reserved": 0}, {"bike_id": "c48247d0a8900b25e00de61d57531730", "fusion_lon": 0.0, "type": "electric_scooter", "name": "c48247d0a8900b25e00de61d57531730", "rental_uris": {"android": "https://dc.lft.to/lastmile_qr_scan", "ios": "https://dc.lft.to/lastmile_qr_scan"}, "fusion_lat": 0.0, "lat": 38.918607333333334, "is_disabled": 0, "lon": -77.015954, "is_reserved": 0}, {"bike_id": "964b350d0c0828db0d54e383a1d7b95e", "fusion_lon": 0.0, "type": "electric_scooter", "name": "964b350d0c0828db0d54e383a1d7b95e", "rental_uris": {"android": "https://dc.lft.to/lastmile_qr_scan", "ios": "https://dc.lft.to/lastmile_qr_scan"}, "fusion_lat": 0.0, "lat": 38.89528933333333, "is_disabled": 0, "lon": -77.03343783333334, "is_reserved": 0}, {"bike_id": "15571ede8bce8c422da0fb6b2a525903", "fusion_lon": 0.0, "type": "electric_scooter", "name": "15571ede8bce8c422da0fb6b2a525903", "rental_uris": {"android": "https://dc.lft.to/lastmile_qr_scan", "ios": "https://dc.lft.to/lastmile_qr_scan"}, "fusion_lat": 0.0, "lat": 38.864187333333334, "is_disabled": 0, "lon": -76.97464383333333, "is_reserved": 0}, {"bike_id": "84346bf45a3cad1bd131b84dc4e04a96", "fusion_lon": 0.0, "type": "electric_scooter", "name": "84346bf45a3cad1bd131b84dc4e04a96", "rental_uris": {"android": "https://dc.lft.to/lastmile_qr_scan", "ios": "https://dc.lft.to/lastmile_qr_scan"}, "fusion_lat": 0.0, "lat": 38.928763000000004, "is_disabled": 0, "lon": -77.02817833333333, "is_reserved": 0}, {"bike_id": "fdc696cb17ff57eb4efd5ed5fffbe83a", "fusion_lon": 0.0, "type": "electric_scooter", "name": "fdc696cb17ff57eb4efd5ed5fffbe83a", "rental_uris": {"android": "https://dc.lft.to/lastmile_qr_scan", "ios": "https://dc.lft.to/lastmile_qr_scan"}, "fusion_lat": 0.0, "lat": 38.921300333333335, "is_disabled": 0, "lon": -77.04430066666667, "is_reserved": 0}, {"bike_id": "615670e738f5b045fec4779e3a46d0c6", "fusion_lon": 0.0, "type": "electric_scooter", "name": "615670e738f5b045fec4779e3a46d0c6", "rental_uris": {"android": "https://dc.lft.to/lastmile_qr_scan", "ios": "https://dc.lft.to/lastmile_qr_scan"}, "fusion_lat": 0.0, "lat": 38.9552185, "is_disabled": 0, "lon": -77.007366, "is_reserved": 0}, {"bike_id": "e0a9448e49cf7f4bb1cadd86189067a7", "fusion_lon": 0.0, "type": "electric_scooter", "name": "e0a9448e49cf7f4bb1cadd86189067a7", "rental_uris": {"android": "https://dc.lft.to/lastmile_qr_scan", "ios": "https://dc.lft.to/lastmile_qr_scan"}, "fusion_lat": 0.0, "lat": 38.905445666666665, "is_disabled": 0, "lon": -77.02178416666666, "is_reserved": 0}, {"bike_id": "6f6189be0ba2dec0ad303d5d5678991b", "fusion_lon": 0.0, "type": "electric_scooter", "name": "6f6189be0ba2dec0ad303d5d5678991b", "rental_uris": {"android": "https://dc.lft.to/lastmile_qr_scan", "ios": "https://dc.lft.to/lastmile_qr_scan"}, "fusion_lat": 0.0, "lat": 38.9242135, "is_disabled": 0, "lon": -77.02007216666667, "is_reserved": 0}, {"bike_id": "efbcb64c6eaf67ba37c58054ca68b2e8", "fusion_lon": 0.0, "type": "electric_scooter", "name": "efbcb64c6eaf67ba37c58054ca68b2e8", "rental_uris": {"android": "https://dc.lft.to/lastmile_qr_scan", "ios": "https://dc.lft.to/lastmile_qr_scan"}, "fusion_lat": 0.0, "lat": 38.902212166666665, "is_disabled": 0, "lon": -77.00205466666667, "is_reserved": 0}, {"bike_id": "f82792a74c5ab0edbe723b54b1b69492", "fusion_lon": 0.0, "type": "electric_scooter", "name": "f82792a74c5ab0edbe723b54b1b69492", "rental_uris": {"android": "https://dc.lft.to/lastmile_qr_scan", "ios": "https://dc.lft.to/lastmile_qr_scan"}, "fusion_lat": 0.0, "lat": 38.9520935, "is_disabled": 0, "lon": -77.06785866666667, "is_reserved": 0}, {"bike_id": "96763d6d693e8383a57573e38fb2fe64", "fusion_lon": 0.0, "type": "electric_scooter", "name": "96763d6d693e8383a57573e38fb2fe64", "rental_uris": {"android": "https://dc.lft.to/lastmile_qr_scan", "ios": "https://dc.lft.to/lastmile_qr_scan"}, "fusion_lat": 0.0, "lat": 38.94997933333333, "is_disabled": 0, "lon": -77.0184625, "is_reserved": 0}, {"bike_id": "c36ab777539d8233b1bbb9ecffcd8668", "fusion_lon": 0.0, "type": "electric_scooter", "name": "c36ab777539d8233b1bbb9ecffcd8668", "rental_uris": {"android": "https://dc.lft.to/lastmile_qr_scan", "ios": "https://dc.lft.to/lastmile_qr_scan"}, "fusion_lat": 0.0, "lat": 38.93033766666667, "is_disabled": 0, "lon": -77.03303416666667, "is_reserved": 0}, {"bike_id": "607579de0afac748610cc6463bf132d1", "fusion_lon": 0.0, "type": "electric_scooter", "name": "607579de0afac748610cc6463bf132d1", "rental_uris": {"android": "https://dc.lft.to/lastmile_qr_scan", "ios": "https://dc.lft.to/lastmile_qr_scan"}, "fusion_lat": 0.0, "lat": 38.91911833333333, "is_disabled": 0, "lon": -77.0317755, "is_reserved": 0}, {"bike_id": "99a24ddbde6f6a86c9b1092ead03cc2a", "fusion_lon": 0.0, "type": "electric_scooter", "name": "99a24ddbde6f6a86c9b1092ead03cc2a", "rental_uris": {"android": "https://dc.lft.to/lastmile_qr_scan", "ios": "https://dc.lft.to/lastmile_qr_scan"}, "fusion_lat": 0.0, "lat": 38.939570333333336, "is_disabled": 0, "lon": -77.02489233333333, "is_reserved": 0}, {"bike_id": "219be45d118cd04929ee27a6eb4aadca", "fusion_lon": 0.0, "type": "electric_scooter", "name": "219be45d118cd04929ee27a6eb4aadca", "rental_uris": {"android": "https://dc.lft.to/lastmile_qr_scan", "ios": "https://dc.lft.to/lastmile_qr_scan"}, "fusion_lat": 0.0, "lat": 38.883858333333336, "is_disabled": 0, "lon": -76.98559266666666, "is_reserved": 0}, {"bike_id": "5e1289d15c46b5984c0724b0fbfd0e86", "fusion_lon": 0.0, "type": "electric_scooter", "name": "5e1289d15c46b5984c0724b0fbfd0e86", "rental_uris": {"android": "https://dc.lft.to/lastmile_qr_scan", "ios": "https://dc.lft.to/lastmile_qr_scan"}, "fusion_lat": 0.0, "lat": 38.90383333333333, "is_disabled": 0, "lon": -77.02943583333334, "is_reserved": 0}, {"bike_id": "8b209b89f95d9eb8b0af88bacfff385a", "fusion_lon": 0.0, "type": "electric_scooter", "name": "8b209b89f95d9eb8b0af88bacfff385a", "rental_uris": {"android": "https://dc.lft.to/lastmile_qr_scan", "ios": "https://dc.lft.to/lastmile_qr_scan"}, "fusion_lat": 0.0, "lat": 38.91187633333333, "is_disabled": 0, "lon": -77.018937, "is_reserved": 0}, {"bike_id": "dd83560dc60cd3a492a406c961888e82", "fusion_lon": 0.0, "type": "electric_scooter", "name": "dd83560dc60cd3a492a406c961888e82", "rental_uris": {"android": "https://dc.lft.to/lastmile_qr_scan", "ios": "https://dc.lft.to/lastmile_qr_scan"}, "fusion_lat": 0.0, "lat": 38.908667333333334, "is_disabled": 0, "lon": -76.99958716666667, "is_reserved": 0}, {"bike_id": "8746f8f4742e7f1f58150c1f9dda37ee", "fusion_lon": 0.0, "type": "electric_scooter", "name": "8746f8f4742e7f1f58150c1f9dda37ee", "rental_uris": {"android": "https://dc.lft.to/lastmile_qr_scan", "ios": "https://dc.lft.to/lastmile_qr_scan"}, "fusion_lat": 0.0, "lat": 38.89787233333333, "is_disabled": 0, "lon": -77.00749583333334, "is_reserved": 0}, {"bike_id": "847b79ff073d0bb40b463af0e01b5520", "fusion_lon": 0.0, "type": "electric_scooter", "name": "847b79ff073d0bb40b463af0e01b5520", "rental_uris": {"android": "https://dc.lft.to/lastmile_qr_scan", "ios": "https://dc.lft.to/lastmile_qr_scan"}, "fusion_lat": 0.0, "lat": 38.90955016666667, "is_disabled": 0, "lon": -77.04887083333334, "is_reserved": 0}, {"bike_id": "b769a07dc5314c43904bb881e57c2860", "fusion_lon": 0.0, "type": "electric_scooter", "name": "b769a07dc5314c43904bb881e57c2860", "rental_uris": {"android": "https://dc.lft.to/lastmile_qr_scan", "ios": "https://dc.lft.to/lastmile_qr_scan"}, "fusion_lat": 0.0, "lat": 38.92868516666667, "is_disabled": 0, "lon": -77.03279466666666, "is_reserved": 0}, {"bike_id": "fe5efa59651b7daddcff3f687afb2c71", "fusion_lon": 0.0, "type": "electric_scooter", "name": "fe5efa59651b7daddcff3f687afb2c71", "rental_uris": {"android": "https://dc.lft.to/lastmile_qr_scan", "ios": "https://dc.lft.to/lastmile_qr_scan"}, "fusion_lat": 0.0, "lat": 38.947864333333335, "is_disabled": 0, "lon": -77.06753583333334, "is_reserved": 0}, {"bike_id": "d158453a9416b967d36ad770547c0bbb", "fusion_lon": 0.0, "type": "electric_bike", "name": "d158453a9416b967d36ad770547c0bbb", "rental_uris": {"android": "https://dc.lft.to/lastmile_qr_scan", "ios": "https://dc.lft.to/lastmile_qr_scan"}, "fusion_lat": 0.0, "lat": 38.925545666666665, "is_disabled": 0, "lon": -77.0013685, "is_reserved": 0}, {"bike_id": "3fb4c66fe8e1f9a3dcdf1638f6b74f8d", "fusion_lon": 0.0, "type": "electric_scooter", "name": "3fb4c66fe8e1f9a3dcdf1638f6b74f8d", "rental_uris": {"android": "https://dc.lft.to/lastmile_qr_scan", "ios": "https://dc.lft.to/lastmile_qr_scan"}, "fusion_lat": 0.0, "lat": 38.921322333333336, "is_disabled": 0, "lon": -77.0412875, "is_reserved": 0}, {"bike_id": "3f70fbe4887e66c417fbe878fa9048f4", "fusion_lon": 0.0, "type": "electric_bike", "name": "3f70fbe4887e66c417fbe878fa9048f4", "rental_uris": {"android": "https://dc.lft.to/lastmile_qr_scan", "ios": "https://dc.lft.to/lastmile_qr_scan"}, "fusion_lat": 0.0, "lat": 38.869758, "is_disabled": 0, "lon": -77.1322745, "is_reserved": 0}, {"bike_id": "1c829de0c40fac4ef637ddecef53f9dd", "fusion_lon": 0.0, "type": "electric_scooter", "name": "1c829de0c40fac4ef637ddecef53f9dd", "rental_uris": {"android": "https://dc.lft.to/lastmile_qr_scan", "ios": "https://dc.lft.to/lastmile_qr_scan"}, "fusion_lat": 0.0, "lat": 38.919200333333336, "is_disabled": 0, "lon": -77.025249, "is_reserved": 0}, {"bike_id": "8708581b0f0f5dff0111ebb799b5f4ec", "fusion_lon": 0.0, "type": "electric_scooter", "name": "8708581b0f0f5dff0111ebb799b5f4ec", "rental_uris": {"android": "https://dc.lft.to/lastmile_qr_scan", "ios": "https://dc.lft.to/lastmile_qr_scan"}, "fusion_lat": 0.0, "lat": 38.9009195, "is_disabled": 0, "lon": -76.9948775, "is_reserved": 0}, {"bike_id": "9ec9819784509173e8c3f44ef6cdbcd2", "fusion_lon": 0.0, "type": "electric_scooter", "name": "9ec9819784509173e8c3f44ef6cdbcd2", "rental_uris": {"android": "https://dc.lft.to/lastmile_qr_scan", "ios": "https://dc.lft.to/lastmile_qr_scan"}, "fusion_lat": 0.0, "lat": 38.92405733333333, "is_disabled": 0, "lon": -77.02547683333333, "is_reserved": 0}, {"bike_id": "8281ead0499741f8cd3051d391acecac", "fusion_lon": 0.0, "type": "electric_scooter", "name": "8281ead0499741f8cd3051d391acecac", "rental_uris": {"android": "https://dc.lft.to/lastmile_qr_scan", "ios": "https://dc.lft.to/lastmile_qr_scan"}, "fusion_lat": 0.0, "lat": 38.887360666666666, "is_disabled": 0, "lon": -77.02393783333333, "is_reserved": 0}, {"bike_id": "72fb6910e7eeac0ca467e023cc03fe8f", "fusion_lon": 0.0, "type": "electric_scooter", "name": "72fb6910e7eeac0ca467e023cc03fe8f", "rental_uris": {"android": "https://dc.lft.to/lastmile_qr_scan", "ios": "https://dc.lft.to/lastmile_qr_scan"}, "fusion_lat": 0.0, "lat": 38.91469433333333, "is_disabled": 0, "lon": -77.03461616666667, "is_reserved": 0}, {"bike_id": "45cbb711be2e1d667afcd9a0b3494586", "fusion_lon": 0.0, "type": "electric_scooter", "name": "45cbb711be2e1d667afcd9a0b3494586", "rental_uris": {"android": "https://dc.lft.to/lastmile_qr_scan", "ios": "https://dc.lft.to/lastmile_qr_scan"}, "fusion_lat": 0.0, "lat": 38.942237666666664, "is_disabled": 0, "lon": -77.061511, "is_reserved": 0}, {"bike_id": "94f4cac858b95ac1cb6d7793be60ef65", "fusion_lon": 0.0, "type": "electric_scooter", "name": "94f4cac858b95ac1cb6d7793be60ef65", "rental_uris": {"android": "https://dc.lft.to/lastmile_qr_scan", "ios": "https://dc.lft.to/lastmile_qr_scan"}, "fusion_lat": 0.0, "lat": 38.91855666666667, "is_disabled": 0, "lon": -77.04182866666666, "is_reserved": 0}, {"bike_id": "8d8164f28c55a268dccbe1919e3e7ce4", "fusion_lon": 0.0, "type": "electric_scooter", "name": "8d8164f28c55a268dccbe1919e3e7ce4", "rental_uris": {"android": "https://dc.lft.to/lastmile_qr_scan", "ios": "https://dc.lft.to/lastmile_qr_scan"}, "fusion_lat": 0.0, "lat": 38.9072115, "is_disabled": 0, "lon": -77.017281, "is_reserved": 0}, {"bike_id": "bad6979c247ac6b046f816ddaccb6954", "fusion_lon": 0.0, "type": "electric_bike", "name": "bad6979c247ac6b046f816ddaccb6954", "rental_uris": {"android": "https://dc.lft.to/lastmile_qr_scan", "ios": "https://dc.lft.to/lastmile_qr_scan"}, "fusion_lat": 0.0, "lat": 38.88822, "is_disabled": 0, "lon": -77.12742433333334, "is_reserved": 0}, {"bike_id": "51dd98f9dcddd0c4d7f249153124674d", "fusion_lon": 0.0, "type": "electric_scooter", "name": "51dd98f9dcddd0c4d7f249153124674d", "rental_uris": {"android": "https://dc.lft.to/lastmile_qr_scan", "ios": "https://dc.lft.to/lastmile_qr_scan"}, "fusion_lat": 0.0, "lat": 38.911750166666664, "is_disabled": 0, "lon": -76.98768733333333, "is_reserved": 0}, {"bike_id": "636a830d57a1acc8875dcad6dbde740e", "fusion_lon": 0.0, "type": "electric_scooter", "name": "636a830d57a1acc8875dcad6dbde740e", "rental_uris": {"android": "https://dc.lft.to/lastmile_qr_scan", "ios": "https://dc.lft.to/lastmile_qr_scan"}, "fusion_lat": 0.0, "lat": 38.898832, "is_disabled": 0, "lon": -76.93152966666666, "is_reserved": 0}, {"bike_id": "8af248d62696dcffbbc771f6a6f97bdc", "fusion_lon": 0.0, "type": "electric_scooter", "name": "8af248d62696dcffbbc771f6a6f97bdc", "rental_uris": {"android": "https://dc.lft.to/lastmile_qr_scan", "ios": "https://dc.lft.to/lastmile_qr_scan"}, "fusion_lat": 0.0, "lat": 38.90794233333333, "is_disabled": 0, "lon": -76.94117183333333, "is_reserved": 0}, {"bike_id": "93fad2474a8b2231280eeec7aec6c02d", "fusion_lon": 0.0, "type": "electric_scooter", "name": "93fad2474a8b2231280eeec7aec6c02d", "rental_uris": {"android": "https://dc.lft.to/lastmile_qr_scan", "ios": "https://dc.lft.to/lastmile_qr_scan"}, "fusion_lat": 0.0, "lat": 38.91116383333333, "is_disabled": 0, "lon": -77.03829083333333, "is_reserved": 0}, {"bike_id": "178e2612b10d406bc419e69fff6ec95c", "fusion_lon": 0.0, "type": "electric_scooter", "name": "178e2612b10d406bc419e69fff6ec95c", "rental_uris": {"android": "https://dc.lft.to/lastmile_qr_scan", "ios": "https://dc.lft.to/lastmile_qr_scan"}, "fusion_lat": 0.0, "lat": 38.903805, "is_disabled": 0, "lon": -77.028874, "is_reserved": 0}, {"bike_id": "51033f76ae8ee971c1fa3727a966c453", "fusion_lon": 0.0, "type": "electric_scooter", "name": "51033f76ae8ee971c1fa3727a966c453", "rental_uris": {"android": "https://dc.lft.to/lastmile_qr_scan", "ios": "https://dc.lft.to/lastmile_qr_scan"}, "fusion_lat": 0.0, "lat": 38.90434316666666, "is_disabled": 0, "lon": -77.04646166666667, "is_reserved": 0}, {"bike_id": "1322ea9a789dcd71b4579c3b29c55e42", "fusion_lon": 0.0, "type": "electric_scooter", "name": "1322ea9a789dcd71b4579c3b29c55e42", "rental_uris": {"android": "https://dc.lft.to/lastmile_qr_scan", "ios": "https://dc.lft.to/lastmile_qr_scan"}, "fusion_lat": 0.0, "lat": 38.89847616666667, "is_disabled": 0, "lon": -77.0178135, "is_reserved": 0}, {"bike_id": "c9b4e2a468880ac4a5e26fbd629a4669", "fusion_lon": 0.0, "type": "electric_scooter", "name": "c9b4e2a468880ac4a5e26fbd629a4669", "rental_uris": {"android": "https://dc.lft.to/lastmile_qr_scan", "ios": "https://dc.lft.to/lastmile_qr_scan"}, "fusion_lat": 0.0, "lat": 38.9086785, "is_disabled": 0, "lon": -76.999538, "is_reserved": 0}, {"bike_id": "46ae4521d681ef4c135c9bd3849ab97d", "fusion_lon": 0.0, "type": "electric_scooter", "name": "46ae4521d681ef4c135c9bd3849ab97d", "rental_uris": {"android": "https://dc.lft.to/lastmile_qr_scan", "ios": "https://dc.lft.to/lastmile_qr_scan"}, "fusion_lat": 0.0, "lat": 38.923298833333334, "is_disabled": 0, "lon": -77.04435883333333, "is_reserved": 0}, {"bike_id": "ab0f0f4d120d71f808734fabea021447", "fusion_lon": 0.0, "type": "electric_scooter", "name": "ab0f0f4d120d71f808734fabea021447", "rental_uris": {"android": "https://dc.lft.to/lastmile_qr_scan", "ios": "https://dc.lft.to/lastmile_qr_scan"}, "fusion_lat": 0.0, "lat": 38.90286916666667, "is_disabled": 0, "lon": -76.9365755, "is_reserved": 0}, {"bike_id": "bc2723a8fe29ac6c6f6e206daae56b90", "fusion_lon": 0.0, "type": "electric_scooter", "name": "bc2723a8fe29ac6c6f6e206daae56b90", "rental_uris": {"android": "https://dc.lft.to/lastmile_qr_scan", "ios": "https://dc.lft.to/lastmile_qr_scan"}, "fusion_lat": 0.0, "lat": 38.879391, "is_disabled": 0, "lon": -77.01717333333333, "is_reserved": 0}, {"bike_id": "651271f7d5eca714e89b56f71ea75c64", "fusion_lon": 0.0, "type": "electric_scooter", "name": "651271f7d5eca714e89b56f71ea75c64", "rental_uris": {"android": "https://dc.lft.to/lastmile_qr_scan", "ios": "https://dc.lft.to/lastmile_qr_scan"}, "fusion_lat": 0.0, "lat": 38.934224, "is_disabled": 0, "lon": -77.043161, "is_reserved": 0}, {"bike_id": "6b78eca8a2d6d2399d8be0caa068f1eb", "fusion_lon": 0.0, "type": "electric_scooter", "name": "6b78eca8a2d6d2399d8be0caa068f1eb", "rental_uris": {"android": "https://dc.lft.to/lastmile_qr_scan", "ios": "https://dc.lft.to/lastmile_qr_scan"}, "fusion_lat": 0.0, "lat": 38.896664, "is_disabled": 0, "lon": -77.0433375, "is_reserved": 0}, {"bike_id": "55feb346dea06a2e481be535b4a13803", "fusion_lon": 0.0, "type": "electric_scooter", "name": "55feb346dea06a2e481be535b4a13803", "rental_uris": {"android": "https://dc.lft.to/lastmile_qr_scan", "ios": "https://dc.lft.to/lastmile_qr_scan"}, "fusion_lat": 0.0, "lat": 38.92579033333333, "is_disabled": 0, "lon": -77.032525, "is_reserved": 0}, {"bike_id": "d4d2d5735e22866388c0770c3018a588", "fusion_lon": 0.0, "type": "electric_scooter", "name": "d4d2d5735e22866388c0770c3018a588", "rental_uris": {"android": "https://dc.lft.to/lastmile_qr_scan", "ios": "https://dc.lft.to/lastmile_qr_scan"}, "fusion_lat": 0.0, "lat": 38.884492333333334, "is_disabled": 0, "lon": -77.010447, "is_reserved": 0}, {"bike_id": "47045fa519029ec5bf7c7046f745331c", "fusion_lon": 0.0, "type": "electric_scooter", "name": "47045fa519029ec5bf7c7046f745331c", "rental_uris": {"android": "https://dc.lft.to/lastmile_qr_scan", "ios": "https://dc.lft.to/lastmile_qr_scan"}, "fusion_lat": 0.0, "lat": 38.91140716666666, "is_disabled": 0, "lon": -76.99011183333333, "is_reserved": 0}, {"bike_id": "cc6d326cd760ea9b9f879bd5a70b309d", "fusion_lon": 0.0, "type": "electric_scooter", "name": "cc6d326cd760ea9b9f879bd5a70b309d", "rental_uris": {"android": "https://dc.lft.to/lastmile_qr_scan", "ios": "https://dc.lft.to/lastmile_qr_scan"}, "fusion_lat": 0.0, "lat": 38.886007666666664, "is_disabled": 0, "lon": -76.95262516666666, "is_reserved": 0}, {"bike_id": "b1fca99911cf5e3623d56b8489de05a7", "fusion_lon": 0.0, "type": "electric_scooter", "name": "b1fca99911cf5e3623d56b8489de05a7", "rental_uris": {"android": "https://dc.lft.to/lastmile_qr_scan", "ios": "https://dc.lft.to/lastmile_qr_scan"}, "fusion_lat": 0.0, "lat": 38.903892, "is_disabled": 0, "lon": -76.9790425, "is_reserved": 0}, {"bike_id": "a50cc25fdb1f589321fc6f920dea8bfe", "fusion_lon": 0.0, "type": "electric_scooter", "name": "a50cc25fdb1f589321fc6f920dea8bfe", "rental_uris": {"android": "https://dc.lft.to/lastmile_qr_scan", "ios": "https://dc.lft.to/lastmile_qr_scan"}, "fusion_lat": 0.0, "lat": 38.910498, "is_disabled": 0, "lon": -77.06459366666667, "is_reserved": 0}, {"bike_id": "47522d3bcf164a4fb999180d0afc1de5", "fusion_lon": 0.0, "type": "electric_scooter", "name": "47522d3bcf164a4fb999180d0afc1de5", "rental_uris": {"android": "https://dc.lft.to/lastmile_qr_scan", "ios": "https://dc.lft.to/lastmile_qr_scan"}, "fusion_lat": 0.0, "lat": 38.90694333333333, "is_disabled": 0, "lon": -77.03460916666667, "is_reserved": 0}, {"bike_id": "41fbbdf2ffeff39ea3e4a3c0267d04c6", "fusion_lon": 0.0, "type": "electric_scooter", "name": "41fbbdf2ffeff39ea3e4a3c0267d04c6", "rental_uris": {"android": "https://dc.lft.to/lastmile_qr_scan", "ios": "https://dc.lft.to/lastmile_qr_scan"}, "fusion_lat": 0.0, "lat": 38.928880166666666, "is_disabled": 0, "lon": -77.027029, "is_reserved": 0}, {"bike_id": "a09c6b98d1e4acb0b702360e5e422ce4", "fusion_lon": 0.0, "type": "electric_scooter", "name": "a09c6b98d1e4acb0b702360e5e422ce4", "rental_uris": {"android": "https://dc.lft.to/lastmile_qr_scan", "ios": "https://dc.lft.to/lastmile_qr_scan"}, "fusion_lat": 0.0, "lat": 38.932809, "is_disabled": 0, "lon": -77.0238675, "is_reserved": 0}, {"bike_id": "1ee2c2e2810574de6e2ea65788bcc5de", "fusion_lon": 0.0, "type": "electric_scooter", "name": "1ee2c2e2810574de6e2ea65788bcc5de", "rental_uris": {"android": "https://dc.lft.to/lastmile_qr_scan", "ios": "https://dc.lft.to/lastmile_qr_scan"}, "fusion_lat": 0.0, "lat": 38.900850166666665, "is_disabled": 0, "lon": -76.938736, "is_reserved": 0}, {"bike_id": "abf39128516aecfa9f67157a9c245eb4", "fusion_lon": 0.0, "type": "electric_scooter", "name": "abf39128516aecfa9f67157a9c245eb4", "rental_uris": {"android": "https://dc.lft.to/lastmile_qr_scan", "ios": "https://dc.lft.to/lastmile_qr_scan"}, "fusion_lat": 0.0, "lat": 38.925239833333336, "is_disabled": 0, "lon": -77.05223516666666, "is_reserved": 0}, {"bike_id": "5fe361e90d06f4b9c8dc7d9fb6b7a662", "fusion_lon": 0.0, "type": "electric_scooter", "name": "5fe361e90d06f4b9c8dc7d9fb6b7a662", "rental_uris": {"android": "https://dc.lft.to/lastmile_qr_scan", "ios": "https://dc.lft.to/lastmile_qr_scan"}, "fusion_lat": 0.0, "lat": 38.89523066666667, "is_disabled": 0, "lon": -76.94904233333334, "is_reserved": 0}, {"bike_id": "6d0d5f1aca3967ed9df60835e4a63909", "fusion_lon": 0.0, "type": "electric_scooter", "name": "6d0d5f1aca3967ed9df60835e4a63909", "rental_uris": {"android": "https://dc.lft.to/lastmile_qr_scan", "ios": "https://dc.lft.to/lastmile_qr_scan"}, "fusion_lat": 0.0, "lat": 38.919790166666665, "is_disabled": 0, "lon": -77.039708, "is_reserved": 0}, {"bike_id": "a42d33667736daf79c39935d3ed1b908", "fusion_lon": 0.0, "type": "electric_scooter", "name": "a42d33667736daf79c39935d3ed1b908", "rental_uris": {"android": "https://dc.lft.to/lastmile_qr_scan", "ios": "https://dc.lft.to/lastmile_qr_scan"}, "fusion_lat": 0.0, "lat": 38.905541666666664, "is_disabled": 0, "lon": -77.00615633333334, "is_reserved": 0}, {"bike_id": "ca10acd67a42b11ff73fc0fb30e8e066", "fusion_lon": 0.0, "type": "electric_scooter", "name": "ca10acd67a42b11ff73fc0fb30e8e066", "rental_uris": {"android": "https://dc.lft.to/lastmile_qr_scan", "ios": "https://dc.lft.to/lastmile_qr_scan"}, "fusion_lat": 0.0, "lat": 38.91882616666667, "is_disabled": 0, "lon": -77.02186466666667, "is_reserved": 0}, {"bike_id": "1181dac83d0ea5236ecf66ab7791a7ad", "fusion_lon": 0.0, "type": "electric_scooter", "name": "1181dac83d0ea5236ecf66ab7791a7ad", "rental_uris": {"android": "https://dc.lft.to/lastmile_qr_scan", "ios": "https://dc.lft.to/lastmile_qr_scan"}, "fusion_lat": 0.0, "lat": 38.910302, "is_disabled": 0, "lon": -77.02924816666666, "is_reserved": 0}, {"bike_id": "51e960b591755eab585c4204e1da49b1", "fusion_lon": 0.0, "type": "electric_scooter", "name": "51e960b591755eab585c4204e1da49b1", "rental_uris": {"android": "https://dc.lft.to/lastmile_qr_scan", "ios": "https://dc.lft.to/lastmile_qr_scan"}, "fusion_lat": 0.0, "lat": 38.892254666666666, "is_disabled": 0, "lon": -77.02684033333334, "is_reserved": 0}, {"bike_id": "5496efa6c844f175750e36a6ad648e8e", "fusion_lon": 0.0, "type": "electric_scooter", "name": "5496efa6c844f175750e36a6ad648e8e", "rental_uris": {"android": "https://dc.lft.to/lastmile_qr_scan", "ios": "https://dc.lft.to/lastmile_qr_scan"}, "fusion_lat": 0.0, "lat": 38.9271045, "is_disabled": 0, "lon": -77.0239385, "is_reserved": 0}, {"bike_id": "ec300fd022e4096e27c8dae8a3b2aeae", "fusion_lon": 0.0, "type": "electric_scooter", "name": "ec300fd022e4096e27c8dae8a3b2aeae", "rental_uris": {"android": "https://dc.lft.to/lastmile_qr_scan", "ios": "https://dc.lft.to/lastmile_qr_scan"}, "fusion_lat": 0.0, "lat": 38.915546, "is_disabled": 0, "lon": -77.02047583333334, "is_reserved": 0}, {"bike_id": "91ac3770cc18390abfaf1d0804e1bc7a", "fusion_lon": 0.0, "type": "electric_scooter", "name": "91ac3770cc18390abfaf1d0804e1bc7a", "rental_uris": {"android": "https://dc.lft.to/lastmile_qr_scan", "ios": "https://dc.lft.to/lastmile_qr_scan"}, "fusion_lat": 0.0, "lat": 38.9576145, "is_disabled": 0, "lon": -77.01590133333333, "is_reserved": 0}, {"bike_id": "96880f7fe067fa3736be47e7e32df94d", "fusion_lon": 0.0, "type": "electric_scooter", "name": "96880f7fe067fa3736be47e7e32df94d", "rental_uris": {"android": "https://dc.lft.to/lastmile_qr_scan", "ios": "https://dc.lft.to/lastmile_qr_scan"}, "fusion_lat": 0.0, "lat": 38.9072665, "is_disabled": 0, "lon": -77.02370016666667, "is_reserved": 0}, {"bike_id": "2a72e1681915bc4a3dd8ac0d0478c646", "fusion_lon": 0.0, "type": "electric_scooter", "name": "2a72e1681915bc4a3dd8ac0d0478c646", "rental_uris": {"android": "https://dc.lft.to/lastmile_qr_scan", "ios": "https://dc.lft.to/lastmile_qr_scan"}, "fusion_lat": 0.0, "lat": 38.876321, "is_disabled": 0, "lon": -77.01251816666667, "is_reserved": 0}, {"bike_id": "1e5b934fc4370483244b3bca3d988093", "fusion_lon": 0.0, "type": "electric_scooter", "name": "1e5b934fc4370483244b3bca3d988093", "rental_uris": {"android": "https://dc.lft.to/lastmile_qr_scan", "ios": "https://dc.lft.to/lastmile_qr_scan"}, "fusion_lat": 0.0, "lat": 38.93002383333334, "is_disabled": 0, "lon": -77.032904, "is_reserved": 0}, {"bike_id": "59292a8df0b4749465f4e5440d550846", "fusion_lon": 0.0, "type": "electric_scooter", "name": "59292a8df0b4749465f4e5440d550846", "rental_uris": {"android": "https://dc.lft.to/lastmile_qr_scan", "ios": "https://dc.lft.to/lastmile_qr_scan"}, "fusion_lat": 0.0, "lat": 38.891414, "is_disabled": 0, "lon": -76.95191283333334, "is_reserved": 0}, {"bike_id": "0a980d57cf8f38216760462099213f0e", "fusion_lon": 0.0, "type": "electric_scooter", "name": "0a980d57cf8f38216760462099213f0e", "rental_uris": {"android": "https://dc.lft.to/lastmile_qr_scan", "ios": "https://dc.lft.to/lastmile_qr_scan"}, "fusion_lat": 0.0, "lat": 38.890206166666665, "is_disabled": 0, "lon": -76.93739583333333, "is_reserved": 0}, {"bike_id": "02c849e60a77ae07af58540e2586d356", "fusion_lon": 0.0, "type": "electric_scooter", "name": "02c849e60a77ae07af58540e2586d356", "rental_uris": {"android": "https://dc.lft.to/lastmile_qr_scan", "ios": "https://dc.lft.to/lastmile_qr_scan"}, "fusion_lat": 0.0, "lat": 38.905517833333334, "is_disabled": 0, "lon": -77.00604666666666, "is_reserved": 0}, {"bike_id": "beee3eea862140c67356faa82830439f", "fusion_lon": 0.0, "type": "electric_scooter", "name": "beee3eea862140c67356faa82830439f", "rental_uris": {"android": "https://dc.lft.to/lastmile_qr_scan", "ios": "https://dc.lft.to/lastmile_qr_scan"}, "fusion_lat": 0.0, "lat": 38.9261025, "is_disabled": 0, "lon": -77.0241965, "is_reserved": 0}, {"bike_id": "d3692676bbeab726d5083c1208b87422", "fusion_lon": 0.0, "type": "electric_scooter", "name": "d3692676bbeab726d5083c1208b87422", "rental_uris": {"android": "https://dc.lft.to/lastmile_qr_scan", "ios": "https://dc.lft.to/lastmile_qr_scan"}, "fusion_lat": 0.0, "lat": 38.91565533333333, "is_disabled": 0, "lon": -77.0303325, "is_reserved": 0}, {"bike_id": "67b42bd7505826f68198b66ad26d0345", "fusion_lon": 0.0, "type": "electric_scooter", "name": "67b42bd7505826f68198b66ad26d0345", "rental_uris": {"android": "https://dc.lft.to/lastmile_qr_scan", "ios": "https://dc.lft.to/lastmile_qr_scan"}, "fusion_lat": 0.0, "lat": 38.884281, "is_disabled": 0, "lon": -76.95747383333334, "is_reserved": 0}, {"bike_id": "785ba90487a923ab0221d81a7b824934", "fusion_lon": 0.0, "type": "electric_scooter", "name": "785ba90487a923ab0221d81a7b824934", "rental_uris": {"android": "https://dc.lft.to/lastmile_qr_scan", "ios": "https://dc.lft.to/lastmile_qr_scan"}, "fusion_lat": 0.0, "lat": 38.91811383333334, "is_disabled": 0, "lon": -77.034712, "is_reserved": 0}, {"bike_id": "74bddb6c5d63e9622fdef913cc22400b", "fusion_lon": 0.0, "type": "electric_scooter", "name": "74bddb6c5d63e9622fdef913cc22400b", "rental_uris": {"android": "https://dc.lft.to/lastmile_qr_scan", "ios": "https://dc.lft.to/lastmile_qr_scan"}, "fusion_lat": 0.0, "lat": 38.91419783333333, "is_disabled": 0, "lon": -77.03141283333333, "is_reserved": 0}, {"bike_id": "4ef8fc74b1a6bf67b68f45c87a4e5bfc", "fusion_lon": 0.0, "type": "electric_scooter", "name": "4ef8fc74b1a6bf67b68f45c87a4e5bfc", "rental_uris": {"android": "https://dc.lft.to/lastmile_qr_scan", "ios": "https://dc.lft.to/lastmile_qr_scan"}, "fusion_lat": 0.0, "lat": 38.925556, "is_disabled": 0, "lon": -77.0529925, "is_reserved": 0}, {"bike_id": "83663cbe5668e33c150ef9f088996bc2", "fusion_lon": 0.0, "type": "electric_bike", "name": "83663cbe5668e33c150ef9f088996bc2", "rental_uris": {"android": "https://dc.lft.to/lastmile_qr_scan", "ios": "https://dc.lft.to/lastmile_qr_scan"}, "fusion_lat": 0.0, "lat": 38.96382883333333, "is_disabled": 0, "lon": -77.0105985, "is_reserved": 0}, {"bike_id": "ad66c0d3148ce4ae5aafd425d26029cf", "fusion_lon": 0.0, "type": "electric_scooter", "name": "ad66c0d3148ce4ae5aafd425d26029cf", "rental_uris": {"android": "https://dc.lft.to/lastmile_qr_scan", "ios": "https://dc.lft.to/lastmile_qr_scan"}, "fusion_lat": 0.0, "lat": 38.907726, "is_disabled": 0, "lon": -77.03194966666666, "is_reserved": 0}, {"bike_id": "2a790a44573de05ff6e04cd2d1405eca", "fusion_lon": 0.0, "type": "electric_scooter", "name": "2a790a44573de05ff6e04cd2d1405eca", "rental_uris": {"android": "https://dc.lft.to/lastmile_qr_scan", "ios": "https://dc.lft.to/lastmile_qr_scan"}, "fusion_lat": 0.0, "lat": 38.92514633333333, "is_disabled": 0, "lon": -77.02362966666666, "is_reserved": 0}, {"bike_id": "fc752843dcd6fae0664c5ff007a94a9d", "fusion_lon": 0.0, "type": "electric_scooter", "name": "fc752843dcd6fae0664c5ff007a94a9d", "rental_uris": {"android": "https://dc.lft.to/lastmile_qr_scan", "ios": "https://dc.lft.to/lastmile_qr_scan"}, "fusion_lat": 0.0, "lat": 38.92721216666666, "is_disabled": 0, "lon": -77.04046483333333, "is_reserved": 0}, {"bike_id": "296844b5a03bcca556c801db37758b0d", "fusion_lon": 0.0, "type": "electric_scooter", "name": "296844b5a03bcca556c801db37758b0d", "rental_uris": {"android": "https://dc.lft.to/lastmile_qr_scan", "ios": "https://dc.lft.to/lastmile_qr_scan"}, "fusion_lat": 0.0, "lat": 38.91899933333333, "is_disabled": 0, "lon": -77.0415835, "is_reserved": 0}, {"bike_id": "7af3210b7b48620519e121bebe5f6846", "fusion_lon": 0.0, "type": "electric_scooter", "name": "7af3210b7b48620519e121bebe5f6846", "rental_uris": {"android": "https://dc.lft.to/lastmile_qr_scan", "ios": "https://dc.lft.to/lastmile_qr_scan"}, "fusion_lat": 0.0, "lat": 38.8764755, "is_disabled": 0, "lon": -76.96505566666667, "is_reserved": 0}, {"bike_id": "2037d1cdd2fdbbc2a8f89a986ef6be6f", "fusion_lon": 0.0, "type": "electric_bike", "name": "2037d1cdd2fdbbc2a8f89a986ef6be6f", "rental_uris": {"android": "https://dc.lft.to/lastmile_qr_scan", "ios": "https://dc.lft.to/lastmile_qr_scan"}, "fusion_lat": 0.0, "lat": 39.10566766666667, "is_disabled": 0, "lon": -77.15267316666667, "is_reserved": 0}, {"bike_id": "7f45cb542839b02d5c969495e2565c6d", "fusion_lon": 0.0, "type": "electric_scooter", "name": "7f45cb542839b02d5c969495e2565c6d", "rental_uris": {"android": "https://dc.lft.to/lastmile_qr_scan", "ios": "https://dc.lft.to/lastmile_qr_scan"}, "fusion_lat": 0.0, "lat": 38.86171566666667, "is_disabled": 0, "lon": -76.98323433333333, "is_reserved": 0}, {"bike_id": "9c8b6561780218709cb3f9f49d172ddd", "fusion_lon": 0.0, "type": "electric_scooter", "name": "9c8b6561780218709cb3f9f49d172ddd", "rental_uris": {"android": "https://dc.lft.to/lastmile_qr_scan", "ios": "https://dc.lft.to/lastmile_qr_scan"}, "fusion_lat": 0.0, "lat": 38.91804316666666, "is_disabled": 0, "lon": -77.03431583333334, "is_reserved": 0}, {"bike_id": "9bcfbd69e19657f4fc26041b98f46c6a", "fusion_lon": 0.0, "type": "electric_scooter", "name": "9bcfbd69e19657f4fc26041b98f46c6a", "rental_uris": {"android": "https://dc.lft.to/lastmile_qr_scan", "ios": "https://dc.lft.to/lastmile_qr_scan"}, "fusion_lat": 0.0, "lat": 38.944599333333336, "is_disabled": 0, "lon": -77.028038, "is_reserved": 0}, {"bike_id": "6c20b79e395df893ec8930756212f841", "fusion_lon": 0.0, "type": "electric_scooter", "name": "6c20b79e395df893ec8930756212f841", "rental_uris": {"android": "https://dc.lft.to/lastmile_qr_scan", "ios": "https://dc.lft.to/lastmile_qr_scan"}, "fusion_lat": 0.0, "lat": 38.894369, "is_disabled": 0, "lon": -77.001125, "is_reserved": 0}, {"bike_id": "5234c815f39d341e194514c2b92cad32", "fusion_lon": 0.0, "type": "electric_scooter", "name": "5234c815f39d341e194514c2b92cad32", "rental_uris": {"android": "https://dc.lft.to/lastmile_qr_scan", "ios": "https://dc.lft.to/lastmile_qr_scan"}, "fusion_lat": 0.0, "lat": 38.892225833333335, "is_disabled": 0, "lon": -77.027176, "is_reserved": 0}, {"bike_id": "1393c492fef1957d509c72b936de3f73", "fusion_lon": 0.0, "type": "electric_scooter", "name": "1393c492fef1957d509c72b936de3f73", "rental_uris": {"android": "https://dc.lft.to/lastmile_qr_scan", "ios": "https://dc.lft.to/lastmile_qr_scan"}, "fusion_lat": 0.0, "lat": 38.9026705, "is_disabled": 0, "lon": -77.0262305, "is_reserved": 0}, {"bike_id": "8cb7863a43c5d810a05865acb0f150c8", "fusion_lon": 0.0, "type": "electric_scooter", "name": "8cb7863a43c5d810a05865acb0f150c8", "rental_uris": {"android": "https://dc.lft.to/lastmile_qr_scan", "ios": "https://dc.lft.to/lastmile_qr_scan"}, "fusion_lat": 0.0, "lat": 38.924722333333335, "is_disabled": 0, "lon": -77.028329, "is_reserved": 0}, {"bike_id": "296d4180c503af8cba31c21827f98d1b", "fusion_lon": 0.0, "type": "electric_scooter", "name": "296d4180c503af8cba31c21827f98d1b", "rental_uris": {"android": "https://dc.lft.to/lastmile_qr_scan", "ios": "https://dc.lft.to/lastmile_qr_scan"}, "fusion_lat": 0.0, "lat": 38.892322166666666, "is_disabled": 0, "lon": -77.04998316666666, "is_reserved": 0}, {"bike_id": "fe8f358b47eaaaf224ef8f056c5eb2fd", "fusion_lon": 0.0, "type": "electric_scooter", "name": "fe8f358b47eaaaf224ef8f056c5eb2fd", "rental_uris": {"android": "https://dc.lft.to/lastmile_qr_scan", "ios": "https://dc.lft.to/lastmile_qr_scan"}, "fusion_lat": 0.0, "lat": 38.935539, "is_disabled": 0, "lon": -77.08206066666666, "is_reserved": 0}, {"bike_id": "77138fb50b0ed5c195cb9905a881df0d", "fusion_lon": 0.0, "type": "electric_scooter", "name": "77138fb50b0ed5c195cb9905a881df0d", "rental_uris": {"android": "https://dc.lft.to/lastmile_qr_scan", "ios": "https://dc.lft.to/lastmile_qr_scan"}, "fusion_lat": 0.0, "lat": 38.91804966666667, "is_disabled": 0, "lon": -77.03438783333333, "is_reserved": 0}, {"bike_id": "67d888b7e10fec7784280c0c8cc9de17", "fusion_lon": 0.0, "type": "electric_scooter", "name": "67d888b7e10fec7784280c0c8cc9de17", "rental_uris": {"android": "https://dc.lft.to/lastmile_qr_scan", "ios": "https://dc.lft.to/lastmile_qr_scan"}, "fusion_lat": 0.0, "lat": 38.918388666666665, "is_disabled": 0, "lon": -77.039216, "is_reserved": 0}, {"bike_id": "d3741fbfb71c570a337cd0e4a0dbc80b", "fusion_lon": 0.0, "type": "electric_scooter", "name": "d3741fbfb71c570a337cd0e4a0dbc80b", "rental_uris": {"android": "https://dc.lft.to/lastmile_qr_scan", "ios": "https://dc.lft.to/lastmile_qr_scan"}, "fusion_lat": 0.0, "lat": 38.875372166666665, "is_disabled": 0, "lon": -77.00555016666667, "is_reserved": 0}, {"bike_id": "1e0cd4d52f1b691bb653434a51c31e65", "fusion_lon": 0.0, "type": "electric_scooter", "name": "1e0cd4d52f1b691bb653434a51c31e65", "rental_uris": {"android": "https://dc.lft.to/lastmile_qr_scan", "ios": "https://dc.lft.to/lastmile_qr_scan"}, "fusion_lat": 0.0, "lat": 38.931013, "is_disabled": 0, "lon": -77.0239455, "is_reserved": 0},