{"data": {"bikes": [{"lon": -77.01191166666666, "bike_id": "e687703995b87cb80211608b5166bd3f", "lat": 38.90016333333333, "fusion_lon": 0.0, "fusion_lat": 0.0, "type": "electric_scooter", "name": "e687703995b87cb80211608b5166bd3f", "is_disabled": 0, "rental_uris": {"ios": "https://dc.lft.to/lastmile_qr_scan", "android": "https://dc.lft.to/lastmile_qr_scan"}, "is_reserved": 0}, {"lon": -76.98668233333333, "bike_id": "f85440edef84356984b2af0455d7590c", "lat": 38.90247933333333, "fusion_lon": 0.0, "fusion_lat": 0.0, "type": "electric_scooter", "name": "f85440edef84356984b2af0455d7590c", "is_disabled": 0, "rental_uris": {"ios": "https://dc.lft.to/lastmile_qr_scan", "android": "https://dc.lft.to/lastmile_qr_scan"}, "is_reserved": 0}, {"lon": -77.03867133333334, "bike_id": "dd93ef4253a61f449f68795c28872f98", "lat": 38.9066695, "fusion_lon": 0.0, "fusion_lat": 0.0, "type": "electric_scooter", "name": "dd93ef4253a61f449f68795c28872f98", "is_disabled": 0, "rental_uris": {"ios": "https://dc.lft.to/lastmile_qr_scan", "android": "https://dc.lft.to/lastmile_qr_scan"}, "is_reserved": 0}, {"lon": -77.04729183333333, "bike_id": "b0ddb5bf247a09a375be6f7b1f058d41", "lat": 38.92229483333333, "fusion_lon": 0.0, "fusion_lat": 0.0, "type": "electric_scooter", "name": "b0ddb5bf247a09a375be6f7b1f058d41", "is_disabled": 0, "rental_uris": {"ios": "https://dc.lft.to/lastmile_qr_scan", "android": "https://dc.lft.to/lastmile_qr_scan"}, "is_reserved": 0}, {"lon": -77.0278585, "bike_id": "3760ce373e566b3b6a9c4b22e91010b7", "lat": 38.920186666666666, "fusion_lon": 0.0, "fusion_lat": 0.0, "type": "electric_scooter", "name": "3760ce373e566b3b6a9c4b22e91010b7", "is_disabled": 0, "rental_uris": {"ios": "https://dc.lft.to/lastmile_qr_scan", "android": "https://dc.lft.to/lastmile_qr_scan"}, "is_reserved": 0}, {"lon": -77.04273483333333, "bike_id": "cd5cfc00aae819735fa7b37594776ec6", "lat": 38.9178345, "fusion_lon": 0.0, "fusion_lat": 0.0, "type": "electric_scooter", "name": "cd5cfc00aae819735fa7b37594776ec6", "is_disabled": 0, "rental_uris": {"ios": "https://dc.lft.to/lastmile_qr_scan", "android": "https://dc.lft.to/lastmile_qr_scan"}, "is_reserved": 0}, {"lon": -77.00061416666667, "bike_id": "07df1b1247bfd54efac9ccf9c6d02319", "lat": 38.924328333333335, "fusion_lon": 0.0, "fusion_lat": 0.0, "type": "electric_scooter", "name": "07df1b1247bfd54efac9ccf9c6d02319", "is_disabled": 0, "rental_uris": {"ios": "https://dc.lft.to/lastmile_qr_scan", "android": "https://dc.lft.to/lastmile_qr_scan"}, "is_reserved": 0}, {"lon": -77.05209383333333, "bike_id": "37a301e6555de7dccd081b3604259f84", "lat": 38.900125, "fusion_lon": 0.0, "fusion_lat": 0.0, "type": "electric_scooter", "name": "37a301e6555de7dccd081b3604259f84", "is_disabled": 0, "rental_uris": {"ios": "https://dc.lft.to/lastmile_qr_scan", "android": "https://dc.lft.to/lastmile_qr_scan"}, "is_reserved": 0}, {"lon": -77.02403616666666, "bike_id": "59a694be237aafdb678456a11489c7ad", "lat": 38.91759616666667, "fusion_lon": 0.0, "fusion_lat": 0.0, "type": "electric_scooter", "name": "59a694be237aafdb678456a11489c7ad", "is_disabled": 0, "rental_uris": {"ios": "https://dc.lft.to/lastmile_qr_scan", "android": "https://dc.lft.to/lastmile_qr_scan"}, "is_reserved": 0}, {"lon": -76.93605766666667, "bike_id": "40d0618078a327f2f71e312152f9749e", "lat": 38.89684316666666, "fusion_lon": 0.0, "fusion_lat": 0.0, "type": "electric_scooter", "name": "40d0618078a327f2f71e312152f9749e", "is_disabled": 0, "rental_uris": {"ios": "https://dc.lft.to/lastmile_qr_scan", "android": "https://dc.lft.to/lastmile_qr_scan"}, "is_reserved": 0}, {"lon": -76.97616383333333, "bike_id": "a64172a31ac3c91a94639bf27fdd4ee4", "lat": 38.903813666666665, "fusion_lon": 0.0, "fusion_lat": 0.0, "type": "electric_scooter", "name": "a64172a31ac3c91a94639bf27fdd4ee4", "is_disabled": 0, "rental_uris": {"ios": "https://dc.lft.to/lastmile_qr_scan", "android": "https://dc.lft.to/lastmile_qr_scan"}, "is_reserved": 0}, {"lon": -77.02895716666667, "bike_id": "071f1556b654081d01b1209513761e16", "lat": 38.903848833333335, "fusion_lon": 0.0, "fusion_lat": 0.0, "type": "electric_scooter", "name": "071f1556b654081d01b1209513761e16", "is_disabled": 0, "rental_uris": {"ios": "https://dc.lft.to/lastmile_qr_scan", "android": "https://dc.lft.to/lastmile_qr_scan"}, "is_reserved": 0}, {"lon": -76.99925533333334, "bike_id": "09bde7c0bbb8b4da50039dd40439535f", "lat": 38.909093166666665, "fusion_lon": 0.0, "fusion_lat": 0.0, "type": "electric_scooter", "name": "09bde7c0bbb8b4da50039dd40439535f", "is_disabled": 0, "rental_uris": {"ios": "https://dc.lft.to/lastmile_qr_scan", "android": "https://dc.lft.to/lastmile_qr_scan"}, "is_reserved": 0}, {"lon": -77.00327183333333, "bike_id": "297c149a8881aa0bd370b874640d5fb9", "lat": 38.902636, "fusion_lon": 0.0, "fusion_lat": 0.0, "type": "electric_scooter", "name": "297c149a8881aa0bd370b874640d5fb9", "is_disabled": 0, "rental_uris": {"ios": "https://dc.lft.to/lastmile_qr_scan", "android": "https://dc.lft.to/lastmile_qr_scan"}, "is_reserved": 0}, {"lon": -77.00080433333333, "bike_id": "012a76e2ef99c0e921da3458bb2f85ac", "lat": 38.89478033333333, "fusion_lon": 0.0, "fusion_lat": 0.0, "type": "electric_scooter", "name": "012a76e2ef99c0e921da3458bb2f85ac", "is_disabled": 0, "rental_uris": {"ios": "https://dc.lft.to/lastmile_qr_scan", "android": "https://dc.lft.to/lastmile_qr_scan"}, "is_reserved": 0}, {"lon": -76.99034966666666, "bike_id": "7957f357b1e289b9b72ca2c8cc653993", "lat": 38.9028125, "fusion_lon": 0.0, "fusion_lat": 0.0, "type": "electric_scooter", "name": "7957f357b1e289b9b72ca2c8cc653993", "is_disabled": 0, "rental_uris": {"ios": "https://dc.lft.to/lastmile_qr_scan", "android": "https://dc.lft.to/lastmile_qr_scan"}, "is_reserved": 0}, {"lon": -77.02466316666667, "bike_id": "d08661140b2dec6b38ad3599b3ed1563", "lat": 38.93091116666667, "fusion_lon": 0.0, "fusion_lat": 0.0, "type": "electric_scooter", "name": "d08661140b2dec6b38ad3599b3ed1563", "is_disabled": 0, "rental_uris": {"ios": "https://dc.lft.to/lastmile_qr_scan", "android": "https://dc.lft.to/lastmile_qr_scan"}, "is_reserved": 0}, {"lon": -77.0414895, "bike_id": "624d514fa403da7204809207f4060d48", "lat": 38.90735333333333, "fusion_lon": 0.0, "fusion_lat": 0.0, "type": "electric_scooter", "name": "624d514fa403da7204809207f4060d48", "is_disabled": 0, "rental_uris": {"ios": "https://dc.lft.to/lastmile_qr_scan", "android": "https://dc.lft.to/lastmile_qr_scan"}, "is_reserved": 0}, {"lon": -76.99036733333334, "bike_id": "55503caed91a29524954b75cc0e89ab1", "lat": 38.86372316666667, "fusion_lon": 0.0, "fusion_lat": 0.0, "type": "electric_scooter", "name": "55503caed91a29524954b75cc0e89ab1", "is_disabled": 0, "rental_uris": {"ios": "https://dc.lft.to/lastmile_qr_scan", "android": "https://dc.lft.to/lastmile_qr_scan"}, "is_reserved": 0}, {"lon": -77.02281816666667, "bike_id": "4ad5d524924f45d348c63741c905aaa1", "lat": 38.90960116666667, "fusion_lon": 0.0, "fusion_lat": 0.0, "type": "electric_scooter", "name": "4ad5d524924f45d348c63741c905aaa1", "is_disabled": 0, "rental_uris": {"ios": "https://dc.lft.to/lastmile_qr_scan", "android": "https://dc.lft.to/lastmile_qr_scan"}, "is_reserved": 0}, {"lon": -77.03851666666667, "bike_id": "d9623b7e8f5792768f0466e2f808e30a", "lat": 38.916637, "fusion_lon": 0.0, "fusion_lat": 0.0, "type": "electric_scooter", "name": "d9623b7e8f5792768f0466e2f808e30a", "is_disabled": 0, "rental_uris": {"ios": "https://dc.lft.to/lastmile_qr_scan", "android": "https://dc.lft.to/lastmile_qr_scan"}, "is_reserved": 0}, {"lon": -77.06402333333334, "bike_id": "22a52c5a594ebb341ee79b66e4cd621c", "lat": 38.94320783333333, "fusion_lon": 0.0, "fusion_lat": 0.0, "type": "electric_scooter", "name": "22a52c5a594ebb341ee79b66e4cd621c", "is_disabled": 0, "rental_uris": {"ios": "https://dc.lft.to/lastmile_qr_scan", "android": "https://dc.lft.to/lastmile_qr_scan"}, "is_reserved": 0}, {"lon": -76.92199366666667, "bike_id": "3081669c67d284bab99381a4e7f1f6a9", "lat": 38.89500066666667, "fusion_lon": 0.0, "fusion_lat": 0.0, "type": "electric_bike", "name": "3081669c67d284bab99381a4e7f1f6a9", "is_disabled": 0, "rental_uris": {"ios": "https://dc.lft.to/lastmile_qr_scan", "android": "https://dc.lft.to/lastmile_qr_scan"}, "is_reserved": 0}, {"lon": -77.03186533333333, "bike_id": "3efbd7a01b90f3ab14edc626f0863543", "lat": 38.91172916666667, "fusion_lon": 0.0, "fusion_lat": 0.0, "type": "electric_scooter", "name": "3efbd7a01b90f3ab14edc626f0863543", "is_disabled": 0, "rental_uris": {"ios": "https://dc.lft.to/lastmile_qr_scan", "android": "https://dc.lft.to/lastmile_qr_scan"}, "is_reserved": 0}, {"lon": -77.032637, "bike_id": "c1e032c72a102187aeb5c84c913b97e5", "lat": 38.934465333333335, "fusion_lon": 0.0, "fusion_lat": 0.0, "type": "electric_scooter", "name": "c1e032c72a102187aeb5c84c913b97e5", "is_disabled": 0, "rental_uris": {"ios": "https://dc.lft.to/lastmile_qr_scan", "android": "https://dc.lft.to/lastmile_qr_scan"}, "is_reserved": 0}, {"lon": -77.0241575, "bike_id": "5f882ef9b367c6dd26c20c51668fbb03", "lat": 38.917800166666666, "fusion_lon": 0.0, "fusion_lat": 0.0, "type": "electric_scooter", "name": "5f882ef9b367c6dd26c20c51668fbb03", "is_disabled": 0, "rental_uris": {"ios": "https://dc.lft.to/lastmile_qr_scan", "android": "https://dc.lft.to/lastmile_qr_scan"}, "is_reserved": 0}, {"lon": -77.02952416666666, "bike_id": "dffd448d31b5fcccdb4eaa9566230c38", "lat": 38.9124705, "fusion_lon": 0.0, "fusion_lat": 0.0, "type": "electric_scooter", "name": "dffd448d31b5fcccdb4eaa9566230c38", "is_disabled": 0, "rental_uris": {"ios": "https://dc.lft.to/lastmile_qr_scan", "android": "https://dc.lft.to/lastmile_qr_scan"}, "is_reserved": 0}, {"lon": -77.036481, "bike_id": "3174f9eccc7176145e0476d8bfb4472d", "lat": 38.90282416666667, "fusion_lon": 0.0, "fusion_lat": 0.0, "type": "electric_scooter", "name": "3174f9eccc7176145e0476d8bfb4472d", "is_disabled": 0, "rental_uris": {"ios": "https://dc.lft.to/lastmile_qr_scan", "android": "https://dc.lft.to/lastmile_qr_scan"}, "is_reserved": 0}, {"lon": -77.0226525, "bike_id": "f964ce46e1c6bc07bcba15a1fa83f94d", "lat": 38.916305333333334, "fusion_lon": 0.0, "fusion_lat": 0.0, "type": "electric_scooter", "name": "f964ce46e1c6bc07bcba15a1fa83f94d", "is_disabled": 0, "rental_uris": {"ios": "https://dc.lft.to/lastmile_qr_scan", "android": "https://dc.lft.to/lastmile_qr_scan"}, "is_reserved": 0}, {"lon": -77.04218583333333, "bike_id": "b7fba9956108d7575fdb91a305ca11d6", "lat": 38.91122, "fusion_lon": 0.0, "fusion_lat": 0.0, "type": "electric_scooter", "name": "b7fba9956108d7575fdb91a305ca11d6", "is_disabled": 0, "rental_uris": {"ios": "https://dc.lft.to/lastmile_qr_scan", "android": "https://dc.lft.to/lastmile_qr_scan"}, "is_reserved": 0}, {"lon": -77.02476816666666, "bike_id": "6414e634a71d4173e0b8d3ccb78f1782", "lat": 38.9017905, "fusion_lon": 0.0, "fusion_lat": 0.0, "type": "electric_scooter", "name": "6414e634a71d4173e0b8d3ccb78f1782", "is_disabled": 0, "rental_uris": {"ios": "https://dc.lft.to/lastmile_qr_scan", "android": "https://dc.lft.to/lastmile_qr_scan"}, "is_reserved": 0}, {"lon": -77.02366183333334, "bike_id": "c117c2bc89ee8901980e1a2858faef6d", "lat": 38.892149, "fusion_lon": 0.0, "fusion_lat": 0.0, "type": "electric_scooter", "name": "c117c2bc89ee8901980e1a2858faef6d", "is_disabled": 0, "rental_uris": {"ios": "https://dc.lft.to/lastmile_qr_scan", "android": "https://dc.lft.to/lastmile_qr_scan"}, "is_reserved": 0}, {"lon": -76.98842166666667, "bike_id": "6be2345252f07b934072f64b698cff57", "lat": 38.8427745, "fusion_lon": 0.0, "fusion_lat": 0.0, "type": "electric_bike", "name": "6be2345252f07b934072f64b698cff57", "is_disabled": 0, "rental_uris": {"ios": "https://dc.lft.to/lastmile_qr_scan", "android": "https://dc.lft.to/lastmile_qr_scan"}, "is_reserved": 0}, {"lon": -77.05718816666666, "bike_id": "d8bf6d645c6c2ff67dab54e10bbce5db", "lat": 38.93371483333333, "fusion_lon": 0.0, "fusion_lat": 0.0, "type": "electric_scooter", "name": "d8bf6d645c6c2ff67dab54e10bbce5db", "is_disabled": 0, "rental_uris": {"ios": "https://dc.lft.to/lastmile_qr_scan", "android": "https://dc.lft.to/lastmile_qr_scan"}, "is_reserved": 0}, {"lon": -76.97051966666666, "bike_id": "1362560db630dcaebaaf242c8e28d542", "lat": 38.89775383333333, "fusion_lon": 0.0, "fusion_lat": 0.0, "type": "electric_scooter", "name": "1362560db630dcaebaaf242c8e28d542", "is_disabled": 0, "rental_uris": {"ios": "https://dc.lft.to/lastmile_qr_scan", "android": "https://dc.lft.to/lastmile_qr_scan"}, "is_reserved": 0}, {"lon": -77.00924283333333, "bike_id": "b6bffb35c5bdb9d6fdc2a8c3d0020d55", "lat": 38.89647183333334, "fusion_lon": 0.0, "fusion_lat": 0.0, "type": "electric_scooter", "name": "b6bffb35c5bdb9d6fdc2a8c3d0020d55", "is_disabled": 0, "rental_uris": {"ios": "https://dc.lft.to/lastmile_qr_scan", "android": "https://dc.lft.to/lastmile_qr_scan"}, "is_reserved": 0}, {"lon": -77.0004685, "bike_id": "dd2667ca7f4f9a47b455688bbb093ad3", "lat": 38.9239855, "fusion_lon": 0.0, "fusion_lat": 0.0, "type": "electric_scooter", "name": "dd2667ca7f4f9a47b455688bbb093ad3", "is_disabled": 0, "rental_uris": {"ios": "https://dc.lft.to/lastmile_qr_scan", "android": "https://dc.lft.to/lastmile_qr_scan"}, "is_reserved": 0}, {"lon": -77.00151633333333, "bike_id": "d60bc6562438a9276aec37f427a293ff", "lat": 38.889930666666665, "fusion_lon": 0.0, "fusion_lat": 0.0, "type": "electric_scooter", "name": "d60bc6562438a9276aec37f427a293ff", "is_disabled": 0, "rental_uris": {"ios": "https://dc.lft.to/lastmile_qr_scan", "android": "https://dc.lft.to/lastmile_qr_scan"}, "is_reserved": 0}, {"lon": -77.04620866666667, "bike_id": "07ec8bbf4499aa14efb2fa7cf6a447db", "lat": 38.90555283333333, "fusion_lon": 0.0, "fusion_lat": 0.0, "type": "electric_scooter", "name": "07ec8bbf4499aa14efb2fa7cf6a447db", "is_disabled": 0, "rental_uris": {"ios": "https://dc.lft.to/lastmile_qr_scan", "android": "https://dc.lft.to/lastmile_qr_scan"}, "is_reserved": 0}, {"lon": -77.02739583333333, "bike_id": "93d646eff86c19b3a7a1309c822c1b41", "lat": 38.927795, "fusion_lon": 0.0, "fusion_lat": 0.0, "type": "electric_scooter", "name": "93d646eff86c19b3a7a1309c822c1b41", "is_disabled": 0, "rental_uris": {"ios": "https://dc.lft.to/lastmile_qr_scan", "android": "https://dc.lft.to/lastmile_qr_scan"}, "is_reserved": 0}, {"lon": -77.039027, "bike_id": "21d56ceee4aa928d41fa84126207e3a9", "lat": 38.9221585, "fusion_lon": 0.0, "fusion_lat": 0.0, "type": "electric_scooter", "name": "21d56ceee4aa928d41fa84126207e3a9", "is_disabled": 0, "rental_uris": {"ios": "https://dc.lft.to/lastmile_qr_scan", "android": "https://dc.lft.to/lastmile_qr_scan"}, "is_reserved": 0}, {"lon": -77.02667833333334, "bike_id": "cf357e3965ae420ecbd9f77c12da31c8", "lat": 38.931029833333334, "fusion_lon": 0.0, "fusion_lat": 0.0, "type": "electric_scooter", "name": "cf357e3965ae420ecbd9f77c12da31c8", "is_disabled": 0, "rental_uris": {"ios": "https://dc.lft.to/lastmile_qr_scan", "android": "https://dc.lft.to/lastmile_qr_scan"}, "is_reserved": 0}, {"lon": -77.03646983333333, "bike_id": "76c39fc9af1cce02de5654cbbc491a5b", "lat": 38.9234035, "fusion_lon": 0.0, "fusion_lat": 0.0, "type": "electric_scooter", "name": "76c39fc9af1cce02de5654cbbc491a5b", "is_disabled": 0, "rental_uris": {"ios": "https://dc.lft.to/lastmile_qr_scan", "android": "https://dc.lft.to/lastmile_qr_scan"}, "is_reserved": 0}, {"lon": -77.0238845, "bike_id": "337e38341068aff7ca3b2c9043e3b9c3", "lat": 38.90095733333333, "fusion_lon": 0.0, "fusion_lat": 0.0, "type": "electric_scooter", "name": "337e38341068aff7ca3b2c9043e3b9c3", "is_disabled": 0, "rental_uris": {"ios": "https://dc.lft.to/lastmile_qr_scan", "android": "https://dc.lft.to/lastmile_qr_scan"}, "is_reserved": 0}, {"lon": -77.0363575, "bike_id": "35ca3783aba0ca7a8874f05030788a58", "lat": 38.921824666666666, "fusion_lon": 0.0, "fusion_lat": 0.0, "type": "electric_scooter", "name": "35ca3783aba0ca7a8874f05030788a58", "is_disabled": 0, "rental_uris": {"ios": "https://dc.lft.to/lastmile_qr_scan", "android": "https://dc.lft.to/lastmile_qr_scan"}, "is_reserved": 0}, {"lon": -77.02438016666666, "bike_id": "06c70a19f8d854bb9fcf509a236d78f9", "lat": 38.8998195, "fusion_lon": 0.0, "fusion_lat": 0.0, "type": "electric_scooter", "name": "06c70a19f8d854bb9fcf509a236d78f9", "is_disabled": 0, "rental_uris": {"ios": "https://dc.lft.to/lastmile_qr_scan", "android": "https://dc.lft.to/lastmile_qr_scan"}, "is_reserved": 0}, {"lon": -77.02354433333333, "bike_id": "cdb7610989afe7a785180d927e6dd0fb", "lat": 38.9206865, "fusion_lon": 0.0, "fusion_lat": 0.0, "type": "electric_scooter", "name": "cdb7610989afe7a785180d927e6dd0fb", "is_disabled": 0, "rental_uris": {"ios": "https://dc.lft.to/lastmile_qr_scan", "android": "https://dc.lft.to/lastmile_qr_scan"}, "is_reserved": 0}, {"lon": -76.97863166666667, "bike_id": "836e47165c0ae503257090e52b9f398b", "lat": 38.87073083333333, "fusion_lon": 0.0, "fusion_lat": 0.0, "type": "electric_scooter", "name": "836e47165c0ae503257090e52b9f398b", "is_disabled": 0, "rental_uris": {"ios": "https://dc.lft.to/lastmile_qr_scan", "android": "https://dc.lft.to/lastmile_qr_scan"}, "is_reserved": 0}, {"lon": -77.017737, "bike_id": "8425924849a81a1cc970d781dcc2d104", "lat": 38.90125183333333, "fusion_lon": 0.0, "fusion_lat": 0.0, "type": "electric_scooter", "name": "8425924849a81a1cc970d781dcc2d104", "is_disabled": 0, "rental_uris": {"ios": "https://dc.lft.to/lastmile_qr_scan", "android": "https://dc.lft.to/lastmile_qr_scan"}, "is_reserved": 0}, {"lon": -77.00484166666666, "bike_id": "ad3af7da4c391dc6ee0cc5328964a555", "lat": 38.9206365, "fusion_lon": 0.0, "fusion_lat": 0.0, "type": "electric_scooter", "name": "ad3af7da4c391dc6ee0cc5328964a555", "is_disabled": 0, "rental_uris": {"ios": "https://dc.lft.to/lastmile_qr_scan", "android": "https://dc.lft.to/lastmile_qr_scan"}, "is_reserved": 0}, {"lon": -77.02170533333333, "bike_id": "5ffabbfa9c6c2fbf950d67053dfbfd5e", "lat": 38.887434166666665, "fusion_lon": 0.0, "fusion_lat": 0.0, "type": "electric_scooter", "name": "5ffabbfa9c6c2fbf950d67053dfbfd5e", "is_disabled": 0, "rental_uris": {"ios": "https://dc.lft.to/lastmile_qr_scan", "android": "https://dc.lft.to/lastmile_qr_scan"}, "is_reserved": 0}, {"lon": -77.04522216666666, "bike_id": "754c1e269b02027d129e5f66481baff9", "lat": 38.935224166666664, "fusion_lon": 0.0, "fusion_lat": 0.0, "type": "electric_scooter", "name": "754c1e269b02027d129e5f66481baff9", "is_disabled": 0, "rental_uris": {"ios": "https://dc.lft.to/lastmile_qr_scan", "android": "https://dc.lft.to/lastmile_qr_scan"}, "is_reserved": 0}, {"lon": -77.02951816666666, "bike_id": "5ac571d91341f6f4b021c6b4ac268d67", "lat": 38.921765, "fusion_lon": 0.0, "fusion_lat": 0.0, "type": "electric_scooter", "name": "5ac571d91341f6f4b021c6b4ac268d67", "is_disabled": 0, "rental_uris": {"ios": "https://dc.lft.to/lastmile_qr_scan", "android": "https://dc.lft.to/lastmile_qr_scan"}, "is_reserved": 0}, {"lon": -77.00196466666667, "bike_id": "52978165fb7bd32bc67f7230b9fa91c3", "lat": 38.914785333333334, "fusion_lon": 0.0, "fusion_lat": 0.0, "type": "electric_scooter", "name": "52978165fb7bd32bc67f7230b9fa91c3", "is_disabled": 0, "rental_uris": {"ios": "https://dc.lft.to/lastmile_qr_scan", "android": "https://dc.lft.to/lastmile_qr_scan"}, "is_reserved": 0}, {"lon": -77.06405683333334, "bike_id": "303bcc10a0f5f006d070ff745f1a7db6", "lat": 38.840586333333334, "fusion_lon": 0.0, "fusion_lat": 0.0, "type": "electric_bike", "name": "303bcc10a0f5f006d070ff745f1a7db6", "is_disabled": 0, "rental_uris": {"ios": "https://dc.lft.to/lastmile_qr_scan", "android": "https://dc.lft.to/lastmile_qr_scan"}, "is_reserved": 0}, {"lon": -77.036522, "bike_id": "6e865b3144a8424f079f71265fac9f6d", "lat": 38.9361755, "fusion_lon": 0.0, "fusion_lat": 0.0, "type": "electric_scooter", "name": "6e865b3144a8424f079f71265fac9f6d", "is_disabled": 0, "rental_uris": {"ios": "https://dc.lft.to/lastmile_qr_scan", "android": "https://dc.lft.to/lastmile_qr_scan"}, "is_reserved": 0}, {"lon": -77.02167866666667, "bike_id": "39af2234fbebbebace3c3ec0ddc17a65", "lat": 38.90194483333333, "fusion_lon": 0.0, "fusion_lat": 0.0, "type": "electric_scooter", "name": "39af2234fbebbebace3c3ec0ddc17a65", "is_disabled": 0, "rental_uris": {"ios": "https://dc.lft.to/lastmile_qr_scan", "android": "https://dc.lft.to/lastmile_qr_scan"}, "is_reserved": 0}, {"lon": -76.99045816666667, "bike_id": "5a95672f6be4a429f3a278c9067435eb", "lat": 38.88412666666667, "fusion_lon": 0.0, "fusion_lat": 0.0, "type": "electric_scooter", "name": "5a95672f6be4a429f3a278c9067435eb", "is_disabled": 0, "rental_uris": {"ios": "https://dc.lft.to/lastmile_qr_scan", "android": "https://dc.lft.to/lastmile_qr_scan"}, "is_reserved": 0}, {"lon": -76.98224666666667, "bike_id": "6e10e7337fcbc10833166be75a769643", "lat": 38.86624066666667, "fusion_lon": 0.0, "fusion_lat": 0.0, "type": "electric_scooter", "name": "6e10e7337fcbc10833166be75a769643", "is_disabled": 0, "rental_uris": {"ios": "https://dc.lft.to/lastmile_qr_scan", "android": "https://dc.lft.to/lastmile_qr_scan"}, "is_reserved": 0}, {"lon": -77.02938533333334, "bike_id": "d081051bf874674a0c8778350036997e", "lat": 38.907123, "fusion_lon": 0.0, "fusion_lat": 0.0, "type": "electric_scooter", "name": "d081051bf874674a0c8778350036997e", "is_disabled": 0, "rental_uris": {"ios": "https://dc.lft.to/lastmile_qr_scan", "android": "https://dc.lft.to/lastmile_qr_scan"}, "is_reserved": 0}, {"lon": -77.03646916666666, "bike_id": "01661fc8b5d216e326666f8897fa01bd", "lat": 38.90282966666667, "fusion_lon": 0.0, "fusion_lat": 0.0, "type": "electric_scooter", "name": "01661fc8b5d216e326666f8897fa01bd", "is_disabled": 0, "rental_uris": {"ios": "https://dc.lft.to/lastmile_qr_scan", "android": "https://dc.lft.to/lastmile_qr_scan"}, "is_reserved": 0}, {"lon": -77.03854016666666, "bike_id": "7381dc08412f372f172c47b99c91af37", "lat": 38.915501166666665, "fusion_lon": 0.0, "fusion_lat": 0.0, "type": "electric_scooter", "name": "7381dc08412f372f172c47b99c91af37", "is_disabled": 0, "rental_uris": {"ios": "https://dc.lft.to/lastmile_qr_scan", "android": "https://dc.lft.to/lastmile_qr_scan"}, "is_reserved": 0}, {"lon": -77.02595666666667, "bike_id": "41b2b51af429f0e94dad1074146f0832", "lat": 38.905030833333335, "fusion_lon": 0.0, "fusion_lat": 0.0, "type": "electric_scooter", "name": "41b2b51af429f0e94dad1074146f0832", "is_disabled": 0, "rental_uris": {"ios": "https://dc.lft.to/lastmile_qr_scan", "android": "https://dc.lft.to/lastmile_qr_scan"}, "is_reserved": 0}, {"lon": -77.12222183333333, "bike_id": "b07c479e4c54be20237b0b9792a2b4cc", "lat": 38.8530035, "fusion_lon": 0.0, "fusion_lat": 0.0, "type": "electric_bike", "name": "b07c479e4c54be20237b0b9792a2b4cc", "is_disabled": 0, "rental_uris": {"ios": "https://dc.lft.to/lastmile_qr_scan", "android": "https://dc.lft.to/lastmile_qr_scan"}, "is_reserved": 0}, {"lon": -77.0605235, "bike_id": "a0f685b3c1f8833b275bcbe979091436", "lat": 38.9382975, "fusion_lon": 0.0, "fusion_lat": 0.0, "type": "electric_scooter", "name": "a0f685b3c1f8833b275bcbe979091436", "is_disabled": 0, "rental_uris": {"ios": "https://dc.lft.to/lastmile_qr_scan", "android": "https://dc.lft.to/lastmile_qr_scan"}, "is_reserved": 0}, {"lon": -76.99853183333333, "bike_id": "dd011294e528c35ff19105b2427990e2", "lat": 38.907243666666666, "fusion_lon": 0.0, "fusion_lat": 0.0, "type": "electric_scooter", "name": "dd011294e528c35ff19105b2427990e2", "is_disabled": 0, "rental_uris": {"ios": "https://dc.lft.to/lastmile_qr_scan", "android": "https://dc.lft.to/lastmile_qr_scan"}, "is_reserved": 0}, {"lon": -76.99996466666667, "bike_id": "39720091256eaa3d2a9686832002be7d", "lat": 38.8751655, "fusion_lon": 0.0, "fusion_lat": 0.0, "type": "electric_scooter", "name": "39720091256eaa3d2a9686832002be7d", "is_disabled": 0, "rental_uris": {"ios": "https://dc.lft.to/lastmile_qr_scan", "android": "https://dc.lft.to/lastmile_qr_scan"}, "is_reserved": 0}, {"lon": -77.07346683333333, "bike_id": "216bb7a7b362cf99c7361981bf918fdf", "lat": 38.9110025, "fusion_lon": 0.0, "fusion_lat": 0.0, "type": "electric_scooter", "name": "216bb7a7b362cf99c7361981bf918fdf", "is_disabled": 0, "rental_uris": {"ios": "https://dc.lft.to/lastmile_qr_scan", "android": "https://dc.lft.to/lastmile_qr_scan"}, "is_reserved": 0}, {"lon": -77.04563116666667, "bike_id": "c8060e1d8ce5b591d431587a76ada847", "lat": 38.91829466666667, "fusion_lon": 0.0, "fusion_lat": 0.0, "type": "electric_scooter", "name": "c8060e1d8ce5b591d431587a76ada847", "is_disabled": 0, "rental_uris": {"ios": "https://dc.lft.to/lastmile_qr_scan", "android": "https://dc.lft.to/lastmile_qr_scan"}, "is_reserved": 0}, {"lon": -77.011848, "bike_id": "c329d956ac5181b8656461a224131896", "lat": 38.91554933333333, "fusion_lon": 0.0, "fusion_lat": 0.0, "type": "electric_scooter", "name": "c329d956ac5181b8656461a224131896", "is_disabled": 0, "rental_uris": {"ios": "https://dc.lft.to/lastmile_qr_scan", "android": "https://dc.lft.to/lastmile_qr_scan"}, "is_reserved": 0}, {"lon": -77.02477, "bike_id": "c199a83500ea9d6920a10d14434fdbfa", "lat": 38.90412516666667, "fusion_lon": 0.0, "fusion_lat": 0.0, "type": "electric_scooter", "name": "c199a83500ea9d6920a10d14434fdbfa", "is_disabled": 0, "rental_uris": {"ios": "https://dc.lft.to/lastmile_qr_scan", "android": "https://dc.lft.to/lastmile_qr_scan"}, "is_reserved": 0}, {"lon": -76.9160005, "bike_id": "0c9823aab1954a83b8f38097b0d8facd", "lat": 38.87978833333333, "fusion_lon": 0.0, "fusion_lat": 0.0, "type": "electric_bike", "name": "0c9823aab1954a83b8f38097b0d8facd", "is_disabled": 0, "rental_uris": {"ios": "https://dc.lft.to/lastmile_qr_scan", "android": "https://dc.lft.to/lastmile_qr_scan"}, "is_reserved": 0}, {"lon": -77.0348595, "bike_id": "df8e3ece151cb7fbd87e46fa8ef0c677", "lat": 38.9353965, "fusion_lon": 0.0, "fusion_lat": 0.0, "type": "electric_scooter", "name": "df8e3ece151cb7fbd87e46fa8ef0c677", "is_disabled": 0, "rental_uris": {"ios": "https://dc.lft.to/lastmile_qr_scan", "android": "https://dc.lft.to/lastmile_qr_scan"}, "is_reserved": 0}, {"lon": -77.03667233333333, "bike_id": "2a741139ea7c6660a34bb8fce2e2ab74", "lat": 38.93929983333334, "fusion_lon": 0.0, "fusion_lat": 0.0, "type": "electric_scooter", "name": "2a741139ea7c6660a34bb8fce2e2ab74", "is_disabled": 0, "rental_uris": {"ios": "https://dc.lft.to/lastmile_qr_scan", "android": "https://dc.lft.to/lastmile_qr_scan"}, "is_reserved": 0}, {"lon": -77.007727, "bike_id": "6c89e6ef4f78feb91415737a7e84630c", "lat": 38.981359, "fusion_lon": 0.0, "fusion_lat": 0.0, "type": "electric_bike", "name": "6c89e6ef4f78feb91415737a7e84630c", "is_disabled": 0, "rental_uris": {"ios": "https://dc.lft.to/lastmile_qr_scan", "android": "https://dc.lft.to/lastmile_qr_scan"}, "is_reserved": 0}, {"lon": -77.00200266666667, "bike_id": "6b2aa4aec7373a4182df4c46088d468e", "lat": 38.91591583333334, "fusion_lon": 0.0, "fusion_lat": 0.0, "type": "electric_scooter", "name": "6b2aa4aec7373a4182df4c46088d468e", "is_disabled": 0, "rental_uris": {"ios": "https://dc.lft.to/lastmile_qr_scan", "android": "https://dc.lft.to/lastmile_qr_scan"}, "is_reserved": 0}, {"lon": -76.98014933333333, "bike_id": "732632df68d528dd536911ed3800d4ba", "lat": 38.90284883333333, "fusion_lon": 0.0, "fusion_lat": 0.0, "type": "electric_scooter", "name": "732632df68d528dd536911ed3800d4ba", "is_disabled": 0, "rental_uris": {"ios": "https://dc.lft.to/lastmile_qr_scan", "android": "https://dc.lft.to/lastmile_qr_scan"}, "is_reserved": 0}, {"lon": -77.02899683333334, "bike_id": "d56659acbadb47bd19620383a687ddcd", "lat": 38.92818283333333, "fusion_lon": 0.0, "fusion_lat": 0.0, "type": "electric_scooter", "name": "d56659acbadb47bd19620383a687ddcd", "is_disabled": 0, "rental_uris": {"ios": "https://dc.lft.to/lastmile_qr_scan", "android": "https://dc.lft.to/lastmile_qr_scan"}, "is_reserved": 0}, {"lon": -77.02351283333333, "bike_id": "0b56ad2f38b632efb3ead56d3b99b66e", "lat": 38.93536483333333, "fusion_lon": 0.0, "fusion_lat": 0.0, "type": "electric_scooter", "name": "0b56ad2f38b632efb3ead56d3b99b66e", "is_disabled": 0, "rental_uris": {"ios": "https://dc.lft.to/lastmile_qr_scan", "android": "https://dc.lft.to/lastmile_qr_scan"}, "is_reserved": 0}, {"lon": -76.9987815, "bike_id": "56c4c1fc57d67e8cd2082c552c552b58", "lat": 38.901297666666665, "fusion_lon": 0.0, "fusion_lat": 0.0, "type": "electric_scooter", "name": "56c4c1fc57d67e8cd2082c552c552b58", "is_disabled": 0, "rental_uris": {"ios": "https://dc.lft.to/lastmile_qr_scan", "android": "https://dc.lft.to/lastmile_qr_scan"}, "is_reserved": 0}, {"lon": -77.01760916666667, "bike_id": "b161be3987baa7ab1d3ec86916545c98", "lat": 38.92113033333333, "fusion_lon": 0.0, "fusion_lat": 0.0, "type": "electric_scooter", "name": "b161be3987baa7ab1d3ec86916545c98", "is_disabled": 0, "rental_uris": {"ios": "https://dc.lft.to/lastmile_qr_scan", "android": "https://dc.lft.to/lastmile_qr_scan"}, "is_reserved": 0}, {"lon": -76.94997366666666, "bike_id": "12304ab3ce5efa629ee7c5da3680719e", "lat": 38.89382833333333, "fusion_lon": 0.0, "fusion_lat": 0.0, "type": "electric_scooter", "name": "12304ab3ce5efa629ee7c5da3680719e", "is_disabled": 0, "rental_uris": {"ios": "https://dc.lft.to/lastmile_qr_scan", "android": "https://dc.lft.to/lastmile_qr_scan"}, "is_reserved": 0}, {"lon": -77.02423316666666, "bike_id": "0f07ecfced965192ede08fa2bee0337a", "lat": 38.91410966666667, "fusion_lon": 0.0, "fusion_lat": 0.0, "type": "electric_scooter", "name": "0f07ecfced965192ede08fa2bee0337a", "is_disabled": 0, "rental_uris": {"ios": "https://dc.lft.to/lastmile_qr_scan", "android": "https://dc.lft.to/lastmile_qr_scan"}, "is_reserved": 0}, {"lon": -76.98016366666667, "bike_id": "ee14389d81c6c36717e450ff001aafcc", "lat": 38.898921666666666, "fusion_lon": 0.0, "fusion_lat": 0.0, "type": "electric_scooter", "name": "ee14389d81c6c36717e450ff001aafcc", "is_disabled": 0, "rental_uris": {"ios": "https://dc.lft.to/lastmile_qr_scan", "android": "https://dc.lft.to/lastmile_qr_scan"}, "is_reserved": 0}, {"lon": -77.0743205, "bike_id": "0a8de231cca251dff903d691123a63ae", "lat": 38.999457166666666, "fusion_lon": 0.0, "fusion_lat": 0.0, "type": "electric_bike", "name": "0a8de231cca251dff903d691123a63ae", "is_disabled": 0, "rental_uris": {"ios": "https://dc.lft.to/lastmile_qr_scan", "android": "https://dc.lft.to/lastmile_qr_scan"}, "is_reserved": 0}, {"lon": -77.01448783333333, "bike_id": "beba3d94e23b6455b354c5315978fefa", "lat": 38.8793665, "fusion_lon": 0.0, "fusion_lat": 0.0, "type": "electric_scooter", "name": "beba3d94e23b6455b354c5315978fefa", "is_disabled": 0, "rental_uris": {"ios": "https://dc.lft.to/lastmile_qr_scan", "android": "https://dc.lft.to/lastmile_qr_scan"}, "is_reserved": 0}, {"lon": -77.00734533333333, "bike_id": "ad2ab012dd00fffa54f35c1bd863ce72", "lat": 38.916249666666666, "fusion_lon": 0.0, "fusion_lat": 0.0, "type": "electric_scooter", "name": "ad2ab012dd00fffa54f35c1bd863ce72", "is_disabled": 0, "rental_uris": {"ios": "https://dc.lft.to/lastmile_qr_scan", "android": "https://dc.lft.to/lastmile_qr_scan"}, "is_reserved": 0}, {"lon": -77.0143025, "bike_id": "d6ff56eae620d4f07ac64810f7230a14", "lat": 38.91464116666667, "fusion_lon": 0.0, "fusion_lat": 0.0, "type": "electric_scooter", "name": "d6ff56eae620d4f07ac64810f7230a14", "is_disabled": 0, "rental_uris": {"ios": "https://dc.lft.to/lastmile_qr_scan", "android": "https://dc.lft.to/lastmile_qr_scan"}, "is_reserved": 0}, {"lon": -77.03255133333333, "bike_id": "f9e0379b5249373c0baa60780a342974", "lat": 38.93560466666667, "fusion_lon": 0.0, "fusion_lat": 0.0, "type": "electric_scooter", "name": "f9e0379b5249373c0baa60780a342974", "is_disabled": 0, "rental_uris": {"ios": "https://dc.lft.to/lastmile_qr_scan", "android": "https://dc.lft.to/lastmile_qr_scan"}, "is_reserved": 0}, {"lon": -76.98714916666667, "bike_id": "c167facac2fb2cabc9fe99aecff49469", "lat": 38.8662425, "fusion_lon": 0.0, "fusion_lat": 0.0, "type": "electric_scooter", "name": "c167facac2fb2cabc9fe99aecff49469", "is_disabled": 0, "rental_uris": {"ios": "https://dc.lft.to/lastmile_qr_scan", "android": "https://dc.lft.to/lastmile_qr_scan"}, "is_reserved": 0}, {"lon": -77.05855516666666, "bike_id": "6e40f8f8b0aea3e78fcad4cb844d0bdd", "lat": 38.93602933333333, "fusion_lon": 0.0, "fusion_lat": 0.0, "type": "electric_scooter", "name": "6e40f8f8b0aea3e78fcad4cb844d0bdd", "is_disabled": 0, "rental_uris": {"ios": "https://dc.lft.to/lastmile_qr_scan", "android": "https://dc.lft.to/lastmile_qr_scan"}, "is_reserved": 0}, {"lon": -76.97682, "bike_id": "f40593e370f5fe662dd52509089124e4", "lat": 38.89618516666667, "fusion_lon": 0.0, "fusion_lat": 0.0, "type": "electric_scooter", "name": "f40593e370f5fe662dd52509089124e4", "is_disabled": 0, "rental_uris": {"ios": "https://dc.lft.to/lastmile_qr_scan", "android": "https://dc.lft.to/lastmile_qr_scan"}, "is_reserved": 0}, {"lon": -77.033692, "bike_id": "58f9658272d3898715cff268699c21a5", "lat": 38.90272866666667, "fusion_lon": 0.0, "fusion_lat": 0.0, "type": "electric_scooter", "name": "58f9658272d3898715cff268699c21a5", "is_disabled": 0, "rental_uris": {"ios": "https://dc.lft.to/lastmile_qr_scan", "android": "https://dc.lft.to/lastmile_qr_scan"}, "is_reserved": 0}, {"lon": -77.02983566666667, "bike_id": "1ec23f5b448d22c0bfa6676ff5ebb5c9", "lat": 38.93066316666667, "fusion_lon": 0.0, "fusion_lat": 0.0, "type": "electric_scooter", "name": "1ec23f5b448d22c0bfa6676ff5ebb5c9", "is_disabled": 0, "rental_uris": {"ios": "https://dc.lft.to/lastmile_qr_scan", "android": "https://dc.lft.to/lastmile_qr_scan"}, "is_reserved": 0}, {"lon": -77.0216855, "bike_id": "1e63f46e73999f3233fd1c177eca9170", "lat": 38.94290866666667, "fusion_lon": 0.0, "fusion_lat": 0.0, "type": "electric_scooter", "name": "1e63f46e73999f3233fd1c177eca9170", "is_disabled": 0, "rental_uris": {"ios": "https://dc.lft.to/lastmile_qr_scan", "android": "https://dc.lft.to/lastmile_qr_scan"}, "is_reserved": 0}, {"lon": -77.02656566666667, "bike_id": "d531e321d3ecb7b6802f19c07228e669", "lat": 38.929778666666664, "fusion_lon": 0.0, "fusion_lat": 0.0, "type": "electric_scooter", "name": "d531e321d3ecb7b6802f19c07228e669", "is_disabled": 0, "rental_uris": {"ios": "https://dc.lft.to/lastmile_qr_scan", "android": "https://dc.lft.to/lastmile_qr_scan"}, "is_reserved": 0}, {"lon": -77.0540505, "bike_id": "b3f864303271fb638ac532674b711506", "lat": 38.901475833333336, "fusion_lon": 0.0, "fusion_lat": 0.0, "type": "electric_scooter", "name": "b3f864303271fb638ac532674b711506", "is_disabled": 0, "rental_uris": {"ios": "https://dc.lft.to/lastmile_qr_scan", "android": "https://dc.lft.to/lastmile_qr_scan"}, "is_reserved": 0}, {"lon": -77.02979916666666, "bike_id": "5c32c2f612bd1b38a71b4d4ee9dffc4e", "lat": 38.907103666666664, "fusion_lon": 0.0, "fusion_lat": 0.0, "type": "electric_scooter", "name": "5c32c2f612bd1b38a71b4d4ee9dffc4e", "is_disabled": 0, "rental_uris": {"ios": "https://dc.lft.to/lastmile_qr_scan", "android": "https://dc.lft.to/lastmile_qr_scan"}, "is_reserved": 0}, {"lon": -76.9888895, "bike_id": "c010ea63c42eb8ac8cf429d61b95a0c6", "lat": 38.86657366666667, "fusion_lon": 0.0, "fusion_lat": 0.0, "type": "electric_scooter", "name": "c010ea63c42eb8ac8cf429d61b95a0c6", "is_disabled": 0, "rental_uris": {"ios": "https://dc.lft.to/lastmile_qr_scan", "android": "https://dc.lft.to/lastmile_qr_scan"}, "is_reserved": 0}, {"lon": -77.0207545, "bike_id": "c3027de2968273d6a5ad920386e82130", "lat": 38.93635033333333, "fusion_lon": 0.0, "fusion_lat": 0.0, "type": "electric_scooter", "name": "c3027de2968273d6a5ad920386e82130", "is_disabled": 0, "rental_uris": {"ios": "https://dc.lft.to/lastmile_qr_scan", "android": "https://dc.lft.to/lastmile_qr_scan"}, "is_reserved": 0}, {"lon": -77.03826633333334, "bike_id": "6f2b46e029407d33610ff9f1138062ec", "lat": 38.9169615, "fusion_lon": 0.0, "fusion_lat": 0.0, "type": "electric_scooter", "name": "6f2b46e029407d33610ff9f1138062ec", "is_disabled": 0, "rental_uris": {"ios": "https://dc.lft.to/lastmile_qr_scan", "android": "https://dc.lft.to/lastmile_qr_scan"}, "is_reserved": 0}, {"lon": -77.02393733333334, "bike_id": "b86bd104522002a5fcbeff2d54e944bf", "lat": 38.9095315, "fusion_lon": 0.0, "fusion_lat": 0.0, "type": "electric_scooter", "name": "b86bd104522002a5fcbeff2d54e944bf", "is_disabled": 0, "rental_uris": {"ios": "https://dc.lft.to/lastmile_qr_scan", "android": "https://dc.lft.to/lastmile_qr_scan"}, "is_reserved": 0}, {"lon": -77.02685016666666, "bike_id": "14857598b64e3d5cf3fffdb885312a34", "lat": 38.90243783333333, "fusion_lon": 0.0, "fusion_lat": 0.0, "type": "electric_scooter", "name": "14857598b64e3d5cf3fffdb885312a34", "is_disabled": 0, "rental_uris": {"ios": "https://dc.lft.to/lastmile_qr_scan", "android": "https://dc.lft.to/lastmile_qr_scan"}, "is_reserved": 0}, {"lon": -77.03473933333333, "bike_id": "5c399c36e53c438c5371ba027ce8e205", "lat": 38.88488616666667, "fusion_lon": 0.0, "fusion_lat": 0.0, "type": "electric_scooter", "name": "5c399c36e53c438c5371ba027ce8e205", "is_disabled": 0, "rental_uris": {"ios": "https://dc.lft.to/lastmile_qr_scan", "android": "https://dc.lft.to/lastmile_qr_scan"}, "is_reserved": 0}, {"lon": -77.0416955, "bike_id": "8df2dcfc698033f58f619125ea6f78c3", "lat": 38.903267166666666, "fusion_lon": 0.0, "fusion_lat": 0.0, "type": "electric_scooter", "name": "8df2dcfc698033f58f619125ea6f78c3", "is_disabled": 0, "rental_uris": {"ios": "https://dc.lft.to/lastmile_qr_scan", "android": "https://dc.lft.to/lastmile_qr_scan"}, "is_reserved": 0}, {"lon": -77.02151816666667, "bike_id": "655a4bb6e94814dd47e2fb2fe6068ff4", "lat": 38.931418, "fusion_lon": 0.0, "fusion_lat": 0.0, "type": "electric_scooter", "name": "655a4bb6e94814dd47e2fb2fe6068ff4", "is_disabled": 0, "rental_uris": {"ios": "https://dc.lft.to/lastmile_qr_scan", "android": "https://dc.lft.to/lastmile_qr_scan"}, "is_reserved": 0}, {"lon": -77.03406533333333, "bike_id": "86d2cd3eb88480283069e2d09629dd82", "lat": 38.91110583333333, "fusion_lon": 0.0, "fusion_lat": 0.0, "type": "electric_scooter", "name": "86d2cd3eb88480283069e2d09629dd82", "is_disabled": 0, "rental_uris": {"ios": "https://dc.lft.to/lastmile_qr_scan", "android": "https://dc.lft.to/lastmile_qr_scan"}, "is_reserved": 0}, {"lon": -76.99368216666667, "bike_id": "e729db5f75c11aba162269ccdcebef3b", "lat": 38.92392566666667, "fusion_lon": 0.0, "fusion_lat": 0.0, "type": "electric_scooter", "name": "e729db5f75c11aba162269ccdcebef3b", "is_disabled": 0, "rental_uris": {"ios": "https://dc.lft.to/lastmile_qr_scan", "android": "https://dc.lft.to/lastmile_qr_scan"}, "is_reserved": 0}, {"lon": -77.02171183333333, "bike_id": "e0977eea6af21f15f834491f5e092193", "lat": 38.88745616666667, "fusion_lon": 0.0, "fusion_lat": 0.0, "type": "electric_scooter", "name": "e0977eea6af21f15f834491f5e092193", "is_disabled": 0, "rental_uris": {"ios": "https://dc.lft.to/lastmile_qr_scan", "android": "https://dc.lft.to/lastmile_qr_scan"}, "is_reserved": 0}, {"lon": -77.0297935, "bike_id": "ae02bc20347d070d498d7be3ced44586", "lat": 38.907312, "fusion_lon": 0.0, "fusion_lat": 0.0, "type": "electric_scooter", "name": "ae02bc20347d070d498d7be3ced44586", "is_disabled": 0, "rental_uris": {"ios": "https://dc.lft.to/lastmile_qr_scan", "android": "https://dc.lft.to/lastmile_qr_scan"}, "is_reserved": 0}, {"lon": -77.048252, "bike_id": "926b5f1bf14bcd48e2c60bcd0342f7cd", "lat": 38.903708333333334, "fusion_lon": 0.0, "fusion_lat": 0.0, "type": "electric_scooter", "name": "926b5f1bf14bcd48e2c60bcd0342f7cd", "is_disabled": 0, "rental_uris": {"ios": "https://dc.lft.to/lastmile_qr_scan", "android": "https://dc.lft.to/lastmile_qr_scan"}, "is_reserved": 0}, {"lon": -77.00488966666667, "bike_id": "933303d0c7549730e7896b0356fc9fb3", "lat": 38.896899166666664, "fusion_lon": 0.0, "fusion_lat": 0.0, "type": "electric_scooter", "name": "933303d0c7549730e7896b0356fc9fb3", "is_disabled": 0, "rental_uris": {"ios": "https://dc.lft.to/lastmile_qr_scan", "android": "https://dc.lft.to/lastmile_qr_scan"}, "is_reserved": 0}, {"lon": -77.03121116666667, "bike_id": "22d23dff522ca3aa5fc26f90f35a8351", "lat": 38.95923283333333, "fusion_lon": 0.0, "fusion_lat": 0.0, "type": "electric_bike", "name": "22d23dff522ca3aa5fc26f90f35a8351", "is_disabled": 0, "rental_uris": {"ios": "https://dc.lft.to/lastmile_qr_scan", "android": "https://dc.lft.to/lastmile_qr_scan"}, "is_reserved": 0}, {"lon": -77.00892066666667, "bike_id": "5ffbf471853e194d08b7fc5ace2bae58", "lat": 38.924871333333336, "fusion_lon": 0.0, "fusion_lat": 0.0, "type": "electric_scooter", "name": "5ffbf471853e194d08b7fc5ace2bae58", "is_disabled": 0, "rental_uris": {"ios": "https://dc.lft.to/lastmile_qr_scan", "android": "https://dc.lft.to/lastmile_qr_scan"}, "is_reserved": 0}, {"lon": -76.97929733333334, "bike_id": "b34326fd6bfe46a4fffba0cdf519c524", "lat": 38.90666366666667, "fusion_lon": 0.0, "fusion_lat": 0.0, "type": "electric_bike", "name": "b34326fd6bfe46a4fffba0cdf519c524", "is_disabled": 0, "rental_uris": {"ios": "https://dc.lft.to/lastmile_qr_scan", "android": "https://dc.lft.to/lastmile_qr_scan"}, "is_reserved": 0}, {"lon": -77.0228175, "bike_id": "ec30752df0c80e07a3af3bcedb50af80", "lat": 38.9095655, "fusion_lon": 0.0, "fusion_lat": 0.0, "type": "electric_scooter", "name": "ec30752df0c80e07a3af3bcedb50af80", "is_disabled": 0, "rental_uris": {"ios": "https://dc.lft.to/lastmile_qr_scan", "android": "https://dc.lft.to/lastmile_qr_scan"}, "is_reserved": 0}, {"lon": -77.0215735, "bike_id": "ed7b8a69a28e60b0c0c51614f5ce1ab4", "lat": 38.89217816666667, "fusion_lon": 0.0, "fusion_lat": 0.0, "type": "electric_scooter", "name": "ed7b8a69a28e60b0c0c51614f5ce1ab4", "is_disabled": 0, "rental_uris": {"ios": "https://dc.lft.to/lastmile_qr_scan", "android": "https://dc.lft.to/lastmile_qr_scan"}, "is_reserved": 0}, {"lon": -76.93359383333333, "bike_id": "9dbb31130d6d51b2e4e60d6ed2128efb", "lat": 38.899179333333336, "fusion_lon": 0.0, "fusion_lat": 0.0, "type": "electric_scooter", "name": "9dbb31130d6d51b2e4e60d6ed2128efb", "is_disabled": 0, "rental_uris": {"ios": "https://dc.lft.to/lastmile_qr_scan", "android": "https://dc.lft.to/lastmile_qr_scan"}, "is_reserved": 0}, {"lon": -77.02293333333333, "bike_id": "48febf006cd5e82706f12af0b988a1e2", "lat": 38.909792, "fusion_lon": 0.0, "fusion_lat": 0.0, "type": "electric_scooter", "name": "48febf006cd5e82706f12af0b988a1e2", "is_disabled": 0, "rental_uris": {"ios": "https://dc.lft.to/lastmile_qr_scan", "android": "https://dc.lft.to/lastmile_qr_scan"}, "is_reserved": 0}, {"lon": -76.98177283333334, "bike_id": "0821a18bbe9c7c0bf54594fe7eadd7ba", "lat": 38.895845, "fusion_lon": 0.0, "fusion_lat": 0.0, "type": "electric_scooter", "name": "0821a18bbe9c7c0bf54594fe7eadd7ba", "is_disabled": 0, "rental_uris": {"ios": "https://dc.lft.to/lastmile_qr_scan", "android": "https://dc.lft.to/lastmile_qr_scan"}, "is_reserved": 0}, {"lon": -77.04340566666667, "bike_id": "0f9759a5825febc2dd5a56b82d0c5dbb", "lat": 38.92964716666667, "fusion_lon": 0.0, "fusion_lat": 0.0, "type": "electric_scooter", "name": "0f9759a5825febc2dd5a56b82d0c5dbb", "is_disabled": 0, "rental_uris": {"ios": "https://dc.lft.to/lastmile_qr_scan", "android": "https://dc.lft.to/lastmile_qr_scan"}, "is_reserved": 0}, {"lon": -77.02693116666667, "bike_id": "caaf369918ec2970020ba65df6158f38", "lat": 38.91355983333333, "fusion_lon": 0.0, "fusion_lat": 0.0, "type": "electric_scooter", "name": "caaf369918ec2970020ba65df6158f38", "is_disabled": 0, "rental_uris": {"ios": "https://dc.lft.to/lastmile_qr_scan", "android": "https://dc.lft.to/lastmile_qr_scan"}, "is_reserved": 0}, {"lon": -77.048758, "bike_id": "f3d23d060c0b3ebc2b814c55d77bd946", "lat": 38.90971166666667, "fusion_lon": 0.0, "fusion_lat": 0.0, "type": "electric_scooter", "name": "f3d23d060c0b3ebc2b814c55d77bd946", "is_disabled": 0, "rental_uris": {"ios": "https://dc.lft.to/lastmile_qr_scan", "android": "https://dc.lft.to/lastmile_qr_scan"}, "is_reserved": 0}, {"lon": -77.0363725, "bike_id": "7a643400125b185d7d80dcf67604d02d", "lat": 38.92463883333333, "fusion_lon": 0.0, "fusion_lat": 0.0, "type": "electric_scooter", "name": "7a643400125b185d7d80dcf67604d02d", "is_disabled": 0, "rental_uris": {"ios": "https://dc.lft.to/lastmile_qr_scan", "android": "https://dc.lft.to/lastmile_qr_scan"}, "is_reserved": 0}, {"lon": -77.0240945, "bike_id": "e6d93346f894fb88c363a1fd55df8928", "lat": 38.91931816666666, "fusion_lon": 0.0, "fusion_lat": 0.0, "type": "electric_scooter", "name": "e6d93346f894fb88c363a1fd55df8928", "is_disabled": 0, "rental_uris": {"ios": "https://dc.lft.to/lastmile_qr_scan", "android": "https://dc.lft.to/lastmile_qr_scan"}, "is_reserved": 0}, {"lon": -77.04119933333334, "bike_id": "b96f5931f2cd9f856babbdab5b5943a5", "lat": 38.9211485, "fusion_lon": 0.0, "fusion_lat": 0.0, "type": "electric_scooter", "name": "b96f5931f2cd9f856babbdab5b5943a5", "is_disabled": 0, "rental_uris": {"ios": "https://dc.lft.to/lastmile_qr_scan", "android": "https://dc.lft.to/lastmile_qr_scan"}, "is_reserved": 0}, {"lon": -77.03364116666667, "bike_id": "a44afdc31536c2c345a51ba56689b51a", "lat": 38.9027795, "fusion_lon": 0.0, "fusion_lat": 0.0, "type": "electric_scooter", "name": "a44afdc31536c2c345a51ba56689b51a", "is_disabled": 0, "rental_uris": {"ios": "https://dc.lft.to/lastmile_qr_scan", "android": "https://dc.lft.to/lastmile_qr_scan"}, "is_reserved": 0}, {"lon": -77.04886466666666, "bike_id": "24553d84bf21959b0bbdb6676b861ff5", "lat": 38.90345383333333, "fusion_lon": 0.0, "fusion_lat": 0.0, "type": "electric_scooter", "name": "24553d84bf21959b0bbdb6676b861ff5", "is_disabled": 0, "rental_uris": {"ios": "https://dc.lft.to/lastmile_qr_scan", "android": "https://dc.lft.to/lastmile_qr_scan"}, "is_reserved": 0}, {"lon": -77.02072266666667, "bike_id": "818a5108ce92e8195855ffc18fd9a43c", "lat": 38.927178, "fusion_lon": 0.0, "fusion_lat": 0.0, "type": "electric_scooter", "name": "818a5108ce92e8195855ffc18fd9a43c", "is_disabled": 0, "rental_uris": {"ios": "https://dc.lft.to/lastmile_qr_scan", "android": "https://dc.lft.to/lastmile_qr_scan"}, "is_reserved": 0}, {"lon": -77.01607616666666, "bike_id": "fc14b557e1ccc62d88f338eb28a38b71", "lat": 38.919481166666664, "fusion_lon": 0.0, "fusion_lat": 0.0, "type": "electric_scooter", "name": "fc14b557e1ccc62d88f338eb28a38b71", "is_disabled": 0, "rental_uris": {"ios": "https://dc.lft.to/lastmile_qr_scan", "android": "https://dc.lft.to/lastmile_qr_scan"}, "is_reserved": 0}, {"lon": -77.03649766666666, "bike_id": "ceb67c08d08d72b5ff82618b1cbdc73c", "lat": 38.93175466666667, "fusion_lon": 0.0, "fusion_lat": 0.0, "type": "electric_scooter", "name": "ceb67c08d08d72b5ff82618b1cbdc73c", "is_disabled": 0, "rental_uris": {"ios": "https://dc.lft.to/lastmile_qr_scan", "android": "https://dc.lft.to/lastmile_qr_scan"}, "is_reserved": 0}, {"lon": -77.0471865, "bike_id": "682e3939c8a6200c09f04aed3e3229ed", "lat": 38.91121583333333, "fusion_lon": 0.0, "fusion_lat": 0.0, "type": "electric_scooter", "name": "682e3939c8a6200c09f04aed3e3229ed", "is_disabled": 0, "rental_uris": {"ios": "https://dc.lft.to/lastmile_qr_scan", "android": "https://dc.lft.to/lastmile_qr_scan"}, "is_reserved": 0}, {"lon": -77.00456533333333, "bike_id": "e71a08ef2b6b6123e5ba9dfa433a466f", "lat": 38.91054, "fusion_lon": 0.0, "fusion_lat": 0.0, "type": "electric_scooter", "name": "e71a08ef2b6b6123e5ba9dfa433a466f", "is_disabled": 0, "rental_uris": {"ios": "https://dc.lft.to/lastmile_qr_scan", "android": "https://dc.lft.to/lastmile_qr_scan"}, "is_reserved": 0}, {"lon": -77.00343083333334, "bike_id": "81aa978cb56841a6399b329000d55eef", "lat": 38.902742, "fusion_lon": 0.0, "fusion_lat": 0.0, "type": "electric_scooter", "name": "81aa978cb56841a6399b329000d55eef", "is_disabled": 0, "rental_uris": {"ios": "https://dc.lft.to/lastmile_qr_scan", "android": "https://dc.lft.to/lastmile_qr_scan"}, "is_reserved": 0}, {"lon": -77.00088666666667, "bike_id": "144794defd77c9aaa8f2c775bc0897b3", "lat": 38.907522166666666, "fusion_lon": 0.0, "fusion_lat": 0.0, "type": "electric_scooter", "name": "144794defd77c9aaa8f2c775bc0897b3", "is_disabled": 0, "rental_uris": {"ios": "https://dc.lft.to/lastmile_qr_scan", "android": "https://dc.lft.to/lastmile_qr_scan"}, "is_reserved": 0}, {"lon": -77.02358666666667, "bike_id": "631cced26d0d07c88355011366e42895", "lat": 38.920606666666664, "fusion_lon": 0.0, "fusion_lat": 0.0, "type": "electric_scooter", "name": "631cced26d0d07c88355011366e42895", "is_disabled": 0, "rental_uris": {"ios": "https://dc.lft.to/lastmile_qr_scan", "android": "https://dc.lft.to/lastmile_qr_scan"}, "is_reserved": 0}, {"lon": -76.93356433333334, "bike_id": "2684662f6c75c95d811eb5096bbc80c3", "lat": 38.88796966666666, "fusion_lon": 0.0, "fusion_lat": 0.0, "type": "electric_scooter", "name": "2684662f6c75c95d811eb5096bbc80c3", "is_disabled": 0, "rental_uris": {"ios": "https://dc.lft.to/lastmile_qr_scan", "android": "https://dc.lft.to/lastmile_qr_scan"}, "is_reserved": 0}, {"lon": -76.948757, "bike_id": "fbb39a93f1b02800e1c5f3393e92ae48", "lat": 38.89551866666667, "fusion_lon": 0.0, "fusion_lat": 0.0, "type": "electric_scooter", "name": "fbb39a93f1b02800e1c5f3393e92ae48", "is_disabled": 0, "rental_uris": {"ios": "https://dc.lft.to/lastmile_qr_scan", "android": "https://dc.lft.to/lastmile_qr_scan"}, "is_reserved": 0}, {"lon": -77.0513505, "bike_id": "2ebdb0ec52c77f2c3704602912517595", "lat": 38.89658766666667, "fusion_lon": 0.0, "fusion_lat": 0.0, "type": "electric_scooter", "name": "2ebdb0ec52c77f2c3704602912517595", "is_disabled": 0, "rental_uris": {"ios": "https://dc.lft.to/lastmile_qr_scan", "android": "https://dc.lft.to/lastmile_qr_scan"}, "is_reserved": 0}, {"lon": -77.01551283333333, "bike_id": "ff951c61683d2415236d98e0e514222d", "lat": 38.892222833333335, "fusion_lon": 0.0, "fusion_lat": 0.0, "type": "electric_scooter", "name": "ff951c61683d2415236d98e0e514222d", "is_disabled": 0, "rental_uris": {"ios": "https://dc.lft.to/lastmile_qr_scan", "android": "https://dc.lft.to/lastmile_qr_scan"}, "is_reserved": 0}, {"lon": -76.9883735, "bike_id": "9b29c5179d67216538bd1df228b81013", "lat": 38.900725, "fusion_lon": 0.0, "fusion_lat": 0.0, "type": "electric_scooter", "name": "9b29c5179d67216538bd1df228b81013", "is_disabled": 0, "rental_uris": {"ios": "https://dc.lft.to/lastmile_qr_scan", "android": "https://dc.lft.to/lastmile_qr_scan"}, "is_reserved": 0}, {"lon": -76.995141, "bike_id": "698b4569d913d3ae75e6079ffccc7dd9", "lat": 38.89612066666667, "fusion_lon": 0.0, "fusion_lat": 0.0, "type": "electric_scooter", "name": "698b4569d913d3ae75e6079ffccc7dd9", "is_disabled": 0, "rental_uris": {"ios": "https://dc.lft.to/lastmile_qr_scan", "android": "https://dc.lft.to/lastmile_qr_scan"}, "is_reserved": 0}, {"lon": -77.0177145, "bike_id": "df79ec40dcec59de30193f120cdca67c", "lat": 38.88314333333334, "fusion_lon": 0.0, "fusion_lat": 0.0, "type": "electric_scooter", "name": "df79ec40dcec59de30193f120cdca67c", "is_disabled": 0, "rental_uris": {"ios": "https://dc.lft.to/lastmile_qr_scan", "android": "https://dc.lft.to/lastmile_qr_scan"}, "is_reserved": 0}, {"lon": -77.046718, "bike_id": "3a060002deb5c06c1288e98b5b87bcf3", "lat": 38.908963166666666, "fusion_lon": 0.0, "fusion_lat": 0.0, "type": "electric_scooter", "name": "3a060002deb5c06c1288e98b5b87bcf3", "is_disabled": 0, "rental_uris": {"ios": "https://dc.lft.to/lastmile_qr_scan", "android": "https://dc.lft.to/lastmile_qr_scan"}, "is_reserved": 0}, {"lon": -77.041078, "bike_id": "a1b0bede2912e2d0c4e5355716fece6b", "lat": 38.89836283333333, "fusion_lon": 0.0, "fusion_lat": 0.0, "type": "electric_scooter", "name": "a1b0bede2912e2d0c4e5355716fece6b", "is_disabled": 0, "rental_uris": {"ios": "https://dc.lft.to/lastmile_qr_scan", "android": "https://dc.lft.to/lastmile_qr_scan"}, "is_reserved": 0}, {"lon": -76.997769, "bike_id": "1c290c8596b649a9099ce83f7527be02", "lat": 38.84301283333333, "fusion_lon": 0.0, "fusion_lat": 0.0, "type": "electric_scooter", "name": "1c290c8596b649a9099ce83f7527be02", "is_disabled": 0, "rental_uris": {"ios": "https://dc.lft.to/lastmile_qr_scan", "android": "https://dc.lft.to/lastmile_qr_scan"}, "is_reserved": 0}, {"lon": -76.93745083333333, "bike_id": "a029b27012daeedad7212017e025e4c6", "lat": 38.89052216666666, "fusion_lon": 0.0, "fusion_lat": 0.0, "type": "electric_scooter", "name": "a029b27012daeedad7212017e025e4c6", "is_disabled": 0, "rental_uris": {"ios": "https://dc.lft.to/lastmile_qr_scan", "android": "https://dc.lft.to/lastmile_qr_scan"}, "is_reserved": 0}, {"lon": -77.02303583333334, "bike_id": "2c25396596780fbee389a1f020015a12", "lat": 38.926725, "fusion_lon": 0.0, "fusion_lat": 0.0, "type": "electric_scooter", "name": "2c25396596780fbee389a1f020015a12", "is_disabled": 0, "rental_uris": {"ios": "https://dc.lft.to/lastmile_qr_scan", "android": "https://dc.lft.to/lastmile_qr_scan"}, "is_reserved": 0}, {"lon": -76.948082, "bike_id": "cf10379879bfccc9cbc4a683ad37a895", "lat": 38.861905, "fusion_lon": 0.0, "fusion_lat": 0.0, "type": "electric_bike", "name": "cf10379879bfccc9cbc4a683ad37a895", "is_disabled": 0, "rental_uris": {"ios": "https://dc.lft.to/lastmile_qr_scan", "android": "https://dc.lft.to/lastmile_qr_scan"}, "is_reserved": 0}, {"lon": -77.03391666666667, "bike_id": "4b2fa5e391df96411210bc1f8cc9ed01", "lat": 38.938564166666666, "fusion_lon": 0.0, "fusion_lat": 0.0, "type": "electric_scooter", "name": "4b2fa5e391df96411210bc1f8cc9ed01", "is_disabled": 0, "rental_uris": {"ios": "https://dc.lft.to/lastmile_qr_scan", "android": "https://dc.lft.to/lastmile_qr_scan"}, "is_reserved": 0}, {"lon": -77.0421445, "bike_id": "501949611a659b512ed7063c72a0d71f", "lat": 38.892719166666666, "fusion_lon": 0.0, "fusion_lat": 0.0, "type": "electric_scooter", "name": "501949611a659b512ed7063c72a0d71f", "is_disabled": 0, "rental_uris": {"ios": "https://dc.lft.to/lastmile_qr_scan", "android": "https://dc.lft.to/lastmile_qr_scan"}, "is_reserved": 0}, {"lon": -77.002218, "bike_id": "87fa0a8d922c1be3ba1ccb350171b063", "lat": 38.90829433333333, "fusion_lon": 0.0, "fusion_lat": 0.0, "type": "electric_scooter", "name": "87fa0a8d922c1be3ba1ccb350171b063", "is_disabled": 0, "rental_uris": {"ios": "https://dc.lft.to/lastmile_qr_scan", "android": "https://dc.lft.to/lastmile_qr_scan"}, "is_reserved": 0}, {"lon": -77.04524066666667, "bike_id": "df8ebfeb4489bb272660c726bcfa4b28", "lat": 38.94200283333333, "fusion_lon": 0.0, "fusion_lat": 0.0, "type": "electric_bike", "name": "df8ebfeb4489bb272660c726bcfa4b28", "is_disabled": 0, "rental_uris": {"ios": "https://dc.lft.to/lastmile_qr_scan", "android": "https://dc.lft.to/lastmile_qr_scan"}, "is_reserved": 0}, {"lon": -77.011448, "bike_id": "68a3edaf480a18c6cc4a83d9d6984252", "lat": 38.9111745, "fusion_lon": 0.0, "fusion_lat": 0.0, "type": "electric_scooter", "name": "68a3edaf480a18c6cc4a83d9d6984252", "is_disabled": 0, "rental_uris": {"ios": "https://dc.lft.to/lastmile_qr_scan", "android": "https://dc.lft.to/lastmile_qr_scan"}, "is_reserved": 0}, {"lon": -77.0325585, "bike_id": "c3130d4954d4109cec6ab270fe23a5ba", "lat": 38.934399, "fusion_lon": 0.0, "fusion_lat": 0.0, "type": "electric_scooter", "name": "c3130d4954d4109cec6ab270fe23a5ba", "is_disabled": 0, "rental_uris": {"ios": "https://dc.lft.to/lastmile_qr_scan", "android": "https://dc.lft.to/lastmile_qr_scan"}, "is_reserved": 0}, {"lon": -77.00363466666667, "bike_id": "723504f2b2e3b89a1bece10b817af659", "lat": 38.89931933333333, "fusion_lon": 0.0, "fusion_lat": 0.0, "type": "electric_scooter", "name": "723504f2b2e3b89a1bece10b817af659", "is_disabled": 0, "rental_uris": {"ios": "https://dc.lft.to/lastmile_qr_scan", "android": "https://dc.lft.to/lastmile_qr_scan"}, "is_reserved": 0}, {"lon": -77.032696, "bike_id": "f1f1277d7c587d6554146e07b88ca552", "lat": 38.91996816666666, "fusion_lon": 0.0, "fusion_lat": 0.0, "type": "electric_scooter", "name": "f1f1277d7c587d6554146e07b88ca552", "is_disabled": 0, "rental_uris": {"ios": "https://dc.lft.to/lastmile_qr_scan", "android": "https://dc.lft.to/lastmile_qr_scan"}, "is_reserved": 0}, {"lon": -77.05048216666667, "bike_id": "bb6bb738ccf30dd711e558e2a5f37712", "lat": 38.92379433333333, "fusion_lon": 0.0, "fusion_lat": 0.0, "type": "electric_scooter", "name": "bb6bb738ccf30dd711e558e2a5f37712", "is_disabled": 0, "rental_uris": {"ios": "https://dc.lft.to/lastmile_qr_scan", "android": "https://dc.lft.to/lastmile_qr_scan"}, "is_reserved": 0}, {"lon": -77.05508133333333, "bike_id": "bc22edd8e4566bb1316622accbad6312", "lat": 38.9044055, "fusion_lon": 0.0, "fusion_lat": 0.0, "type": "electric_scooter", "name": "bc22edd8e4566bb1316622accbad6312", "is_disabled": 0, "rental_uris": {"ios": "https://dc.lft.to/lastmile_qr_scan", "android": "https://dc.lft.to/lastmile_qr_scan"}, "is_reserved": 0}, {"lon": -77.0295745, "bike_id": "6384a5d18390420bd5fb94dac6a02e14", "lat": 38.92169416666667, "fusion_lon": 0.0, "fusion_lat": 0.0, "type": "electric_scooter", "name": "6384a5d18390420bd5fb94dac6a02e14", "is_disabled": 0, "rental_uris": {"ios": "https://dc.lft.to/lastmile_qr_scan", "android": "https://dc.lft.to/lastmile_qr_scan"}, "is_reserved": 0}, {"lon": -77.03261633333334, "bike_id": "c6a6035c5f14272b14fd26c363f99048", "lat": 38.941540833333335, "fusion_lon": 0.0, "fusion_lat": 0.0, "type": "electric_scooter", "name": "c6a6035c5f14272b14fd26c363f99048", "is_disabled": 0, "rental_uris": {"ios": "https://dc.lft.to/lastmile_qr_scan", "android": "https://dc.lft.to/lastmile_qr_scan"}, "is_reserved": 0}, {"lon": -77.036698, "bike_id": "0fb03ebf71b2206d40fd9d812bb2d1e9", "lat": 38.916853, "fusion_lon": 0.0, "fusion_lat": 0.0, "type": "electric_scooter", "name": "0fb03ebf71b2206d40fd9d812bb2d1e9", "is_disabled": 0, "rental_uris": {"ios": "https://dc.lft.to/lastmile_qr_scan", "android": "https://dc.lft.to/lastmile_qr_scan"}, "is_reserved": 0}, {"lon": -77.009523, "bike_id": "abab3b92b50396ff41c9feddafc8c0ea", "lat": 38.876303666666665, "fusion_lon": 0.0, "fusion_lat": 0.0, "type": "electric_scooter", "name": "abab3b92b50396ff41c9feddafc8c0ea", "is_disabled": 0, "rental_uris": {"ios": "https://dc.lft.to/lastmile_qr_scan", "android": "https://dc.lft.to/lastmile_qr_scan"}, "is_reserved": 0}, {"lon": -77.0071715, "bike_id": "34251c4edc5681ed357568905132a57a", "lat": 38.89891566666667, "fusion_lon": 0.0, "fusion_lat": 0.0, "type": "electric_scooter", "name": "34251c4edc5681ed357568905132a57a", "is_disabled": 0, "rental_uris": {"ios": "https://dc.lft.to/lastmile_qr_scan", "android": "https://dc.lft.to/lastmile_qr_scan"}, "is_reserved": 0}, {"lon": -76.98107716666667, "bike_id": "b70af327f4722e9591fd77294c48b2e6", "lat": 38.90411016666667, "fusion_lon": 0.0, "fusion_lat": 0.0, "type": "electric_scooter", "name": "b70af327f4722e9591fd77294c48b2e6", "is_disabled": 0, "rental_uris": {"ios": "https://dc.lft.to/lastmile_qr_scan", "android": "https://dc.lft.to/lastmile_qr_scan"}, "is_reserved": 0}, {"lon": -77.05128266666667, "bike_id": "8946680a9cac0fdba173d2e88535a7ff", "lat": 38.9236135, "fusion_lon": 0.0, "fusion_lat": 0.0, "type": "electric_scooter", "name": "8946680a9cac0fdba173d2e88535a7ff", "is_disabled": 0, "rental_uris": {"ios": "https://dc.lft.to/lastmile_qr_scan", "android": "https://dc.lft.to/lastmile_qr_scan"}, "is_reserved": 0}, {"lon": -76.98007433333333, "bike_id": "42dcca8767c86e9aa6769d0f387d7af0", "lat": 38.904306166666665, "fusion_lon": 0.0, "fusion_lat": 0.0, "type": "electric_scooter", "name": "42dcca8767c86e9aa6769d0f387d7af0", "is_disabled": 0, "rental_uris": {"ios": "https://dc.lft.to/lastmile_qr_scan", "android": "https://dc.lft.to/lastmile_qr_scan"}, "is_reserved": 0}, {"lon": -77.115925, "bike_id": "a6b885eb5155e52dd7f222291a38a7b6", "lat": 39.07494833333333, "fusion_lon": 0.0, "fusion_lat": 0.0, "type": "electric_bike", "name": "a6b885eb5155e52dd7f222291a38a7b6", "is_disabled": 0, "rental_uris": {"ios": "https://dc.lft.to/lastmile_qr_scan", "android": "https://dc.lft.to/lastmile_qr_scan"}, "is_reserved": 0}, {"lon": -77.01390566666667, "bike_id": "39d96ed07f6f13a9ad905a2eb1446b64", "lat": 38.928572833333334, "fusion_lon": 0.0, "fusion_lat": 0.0, "type": "electric_scooter", "name": "39d96ed07f6f13a9ad905a2eb1446b64", "is_disabled": 0, "rental_uris": {"ios": "https://dc.lft.to/lastmile_qr_scan", "android": "https://dc.lft.to/lastmile_qr_scan"}, "is_reserved": 0}, {"lon": -77.022756, "bike_id": "7fdc7b7cc0ecac452c71a526d4ba127e", "lat": 38.926851666666664, "fusion_lon": 0.0, "fusion_lat": 0.0, "type": "electric_scooter", "name": "7fdc7b7cc0ecac452c71a526d4ba127e", "is_disabled": 0, "rental_uris": {"ios": "https://dc.lft.to/lastmile_qr_scan", "android": "https://dc.lft.to/lastmile_qr_scan"}, "is_reserved": 0}, {"lon": -77.0121385, "bike_id": "aaf68fe3146670792077f6330d41403d", "lat": 38.916452666666665, "fusion_lon": 0.0, "fusion_lat": 0.0, "type": "electric_scooter", "name": "aaf68fe3146670792077f6330d41403d", "is_disabled": 0, "rental_uris": {"ios": "https://dc.lft.to/lastmile_qr_scan", "android": "https://dc.lft.to/lastmile_qr_scan"}, "is_reserved": 0}, {"lon": -76.96906816666667, "bike_id": "b23e437065514a57595664d165c056c1", "lat": 38.8461285, "fusion_lon": 0.0, "fusion_lat": 0.0, "type": "electric_bike", "name": "b23e437065514a57595664d165c056c1", "is_disabled": 0, "rental_uris": {"ios": "https://dc.lft.to/lastmile_qr_scan", "android": "https://dc.lft.to/lastmile_qr_scan"}, "is_reserved": 0}, {"lon": -77.0374855, "bike_id": "f15db29f202cbe998bc6cb2fae367ae2", "lat": 38.911223666666665, "fusion_lon": 0.0, "fusion_lat": 0.0, "type": "electric_scooter", "name": "f15db29f202cbe998bc6cb2fae367ae2", "is_disabled": 0, "rental_uris": {"ios": "https://dc.lft.to/lastmile_qr_scan", "android": "https://dc.lft.to/lastmile_qr_scan"}, "is_reserved": 0}, {"lon": -77.02407066666666, "bike_id": "9d69896688f25591b36c01432eb6071c", "lat": 38.90406733333333, "fusion_lon": 0.0, "fusion_lat": 0.0, "type": "electric_scooter", "name": "9d69896688f25591b36c01432eb6071c", "is_disabled": 0, "rental_uris": {"ios": "https://dc.lft.to/lastmile_qr_scan", "android": "https://dc.lft.to/lastmile_qr_scan"}, "is_reserved": 0}, {"lon": -77.02369933333334, "bike_id": "ce347f8fb2072a4dbef99ae886afcdb6", "lat": 38.899752666666664, "fusion_lon": 0.0, "fusion_lat": 0.0, "type": "electric_scooter", "name": "ce347f8fb2072a4dbef99ae886afcdb6", "is_disabled": 0, "rental_uris": {"ios": "https://dc.lft.to/lastmile_qr_scan", "android": "https://dc.lft.to/lastmile_qr_scan"}, "is_reserved": 0}, {"lon": -77.03338933333333, "bike_id": "0c0d57d399ba9f84d4eaf9504078b2fe", "lat": 38.94511766666667, "fusion_lon": 0.0, "fusion_lat": 0.0, "type": "electric_bike", "name": "0c0d57d399ba9f84d4eaf9504078b2fe", "is_disabled": 0, "rental_uris": {"ios": "https://dc.lft.to/lastmile_qr_scan", "android": "https://dc.lft.to/lastmile_qr_scan"}, "is_reserved": 0}, {"lon": -77.00319683333333, "bike_id": "c8953a883d28c5f7dda48aa07ab4a221", "lat": 38.91897633333333, "fusion_lon": 0.0, "fusion_lat": 0.0, "type": "electric_bike", "name": "c8953a883d28c5f7dda48aa07ab4a221", "is_disabled": 0, "rental_uris": {"ios": "https://dc.lft.to/lastmile_qr_scan", "android": "https://dc.lft.to/lastmile_qr_scan"}, "is_reserved": 0}, {"lon": -77.00185483333334, "bike_id": "d5fe17a9c5173cf18a24f74ec8b75986", "lat": 38.9119535, "fusion_lon": 0.0, "fusion_lat": 0.0, "type": "electric_scooter", "name": "d5fe17a9c5173cf18a24f74ec8b75986", "is_disabled": 0, "rental_uris": {"ios": "https://dc.lft.to/lastmile_qr_scan", "android": "https://dc.lft.to/lastmile_qr_scan"}, "is_reserved": 0}, {"lon": -77.06349966666667, "bike_id": "8e8c1fd72a11f51237c4a7ceda339421", "lat": 38.944497, "fusion_lon": 0.0, "fusion_lat": 0.0, "type": "electric_scooter", "name": "8e8c1fd72a11f51237c4a7ceda339421", "is_disabled": 0, "rental_uris": {"ios": "https://dc.lft.to/lastmile_qr_scan", "android": "https://dc.lft.to/lastmile_qr_scan"}, "is_reserved": 0}, {"lon": -77.00529183333333, "bike_id": "af8b61d4448ab2dee321c33a7e9ef7d6", "lat": 38.9095785, "fusion_lon": 0.0, "fusion_lat": 0.0, "type": "electric_scooter", "name": "af8b61d4448ab2dee321c33a7e9ef7d6", "is_disabled": 0, "rental_uris": {"ios": "https://dc.lft.to/lastmile_qr_scan", "android": "https://dc.lft.to/lastmile_qr_scan"}, "is_reserved": 0}, {"lon": -77.04471033333333, "bike_id": "f446b9389634dfc5feea12a9534fab63", "lat": 38.9214045, "fusion_lon": 0.0, "fusion_lat": 0.0, "type": "electric_scooter", "name": "f446b9389634dfc5feea12a9534fab63", "is_disabled": 0, "rental_uris": {"ios": "https://dc.lft.to/lastmile_qr_scan", "android": "https://dc.lft.to/lastmile_qr_scan"}, "is_reserved": 0}, {"lon": -77.03852766666667, "bike_id": "c3e086cbcc8292b02dae64a01c011295", "lat": 38.91751466666667, "fusion_lon": 0.0, "fusion_lat": 0.0, "type": "electric_scooter", "name": "c3e086cbcc8292b02dae64a01c011295", "is_disabled": 0, "rental_uris": {"ios": "https://dc.lft.to/lastmile_qr_scan", "android": "https://dc.lft.to/lastmile_qr_scan"}, "is_reserved": 0}, {"lon": -76.9415505, "bike_id": "e90aa00626a5e78683dff1ca3f586dba", "lat": 38.87908916666667, "fusion_lon": 0.0, "fusion_lat": 0.0, "type": "electric_scooter", "name": "e90aa00626a5e78683dff1ca3f586dba", "is_disabled": 0, "rental_uris": {"ios": "https://dc.lft.to/lastmile_qr_scan", "android": "https://dc.lft.to/lastmile_qr_scan"}, "is_reserved": 0}, {"lon": -77.03287916666666, "bike_id": "e885bd4b7545f1a3f0970b98846f291c", "lat": 38.929035999999996, "fusion_lon": 0.0, "fusion_lat": 0.0, "type": "electric_scooter", "name": "e885bd4b7545f1a3f0970b98846f291c", "is_disabled": 0, "rental_uris": {"ios": "https://dc.lft.to/lastmile_qr_scan", "android": "https://dc.lft.to/lastmile_qr_scan"}, "is_reserved": 0}, {"lon": -77.007801, "bike_id": "7016f0b4c802086262b312a09453c8e1", "lat": 38.89733583333334, "fusion_lon": 0.0, "fusion_lat": 0.0, "type": "electric_scooter", "name": "7016f0b4c802086262b312a09453c8e1", "is_disabled": 0, "rental_uris": {"ios": "https://dc.lft.to/lastmile_qr_scan", "android": "https://dc.lft.to/lastmile_qr_scan"}, "is_reserved": 0}, {"lon": -77.04606983333333, "bike_id": "7f5f60dea658446f6c811c3453f88e32", "lat": 38.92183283333333, "fusion_lon": 0.0, "fusion_lat": 0.0, "type": "electric_scooter", "name": "7f5f60dea658446f6c811c3453f88e32", "is_disabled": 0, "rental_uris": {"ios": "https://dc.lft.to/lastmile_qr_scan", "android": "https://dc.lft.to/lastmile_qr_scan"}, "is_reserved": 0}, {"lon": -76.9926935, "bike_id": "9c51e6e8b7d68f806f71f009085325de", "lat": 38.89765516666667, "fusion_lon": 0.0, "fusion_lat": 0.0, "type": "electric_scooter", "name": "9c51e6e8b7d68f806f71f009085325de", "is_disabled": 0, "rental_uris": {"ios": "https://dc.lft.to/lastmile_qr_scan", "android": "https://dc.lft.to/lastmile_qr_scan"}, "is_reserved": 0}, {"lon": -77.01595366666666, "bike_id": "8a9d8c3161e2734266e3b4b554faa7af", "lat": 38.90355533333334, "fusion_lon": 0.0, "fusion_lat": 0.0, "type": "electric_scooter", "name": "8a9d8c3161e2734266e3b4b554faa7af", "is_disabled": 0, "rental_uris": {"ios": "https://dc.lft.to/lastmile_qr_scan", "android": "https://dc.lft.to/lastmile_qr_scan"}, "is_reserved": 0}, {"lon": -76.98064433333333, "bike_id": "991f82a2a07c6109b3da6032babfe40e", "lat": 38.90167833333334, "fusion_lon": 0.0, "fusion_lat": 0.0, "type": "electric_scooter", "name": "991f82a2a07c6109b3da6032babfe40e", "is_disabled": 0, "rental_uris": {"ios": "https://dc.lft.to/lastmile_qr_scan", "android": "https://dc.lft.to/lastmile_qr_scan"}, "is_reserved": 0}, {"lon": -77.00743566666667, "bike_id": "7c982b26fe33a496e0afb87befa1cbb1", "lat": 38.876552333333336, "fusion_lon": 0.0, "fusion_lat": 0.0, "type": "electric_scooter", "name": "7c982b26fe33a496e0afb87befa1cbb1", "is_disabled": 0, "rental_uris": {"ios": "https://dc.lft.to/lastmile_qr_scan", "android": "https://dc.lft.to/lastmile_qr_scan"}, "is_reserved": 0}, {"lon": -77.02236533333334, "bike_id": "6d62b7c8f486d7a7864ad4a14bba757e", "lat": 38.90528116666667, "fusion_lon": 0.0, "fusion_lat": 0.0, "type": "electric_scooter", "name": "6d62b7c8f486d7a7864ad4a14bba757e", "is_disabled": 0, "rental_uris": {"ios": "https://dc.lft.to/lastmile_qr_scan", "android": "https://dc.lft.to/lastmile_qr_scan"}, "is_reserved": 0}, {"lon": -77.061895, "bike_id": "8a103ae768e5fa12d9d30dcb194088d7", "lat": 38.910544333333334, "fusion_lon": 0.0, "fusion_lat": 0.0, "type": "electric_scooter", "name": "8a103ae768e5fa12d9d30dcb194088d7", "is_disabled": 0, "rental_uris": {"ios": "https://dc.lft.to/lastmile_qr_scan", "android": "https://dc.lft.to/lastmile_qr_scan"}, "is_reserved": 0}, {"lon": -76.98329166666667, "bike_id": "e3b60918331e7daf4c4140efb34e61b1", "lat": 38.90096116666667, "fusion_lon": 0.0, "fusion_lat": 0.0, "type": "electric_scooter", "name": "e3b60918331e7daf4c4140efb34e61b1", "is_disabled": 0, "rental_uris": {"ios": "https://dc.lft.to/lastmile_qr_scan", "android": "https://dc.lft.to/lastmile_qr_scan"}, "is_reserved": 0}, {"lon": -76.9318055, "bike_id": "37a333b10c626595f5e159c8dd11a8bf", "lat": 38.898824833333336, "fusion_lon": 0.0, "fusion_lat": 0.0, "type": "electric_scooter", "name": "37a333b10c626595f5e159c8dd11a8bf", "is_disabled": 0, "rental_uris": {"ios": "https://dc.lft.to/lastmile_qr_scan", "android": "https://dc.lft.to/lastmile_qr_scan"}, "is_reserved": 0}, {"lon": -77.03291933333334, "bike_id": "98e262c805509fda238d09ed70267fde", "lat": 38.95654116666667, "fusion_lon": 0.0, "fusion_lat": 0.0, "type": "electric_scooter", "name": "98e262c805509fda238d09ed70267fde", "is_disabled": 0, "rental_uris": {"ios": "https://dc.lft.to/lastmile_qr_scan", "android": "https://dc.lft.to/lastmile_qr_scan"}, "is_reserved": 0}, {"lon": -77.02659916666667, "bike_id": "91e40eb648c297aac770c0488932a9fa", "lat": 38.97570916666667, "fusion_lon": 0.0, "fusion_lat": 0.0, "type": "electric_scooter", "name": "91e40eb648c297aac770c0488932a9fa", "is_disabled": 0, "rental_uris": {"ios": "https://dc.lft.to/lastmile_qr_scan", "android": "https://dc.lft.to/lastmile_qr_scan"}, "is_reserved": 0}, {"lon": -77.02823516666666, "bike_id": "8a5cbb605295e9d9b35c33b8393f58ea", "lat": 38.96507616666667, "fusion_lon": 0.0, "fusion_lat": 0.0, "type": "electric_bike", "name": "8a5cbb605295e9d9b35c33b8393f58ea", "is_disabled": 0, "rental_uris": {"ios": "https://dc.lft.to/lastmile_qr_scan", "android": "https://dc.lft.to/lastmile_qr_scan"}, "is_reserved": 0}, {"lon": -76.93021, "bike_id": "a4267ceb78398822618f4f2f576dbe0d", "lat": 38.896506333333335, "fusion_lon": 0.0, "fusion_lat": 0.0, "type": "electric_bike", "name": "a4267ceb78398822618f4f2f576dbe0d", "is_disabled": 0, "rental_uris": {"ios": "https://dc.lft.to/lastmile_qr_scan", "android": "https://dc.lft.to/lastmile_qr_scan"}, "is_reserved": 0}, {"lon": -76.93640033333334, "bike_id": "b69bb817e06361f82185056d9aeaae59", "lat": 38.900614, "fusion_lon": 0.0, "fusion_lat": 0.0, "type": "electric_scooter", "name": "b69bb817e06361f82185056d9aeaae59", "is_disabled": 0, "rental_uris": {"ios": "https://dc.lft.to/lastmile_qr_scan", "android": "https://dc.lft.to/lastmile_qr_scan"}, "is_reserved": 0}, {"lon": -77.013301, "bike_id": "76846f69be98b2c5dbbc0d1e5b4086af", "lat": 38.900674333333335, "fusion_lon": 0.0, "fusion_lat": 0.0, "type": "electric_scooter", "name": "76846f69be98b2c5dbbc0d1e5b4086af", "is_disabled": 0, "rental_uris": {"ios": "https://dc.lft.to/lastmile_qr_scan", "android": "https://dc.lft.to/lastmile_qr_scan"}, "is_reserved": 0}, {"lon": -77.036439, "bike_id": "0639a34b1fc38438e3304dc04f33ddf7", "lat": 38.921397166666665, "fusion_lon": 0.0, "fusion_lat": 0.0, "type": "electric_bike", "name": "0639a34b1fc38438e3304dc04f33ddf7", "is_disabled": 0, "rental_uris": {"ios": "https://dc.lft.to/lastmile_qr_scan", "android": "https://dc.lft.to/lastmile_qr_scan"}, "is_reserved": 0}, {"lon": -76.99877433333333, "bike_id": "e3b35a1cb57de24e7421ae84714fe0c8", "lat": 38.90942033333333, "fusion_lon": 0.0, "fusion_lat": 0.0, "type": "electric_scooter", "name": "e3b35a1cb57de24e7421ae84714fe0c8", "is_disabled": 0, "rental_uris": {"ios": "https://dc.lft.to/lastmile_qr_scan", "android": "https://dc.lft.to/lastmile_qr_scan"}, "is_reserved": 0}, {"lon": -77.01725016666667, "bike_id": "6a6df53b7e9fbb845a31bd9bacac5d9d", "lat": 38.943153833333334, "fusion_lon": 0.0, "fusion_lat": 0.0, "type": "electric_scooter", "name": "6a6df53b7e9fbb845a31bd9bacac5d9d", "is_disabled": 0, "rental_uris": {"ios": "https://dc.lft.to/lastmile_qr_scan", "android": "https://dc.lft.to/lastmile_qr_scan"}, "is_reserved": 0}, {"lon": -77.041979, "bike_id": "636916d4988b1398e2c9104cd55cbbc3", "lat": 38.926264833333335, "fusion_lon": 0.0, "fusion_lat": 0.0, "type": "electric_scooter", "name": "636916d4988b1398e2c9104cd55cbbc3", "is_disabled": 0, "rental_uris": {"ios": "https://dc.lft.to/lastmile_qr_scan", "android": "https://dc.lft.to/lastmile_qr_scan"}, "is_reserved": 0}, {"lon": -77.03802766666666, "bike_id": "a639e8d9832661a6bf8a98a414e47c0c", "lat": 38.920636, "fusion_lon": 0.0, "fusion_lat": 0.0, "type": "electric_scooter", "name": "a639e8d9832661a6bf8a98a414e47c0c", "is_disabled": 0, "rental_uris": {"ios": "https://dc.lft.to/lastmile_qr_scan", "android": "https://dc.lft.to/lastmile_qr_scan"}, "is_reserved": 0}, {"lon": -77.0324825, "bike_id": "6ee5e76de8f6aa98101b8c9522f1917f", "lat": 38.926846166666664, "fusion_lon": 0.0, "fusion_lat": 0.0, "type": "electric_scooter", "name": "6ee5e76de8f6aa98101b8c9522f1917f", "is_disabled": 0, "rental_uris": {"ios": "https://dc.lft.to/lastmile_qr_scan", "android": "https://dc.lft.to/lastmile_qr_scan"}, "is_reserved": 0}, {"lon": -77.05336216666667, "bike_id": "7a5e25ae26265e7bd1fa2443230bcb60", "lat": 38.907156, "fusion_lon": 0.0, "fusion_lat": 0.0, "type": "electric_scooter", "name": "7a5e25ae26265e7bd1fa2443230bcb60", "is_disabled": 0, "rental_uris": {"ios": "https://dc.lft.to/lastmile_qr_scan", "android": "https://dc.lft.to/lastmile_qr_scan"}, "is_reserved": 0}, {"lon": -77.04435616666666, "bike_id": "dc00f25ec98b9e22424b38c985c58834", "lat": 38.91785766666667, "fusion_lon": 0.0, "fusion_lat": 0.0, "type": "electric_scooter", "name": "dc00f25ec98b9e22424b38c985c58834", "is_disabled": 0, "rental_uris": {"ios": "https://dc.lft.to/lastmile_qr_scan", "android": "https://dc.lft.to/lastmile_qr_scan"}, "is_reserved": 0}, {"lon": -77.038459, "bike_id": "716ff0c86f1514af4c92f812ec025df7", "lat": 38.9108985, "fusion_lon": 0.0, "fusion_lat": 0.0, "type": "electric_scooter", "name": "716ff0c86f1514af4c92f812ec025df7", "is_disabled": 0, "rental_uris": {"ios": "https://dc.lft.to/lastmile_qr_scan", "android": "https://dc.lft.to/lastmile_qr_scan"}, "is_reserved": 0}, {"lon": -77.0385085, "bike_id": "d8e90fe78b586527c255fe95ed53991a", "lat": 38.908072833333335, "fusion_lon": 0.0, "fusion_lat": 0.0, "type": "electric_scooter", "name": "d8e90fe78b586527c255fe95ed53991a", "is_disabled": 0, "rental_uris": {"ios": "https://dc.lft.to/lastmile_qr_scan", "android": "https://dc.lft.to/lastmile_qr_scan"}, "is_reserved": 0}, {"lon": -77.0272805, "bike_id": "59336823224fbff21518fcf2c3feb438", "lat": 38.94086733333333, "fusion_lon": 0.0, "fusion_lat": 0.0, "type": "electric_scooter", "name": "59336823224fbff21518fcf2c3feb438", "is_disabled": 0, "rental_uris": {"ios": "https://dc.lft.to/lastmile_qr_scan", "android": "https://dc.lft.to/lastmile_qr_scan"}, "is_reserved": 0}, {"lon": -77.021556, "bike_id": "8045067dea4fab1f2441ac9d37dcb465", "lat": 38.89219666666666, "fusion_lon": 0.0, "fusion_lat": 0.0, "type": "electric_scooter", "name": "8045067dea4fab1f2441ac9d37dcb465", "is_disabled": 0, "rental_uris": {"ios": "https://dc.lft.to/lastmile_qr_scan", "android": "https://dc.lft.to/lastmile_qr_scan"}, "is_reserved": 0}, {"lon": -77.00904366666667, "bike_id": "70a72b9febc29ae1b44de61f57711618", "lat": 38.896078833333334, "fusion_lon": 0.0, "fusion_lat": 0.0, "type": "electric_scooter", "name": "70a72b9febc29ae1b44de61f57711618", "is_disabled": 0, "rental_uris": {"ios": "https://dc.lft.to/lastmile_qr_scan", "android": "https://dc.lft.to/lastmile_qr_scan"}, "is_reserved": 0}, {"lon": -77.01992033333333, "bike_id": "0166c5f8dee79eb1eca12028c823716a", "lat": 38.91489416666667, "fusion_lon": 0.0, "fusion_lat": 0.0, "type": "electric_scooter", "name": "0166c5f8dee79eb1eca12028c823716a", "is_disabled": 0, "rental_uris": {"ios": "https://dc.lft.to/lastmile_qr_scan", "android": "https://dc.lft.to/lastmile_qr_scan"}, "is_reserved": 0}, {"lon": -77.02455266666666, "bike_id": "885ca1218fe9257d2ef64349b0eef606", "lat": 38.9310575, "fusion_lon": 0.0, "fusion_lat": 0.0, "type": "electric_scooter", "name": "885ca1218fe9257d2ef64349b0eef606", "is_disabled": 0, "rental_uris": {"ios": "https://dc.lft.to/lastmile_qr_scan", "android": "https://dc.lft.to/lastmile_qr_scan"}, "is_reserved": 0}, {"lon": -77.03549783333334, "bike_id": "3363d6edde1309d7f5abfce3229d9d01", "lat": 38.9183995, "fusion_lon": 0.0, "fusion_lat": 0.0, "type": "electric_scooter", "name": "3363d6edde1309d7f5abfce3229d9d01", "is_disabled": 0, "rental_uris": {"ios": "https://dc.lft.to/lastmile_qr_scan", "android": "https://dc.lft.to/lastmile_qr_scan"}, "is_reserved": 0}, {"lon": -77.02836233333333, "bike_id": "f153a1567abe1f6b1797ca0bf0df47df", "lat": 38.88768133333333, "fusion_lon": 0.0, "fusion_lat": 0.0, "type": "electric_scooter", "name": "f153a1567abe1f6b1797ca0bf0df47df", "is_disabled": 0, "rental_uris": {"ios": "https://dc.lft.to/lastmile_qr_scan", "android": "https://dc.lft.to/lastmile_qr_scan"}, "is_reserved": 0}, {"lon": -77.03039466666667, "bike_id": "06642f462b8c2483cb031995394a75b1", "lat": 38.88458033333333, "fusion_lon": 0.0, "fusion_lat": 0.0, "type": "electric_scooter", "name": "06642f462b8c2483cb031995394a75b1", "is_disabled": 0, "rental_uris": {"ios": "https://dc.lft.to/lastmile_qr_scan", "android": "https://dc.lft.to/lastmile_qr_scan"}, "is_reserved": 0}, {"lon": -76.9781555, "bike_id": "b76328b3e9d9a75d964a76554b3c6c3d", "lat": 38.90673666666667, "fusion_lon": 0.0, "fusion_lat": 0.0, "type": "electric_scooter", "name": "b76328b3e9d9a75d964a76554b3c6c3d", "is_disabled": 0, "rental_uris": {"ios": "https://dc.lft.to/lastmile_qr_scan", "android": "https://dc.lft.to/lastmile_qr_scan"}, "is_reserved": 0}, {"lon": -77.00215466666667, "bike_id": "4132629ccee0ba05df6dd50aa3e0f38a", "lat": 38.91453516666667, "fusion_lon": 0.0, "fusion_lat": 0.0, "type": "electric_scooter", "name": "4132629ccee0ba05df6dd50aa3e0f38a", "is_disabled": 0, "rental_uris": {"ios": "https://dc.lft.to/lastmile_qr_scan", "android": "https://dc.lft.to/lastmile_qr_scan"}, "is_reserved": 0}, {"lon": -77.07477616666667, "bike_id": "84a2fc46f29ca321b2c2c872eb57f030", "lat": 38.963150166666665, "fusion_lon": 0.0, "fusion_lat": 0.0, "type": "electric_scooter", "name": "84a2fc46f29ca321b2c2c872eb57f030", "is_disabled": 0, "rental_uris": {"ios": "https://dc.lft.to/lastmile_qr_scan", "android": "https://dc.lft.to/lastmile_qr_scan"}, "is_reserved": 0}, {"lon": -77.0400425, "bike_id": "f7ffec360168813a9f48ff799acd9cf7", "lat": 38.909992333333335, "fusion_lon": 0.0, "fusion_lat": 0.0, "type": "electric_scooter", "name": "f7ffec360168813a9f48ff799acd9cf7", "is_disabled": 0, "rental_uris": {"ios": "https://dc.lft.to/lastmile_qr_scan", "android": "https://dc.lft.to/lastmile_qr_scan"}, "is_reserved": 0}, {"lon": -77.00115233333334, "bike_id": "b834177acb8f00b94e142d95942ca3aa", "lat": 38.917034666666666, "fusion_lon": 0.0, "fusion_lat": 0.0, "type": "electric_scooter", "name": "b834177acb8f00b94e142d95942ca3aa", "is_disabled": 0, "rental_uris": {"ios": "https://dc.lft.to/lastmile_qr_scan", "android": "https://dc.lft.to/lastmile_qr_scan"}, "is_reserved": 0}, {"lon": -76.89535083333334, "bike_id": "a926a426e5450bef16dfd31a0df8b55f", "lat": 38.945529, "fusion_lon": 0.0, "fusion_lat": 0.0, "type": "electric_bike", "name": "a926a426e5450bef16dfd31a0df8b55f", "is_disabled": 0, "rental_uris": {"ios": "https://dc.lft.to/lastmile_qr_scan", "android": "https://dc.lft.to/lastmile_qr_scan"}, "is_reserved": 0}, {"lon": -77.05595216666667, "bike_id": "7b610e0cd3e58b8a0ddb654f519ddfcb", "lat": 38.916146833333336, "fusion_lon": 0.0, "fusion_lat": 0.0, "type": "electric_scooter", "name": "7b610e0cd3e58b8a0ddb654f519ddfcb", "is_disabled": 0, "rental_uris": {"ios": "https://dc.lft.to/lastmile_qr_scan", "android": "https://dc.lft.to/lastmile_qr_scan"}, "is_reserved": 0}, {"lon": -77.06385933333334, "bike_id": "db41dc49613b120c9612393837389460", "lat": 38.94442683333333, "fusion_lon": 0.0, "fusion_lat": 0.0, "type": "electric_scooter", "name": "db41dc49613b120c9612393837389460", "is_disabled": 0, "rental_uris": {"ios": "https://dc.lft.to/lastmile_qr_scan", "android": "https://dc.lft.to/lastmile_qr_scan"}, "is_reserved": 0}, {"lon": -77.04474783333333, "bike_id": "110f890a166414bc3bffa1542f7de20e", "lat": 38.9005225, "fusion_lon": 0.0, "fusion_lat": 0.0, "type": "electric_scooter", "name": "110f890a166414bc3bffa1542f7de20e", "is_disabled": 0, "rental_uris": {"ios": "https://dc.lft.to/lastmile_qr_scan", "android": "https://dc.lft.to/lastmile_qr_scan"}, "is_reserved": 0}, {"lon": -77.03175, "bike_id": "a493b929d37e906220c107e2b6d5c5b3", "lat": 38.88409583333333, "fusion_lon": 0.0, "fusion_lat": 0.0, "type": "electric_scooter", "name": "a493b929d37e906220c107e2b6d5c5b3", "is_disabled": 0, "rental_uris": {"ios": "https://dc.lft.to/lastmile_qr_scan", "android": "https://dc.lft.to/lastmile_qr_scan"}, "is_reserved": 0}, {"lon": -77.021686, "bike_id": "32665ff50fc0eb75e89fd88b3a78e9e6", "lat": 38.94290066666667, "fusion_lon": 0.0, "fusion_lat": 0.0, "type": "electric_scooter", "name": "32665ff50fc0eb75e89fd88b3a78e9e6", "is_disabled": 0, "rental_uris": {"ios": "https://dc.lft.to/lastmile_qr_scan", "android": "https://dc.lft.to/lastmile_qr_scan"}, "is_reserved": 0}, {"lon": -77.00135733333333, "bike_id": "e160030465f5aa553c597f252a7f2607", "lat": 38.842834, "fusion_lon": 0.0, "fusion_lat": 0.0, "type": "electric_scooter", "name": "e160030465f5aa553c597f252a7f2607", "is_disabled": 0, "rental_uris": {"ios": "https://dc.lft.to/lastmile_qr_scan", "android": "https://dc.lft.to/lastmile_qr_scan"}, "is_reserved": 0}, {"lon": -76.986156, "bike_id": "d9db81c918aca35145c323ef1e7d7f95", "lat": 38.90585633333333, "fusion_lon": 0.0, "fusion_lat": 0.0, "type": "electric_scooter", "name": "d9db81c918aca35145c323ef1e7d7f95", "is_disabled": 0, "rental_uris": {"ios": "https://dc.lft.to/lastmile_qr_scan", "android": "https://dc.lft.to/lastmile_qr_scan"}, "is_reserved": 0}, {"lon": -76.93177816666666, "bike_id": "073c0d03a72c65f48d571fd32290e8a3", "lat": 38.89884033333333, "fusion_lon": 0.0, "fusion_lat": 0.0, "type": "electric_scooter", "name": "073c0d03a72c65f48d571fd32290e8a3", "is_disabled": 0, "rental_uris": {"ios": "https://dc.lft.to/lastmile_qr_scan", "android": "https://dc.lft.to/lastmile_qr_scan"}, "is_reserved": 0}, {"lon": -77.03247683333333, "bike_id": "308e27e19536f0e72e6e204553712d66", "lat": 38.897367, "fusion_lon": 0.0, "fusion_lat": 0.0, "type": "electric_bike", "name": "308e27e19536f0e72e6e204553712d66", "is_disabled": 0, "rental_uris": {"ios": "https://dc.lft.to/lastmile_qr_scan", "android": "https://dc.lft.to/lastmile_qr_scan"}, "is_reserved": 0}, {"lon": -76.95013483333334, "bike_id": "1449ca096afb6205bfa38aa056646bf4", "lat": 38.894026, "fusion_lon": 0.0, "fusion_lat": 0.0, "type": "electric_scooter", "name": "1449ca096afb6205bfa38aa056646bf4", "is_disabled": 0, "rental_uris": {"ios": "https://dc.lft.to/lastmile_qr_scan", "android": "https://dc.lft.to/lastmile_qr_scan"}, "is_reserved": 0}, {"lon": -77.04319233333334, "bike_id": "325e5cbf41dc88cba58f1077e35401ec", "lat": 38.918699, "fusion_lon": 0.0, "fusion_lat": 0.0, "type": "electric_scooter", "name": "325e5cbf41dc88cba58f1077e35401ec", "is_disabled": 0, "rental_uris": {"ios": "https://dc.lft.to/lastmile_qr_scan", "android": "https://dc.lft.to/lastmile_qr_scan"}, "is_reserved": 0}, {"lon": -76.98538116666667, "bike_id": "04e7c1dcc2fbe32b586f674e160d1b67", "lat": 38.910284833333336, "fusion_lon": 0.0, "fusion_lat": 0.0, "type": "electric_scooter", "name": "04e7c1dcc2fbe32b586f674e160d1b67", "is_disabled": 0, "rental_uris": {"ios": "https://dc.lft.to/lastmile_qr_scan", "android": "https://dc.lft.to/lastmile_qr_scan"}, "is_reserved": 0}, {"lon": -77.0268605, "bike_id": "d751941171adf9f0b0a57826bab218f5", "lat": 38.94889083333333, "fusion_lon": 0.0, "fusion_lat": 0.0, "type": "electric_scooter", "name": "d751941171adf9f0b0a57826bab218f5", "is_disabled": 0, "rental_uris": {"ios": "https://dc.lft.to/lastmile_qr_scan", "android": "https://dc.lft.to/lastmile_qr_scan"}, "is_reserved": 0}, {"lon": -77.03673633333334, "bike_id": "d39794f1093e271b6ef32e5ed9aecda0", "lat": 38.92106783333333, "fusion_lon": 0.0, "fusion_lat": 0.0, "type": "electric_scooter", "name": "d39794f1093e271b6ef32e5ed9aecda0", "is_disabled": 0, "rental_uris": {"ios": "https://dc.lft.to/lastmile_qr_scan", "android": "https://dc.lft.to/lastmile_qr_scan"}, "is_reserved": 0}, {"lon": -77.02680433333333, "bike_id": "f7335f8c9aee44292b346c817c3cbb39", "lat": 38.984882, "fusion_lon": 0.0, "fusion_lat": 0.0, "type": "electric_scooter", "name": "f7335f8c9aee44292b346c817c3cbb39", "is_disabled": 0, "rental_uris": {"ios": "https://dc.lft.to/lastmile_qr_scan", "android": "https://dc.lft.to/lastmile_qr_scan"}, "is_reserved": 0}, {"lon": -77.04252383333333, "bike_id": "43008b6b37a60814445f4b5854a3d40a", "lat": 38.916998, "fusion_lon": 0.0, "fusion_lat": 0.0, "type": "electric_scooter", "name": "43008b6b37a60814445f4b5854a3d40a", "is_disabled": 0, "rental_uris": {"ios": "https://dc.lft.to/lastmile_qr_scan", "android": "https://dc.lft.to/lastmile_qr_scan"}, "is_reserved": 0}, {"lon": -77.01537366666666, "bike_id": "481458fbede030d9ea645560646ba382", "lat": 38.8832835, "fusion_lon": 0.0, "fusion_lat": 0.0, "type": "electric_scooter", "name": "481458fbede030d9ea645560646ba382", "is_disabled": 0, "rental_uris": {"ios": "https://dc.lft.to/lastmile_qr_scan", "android": "https://dc.lft.to/lastmile_qr_scan"}, "is_reserved": 0}, {"lon": -77.044785, "bike_id": "9a21c511bd6d84212c0ae52e4db375eb", "lat": 38.90738283333334, "fusion_lon": 0.0, "fusion_lat": 0.0, "type": "electric_scooter", "name": "9a21c511bd6d84212c0ae52e4db375eb", "is_disabled": 0, "rental_uris": {"ios": "https://dc.lft.to/lastmile_qr_scan", "android": "https://dc.lft.to/lastmile_qr_scan"}, "is_reserved": 0}, {"lon": -77.00217633333334, "bike_id": "248876f8ab505980ad56daccfd634b60", "lat": 38.892081, "fusion_lon": 0.0, "fusion_lat": 0.0, "type": "electric_scooter", "name": "248876f8ab505980ad56daccfd634b60", "is_disabled": 0, "rental_uris": {"ios": "https://dc.lft.to/lastmile_qr_scan", "android": "https://dc.lft.to/lastmile_qr_scan"}, "is_reserved": 0}, {"lon": -77.02718833333333, "bike_id": "989839f2a8f98012f323461a86b51bdc", "lat": 38.906731666666666, "fusion_lon": 0.0, "fusion_lat": 0.0, "type": "electric_scooter", "name": "989839f2a8f98012f323461a86b51bdc", "is_disabled": 0, "rental_uris": {"ios": "https://dc.lft.to/lastmile_qr_scan", "android": "https://dc.lft.to/lastmile_qr_scan"}, "is_reserved": 0}, {"lon": -77.021567, "bike_id": "e7f160566840c4972032883affb89cf6", "lat": 38.926016, "fusion_lon": 0.0, "fusion_lat": 0.0, "type": "electric_scooter", "name": "e7f160566840c4972032883affb89cf6", "is_disabled": 0, "rental_uris": {"ios": "https://dc.lft.to/lastmile_qr_scan", "android": "https://dc.lft.to/lastmile_qr_scan"}, "is_reserved": 0}, {"lon": -77.02811983333334, "bike_id": "924a78232b0293d0e785325bcd4b93cb", "lat": 38.931379666666665, "fusion_lon": 0.0, "fusion_lat": 0.0, "type": "electric_scooter", "name": "924a78232b0293d0e785325bcd4b93cb", "is_disabled": 0, "rental_uris": {"ios": "https://dc.lft.to/lastmile_qr_scan", "android": "https://dc.lft.to/lastmile_qr_scan"}, "is_reserved": 0}, {"lon": -77.02461683333334, "bike_id": "6cb13061c571b21d12d78b33468f14fb", "lat": 38.938768, "fusion_lon": 0.0, "fusion_lat": 0.0, "type": "electric_scooter", "name": "6cb13061c571b21d12d78b33468f14fb", "is_disabled": 0, "rental_uris": {"ios": "https://dc.lft.to/lastmile_qr_scan", "android": "https://dc.lft.to/lastmile_qr_scan"}, "is_reserved": 0}, {"lon": -77.02069816666666, "bike_id": "3a90245034a2a2e35d87ed66f811c86d", "lat": 38.89718283333333, "fusion_lon": 0.0, "fusion_lat": 0.0, "type": "electric_scooter", "name": "3a90245034a2a2e35d87ed66f811c86d", "is_disabled": 0, "rental_uris": {"ios": "https://dc.lft.to/lastmile_qr_scan", "android": "https://dc.lft.to/lastmile_qr_scan"}, "is_reserved": 0}, {"lon": -77.041725, "bike_id": "a96e0779d9368d517d18e814e81f2f05", "lat": 38.9066705, "fusion_lon": 0.0, "fusion_lat": 0.0, "type": "electric_scooter", "name": "a96e0779d9368d517d18e814e81f2f05", "is_disabled": 0, "rental_uris": {"ios": "https://dc.lft.to/lastmile_qr_scan", "android": "https://dc.lft.to/lastmile_qr_scan"}, "is_reserved": 0}, {"lon": -77.00676166666666, "bike_id": "c671ea21811f3aaaecae032d68c3a26a", "lat": 38.90011583333333, "fusion_lon": 0.0, "fusion_lat": 0.0, "type": "electric_scooter", "name": "c671ea21811f3aaaecae032d68c3a26a", "is_disabled": 0, "rental_uris": {"ios": "https://dc.lft.to/lastmile_qr_scan", "android": "https://dc.lft.to/lastmile_qr_scan"}, "is_reserved": 0}, {"lon": -76.97475366666667, "bike_id": "ccc411211d56e9b36d13f2b6fa60e48e", "lat": 38.903485833333335, "fusion_lon": 0.0, "fusion_lat": 0.0, "type": "electric_scooter", "name": "ccc411211d56e9b36d13f2b6fa60e48e", "is_disabled": 0, "rental_uris": {"ios": "https://dc.lft.to/lastmile_qr_scan", "android": "https://dc.lft.to/lastmile_qr_scan"}, "is_reserved": 0}, {"lon": -77.0343575, "bike_id": "de556da2183485622b4ac6c9ad074119", "lat": 38.9067935, "fusion_lon": 0.0, "fusion_lat": 0.0, "type": "electric_scooter", "name": "de556da2183485622b4ac6c9ad074119", "is_disabled": 0, "rental_uris": {"ios": "https://dc.lft.to/lastmile_qr_scan", "android": "https://dc.lft.to/lastmile_qr_scan"}, "is_reserved": 0}, {"lon": -77.03866883333333, "bike_id": "338fdbe9f86db7d5dfeffa9d3b3c748d", "lat": 38.9154915, "fusion_lon": 0.0, "fusion_lat": 0.0, "type": "electric_scooter", "name": "338fdbe9f86db7d5dfeffa9d3b3c748d", "is_disabled": 0, "rental_uris": {"ios": "https://dc.lft.to/lastmile_qr_scan", "android": "https://dc.lft.to/lastmile_qr_scan"}, "is_reserved": 0}, {"lon": -77.08071766666667, "bike_id": "75304b0da1da98dece7fe2ebc80864ef", "lat": 39.05281866666667, "fusion_lon": 0.0, "fusion_lat": 0.0, "type": "electric_bike", "name": "75304b0da1da98dece7fe2ebc80864ef", "is_disabled": 0, "rental_uris": {"ios": "https://dc.lft.to/lastmile_qr_scan", "android": "https://dc.lft.to/lastmile_qr_scan"}, "is_reserved": 0}, {"lon": -77.04882983333333, "bike_id": "54efb1edb2eb8d5da61b825910e2969b", "lat": 38.915694333333334, "fusion_lon": 0.0, "fusion_lat": 0.0, "type": "electric_scooter", "name": "54efb1edb2eb8d5da61b825910e2969b", "is_disabled": 0, "rental_uris": {"ios": "https://dc.lft.to/lastmile_qr_scan", "android": "https://dc.lft.to/lastmile_qr_scan"}, "is_reserved": 0}, {"lon": -77.04258033333333, "bike_id": "da4003d1bdca698275d1f2d8fadf1fd3", "lat": 38.914844, "fusion_lon": 0.0, "fusion_lat": 0.0, "type": "electric_scooter", "name": "da4003d1bdca698275d1f2d8fadf1fd3", "is_disabled": 0, "rental_uris": {"ios": "https://dc.lft.to/lastmile_qr_scan", "android": "https://dc.lft.to/lastmile_qr_scan"}, "is_reserved": 0}, {"lon": -77.021688, "bike_id": "38d45f25a3b425ad1ea8a010adcc6c0a", "lat": 38.91915433333333, "fusion_lon": 0.0, "fusion_lat": 0.0, "type": "electric_scooter", "name": "38d45f25a3b425ad1ea8a010adcc6c0a", "is_disabled": 0, "rental_uris": {"ios": "https://dc.lft.to/lastmile_qr_scan", "android": "https://dc.lft.to/lastmile_qr_scan"}, "is_reserved": 0}, {"lon": -77.03977333333333, "bike_id": "c87480f01f7f95d5a3a58f3ce20fbc55", "lat": 38.92019966666667, "fusion_lon": 0.0, "fusion_lat": 0.0, "type": "electric_scooter", "name": "c87480f01f7f95d5a3a58f3ce20fbc55", "is_disabled": 0, "rental_uris": {"ios": "https://dc.lft.to/lastmile_qr_scan", "android": "https://dc.lft.to/lastmile_qr_scan"}, "is_reserved": 0}, {"lon": -77.02855166666667, "bike_id": "d9e0027bcb5714a9bd79a8eb0fd79b58", "lat": 38.956306833333336, "fusion_lon": 0.0, "fusion_lat": 0.0, "type": "electric_scooter", "name": "d9e0027bcb5714a9bd79a8eb0fd79b58", "is_disabled": 0, "rental_uris": {"ios": "https://dc.lft.to/lastmile_qr_scan", "android": "https://dc.lft.to/lastmile_qr_scan"}, "is_reserved": 0}, {"lon": -76.99016666666667, "bike_id": "be67b615d25bd79d331177fd65480b25", "lat": 38.866443833333335, "fusion_lon": 0.0, "fusion_lat": 0.0, "type": "electric_scooter", "name": "be67b615d25bd79d331177fd65480b25", "is_disabled": 0, "rental_uris": {"ios": "https://dc.lft.to/lastmile_qr_scan", "android": "https://dc.lft.to/lastmile_qr_scan"}, "is_reserved": 0}, {"lon": -77.04382, "bike_id": "7d8bfe21b158acb8085e10fd561d404a", "lat": 38.92321366666667, "fusion_lon": 0.0, "fusion_lat": 0.0, "type": "electric_scooter", "name": "7d8bfe21b158acb8085e10fd561d404a", "is_disabled": 0, "rental_uris": {"ios": "https://dc.lft.to/lastmile_qr_scan", "android": "https://dc.lft.to/lastmile_qr_scan"}, "is_reserved": 0}, {"lon": -76.990753, "bike_id": "21fd09a7ee40e1e6ab818339898b5a1a", "lat": 38.862385833333335, "fusion_lon": 0.0, "fusion_lat": 0.0, "type": "electric_bike", "name": "21fd09a7ee40e1e6ab818339898b5a1a", "is_disabled": 0, "rental_uris": {"ios": "https://dc.lft.to/lastmile_qr_scan", "android": "https://dc.lft.to/lastmile_qr_scan"}, "is_reserved": 0}, {"lon": -77.05144716666666, "bike_id": "99ec4f10b16443cab2f7d462b297e97e", "lat": 38.89854716666667, "fusion_lon": 0.0, "fusion_lat": 0.0, "type": "electric_scooter", "name": "99ec4f10b16443cab2f7d462b297e97e", "is_disabled": 0, "rental_uris": {"ios": "https://dc.lft.to/lastmile_qr_scan", "android": "https://dc.lft.to/lastmile_qr_scan"}, "is_reserved": 0}, {"lon": -76.993668, "bike_id": "c96a4ad5ac723f0daffd5c56b61a636e", "lat": 38.940257, "fusion_lon": 0.0, "fusion_lat": 0.0, "type": "electric_scooter", "name": "c96a4ad5ac723f0daffd5c56b61a636e", "is_disabled": 0, "rental_uris": {"ios": "https://dc.lft.to/lastmile_qr_scan", "android": "https://dc.lft.to/lastmile_qr_scan"}, "is_reserved": 0}, {"lon": -77.03292883333333, "bike_id": "0260e2d118760c228d61c9dd36eefb8a", "lat": 38.956531, "fusion_lon": 0.0, "fusion_lat": 0.0, "type": "electric_scooter", "name": "0260e2d118760c228d61c9dd36eefb8a", "is_disabled": 0, "rental_uris": {"ios": "https://dc.lft.to/lastmile_qr_scan", "android": "https://dc.lft.to/lastmile_qr_scan"}, "is_reserved": 0}, {"lon": -76.945035, "bike_id": "8280a7420c4c1aea718f03d362c45e97", "lat": 38.8648455, "fusion_lon": 0.0, "fusion_lat": 0.0, "type": "electric_bike", "name": "8280a7420c4c1aea718f03d362c45e97", "is_disabled": 0, "rental_uris": {"ios": "https://dc.lft.to/lastmile_qr_scan", "android": "https://dc.lft.to/lastmile_qr_scan"}, "is_reserved": 0}, {"lon": -77.00125016666667, "bike_id": "9969afdaaef4a83c2e1f8abffdb2c667", "lat": 38.9050035, "fusion_lon": 0.0, "fusion_lat": 0.0, "type": "electric_scooter", "name": "9969afdaaef4a83c2e1f8abffdb2c667", "is_disabled": 0, "rental_uris": {"ios": "https://dc.lft.to/lastmile_qr_scan", "android": "https://dc.lft.to/lastmile_qr_scan"}, "is_reserved": 0}, {"lon": -77.038658, "bike_id": "02c2f7c91840f7f65bd061a56ea1c14e", "lat": 38.92012716666667, "fusion_lon": 0.0, "fusion_lat": 0.0, "type": "electric_scooter", "name": "02c2f7c91840f7f65bd061a56ea1c14e", "is_disabled": 0, "rental_uris": {"ios": "https://dc.lft.to/lastmile_qr_scan", "android": "https://dc.lft.to/lastmile_qr_scan"}, "is_reserved": 0}, {"lon": -77.02305883333334, "bike_id": "7f32c734bb7f56a1be8a4a658825bbc6", "lat": 38.9183355, "fusion_lon": 0.0, "fusion_lat": 0.0, "type": "electric_scooter", "name": "7f32c734bb7f56a1be8a4a658825bbc6", "is_disabled": 0, "rental_uris": {"ios": "https://dc.lft.to/lastmile_qr_scan", "android": "https://dc.lft.to/lastmile_qr_scan"}, "is_reserved": 0}, {"lon": -77.04974866666667, "bike_id": "26f49dcdc1634c915ce7bac4155c1394", "lat": 39.062948, "fusion_lon": 0.0, "fusion_lat": 0.0, "type": "electric_bike", "name": "26f49dcdc1634c915ce7bac4155c1394", "is_disabled": 0, "rental_uris": {"ios": "https://dc.lft.to/lastmile_qr_scan", "android": "https://dc.lft.to/lastmile_qr_scan"}, "is_reserved": 0}, {"lon": -76.93770516666666, "bike_id": "1beb12137290e725ca7ec594075300b9", "lat": 38.899748, "fusion_lon": 0.0, "fusion_lat": 0.0, "type": "electric_scooter", "name": "1beb12137290e725ca7ec594075300b9", "is_disabled": 0, "rental_uris": {"ios": "https://dc.lft.to/lastmile_qr_scan", "android": "https://dc.lft.to/lastmile_qr_scan"}, "is_reserved": 0}, {"lon": -76.93763433333334, "bike_id": "b7e239c703a78888428610db8fceae53", "lat": 38.87861433333333, "fusion_lon": 0.0, "fusion_lat": 0.0, "type": "electric_scooter", "name": "b7e239c703a78888428610db8fceae53", "is_disabled": 0, "rental_uris": {"ios": "https://dc.lft.to/lastmile_qr_scan", "android": "https://dc.lft.to/lastmile_qr_scan"}, "is_reserved": 0}, {"lon": -77.02317833333333, "bike_id": "d68accda4f036e5130e776f0e5a7400e", "lat": 38.90885683333333, "fusion_lon": 0.0, "fusion_lat": 0.0, "type": "electric_scooter", "name": "d68accda4f036e5130e776f0e5a7400e", "is_disabled": 0, "rental_uris": {"ios": "https://dc.lft.to/lastmile_qr_scan", "android": "https://dc.lft.to/lastmile_qr_scan"}, "is_reserved": 0}, {"lon": -76.99860833333334, "bike_id": "11a49af6e4bef4d68fd016166095141f", "lat": 38.8941265, "fusion_lon": 0.0, "fusion_lat": 0.0, "type": "electric_scooter", "name": "11a49af6e4bef4d68fd016166095141f", "is_disabled": 0, "rental_uris": {"ios": "https://dc.lft.to/lastmile_qr_scan", "android": "https://dc.lft.to/lastmile_qr_scan"}, "is_reserved": 0}, {"lon": -76.99011116666667, "bike_id": "4f0fcd4fb73f73c7c4ac15bc8a055ee9", "lat": 38.946017833333336, "fusion_lon": 0.0, "fusion_lat": 0.0, "type": "electric_scooter", "name": "4f0fcd4fb73f73c7c4ac15bc8a055ee9", "is_disabled": 0, "rental_uris": {"ios": "https://dc.lft.to/lastmile_qr_scan", "android": "https://dc.lft.to/lastmile_qr_scan"}, "is_reserved": 0}, {"lon": -77.0329, "bike_id": "2b9f40612ea29fc3e02ab498dda13f74", "lat": 38.95653716666666, "fusion_lon": 0.0, "fusion_lat": 0.0, "type": "electric_scooter", "name": "2b9f40612ea29fc3e02ab498dda13f74", "is_disabled": 0, "rental_uris": {"ios": "https://dc.lft.to/lastmile_qr_scan", "android": "https://dc.lft.to/lastmile_qr_scan"}, "is_reserved": 0}, {"lon": -77.17840466666667, "bike_id": "eae5f4e6839f104302ae833f9b3891da", "lat": 39.088581, "fusion_lon": 0.0, "fusion_lat": 0.0, "type": "electric_bike", "name": "eae5f4e6839f104302ae833f9b3891da", "is_disabled": 0, "rental_uris": {"ios": "https://dc.lft.to/lastmile_qr_scan", "android": "https://dc.lft.to/lastmile_qr_scan"}, "is_reserved": 0}, {"lon": -77.05939783333334, "bike_id": "e7975b9f84ff4f622d4fd112085f9e49", "lat": 38.91193666666667, "fusion_lon": 0.0, "fusion_lat": 0.0, "type": "electric_bike", "name": "e7975b9f84ff4f622d4fd112085f9e49", "is_disabled": 0, "rental_uris": {"ios": "https://dc.lft.to/lastmile_qr_scan", "android": "https://dc.lft.to/lastmile_qr_scan"}, "is_reserved": 0}, {"lon": -77.02635383333333, "bike_id": "da14461469ad04f714de3f57a5d832f4", "lat": 38.902644333333335, "fusion_lon": 0.0, "fusion_lat": 0.0, "type": "electric_scooter", "name": "da14461469ad04f714de3f57a5d832f4", "is_disabled": 0, "rental_uris": {"ios": "https://dc.lft.to/lastmile_qr_scan", "android": "https://dc.lft.to/lastmile_qr_scan"}, "is_reserved": 0}, {"lon": -77.073215, "bike_id": "08e789478695e9c3194b69080859abe3", "lat": 38.934842833333335, "fusion_lon": 0.0, "fusion_lat": 0.0, "type": "electric_scooter", "name": "08e789478695e9c3194b69080859abe3", "is_disabled": 0, "rental_uris": {"ios": "https://dc.lft.to/lastmile_qr_scan", "android": "https://dc.lft.to/lastmile_qr_scan"}, "is_reserved": 0}, {"lon": -77.05176883333333, "bike_id": "25023b0c8bb403404dd03a8f40f96569", "lat": 38.8429065, "fusion_lon": 0.0, "fusion_lat": 0.0, "type": "electric_bike", "name": "25023b0c8bb403404dd03a8f40f96569", "is_disabled": 0, "rental_uris": {"ios": "https://dc.lft.to/lastmile_qr_scan", "android": "https://dc.lft.to/lastmile_qr_scan"}, "is_reserved": 0}, {"lon": -77.0328135, "bike_id": "572f97ba1beb4c7b9ea814943da16ab4", "lat": 38.9364055, "fusion_lon": 0.0, "fusion_lat": 0.0, "type": "electric_scooter", "name": "572f97ba1beb4c7b9ea814943da16ab4", "is_disabled": 0, "rental_uris": {"ios": "https://dc.lft.to/lastmile_qr_scan", "android": "https://dc.lft.to/lastmile_qr_scan"}, "is_reserved": 0},