{"data": {"bikes": [{"lon": -77.03175333333333, "bike_id": "7a4b2a0edc53e57eeb646358bc85d5a9", "lat": 38.8873355, "fusion_lon": 0.0, "fusion_lat": 0.0, "type": "electric_scooter", "name": "7a4b2a0edc53e57eeb646358bc85d5a9", "is_disabled": 0, "rental_uris": {"ios": "https://dc.lft.to/lastmile_qr_scan", "android": "https://dc.lft.to/lastmile_qr_scan"}, "is_reserved": 0}, {"lon": -77.04283033333333, "bike_id": "8fa027d338d968fd12b83c7f88fc8cf5", "lat": 38.91043916666667, "fusion_lon": 0.0, "fusion_lat": 0.0, "type": "electric_scooter", "name": "8fa027d338d968fd12b83c7f88fc8cf5", "is_disabled": 0, "rental_uris": {"ios": "https://dc.lft.to/lastmile_qr_scan", "android": "https://dc.lft.to/lastmile_qr_scan"}, "is_reserved": 0}, {"lon": -77.02692916666666, "bike_id": "0fa59befa9fee214c97098d3052c77bb", "lat": 38.90626266666666, "fusion_lon": 0.0, "fusion_lat": 0.0, "type": "electric_scooter", "name": "0fa59befa9fee214c97098d3052c77bb", "is_disabled": 0, "rental_uris": {"ios": "https://dc.lft.to/lastmile_qr_scan", "android": "https://dc.lft.to/lastmile_qr_scan"}, "is_reserved": 0}, {"lon": -76.933671, "bike_id": "8ce2c880f462906aabdb40e62f48633b", "lat": 38.89917416666667, "fusion_lon": 0.0, "fusion_lat": 0.0, "type": "electric_scooter", "name": "8ce2c880f462906aabdb40e62f48633b", "is_disabled": 0, "rental_uris": {"ios": "https://dc.lft.to/lastmile_qr_scan", "android": "https://dc.lft.to/lastmile_qr_scan"}, "is_reserved": 0}, {"lon": -77.03945833333333, "bike_id": "7b031895272db90fb09a09c877ea37c9", "lat": 38.9306925, "fusion_lon": 0.0, "fusion_lat": 0.0, "type": "electric_scooter", "name": "7b031895272db90fb09a09c877ea37c9", "is_disabled": 0, "rental_uris": {"ios": "https://dc.lft.to/lastmile_qr_scan", "android": "https://dc.lft.to/lastmile_qr_scan"}, "is_reserved": 0}, {"lon": -77.06761316666666, "bike_id": "aef69a9962e54c8badb6a0c538b362e4", "lat": 38.90341383333333, "fusion_lon": 0.0, "fusion_lat": 0.0, "type": "electric_scooter", "name": "aef69a9962e54c8badb6a0c538b362e4", "is_disabled": 0, "rental_uris": {"ios": "https://dc.lft.to/lastmile_qr_scan", "android": "https://dc.lft.to/lastmile_qr_scan"}, "is_reserved": 0}, {"lon": -76.9978205, "bike_id": "7008e58665dd812267ebacff85fda727", "lat": 38.844287333333334, "fusion_lon": 0.0, "fusion_lat": 0.0, "type": "electric_scooter", "name": "7008e58665dd812267ebacff85fda727", "is_disabled": 0, "rental_uris": {"ios": "https://dc.lft.to/lastmile_qr_scan", "android": "https://dc.lft.to/lastmile_qr_scan"}, "is_reserved": 0}, {"lon": -77.0320125, "bike_id": "cc66443901121ca38dc0cc34b7931c86", "lat": 38.920725833333336, "fusion_lon": 0.0, "fusion_lat": 0.0, "type": "electric_scooter", "name": "cc66443901121ca38dc0cc34b7931c86", "is_disabled": 0, "rental_uris": {"ios": "https://dc.lft.to/lastmile_qr_scan", "android": "https://dc.lft.to/lastmile_qr_scan"}, "is_reserved": 0}, {"lon": -77.04477333333334, "bike_id": "fa56893546b4c99f7e25c0d9a56bbd9c", "lat": 38.90079083333333, "fusion_lon": 0.0, "fusion_lat": 0.0, "type": "electric_scooter", "name": "fa56893546b4c99f7e25c0d9a56bbd9c", "is_disabled": 0, "rental_uris": {"ios": "https://dc.lft.to/lastmile_qr_scan", "android": "https://dc.lft.to/lastmile_qr_scan"}, "is_reserved": 0}, {"lon": -76.981035, "bike_id": "6e4a9f2c174b584f6b63661275f612ef", "lat": 38.9040545, "fusion_lon": 0.0, "fusion_lat": 0.0, "type": "electric_scooter", "name": "6e4a9f2c174b584f6b63661275f612ef", "is_disabled": 0, "rental_uris": {"ios": "https://dc.lft.to/lastmile_qr_scan", "android": "https://dc.lft.to/lastmile_qr_scan"}, "is_reserved": 0}, {"lon": -77.02980583333333, "bike_id": "f46c797dae012cbff8cc2a4b88232226", "lat": 38.9328575, "fusion_lon": 0.0, "fusion_lat": 0.0, "type": "electric_scooter", "name": "f46c797dae012cbff8cc2a4b88232226", "is_disabled": 0, "rental_uris": {"ios": "https://dc.lft.to/lastmile_qr_scan", "android": "https://dc.lft.to/lastmile_qr_scan"}, "is_reserved": 0}, {"lon": -77.0285185, "bike_id": "10c769d2218a3f83d9c2f1fa370b7095", "lat": 38.90447116666667, "fusion_lon": 0.0, "fusion_lat": 0.0, "type": "electric_scooter", "name": "10c769d2218a3f83d9c2f1fa370b7095", "is_disabled": 0, "rental_uris": {"ios": "https://dc.lft.to/lastmile_qr_scan", "android": "https://dc.lft.to/lastmile_qr_scan"}, "is_reserved": 0}, {"lon": -77.01935716666667, "bike_id": "d789176d30da397bd13a06206488d1c3", "lat": 38.936888333333336, "fusion_lon": 0.0, "fusion_lat": 0.0, "type": "electric_scooter", "name": "d789176d30da397bd13a06206488d1c3", "is_disabled": 0, "rental_uris": {"ios": "https://dc.lft.to/lastmile_qr_scan", "android": "https://dc.lft.to/lastmile_qr_scan"}, "is_reserved": 0}, {"lon": -77.047714, "bike_id": "56430513c4211772e2c0f87ac706d37b", "lat": 38.92139866666667, "fusion_lon": 0.0, "fusion_lat": 0.0, "type": "electric_scooter", "name": "56430513c4211772e2c0f87ac706d37b", "is_disabled": 0, "rental_uris": {"ios": "https://dc.lft.to/lastmile_qr_scan", "android": "https://dc.lft.to/lastmile_qr_scan"}, "is_reserved": 0}, {"lon": -77.03219166666666, "bike_id": "37386b0cea8b9cf168eff69cc065a104", "lat": 38.914057166666666, "fusion_lon": 0.0, "fusion_lat": 0.0, "type": "electric_scooter", "name": "37386b0cea8b9cf168eff69cc065a104", "is_disabled": 0, "rental_uris": {"ios": "https://dc.lft.to/lastmile_qr_scan", "android": "https://dc.lft.to/lastmile_qr_scan"}, "is_reserved": 0}, {"lon": -77.03861533333334, "bike_id": "02dd9abc4cd31212d3ad4828c5388e4b", "lat": 38.91554633333333, "fusion_lon": 0.0, "fusion_lat": 0.0, "type": "electric_scooter", "name": "02dd9abc4cd31212d3ad4828c5388e4b", "is_disabled": 0, "rental_uris": {"ios": "https://dc.lft.to/lastmile_qr_scan", "android": "https://dc.lft.to/lastmile_qr_scan"}, "is_reserved": 0}, {"lon": -77.02476416666667, "bike_id": "52580d42a17e13222733bc65e11f9ce3", "lat": 38.898356666666665, "fusion_lon": 0.0, "fusion_lat": 0.0, "type": "electric_bike", "name": "52580d42a17e13222733bc65e11f9ce3", "is_disabled": 0, "rental_uris": {"ios": "https://dc.lft.to/lastmile_qr_scan", "android": "https://dc.lft.to/lastmile_qr_scan"}, "is_reserved": 0}, {"lon": -77.03867516666666, "bike_id": "8de7d3fb60a6dadfc5eb9be2a2ce14e6", "lat": 38.91788566666666, "fusion_lon": 0.0, "fusion_lat": 0.0, "type": "electric_scooter", "name": "8de7d3fb60a6dadfc5eb9be2a2ce14e6", "is_disabled": 0, "rental_uris": {"ios": "https://dc.lft.to/lastmile_qr_scan", "android": "https://dc.lft.to/lastmile_qr_scan"}, "is_reserved": 0}, {"lon": -76.99490766666666, "bike_id": "1e704178bc66bf2192d2dfa7cc7acc07", "lat": 38.86249, "fusion_lon": 0.0, "fusion_lat": 0.0, "type": "electric_scooter", "name": "1e704178bc66bf2192d2dfa7cc7acc07", "is_disabled": 0, "rental_uris": {"ios": "https://dc.lft.to/lastmile_qr_scan", "android": "https://dc.lft.to/lastmile_qr_scan"}, "is_reserved": 0}, {"lon": -77.0526755, "bike_id": "28fd5468a60523e247afbd6c138280dd", "lat": 38.899695, "fusion_lon": 0.0, "fusion_lat": 0.0, "type": "electric_scooter", "name": "28fd5468a60523e247afbd6c138280dd", "is_disabled": 0, "rental_uris": {"ios": "https://dc.lft.to/lastmile_qr_scan", "android": "https://dc.lft.to/lastmile_qr_scan"}, "is_reserved": 0}, {"lon": -76.98542116666667, "bike_id": "a1ed9bd41bb1b1f3bef9ff8b4e470399", "lat": 38.89661383333333, "fusion_lon": 0.0, "fusion_lat": 0.0, "type": "electric_scooter", "name": "a1ed9bd41bb1b1f3bef9ff8b4e470399", "is_disabled": 0, "rental_uris": {"ios": "https://dc.lft.to/lastmile_qr_scan", "android": "https://dc.lft.to/lastmile_qr_scan"}, "is_reserved": 0}, {"lon": -77.02631866666667, "bike_id": "9e7cc8002cc860f859c4e29fb4846240", "lat": 38.9170805, "fusion_lon": 0.0, "fusion_lat": 0.0, "type": "electric_scooter", "name": "9e7cc8002cc860f859c4e29fb4846240", "is_disabled": 0, "rental_uris": {"ios": "https://dc.lft.to/lastmile_qr_scan", "android": "https://dc.lft.to/lastmile_qr_scan"}, "is_reserved": 0}, {"lon": -77.05383316666666, "bike_id": "53d84520af1f899b6f1933f1a222b8a4", "lat": 38.92734, "fusion_lon": 0.0, "fusion_lat": 0.0, "type": "electric_scooter", "name": "53d84520af1f899b6f1933f1a222b8a4", "is_disabled": 0, "rental_uris": {"ios": "https://dc.lft.to/lastmile_qr_scan", "android": "https://dc.lft.to/lastmile_qr_scan"}, "is_reserved": 0}, {"lon": -77.0544035, "bike_id": "12612d747436252ebd0af7576ac69ff2", "lat": 38.94346266666667, "fusion_lon": 0.0, "fusion_lat": 0.0, "type": "electric_bike", "name": "12612d747436252ebd0af7576ac69ff2", "is_disabled": 0, "rental_uris": {"ios": "https://dc.lft.to/lastmile_qr_scan", "android": "https://dc.lft.to/lastmile_qr_scan"}, "is_reserved": 0}, {"lon": -77.04164616666667, "bike_id": "dcb0940bd7351658908138c536ccc76a", "lat": 38.9125775, "fusion_lon": 0.0, "fusion_lat": 0.0, "type": "electric_scooter", "name": "dcb0940bd7351658908138c536ccc76a", "is_disabled": 0, "rental_uris": {"ios": "https://dc.lft.to/lastmile_qr_scan", "android": "https://dc.lft.to/lastmile_qr_scan"}, "is_reserved": 0}, {"lon": -76.93305316666667, "bike_id": "911fe970a86fb6b056e4bfbec9120b92", "lat": 38.89473316666667, "fusion_lon": 0.0, "fusion_lat": 0.0, "type": "electric_scooter", "name": "911fe970a86fb6b056e4bfbec9120b92", "is_disabled": 0, "rental_uris": {"ios": "https://dc.lft.to/lastmile_qr_scan", "android": "https://dc.lft.to/lastmile_qr_scan"}, "is_reserved": 0}, {"lon": -76.99531316666666, "bike_id": "7ec9b2eb77218130770b84eb97bf94f9", "lat": 38.883730166666666, "fusion_lon": 0.0, "fusion_lat": 0.0, "type": "electric_scooter", "name": "7ec9b2eb77218130770b84eb97bf94f9", "is_disabled": 0, "rental_uris": {"ios": "https://dc.lft.to/lastmile_qr_scan", "android": "https://dc.lft.to/lastmile_qr_scan"}, "is_reserved": 0}, {"lon": -77.04343316666667, "bike_id": "cdb83402ef323b9c2ff034e823670af4", "lat": 38.911190166666664, "fusion_lon": 0.0, "fusion_lat": 0.0, "type": "electric_scooter", "name": "cdb83402ef323b9c2ff034e823670af4", "is_disabled": 0, "rental_uris": {"ios": "https://dc.lft.to/lastmile_qr_scan", "android": "https://dc.lft.to/lastmile_qr_scan"}, "is_reserved": 0}, {"lon": -77.023268, "bike_id": "87da1a064f05708d08ba748069116efc", "lat": 38.930551666666666, "fusion_lon": 0.0, "fusion_lat": 0.0, "type": "electric_scooter", "name": "87da1a064f05708d08ba748069116efc", "is_disabled": 0, "rental_uris": {"ios": "https://dc.lft.to/lastmile_qr_scan", "android": "https://dc.lft.to/lastmile_qr_scan"}, "is_reserved": 0}, {"lon": -76.990023, "bike_id": "76216f83de12e6167fb6174bd6c712c9", "lat": 38.8650575, "fusion_lon": 0.0, "fusion_lat": 0.0, "type": "electric_scooter", "name": "76216f83de12e6167fb6174bd6c712c9", "is_disabled": 0, "rental_uris": {"ios": "https://dc.lft.to/lastmile_qr_scan", "android": "https://dc.lft.to/lastmile_qr_scan"}, "is_reserved": 0}, {"lon": -77.03337, "bike_id": "b74fcc68e4c047da7bf5fbe822c433e5", "lat": 38.936468166666664, "fusion_lon": 0.0, "fusion_lat": 0.0, "type": "electric_scooter", "name": "b74fcc68e4c047da7bf5fbe822c433e5", "is_disabled": 0, "rental_uris": {"ios": "https://dc.lft.to/lastmile_qr_scan", "android": "https://dc.lft.to/lastmile_qr_scan"}, "is_reserved": 0}, {"lon": -77.05572733333334, "bike_id": "8976f8b45cbcf57309f8fc9fe751f3f2", "lat": 38.915975, "fusion_lon": 0.0, "fusion_lat": 0.0, "type": "electric_scooter", "name": "8976f8b45cbcf57309f8fc9fe751f3f2", "is_disabled": 0, "rental_uris": {"ios": "https://dc.lft.to/lastmile_qr_scan", "android": "https://dc.lft.to/lastmile_qr_scan"}, "is_reserved": 0}, {"lon": -76.99331516666666, "bike_id": "4bfe9038d197dc544d51454efaa36fdf", "lat": 38.87144, "fusion_lon": 0.0, "fusion_lat": 0.0, "type": "electric_scooter", "name": "4bfe9038d197dc544d51454efaa36fdf", "is_disabled": 0, "rental_uris": {"ios": "https://dc.lft.to/lastmile_qr_scan", "android": "https://dc.lft.to/lastmile_qr_scan"}, "is_reserved": 0}, {"lon": -77.02089683333334, "bike_id": "2ef141ddd51a62cc89ce5d829da332ed", "lat": 38.957496666666664, "fusion_lon": 0.0, "fusion_lat": 0.0, "type": "electric_scooter", "name": "2ef141ddd51a62cc89ce5d829da332ed", "is_disabled": 0, "rental_uris": {"ios": "https://dc.lft.to/lastmile_qr_scan", "android": "https://dc.lft.to/lastmile_qr_scan"}, "is_reserved": 0}, {"lon": -76.98708966666666, "bike_id": "e89537bc93adffd941ab255d111f4d7c", "lat": 38.865413333333336, "fusion_lon": 0.0, "fusion_lat": 0.0, "type": "electric_scooter", "name": "e89537bc93adffd941ab255d111f4d7c", "is_disabled": 0, "rental_uris": {"ios": "https://dc.lft.to/lastmile_qr_scan", "android": "https://dc.lft.to/lastmile_qr_scan"}, "is_reserved": 0}, {"lon": -77.0331515, "bike_id": "d11cc8f12969532438eac3609ccb306d", "lat": 38.90363883333333, "fusion_lon": 0.0, "fusion_lat": 0.0, "type": "electric_scooter", "name": "d11cc8f12969532438eac3609ccb306d", "is_disabled": 0, "rental_uris": {"ios": "https://dc.lft.to/lastmile_qr_scan", "android": "https://dc.lft.to/lastmile_qr_scan"}, "is_reserved": 0}, {"lon": -76.98726666666667, "bike_id": "a72e2936ba3072d13a8b165c9c75849f", "lat": 38.86714966666667, "fusion_lon": 0.0, "fusion_lat": 0.0, "type": "electric_scooter", "name": "a72e2936ba3072d13a8b165c9c75849f", "is_disabled": 0, "rental_uris": {"ios": "https://dc.lft.to/lastmile_qr_scan", "android": "https://dc.lft.to/lastmile_qr_scan"}, "is_reserved": 0}, {"lon": -77.0233115, "bike_id": "0905c4b38a8664e08e54300264d3f79f", "lat": 38.92228083333333, "fusion_lon": 0.0, "fusion_lat": 0.0, "type": "electric_scooter", "name": "0905c4b38a8664e08e54300264d3f79f", "is_disabled": 0, "rental_uris": {"ios": "https://dc.lft.to/lastmile_qr_scan", "android": "https://dc.lft.to/lastmile_qr_scan"}, "is_reserved": 0}, {"lon": -77.051293, "bike_id": "d81c98df28ccf5af1bd4934b4910cf8a", "lat": 38.9234765, "fusion_lon": 0.0, "fusion_lat": 0.0, "type": "electric_scooter", "name": "d81c98df28ccf5af1bd4934b4910cf8a", "is_disabled": 0, "rental_uris": {"ios": "https://dc.lft.to/lastmile_qr_scan", "android": "https://dc.lft.to/lastmile_qr_scan"}, "is_reserved": 0}, {"lon": -77.02639433333333, "bike_id": "8a93a7131b3204cc84da81eda6db5e8b", "lat": 38.897203833333336, "fusion_lon": 0.0, "fusion_lat": 0.0, "type": "electric_scooter", "name": "8a93a7131b3204cc84da81eda6db5e8b", "is_disabled": 0, "rental_uris": {"ios": "https://dc.lft.to/lastmile_qr_scan", "android": "https://dc.lft.to/lastmile_qr_scan"}, "is_reserved": 0}, {"lon": -77.01363916666666, "bike_id": "2eebbd5d1f37638466e31fe346a6295d", "lat": 38.883171, "fusion_lon": 0.0, "fusion_lat": 0.0, "type": "electric_scooter", "name": "2eebbd5d1f37638466e31fe346a6295d", "is_disabled": 0, "rental_uris": {"ios": "https://dc.lft.to/lastmile_qr_scan", "android": "https://dc.lft.to/lastmile_qr_scan"}, "is_reserved": 0}, {"lon": -77.11782633333333, "bike_id": "13a005a9002fe2cdb0668df1808e10ff", "lat": 39.05494183333333, "fusion_lon": 0.0, "fusion_lat": 0.0, "type": "electric_bike", "name": "13a005a9002fe2cdb0668df1808e10ff", "is_disabled": 0, "rental_uris": {"ios": "https://dc.lft.to/lastmile_qr_scan", "android": "https://dc.lft.to/lastmile_qr_scan"}, "is_reserved": 0}, {"lon": -77.02284516666667, "bike_id": "39456d5a105b92add6a67c238b108b83", "lat": 38.916900166666665, "fusion_lon": 0.0, "fusion_lat": 0.0, "type": "electric_scooter", "name": "39456d5a105b92add6a67c238b108b83", "is_disabled": 0, "rental_uris": {"ios": "https://dc.lft.to/lastmile_qr_scan", "android": "https://dc.lft.to/lastmile_qr_scan"}, "is_reserved": 0}, {"lon": -77.032846, "bike_id": "19a4ed6ebff60d207f47706120dfb3e9", "lat": 38.92939833333333, "fusion_lon": 0.0, "fusion_lat": 0.0, "type": "electric_scooter", "name": "19a4ed6ebff60d207f47706120dfb3e9", "is_disabled": 0, "rental_uris": {"ios": "https://dc.lft.to/lastmile_qr_scan", "android": "https://dc.lft.to/lastmile_qr_scan"}, "is_reserved": 0}, {"lon": -77.04168483333333, "bike_id": "1ad478cc41331202bfae3128f83850e1", "lat": 38.91993983333333, "fusion_lon": 0.0, "fusion_lat": 0.0, "type": "electric_scooter", "name": "1ad478cc41331202bfae3128f83850e1", "is_disabled": 0, "rental_uris": {"ios": "https://dc.lft.to/lastmile_qr_scan", "android": "https://dc.lft.to/lastmile_qr_scan"}, "is_reserved": 0}, {"lon": -77.03297066666667, "bike_id": "82157bc02e74dda9cf4c676cea36dd5b", "lat": 38.9565295, "fusion_lon": 0.0, "fusion_lat": 0.0, "type": "electric_scooter", "name": "82157bc02e74dda9cf4c676cea36dd5b", "is_disabled": 0, "rental_uris": {"ios": "https://dc.lft.to/lastmile_qr_scan", "android": "https://dc.lft.to/lastmile_qr_scan"}, "is_reserved": 0}, {"lon": -77.01467616666666, "bike_id": "cf45933d315023e06d92b08c6356a08f", "lat": 38.914781166666664, "fusion_lon": 0.0, "fusion_lat": 0.0, "type": "electric_scooter", "name": "cf45933d315023e06d92b08c6356a08f", "is_disabled": 0, "rental_uris": {"ios": "https://dc.lft.to/lastmile_qr_scan", "android": "https://dc.lft.to/lastmile_qr_scan"}, "is_reserved": 0}, {"lon": -77.0317735, "bike_id": "d11e3b8a7cc3993fe43a9b944c2e9e45", "lat": 38.892155, "fusion_lon": 0.0, "fusion_lat": 0.0, "type": "electric_scooter", "name": "d11e3b8a7cc3993fe43a9b944c2e9e45", "is_disabled": 0, "rental_uris": {"ios": "https://dc.lft.to/lastmile_qr_scan", "android": "https://dc.lft.to/lastmile_qr_scan"}, "is_reserved": 0}, {"lon": -76.99459883333333, "bike_id": "54531e781fb87b4e22eefb701ab7bb9a", "lat": 38.903693833333335, "fusion_lon": 0.0, "fusion_lat": 0.0, "type": "electric_scooter", "name": "54531e781fb87b4e22eefb701ab7bb9a", "is_disabled": 0, "rental_uris": {"ios": "https://dc.lft.to/lastmile_qr_scan", "android": "https://dc.lft.to/lastmile_qr_scan"}, "is_reserved": 0}, {"lon": -77.023101, "bike_id": "5879cc914d01d33d4c6f4953e2982206", "lat": 38.94202166666667, "fusion_lon": 0.0, "fusion_lat": 0.0, "type": "electric_scooter", "name": "5879cc914d01d33d4c6f4953e2982206", "is_disabled": 0, "rental_uris": {"ios": "https://dc.lft.to/lastmile_qr_scan", "android": "https://dc.lft.to/lastmile_qr_scan"}, "is_reserved": 0}, {"lon": -77.07233333333333, "bike_id": "624d132564dbd4c692c16d215d0144a3", "lat": 38.8991755, "fusion_lon": 0.0, "fusion_lat": 0.0, "type": "electric_scooter", "name": "624d132564dbd4c692c16d215d0144a3", "is_disabled": 0, "rental_uris": {"ios": "https://dc.lft.to/lastmile_qr_scan", "android": "https://dc.lft.to/lastmile_qr_scan"}, "is_reserved": 0}, {"lon": -77.04805433333334, "bike_id": "2cdf29562220c5bf58e0136883113155", "lat": 38.897538, "fusion_lon": 0.0, "fusion_lat": 0.0, "type": "electric_scooter", "name": "2cdf29562220c5bf58e0136883113155", "is_disabled": 0, "rental_uris": {"ios": "https://dc.lft.to/lastmile_qr_scan", "android": "https://dc.lft.to/lastmile_qr_scan"}, "is_reserved": 0}, {"lon": -77.04918683333334, "bike_id": "0c8d7dd6bb7c9274fcf32573c23f2b47", "lat": 38.90860716666667, "fusion_lon": 0.0, "fusion_lat": 0.0, "type": "electric_scooter", "name": "0c8d7dd6bb7c9274fcf32573c23f2b47", "is_disabled": 0, "rental_uris": {"ios": "https://dc.lft.to/lastmile_qr_scan", "android": "https://dc.lft.to/lastmile_qr_scan"}, "is_reserved": 0}, {"lon": -76.988445, "bike_id": "5b2d3426f93eb0c0f8da8ccb5af38a6f", "lat": 38.842830166666666, "fusion_lon": 0.0, "fusion_lat": 0.0, "type": "electric_bike", "name": "5b2d3426f93eb0c0f8da8ccb5af38a6f", "is_disabled": 0, "rental_uris": {"ios": "https://dc.lft.to/lastmile_qr_scan", "android": "https://dc.lft.to/lastmile_qr_scan"}, "is_reserved": 0}, {"lon": -77.02698766666667, "bike_id": "4c9245de3da103ae1c315d99ce3e03ba", "lat": 38.90846483333333, "fusion_lon": 0.0, "fusion_lat": 0.0, "type": "electric_scooter", "name": "4c9245de3da103ae1c315d99ce3e03ba", "is_disabled": 0, "rental_uris": {"ios": "https://dc.lft.to/lastmile_qr_scan", "android": "https://dc.lft.to/lastmile_qr_scan"}, "is_reserved": 0}, {"lon": -77.01258216666666, "bike_id": "37093135d38560fc194ffbf31d84eee2", "lat": 38.864737166666664, "fusion_lon": 0.0, "fusion_lat": 0.0, "type": "electric_scooter", "name": "37093135d38560fc194ffbf31d84eee2", "is_disabled": 0, "rental_uris": {"ios": "https://dc.lft.to/lastmile_qr_scan", "android": "https://dc.lft.to/lastmile_qr_scan"}, "is_reserved": 0}, {"lon": -77.07601266666667, "bike_id": "5811a6cb4ea0c79d79cef76138d2cfff", "lat": 38.91223683333333, "fusion_lon": 0.0, "fusion_lat": 0.0, "type": "electric_scooter", "name": "5811a6cb4ea0c79d79cef76138d2cfff", "is_disabled": 0, "rental_uris": {"ios": "https://dc.lft.to/lastmile_qr_scan", "android": "https://dc.lft.to/lastmile_qr_scan"}, "is_reserved": 0}, {"lon": -76.97235833333333, "bike_id": "18fe6de5a46873229686bf37e17d2f3e", "lat": 38.9034955, "fusion_lon": 0.0, "fusion_lat": 0.0, "type": "electric_scooter", "name": "18fe6de5a46873229686bf37e17d2f3e", "is_disabled": 0, "rental_uris": {"ios": "https://dc.lft.to/lastmile_qr_scan", "android": "https://dc.lft.to/lastmile_qr_scan"}, "is_reserved": 0}, {"lon": -77.04162833333334, "bike_id": "c90587c71f1e826a86e49a00949bcc48", "lat": 38.912549, "fusion_lon": 0.0, "fusion_lat": 0.0, "type": "electric_scooter", "name": "c90587c71f1e826a86e49a00949bcc48", "is_disabled": 0, "rental_uris": {"ios": "https://dc.lft.to/lastmile_qr_scan", "android": "https://dc.lft.to/lastmile_qr_scan"}, "is_reserved": 0}, {"lon": -77.0280555, "bike_id": "2041901a59037b1425574106e0ea84a3", "lat": 38.914253, "fusion_lon": 0.0, "fusion_lat": 0.0, "type": "electric_scooter", "name": "2041901a59037b1425574106e0ea84a3", "is_disabled": 0, "rental_uris": {"ios": "https://dc.lft.to/lastmile_qr_scan", "android": "https://dc.lft.to/lastmile_qr_scan"}, "is_reserved": 0}, {"lon": -77.02839266666666, "bike_id": "3f83c682e7c5914640b641dbbff3f5ca", "lat": 38.9181505, "fusion_lon": 0.0, "fusion_lat": 0.0, "type": "electric_scooter", "name": "3f83c682e7c5914640b641dbbff3f5ca", "is_disabled": 0, "rental_uris": {"ios": "https://dc.lft.to/lastmile_qr_scan", "android": "https://dc.lft.to/lastmile_qr_scan"}, "is_reserved": 0}, {"lon": -77.05038416666666, "bike_id": "b95591ae08b457b720a7f57fd41b488d", "lat": 38.90532566666667, "fusion_lon": 0.0, "fusion_lat": 0.0, "type": "electric_scooter", "name": "b95591ae08b457b720a7f57fd41b488d", "is_disabled": 0, "rental_uris": {"ios": "https://dc.lft.to/lastmile_qr_scan", "android": "https://dc.lft.to/lastmile_qr_scan"}, "is_reserved": 0}, {"lon": -77.04512516666666, "bike_id": "5a749c131fd75cfc929228655da7ce18", "lat": 38.8860375, "fusion_lon": 0.0, "fusion_lat": 0.0, "type": "electric_scooter", "name": "5a749c131fd75cfc929228655da7ce18", "is_disabled": 0, "rental_uris": {"ios": "https://dc.lft.to/lastmile_qr_scan", "android": "https://dc.lft.to/lastmile_qr_scan"}, "is_reserved": 0}, {"lon": -77.0254855, "bike_id": "f802fb3957596027ffa6e6cb062f7427", "lat": 38.9410255, "fusion_lon": 0.0, "fusion_lat": 0.0, "type": "electric_scooter", "name": "f802fb3957596027ffa6e6cb062f7427", "is_disabled": 0, "rental_uris": {"ios": "https://dc.lft.to/lastmile_qr_scan", "android": "https://dc.lft.to/lastmile_qr_scan"}, "is_reserved": 0}, {"lon": -76.984077, "bike_id": "5f7a5805ed02b783c0bed2cc0ca7f27b", "lat": 38.906318166666665, "fusion_lon": 0.0, "fusion_lat": 0.0, "type": "electric_scooter", "name": "5f7a5805ed02b783c0bed2cc0ca7f27b", "is_disabled": 0, "rental_uris": {"ios": "https://dc.lft.to/lastmile_qr_scan", "android": "https://dc.lft.to/lastmile_qr_scan"}, "is_reserved": 0}, {"lon": -77.02623183333333, "bike_id": "1e4289b55a031d9839d56922d454479d", "lat": 38.933558166666664, "fusion_lon": 0.0, "fusion_lat": 0.0, "type": "electric_scooter", "name": "1e4289b55a031d9839d56922d454479d", "is_disabled": 0, "rental_uris": {"ios": "https://dc.lft.to/lastmile_qr_scan", "android": "https://dc.lft.to/lastmile_qr_scan"}, "is_reserved": 0}, {"lon": -77.03779166666666, "bike_id": "95a3200b72e2d7fc8dee06895036692f", "lat": 38.929680833333336, "fusion_lon": 0.0, "fusion_lat": 0.0, "type": "electric_scooter", "name": "95a3200b72e2d7fc8dee06895036692f", "is_disabled": 0, "rental_uris": {"ios": "https://dc.lft.to/lastmile_qr_scan", "android": "https://dc.lft.to/lastmile_qr_scan"}, "is_reserved": 0}, {"lon": -76.98772916666667, "bike_id": "e0d4ebe915d6c9373a5af8879055c640", "lat": 38.86610066666667, "fusion_lon": 0.0, "fusion_lat": 0.0, "type": "electric_bike", "name": "e0d4ebe915d6c9373a5af8879055c640", "is_disabled": 0, "rental_uris": {"ios": "https://dc.lft.to/lastmile_qr_scan", "android": "https://dc.lft.to/lastmile_qr_scan"}, "is_reserved": 0}, {"lon": -76.9893575, "bike_id": "b429ce7485abc80d1e1545342952d6d1", "lat": 38.91837983333333, "fusion_lon": 0.0, "fusion_lat": 0.0, "type": "electric_scooter", "name": "b429ce7485abc80d1e1545342952d6d1", "is_disabled": 0, "rental_uris": {"ios": "https://dc.lft.to/lastmile_qr_scan", "android": "https://dc.lft.to/lastmile_qr_scan"}, "is_reserved": 0}, {"lon": -77.042421, "bike_id": "07506c55c51cbb4a944250c6cf2fbe15", "lat": 38.90961083333333, "fusion_lon": 0.0, "fusion_lat": 0.0, "type": "electric_scooter", "name": "07506c55c51cbb4a944250c6cf2fbe15", "is_disabled": 0, "rental_uris": {"ios": "https://dc.lft.to/lastmile_qr_scan", "android": "https://dc.lft.to/lastmile_qr_scan"}, "is_reserved": 0}, {"lon": -77.025649, "bike_id": "d7b434326b2e9363e864c871e59c5113", "lat": 38.913475, "fusion_lon": 0.0, "fusion_lat": 0.0, "type": "electric_scooter", "name": "d7b434326b2e9363e864c871e59c5113", "is_disabled": 0, "rental_uris": {"ios": "https://dc.lft.to/lastmile_qr_scan", "android": "https://dc.lft.to/lastmile_qr_scan"}, "is_reserved": 0}, {"lon": -77.04157966666666, "bike_id": "27d9413d3370d9408da2730358fa4e65", "lat": 38.917990333333336, "fusion_lon": 0.0, "fusion_lat": 0.0, "type": "electric_scooter", "name": "27d9413d3370d9408da2730358fa4e65", "is_disabled": 0, "rental_uris": {"ios": "https://dc.lft.to/lastmile_qr_scan", "android": "https://dc.lft.to/lastmile_qr_scan"}, "is_reserved": 0}, {"lon": -76.999676, "bike_id": "3eb6c5414681c45f0d0563d2035a45ed", "lat": 38.90852666666667, "fusion_lon": 0.0, "fusion_lat": 0.0, "type": "electric_scooter", "name": "3eb6c5414681c45f0d0563d2035a45ed", "is_disabled": 0, "rental_uris": {"ios": "https://dc.lft.to/lastmile_qr_scan", "android": "https://dc.lft.to/lastmile_qr_scan"}, "is_reserved": 0}, {"lon": -77.00343216666667, "bike_id": "c89cc39833d6b55657333a583f090b7b", "lat": 38.91633083333333, "fusion_lon": 0.0, "fusion_lat": 0.0, "type": "electric_scooter", "name": "c89cc39833d6b55657333a583f090b7b", "is_disabled": 0, "rental_uris": {"ios": "https://dc.lft.to/lastmile_qr_scan", "android": "https://dc.lft.to/lastmile_qr_scan"}, "is_reserved": 0}, {"lon": -76.99173433333333, "bike_id": "1333ab55387735ce703f7d6c84478729", "lat": 38.88990883333334, "fusion_lon": 0.0, "fusion_lat": 0.0, "type": "electric_scooter", "name": "1333ab55387735ce703f7d6c84478729", "is_disabled": 0, "rental_uris": {"ios": "https://dc.lft.to/lastmile_qr_scan", "android": "https://dc.lft.to/lastmile_qr_scan"}, "is_reserved": 0}, {"lon": -77.02447916666667, "bike_id": "f5c4a21fa7acabafcc79d6f297efc876", "lat": 38.923505166666665, "fusion_lon": 0.0, "fusion_lat": 0.0, "type": "electric_scooter", "name": "f5c4a21fa7acabafcc79d6f297efc876", "is_disabled": 0, "rental_uris": {"ios": "https://dc.lft.to/lastmile_qr_scan", "android": "https://dc.lft.to/lastmile_qr_scan"}, "is_reserved": 0}, {"lon": -77.05059916666667, "bike_id": "7082d783b2620c933fbe4bac44a52c33", "lat": 38.925883, "fusion_lon": 0.0, "fusion_lat": 0.0, "type": "electric_scooter", "name": "7082d783b2620c933fbe4bac44a52c33", "is_disabled": 0, "rental_uris": {"ios": "https://dc.lft.to/lastmile_qr_scan", "android": "https://dc.lft.to/lastmile_qr_scan"}, "is_reserved": 0}, {"lon": -77.04162816666667, "bike_id": "d8c40e36c1a649f88e2bb48382ca4547", "lat": 38.90642316666667, "fusion_lon": 0.0, "fusion_lat": 0.0, "type": "electric_scooter", "name": "d8c40e36c1a649f88e2bb48382ca4547", "is_disabled": 0, "rental_uris": {"ios": "https://dc.lft.to/lastmile_qr_scan", "android": "https://dc.lft.to/lastmile_qr_scan"}, "is_reserved": 0}, {"lon": -77.03760383333334, "bike_id": "891d9b9924e640d845cdc103651f6902", "lat": 38.9287895, "fusion_lon": 0.0, "fusion_lat": 0.0, "type": "electric_scooter", "name": "891d9b9924e640d845cdc103651f6902", "is_disabled": 0, "rental_uris": {"ios": "https://dc.lft.to/lastmile_qr_scan", "android": "https://dc.lft.to/lastmile_qr_scan"}, "is_reserved": 0}, {"lon": -76.98458233333334, "bike_id": "dc0b7593304769336c600a454ac77ce2", "lat": 38.9055625, "fusion_lon": 0.0, "fusion_lat": 0.0, "type": "electric_scooter", "name": "dc0b7593304769336c600a454ac77ce2", "is_disabled": 0, "rental_uris": {"ios": "https://dc.lft.to/lastmile_qr_scan", "android": "https://dc.lft.to/lastmile_qr_scan"}, "is_reserved": 0}, {"lon": -77.03207283333333, "bike_id": "5b865c99b7c25ed87374ba331cfe750d", "lat": 38.919670333333336, "fusion_lon": 0.0, "fusion_lat": 0.0, "type": "electric_scooter", "name": "5b865c99b7c25ed87374ba331cfe750d", "is_disabled": 0, "rental_uris": {"ios": "https://dc.lft.to/lastmile_qr_scan", "android": "https://dc.lft.to/lastmile_qr_scan"}, "is_reserved": 0}, {"lon": -77.00652833333334, "bike_id": "1ca5a1012c4fe83cd5e3964c63860c3a", "lat": 38.83890383333333, "fusion_lon": 0.0, "fusion_lat": 0.0, "type": "electric_scooter", "name": "1ca5a1012c4fe83cd5e3964c63860c3a", "is_disabled": 0, "rental_uris": {"ios": "https://dc.lft.to/lastmile_qr_scan", "android": "https://dc.lft.to/lastmile_qr_scan"}, "is_reserved": 0}, {"lon": -76.9300675, "bike_id": "d361dd09aadf89207e373cf182d06c55", "lat": 38.89644933333334, "fusion_lon": 0.0, "fusion_lat": 0.0, "type": "electric_bike", "name": "d361dd09aadf89207e373cf182d06c55", "is_disabled": 0, "rental_uris": {"ios": "https://dc.lft.to/lastmile_qr_scan", "android": "https://dc.lft.to/lastmile_qr_scan"}, "is_reserved": 0}, {"lon": -77.02962816666667, "bike_id": "8dc5c4584297ec840c66344a2546029e", "lat": 38.922914666666664, "fusion_lon": 0.0, "fusion_lat": 0.0, "type": "electric_scooter", "name": "8dc5c4584297ec840c66344a2546029e", "is_disabled": 0, "rental_uris": {"ios": "https://dc.lft.to/lastmile_qr_scan", "android": "https://dc.lft.to/lastmile_qr_scan"}, "is_reserved": 0}, {"lon": -76.93642916666667, "bike_id": "e60697d59b4ceb524d9cfcd4baf9ff1c", "lat": 38.900643333333335, "fusion_lon": 0.0, "fusion_lat": 0.0, "type": "electric_scooter", "name": "e60697d59b4ceb524d9cfcd4baf9ff1c", "is_disabled": 0, "rental_uris": {"ios": "https://dc.lft.to/lastmile_qr_scan", "android": "https://dc.lft.to/lastmile_qr_scan"}, "is_reserved": 0}, {"lon": -76.95747816666666, "bike_id": "d633c005b4a463e7e448af74d6da8418", "lat": 38.884383166666666, "fusion_lon": 0.0, "fusion_lat": 0.0, "type": "electric_scooter", "name": "d633c005b4a463e7e448af74d6da8418", "is_disabled": 0, "rental_uris": {"ios": "https://dc.lft.to/lastmile_qr_scan", "android": "https://dc.lft.to/lastmile_qr_scan"}, "is_reserved": 0}, {"lon": -77.038682, "bike_id": "440ea836674c584155e18e0ba04a83b1", "lat": 38.91555016666667, "fusion_lon": 0.0, "fusion_lat": 0.0, "type": "electric_scooter", "name": "440ea836674c584155e18e0ba04a83b1", "is_disabled": 0, "rental_uris": {"ios": "https://dc.lft.to/lastmile_qr_scan", "android": "https://dc.lft.to/lastmile_qr_scan"}, "is_reserved": 0}, {"lon": -77.0328855, "bike_id": "27f4febf661820be5e2e41bef6327d9e", "lat": 38.956503166666664, "fusion_lon": 0.0, "fusion_lat": 0.0, "type": "electric_scooter", "name": "27f4febf661820be5e2e41bef6327d9e", "is_disabled": 0, "rental_uris": {"ios": "https://dc.lft.to/lastmile_qr_scan", "android": "https://dc.lft.to/lastmile_qr_scan"}, "is_reserved": 0}, {"lon": -76.874954, "bike_id": "cdf8110c2ccc5fed6f8b456e1d3e46e0", "lat": 38.990922, "fusion_lon": 0.0, "fusion_lat": 0.0, "type": "electric_bike", "name": "cdf8110c2ccc5fed6f8b456e1d3e46e0", "is_disabled": 0, "rental_uris": {"ios": "https://dc.lft.to/lastmile_qr_scan", "android": "https://dc.lft.to/lastmile_qr_scan"}, "is_reserved": 0}, {"lon": -76.9317555, "bike_id": "b0f062fae77c72e22f34db09b0aad9a4", "lat": 38.898841, "fusion_lon": 0.0, "fusion_lat": 0.0, "type": "electric_scooter", "name": "b0f062fae77c72e22f34db09b0aad9a4", "is_disabled": 0, "rental_uris": {"ios": "https://dc.lft.to/lastmile_qr_scan", "android": "https://dc.lft.to/lastmile_qr_scan"}, "is_reserved": 0}, {"lon": -77.03865866666666, "bike_id": "a845a2dcd2dbd5f92bb380d2f2c4d74e", "lat": 38.91259933333333, "fusion_lon": 0.0, "fusion_lat": 0.0, "type": "electric_scooter", "name": "a845a2dcd2dbd5f92bb380d2f2c4d74e", "is_disabled": 0, "rental_uris": {"ios": "https://dc.lft.to/lastmile_qr_scan", "android": "https://dc.lft.to/lastmile_qr_scan"}, "is_reserved": 0}, {"lon": -77.07165216666667, "bike_id": "44eec7803f263c04c045ceb1382855c3", "lat": 38.90801066666667, "fusion_lon": 0.0, "fusion_lat": 0.0, "type": "electric_bike", "name": "44eec7803f263c04c045ceb1382855c3", "is_disabled": 0, "rental_uris": {"ios": "https://dc.lft.to/lastmile_qr_scan", "android": "https://dc.lft.to/lastmile_qr_scan"}, "is_reserved": 0}, {"lon": -77.03426816666666, "bike_id": "7c50ab471fc93f613c10b732019b063f", "lat": 38.9335645, "fusion_lon": 0.0, "fusion_lat": 0.0, "type": "electric_scooter", "name": "7c50ab471fc93f613c10b732019b063f", "is_disabled": 0, "rental_uris": {"ios": "https://dc.lft.to/lastmile_qr_scan", "android": "https://dc.lft.to/lastmile_qr_scan"}, "is_reserved": 0}, {"lon": -77.03260983333334, "bike_id": "690ae4c782eec050c742f3c46f1a2cea", "lat": 38.920542, "fusion_lon": 0.0, "fusion_lat": 0.0, "type": "electric_scooter", "name": "690ae4c782eec050c742f3c46f1a2cea", "is_disabled": 0, "rental_uris": {"ios": "https://dc.lft.to/lastmile_qr_scan", "android": "https://dc.lft.to/lastmile_qr_scan"}, "is_reserved": 0}, {"lon": -77.03453816666666, "bike_id": "49f210591f327f06367f65eb5befad5c", "lat": 38.91504333333334, "fusion_lon": 0.0, "fusion_lat": 0.0, "type": "electric_scooter", "name": "49f210591f327f06367f65eb5befad5c", "is_disabled": 0, "rental_uris": {"ios": "https://dc.lft.to/lastmile_qr_scan", "android": "https://dc.lft.to/lastmile_qr_scan"}, "is_reserved": 0}, {"lon": -77.0220725, "bike_id": "b57c7eab09c61de39236155301241da0", "lat": 38.896231666666665, "fusion_lon": 0.0, "fusion_lat": 0.0, "type": "electric_scooter", "name": "b57c7eab09c61de39236155301241da0", "is_disabled": 0, "rental_uris": {"ios": "https://dc.lft.to/lastmile_qr_scan", "android": "https://dc.lft.to/lastmile_qr_scan"}, "is_reserved": 0}, {"lon": -77.03824583333333, "bike_id": "a9a0077205c23d112a94b7ce6f400a59", "lat": 38.9067575, "fusion_lon": 0.0, "fusion_lat": 0.0, "type": "electric_scooter", "name": "a9a0077205c23d112a94b7ce6f400a59", "is_disabled": 0, "rental_uris": {"ios": "https://dc.lft.to/lastmile_qr_scan", "android": "https://dc.lft.to/lastmile_qr_scan"}, "is_reserved": 0}, {"lon": -77.03293416666666, "bike_id": "a8c8c05c0ceaa76a986aa3853efdde52", "lat": 38.928577, "fusion_lon": 0.0, "fusion_lat": 0.0, "type": "electric_scooter", "name": "a8c8c05c0ceaa76a986aa3853efdde52", "is_disabled": 0, "rental_uris": {"ios": "https://dc.lft.to/lastmile_qr_scan", "android": "https://dc.lft.to/lastmile_qr_scan"}, "is_reserved": 0}, {"lon": -77.00544566666666, "bike_id": "2adef624deab44a6a62fc96e3b9e0db3", "lat": 38.900383, "fusion_lon": 0.0, "fusion_lat": 0.0, "type": "electric_scooter", "name": "2adef624deab44a6a62fc96e3b9e0db3", "is_disabled": 0, "rental_uris": {"ios": "https://dc.lft.to/lastmile_qr_scan", "android": "https://dc.lft.to/lastmile_qr_scan"}, "is_reserved": 0}, {"lon": -77.04247766666667, "bike_id": "19ead7ed118db151628f6633cfa8a71c", "lat": 38.9094015, "fusion_lon": 0.0, "fusion_lat": 0.0, "type": "electric_scooter", "name": "19ead7ed118db151628f6633cfa8a71c", "is_disabled": 0, "rental_uris": {"ios": "https://dc.lft.to/lastmile_qr_scan", "android": "https://dc.lft.to/lastmile_qr_scan"}, "is_reserved": 0}, {"lon": -76.9890245, "bike_id": "2efe51b317fdf9f5bab2756a3d10c67e", "lat": 38.91346333333333, "fusion_lon": 0.0, "fusion_lat": 0.0, "type": "electric_scooter", "name": "2efe51b317fdf9f5bab2756a3d10c67e", "is_disabled": 0, "rental_uris": {"ios": "https://dc.lft.to/lastmile_qr_scan", "android": "https://dc.lft.to/lastmile_qr_scan"}, "is_reserved": 0}, {"lon": -77.00843966666666, "bike_id": "667b336b0665652decf698440b9eb0fe", "lat": 38.916243, "fusion_lon": 0.0, "fusion_lat": 0.0, "type": "electric_scooter", "name": "667b336b0665652decf698440b9eb0fe", "is_disabled": 0, "rental_uris": {"ios": "https://dc.lft.to/lastmile_qr_scan", "android": "https://dc.lft.to/lastmile_qr_scan"}, "is_reserved": 0}, {"lon": -77.03441616666667, "bike_id": "bab4a1ce97b903e81e8798abc37448bb", "lat": 38.90980283333333, "fusion_lon": 0.0, "fusion_lat": 0.0, "type": "electric_scooter", "name": "bab4a1ce97b903e81e8798abc37448bb", "is_disabled": 0, "rental_uris": {"ios": "https://dc.lft.to/lastmile_qr_scan", "android": "https://dc.lft.to/lastmile_qr_scan"}, "is_reserved": 0}, {"lon": -77.020968, "bike_id": "9c21ddb75722b34813b1c14b6035e707", "lat": 38.931216, "fusion_lon": 0.0, "fusion_lat": 0.0, "type": "electric_scooter", "name": "9c21ddb75722b34813b1c14b6035e707", "is_disabled": 0, "rental_uris": {"ios": "https://dc.lft.to/lastmile_qr_scan", "android": "https://dc.lft.to/lastmile_qr_scan"}, "is_reserved": 0}, {"lon": -77.01621916666667, "bike_id": "d0ea11ac8cae30156e018653f00b3ba4", "lat": 38.901813833333335, "fusion_lon": 0.0, "fusion_lat": 0.0, "type": "electric_scooter", "name": "d0ea11ac8cae30156e018653f00b3ba4", "is_disabled": 0, "rental_uris": {"ios": "https://dc.lft.to/lastmile_qr_scan", "android": "https://dc.lft.to/lastmile_qr_scan"}, "is_reserved": 0}, {"lon": -77.02710533333334, "bike_id": "c30dccc713a6690fb27a927a1b336843", "lat": 38.93475516666667, "fusion_lon": 0.0, "fusion_lat": 0.0, "type": "electric_scooter", "name": "c30dccc713a6690fb27a927a1b336843", "is_disabled": 0, "rental_uris": {"ios": "https://dc.lft.to/lastmile_qr_scan", "android": "https://dc.lft.to/lastmile_qr_scan"}, "is_reserved": 0}, {"lon": -77.05126583333333, "bike_id": "e82a3899d927aa81382caa8c5969b2aa", "lat": 38.923642666666666, "fusion_lon": 0.0, "fusion_lat": 0.0, "type": "electric_scooter", "name": "e82a3899d927aa81382caa8c5969b2aa", "is_disabled": 0, "rental_uris": {"ios": "https://dc.lft.to/lastmile_qr_scan", "android": "https://dc.lft.to/lastmile_qr_scan"}, "is_reserved": 0}, {"lon": -77.06424466666667, "bike_id": "59a079b2dab95bc5157fc5e2f61b4cd1", "lat": 38.908898, "fusion_lon": 0.0, "fusion_lat": 0.0, "type": "electric_scooter", "name": "59a079b2dab95bc5157fc5e2f61b4cd1", "is_disabled": 0, "rental_uris": {"ios": "https://dc.lft.to/lastmile_qr_scan", "android": "https://dc.lft.to/lastmile_qr_scan"}, "is_reserved": 0}, {"lon": -77.03405, "bike_id": "d9a947fd3407e7d68a582ea017d567da", "lat": 38.96033883333333, "fusion_lon": 0.0, "fusion_lat": 0.0, "type": "electric_bike", "name": "d9a947fd3407e7d68a582ea017d567da", "is_disabled": 0, "rental_uris": {"ios": "https://dc.lft.to/lastmile_qr_scan", "android": "https://dc.lft.to/lastmile_qr_scan"}, "is_reserved": 0}, {"lon": -77.00333766666667, "bike_id": "75d8e14d8fb5246125a9bf5432599d60", "lat": 38.906055, "fusion_lon": 0.0, "fusion_lat": 0.0, "type": "electric_scooter", "name": "75d8e14d8fb5246125a9bf5432599d60", "is_disabled": 0, "rental_uris": {"ios": "https://dc.lft.to/lastmile_qr_scan", "android": "https://dc.lft.to/lastmile_qr_scan"}, "is_reserved": 0}, {"lon": -77.00280516666666, "bike_id": "549379c900767226e6e76049c0f0fa12", "lat": 38.95714616666667, "fusion_lon": 0.0, "fusion_lat": 0.0, "type": "electric_bike", "name": "549379c900767226e6e76049c0f0fa12", "is_disabled": 0, "rental_uris": {"ios": "https://dc.lft.to/lastmile_qr_scan", "android": "https://dc.lft.to/lastmile_qr_scan"}, "is_reserved": 0}, {"lon": -77.04326366666666, "bike_id": "0e3cb3474f8a73f42585743be107b027", "lat": 38.918759, "fusion_lon": 0.0, "fusion_lat": 0.0, "type": "electric_scooter", "name": "0e3cb3474f8a73f42585743be107b027", "is_disabled": 0, "rental_uris": {"ios": "https://dc.lft.to/lastmile_qr_scan", "android": "https://dc.lft.to/lastmile_qr_scan"}, "is_reserved": 0}, {"lon": -76.99851666666666, "bike_id": "d0982b1161e641185db8d2bf04135696", "lat": 38.841646, "fusion_lon": 0.0, "fusion_lat": 0.0, "type": "electric_scooter", "name": "d0982b1161e641185db8d2bf04135696", "is_disabled": 0, "rental_uris": {"ios": "https://dc.lft.to/lastmile_qr_scan", "android": "https://dc.lft.to/lastmile_qr_scan"}, "is_reserved": 0}, {"lon": -77.03419, "bike_id": "949c1688394f481146463ef24d126d30", "lat": 38.927501166666666, "fusion_lon": 0.0, "fusion_lat": 0.0, "type": "electric_scooter", "name": "949c1688394f481146463ef24d126d30", "is_disabled": 0, "rental_uris": {"ios": "https://dc.lft.to/lastmile_qr_scan", "android": "https://dc.lft.to/lastmile_qr_scan"}, "is_reserved": 0}, {"lon": -77.12494616666666, "bike_id": "5a9f7b54d045b4c4ed50685452f4a64f", "lat": 38.827970666666666, "fusion_lon": 0.0, "fusion_lat": 0.0, "type": "electric_bike", "name": "5a9f7b54d045b4c4ed50685452f4a64f", "is_disabled": 0, "rental_uris": {"ios": "https://dc.lft.to/lastmile_qr_scan", "android": "https://dc.lft.to/lastmile_qr_scan"}, "is_reserved": 0}, {"lon": -77.02319916666667, "bike_id": "d46fe2a77b687f26fb64d3675286b02c", "lat": 38.92781883333333, "fusion_lon": 0.0, "fusion_lat": 0.0, "type": "electric_scooter", "name": "d46fe2a77b687f26fb64d3675286b02c", "is_disabled": 0, "rental_uris": {"ios": "https://dc.lft.to/lastmile_qr_scan", "android": "https://dc.lft.to/lastmile_qr_scan"}, "is_reserved": 0}, {"lon": -76.98566433333333, "bike_id": "39d46a62c6697ea6c635fe897e475794", "lat": 38.8995665, "fusion_lon": 0.0, "fusion_lat": 0.0, "type": "electric_scooter", "name": "39d46a62c6697ea6c635fe897e475794", "is_disabled": 0, "rental_uris": {"ios": "https://dc.lft.to/lastmile_qr_scan", "android": "https://dc.lft.to/lastmile_qr_scan"}, "is_reserved": 0}, {"lon": -77.04406166666666, "bike_id": "4b204b468d5c1e487ffae7fd5a367026", "lat": 38.921239, "fusion_lon": 0.0, "fusion_lat": 0.0, "type": "electric_scooter", "name": "4b204b468d5c1e487ffae7fd5a367026", "is_disabled": 0, "rental_uris": {"ios": "https://dc.lft.to/lastmile_qr_scan", "android": "https://dc.lft.to/lastmile_qr_scan"}, "is_reserved": 0}, {"lon": -77.0426655, "bike_id": "c41c3ee4f57bdefbd372b94f785c3e51", "lat": 38.9073295, "fusion_lon": 0.0, "fusion_lat": 0.0, "type": "electric_scooter", "name": "c41c3ee4f57bdefbd372b94f785c3e51", "is_disabled": 0, "rental_uris": {"ios": "https://dc.lft.to/lastmile_qr_scan", "android": "https://dc.lft.to/lastmile_qr_scan"}, "is_reserved": 0}, {"lon": -77.0415605, "bike_id": "1a9b78b7962529cbfab2b3db01685e3f", "lat": 38.914252166666664, "fusion_lon": 0.0, "fusion_lat": 0.0, "type": "electric_scooter", "name": "1a9b78b7962529cbfab2b3db01685e3f", "is_disabled": 0, "rental_uris": {"ios": "https://dc.lft.to/lastmile_qr_scan", "android": "https://dc.lft.to/lastmile_qr_scan"}, "is_reserved": 0}, {"lon": -77.0516365, "bike_id": "6e5e74f2458854470dc74133d931b044", "lat": 39.04313483333333, "fusion_lon": 0.0, "fusion_lat": 0.0, "type": "electric_bike", "name": "6e5e74f2458854470dc74133d931b044", "is_disabled": 0, "rental_uris": {"ios": "https://dc.lft.to/lastmile_qr_scan", "android": "https://dc.lft.to/lastmile_qr_scan"}, "is_reserved": 0}, {"lon": -77.03177766666667, "bike_id": "26d244f857bff4338dd1c15c0a5f35b9", "lat": 38.93694416666666, "fusion_lon": 0.0, "fusion_lat": 0.0, "type": "electric_scooter", "name": "26d244f857bff4338dd1c15c0a5f35b9", "is_disabled": 0, "rental_uris": {"ios": "https://dc.lft.to/lastmile_qr_scan", "android": "https://dc.lft.to/lastmile_qr_scan"}, "is_reserved": 0}, {"lon": -77.03345316666666, "bike_id": "a30bcb123351c7a1547c23c5fac02a86", "lat": 38.89251216666667, "fusion_lon": 0.0, "fusion_lat": 0.0, "type": "electric_scooter", "name": "a30bcb123351c7a1547c23c5fac02a86", "is_disabled": 0, "rental_uris": {"ios": "https://dc.lft.to/lastmile_qr_scan", "android": "https://dc.lft.to/lastmile_qr_scan"}, "is_reserved": 0}, {"lon": -77.0120815, "bike_id": "1079fb1e1f0cdba19e7ee7f8c985064f", "lat": 38.92122416666667, "fusion_lon": 0.0, "fusion_lat": 0.0, "type": "electric_scooter", "name": "1079fb1e1f0cdba19e7ee7f8c985064f", "is_disabled": 0, "rental_uris": {"ios": "https://dc.lft.to/lastmile_qr_scan", "android": "https://dc.lft.to/lastmile_qr_scan"}, "is_reserved": 0}, {"lon": -76.93006166666666, "bike_id": "f86b7a9d70d3ef0c23df6c45920654cd", "lat": 38.891964333333334, "fusion_lon": 0.0, "fusion_lat": 0.0, "type": "electric_scooter", "name": "f86b7a9d70d3ef0c23df6c45920654cd", "is_disabled": 0, "rental_uris": {"ios": "https://dc.lft.to/lastmile_qr_scan", "android": "https://dc.lft.to/lastmile_qr_scan"}, "is_reserved": 0}, {"lon": -77.05695466666667, "bike_id": "2b468463e3e7c73255c0f004e377ef53", "lat": 38.937226833333334, "fusion_lon": 0.0, "fusion_lat": 0.0, "type": "electric_scooter", "name": "2b468463e3e7c73255c0f004e377ef53", "is_disabled": 0, "rental_uris": {"ios": "https://dc.lft.to/lastmile_qr_scan", "android": "https://dc.lft.to/lastmile_qr_scan"}, "is_reserved": 0}, {"lon": -76.97537266666667, "bike_id": "9267f6a18be3412fce15d85849f03adf", "lat": 38.8642705, "fusion_lon": 0.0, "fusion_lat": 0.0, "type": "electric_scooter", "name": "9267f6a18be3412fce15d85849f03adf", "is_disabled": 0, "rental_uris": {"ios": "https://dc.lft.to/lastmile_qr_scan", "android": "https://dc.lft.to/lastmile_qr_scan"}, "is_reserved": 0}, {"lon": -77.006259, "bike_id": "3395c20e3dd1ebfd179b1943a5f02214", "lat": 38.9126025, "fusion_lon": 0.0, "fusion_lat": 0.0, "type": "electric_scooter", "name": "3395c20e3dd1ebfd179b1943a5f02214", "is_disabled": 0, "rental_uris": {"ios": "https://dc.lft.to/lastmile_qr_scan", "android": "https://dc.lft.to/lastmile_qr_scan"}, "is_reserved": 0}, {"lon": -76.99530883333334, "bike_id": "20b6adaba63c7b3c6a4fc47660179999", "lat": 38.8837445, "fusion_lon": 0.0, "fusion_lat": 0.0, "type": "electric_scooter", "name": "20b6adaba63c7b3c6a4fc47660179999", "is_disabled": 0, "rental_uris": {"ios": "https://dc.lft.to/lastmile_qr_scan", "android": "https://dc.lft.to/lastmile_qr_scan"}, "is_reserved": 0}, {"lon": -77.05721233333334, "bike_id": "8b3dc918be994aeeb928b0c1828972b0", "lat": 38.9336865, "fusion_lon": 0.0, "fusion_lat": 0.0, "type": "electric_scooter", "name": "8b3dc918be994aeeb928b0c1828972b0", "is_disabled": 0, "rental_uris": {"ios": "https://dc.lft.to/lastmile_qr_scan", "android": "https://dc.lft.to/lastmile_qr_scan"}, "is_reserved": 0}, {"lon": -77.00071666666666, "bike_id": "9614dcf7c09d3b5e17030b0052fe04b2", "lat": 38.89507666666667, "fusion_lon": 0.0, "fusion_lat": 0.0, "type": "electric_scooter", "name": "9614dcf7c09d3b5e17030b0052fe04b2", "is_disabled": 0, "rental_uris": {"ios": "https://dc.lft.to/lastmile_qr_scan", "android": "https://dc.lft.to/lastmile_qr_scan"}, "is_reserved": 0}, {"lon": -77.01876166666666, "bike_id": "b7d034f424f9bb63c7f467a6eabe9741", "lat": 38.91824866666666, "fusion_lon": 0.0, "fusion_lat": 0.0, "type": "electric_scooter", "name": "b7d034f424f9bb63c7f467a6eabe9741", "is_disabled": 0, "rental_uris": {"ios": "https://dc.lft.to/lastmile_qr_scan", "android": "https://dc.lft.to/lastmile_qr_scan"}, "is_reserved": 0}, {"lon": -77.04332383333333, "bike_id": "7d609133167e79c2f646483bb91da16e", "lat": 38.922234833333334, "fusion_lon": 0.0, "fusion_lat": 0.0, "type": "electric_scooter", "name": "7d609133167e79c2f646483bb91da16e", "is_disabled": 0, "rental_uris": {"ios": "https://dc.lft.to/lastmile_qr_scan", "android": "https://dc.lft.to/lastmile_qr_scan"}, "is_reserved": 0}, {"lon": -76.9823125, "bike_id": "71c2b7ad8636e3c1297a4be669d8a19d", "lat": 38.886553166666666, "fusion_lon": 0.0, "fusion_lat": 0.0, "type": "electric_scooter", "name": "71c2b7ad8636e3c1297a4be669d8a19d", "is_disabled": 0, "rental_uris": {"ios": "https://dc.lft.to/lastmile_qr_scan", "android": "https://dc.lft.to/lastmile_qr_scan"}, "is_reserved": 0}, {"lon": -77.10487133333334, "bike_id": "2dd475ac722c755fd5fd6f6bd2788b6b", "lat": 38.856117833333336, "fusion_lon": 0.0, "fusion_lat": 0.0, "type": "electric_bike", "name": "2dd475ac722c755fd5fd6f6bd2788b6b", "is_disabled": 0, "rental_uris": {"ios": "https://dc.lft.to/lastmile_qr_scan", "android": "https://dc.lft.to/lastmile_qr_scan"}, "is_reserved": 0}, {"lon": -76.99108866666667, "bike_id": "2eb8563a595d042e3c9afd7e4237f622", "lat": 38.9032165, "fusion_lon": 0.0, "fusion_lat": 0.0, "type": "electric_scooter", "name": "2eb8563a595d042e3c9afd7e4237f622", "is_disabled": 0, "rental_uris": {"ios": "https://dc.lft.to/lastmile_qr_scan", "android": "https://dc.lft.to/lastmile_qr_scan"}, "is_reserved": 0}, {"lon": -77.04639733333333, "bike_id": "8146af4b537d928e0fe6abd3217369fa", "lat": 38.91909733333333, "fusion_lon": 0.0, "fusion_lat": 0.0, "type": "electric_scooter", "name": "8146af4b537d928e0fe6abd3217369fa", "is_disabled": 0, "rental_uris": {"ios": "https://dc.lft.to/lastmile_qr_scan", "android": "https://dc.lft.to/lastmile_qr_scan"}, "is_reserved": 0}, {"lon": -77.04817083333333, "bike_id": "f9d02c17ec0478f2d4bb67c4dc012f10", "lat": 38.907329833333336, "fusion_lon": 0.0, "fusion_lat": 0.0, "type": "electric_scooter", "name": "f9d02c17ec0478f2d4bb67c4dc012f10", "is_disabled": 0, "rental_uris": {"ios": "https://dc.lft.to/lastmile_qr_scan", "android": "https://dc.lft.to/lastmile_qr_scan"}, "is_reserved": 0}, {"lon": -77.026814, "bike_id": "4dd915cd601106d9b73c13ce0880e409", "lat": 38.94326316666667, "fusion_lon": 0.0, "fusion_lat": 0.0, "type": "electric_scooter", "name": "4dd915cd601106d9b73c13ce0880e409", "is_disabled": 0, "rental_uris": {"ios": "https://dc.lft.to/lastmile_qr_scan", "android": "https://dc.lft.to/lastmile_qr_scan"}, "is_reserved": 0}, {"lon": -77.00211533333334, "bike_id": "238b1f4403317cbe4754717f7c91e48f", "lat": 38.88133066666666, "fusion_lon": 0.0, "fusion_lat": 0.0, "type": "electric_scooter", "name": "238b1f4403317cbe4754717f7c91e48f", "is_disabled": 0, "rental_uris": {"ios": "https://dc.lft.to/lastmile_qr_scan", "android": "https://dc.lft.to/lastmile_qr_scan"}, "is_reserved": 0}, {"lon": -77.03181383333333, "bike_id": "4a638336ef5e34b5cf7f43272b90a518", "lat": 38.91204533333333, "fusion_lon": 0.0, "fusion_lat": 0.0, "type": "electric_scooter", "name": "4a638336ef5e34b5cf7f43272b90a518", "is_disabled": 0, "rental_uris": {"ios": "https://dc.lft.to/lastmile_qr_scan", "android": "https://dc.lft.to/lastmile_qr_scan"}, "is_reserved": 0}, {"lon": -76.93378, "bike_id": "b86c0403e4c18ad3122f383571afc390", "lat": 38.91031983333333, "fusion_lon": 0.0, "fusion_lat": 0.0, "type": "electric_scooter", "name": "b86c0403e4c18ad3122f383571afc390", "is_disabled": 0, "rental_uris": {"ios": "https://dc.lft.to/lastmile_qr_scan", "android": "https://dc.lft.to/lastmile_qr_scan"}, "is_reserved": 0}, {"lon": -77.044422, "bike_id": "08c69f62407c40e74ece3cae6fae3681", "lat": 38.91882016666667, "fusion_lon": 0.0, "fusion_lat": 0.0, "type": "electric_scooter", "name": "08c69f62407c40e74ece3cae6fae3681", "is_disabled": 0, "rental_uris": {"ios": "https://dc.lft.to/lastmile_qr_scan", "android": "https://dc.lft.to/lastmile_qr_scan"}, "is_reserved": 0}, {"lon": -76.93346383333333, "bike_id": "29c031f4e6215d7419e2dee644685887", "lat": 38.89903983333333, "fusion_lon": 0.0, "fusion_lat": 0.0, "type": "electric_scooter", "name": "29c031f4e6215d7419e2dee644685887", "is_disabled": 0, "rental_uris": {"ios": "https://dc.lft.to/lastmile_qr_scan", "android": "https://dc.lft.to/lastmile_qr_scan"}, "is_reserved": 0}, {"lon": -77.12654083333334, "bike_id": "da19aeab967e714883b162356ff3e9c2", "lat": 38.81523083333333, "fusion_lon": 0.0, "fusion_lat": 0.0, "type": "electric_bike", "name": "da19aeab967e714883b162356ff3e9c2", "is_disabled": 0, "rental_uris": {"ios": "https://dc.lft.to/lastmile_qr_scan", "android": "https://dc.lft.to/lastmile_qr_scan"}, "is_reserved": 0}, {"lon": -76.9856055, "bike_id": "575e8340eeff925cb78bfdcfb16f8f23", "lat": 38.8995575, "fusion_lon": 0.0, "fusion_lat": 0.0, "type": "electric_scooter", "name": "575e8340eeff925cb78bfdcfb16f8f23", "is_disabled": 0, "rental_uris": {"ios": "https://dc.lft.to/lastmile_qr_scan", "android": "https://dc.lft.to/lastmile_qr_scan"}, "is_reserved": 0}, {"lon": -76.98174583333333, "bike_id": "f4751de05b3605dfbc803bac70a881b4", "lat": 38.926115, "fusion_lon": 0.0, "fusion_lat": 0.0, "type": "electric_scooter", "name": "f4751de05b3605dfbc803bac70a881b4", "is_disabled": 0, "rental_uris": {"ios": "https://dc.lft.to/lastmile_qr_scan", "android": "https://dc.lft.to/lastmile_qr_scan"}, "is_reserved": 0}, {"lon": -77.0215865, "bike_id": "c63ab2043581f45a1eeba6c3cd98ec73", "lat": 38.926058833333336, "fusion_lon": 0.0, "fusion_lat": 0.0, "type": "electric_scooter", "name": "c63ab2043581f45a1eeba6c3cd98ec73", "is_disabled": 0, "rental_uris": {"ios": "https://dc.lft.to/lastmile_qr_scan", "android": "https://dc.lft.to/lastmile_qr_scan"}, "is_reserved": 0}, {"lon": -77.04344883333333, "bike_id": "ac8a66f293d27fab4e00a5de1ce83f86", "lat": 38.91053866666667, "fusion_lon": 0.0, "fusion_lat": 0.0, "type": "electric_scooter", "name": "ac8a66f293d27fab4e00a5de1ce83f86", "is_disabled": 0, "rental_uris": {"ios": "https://dc.lft.to/lastmile_qr_scan", "android": "https://dc.lft.to/lastmile_qr_scan"}, "is_reserved": 0}, {"lon": -76.95573666666667, "bike_id": "c00d3d24fcd4295515eab3df21a37ec3", "lat": 38.8877055, "fusion_lon": 0.0, "fusion_lat": 0.0, "type": "electric_scooter", "name": "c00d3d24fcd4295515eab3df21a37ec3", "is_disabled": 0, "rental_uris": {"ios": "https://dc.lft.to/lastmile_qr_scan", "android": "https://dc.lft.to/lastmile_qr_scan"}, "is_reserved": 0}, {"lon": -77.02219066666666, "bike_id": "de4891bd5268a8ba2f7f2d3ce75bcb39", "lat": 38.926141333333334, "fusion_lon": 0.0, "fusion_lat": 0.0, "type": "electric_scooter", "name": "de4891bd5268a8ba2f7f2d3ce75bcb39", "is_disabled": 0, "rental_uris": {"ios": "https://dc.lft.to/lastmile_qr_scan", "android": "https://dc.lft.to/lastmile_qr_scan"}, "is_reserved": 0}, {"lon": -77.0439235, "bike_id": "ff0fb078cfbe5d21e9a93c228038c741", "lat": 39.047194, "fusion_lon": 0.0, "fusion_lat": 0.0, "type": "electric_bike", "name": "ff0fb078cfbe5d21e9a93c228038c741", "is_disabled": 0, "rental_uris": {"ios": "https://dc.lft.to/lastmile_qr_scan", "android": "https://dc.lft.to/lastmile_qr_scan"}, "is_reserved": 0}, {"lon": -77.02840383333333, "bike_id": "7ec8b3672ea10f8df8b1e62a39e8cf40", "lat": 38.925756666666665, "fusion_lon": 0.0, "fusion_lat": 0.0, "type": "electric_scooter", "name": "7ec8b3672ea10f8df8b1e62a39e8cf40", "is_disabled": 0, "rental_uris": {"ios": "https://dc.lft.to/lastmile_qr_scan", "android": "https://dc.lft.to/lastmile_qr_scan"}, "is_reserved": 0}, {"lon": -77.046647, "bike_id": "5ba324b8251dfea596e466fb1fc2fa84", "lat": 38.898347333333334, "fusion_lon": 0.0, "fusion_lat": 0.0, "type": "electric_scooter", "name": "5ba324b8251dfea596e466fb1fc2fa84", "is_disabled": 0, "rental_uris": {"ios": "https://dc.lft.to/lastmile_qr_scan", "android": "https://dc.lft.to/lastmile_qr_scan"}, "is_reserved": 0}, {"lon": -77.02239916666667, "bike_id": "da1b6e7cae88aa3af0b7caae7a22364f", "lat": 38.962154166666664, "fusion_lon": 0.0, "fusion_lat": 0.0, "type": "electric_bike", "name": "da1b6e7cae88aa3af0b7caae7a22364f", "is_disabled": 0, "rental_uris": {"ios": "https://dc.lft.to/lastmile_qr_scan", "android": "https://dc.lft.to/lastmile_qr_scan"}, "is_reserved": 0}, {"lon": -77.05257183333333, "bike_id": "734639b83c9b9bcccf4c0158cf566bd4", "lat": 38.89998283333333, "fusion_lon": 0.0, "fusion_lat": 0.0, "type": "electric_scooter", "name": "734639b83c9b9bcccf4c0158cf566bd4", "is_disabled": 0, "rental_uris": {"ios": "https://dc.lft.to/lastmile_qr_scan", "android": "https://dc.lft.to/lastmile_qr_scan"}, "is_reserved": 0}, {"lon": -77.02029816666666, "bike_id": "31e16db1b44af2fc57e4962082532a4f", "lat": 38.92415533333333, "fusion_lon": 0.0, "fusion_lat": 0.0, "type": "electric_scooter", "name": "31e16db1b44af2fc57e4962082532a4f", "is_disabled": 0, "rental_uris": {"ios": "https://dc.lft.to/lastmile_qr_scan", "android": "https://dc.lft.to/lastmile_qr_scan"}, "is_reserved": 0}, {"lon": -77.02520883333334, "bike_id": "4fb0721d62dfa8fded1262cd8236e08e", "lat": 38.912711, "fusion_lon": 0.0, "fusion_lat": 0.0, "type": "electric_scooter", "name": "4fb0721d62dfa8fded1262cd8236e08e", "is_disabled": 0, "rental_uris": {"ios": "https://dc.lft.to/lastmile_qr_scan", "android": "https://dc.lft.to/lastmile_qr_scan"}, "is_reserved": 0}, {"lon": -77.032387, "bike_id": "b42f4271e352bbbe3890c2bc333a7df2", "lat": 38.93026033333334, "fusion_lon": 0.0, "fusion_lat": 0.0, "type": "electric_scooter", "name": "b42f4271e352bbbe3890c2bc333a7df2", "is_disabled": 0, "rental_uris": {"ios": "https://dc.lft.to/lastmile_qr_scan", "android": "https://dc.lft.to/lastmile_qr_scan"}, "is_reserved": 0}, {"lon": -76.98925583333333, "bike_id": "69f42aec377383f6a00e27e7600857f8", "lat": 38.858115, "fusion_lon": 0.0, "fusion_lat": 0.0, "type": "electric_scooter", "name": "69f42aec377383f6a00e27e7600857f8", "is_disabled": 0, "rental_uris": {"ios": "https://dc.lft.to/lastmile_qr_scan", "android": "https://dc.lft.to/lastmile_qr_scan"}, "is_reserved": 0}, {"lon": -77.03384933333334, "bike_id": "438a905a62bc7f269b0ade5d9bf1488f", "lat": 38.9098325, "fusion_lon": 0.0, "fusion_lat": 0.0, "type": "electric_scooter", "name": "438a905a62bc7f269b0ade5d9bf1488f", "is_disabled": 0, "rental_uris": {"ios": "https://dc.lft.to/lastmile_qr_scan", "android": "https://dc.lft.to/lastmile_qr_scan"}, "is_reserved": 0}, {"lon": -77.04326433333334, "bike_id": "dbf0ee9f17da128ef8bc5894bc12ef7b", "lat": 38.9074355, "fusion_lon": 0.0, "fusion_lat": 0.0, "type": "electric_scooter", "name": "dbf0ee9f17da128ef8bc5894bc12ef7b", "is_disabled": 0, "rental_uris": {"ios": "https://dc.lft.to/lastmile_qr_scan", "android": "https://dc.lft.to/lastmile_qr_scan"}, "is_reserved": 0}, {"lon": -77.06348916666667, "bike_id": "4a54fd6316cfd4f52c710e7078afc116", "lat": 38.9059745, "fusion_lon": 0.0, "fusion_lat": 0.0, "type": "electric_scooter", "name": "4a54fd6316cfd4f52c710e7078afc116", "is_disabled": 0, "rental_uris": {"ios": "https://dc.lft.to/lastmile_qr_scan", "android": "https://dc.lft.to/lastmile_qr_scan"}, "is_reserved": 0}, {"lon": -76.98797266666666, "bike_id": "9e9eea016d4c1e218c7f9f881b49c3a3", "lat": 38.892404, "fusion_lon": 0.0, "fusion_lat": 0.0, "type": "electric_scooter", "name": "9e9eea016d4c1e218c7f9f881b49c3a3", "is_disabled": 0, "rental_uris": {"ios": "https://dc.lft.to/lastmile_qr_scan", "android": "https://dc.lft.to/lastmile_qr_scan"}, "is_reserved": 0}, {"lon": -77.105235, "bike_id": "29befde5cc9fa5504abd4d8ba8c53b16", "lat": 38.87377983333333, "fusion_lon": 0.0, "fusion_lat": 0.0, "type": "electric_bike", "name": "29befde5cc9fa5504abd4d8ba8c53b16", "is_disabled": 0, "rental_uris": {"ios": "https://dc.lft.to/lastmile_qr_scan", "android": "https://dc.lft.to/lastmile_qr_scan"}, "is_reserved": 0}, {"lon": -77.07300283333333, "bike_id": "8a3fe08ec9f803f1460e8759ee20c63f", "lat": 38.922864833333335, "fusion_lon": 0.0, "fusion_lat": 0.0, "type": "electric_scooter", "name": "8a3fe08ec9f803f1460e8759ee20c63f", "is_disabled": 0, "rental_uris": {"ios": "https://dc.lft.to/lastmile_qr_scan", "android": "https://dc.lft.to/lastmile_qr_scan"}, "is_reserved": 0}, {"lon": -77.0411295, "bike_id": "8064deb6bfd16001c157596a81f9928b", "lat": 38.91555316666667, "fusion_lon": 0.0, "fusion_lat": 0.0, "type": "electric_scooter", "name": "8064deb6bfd16001c157596a81f9928b", "is_disabled": 0, "rental_uris": {"ios": "https://dc.lft.to/lastmile_qr_scan", "android": "https://dc.lft.to/lastmile_qr_scan"}, "is_reserved": 0}, {"lon": -76.992247, "bike_id": "b365eff58845c15f4371f674b63ef0df", "lat": 38.91874716666667, "fusion_lon": 0.0, "fusion_lat": 0.0, "type": "electric_scooter", "name": "b365eff58845c15f4371f674b63ef0df", "is_disabled": 0, "rental_uris": {"ios": "https://dc.lft.to/lastmile_qr_scan", "android": "https://dc.lft.to/lastmile_qr_scan"}, "is_reserved": 0}, {"lon": -77.02357533333333, "bike_id": "c6b7a51d6e57adb3b7d6cc16ca75bde3", "lat": 38.8962995, "fusion_lon": 0.0, "fusion_lat": 0.0, "type": "electric_scooter", "name": "c6b7a51d6e57adb3b7d6cc16ca75bde3", "is_disabled": 0, "rental_uris": {"ios": "https://dc.lft.to/lastmile_qr_scan", "android": "https://dc.lft.to/lastmile_qr_scan"}, "is_reserved": 0}, {"lon": -76.9926645, "bike_id": "894b8d64aa076131f2689efaa259a15d", "lat": 38.90390716666667, "fusion_lon": 0.0, "fusion_lat": 0.0, "type": "electric_scooter", "name": "894b8d64aa076131f2689efaa259a15d", "is_disabled": 0, "rental_uris": {"ios": "https://dc.lft.to/lastmile_qr_scan", "android": "https://dc.lft.to/lastmile_qr_scan"}, "is_reserved": 0}, {"lon": -77.07827633333333, "bike_id": "2f04690a2b920bd15ee499cc8531fdeb", "lat": 38.92367183333333, "fusion_lon": 0.0, "fusion_lat": 0.0, "type": "electric_scooter", "name": "2f04690a2b920bd15ee499cc8531fdeb", "is_disabled": 0, "rental_uris": {"ios": "https://dc.lft.to/lastmile_qr_scan", "android": "https://dc.lft.to/lastmile_qr_scan"}, "is_reserved": 0}, {"lon": -77.043533, "bike_id": "fd7fbca6164d871724c425fc22f1ae0c", "lat": 38.912257, "fusion_lon": 0.0, "fusion_lat": 0.0, "type": "electric_scooter", "name": "fd7fbca6164d871724c425fc22f1ae0c", "is_disabled": 0, "rental_uris": {"ios": "https://dc.lft.to/lastmile_qr_scan", "android": "https://dc.lft.to/lastmile_qr_scan"}, "is_reserved": 0}, {"lon": -77.06288216666667, "bike_id": "81560d953e044403044ff815f0c22ab7", "lat": 38.91322383333333, "fusion_lon": 0.0, "fusion_lat": 0.0, "type": "electric_bike", "name": "81560d953e044403044ff815f0c22ab7", "is_disabled": 0, "rental_uris": {"ios": "https://dc.lft.to/lastmile_qr_scan", "android": "https://dc.lft.to/lastmile_qr_scan"}, "is_reserved": 0}, {"lon": -77.03229883333333, "bike_id": "157423ee735c3f29f1ddb797e9049cbe", "lat": 38.929943, "fusion_lon": 0.0, "fusion_lat": 0.0, "type": "electric_scooter", "name": "157423ee735c3f29f1ddb797e9049cbe", "is_disabled": 0, "rental_uris": {"ios": "https://dc.lft.to/lastmile_qr_scan", "android": "https://dc.lft.to/lastmile_qr_scan"}, "is_reserved": 0}, {"lon": -77.0595765, "bike_id": "437551e335c6100e7f6b4f250aa8f101", "lat": 38.90519583333333, "fusion_lon": 0.0, "fusion_lat": 0.0, "type": "electric_scooter", "name": "437551e335c6100e7f6b4f250aa8f101", "is_disabled": 0, "rental_uris": {"ios": "https://dc.lft.to/lastmile_qr_scan", "android": "https://dc.lft.to/lastmile_qr_scan"}, "is_reserved": 0}, {"lon": -76.98140416666666, "bike_id": "4dfe1f7b98b6aa86f067cf326ca96a1e", "lat": 38.90565566666667, "fusion_lon": 0.0, "fusion_lat": 0.0, "type": "electric_scooter", "name": "4dfe1f7b98b6aa86f067cf326ca96a1e", "is_disabled": 0, "rental_uris": {"ios": "https://dc.lft.to/lastmile_qr_scan", "android": "https://dc.lft.to/lastmile_qr_scan"}, "is_reserved": 0}, {"lon": -77.055666, "bike_id": "7a35d4eeb1a57c098251bf685fce18ee", "lat": 38.93042783333333, "fusion_lon": 0.0, "fusion_lat": 0.0, "type": "electric_scooter", "name": "7a35d4eeb1a57c098251bf685fce18ee", "is_disabled": 0, "rental_uris": {"ios": "https://dc.lft.to/lastmile_qr_scan", "android": "https://dc.lft.to/lastmile_qr_scan"}, "is_reserved": 0}, {"lon": -77.03344733333333, "bike_id": "8813b030ec21b62679a71e5b53391e80", "lat": 38.905655333333335, "fusion_lon": 0.0, "fusion_lat": 0.0, "type": "electric_scooter", "name": "8813b030ec21b62679a71e5b53391e80", "is_disabled": 0, "rental_uris": {"ios": "https://dc.lft.to/lastmile_qr_scan", "android": "https://dc.lft.to/lastmile_qr_scan"}, "is_reserved": 0}, {"lon": -77.02383583333334, "bike_id": "e2ce74b63a31b3d823ddd9d5a2fcf1d9", "lat": 38.911449166666664, "fusion_lon": 0.0, "fusion_lat": 0.0, "type": "electric_scooter", "name": "e2ce74b63a31b3d823ddd9d5a2fcf1d9", "is_disabled": 0, "rental_uris": {"ios": "https://dc.lft.to/lastmile_qr_scan", "android": "https://dc.lft.to/lastmile_qr_scan"}, "is_reserved": 0}, {"lon": -77.0366425, "bike_id": "6b8e51d25b10ad9a571789cda386ec9b", "lat": 38.9182095, "fusion_lon": 0.0, "fusion_lat": 0.0, "type": "electric_scooter", "name": "6b8e51d25b10ad9a571789cda386ec9b", "is_disabled": 0, "rental_uris": {"ios": "https://dc.lft.to/lastmile_qr_scan", "android": "https://dc.lft.to/lastmile_qr_scan"}, "is_reserved": 0}, {"lon": -77.04019216666667, "bike_id": "3ea8fe282ae8e2adfd6ba22e82dacb35", "lat": 38.917975, "fusion_lon": 0.0, "fusion_lat": 0.0, "type": "electric_scooter", "name": "3ea8fe282ae8e2adfd6ba22e82dacb35", "is_disabled": 0, "rental_uris": {"ios": "https://dc.lft.to/lastmile_qr_scan", "android": "https://dc.lft.to/lastmile_qr_scan"}, "is_reserved": 0}, {"lon": -77.09467516666666, "bike_id": "c4efff972e675e0b5ff5eb6b7fa454c5", "lat": 38.869379, "fusion_lon": 0.0, "fusion_lat": 0.0, "type": "electric_bike", "name": "c4efff972e675e0b5ff5eb6b7fa454c5", "is_disabled": 0, "rental_uris": {"ios": "https://dc.lft.to/lastmile_qr_scan", "android": "https://dc.lft.to/lastmile_qr_scan"}, "is_reserved": 0}, {"lon": -77.02217716666667, "bike_id": "a6c8b3c00dfc0548a893ab59771fa98c", "lat": 38.905517, "fusion_lon": 0.0, "fusion_lat": 0.0, "type": "electric_scooter", "name": "a6c8b3c00dfc0548a893ab59771fa98c", "is_disabled": 0, "rental_uris": {"ios": "https://dc.lft.to/lastmile_qr_scan", "android": "https://dc.lft.to/lastmile_qr_scan"}, "is_reserved": 0}, {"lon": -77.005833, "bike_id": "cfc31532bb72ec1f3cf3ff8a650d688c", "lat": 38.83000066666666, "fusion_lon": 0.0, "fusion_lat": 0.0, "type": "electric_scooter", "name": "cfc31532bb72ec1f3cf3ff8a650d688c", "is_disabled": 0, "rental_uris": {"ios": "https://dc.lft.to/lastmile_qr_scan", "android": "https://dc.lft.to/lastmile_qr_scan"}, "is_reserved": 0}, {"lon": -77.03862616666666, "bike_id": "0ab2265225a3a3ef69688b345062cf46", "lat": 38.909697333333334, "fusion_lon": 0.0, "fusion_lat": 0.0, "type": "electric_scooter", "name": "0ab2265225a3a3ef69688b345062cf46", "is_disabled": 0, "rental_uris": {"ios": "https://dc.lft.to/lastmile_qr_scan", "android": "https://dc.lft.to/lastmile_qr_scan"}, "is_reserved": 0}, {"lon": -76.94104166666666, "bike_id": "385cd77a3efd45b34de0b0efe176006c", "lat": 38.886465666666666, "fusion_lon": 0.0, "fusion_lat": 0.0, "type": "electric_scooter", "name": "385cd77a3efd45b34de0b0efe176006c", "is_disabled": 0, "rental_uris": {"ios": "https://dc.lft.to/lastmile_qr_scan", "android": "https://dc.lft.to/lastmile_qr_scan"}, "is_reserved": 0}, {"lon": -77.04847483333333, "bike_id": "e0a5a644fadfcb23c5caff655d71111f", "lat": 38.904448333333335, "fusion_lon": 0.0, "fusion_lat": 0.0, "type": "electric_scooter", "name": "e0a5a644fadfcb23c5caff655d71111f", "is_disabled": 0, "rental_uris": {"ios": "https://dc.lft.to/lastmile_qr_scan", "android": "https://dc.lft.to/lastmile_qr_scan"}, "is_reserved": 0}, {"lon": -76.96526516666667, "bike_id": "abc61b84997fe57abe6ca1c691a4c975", "lat": 38.876332, "fusion_lon": 0.0, "fusion_lat": 0.0, "type": "electric_scooter", "name": "abc61b84997fe57abe6ca1c691a4c975", "is_disabled": 0, "rental_uris": {"ios": "https://dc.lft.to/lastmile_qr_scan", "android": "https://dc.lft.to/lastmile_qr_scan"}, "is_reserved": 0}, {"lon": -76.98497766666667, "bike_id": "d937b9ee1fed6ca670b028249bcd2489", "lat": 38.878387000000004, "fusion_lon": 0.0, "fusion_lat": 0.0, "type": "electric_scooter", "name": "d937b9ee1fed6ca670b028249bcd2489", "is_disabled": 0, "rental_uris": {"ios": "https://dc.lft.to/lastmile_qr_scan", "android": "https://dc.lft.to/lastmile_qr_scan"}, "is_reserved": 0}, {"lon": -77.04646783333334, "bike_id": "430fd64c4c7786ab72955836993ba207", "lat": 38.909604333333334, "fusion_lon": 0.0, "fusion_lat": 0.0, "type": "electric_scooter", "name": "430fd64c4c7786ab72955836993ba207", "is_disabled": 0, "rental_uris": {"ios": "https://dc.lft.to/lastmile_qr_scan", "android": "https://dc.lft.to/lastmile_qr_scan"}, "is_reserved": 0}, {"lon": -77.0315415, "bike_id": "18f3ca7fd1710171cf464c84bcc6cdc8", "lat": 38.91708, "fusion_lon": 0.0, "fusion_lat": 0.0, "type": "electric_scooter", "name": "18f3ca7fd1710171cf464c84bcc6cdc8", "is_disabled": 0, "rental_uris": {"ios": "https://dc.lft.to/lastmile_qr_scan", "android": "https://dc.lft.to/lastmile_qr_scan"}, "is_reserved": 0}, {"lon": -77.06010116666667, "bike_id": "fa67aac7b9494f7c6a634a46b9cce1b5", "lat": 38.9011695, "fusion_lon": 0.0, "fusion_lat": 0.0, "type": "electric_scooter", "name": "fa67aac7b9494f7c6a634a46b9cce1b5", "is_disabled": 0, "rental_uris": {"ios": "https://dc.lft.to/lastmile_qr_scan", "android": "https://dc.lft.to/lastmile_qr_scan"}, "is_reserved": 0}, {"lon": -77.040085, "bike_id": "7d366d70a2860e2332b3efce9c3e05af", "lat": 38.934311666666666, "fusion_lon": 0.0, "fusion_lat": 0.0, "type": "electric_scooter", "name": "7d366d70a2860e2332b3efce9c3e05af", "is_disabled": 0, "rental_uris": {"ios": "https://dc.lft.to/lastmile_qr_scan", "android": "https://dc.lft.to/lastmile_qr_scan"}, "is_reserved": 0}, {"lon": -77.03257866666667, "bike_id": "0af0ea9728b1a33cab62d574545d4875", "lat": 38.93773383333333, "fusion_lon": 0.0, "fusion_lat": 0.0, "type": "electric_scooter", "name": "0af0ea9728b1a33cab62d574545d4875", "is_disabled": 0, "rental_uris": {"ios": "https://dc.lft.to/lastmile_qr_scan", "android": "https://dc.lft.to/lastmile_qr_scan"}, "is_reserved": 0}, {"lon": -77.02537816666667, "bike_id": "35932072f351036216b665c3554c2e32", "lat": 38.9209255, "fusion_lon": 0.0, "fusion_lat": 0.0, "type": "electric_scooter", "name": "35932072f351036216b665c3554c2e32", "is_disabled": 0, "rental_uris": {"ios": "https://dc.lft.to/lastmile_qr_scan", "android": "https://dc.lft.to/lastmile_qr_scan"}, "is_reserved": 0}, {"lon": -77.05709383333334, "bike_id": "5488383e892860f7abb1b53471552ec8", "lat": 38.90552016666667, "fusion_lon": 0.0, "fusion_lat": 0.0, "type": "electric_scooter", "name": "5488383e892860f7abb1b53471552ec8", "is_disabled": 0, "rental_uris": {"ios": "https://dc.lft.to/lastmile_qr_scan", "android": "https://dc.lft.to/lastmile_qr_scan"}, "is_reserved": 0}, {"lon": -77.06019883333333, "bike_id": "793c78a496319c524b7d0fa14d26cae3", "lat": 38.905082166666666, "fusion_lon": 0.0, "fusion_lat": 0.0, "type": "electric_scooter", "name": "793c78a496319c524b7d0fa14d26cae3", "is_disabled": 0, "rental_uris": {"ios": "https://dc.lft.to/lastmile_qr_scan", "android": "https://dc.lft.to/lastmile_qr_scan"}, "is_reserved": 0}, {"lon": -77.04489933333333, "bike_id": "fb4adb878b9262c07c973239c5c4cebb", "lat": 38.913661166666664, "fusion_lon": 0.0, "fusion_lat": 0.0, "type": "electric_scooter", "name": "fb4adb878b9262c07c973239c5c4cebb", "is_disabled": 0, "rental_uris": {"ios": "https://dc.lft.to/lastmile_qr_scan", "android": "https://dc.lft.to/lastmile_qr_scan"}, "is_reserved": 0}, {"lon": -77.03858383333333, "bike_id": "c32cee00866faa01d912c86c0a514383", "lat": 38.91194433333333, "fusion_lon": 0.0, "fusion_lat": 0.0, "type": "electric_scooter", "name": "c32cee00866faa01d912c86c0a514383", "is_disabled": 0, "rental_uris": {"ios": "https://dc.lft.to/lastmile_qr_scan", "android": "https://dc.lft.to/lastmile_qr_scan"}, "is_reserved": 0}, {"lon": -77.02704566666667, "bike_id": "64ee767e03557c60b7e3d21e9a8d7606", "lat": 38.917829166666664, "fusion_lon": 0.0, "fusion_lat": 0.0, "type": "electric_scooter", "name": "64ee767e03557c60b7e3d21e9a8d7606", "is_disabled": 0, "rental_uris": {"ios": "https://dc.lft.to/lastmile_qr_scan", "android": "https://dc.lft.to/lastmile_qr_scan"}, "is_reserved": 0}, {"lon": -77.054315, "bike_id": "71f11808b92a042e89fe2c78a2c620c5", "lat": 38.92863116666667, "fusion_lon": 0.0, "fusion_lat": 0.0, "type": "electric_scooter", "name": "71f11808b92a042e89fe2c78a2c620c5", "is_disabled": 0, "rental_uris": {"ios": "https://dc.lft.to/lastmile_qr_scan", "android": "https://dc.lft.to/lastmile_qr_scan"}, "is_reserved": 0}, {"lon": -77.07451866666666, "bike_id": "711d0bb21901fb5e1df255f39b1bdaa3", "lat": 38.94509716666666, "fusion_lon": 0.0, "fusion_lat": 0.0, "type": "electric_scooter", "name": "711d0bb21901fb5e1df255f39b1bdaa3", "is_disabled": 0, "rental_uris": {"ios": "https://dc.lft.to/lastmile_qr_scan", "android": "https://dc.lft.to/lastmile_qr_scan"}, "is_reserved": 0}, {"lon": -77.03626816666667, "bike_id": "f32e0446e8543a109b83157a980f6677", "lat": 38.930784, "fusion_lon": 0.0, "fusion_lat": 0.0, "type": "electric_scooter", "name": "f32e0446e8543a109b83157a980f6677", "is_disabled": 0, "rental_uris": {"ios": "https://dc.lft.to/lastmile_qr_scan", "android": "https://dc.lft.to/lastmile_qr_scan"}, "is_reserved": 0}, {"lon": -76.9993045, "bike_id": "4cd8a1c1c20546e1eb8857255755d3ef", "lat": 38.8431735, "fusion_lon": 0.0, "fusion_lat": 0.0, "type": "electric_scooter", "name": "4cd8a1c1c20546e1eb8857255755d3ef", "is_disabled": 0, "rental_uris": {"ios": "https://dc.lft.to/lastmile_qr_scan", "android": "https://dc.lft.to/lastmile_qr_scan"}, "is_reserved": 0}, {"lon": -77.02713966666667, "bike_id": "0a0d0a91f0eb663ed2fe3278ed93a756", "lat": 38.90668933333333, "fusion_lon": 0.0, "fusion_lat": 0.0, "type": "electric_scooter", "name": "0a0d0a91f0eb663ed2fe3278ed93a756", "is_disabled": 0, "rental_uris": {"ios": "https://dc.lft.to/lastmile_qr_scan", "android": "https://dc.lft.to/lastmile_qr_scan"}, "is_reserved": 0}, {"lon": -77.03433766666667, "bike_id": "bfacc236fb7cf10fb59848e0467a7eb1", "lat": 38.909789833333335, "fusion_lon": 0.0, "fusion_lat": 0.0, "type": "electric_scooter", "name": "bfacc236fb7cf10fb59848e0467a7eb1", "is_disabled": 0, "rental_uris": {"ios": "https://dc.lft.to/lastmile_qr_scan", "android": "https://dc.lft.to/lastmile_qr_scan"}, "is_reserved": 0}, {"lon": -77.12527433333334, "bike_id": "6cb9842b2e24a1c21dc3b3354a448610", "lat": 39.05636283333333, "fusion_lon": 0.0, "fusion_lat": 0.0, "type": "electric_bike", "name": "6cb9842b2e24a1c21dc3b3354a448610", "is_disabled": 0, "rental_uris": {"ios": "https://dc.lft.to/lastmile_qr_scan", "android": "https://dc.lft.to/lastmile_qr_scan"}, "is_reserved": 0}, {"lon": -76.93728783333333, "bike_id": "a083000383ba16ec1b13b0c5973d8758", "lat": 38.890146333333334, "fusion_lon": 0.0, "fusion_lat": 0.0, "type": "electric_scooter", "name": "a083000383ba16ec1b13b0c5973d8758", "is_disabled": 0, "rental_uris": {"ios": "https://dc.lft.to/lastmile_qr_scan", "android": "https://dc.lft.to/lastmile_qr_scan"}, "is_reserved": 0}, {"lon": -77.01738766666666, "bike_id": "8650df94beba4f9a1fec5d2f7e64ebb5", "lat": 38.94206616666666, "fusion_lon": 0.0, "fusion_lat": 0.0, "type": "electric_scooter", "name": "8650df94beba4f9a1fec5d2f7e64ebb5", "is_disabled": 0, "rental_uris": {"ios": "https://dc.lft.to/lastmile_qr_scan", "android": "https://dc.lft.to/lastmile_qr_scan"}, "is_reserved": 0}, {"lon": -77.00579183333333, "bike_id": "9857150749c2639fda5974dbecb693ac", "lat": 38.90644966666667, "fusion_lon": 0.0, "fusion_lat": 0.0, "type": "electric_scooter", "name": "9857150749c2639fda5974dbecb693ac", "is_disabled": 0, "rental_uris": {"ios": "https://dc.lft.to/lastmile_qr_scan", "android": "https://dc.lft.to/lastmile_qr_scan"}, "is_reserved": 0}, {"lon": -77.02690633333333, "bike_id": "9adc98e981554e5230df2ce423b9ba33", "lat": 38.906276, "fusion_lon": 0.0, "fusion_lat": 0.0, "type": "electric_scooter", "name": "9adc98e981554e5230df2ce423b9ba33", "is_disabled": 0, "rental_uris": {"ios": "https://dc.lft.to/lastmile_qr_scan", "android": "https://dc.lft.to/lastmile_qr_scan"}, "is_reserved": 0}, {"lon": -77.04435966666667, "bike_id": "91cc0e6975cf7b2c88492ca45d16c0e6", "lat": 38.92167116666667, "fusion_lon": 0.0, "fusion_lat": 0.0, "type": "electric_scooter", "name": "91cc0e6975cf7b2c88492ca45d16c0e6", "is_disabled": 0, "rental_uris": {"ios": "https://dc.lft.to/lastmile_qr_scan", "android": "https://dc.lft.to/lastmile_qr_scan"}, "is_reserved": 0}, {"lon": -77.03208316666667, "bike_id": "a601f52c90b2b050b8d3d2eee4102b18", "lat": 38.912222, "fusion_lon": 0.0, "fusion_lat": 0.0, "type": "electric_scooter", "name": "a601f52c90b2b050b8d3d2eee4102b18", "is_disabled": 0, "rental_uris": {"ios": "https://dc.lft.to/lastmile_qr_scan", "android": "https://dc.lft.to/lastmile_qr_scan"}, "is_reserved": 0}, {"lon": -76.99485933333334, "bike_id": "9e48c75efc0f2e030cea86324e078101", "lat": 38.862490333333334, "fusion_lon": 0.0, "fusion_lat": 0.0, "type": "electric_scooter", "name": "9e48c75efc0f2e030cea86324e078101", "is_disabled": 0, "rental_uris": {"ios": "https://dc.lft.to/lastmile_qr_scan", "android": "https://dc.lft.to/lastmile_qr_scan"}, "is_reserved": 0}, {"lon": -77.03180816666666, "bike_id": "7d88d696d9ab7161600e35da3faa58de", "lat": 38.92095466666667, "fusion_lon": 0.0, "fusion_lat": 0.0, "type": "electric_scooter", "name": "7d88d696d9ab7161600e35da3faa58de", "is_disabled": 0, "rental_uris": {"ios": "https://dc.lft.to/lastmile_qr_scan", "android": "https://dc.lft.to/lastmile_qr_scan"}, "is_reserved": 0}, {"lon": -77.03364566666667, "bike_id": "206b001d4c567f9865c1d6df98e628c2", "lat": 38.88551366666667, "fusion_lon": 0.0, "fusion_lat": 0.0, "type": "electric_scooter", "name": "206b001d4c567f9865c1d6df98e628c2", "is_disabled": 0, "rental_uris": {"ios": "https://dc.lft.to/lastmile_qr_scan", "android": "https://dc.lft.to/lastmile_qr_scan"}, "is_reserved": 0}, {"lon": -77.115755, "bike_id": "32976a65a52e98872632e58bc7122fa9", "lat": 38.993453833333334, "fusion_lon": 0.0, "fusion_lat": 0.0, "type": "electric_bike", "name": "32976a65a52e98872632e58bc7122fa9", "is_disabled": 0, "rental_uris": {"ios": "https://dc.lft.to/lastmile_qr_scan", "android": "https://dc.lft.to/lastmile_qr_scan"}, "is_reserved": 0}, {"lon": -77.0266495, "bike_id": "c31ca610fbdd9799d67849503dd9df18", "lat": 38.9026745, "fusion_lon": 0.0, "fusion_lat": 0.0, "type": "electric_scooter", "name": "c31ca610fbdd9799d67849503dd9df18", "is_disabled": 0, "rental_uris": {"ios": "https://dc.lft.to/lastmile_qr_scan", "android": "https://dc.lft.to/lastmile_qr_scan"}, "is_reserved": 0}, {"lon": -76.98584866666667, "bike_id": "cc817b23b56719fb32ef8725771eb474", "lat": 38.866862166666664, "fusion_lon": 0.0, "fusion_lat": 0.0, "type": "electric_scooter", "name": "cc817b23b56719fb32ef8725771eb474", "is_disabled": 0, "rental_uris": {"ios": "https://dc.lft.to/lastmile_qr_scan", "android": "https://dc.lft.to/lastmile_qr_scan"}, "is_reserved": 0}, {"lon": -77.01481666666666, "bike_id": "aff292a7eb41bbd87eb769e3d4d274d6", "lat": 38.95876883333333, "fusion_lon": 0.0, "fusion_lat": 0.0, "type": "electric_scooter", "name": "aff292a7eb41bbd87eb769e3d4d274d6", "is_disabled": 0, "rental_uris": {"ios": "https://dc.lft.to/lastmile_qr_scan", "android": "https://dc.lft.to/lastmile_qr_scan"}, "is_reserved": 0}, {"lon": -76.985266, "bike_id": "ea0b89f0bb46cb40465c6b9b06b27f55", "lat": 38.86689333333333, "fusion_lon": 0.0, "fusion_lat": 0.0, "type": "electric_scooter", "name": "ea0b89f0bb46cb40465c6b9b06b27f55", "is_disabled": 0, "rental_uris": {"ios": "https://dc.lft.to/lastmile_qr_scan", "android": "https://dc.lft.to/lastmile_qr_scan"}, "is_reserved": 0}, {"lon": -77.0296595, "bike_id": "32d91c5043a8441540132c8ca42ad41e", "lat": 38.916681833333335, "fusion_lon": 0.0, "fusion_lat": 0.0, "type": "electric_scooter", "name": "32d91c5043a8441540132c8ca42ad41e", "is_disabled": 0, "rental_uris": {"ios": "https://dc.lft.to/lastmile_qr_scan", "android": "https://dc.lft.to/lastmile_qr_scan"}, "is_reserved": 0}, {"lon": -77.03450183333334, "bike_id": "caa4bf2728fe093bbe24651d1cc7bd4b", "lat": 38.936121, "fusion_lon": 0.0, "fusion_lat": 0.0, "type": "electric_scooter", "name": "caa4bf2728fe093bbe24651d1cc7bd4b", "is_disabled": 0, "rental_uris": {"ios": "https://dc.lft.to/lastmile_qr_scan", "android": "https://dc.lft.to/lastmile_qr_scan"}, "is_reserved": 0}, {"lon": -77.073834, "bike_id": "9556761e4128f1f14e3daa4a17a04f6b", "lat": 38.96220916666667, "fusion_lon": 0.0, "fusion_lat": 0.0, "type": "electric_scooter", "name": "9556761e4128f1f14e3daa4a17a04f6b", "is_disabled": 0, "rental_uris": {"ios": "https://dc.lft.to/lastmile_qr_scan", "android": "https://dc.lft.to/lastmile_qr_scan"}, "is_reserved": 0}, {"lon": -77.02911233333333, "bike_id": "2312dee75e3a8721b83c41fee5ea0112", "lat": 38.917034666666666, "fusion_lon": 0.0, "fusion_lat": 0.0, "type": "electric_scooter", "name": "2312dee75e3a8721b83c41fee5ea0112", "is_disabled": 0, "rental_uris": {"ios": "https://dc.lft.to/lastmile_qr_scan", "android": "https://dc.lft.to/lastmile_qr_scan"}, "is_reserved": 0}, {"lon": -77.02478466666666, "bike_id": "6fb48d4c8b8f1feeecce46f7e9ed336d", "lat": 38.916718833333334, "fusion_lon": 0.0, "fusion_lat": 0.0, "type": "electric_scooter", "name": "6fb48d4c8b8f1feeecce46f7e9ed336d", "is_disabled": 0, "rental_uris": {"ios": "https://dc.lft.to/lastmile_qr_scan", "android": "https://dc.lft.to/lastmile_qr_scan"}, "is_reserved": 0}, {"lon": -77.06095083333334, "bike_id": "a2173f3662ffc6c5bea8fc90f6c2941f", "lat": 38.943703666666664, "fusion_lon": 0.0, "fusion_lat": 0.0, "type": "electric_scooter", "name": "a2173f3662ffc6c5bea8fc90f6c2941f", "is_disabled": 0, "rental_uris": {"ios": "https://dc.lft.to/lastmile_qr_scan", "android": "https://dc.lft.to/lastmile_qr_scan"}, "is_reserved": 0}, {"lon": -77.0334085, "bike_id": "2134ff85708578a9ea9c6f135f4763e9", "lat": 38.91924, "fusion_lon": 0.0, "fusion_lat": 0.0, "type": "electric_scooter", "name": "2134ff85708578a9ea9c6f135f4763e9", "is_disabled": 0, "rental_uris": {"ios": "https://dc.lft.to/lastmile_qr_scan", "android": "https://dc.lft.to/lastmile_qr_scan"}, "is_reserved": 0}, {"lon": -77.031848, "bike_id": "835217025d70673949c11a4803da211f", "lat": 38.936172666666664, "fusion_lon": 0.0, "fusion_lat": 0.0, "type": "electric_scooter", "name": "835217025d70673949c11a4803da211f", "is_disabled": 0, "rental_uris": {"ios": "https://dc.lft.to/lastmile_qr_scan", "android": "https://dc.lft.to/lastmile_qr_scan"}, "is_reserved": 0}, {"lon": -77.04242183333334, "bike_id": "f18e2acfd1c7999331a19f08e9b874c5", "lat": 38.91639883333333, "fusion_lon": 0.0, "fusion_lat": 0.0, "type": "electric_scooter", "name": "f18e2acfd1c7999331a19f08e9b874c5", "is_disabled": 0, "rental_uris": {"ios": "https://dc.lft.to/lastmile_qr_scan", "android": "https://dc.lft.to/lastmile_qr_scan"}, "is_reserved": 0}, {"lon": -77.0467995, "bike_id": "e639484bd99ab5bae2f258180524c35e", "lat": 38.89745166666667, "fusion_lon": 0.0, "fusion_lat": 0.0, "type": "electric_scooter", "name": "e639484bd99ab5bae2f258180524c35e", "is_disabled": 0, "rental_uris": {"ios": "https://dc.lft.to/lastmile_qr_scan", "android": "https://dc.lft.to/lastmile_qr_scan"}, "is_reserved": 0}, {"lon": -77.03419833333334, "bike_id": "cd9e8a966e3392b2826e077fa77e60bf", "lat": 38.918128, "fusion_lon": 0.0, "fusion_lat": 0.0, "type": "electric_scooter", "name": "cd9e8a966e3392b2826e077fa77e60bf", "is_disabled": 0, "rental_uris": {"ios": "https://dc.lft.to/lastmile_qr_scan", "android": "https://dc.lft.to/lastmile_qr_scan"}, "is_reserved": 0}, {"lon": -77.02160033333334, "bike_id": "9fbfd98dfb94b1da0c517561835ab315", "lat": 38.9260445, "fusion_lon": 0.0, "fusion_lat": 0.0, "type": "electric_scooter", "name": "9fbfd98dfb94b1da0c517561835ab315", "is_disabled": 0, "rental_uris": {"ios": "https://dc.lft.to/lastmile_qr_scan", "android": "https://dc.lft.to/lastmile_qr_scan"}, "is_reserved": 0}, {"lon": -77.0057865, "bike_id": "fe6a8982085e9052d22ed4bb1a7b6f42", "lat": 38.90585683333333, "fusion_lon": 0.0, "fusion_lat": 0.0, "type": "electric_scooter", "name": "fe6a8982085e9052d22ed4bb1a7b6f42", "is_disabled": 0, "rental_uris": {"ios": "https://dc.lft.to/lastmile_qr_scan", "android": "https://dc.lft.to/lastmile_qr_scan"}, "is_reserved": 0}, {"lon": -77.05610166666666, "bike_id": "b2547d9794172b733ab9d6133264d1df", "lat": 38.931662833333334, "fusion_lon": 0.0, "fusion_lat": 0.0, "type": "electric_scooter", "name": "b2547d9794172b733ab9d6133264d1df", "is_disabled": 0, "rental_uris": {"ios": "https://dc.lft.to/lastmile_qr_scan", "android": "https://dc.lft.to/lastmile_qr_scan"}, "is_reserved": 0}, {"lon": -76.9837585, "bike_id": "b5274c90a10b1ca0d4896ff9dd0467bd", "lat": 38.891461166666666, "fusion_lon": 0.0, "fusion_lat": 0.0, "type": "electric_scooter", "name": "b5274c90a10b1ca0d4896ff9dd0467bd", "is_disabled": 0, "rental_uris": {"ios": "https://dc.lft.to/lastmile_qr_scan", "android": "https://dc.lft.to/lastmile_qr_scan"}, "is_reserved": 0}, {"lon": -76.98834933333333, "bike_id": "e0773c443cb9fff10cf3291d46b1650e", "lat": 38.9007125, "fusion_lon": 0.0, "fusion_lat": 0.0, "type": "electric_scooter", "name": "e0773c443cb9fff10cf3291d46b1650e", "is_disabled": 0, "rental_uris": {"ios": "https://dc.lft.to/lastmile_qr_scan", "android": "https://dc.lft.to/lastmile_qr_scan"}, "is_reserved": 0}, {"lon": -77.00377516666667, "bike_id": "12d1dca1d5c5716a4a6a91878e94e706", "lat": 38.895261833333336, "fusion_lon": 0.0, "fusion_lat": 0.0, "type": "electric_scooter", "name": "12d1dca1d5c5716a4a6a91878e94e706", "is_disabled": 0, "rental_uris": {"ios": "https://dc.lft.to/lastmile_qr_scan", "android": "https://dc.lft.to/lastmile_qr_scan"}, "is_reserved": 0}, {"lon": -76.99480733333333, "bike_id": "4aa99158ecc3e9ace736b8ce063061f1", "lat": 38.862162, "fusion_lon": 0.0, "fusion_lat": 0.0, "type": "electric_scooter", "name": "4aa99158ecc3e9ace736b8ce063061f1", "is_disabled": 0, "rental_uris": {"ios": "https://dc.lft.to/lastmile_qr_scan", "android": "https://dc.lft.to/lastmile_qr_scan"}, "is_reserved": 0}, {"lon": -77.03263883333334, "bike_id": "53d2c6ef7bae529f9c23b50b19f1246d", "lat": 38.92919066666666, "fusion_lon": 0.0, "fusion_lat": 0.0, "type": "electric_scooter", "name": "53d2c6ef7bae529f9c23b50b19f1246d", "is_disabled": 0, "rental_uris": {"ios": "https://dc.lft.to/lastmile_qr_scan", "android": "https://dc.lft.to/lastmile_qr_scan"}, "is_reserved": 0}, {"lon": -77.00310616666667, "bike_id": "84d2bf9da43cf97046483a75b01095d8", "lat": 38.8951325, "fusion_lon": 0.0, "fusion_lat": 0.0, "type": "electric_scooter", "name": "84d2bf9da43cf97046483a75b01095d8", "is_disabled": 0, "rental_uris": {"ios": "https://dc.lft.to/lastmile_qr_scan", "android": "https://dc.lft.to/lastmile_qr_scan"}, "is_reserved": 0}, {"lon": -77.00961783333334, "bike_id": "7f202f0d46f70e17aaed97e8c4693c2c", "lat": 38.92138533333333, "fusion_lon": 0.0, "fusion_lat": 0.0, "type": "electric_scooter", "name": "7f202f0d46f70e17aaed97e8c4693c2c", "is_disabled": 0, "rental_uris": {"ios": "https://dc.lft.to/lastmile_qr_scan", "android": "https://dc.lft.to/lastmile_qr_scan"}, "is_reserved": 0}, {"lon": -77.00045583333333, "bike_id": "56c826bd57bc9a8b3a629e491987ed10", "lat": 38.9070015, "fusion_lon": 0.0, "fusion_lat": 0.0, "type": "electric_scooter", "name": "56c826bd57bc9a8b3a629e491987ed10", "is_disabled": 0, "rental_uris": {"ios": "https://dc.lft.to/lastmile_qr_scan", "android": "https://dc.lft.to/lastmile_qr_scan"}, "is_reserved": 0}, {"lon": -76.99787783333333, "bike_id": "91dff7b1c52c448030f5f5fd20b25129", "lat": 38.8909425, "fusion_lon": 0.0, "fusion_lat": 0.0, "type": "electric_scooter", "name": "91dff7b1c52c448030f5f5fd20b25129", "is_disabled": 0, "rental_uris": {"ios": "https://dc.lft.to/lastmile_qr_scan", "android": "https://dc.lft.to/lastmile_qr_scan"}, "is_reserved": 0}, {"lon": -76.999166, "bike_id": "a3603d1e4dbcc43a4666f983b1bc14f9", "lat": 38.90768766666667, "fusion_lon": 0.0, "fusion_lat": 0.0, "type": "electric_scooter", "name": "a3603d1e4dbcc43a4666f983b1bc14f9", "is_disabled": 0, "rental_uris": {"ios": "https://dc.lft.to/lastmile_qr_scan", "android": "https://dc.lft.to/lastmile_qr_scan"}, "is_reserved": 0}, {"lon": -76.98106966666667, "bike_id": "3b6577a610fe494dcaf6a7c3f8228d82", "lat": 38.87733733333334, "fusion_lon": 0.0, "fusion_lat": 0.0, "type": "electric_bike", "name": "3b6577a610fe494dcaf6a7c3f8228d82", "is_disabled": 0, "rental_uris": {"ios": "https://dc.lft.to/lastmile_qr_scan", "android": "https://dc.lft.to/lastmile_qr_scan"}, "is_reserved": 0}, {"lon": -77.03343216666667, "bike_id": "41e9599d5da66bd433ff81a9d94b1b04", "lat": 38.93516866666667, "fusion_lon": 0.0, "fusion_lat": 0.0, "type": "electric_scooter", "name": "41e9599d5da66bd433ff81a9d94b1b04", "is_disabled": 0, "rental_uris": {"ios": "https://dc.lft.to/lastmile_qr_scan", "android": "https://dc.lft.to/lastmile_qr_scan"}, "is_reserved": 0}, {"lon": -76.99919433333334, "bike_id": "8b4f32f1d9016d4234d5c55b4c33e6e8", "lat": 38.889799, "fusion_lon": 0.0, "fusion_lat": 0.0, "type": "electric_scooter", "name": "8b4f32f1d9016d4234d5c55b4c33e6e8", "is_disabled": 0, "rental_uris": {"ios": "https://dc.lft.to/lastmile_qr_scan", "android": "https://dc.lft.to/lastmile_qr_scan"}, "is_reserved": 0}, {"lon": -77.00066916666667, "bike_id": "939d498add8ed35918c3b60855a0cf17", "lat": 38.90140816666667, "fusion_lon": 0.0, "fusion_lat": 0.0, "type": "electric_scooter", "name": "939d498add8ed35918c3b60855a0cf17", "is_disabled": 0, "rental_uris": {"ios": "https://dc.lft.to/lastmile_qr_scan", "android": "https://dc.lft.to/lastmile_qr_scan"}, "is_reserved": 0}, {"lon": -76.98245633333333, "bike_id": "a3809e56cac2c1c7d237d5414852d6f9", "lat": 38.86459766666667, "fusion_lon": 0.0, "fusion_lat": 0.0, "type": "electric_scooter", "name": "a3809e56cac2c1c7d237d5414852d6f9", "is_disabled": 0, "rental_uris": {"ios": "https://dc.lft.to/lastmile_qr_scan", "android": "https://dc.lft.to/lastmile_qr_scan"}, "is_reserved": 0}, {"lon": -77.03662933333334, "bike_id": "2d5517e40ff45b2306e0190d44649a27", "lat": 38.933489333333334, "fusion_lon": 0.0, "fusion_lat": 0.0, "type": "electric_scooter", "name": "2d5517e40ff45b2306e0190d44649a27", "is_disabled": 0, "rental_uris": {"ios": "https://dc.lft.to/lastmile_qr_scan", "android": "https://dc.lft.to/lastmile_qr_scan"}, "is_reserved": 0}, {"lon": -77.0337915, "bike_id": "4cb2776d1ff1ea02e65e037bec105c70", "lat": 38.92151833333333, "fusion_lon": 0.0, "fusion_lat": 0.0, "type": "electric_scooter", "name": "4cb2776d1ff1ea02e65e037bec105c70", "is_disabled": 0, "rental_uris": {"ios": "https://dc.lft.to/lastmile_qr_scan", "android": "https://dc.lft.to/lastmile_qr_scan"}, "is_reserved": 0}, {"lon": -77.02333616666667, "bike_id": "ae1697358df26e105368425746ecf209", "lat": 38.90852133333333, "fusion_lon": 0.0, "fusion_lat": 0.0, "type": "electric_scooter", "name": "ae1697358df26e105368425746ecf209", "is_disabled": 0, "rental_uris": {"ios": "https://dc.lft.to/lastmile_qr_scan", "android": "https://dc.lft.to/lastmile_qr_scan"}, "is_reserved": 0}, {"lon": -77.08338283333333, "bike_id": "583bd313bf6c73ce78055f3f4c0fd7ca", "lat": 38.854443333333336, "fusion_lon": 0.0, "fusion_lat": 0.0, "type": "electric_bike", "name": "583bd313bf6c73ce78055f3f4c0fd7ca", "is_disabled": 0, "rental_uris": {"ios": "https://dc.lft.to/lastmile_qr_scan", "android": "https://dc.lft.to/lastmile_qr_scan"}, "is_reserved": 0}, {"lon": -77.00925766666667, "bike_id": "577e128c5411b10262d03f29934081de", "lat": 38.899899, "fusion_lon": 0.0, "fusion_lat": 0.0, "type": "electric_scooter", "name": "577e128c5411b10262d03f29934081de", "is_disabled": 0, "rental_uris": {"ios": "https://dc.lft.to/lastmile_qr_scan", "android": "https://dc.lft.to/lastmile_qr_scan"}, "is_reserved": 0}, {"lon": -77.02491183333333, "bike_id": "e3009e5d088d9ed8b17ff75dc5f19cf3", "lat": 38.9040775, "fusion_lon": 0.0, "fusion_lat": 0.0, "type": "electric_scooter", "name": "e3009e5d088d9ed8b17ff75dc5f19cf3", "is_disabled": 0, "rental_uris": {"ios": "https://dc.lft.to/lastmile_qr_scan", "android": "https://dc.lft.to/lastmile_qr_scan"}, "is_reserved": 0}, {"lon": -77.02610333333334, "bike_id": "b50c6170c2dc48d9b326265a0119a667", "lat": 38.92586566666667, "fusion_lon": 0.0, "fusion_lat": 0.0, "type": "electric_scooter", "name": "b50c6170c2dc48d9b326265a0119a667", "is_disabled": 0, "rental_uris": {"ios": "https://dc.lft.to/lastmile_qr_scan", "android": "https://dc.lft.to/lastmile_qr_scan"}, "is_reserved": 0}, {"lon": -76.978272, "bike_id": "b59233a20cd3bd5151b5c4409bc7af17", "lat": 38.843701833333334, "fusion_lon": 0.0, "fusion_lat": 0.0, "type": "electric_bike", "name": "b59233a20cd3bd5151b5c4409bc7af17", "is_disabled": 0, "rental_uris": {"ios": "https://dc.lft.to/lastmile_qr_scan", "android": "https://dc.lft.to/lastmile_qr_scan"}, "is_reserved": 0}, {"lon": -77.03861566666667, "bike_id": "ff9b46145a04ec76982425437c4d0e07", "lat": 38.91271066666667, "fusion_lon": 0.0, "fusion_lat": 0.0, "type": "electric_scooter", "name": "ff9b46145a04ec76982425437c4d0e07", "is_disabled": 0, "rental_uris": {"ios": "https://dc.lft.to/lastmile_qr_scan", "android": "https://dc.lft.to/lastmile_qr_scan"}, "is_reserved": 0}, {"lon": -77.01727916666667, "bike_id": "a9d830a4ba4ff0584633ecce398d6bb8", "lat": 38.905660833333336, "fusion_lon": 0.0, "fusion_lat": 0.0, "type": "electric_scooter", "name": "a9d830a4ba4ff0584633ecce398d6bb8", "is_disabled": 0, "rental_uris": {"ios": "https://dc.lft.to/lastmile_qr_scan", "android": "https://dc.lft.to/lastmile_qr_scan"}, "is_reserved": 0}, {"lon": -77.03584383333333, "bike_id": "c197926f8bf3eba8183181e301844e21", "lat": 38.99227716666667, "fusion_lon": 0.0, "fusion_lat": 0.0, "type": "electric_scooter", "name": "c197926f8bf3eba8183181e301844e21", "is_disabled": 0, "rental_uris": {"ios": "https://dc.lft.to/lastmile_qr_scan", "android": "https://dc.lft.to/lastmile_qr_scan"}, "is_reserved": 0}, {"lon": -77.03521083333334, "bike_id": "125ebbbb35216314922328856be05413", "lat": 38.927341, "fusion_lon": 0.0, "fusion_lat": 0.0, "type": "electric_scooter", "name": "125ebbbb35216314922328856be05413", "is_disabled": 0, "rental_uris": {"ios": "https://dc.lft.to/lastmile_qr_scan", "android": "https://dc.lft.to/lastmile_qr_scan"}, "is_reserved": 0}, {"lon": -77.032135, "bike_id": "6af1b8cbf2f13be2ca688dcd5aabad7f", "lat": 38.915041, "fusion_lon": 0.0, "fusion_lat": 0.0, "type": "electric_scooter", "name": "6af1b8cbf2f13be2ca688dcd5aabad7f", "is_disabled": 0, "rental_uris": {"ios": "https://dc.lft.to/lastmile_qr_scan", "android": "https://dc.lft.to/lastmile_qr_scan"}, "is_reserved": 0}, {"lon": -77.02289616666667, "bike_id": "b90d5a0466e186187ac7622ccc6b6d39", "lat": 38.9090415, "fusion_lon": 0.0, "fusion_lat": 0.0, "type": "electric_scooter", "name": "b90d5a0466e186187ac7622ccc6b6d39", "is_disabled": 0, "rental_uris": {"ios": "https://dc.lft.to/lastmile_qr_scan", "android": "https://dc.lft.to/lastmile_qr_scan"}, "is_reserved": 0}, {"lon": -76.99599766666667, "bike_id": "fa8baa86c1d152d8b25d08b7676d6942", "lat": 38.902228, "fusion_lon": 0.0, "fusion_lat": 0.0, "type": "electric_scooter", "name": "fa8baa86c1d152d8b25d08b7676d6942", "is_disabled": 0, "rental_uris": {"ios": "https://dc.lft.to/lastmile_qr_scan", "android": "https://dc.lft.to/lastmile_qr_scan"}, "is_reserved": 0}, {"lon": -77.01209333333334, "bike_id": "7dd7dd513add7bb292509068260454f2", "lat": 38.91824183333333, "fusion_lon": 0.0, "fusion_lat": 0.0, "type": "electric_scooter", "name": "7dd7dd513add7bb292509068260454f2", "is_disabled": 0, "rental_uris": {"ios": "https://dc.lft.to/lastmile_qr_scan", "android": "https://dc.lft.to/lastmile_qr_scan"}, "is_reserved": 0}, {"lon": -77.01368433333333, "bike_id": "471bc16697acd45010b98b673b360b51", "lat": 38.90625216666667, "fusion_lon": 0.0, "fusion_lat": 0.0, "type": "electric_scooter", "name": "471bc16697acd45010b98b673b360b51", "is_disabled": 0, "rental_uris": {"ios": "https://dc.lft.to/lastmile_qr_scan", "android": "https://dc.lft.to/lastmile_qr_scan"}, "is_reserved": 0}, {"lon": -77.01741016666666, "bike_id": "236cd20661bf0d0ac8f61c20f7b325fa", "lat": 38.880605333333335, "fusion_lon": 0.0, "fusion_lat": 0.0, "type": "electric_scooter", "name": "236cd20661bf0d0ac8f61c20f7b325fa", "is_disabled": 0, "rental_uris": {"ios": "https://dc.lft.to/lastmile_qr_scan", "android": "https://dc.lft.to/lastmile_qr_scan"}, "is_reserved": 0}, {"lon": -77.0316205, "bike_id": "8aee99e9b9d5d7980f8454f656f16fd4", "lat": 38.903663, "fusion_lon": 0.0, "fusion_lat": 0.0, "type": "electric_scooter", "name": "8aee99e9b9d5d7980f8454f656f16fd4", "is_disabled": 0, "rental_uris": {"ios": "https://dc.lft.to/lastmile_qr_scan", "android": "https://dc.lft.to/lastmile_qr_scan"}, "is_reserved": 0}, {"lon": -77.02056433333334, "bike_id": "2e4a3dc0f99a96c0f37ecb466dea2b83", "lat": 38.92358733333333, "fusion_lon": 0.0, "fusion_lat": 0.0, "type": "electric_scooter", "name": "2e4a3dc0f99a96c0f37ecb466dea2b83", "is_disabled": 0, "rental_uris": {"ios": "https://dc.lft.to/lastmile_qr_scan", "android": "https://dc.lft.to/lastmile_qr_scan"}, "is_reserved": 0}, {"lon": -76.94633616666667, "bike_id": "33d3c60de9369a02669e04393061a4c6", "lat": 38.89833433333333, "fusion_lon": 0.0, "fusion_lat": 0.0, "type": "electric_scooter", "name": "33d3c60de9369a02669e04393061a4c6", "is_disabled": 0, "rental_uris": {"ios": "https://dc.lft.to/lastmile_qr_scan", "android": "https://dc.lft.to/lastmile_qr_scan"}, "is_reserved": 0}, {"lon": -77.08591616666666, "bike_id": "002a91b402cb72515c5fad4cdd164c8b", "lat": 38.9087465, "fusion_lon": 0.0, "fusion_lat": 0.0, "type": "electric_scooter", "name": "002a91b402cb72515c5fad4cdd164c8b", "is_disabled": 0, "rental_uris": {"ios": "https://dc.lft.to/lastmile_qr_scan", "android": "https://dc.lft.to/lastmile_qr_scan"}, "is_reserved": 0}, {"lon": -76.98374216666667, "bike_id": "e42b946cef3bc716a69e5fb652e38f8b", "lat": 38.906460333333335, "fusion_lon": 0.0, "fusion_lat": 0.0, "type": "electric_scooter", "name": "e42b946cef3bc716a69e5fb652e38f8b", "is_disabled": 0, "rental_uris": {"ios": "https://dc.lft.to/lastmile_qr_scan", "android": "https://dc.lft.to/lastmile_qr_scan"}, "is_reserved": 0}, {"lon": -77.04336033333334, "bike_id": "2515617aa70492b01a48a67133559876", "lat": 38.922214333333336, "fusion_lon": 0.0, "fusion_lat": 0.0, "type": "electric_scooter", "name": "2515617aa70492b01a48a67133559876", "is_disabled": 0, "rental_uris": {"ios": "https://dc.lft.to/lastmile_qr_scan", "android": "https://dc.lft.to/lastmile_qr_scan"}, "is_reserved": 0}, {"lon": -77.04655216666667, "bike_id": "ca99a394803a7675ed414f971a027acb", "lat": 39.0550645, "fusion_lon": 0.0, "fusion_lat": 0.0, "type": "electric_bike", "name": "ca99a394803a7675ed414f971a027acb", "is_disabled": 0, "rental_uris": {"ios": "https://dc.lft.to/lastmile_qr_scan", "android": "https://dc.lft.to/lastmile_qr_scan"}, "is_reserved": 0}, {"lon": -77.06034683333333, "bike_id": "0a57e4cbb571cf3959f76ad05e2cd06a", "lat": 38.933644666666666, "fusion_lon": 0.0, "fusion_lat": 0.0, "type": "electric_scooter", "name": "0a57e4cbb571cf3959f76ad05e2cd06a", "is_disabled": 0, "rental_uris": {"ios": "https://dc.lft.to/lastmile_qr_scan", "android": "https://dc.lft.to/lastmile_qr_scan"}, "is_reserved": 0}, {"lon": -77.01767516666666, "bike_id": "1da1f17f2d17171cd49c951c26a42745", "lat": 38.887412, "fusion_lon": 0.0, "fusion_lat": 0.0, "type": "electric_scooter", "name": "1da1f17f2d17171cd49c951c26a42745", "is_disabled": 0, "rental_uris": {"ios": "https://dc.lft.to/lastmile_qr_scan", "android": "https://dc.lft.to/lastmile_qr_scan"}, "is_reserved": 0}, {"lon": -77.04176633333333, "bike_id": "353718cf598367412698d45a8890e6a7", "lat": 38.91733516666667, "fusion_lon": 0.0, "fusion_lat": 0.0, "type": "electric_scooter", "name": "353718cf598367412698d45a8890e6a7", "is_disabled": 0, "rental_uris": {"ios": "https://dc.lft.to/lastmile_qr_scan", "android": "https://dc.lft.to/lastmile_qr_scan"}, "is_reserved": 0}, {"lon": -77.04904633333334, "bike_id": "9fb842565d9b16ecc9fd4c47df8b6664", "lat": 38.888383166666664, "fusion_lon": 0.0, "fusion_lat": 0.0, "type": "electric_scooter", "name": "9fb842565d9b16ecc9fd4c47df8b6664", "is_disabled": 0, "rental_uris": {"ios": "https://dc.lft.to/lastmile_qr_scan", "android": "https://dc.lft.to/lastmile_qr_scan"}, "is_reserved": 0}, {"lon": -76.8839805, "bike_id": "de6c266638b408f887e946419f22956b", "lat": 38.93171016666667, "fusion_lon": 0.0, "fusion_lat": 0.0, "type": "electric_bike", "name": "de6c266638b408f887e946419f22956b", "is_disabled": 0, "rental_uris": {"ios": "https://dc.lft.to/lastmile_qr_scan", "android": "https://dc.lft.to/lastmile_qr_scan"}, "is_reserved": 0}, {"lon": -77.05589083333334, "bike_id": "00516c7bbaf286656e35f4ade3ec6da4", "lat": 38.9335915, "fusion_lon": 0.0, "fusion_lat": 0.0, "type": "electric_scooter", "name": "00516c7bbaf286656e35f4ade3ec6da4", "is_disabled": 0, "rental_uris": {"ios": "https://dc.lft.to/lastmile_qr_scan", "android": "https://dc.lft.to/lastmile_qr_scan"}, "is_reserved": 0}, {"lon": -76.956564, "bike_id": "732ec6028405779200d04fb597d9f46f", "lat": 38.89622716666667, "fusion_lon": 0.0, "fusion_lat": 0.0, "type": "electric_scooter", "name": "732ec6028405779200d04fb597d9f46f", "is_disabled": 0, "rental_uris": {"ios": "https://dc.lft.to/lastmile_qr_scan", "android": "https://dc.lft.to/lastmile_qr_scan"}, "is_reserved": 0},