{"data": {"bikes": [{"lat": 38.891872, "lon": -77.00343033333333, "is_disabled": 0, "fusion_lon": 0.0, "is_reserved": 0, "name": "294fa8e5a80f56e1f983352e808c8fed", "type": "electric_scooter", "bike_id": "294fa8e5a80f56e1f983352e808c8fed", "rental_uris": {"ios": "https://dc.lft.to/lastmile_qr_scan", "android": "https://dc.lft.to/lastmile_qr_scan"}, "fusion_lat": 0.0}, {"lat": 38.900168, "lon": -77.03952333333334, "is_disabled": 0, "fusion_lon": 0.0, "is_reserved": 0, "name": "1f9ffa60f484ef3d17e30e58c19c3695", "type": "electric_scooter", "bike_id": "1f9ffa60f484ef3d17e30e58c19c3695", "rental_uris": {"ios": "https://dc.lft.to/lastmile_qr_scan", "android": "https://dc.lft.to/lastmile_qr_scan"}, "fusion_lat": 0.0}, {"lat": 38.9112375, "lon": -77.021956, "is_disabled": 0, "fusion_lon": 0.0, "is_reserved": 0, "name": "cadb14dd7a312cf2dbd2371747e3a39b", "type": "electric_scooter", "bike_id": "cadb14dd7a312cf2dbd2371747e3a39b", "rental_uris": {"ios": "https://dc.lft.to/lastmile_qr_scan", "android": "https://dc.lft.to/lastmile_qr_scan"}, "fusion_lat": 0.0}, {"lat": 38.915781333333335, "lon": -77.012311, "is_disabled": 0, "fusion_lon": 0.0, "is_reserved": 0, "name": "205c1b6222a31722cee95e819aec29a5", "type": "electric_scooter", "bike_id": "205c1b6222a31722cee95e819aec29a5", "rental_uris": {"ios": "https://dc.lft.to/lastmile_qr_scan", "android": "https://dc.lft.to/lastmile_qr_scan"}, "fusion_lat": 0.0}, {"lat": 38.944554833333335, "lon": -77.02800466666666, "is_disabled": 0, "fusion_lon": 0.0, "is_reserved": 0, "name": "58f81ffea6e0a194c3d842fab0e0df39", "type": "electric_scooter", "bike_id": "58f81ffea6e0a194c3d842fab0e0df39", "rental_uris": {"ios": "https://dc.lft.to/lastmile_qr_scan", "android": "https://dc.lft.to/lastmile_qr_scan"}, "fusion_lat": 0.0}, {"lat": 38.91711516666667, "lon": -77.03244216666667, "is_disabled": 0, "fusion_lon": 0.0, "is_reserved": 0, "name": "fd738fd530a9bad0c925de8959dd9229", "type": "electric_scooter", "bike_id": "fd738fd530a9bad0c925de8959dd9229", "rental_uris": {"ios": "https://dc.lft.to/lastmile_qr_scan", "android": "https://dc.lft.to/lastmile_qr_scan"}, "fusion_lat": 0.0}, {"lat": 39.0706705, "lon": -77.11521, "is_disabled": 0, "fusion_lon": 0.0, "is_reserved": 0, "name": "e1969931f785aee9671ab97ba14e6af9", "type": "electric_bike", "bike_id": "e1969931f785aee9671ab97ba14e6af9", "rental_uris": {"ios": "https://dc.lft.to/lastmile_qr_scan", "android": "https://dc.lft.to/lastmile_qr_scan"}, "fusion_lat": 0.0}, {"lat": 38.89895716666667, "lon": -76.98083716666666, "is_disabled": 0, "fusion_lon": 0.0, "is_reserved": 0, "name": "6bdeca5ca58deff79ef2264272850717", "type": "electric_scooter", "bike_id": "6bdeca5ca58deff79ef2264272850717", "rental_uris": {"ios": "https://dc.lft.to/lastmile_qr_scan", "android": "https://dc.lft.to/lastmile_qr_scan"}, "fusion_lat": 0.0}, {"lat": 38.90007766666667, "lon": -77.00684583333333, "is_disabled": 0, "fusion_lon": 0.0, "is_reserved": 0, "name": "5e0e92a3e8741053c8d412def71615ee", "type": "electric_scooter", "bike_id": "5e0e92a3e8741053c8d412def71615ee", "rental_uris": {"ios": "https://dc.lft.to/lastmile_qr_scan", "android": "https://dc.lft.to/lastmile_qr_scan"}, "fusion_lat": 0.0}, {"lat": 38.91491333333333, "lon": -77.04245633333333, "is_disabled": 0, "fusion_lon": 0.0, "is_reserved": 0, "name": "27cf964d78fe787eee081da8e4e006e5", "type": "electric_scooter", "bike_id": "27cf964d78fe787eee081da8e4e006e5", "rental_uris": {"ios": "https://dc.lft.to/lastmile_qr_scan", "android": "https://dc.lft.to/lastmile_qr_scan"}, "fusion_lat": 0.0}, {"lat": 38.89231616666667, "lon": -77.02615633333333, "is_disabled": 0, "fusion_lon": 0.0, "is_reserved": 0, "name": "951887e77c2b1962e2a82e9d3e5c2330", "type": "electric_scooter", "bike_id": "951887e77c2b1962e2a82e9d3e5c2330", "rental_uris": {"ios": "https://dc.lft.to/lastmile_qr_scan", "android": "https://dc.lft.to/lastmile_qr_scan"}, "fusion_lat": 0.0}, {"lat": 38.862756, "lon": -76.9954445, "is_disabled": 0, "fusion_lon": 0.0, "is_reserved": 0, "name": "9116b2dd099dd6b98351352987d24f45", "type": "electric_scooter", "bike_id": "9116b2dd099dd6b98351352987d24f45", "rental_uris": {"ios": "https://dc.lft.to/lastmile_qr_scan", "android": "https://dc.lft.to/lastmile_qr_scan"}, "fusion_lat": 0.0}, {"lat": 38.92073883333333, "lon": -77.04213, "is_disabled": 0, "fusion_lon": 0.0, "is_reserved": 0, "name": "acb928615bcef5c6f575bc17eba9e342", "type": "electric_scooter", "bike_id": "acb928615bcef5c6f575bc17eba9e342", "rental_uris": {"ios": "https://dc.lft.to/lastmile_qr_scan", "android": "https://dc.lft.to/lastmile_qr_scan"}, "fusion_lat": 0.0}, {"lat": 38.90619383333333, "lon": -77.04873383333333, "is_disabled": 0, "fusion_lon": 0.0, "is_reserved": 0, "name": "8fd2ab6d371343d7133a447f2489d9f3", "type": "electric_scooter", "bike_id": "8fd2ab6d371343d7133a447f2489d9f3", "rental_uris": {"ios": "https://dc.lft.to/lastmile_qr_scan", "android": "https://dc.lft.to/lastmile_qr_scan"}, "fusion_lat": 0.0}, {"lat": 38.9124295, "lon": -77.048749, "is_disabled": 0, "fusion_lon": 0.0, "is_reserved": 0, "name": "f7e6ddeccd2f741f11b1bbb9905449da", "type": "electric_scooter", "bike_id": "f7e6ddeccd2f741f11b1bbb9905449da", "rental_uris": {"ios": "https://dc.lft.to/lastmile_qr_scan", "android": "https://dc.lft.to/lastmile_qr_scan"}, "fusion_lat": 0.0}, {"lat": 38.85517766666667, "lon": -76.9843305, "is_disabled": 0, "fusion_lon": 0.0, "is_reserved": 0, "name": "6d8c0dd5a1c127b773a9b982e63b1911", "type": "electric_bike", "bike_id": "6d8c0dd5a1c127b773a9b982e63b1911", "rental_uris": {"ios": "https://dc.lft.to/lastmile_qr_scan", "android": "https://dc.lft.to/lastmile_qr_scan"}, "fusion_lat": 0.0}, {"lat": 38.933815833333334, "lon": -77.0296945, "is_disabled": 0, "fusion_lon": 0.0, "is_reserved": 0, "name": "1453c0df24a85845c2ad4581ba78f905", "type": "electric_scooter", "bike_id": "1453c0df24a85845c2ad4581ba78f905", "rental_uris": {"ios": "https://dc.lft.to/lastmile_qr_scan", "android": "https://dc.lft.to/lastmile_qr_scan"}, "fusion_lat": 0.0}, {"lat": 38.806819833333336, "lon": -77.09346316666667, "is_disabled": 0, "fusion_lon": 0.0, "is_reserved": 0, "name": "4c50213e817fead352b67923a18f7970", "type": "electric_bike", "bike_id": "4c50213e817fead352b67923a18f7970", "rental_uris": {"ios": "https://dc.lft.to/lastmile_qr_scan", "android": "https://dc.lft.to/lastmile_qr_scan"}, "fusion_lat": 0.0}, {"lat": 38.897056, "lon": -77.02677, "is_disabled": 0, "fusion_lon": 0.0, "is_reserved": 0, "name": "76733ffa2612594e5447130918c03f1a", "type": "electric_scooter", "bike_id": "76733ffa2612594e5447130918c03f1a", "rental_uris": {"ios": "https://dc.lft.to/lastmile_qr_scan", "android": "https://dc.lft.to/lastmile_qr_scan"}, "fusion_lat": 0.0}, {"lat": 38.91819, "lon": -77.04173266666666, "is_disabled": 0, "fusion_lon": 0.0, "is_reserved": 0, "name": "0b8266a92fc7977c0a92365684ec1d5c", "type": "electric_scooter", "bike_id": "0b8266a92fc7977c0a92365684ec1d5c", "rental_uris": {"ios": "https://dc.lft.to/lastmile_qr_scan", "android": "https://dc.lft.to/lastmile_qr_scan"}, "fusion_lat": 0.0}, {"lat": 38.924599, "lon": -77.02153066666666, "is_disabled": 0, "fusion_lon": 0.0, "is_reserved": 0, "name": "f9d8a5f68048c95d92af6136b6f1a283", "type": "electric_scooter", "bike_id": "f9d8a5f68048c95d92af6136b6f1a283", "rental_uris": {"ios": "https://dc.lft.to/lastmile_qr_scan", "android": "https://dc.lft.to/lastmile_qr_scan"}, "fusion_lat": 0.0}, {"lat": 38.87683666666667, "lon": -77.003011, "is_disabled": 0, "fusion_lon": 0.0, "is_reserved": 0, "name": "fd234b4ea32d210b3943e0f506bdc64e", "type": "electric_scooter", "bike_id": "fd234b4ea32d210b3943e0f506bdc64e", "rental_uris": {"ios": "https://dc.lft.to/lastmile_qr_scan", "android": "https://dc.lft.to/lastmile_qr_scan"}, "fusion_lat": 0.0}, {"lat": 38.90729866666667, "lon": -77.00955783333333, "is_disabled": 0, "fusion_lon": 0.0, "is_reserved": 0, "name": "723f2cae439446e8fb2a4a93edb65d89", "type": "electric_scooter", "bike_id": "723f2cae439446e8fb2a4a93edb65d89", "rental_uris": {"ios": "https://dc.lft.to/lastmile_qr_scan", "android": "https://dc.lft.to/lastmile_qr_scan"}, "fusion_lat": 0.0}, {"lat": 38.9289935, "lon": -77.0580685, "is_disabled": 0, "fusion_lon": 0.0, "is_reserved": 0, "name": "a8b834dca4b267bcab319a5e19ab002c", "type": "electric_scooter", "bike_id": "a8b834dca4b267bcab319a5e19ab002c", "rental_uris": {"ios": "https://dc.lft.to/lastmile_qr_scan", "android": "https://dc.lft.to/lastmile_qr_scan"}, "fusion_lat": 0.0}, {"lat": 38.921182, "lon": -77.0413135, "is_disabled": 0, "fusion_lon": 0.0, "is_reserved": 0, "name": "37a85f1d7a14b151ff1731428f957f42", "type": "electric_scooter", "bike_id": "37a85f1d7a14b151ff1731428f957f42", "rental_uris": {"ios": "https://dc.lft.to/lastmile_qr_scan", "android": "https://dc.lft.to/lastmile_qr_scan"}, "fusion_lat": 0.0}, {"lat": 38.9081515, "lon": -77.03944566666667, "is_disabled": 0, "fusion_lon": 0.0, "is_reserved": 0, "name": "45abcb7e8841c88eae41a8b19c7a0fde", "type": "electric_scooter", "bike_id": "45abcb7e8841c88eae41a8b19c7a0fde", "rental_uris": {"ios": "https://dc.lft.to/lastmile_qr_scan", "android": "https://dc.lft.to/lastmile_qr_scan"}, "fusion_lat": 0.0}, {"lat": 38.898940833333334, "lon": -77.01971583333334, "is_disabled": 0, "fusion_lon": 0.0, "is_reserved": 0, "name": "6cee214d0515345a4cd2dfdfc5680fc8", "type": "electric_scooter", "bike_id": "6cee214d0515345a4cd2dfdfc5680fc8", "rental_uris": {"ios": "https://dc.lft.to/lastmile_qr_scan", "android": "https://dc.lft.to/lastmile_qr_scan"}, "fusion_lat": 0.0}, {"lat": 38.926503, "lon": -77.0383685, "is_disabled": 0, "fusion_lon": 0.0, "is_reserved": 0, "name": "951db719d71dd3f939fde3cc51f36abc", "type": "electric_scooter", "bike_id": "951db719d71dd3f939fde3cc51f36abc", "rental_uris": {"ios": "https://dc.lft.to/lastmile_qr_scan", "android": "https://dc.lft.to/lastmile_qr_scan"}, "fusion_lat": 0.0}, {"lat": 38.923070333333335, "lon": -77.0431195, "is_disabled": 0, "fusion_lon": 0.0, "is_reserved": 0, "name": "be5cd043500103b6fa5f4ab6305529aa", "type": "electric_scooter", "bike_id": "be5cd043500103b6fa5f4ab6305529aa", "rental_uris": {"ios": "https://dc.lft.to/lastmile_qr_scan", "android": "https://dc.lft.to/lastmile_qr_scan"}, "fusion_lat": 0.0}, {"lat": 38.927517333333334, "lon": -77.03332116666667, "is_disabled": 0, "fusion_lon": 0.0, "is_reserved": 0, "name": "5a5d629c9dd50788663369df6835e0f1", "type": "electric_scooter", "bike_id": "5a5d629c9dd50788663369df6835e0f1", "rental_uris": {"ios": "https://dc.lft.to/lastmile_qr_scan", "android": "https://dc.lft.to/lastmile_qr_scan"}, "fusion_lat": 0.0}, {"lat": 38.8998435, "lon": -77.0286225, "is_disabled": 0, "fusion_lon": 0.0, "is_reserved": 0, "name": "e3816ad3f6056e6b77d0ca2b250a958c", "type": "electric_scooter", "bike_id": "e3816ad3f6056e6b77d0ca2b250a958c", "rental_uris": {"ios": "https://dc.lft.to/lastmile_qr_scan", "android": "https://dc.lft.to/lastmile_qr_scan"}, "fusion_lat": 0.0}, {"lat": 39.09966133333333, "lon": -77.18305666666667, "is_disabled": 0, "fusion_lon": 0.0, "is_reserved": 0, "name": "0ed5a50b24667539280f01339207db14", "type": "electric_bike", "bike_id": "0ed5a50b24667539280f01339207db14", "rental_uris": {"ios": "https://dc.lft.to/lastmile_qr_scan", "android": "https://dc.lft.to/lastmile_qr_scan"}, "fusion_lat": 0.0}, {"lat": 38.899654166666664, "lon": -77.0219305, "is_disabled": 0, "fusion_lon": 0.0, "is_reserved": 0, "name": "d67f7669058881fb784e336be990d752", "type": "electric_scooter", "bike_id": "d67f7669058881fb784e336be990d752", "rental_uris": {"ios": "https://dc.lft.to/lastmile_qr_scan", "android": "https://dc.lft.to/lastmile_qr_scan"}, "fusion_lat": 0.0}, {"lat": 38.898525666666664, "lon": -76.9903595, "is_disabled": 0, "fusion_lon": 0.0, "is_reserved": 0, "name": "7592344be2407292754478d453df092e", "type": "electric_scooter", "bike_id": "7592344be2407292754478d453df092e", "rental_uris": {"ios": "https://dc.lft.to/lastmile_qr_scan", "android": "https://dc.lft.to/lastmile_qr_scan"}, "fusion_lat": 0.0}, {"lat": 38.949796666666664, "lon": -77.02446566666667, "is_disabled": 0, "fusion_lon": 0.0, "is_reserved": 0, "name": "c1e93eb53327fd1c2366a63b0ca71242", "type": "electric_scooter", "bike_id": "c1e93eb53327fd1c2366a63b0ca71242", "rental_uris": {"ios": "https://dc.lft.to/lastmile_qr_scan", "android": "https://dc.lft.to/lastmile_qr_scan"}, "fusion_lat": 0.0}, {"lat": 38.89071533333333, "lon": -76.988344, "is_disabled": 0, "fusion_lon": 0.0, "is_reserved": 0, "name": "c1f49b10f9b5bce773309b37c5e6c1aa", "type": "electric_scooter", "bike_id": "c1f49b10f9b5bce773309b37c5e6c1aa", "rental_uris": {"ios": "https://dc.lft.to/lastmile_qr_scan", "android": "https://dc.lft.to/lastmile_qr_scan"}, "fusion_lat": 0.0}, {"lat": 38.912823333333336, "lon": -77.04511283333333, "is_disabled": 0, "fusion_lon": 0.0, "is_reserved": 0, "name": "56c2688fae39347c9bcefc60fea1bdaf", "type": "electric_scooter", "bike_id": "56c2688fae39347c9bcefc60fea1bdaf", "rental_uris": {"ios": "https://dc.lft.to/lastmile_qr_scan", "android": "https://dc.lft.to/lastmile_qr_scan"}, "fusion_lat": 0.0}, {"lat": 38.8763995, "lon": -77.01476683333334, "is_disabled": 0, "fusion_lon": 0.0, "is_reserved": 0, "name": "cd393a47f3c6927dba29d93a3c542558", "type": "electric_scooter", "bike_id": "cd393a47f3c6927dba29d93a3c542558", "rental_uris": {"ios": "https://dc.lft.to/lastmile_qr_scan", "android": "https://dc.lft.to/lastmile_qr_scan"}, "fusion_lat": 0.0}, {"lat": 38.961554166666666, "lon": -77.027834, "is_disabled": 0, "fusion_lon": 0.0, "is_reserved": 0, "name": "708bba49021f56cf9e3f7c1bc2592f08", "type": "electric_scooter", "bike_id": "708bba49021f56cf9e3f7c1bc2592f08", "rental_uris": {"ios": "https://dc.lft.to/lastmile_qr_scan", "android": "https://dc.lft.to/lastmile_qr_scan"}, "fusion_lat": 0.0}, {"lat": 38.89930666666667, "lon": -77.01272416666667, "is_disabled": 0, "fusion_lon": 0.0, "is_reserved": 0, "name": "ea9f35ebbc67b8aefbe56c80b51b1f6f", "type": "electric_scooter", "bike_id": "ea9f35ebbc67b8aefbe56c80b51b1f6f", "rental_uris": {"ios": "https://dc.lft.to/lastmile_qr_scan", "android": "https://dc.lft.to/lastmile_qr_scan"}, "fusion_lat": 0.0}, {"lat": 38.918586166666664, "lon": -76.960897, "is_disabled": 0, "fusion_lon": 0.0, "is_reserved": 0, "name": "1ff04fe3500bc89ab2df8297d0828a09", "type": "electric_bike", "bike_id": "1ff04fe3500bc89ab2df8297d0828a09", "rental_uris": {"ios": "https://dc.lft.to/lastmile_qr_scan", "android": "https://dc.lft.to/lastmile_qr_scan"}, "fusion_lat": 0.0}, {"lat": 38.908220166666666, "lon": -77.063829, "is_disabled": 0, "fusion_lon": 0.0, "is_reserved": 0, "name": "755c283d83cabc86f03cbb2a94d97f12", "type": "electric_scooter", "bike_id": "755c283d83cabc86f03cbb2a94d97f12", "rental_uris": {"ios": "https://dc.lft.to/lastmile_qr_scan", "android": "https://dc.lft.to/lastmile_qr_scan"}, "fusion_lat": 0.0}, {"lat": 38.9157245, "lon": -77.03205683333333, "is_disabled": 0, "fusion_lon": 0.0, "is_reserved": 0, "name": "43141286d5bd9f1821e77217726d37d9", "type": "electric_scooter", "bike_id": "43141286d5bd9f1821e77217726d37d9", "rental_uris": {"ios": "https://dc.lft.to/lastmile_qr_scan", "android": "https://dc.lft.to/lastmile_qr_scan"}, "fusion_lat": 0.0}, {"lat": 38.9067125, "lon": -77.00967766666666, "is_disabled": 0, "fusion_lon": 0.0, "is_reserved": 0, "name": "89536d8f715b3d8eda04b136490d48e7", "type": "electric_scooter", "bike_id": "89536d8f715b3d8eda04b136490d48e7", "rental_uris": {"ios": "https://dc.lft.to/lastmile_qr_scan", "android": "https://dc.lft.to/lastmile_qr_scan"}, "fusion_lat": 0.0}, {"lat": 38.908247833333334, "lon": -76.93440716666667, "is_disabled": 0, "fusion_lon": 0.0, "is_reserved": 0, "name": "f6e1f5bbf47f1ff45f9d14028024cc25", "type": "electric_scooter", "bike_id": "f6e1f5bbf47f1ff45f9d14028024cc25", "rental_uris": {"ios": "https://dc.lft.to/lastmile_qr_scan", "android": "https://dc.lft.to/lastmile_qr_scan"}, "fusion_lat": 0.0}, {"lat": 38.900374166666666, "lon": -77.03721633333333, "is_disabled": 0, "fusion_lon": 0.0, "is_reserved": 0, "name": "aa047e40a68ebcfa011ac481f24c0d13", "type": "electric_scooter", "bike_id": "aa047e40a68ebcfa011ac481f24c0d13", "rental_uris": {"ios": "https://dc.lft.to/lastmile_qr_scan", "android": "https://dc.lft.to/lastmile_qr_scan"}, "fusion_lat": 0.0}, {"lat": 38.90717883333333, "lon": -77.01660783333334, "is_disabled": 0, "fusion_lon": 0.0, "is_reserved": 0, "name": "9792908e7860396acf882a46094467a7", "type": "electric_scooter", "bike_id": "9792908e7860396acf882a46094467a7", "rental_uris": {"ios": "https://dc.lft.to/lastmile_qr_scan", "android": "https://dc.lft.to/lastmile_qr_scan"}, "fusion_lat": 0.0}, {"lat": 38.92145283333333, "lon": -77.0436255, "is_disabled": 0, "fusion_lon": 0.0, "is_reserved": 0, "name": "fd18bfe8c36cd4733bb1b0bb6da44d09", "type": "electric_scooter", "bike_id": "fd18bfe8c36cd4733bb1b0bb6da44d09", "rental_uris": {"ios": "https://dc.lft.to/lastmile_qr_scan", "android": "https://dc.lft.to/lastmile_qr_scan"}, "fusion_lat": 0.0}, {"lat": 38.88748416666667, "lon": -77.02570633333333, "is_disabled": 0, "fusion_lon": 0.0, "is_reserved": 0, "name": "7ae07ff7363eba0f5891185c232e0c2e", "type": "electric_scooter", "bike_id": "7ae07ff7363eba0f5891185c232e0c2e", "rental_uris": {"ios": "https://dc.lft.to/lastmile_qr_scan", "android": "https://dc.lft.to/lastmile_qr_scan"}, "fusion_lat": 0.0}, {"lat": 38.83626316666667, "lon": -77.0695425, "is_disabled": 0, "fusion_lon": 0.0, "is_reserved": 0, "name": "8eac007d0b9518de92bdb85a499d9264", "type": "electric_bike", "bike_id": "8eac007d0b9518de92bdb85a499d9264", "rental_uris": {"ios": "https://dc.lft.to/lastmile_qr_scan", "android": "https://dc.lft.to/lastmile_qr_scan"}, "fusion_lat": 0.0}, {"lat": 38.93720966666667, "lon": -77.03263983333333, "is_disabled": 0, "fusion_lon": 0.0, "is_reserved": 0, "name": "3a3425979647c816aee127425861da4c", "type": "electric_scooter", "bike_id": "3a3425979647c816aee127425861da4c", "rental_uris": {"ios": "https://dc.lft.to/lastmile_qr_scan", "android": "https://dc.lft.to/lastmile_qr_scan"}, "fusion_lat": 0.0}, {"lat": 38.950383333333335, "lon": -77.027194, "is_disabled": 0, "fusion_lon": 0.0, "is_reserved": 0, "name": "93bd87051f2e2de60a734af813590006", "type": "electric_scooter", "bike_id": "93bd87051f2e2de60a734af813590006", "rental_uris": {"ios": "https://dc.lft.to/lastmile_qr_scan", "android": "https://dc.lft.to/lastmile_qr_scan"}, "fusion_lat": 0.0}, {"lat": 38.918540666666665, "lon": -77.02448016666666, "is_disabled": 0, "fusion_lon": 0.0, "is_reserved": 0, "name": "8f13ebba0f1e70213df1af3794c09c4d", "type": "electric_scooter", "bike_id": "8f13ebba0f1e70213df1af3794c09c4d", "rental_uris": {"ios": "https://dc.lft.to/lastmile_qr_scan", "android": "https://dc.lft.to/lastmile_qr_scan"}, "fusion_lat": 0.0}, {"lat": 38.892236833333335, "lon": -77.045042, "is_disabled": 0, "fusion_lon": 0.0, "is_reserved": 0, "name": "ef8856d8d195fd62735913f9dff94c4d", "type": "electric_scooter", "bike_id": "ef8856d8d195fd62735913f9dff94c4d", "rental_uris": {"ios": "https://dc.lft.to/lastmile_qr_scan", "android": "https://dc.lft.to/lastmile_qr_scan"}, "fusion_lat": 0.0}, {"lat": 38.91120183333334, "lon": -77.045415, "is_disabled": 0, "fusion_lon": 0.0, "is_reserved": 0, "name": "adee3b511e27232b9ac642febf93080d", "type": "electric_scooter", "bike_id": "adee3b511e27232b9ac642febf93080d", "rental_uris": {"ios": "https://dc.lft.to/lastmile_qr_scan", "android": "https://dc.lft.to/lastmile_qr_scan"}, "fusion_lat": 0.0}, {"lat": 38.92895133333333, "lon": -77.0136295, "is_disabled": 0, "fusion_lon": 0.0, "is_reserved": 0, "name": "3a893768d927840cbbfab7021576de64", "type": "electric_scooter", "bike_id": "3a893768d927840cbbfab7021576de64", "rental_uris": {"ios": "https://dc.lft.to/lastmile_qr_scan", "android": "https://dc.lft.to/lastmile_qr_scan"}, "fusion_lat": 0.0}, {"lat": 38.9256245, "lon": -77.03784233333333, "is_disabled": 0, "fusion_lon": 0.0, "is_reserved": 0, "name": "f418845b1ec90bb043e16e67640331ec", "type": "electric_scooter", "bike_id": "f418845b1ec90bb043e16e67640331ec", "rental_uris": {"ios": "https://dc.lft.to/lastmile_qr_scan", "android": "https://dc.lft.to/lastmile_qr_scan"}, "fusion_lat": 0.0}, {"lat": 38.9029505, "lon": -77.04239616666666, "is_disabled": 0, "fusion_lon": 0.0, "is_reserved": 0, "name": "66725d5fc6d7f79433ab4900de74012a", "type": "electric_scooter", "bike_id": "66725d5fc6d7f79433ab4900de74012a", "rental_uris": {"ios": "https://dc.lft.to/lastmile_qr_scan", "android": "https://dc.lft.to/lastmile_qr_scan"}, "fusion_lat": 0.0}, {"lat": 38.90408733333334, "lon": -76.97334016666667, "is_disabled": 0, "fusion_lon": 0.0, "is_reserved": 0, "name": "7495c7ce560211917fe680235c1460eb", "type": "electric_scooter", "bike_id": "7495c7ce560211917fe680235c1460eb", "rental_uris": {"ios": "https://dc.lft.to/lastmile_qr_scan", "android": "https://dc.lft.to/lastmile_qr_scan"}, "fusion_lat": 0.0}, {"lat": 38.8756435, "lon": -77.00560533333334, "is_disabled": 0, "fusion_lon": 0.0, "is_reserved": 0, "name": "bf36054ff50ff8cab578c7fe1cb132f0", "type": "electric_scooter", "bike_id": "bf36054ff50ff8cab578c7fe1cb132f0", "rental_uris": {"ios": "https://dc.lft.to/lastmile_qr_scan", "android": "https://dc.lft.to/lastmile_qr_scan"}, "fusion_lat": 0.0}, {"lat": 38.904401666666665, "lon": -77.043506, "is_disabled": 0, "fusion_lon": 0.0, "is_reserved": 0, "name": "c47c8c94723fc5786f54b5295697c2a4", "type": "electric_scooter", "bike_id": "c47c8c94723fc5786f54b5295697c2a4", "rental_uris": {"ios": "https://dc.lft.to/lastmile_qr_scan", "android": "https://dc.lft.to/lastmile_qr_scan"}, "fusion_lat": 0.0}, {"lat": 38.89695583333334, "lon": -77.0433615, "is_disabled": 0, "fusion_lon": 0.0, "is_reserved": 0, "name": "e87f83c0fb7fffa434d0e72bcb15f362", "type": "electric_scooter", "bike_id": "e87f83c0fb7fffa434d0e72bcb15f362", "rental_uris": {"ios": "https://dc.lft.to/lastmile_qr_scan", "android": "https://dc.lft.to/lastmile_qr_scan"}, "fusion_lat": 0.0}, {"lat": 38.91449016666667, "lon": -77.0448365, "is_disabled": 0, "fusion_lon": 0.0, "is_reserved": 0, "name": "f0b024d7fad9d911628b2522d62b89b0", "type": "electric_scooter", "bike_id": "f0b024d7fad9d911628b2522d62b89b0", "rental_uris": {"ios": "https://dc.lft.to/lastmile_qr_scan", "android": "https://dc.lft.to/lastmile_qr_scan"}, "fusion_lat": 0.0}, {"lat": 38.92901033333333, "lon": -77.03264733333333, "is_disabled": 0, "fusion_lon": 0.0, "is_reserved": 0, "name": "7360bb01ac416a3b3d95bb621d043c83", "type": "electric_scooter", "bike_id": "7360bb01ac416a3b3d95bb621d043c83", "rental_uris": {"ios": "https://dc.lft.to/lastmile_qr_scan", "android": "https://dc.lft.to/lastmile_qr_scan"}, "fusion_lat": 0.0}, {"lat": 38.899588, "lon": -76.9855805, "is_disabled": 0, "fusion_lon": 0.0, "is_reserved": 0, "name": "5c238363ebf88d8eaf01d1b669edca91", "type": "electric_scooter", "bike_id": "5c238363ebf88d8eaf01d1b669edca91", "rental_uris": {"ios": "https://dc.lft.to/lastmile_qr_scan", "android": "https://dc.lft.to/lastmile_qr_scan"}, "fusion_lat": 0.0}, {"lat": 38.92974133333333, "lon": -77.02408083333333, "is_disabled": 0, "fusion_lon": 0.0, "is_reserved": 0, "name": "5e52348081a142545c0ea4cdc4479333", "type": "electric_bike", "bike_id": "5e52348081a142545c0ea4cdc4479333", "rental_uris": {"ios": "https://dc.lft.to/lastmile_qr_scan", "android": "https://dc.lft.to/lastmile_qr_scan"}, "fusion_lat": 0.0}, {"lat": 38.895988333333335, "lon": -77.022067, "is_disabled": 0, "fusion_lon": 0.0, "is_reserved": 0, "name": "4b72dda0b63012952510f2a1041d0511", "type": "electric_scooter", "bike_id": "4b72dda0b63012952510f2a1041d0511", "rental_uris": {"ios": "https://dc.lft.to/lastmile_qr_scan", "android": "https://dc.lft.to/lastmile_qr_scan"}, "fusion_lat": 0.0}, {"lat": 38.88993083333333, "lon": -76.91417783333333, "is_disabled": 0, "fusion_lon": 0.0, "is_reserved": 0, "name": "4c215bf13e04198ebb3bb86e566e1910", "type": "electric_scooter", "bike_id": "4c215bf13e04198ebb3bb86e566e1910", "rental_uris": {"ios": "https://dc.lft.to/lastmile_qr_scan", "android": "https://dc.lft.to/lastmile_qr_scan"}, "fusion_lat": 0.0}, {"lat": 38.923914833333335, "lon": -77.0506055, "is_disabled": 0, "fusion_lon": 0.0, "is_reserved": 0, "name": "6a4abe83062e0546a8c003add8c0b803", "type": "electric_scooter", "bike_id": "6a4abe83062e0546a8c003add8c0b803", "rental_uris": {"ios": "https://dc.lft.to/lastmile_qr_scan", "android": "https://dc.lft.to/lastmile_qr_scan"}, "fusion_lat": 0.0}, {"lat": 38.907565166666664, "lon": -77.03079066666666, "is_disabled": 0, "fusion_lon": 0.0, "is_reserved": 0, "name": "63b5205228fd42cc3ea0411c02720a75", "type": "electric_scooter", "bike_id": "63b5205228fd42cc3ea0411c02720a75", "rental_uris": {"ios": "https://dc.lft.to/lastmile_qr_scan", "android": "https://dc.lft.to/lastmile_qr_scan"}, "fusion_lat": 0.0}, {"lat": 38.906229, "lon": -77.005606, "is_disabled": 0, "fusion_lon": 0.0, "is_reserved": 0, "name": "3fe1cc874a4e897eb17fb7f5e50d7c7b", "type": "electric_scooter", "bike_id": "3fe1cc874a4e897eb17fb7f5e50d7c7b", "rental_uris": {"ios": "https://dc.lft.to/lastmile_qr_scan", "android": "https://dc.lft.to/lastmile_qr_scan"}, "fusion_lat": 0.0}, {"lat": 38.93046866666667, "lon": -77.073, "is_disabled": 0, "fusion_lon": 0.0, "is_reserved": 0, "name": "778ae923a940619ba3d6936201bcde49", "type": "electric_scooter", "bike_id": "778ae923a940619ba3d6936201bcde49", "rental_uris": {"ios": "https://dc.lft.to/lastmile_qr_scan", "android": "https://dc.lft.to/lastmile_qr_scan"}, "fusion_lat": 0.0}, {"lat": 38.926274166666666, "lon": -77.0370345, "is_disabled": 0, "fusion_lon": 0.0, "is_reserved": 0, "name": "f436193df629c0b4ae5992ca49dc5c22", "type": "electric_scooter", "bike_id": "f436193df629c0b4ae5992ca49dc5c22", "rental_uris": {"ios": "https://dc.lft.to/lastmile_qr_scan", "android": "https://dc.lft.to/lastmile_qr_scan"}, "fusion_lat": 0.0}, {"lat": 38.94809633333333, "lon": -76.95969233333334, "is_disabled": 0, "fusion_lon": 0.0, "is_reserved": 0, "name": "dde7c8d250f9c8d493331577400391ac", "type": "electric_bike", "bike_id": "dde7c8d250f9c8d493331577400391ac", "rental_uris": {"ios": "https://dc.lft.to/lastmile_qr_scan", "android": "https://dc.lft.to/lastmile_qr_scan"}, "fusion_lat": 0.0}, {"lat": 38.889726333333336, "lon": -76.99466416666667, "is_disabled": 0, "fusion_lon": 0.0, "is_reserved": 0, "name": "3726d8ba549c1f0757df57fbc9cc61f8", "type": "electric_scooter", "bike_id": "3726d8ba549c1f0757df57fbc9cc61f8", "rental_uris": {"ios": "https://dc.lft.to/lastmile_qr_scan", "android": "https://dc.lft.to/lastmile_qr_scan"}, "fusion_lat": 0.0}, {"lat": 38.90549933333333, "lon": -77.0324525, "is_disabled": 0, "fusion_lon": 0.0, "is_reserved": 0, "name": "7970dc324d66486173d4b0c2db4831f0", "type": "electric_scooter", "bike_id": "7970dc324d66486173d4b0c2db4831f0", "rental_uris": {"ios": "https://dc.lft.to/lastmile_qr_scan", "android": "https://dc.lft.to/lastmile_qr_scan"}, "fusion_lat": 0.0}, {"lat": 38.9288975, "lon": -77.032255, "is_disabled": 0, "fusion_lon": 0.0, "is_reserved": 0, "name": "e75c9bb95f63039e428bba50e5bd3fd6", "type": "electric_scooter", "bike_id": "e75c9bb95f63039e428bba50e5bd3fd6", "rental_uris": {"ios": "https://dc.lft.to/lastmile_qr_scan", "android": "https://dc.lft.to/lastmile_qr_scan"}, "fusion_lat": 0.0}, {"lat": 38.9009445, "lon": -77.03486116666667, "is_disabled": 0, "fusion_lon": 0.0, "is_reserved": 0, "name": "426fba8ddec7add42d6ff0a48a2be57e", "type": "electric_scooter", "bike_id": "426fba8ddec7add42d6ff0a48a2be57e", "rental_uris": {"ios": "https://dc.lft.to/lastmile_qr_scan", "android": "https://dc.lft.to/lastmile_qr_scan"}, "fusion_lat": 0.0}, {"lat": 38.8922385, "lon": -77.03197783333333, "is_disabled": 0, "fusion_lon": 0.0, "is_reserved": 0, "name": "209cadbda6be14cd23aa61177c375b54", "type": "electric_scooter", "bike_id": "209cadbda6be14cd23aa61177c375b54", "rental_uris": {"ios": "https://dc.lft.to/lastmile_qr_scan", "android": "https://dc.lft.to/lastmile_qr_scan"}, "fusion_lat": 0.0}, {"lat": 38.9248365, "lon": -77.02596133333333, "is_disabled": 0, "fusion_lon": 0.0, "is_reserved": 0, "name": "13c7a1563fd973f9f9555dffd149e184", "type": "electric_scooter", "bike_id": "13c7a1563fd973f9f9555dffd149e184", "rental_uris": {"ios": "https://dc.lft.to/lastmile_qr_scan", "android": "https://dc.lft.to/lastmile_qr_scan"}, "fusion_lat": 0.0}, {"lat": 38.9251495, "lon": -77.0235905, "is_disabled": 0, "fusion_lon": 0.0, "is_reserved": 0, "name": "97e4a5bc55006fa9308626aee9043217", "type": "electric_scooter", "bike_id": "97e4a5bc55006fa9308626aee9043217", "rental_uris": {"ios": "https://dc.lft.to/lastmile_qr_scan", "android": "https://dc.lft.to/lastmile_qr_scan"}, "fusion_lat": 0.0}, {"lat": 38.900147, "lon": -77.04656866666667, "is_disabled": 0, "fusion_lon": 0.0, "is_reserved": 0, "name": "38c30028a05c943e2ca5285f5e27c3cf", "type": "electric_scooter", "bike_id": "38c30028a05c943e2ca5285f5e27c3cf", "rental_uris": {"ios": "https://dc.lft.to/lastmile_qr_scan", "android": "https://dc.lft.to/lastmile_qr_scan"}, "fusion_lat": 0.0}, {"lat": 38.92478533333333, "lon": -77.02661133333334, "is_disabled": 0, "fusion_lon": 0.0, "is_reserved": 0, "name": "6f0a84fd90fed894d23298e86047696c", "type": "electric_scooter", "bike_id": "6f0a84fd90fed894d23298e86047696c", "rental_uris": {"ios": "https://dc.lft.to/lastmile_qr_scan", "android": "https://dc.lft.to/lastmile_qr_scan"}, "fusion_lat": 0.0}, {"lat": 38.91046166666667, "lon": -77.03194083333334, "is_disabled": 0, "fusion_lon": 0.0, "is_reserved": 0, "name": "57a46efaa36641ea9960f8d29d94775f", "type": "electric_scooter", "bike_id": "57a46efaa36641ea9960f8d29d94775f", "rental_uris": {"ios": "https://dc.lft.to/lastmile_qr_scan", "android": "https://dc.lft.to/lastmile_qr_scan"}, "fusion_lat": 0.0}, {"lat": 38.90352983333333, "lon": -77.02191566666667, "is_disabled": 0, "fusion_lon": 0.0, "is_reserved": 0, "name": "6fd746a1b2e134b28dffeea34123a146", "type": "electric_scooter", "bike_id": "6fd746a1b2e134b28dffeea34123a146", "rental_uris": {"ios": "https://dc.lft.to/lastmile_qr_scan", "android": "https://dc.lft.to/lastmile_qr_scan"}, "fusion_lat": 0.0}, {"lat": 38.91115583333333, "lon": -77.04465516666667, "is_disabled": 0, "fusion_lon": 0.0, "is_reserved": 0, "name": "bd448607d40fde186530b0c6cffb2fc6", "type": "electric_scooter", "bike_id": "bd448607d40fde186530b0c6cffb2fc6", "rental_uris": {"ios": "https://dc.lft.to/lastmile_qr_scan", "android": "https://dc.lft.to/lastmile_qr_scan"}, "fusion_lat": 0.0}, {"lat": 38.9163565, "lon": -77.03188366666667, "is_disabled": 0, "fusion_lon": 0.0, "is_reserved": 0, "name": "0bb41f62265143baa8db3ba08b25a0f0", "type": "electric_scooter", "bike_id": "0bb41f62265143baa8db3ba08b25a0f0", "rental_uris": {"ios": "https://dc.lft.to/lastmile_qr_scan", "android": "https://dc.lft.to/lastmile_qr_scan"}, "fusion_lat": 0.0}, {"lat": 38.93487433333333, "lon": -77.07279833333334, "is_disabled": 0, "fusion_lon": 0.0, "is_reserved": 0, "name": "bd347bcb92d34d3ad7b3d30089cd2f96", "type": "electric_scooter", "bike_id": "bd347bcb92d34d3ad7b3d30089cd2f96", "rental_uris": {"ios": "https://dc.lft.to/lastmile_qr_scan", "android": "https://dc.lft.to/lastmile_qr_scan"}, "fusion_lat": 0.0}, {"lat": 38.892221666666664, "lon": -77.0322275, "is_disabled": 0, "fusion_lon": 0.0, "is_reserved": 0, "name": "549e817020d8121a38ac29e08cccd544", "type": "electric_scooter", "bike_id": "549e817020d8121a38ac29e08cccd544", "rental_uris": {"ios": "https://dc.lft.to/lastmile_qr_scan", "android": "https://dc.lft.to/lastmile_qr_scan"}, "fusion_lat": 0.0}, {"lat": 38.96142183333333, "lon": -77.02787833333333, "is_disabled": 0, "fusion_lon": 0.0, "is_reserved": 0, "name": "e413395747a2e868005b00e4f181eb20", "type": "electric_scooter", "bike_id": "e413395747a2e868005b00e4f181eb20", "rental_uris": {"ios": "https://dc.lft.to/lastmile_qr_scan", "android": "https://dc.lft.to/lastmile_qr_scan"}, "fusion_lat": 0.0}, {"lat": 38.8972885, "lon": -77.07892666666666, "is_disabled": 0, "fusion_lon": 0.0, "is_reserved": 0, "name": "20b9f3428190ea9f2912d690c82dd6d1", "type": "electric_scooter", "bike_id": "20b9f3428190ea9f2912d690c82dd6d1", "rental_uris": {"ios": "https://dc.lft.to/lastmile_qr_scan", "android": "https://dc.lft.to/lastmile_qr_scan"}, "fusion_lat": 0.0}, {"lat": 38.9274025, "lon": -77.02704133333333, "is_disabled": 0, "fusion_lon": 0.0, "is_reserved": 0, "name": "b25394a8364f18123e19de2ffdb445ad", "type": "electric_scooter", "bike_id": "b25394a8364f18123e19de2ffdb445ad", "rental_uris": {"ios": "https://dc.lft.to/lastmile_qr_scan", "android": "https://dc.lft.to/lastmile_qr_scan"}, "fusion_lat": 0.0}, {"lat": 38.899475333333335, "lon": -77.045031, "is_disabled": 0, "fusion_lon": 0.0, "is_reserved": 0, "name": "3e9b4c273b6455932b860d139e29bacf", "type": "electric_scooter", "bike_id": "3e9b4c273b6455932b860d139e29bacf", "rental_uris": {"ios": "https://dc.lft.to/lastmile_qr_scan", "android": "https://dc.lft.to/lastmile_qr_scan"}, "fusion_lat": 0.0}, {"lat": 38.924331333333335, "lon": -77.05217916666666, "is_disabled": 0, "fusion_lon": 0.0, "is_reserved": 0, "name": "07a5a10d9a74b2b13bc6fe7b595ccd62", "type": "electric_scooter", "bike_id": "07a5a10d9a74b2b13bc6fe7b595ccd62", "rental_uris": {"ios": "https://dc.lft.to/lastmile_qr_scan", "android": "https://dc.lft.to/lastmile_qr_scan"}, "fusion_lat": 0.0}, {"lat": 38.91558533333333, "lon": -77.0058765, "is_disabled": 0, "fusion_lon": 0.0, "is_reserved": 0, "name": "6a6b9e8c6afea83e52348e4430bd90ab", "type": "electric_scooter", "bike_id": "6a6b9e8c6afea83e52348e4430bd90ab", "rental_uris": {"ios": "https://dc.lft.to/lastmile_qr_scan", "android": "https://dc.lft.to/lastmile_qr_scan"}, "fusion_lat": 0.0}, {"lat": 38.898011833333335, "lon": -77.01199866666667, "is_disabled": 0, "fusion_lon": 0.0, "is_reserved": 0, "name": "d09d1907e5f77b3a237624046d163af8", "type": "electric_scooter", "bike_id": "d09d1907e5f77b3a237624046d163af8", "rental_uris": {"ios": "https://dc.lft.to/lastmile_qr_scan", "android": "https://dc.lft.to/lastmile_qr_scan"}, "fusion_lat": 0.0}, {"lat": 38.92088116666667, "lon": -76.994871, "is_disabled": 0, "fusion_lon": 0.0, "is_reserved": 0, "name": "69412d1884c7352234c5d8b0ca339471", "type": "electric_scooter", "bike_id": "69412d1884c7352234c5d8b0ca339471", "rental_uris": {"ios": "https://dc.lft.to/lastmile_qr_scan", "android": "https://dc.lft.to/lastmile_qr_scan"}, "fusion_lat": 0.0}, {"lat": 38.92462033333334, "lon": -77.02248733333333, "is_disabled": 0, "fusion_lon": 0.0, "is_reserved": 0, "name": "8ac2b81ec99b16b0fc94252ee6064bca", "type": "electric_scooter", "bike_id": "8ac2b81ec99b16b0fc94252ee6064bca", "rental_uris": {"ios": "https://dc.lft.to/lastmile_qr_scan", "android": "https://dc.lft.to/lastmile_qr_scan"}, "fusion_lat": 0.0}, {"lat": 38.89776066666667, "lon": -77.0237995, "is_disabled": 0, "fusion_lon": 0.0, "is_reserved": 0, "name": "3f0ca691d9aa3531285328fb2f2544a6", "type": "electric_scooter", "bike_id": "3f0ca691d9aa3531285328fb2f2544a6", "rental_uris": {"ios": "https://dc.lft.to/lastmile_qr_scan", "android": "https://dc.lft.to/lastmile_qr_scan"}, "fusion_lat": 0.0}, {"lat": 38.90940283333333, "lon": -77.044748, "is_disabled": 0, "fusion_lon": 0.0, "is_reserved": 0, "name": "a9bede42f14a19b5cbeacaa352b4c061", "type": "electric_scooter", "bike_id": "a9bede42f14a19b5cbeacaa352b4c061", "rental_uris": {"ios": "https://dc.lft.to/lastmile_qr_scan", "android": "https://dc.lft.to/lastmile_qr_scan"}, "fusion_lat": 0.0}, {"lat": 38.914153, "lon": -77.0209655, "is_disabled": 0, "fusion_lon": 0.0, "is_reserved": 0, "name": "4b493233fae4facd2efd515784c40627", "type": "electric_scooter", "bike_id": "4b493233fae4facd2efd515784c40627", "rental_uris": {"ios": "https://dc.lft.to/lastmile_qr_scan", "android": "https://dc.lft.to/lastmile_qr_scan"}, "fusion_lat": 0.0}, {"lat": 38.912795, "lon": -77.03671216666666, "is_disabled": 0, "fusion_lon": 0.0, "is_reserved": 0, "name": "4c5fe3afb6bf4bc4eb7f3fd70d19314e", "type": "electric_scooter", "bike_id": "4c5fe3afb6bf4bc4eb7f3fd70d19314e", "rental_uris": {"ios": "https://dc.lft.to/lastmile_qr_scan", "android": "https://dc.lft.to/lastmile_qr_scan"}, "fusion_lat": 0.0}, {"lat": 38.90957733333333, "lon": -77.0461225, "is_disabled": 0, "fusion_lon": 0.0, "is_reserved": 0, "name": "8fc8555f4d7f4ff669670a8f1cfd45af", "type": "electric_scooter", "bike_id": "8fc8555f4d7f4ff669670a8f1cfd45af", "rental_uris": {"ios": "https://dc.lft.to/lastmile_qr_scan", "android": "https://dc.lft.to/lastmile_qr_scan"}, "fusion_lat": 0.0}, {"lat": 38.89809983333333, "lon": -77.02226483333334, "is_disabled": 0, "fusion_lon": 0.0, "is_reserved": 0, "name": "628ea920e5a750804bce646a71b70d30", "type": "electric_scooter", "bike_id": "628ea920e5a750804bce646a71b70d30", "rental_uris": {"ios": "https://dc.lft.to/lastmile_qr_scan", "android": "https://dc.lft.to/lastmile_qr_scan"}, "fusion_lat": 0.0}, {"lat": 38.892223666666666, "lon": -77.02776616666667, "is_disabled": 0, "fusion_lon": 0.0, "is_reserved": 0, "name": "88abedcad63d7e277c383aeac67552b1", "type": "electric_scooter", "bike_id": "88abedcad63d7e277c383aeac67552b1", "rental_uris": {"ios": "https://dc.lft.to/lastmile_qr_scan", "android": "https://dc.lft.to/lastmile_qr_scan"}, "fusion_lat": 0.0}, {"lat": 38.90884, "lon": -77.04158333333334, "is_disabled": 0, "fusion_lon": 0.0, "is_reserved": 0, "name": "c8e0d05b47c0cf606589066af1bd70a1", "type": "electric_scooter", "bike_id": "c8e0d05b47c0cf606589066af1bd70a1", "rental_uris": {"ios": "https://dc.lft.to/lastmile_qr_scan", "android": "https://dc.lft.to/lastmile_qr_scan"}, "fusion_lat": 0.0}, {"lat": 38.8765225, "lon": -77.003112, "is_disabled": 0, "fusion_lon": 0.0, "is_reserved": 0, "name": "d54db52e64008f19d2217cc48b70b1b4", "type": "electric_scooter", "bike_id": "d54db52e64008f19d2217cc48b70b1b4", "rental_uris": {"ios": "https://dc.lft.to/lastmile_qr_scan", "android": "https://dc.lft.to/lastmile_qr_scan"}, "fusion_lat": 0.0}, {"lat": 38.91598416666667, "lon": -77.01440016666666, "is_disabled": 0, "fusion_lon": 0.0, "is_reserved": 0, "name": "5ced706d41465b8ea4d57793dffa863a", "type": "electric_scooter", "bike_id": "5ced706d41465b8ea4d57793dffa863a", "rental_uris": {"ios": "https://dc.lft.to/lastmile_qr_scan", "android": "https://dc.lft.to/lastmile_qr_scan"}, "fusion_lat": 0.0}, {"lat": 38.905667333333334, "lon": -77.00809416666667, "is_disabled": 0, "fusion_lon": 0.0, "is_reserved": 0, "name": "573b73837995b430ea8c8676526f2660", "type": "electric_scooter", "bike_id": "573b73837995b430ea8c8676526f2660", "rental_uris": {"ios": "https://dc.lft.to/lastmile_qr_scan", "android": "https://dc.lft.to/lastmile_qr_scan"}, "fusion_lat": 0.0}, {"lat": 38.92161333333333, "lon": -77.02400366666667, "is_disabled": 0, "fusion_lon": 0.0, "is_reserved": 0, "name": "a772971ebe661fdd1545ca1b4999a3f6", "type": "electric_scooter", "bike_id": "a772971ebe661fdd1545ca1b4999a3f6", "rental_uris": {"ios": "https://dc.lft.to/lastmile_qr_scan", "android": "https://dc.lft.to/lastmile_qr_scan"}, "fusion_lat": 0.0}, {"lat": 38.9969525, "lon": -77.025522, "is_disabled": 0, "fusion_lon": 0.0, "is_reserved": 0, "name": "db7b9fb3ef6832a6d48e8c9a2a2934b8", "type": "electric_bike", "bike_id": "db7b9fb3ef6832a6d48e8c9a2a2934b8", "rental_uris": {"ios": "https://dc.lft.to/lastmile_qr_scan", "android": "https://dc.lft.to/lastmile_qr_scan"}, "fusion_lat": 0.0}, {"lat": 38.89756833333333, "lon": -77.0330265, "is_disabled": 0, "fusion_lon": 0.0, "is_reserved": 0, "name": "143fa2a70be4a63451dcbbd8f2d15018", "type": "electric_scooter", "bike_id": "143fa2a70be4a63451dcbbd8f2d15018", "rental_uris": {"ios": "https://dc.lft.to/lastmile_qr_scan", "android": "https://dc.lft.to/lastmile_qr_scan"}, "fusion_lat": 0.0}, {"lat": 38.94182716666667, "lon": -77.02537716666667, "is_disabled": 0, "fusion_lon": 0.0, "is_reserved": 0, "name": "bb8479f1859486fdcf48e526d754e1b0", "type": "electric_scooter", "bike_id": "bb8479f1859486fdcf48e526d754e1b0", "rental_uris": {"ios": "https://dc.lft.to/lastmile_qr_scan", "android": "https://dc.lft.to/lastmile_qr_scan"}, "fusion_lat": 0.0}, {"lat": 38.907742, "lon": -77.03589166666667, "is_disabled": 0, "fusion_lon": 0.0, "is_reserved": 0, "name": "e0404380fcd94de184c9afbee3a627ea", "type": "electric_scooter", "bike_id": "e0404380fcd94de184c9afbee3a627ea", "rental_uris": {"ios": "https://dc.lft.to/lastmile_qr_scan", "android": "https://dc.lft.to/lastmile_qr_scan"}, "fusion_lat": 0.0}, {"lat": 38.908804, "lon": -77.03245516666667, "is_disabled": 0, "fusion_lon": 0.0, "is_reserved": 0, "name": "435497b2d206df00d557f25be52c7c9c", "type": "electric_scooter", "bike_id": "435497b2d206df00d557f25be52c7c9c", "rental_uris": {"ios": "https://dc.lft.to/lastmile_qr_scan", "android": "https://dc.lft.to/lastmile_qr_scan"}, "fusion_lat": 0.0}, {"lat": 38.91638866666667, "lon": -77.029688, "is_disabled": 0, "fusion_lon": 0.0, "is_reserved": 0, "name": "61d4eec31a9cf2d079990715150d21c3", "type": "electric_scooter", "bike_id": "61d4eec31a9cf2d079990715150d21c3", "rental_uris": {"ios": "https://dc.lft.to/lastmile_qr_scan", "android": "https://dc.lft.to/lastmile_qr_scan"}, "fusion_lat": 0.0}, {"lat": 38.9147625, "lon": -77.04249633333333, "is_disabled": 0, "fusion_lon": 0.0, "is_reserved": 0, "name": "1ff2e601e1ee479f4bca03869a2eaf43", "type": "electric_scooter", "bike_id": "1ff2e601e1ee479f4bca03869a2eaf43", "rental_uris": {"ios": "https://dc.lft.to/lastmile_qr_scan", "android": "https://dc.lft.to/lastmile_qr_scan"}, "fusion_lat": 0.0}, {"lat": 38.9081835, "lon": -76.9920865, "is_disabled": 0, "fusion_lon": 0.0, "is_reserved": 0, "name": "2e8dd0d961f3cc19d1e9bf67eadeaad7", "type": "electric_scooter", "bike_id": "2e8dd0d961f3cc19d1e9bf67eadeaad7", "rental_uris": {"ios": "https://dc.lft.to/lastmile_qr_scan", "android": "https://dc.lft.to/lastmile_qr_scan"}, "fusion_lat": 0.0}, {"lat": 38.92438833333333, "lon": -77.05200583333334, "is_disabled": 0, "fusion_lon": 0.0, "is_reserved": 0, "name": "7864f71e6821b5fa07ab37ad7a2273ff", "type": "electric_scooter", "bike_id": "7864f71e6821b5fa07ab37ad7a2273ff", "rental_uris": {"ios": "https://dc.lft.to/lastmile_qr_scan", "android": "https://dc.lft.to/lastmile_qr_scan"}, "fusion_lat": 0.0}, {"lat": 38.902742833333335, "lon": -77.03441733333334, "is_disabled": 0, "fusion_lon": 0.0, "is_reserved": 0, "name": "9a30c283edad881b858b4d234091f2f8", "type": "electric_scooter", "bike_id": "9a30c283edad881b858b4d234091f2f8", "rental_uris": {"ios": "https://dc.lft.to/lastmile_qr_scan", "android": "https://dc.lft.to/lastmile_qr_scan"}, "fusion_lat": 0.0}, {"lat": 38.92302933333333, "lon": -77.02330633333334, "is_disabled": 0, "fusion_lon": 0.0, "is_reserved": 0, "name": "e8c4e63af03ffb61a065b44474fa9986", "type": "electric_scooter", "bike_id": "e8c4e63af03ffb61a065b44474fa9986", "rental_uris": {"ios": "https://dc.lft.to/lastmile_qr_scan", "android": "https://dc.lft.to/lastmile_qr_scan"}, "fusion_lat": 0.0}, {"lat": 38.892239000000004, "lon": -77.02357016666667, "is_disabled": 0, "fusion_lon": 0.0, "is_reserved": 0, "name": "a7e63263707d842647c5041d4e1d9d23", "type": "electric_scooter", "bike_id": "a7e63263707d842647c5041d4e1d9d23", "rental_uris": {"ios": "https://dc.lft.to/lastmile_qr_scan", "android": "https://dc.lft.to/lastmile_qr_scan"}, "fusion_lat": 0.0}, {"lat": 38.91611366666667, "lon": -77.03210883333334, "is_disabled": 0, "fusion_lon": 0.0, "is_reserved": 0, "name": "e8e2210a642165c91113d5fbf515b0b7", "type": "electric_scooter", "bike_id": "e8e2210a642165c91113d5fbf515b0b7", "rental_uris": {"ios": "https://dc.lft.to/lastmile_qr_scan", "android": "https://dc.lft.to/lastmile_qr_scan"}, "fusion_lat": 0.0}, {"lat": 38.899072833333335, "lon": -77.023853, "is_disabled": 0, "fusion_lon": 0.0, "is_reserved": 0, "name": "7ba76a10a4f809b2f14c33763bc441d4", "type": "electric_scooter", "bike_id": "7ba76a10a4f809b2f14c33763bc441d4", "rental_uris": {"ios": "https://dc.lft.to/lastmile_qr_scan", "android": "https://dc.lft.to/lastmile_qr_scan"}, "fusion_lat": 0.0}, {"lat": 38.90273166666667, "lon": -77.06276883333334, "is_disabled": 0, "fusion_lon": 0.0, "is_reserved": 0, "name": "611277dbfa8b4542d6b7c971138ed0dd", "type": "electric_scooter", "bike_id": "611277dbfa8b4542d6b7c971138ed0dd", "rental_uris": {"ios": "https://dc.lft.to/lastmile_qr_scan", "android": "https://dc.lft.to/lastmile_qr_scan"}, "fusion_lat": 0.0}, {"lat": 38.91792216666666, "lon": -77.0229905, "is_disabled": 0, "fusion_lon": 0.0, "is_reserved": 0, "name": "c4aaf2ad41fdb4fb43872d5abd849169", "type": "electric_scooter", "bike_id": "c4aaf2ad41fdb4fb43872d5abd849169", "rental_uris": {"ios": "https://dc.lft.to/lastmile_qr_scan", "android": "https://dc.lft.to/lastmile_qr_scan"}, "fusion_lat": 0.0}, {"lat": 38.905044, "lon": -77.0569485, "is_disabled": 0, "fusion_lon": 0.0, "is_reserved": 0, "name": "c94051fd0e847226380ca1425757ca89", "type": "electric_scooter", "bike_id": "c94051fd0e847226380ca1425757ca89", "rental_uris": {"ios": "https://dc.lft.to/lastmile_qr_scan", "android": "https://dc.lft.to/lastmile_qr_scan"}, "fusion_lat": 0.0}, {"lat": 38.92298016666667, "lon": -77.042971, "is_disabled": 0, "fusion_lon": 0.0, "is_reserved": 0, "name": "8327a11b9de8c0b70cbbcb3db7dbb06b", "type": "electric_scooter", "bike_id": "8327a11b9de8c0b70cbbcb3db7dbb06b", "rental_uris": {"ios": "https://dc.lft.to/lastmile_qr_scan", "android": "https://dc.lft.to/lastmile_qr_scan"}, "fusion_lat": 0.0}, {"lat": 38.9212705, "lon": -77.02199316666666, "is_disabled": 0, "fusion_lon": 0.0, "is_reserved": 0, "name": "b0f0386597f66e70bbf6a9dd87b0b670", "type": "electric_scooter", "bike_id": "b0f0386597f66e70bbf6a9dd87b0b670", "rental_uris": {"ios": "https://dc.lft.to/lastmile_qr_scan", "android": "https://dc.lft.to/lastmile_qr_scan"}, "fusion_lat": 0.0}, {"lat": 38.90322583333333, "lon": -76.9814295, "is_disabled": 0, "fusion_lon": 0.0, "is_reserved": 0, "name": "3d417048cde2b6a7c7b18391c89c708d", "type": "electric_scooter", "bike_id": "3d417048cde2b6a7c7b18391c89c708d", "rental_uris": {"ios": "https://dc.lft.to/lastmile_qr_scan", "android": "https://dc.lft.to/lastmile_qr_scan"}, "fusion_lat": 0.0}, {"lat": 38.8811805, "lon": -77.01660466666667, "is_disabled": 0, "fusion_lon": 0.0, "is_reserved": 0, "name": "3ba8127abc5a033495a8647b4653ec60", "type": "electric_scooter", "bike_id": "3ba8127abc5a033495a8647b4653ec60", "rental_uris": {"ios": "https://dc.lft.to/lastmile_qr_scan", "android": "https://dc.lft.to/lastmile_qr_scan"}, "fusion_lat": 0.0}, {"lat": 38.91056316666667, "lon": -77.021972, "is_disabled": 0, "fusion_lon": 0.0, "is_reserved": 0, "name": "e9efe1c972dff198dfb7c4ff2e591f4e", "type": "electric_scooter", "bike_id": "e9efe1c972dff198dfb7c4ff2e591f4e", "rental_uris": {"ios": "https://dc.lft.to/lastmile_qr_scan", "android": "https://dc.lft.to/lastmile_qr_scan"}, "fusion_lat": 0.0}, {"lat": 38.91203333333333, "lon": -77.0118165, "is_disabled": 0, "fusion_lon": 0.0, "is_reserved": 0, "name": "e155a36b5bcd53e10d152c83de149e45", "type": "electric_scooter", "bike_id": "e155a36b5bcd53e10d152c83de149e45", "rental_uris": {"ios": "https://dc.lft.to/lastmile_qr_scan", "android": "https://dc.lft.to/lastmile_qr_scan"}, "fusion_lat": 0.0}, {"lat": 38.86015066666667, "lon": -76.96708283333334, "is_disabled": 0, "fusion_lon": 0.0, "is_reserved": 0, "name": "756b4bf362d139fd687cf53c3df4a922", "type": "electric_scooter", "bike_id": "756b4bf362d139fd687cf53c3df4a922", "rental_uris": {"ios": "https://dc.lft.to/lastmile_qr_scan", "android": "https://dc.lft.to/lastmile_qr_scan"}, "fusion_lat": 0.0}, {"lat": 38.90875183333333, "lon": -77.040635, "is_disabled": 0, "fusion_lon": 0.0, "is_reserved": 0, "name": "1d79af2a5baf92ec30ae45bcbbc99d08", "type": "electric_scooter", "bike_id": "1d79af2a5baf92ec30ae45bcbbc99d08", "rental_uris": {"ios": "https://dc.lft.to/lastmile_qr_scan", "android": "https://dc.lft.to/lastmile_qr_scan"}, "fusion_lat": 0.0}, {"lat": 38.927293, "lon": -77.02274716666666, "is_disabled": 0, "fusion_lon": 0.0, "is_reserved": 0, "name": "b6deea345a5c2d34fb0d468cc7e21020", "type": "electric_scooter", "bike_id": "b6deea345a5c2d34fb0d468cc7e21020", "rental_uris": {"ios": "https://dc.lft.to/lastmile_qr_scan", "android": "https://dc.lft.to/lastmile_qr_scan"}, "fusion_lat": 0.0}, {"lat": 38.9082595, "lon": -77.03399783333333, "is_disabled": 0, "fusion_lon": 0.0, "is_reserved": 0, "name": "ff84635b7d40a9f285b153c1b442c306", "type": "electric_scooter", "bike_id": "ff84635b7d40a9f285b153c1b442c306", "rental_uris": {"ios": "https://dc.lft.to/lastmile_qr_scan", "android": "https://dc.lft.to/lastmile_qr_scan"}, "fusion_lat": 0.0}, {"lat": 38.901078, "lon": -76.930442, "is_disabled": 0, "fusion_lon": 0.0, "is_reserved": 0, "name": "c004a196844587a40844de42d5080516", "type": "electric_scooter", "bike_id": "c004a196844587a40844de42d5080516", "rental_uris": {"ios": "https://dc.lft.to/lastmile_qr_scan", "android": "https://dc.lft.to/lastmile_qr_scan"}, "fusion_lat": 0.0}, {"lat": 38.9087835, "lon": -77.07168983333334, "is_disabled": 0, "fusion_lon": 0.0, "is_reserved": 0, "name": "9e93201b9f0c713251c07e3277b27b43", "type": "electric_scooter", "bike_id": "9e93201b9f0c713251c07e3277b27b43", "rental_uris": {"ios": "https://dc.lft.to/lastmile_qr_scan", "android": "https://dc.lft.to/lastmile_qr_scan"}, "fusion_lat": 0.0}, {"lat": 38.90369583333333, "lon": -77.03848983333333, "is_disabled": 0, "fusion_lon": 0.0, "is_reserved": 0, "name": "fd4bbc088b55ab153421942cbdcf99b5", "type": "electric_scooter", "bike_id": "fd4bbc088b55ab153421942cbdcf99b5", "rental_uris": {"ios": "https://dc.lft.to/lastmile_qr_scan", "android": "https://dc.lft.to/lastmile_qr_scan"}, "fusion_lat": 0.0}, {"lat": 38.91825633333333, "lon": -77.02420416666666, "is_disabled": 0, "fusion_lon": 0.0, "is_reserved": 0, "name": "2df1b330bdbbb2c6f572132d7f8d34a8", "type": "electric_scooter", "bike_id": "2df1b330bdbbb2c6f572132d7f8d34a8", "rental_uris": {"ios": "https://dc.lft.to/lastmile_qr_scan", "android": "https://dc.lft.to/lastmile_qr_scan"}, "fusion_lat": 0.0}, {"lat": 38.92612666666667, "lon": -77.03237716666666, "is_disabled": 0, "fusion_lon": 0.0, "is_reserved": 0, "name": "f7b4320396c3fa65482282c826f7dd02", "type": "electric_scooter", "bike_id": "f7b4320396c3fa65482282c826f7dd02", "rental_uris": {"ios": "https://dc.lft.to/lastmile_qr_scan", "android": "https://dc.lft.to/lastmile_qr_scan"}, "fusion_lat": 0.0}, {"lat": 38.910577333333336, "lon": -77.02200716666667, "is_disabled": 0, "fusion_lon": 0.0, "is_reserved": 0, "name": "2224e73815cc4eaca59025b131949c00", "type": "electric_scooter", "bike_id": "2224e73815cc4eaca59025b131949c00", "rental_uris": {"ios": "https://dc.lft.to/lastmile_qr_scan", "android": "https://dc.lft.to/lastmile_qr_scan"}, "fusion_lat": 0.0}, {"lat": 38.916704, "lon": -77.03169983333333, "is_disabled": 0, "fusion_lon": 0.0, "is_reserved": 0, "name": "ba3dd1c7cc4b81ca6e9c10abed7e3fb8", "type": "electric_scooter", "bike_id": "ba3dd1c7cc4b81ca6e9c10abed7e3fb8", "rental_uris": {"ios": "https://dc.lft.to/lastmile_qr_scan", "android": "https://dc.lft.to/lastmile_qr_scan"}, "fusion_lat": 0.0}, {"lat": 38.93072, "lon": -77.02162733333333, "is_disabled": 0, "fusion_lon": 0.0, "is_reserved": 0, "name": "802aaad6208bd2764475c958fb933fc8", "type": "electric_scooter", "bike_id": "802aaad6208bd2764475c958fb933fc8", "rental_uris": {"ios": "https://dc.lft.to/lastmile_qr_scan", "android": "https://dc.lft.to/lastmile_qr_scan"}, "fusion_lat": 0.0}, {"lat": 38.873683, "lon": -77.0016205, "is_disabled": 0, "fusion_lon": 0.0, "is_reserved": 0, "name": "3781bbe3ec80068c1e60396664b68cbb", "type": "electric_scooter", "bike_id": "3781bbe3ec80068c1e60396664b68cbb", "rental_uris": {"ios": "https://dc.lft.to/lastmile_qr_scan", "android": "https://dc.lft.to/lastmile_qr_scan"}, "fusion_lat": 0.0}, {"lat": 38.907034333333335, "lon": -77.03532333333334, "is_disabled": 0, "fusion_lon": 0.0, "is_reserved": 0, "name": "c37ea6adcfa8469ab052b9fc864813f9", "type": "electric_scooter", "bike_id": "c37ea6adcfa8469ab052b9fc864813f9", "rental_uris": {"ios": "https://dc.lft.to/lastmile_qr_scan", "android": "https://dc.lft.to/lastmile_qr_scan"}, "fusion_lat": 0.0}, {"lat": 38.850925333333336, "lon": -76.956993, "is_disabled": 0, "fusion_lon": 0.0, "is_reserved": 0, "name": "5fe525a9d3959bdc17b506590245c045", "type": "electric_bike", "bike_id": "5fe525a9d3959bdc17b506590245c045", "rental_uris": {"ios": "https://dc.lft.to/lastmile_qr_scan", "android": "https://dc.lft.to/lastmile_qr_scan"}, "fusion_lat": 0.0}, {"lat": 38.91822766666667, "lon": -77.04171416666667, "is_disabled": 0, "fusion_lon": 0.0, "is_reserved": 0, "name": "906af2a8faca1d0990982557ec6f5949", "type": "electric_scooter", "bike_id": "906af2a8faca1d0990982557ec6f5949", "rental_uris": {"ios": "https://dc.lft.to/lastmile_qr_scan", "android": "https://dc.lft.to/lastmile_qr_scan"}, "fusion_lat": 0.0}, {"lat": 38.902386666666665, "lon": -77.04692133333333, "is_disabled": 0, "fusion_lon": 0.0, "is_reserved": 0, "name": "7aa7b4a535db0018ef537a95600ce8d6", "type": "electric_scooter", "bike_id": "7aa7b4a535db0018ef537a95600ce8d6", "rental_uris": {"ios": "https://dc.lft.to/lastmile_qr_scan", "android": "https://dc.lft.to/lastmile_qr_scan"}, "fusion_lat": 0.0}, {"lat": 38.88441816666667, "lon": -77.01781166666666, "is_disabled": 0, "fusion_lon": 0.0, "is_reserved": 0, "name": "3a5126af2dbf612be36f2a31e1419680", "type": "electric_scooter", "bike_id": "3a5126af2dbf612be36f2a31e1419680", "rental_uris": {"ios": "https://dc.lft.to/lastmile_qr_scan", "android": "https://dc.lft.to/lastmile_qr_scan"}, "fusion_lat": 0.0}, {"lat": 38.91907333333333, "lon": -77.0240805, "is_disabled": 0, "fusion_lon": 0.0, "is_reserved": 0, "name": "36f9c0ce1a9fc1a937de0779b4784543", "type": "electric_scooter", "bike_id": "36f9c0ce1a9fc1a937de0779b4784543", "rental_uris": {"ios": "https://dc.lft.to/lastmile_qr_scan", "android": "https://dc.lft.to/lastmile_qr_scan"}, "fusion_lat": 0.0}, {"lat": 38.919117666666665, "lon": -77.02364966666667, "is_disabled": 0, "fusion_lon": 0.0, "is_reserved": 0, "name": "41eb1eabab11e2072f00e7126aa63c74", "type": "electric_scooter", "bike_id": "41eb1eabab11e2072f00e7126aa63c74", "rental_uris": {"ios": "https://dc.lft.to/lastmile_qr_scan", "android": "https://dc.lft.to/lastmile_qr_scan"}, "fusion_lat": 0.0}, {"lat": 38.9055365, "lon": -77.0466115, "is_disabled": 0, "fusion_lon": 0.0, "is_reserved": 0, "name": "1e296868c32605660a023ea4035bc57b", "type": "electric_scooter", "bike_id": "1e296868c32605660a023ea4035bc57b", "rental_uris": {"ios": "https://dc.lft.to/lastmile_qr_scan", "android": "https://dc.lft.to/lastmile_qr_scan"}, "fusion_lat": 0.0}, {"lat": 38.92624266666667, "lon": -77.04195383333334, "is_disabled": 0, "fusion_lon": 0.0, "is_reserved": 0, "name": "4ddd635be616d54182c1aac30d734b62", "type": "electric_scooter", "bike_id": "4ddd635be616d54182c1aac30d734b62", "rental_uris": {"ios": "https://dc.lft.to/lastmile_qr_scan", "android": "https://dc.lft.to/lastmile_qr_scan"}, "fusion_lat": 0.0}, {"lat": 38.87290633333333, "lon": -76.97014216666666, "is_disabled": 0, "fusion_lon": 0.0, "is_reserved": 0, "name": "abc87f0a330e364e172cdea78b2ea7d0", "type": "electric_scooter", "bike_id": "abc87f0a330e364e172cdea78b2ea7d0", "rental_uris": {"ios": "https://dc.lft.to/lastmile_qr_scan", "android": "https://dc.lft.to/lastmile_qr_scan"}, "fusion_lat": 0.0}, {"lat": 38.898221, "lon": -77.031525, "is_disabled": 0, "fusion_lon": 0.0, "is_reserved": 0, "name": "7a5eebdc2eedc4c3c686698f5ce8bad2", "type": "electric_scooter", "bike_id": "7a5eebdc2eedc4c3c686698f5ce8bad2", "rental_uris": {"ios": "https://dc.lft.to/lastmile_qr_scan", "android": "https://dc.lft.to/lastmile_qr_scan"}, "fusion_lat": 0.0}, {"lat": 38.97502033333333, "lon": -77.01666316666666, "is_disabled": 0, "fusion_lon": 0.0, "is_reserved": 0, "name": "8a8fe97b217e3b84339892bec314a024", "type": "electric_scooter", "bike_id": "8a8fe97b217e3b84339892bec314a024", "rental_uris": {"ios": "https://dc.lft.to/lastmile_qr_scan", "android": "https://dc.lft.to/lastmile_qr_scan"}, "fusion_lat": 0.0}, {"lat": 38.93454416666667, "lon": -77.02915433333334, "is_disabled": 0, "fusion_lon": 0.0, "is_reserved": 0, "name": "60afa1fb5682489293bee36dc28e3e76", "type": "electric_scooter", "bike_id": "60afa1fb5682489293bee36dc28e3e76", "rental_uris": {"ios": "https://dc.lft.to/lastmile_qr_scan", "android": "https://dc.lft.to/lastmile_qr_scan"}, "fusion_lat": 0.0}, {"lat": 38.957377, "lon": -77.02403933333333, "is_disabled": 0, "fusion_lon": 0.0, "is_reserved": 0, "name": "6e21e6931c8eacb6e2630c2765e38eb7", "type": "electric_scooter", "bike_id": "6e21e6931c8eacb6e2630c2765e38eb7", "rental_uris": {"ios": "https://dc.lft.to/lastmile_qr_scan", "android": "https://dc.lft.to/lastmile_qr_scan"}, "fusion_lat": 0.0}, {"lat": 38.9249945, "lon": -77.02407066666666, "is_disabled": 0, "fusion_lon": 0.0, "is_reserved": 0, "name": "d53ae117a703b0798dc87482f82ad31a", "type": "electric_scooter", "bike_id": "d53ae117a703b0798dc87482f82ad31a", "rental_uris": {"ios": "https://dc.lft.to/lastmile_qr_scan", "android": "https://dc.lft.to/lastmile_qr_scan"}, "fusion_lat": 0.0}, {"lat": 38.8970565, "lon": -76.93578316666667, "is_disabled": 0, "fusion_lon": 0.0, "is_reserved": 0, "name": "577a7598b8bb6d4d820846ff756183f7", "type": "electric_scooter", "bike_id": "577a7598b8bb6d4d820846ff756183f7", "rental_uris": {"ios": "https://dc.lft.to/lastmile_qr_scan", "android": "https://dc.lft.to/lastmile_qr_scan"}, "fusion_lat": 0.0}, {"lat": 38.89928283333333, "lon": -77.01271233333334, "is_disabled": 0, "fusion_lon": 0.0, "is_reserved": 0, "name": "57972e44b99ed5b74ec97681e1c9475b", "type": "electric_scooter", "bike_id": "57972e44b99ed5b74ec97681e1c9475b", "rental_uris": {"ios": "https://dc.lft.to/lastmile_qr_scan", "android": "https://dc.lft.to/lastmile_qr_scan"}, "fusion_lat": 0.0}, {"lat": 38.915980166666664, "lon": -77.03219416666667, "is_disabled": 0, "fusion_lon": 0.0, "is_reserved": 0, "name": "4732d645045078231e1d03b0c91e3597", "type": "electric_scooter", "bike_id": "4732d645045078231e1d03b0c91e3597", "rental_uris": {"ios": "https://dc.lft.to/lastmile_qr_scan", "android": "https://dc.lft.to/lastmile_qr_scan"}, "fusion_lat": 0.0}, {"lat": 38.90051733333333, "lon": -77.04477133333333, "is_disabled": 0, "fusion_lon": 0.0, "is_reserved": 0, "name": "ce03b3560fccba583b5726b4fdd0668e", "type": "electric_scooter", "bike_id": "ce03b3560fccba583b5726b4fdd0668e", "rental_uris": {"ios": "https://dc.lft.to/lastmile_qr_scan", "android": "https://dc.lft.to/lastmile_qr_scan"}, "fusion_lat": 0.0}, {"lat": 38.900759, "lon": -77.02303416666666, "is_disabled": 0, "fusion_lon": 0.0, "is_reserved": 0, "name": "8554c5de9e813d39c435ff49e3b82e8d", "type": "electric_scooter", "bike_id": "8554c5de9e813d39c435ff49e3b82e8d", "rental_uris": {"ios": "https://dc.lft.to/lastmile_qr_scan", "android": "https://dc.lft.to/lastmile_qr_scan"}, "fusion_lat": 0.0}, {"lat": 38.980489, "lon": -76.957905, "is_disabled": 0, "fusion_lon": 0.0, "is_reserved": 0, "name": "d17b383c7f9059662a0ee98c27951fcc", "type": "electric_bike", "bike_id": "d17b383c7f9059662a0ee98c27951fcc", "rental_uris": {"ios": "https://dc.lft.to/lastmile_qr_scan", "android": "https://dc.lft.to/lastmile_qr_scan"}, "fusion_lat": 0.0}, {"lat": 38.90998066666667, "lon": -77.04009333333333, "is_disabled": 0, "fusion_lon": 0.0, "is_reserved": 0, "name": "3a0140f170d14958d2d6375e985b9a57", "type": "electric_scooter", "bike_id": "3a0140f170d14958d2d6375e985b9a57", "rental_uris": {"ios": "https://dc.lft.to/lastmile_qr_scan", "android": "https://dc.lft.to/lastmile_qr_scan"}, "fusion_lat": 0.0}, {"lat": 38.903913833333334, "lon": -77.04683933333334, "is_disabled": 0, "fusion_lon": 0.0, "is_reserved": 0, "name": "5fe1456e2f4db0c6b8328399f5460c03", "type": "electric_scooter", "bike_id": "5fe1456e2f4db0c6b8328399f5460c03", "rental_uris": {"ios": "https://dc.lft.to/lastmile_qr_scan", "android": "https://dc.lft.to/lastmile_qr_scan"}, "fusion_lat": 0.0}, {"lat": 38.941907666666665, "lon": -77.0411245, "is_disabled": 0, "fusion_lon": 0.0, "is_reserved": 0, "name": "6335f682447eed197f7a1f3ecc169506", "type": "electric_scooter", "bike_id": "6335f682447eed197f7a1f3ecc169506", "rental_uris": {"ios": "https://dc.lft.to/lastmile_qr_scan", "android": "https://dc.lft.to/lastmile_qr_scan"}, "fusion_lat": 0.0}, {"lat": 38.900723166666666, "lon": -77.02621566666667, "is_disabled": 0, "fusion_lon": 0.0, "is_reserved": 0, "name": "2d4d08a82c91c08d1800bad11ff17ecc", "type": "electric_scooter", "bike_id": "2d4d08a82c91c08d1800bad11ff17ecc", "rental_uris": {"ios": "https://dc.lft.to/lastmile_qr_scan", "android": "https://dc.lft.to/lastmile_qr_scan"}, "fusion_lat": 0.0}, {"lat": 38.870340666666664, "lon": -77.22906866666666, "is_disabled": 0, "fusion_lon": 0.0, "is_reserved": 0, "name": "201b454e8412dcd6d6b7c7f112b48894", "type": "electric_bike", "bike_id": "201b454e8412dcd6d6b7c7f112b48894", "rental_uris": {"ios": "https://dc.lft.to/lastmile_qr_scan", "android": "https://dc.lft.to/lastmile_qr_scan"}, "fusion_lat": 0.0}, {"lat": 38.942725, "lon": -77.0325845, "is_disabled": 0, "fusion_lon": 0.0, "is_reserved": 0, "name": "dcc0e11e86bd27c0de366906934a4c18", "type": "electric_scooter", "bike_id": "dcc0e11e86bd27c0de366906934a4c18", "rental_uris": {"ios": "https://dc.lft.to/lastmile_qr_scan", "android": "https://dc.lft.to/lastmile_qr_scan"}, "fusion_lat": 0.0}, {"lat": 38.90869583333333, "lon": -77.0764825, "is_disabled": 0, "fusion_lon": 0.0, "is_reserved": 0, "name": "cddb1c334955020adc90e71dfa9ad70a", "type": "electric_bike", "bike_id": "cddb1c334955020adc90e71dfa9ad70a", "rental_uris": {"ios": "https://dc.lft.to/lastmile_qr_scan", "android": "https://dc.lft.to/lastmile_qr_scan"}, "fusion_lat": 0.0}, {"lat": 38.902851, "lon": -77.045944, "is_disabled": 0, "fusion_lon": 0.0, "is_reserved": 0, "name": "71b0d66dd8fd2746a476376900913d77", "type": "electric_scooter", "bike_id": "71b0d66dd8fd2746a476376900913d77", "rental_uris": {"ios": "https://dc.lft.to/lastmile_qr_scan", "android": "https://dc.lft.to/lastmile_qr_scan"}, "fusion_lat": 0.0}, {"lat": 38.92360516666667, "lon": -77.02117733333333, "is_disabled": 0, "fusion_lon": 0.0, "is_reserved": 0, "name": "a5b9a9ca4e08e28ba754e57d0fc7ac77", "type": "electric_scooter", "bike_id": "a5b9a9ca4e08e28ba754e57d0fc7ac77", "rental_uris": {"ios": "https://dc.lft.to/lastmile_qr_scan", "android": "https://dc.lft.to/lastmile_qr_scan"}, "fusion_lat": 0.0}, {"lat": 38.919188166666665, "lon": -77.03268583333333, "is_disabled": 0, "fusion_lon": 0.0, "is_reserved": 0, "name": "003a7e245244578030f58153a80d5074", "type": "electric_scooter", "bike_id": "003a7e245244578030f58153a80d5074", "rental_uris": {"ios": "https://dc.lft.to/lastmile_qr_scan", "android": "https://dc.lft.to/lastmile_qr_scan"}, "fusion_lat": 0.0}, {"lat": 38.901703, "lon": -77.0268935, "is_disabled": 0, "fusion_lon": 0.0, "is_reserved": 0, "name": "f3fd44e6dc43316a2e92b36409f4ca66", "type": "electric_scooter", "bike_id": "f3fd44e6dc43316a2e92b36409f4ca66", "rental_uris": {"ios": "https://dc.lft.to/lastmile_qr_scan", "android": "https://dc.lft.to/lastmile_qr_scan"}, "fusion_lat": 0.0}, {"lat": 38.901310333333335, "lon": -77.0324195, "is_disabled": 0, "fusion_lon": 0.0, "is_reserved": 0, "name": "7bbd419c09b842ed3fe99352d6790801", "type": "electric_bike", "bike_id": "7bbd419c09b842ed3fe99352d6790801", "rental_uris": {"ios": "https://dc.lft.to/lastmile_qr_scan", "android": "https://dc.lft.to/lastmile_qr_scan"}, "fusion_lat": 0.0}, {"lat": 38.8873465, "lon": -77.01388683333333, "is_disabled": 0, "fusion_lon": 0.0, "is_reserved": 0, "name": "1d209a34a54c468897cfe4bc19f2b012", "type": "electric_scooter", "bike_id": "1d209a34a54c468897cfe4bc19f2b012", "rental_uris": {"ios": "https://dc.lft.to/lastmile_qr_scan", "android": "https://dc.lft.to/lastmile_qr_scan"}, "fusion_lat": 0.0}, {"lat": 38.96227916666667, "lon": -77.0262885, "is_disabled": 0, "fusion_lon": 0.0, "is_reserved": 0, "name": "8821838dbefd541f55a5969efe5dd541", "type": "electric_bike", "bike_id": "8821838dbefd541f55a5969efe5dd541", "rental_uris": {"ios": "https://dc.lft.to/lastmile_qr_scan", "android": "https://dc.lft.to/lastmile_qr_scan"}, "fusion_lat": 0.0}, {"lat": 38.88019833333333, "lon": -76.98071216666666, "is_disabled": 0, "fusion_lon": 0.0, "is_reserved": 0, "name": "a7662bf044ae5004a9e4b96c34931a27", "type": "electric_scooter", "bike_id": "a7662bf044ae5004a9e4b96c34931a27", "rental_uris": {"ios": "https://dc.lft.to/lastmile_qr_scan", "android": "https://dc.lft.to/lastmile_qr_scan"}, "fusion_lat": 0.0}, {"lat": 38.931444, "lon": -77.038329, "is_disabled": 0, "fusion_lon": 0.0, "is_reserved": 0, "name": "ea32ad01027bfd8bea3f19e473f6257f", "type": "electric_scooter", "bike_id": "ea32ad01027bfd8bea3f19e473f6257f", "rental_uris": {"ios": "https://dc.lft.to/lastmile_qr_scan", "android": "https://dc.lft.to/lastmile_qr_scan"}, "fusion_lat": 0.0}, {"lat": 38.91801, "lon": -77.04015416666667, "is_disabled": 0, "fusion_lon": 0.0, "is_reserved": 0, "name": "b5bba68f156ae5f8c605f3914124a08b", "type": "electric_scooter", "bike_id": "b5bba68f156ae5f8c605f3914124a08b", "rental_uris": {"ios": "https://dc.lft.to/lastmile_qr_scan", "android": "https://dc.lft.to/lastmile_qr_scan"}, "fusion_lat": 0.0}, {"lat": 38.887448, "lon": -77.01405966666667, "is_disabled": 0, "fusion_lon": 0.0, "is_reserved": 0, "name": "92975c4013f5eca6538aad0ca8e5b014", "type": "electric_scooter", "bike_id": "92975c4013f5eca6538aad0ca8e5b014", "rental_uris": {"ios": "https://dc.lft.to/lastmile_qr_scan", "android": "https://dc.lft.to/lastmile_qr_scan"}, "fusion_lat": 0.0}, {"lat": 38.887350833333336, "lon": -77.03175716666667, "is_disabled": 0, "fusion_lon": 0.0, "is_reserved": 0, "name": "95af2238c7f18e9c803a07327d9c28b6", "type": "electric_scooter", "bike_id": "95af2238c7f18e9c803a07327d9c28b6", "rental_uris": {"ios": "https://dc.lft.to/lastmile_qr_scan", "android": "https://dc.lft.to/lastmile_qr_scan"}, "fusion_lat": 0.0}, {"lat": 38.90256633333333, "lon": -77.04620533333333, "is_disabled": 0, "fusion_lon": 0.0, "is_reserved": 0, "name": "36368b95d6e8948546d0787b32a3c91b", "type": "electric_scooter", "bike_id": "36368b95d6e8948546d0787b32a3c91b", "rental_uris": {"ios": "https://dc.lft.to/lastmile_qr_scan", "android": "https://dc.lft.to/lastmile_qr_scan"}, "fusion_lat": 0.0}, {"lat": 38.90195533333333, "lon": -77.02375466666666, "is_disabled": 0, "fusion_lon": 0.0, "is_reserved": 0, "name": "2b14585b3cc86f2cbfc15b0f39800df2", "type": "electric_scooter", "bike_id": "2b14585b3cc86f2cbfc15b0f39800df2", "rental_uris": {"ios": "https://dc.lft.to/lastmile_qr_scan", "android": "https://dc.lft.to/lastmile_qr_scan"}, "fusion_lat": 0.0}, {"lat": 38.8316185, "lon": -76.9957415, "is_disabled": 0, "fusion_lon": 0.0, "is_reserved": 0, "name": "dbe96da608d327d9abe74ed18015cda0", "type": "electric_bike", "bike_id": "dbe96da608d327d9abe74ed18015cda0", "rental_uris": {"ios": "https://dc.lft.to/lastmile_qr_scan", "android": "https://dc.lft.to/lastmile_qr_scan"}, "fusion_lat": 0.0}, {"lat": 38.907201, "lon": -77.02978883333333, "is_disabled": 0, "fusion_lon": 0.0, "is_reserved": 0, "name": "82290776f20fdccbc8cffcabf3eeb7ba", "type": "electric_scooter", "bike_id": "82290776f20fdccbc8cffcabf3eeb7ba", "rental_uris": {"ios": "https://dc.lft.to/lastmile_qr_scan", "android": "https://dc.lft.to/lastmile_qr_scan"}, "fusion_lat": 0.0}, {"lat": 38.8868845, "lon": -76.97639416666667, "is_disabled": 0, "fusion_lon": 0.0, "is_reserved": 0, "name": "8f4af8ab9b0e0d1b80a61e2aafa77f04", "type": "electric_scooter", "bike_id": "8f4af8ab9b0e0d1b80a61e2aafa77f04", "rental_uris": {"ios": "https://dc.lft.to/lastmile_qr_scan", "android": "https://dc.lft.to/lastmile_qr_scan"}, "fusion_lat": 0.0}, {"lat": 38.928426333333334, "lon": -77.05421016666666, "is_disabled": 0, "fusion_lon": 0.0, "is_reserved": 0, "name": "d1bf8f45b33566bd0c6e244cb877aad7", "type": "electric_scooter", "bike_id": "d1bf8f45b33566bd0c6e244cb877aad7", "rental_uris": {"ios": "https://dc.lft.to/lastmile_qr_scan", "android": "https://dc.lft.to/lastmile_qr_scan"}, "fusion_lat": 0.0}, {"lat": 38.892277, "lon": -77.0220765, "is_disabled": 0, "fusion_lon": 0.0, "is_reserved": 0, "name": "3f15e3e8ad81e4da480bd495aae48a5a", "type": "electric_scooter", "bike_id": "3f15e3e8ad81e4da480bd495aae48a5a", "rental_uris": {"ios": "https://dc.lft.to/lastmile_qr_scan", "android": "https://dc.lft.to/lastmile_qr_scan"}, "fusion_lat": 0.0}, {"lat": 38.906764333333335, "lon": -77.00580233333334, "is_disabled": 0, "fusion_lon": 0.0, "is_reserved": 0, "name": "6cceb9925e54b0cdee3cc488a7512821", "type": "electric_scooter", "bike_id": "6cceb9925e54b0cdee3cc488a7512821", "rental_uris": {"ios": "https://dc.lft.to/lastmile_qr_scan", "android": "https://dc.lft.to/lastmile_qr_scan"}, "fusion_lat": 0.0}, {"lat": 38.879361333333335, "lon": -77.00406366666667, "is_disabled": 0, "fusion_lon": 0.0, "is_reserved": 0, "name": "a8128238f3e0b730fa0923d4979e546c", "type": "electric_scooter", "bike_id": "a8128238f3e0b730fa0923d4979e546c", "rental_uris": {"ios": "https://dc.lft.to/lastmile_qr_scan", "android": "https://dc.lft.to/lastmile_qr_scan"}, "fusion_lat": 0.0}, {"lat": 38.8739305, "lon": -77.00209883333333, "is_disabled": 0, "fusion_lon": 0.0, "is_reserved": 0, "name": "622a8e2ccf1d08318d58e923d240e08a", "type": "electric_scooter", "bike_id": "622a8e2ccf1d08318d58e923d240e08a", "rental_uris": {"ios": "https://dc.lft.to/lastmile_qr_scan", "android": "https://dc.lft.to/lastmile_qr_scan"}, "fusion_lat": 0.0}, {"lat": 38.91577516666667, "lon": -77.04493483333333, "is_disabled": 0, "fusion_lon": 0.0, "is_reserved": 0, "name": "477212942dd3b4ca1bc6522c8b0cbdc3", "type": "electric_scooter", "bike_id": "477212942dd3b4ca1bc6522c8b0cbdc3", "rental_uris": {"ios": "https://dc.lft.to/lastmile_qr_scan", "android": "https://dc.lft.to/lastmile_qr_scan"}, "fusion_lat": 0.0}, {"lat": 38.9068335, "lon": -76.999689, "is_disabled": 0, "fusion_lon": 0.0, "is_reserved": 0, "name": "e2cfc89111cba7069019faf14c2d1d5f", "type": "electric_scooter", "bike_id": "e2cfc89111cba7069019faf14c2d1d5f", "rental_uris": {"ios": "https://dc.lft.to/lastmile_qr_scan", "android": "https://dc.lft.to/lastmile_qr_scan"}, "fusion_lat": 0.0}, {"lat": 38.8782465, "lon": -76.9960925, "is_disabled": 0, "fusion_lon": 0.0, "is_reserved": 0, "name": "ee025f3c8065aab68b3aaf0bebcfffcb", "type": "electric_scooter", "bike_id": "ee025f3c8065aab68b3aaf0bebcfffcb", "rental_uris": {"ios": "https://dc.lft.to/lastmile_qr_scan", "android": "https://dc.lft.to/lastmile_qr_scan"}, "fusion_lat": 0.0}, {"lat": 38.95738383333333, "lon": -77.024058, "is_disabled": 0, "fusion_lon": 0.0, "is_reserved": 0, "name": "670ddeca24a023e7ccd2c23f0d22e198", "type": "electric_scooter", "bike_id": "670ddeca24a023e7ccd2c23f0d22e198", "rental_uris": {"ios": "https://dc.lft.to/lastmile_qr_scan", "android": "https://dc.lft.to/lastmile_qr_scan"}, "fusion_lat": 0.0}, {"lat": 38.88736433333333, "lon": -77.023861, "is_disabled": 0, "fusion_lon": 0.0, "is_reserved": 0, "name": "6b167d2b8babdc5dc98edfb821fbc518", "type": "electric_scooter", "bike_id": "6b167d2b8babdc5dc98edfb821fbc518", "rental_uris": {"ios": "https://dc.lft.to/lastmile_qr_scan", "android": "https://dc.lft.to/lastmile_qr_scan"}, "fusion_lat": 0.0}, {"lat": 38.920277666666664, "lon": -77.07157933333333, "is_disabled": 0, "fusion_lon": 0.0, "is_reserved": 0, "name": "3bf817812182dbc8e5a0f733668a6ad8", "type": "electric_scooter", "bike_id": "3bf817812182dbc8e5a0f733668a6ad8", "rental_uris": {"ios": "https://dc.lft.to/lastmile_qr_scan", "android": "https://dc.lft.to/lastmile_qr_scan"}, "fusion_lat": 0.0}, {"lat": 38.9160145, "lon": -77.04905533333333, "is_disabled": 0, "fusion_lon": 0.0, "is_reserved": 0, "name": "dea73d6be82d43255b942de32ef50a03", "type": "electric_scooter", "bike_id": "dea73d6be82d43255b942de32ef50a03", "rental_uris": {"ios": "https://dc.lft.to/lastmile_qr_scan", "android": "https://dc.lft.to/lastmile_qr_scan"}, "fusion_lat": 0.0}, {"lat": 38.9297625, "lon": -77.02820633333333, "is_disabled": 0, "fusion_lon": 0.0, "is_reserved": 0, "name": "994a65e7576a4d8931598d0bb841bc06", "type": "electric_scooter", "bike_id": "994a65e7576a4d8931598d0bb841bc06", "rental_uris": {"ios": "https://dc.lft.to/lastmile_qr_scan", "android": "https://dc.lft.to/lastmile_qr_scan"}, "fusion_lat": 0.0}, {"lat": 38.87545766666667, "lon": -77.0053665, "is_disabled": 0, "fusion_lon": 0.0, "is_reserved": 0, "name": "e72710a6a63b844d3e3eb5f2d4979848", "type": "electric_scooter", "bike_id": "e72710a6a63b844d3e3eb5f2d4979848", "rental_uris": {"ios": "https://dc.lft.to/lastmile_qr_scan", "android": "https://dc.lft.to/lastmile_qr_scan"}, "fusion_lat": 0.0}, {"lat": 38.8935645, "lon": -77.00334966666667, "is_disabled": 0, "fusion_lon": 0.0, "is_reserved": 0, "name": "5afc3b341ef893753184be42069bbaf0", "type": "electric_scooter", "bike_id": "5afc3b341ef893753184be42069bbaf0", "rental_uris": {"ios": "https://dc.lft.to/lastmile_qr_scan", "android": "https://dc.lft.to/lastmile_qr_scan"}, "fusion_lat": 0.0}, {"lat": 38.94340666666667, "lon": -76.98314883333333, "is_disabled": 0, "fusion_lon": 0.0, "is_reserved": 0, "name": "e5120b6c3b02c74afbf6e770e1ccdd3f", "type": "electric_scooter", "bike_id": "e5120b6c3b02c74afbf6e770e1ccdd3f", "rental_uris": {"ios": "https://dc.lft.to/lastmile_qr_scan", "android": "https://dc.lft.to/lastmile_qr_scan"}, "fusion_lat": 0.0}, {"lat": 38.923441, "lon": -77.05184833333334, "is_disabled": 0, "fusion_lon": 0.0, "is_reserved": 0, "name": "71c46ee85dc1018874d1c3567793de52", "type": "electric_scooter", "bike_id": "71c46ee85dc1018874d1c3567793de52", "rental_uris": {"ios": "https://dc.lft.to/lastmile_qr_scan", "android": "https://dc.lft.to/lastmile_qr_scan"}, "fusion_lat": 0.0}, {"lat": 38.9661145, "lon": -77.02740633333333, "is_disabled": 0, "fusion_lon": 0.0, "is_reserved": 0, "name": "04cc2a866afcd5586592379fb1491198", "type": "electric_scooter", "bike_id": "04cc2a866afcd5586592379fb1491198", "rental_uris": {"ios": "https://dc.lft.to/lastmile_qr_scan", "android": "https://dc.lft.to/lastmile_qr_scan"}, "fusion_lat": 0.0}, {"lat": 38.89004516666667, "lon": -76.93745033333333, "is_disabled": 0, "fusion_lon": 0.0, "is_reserved": 0, "name": "e2c6fdcf8e4956f945d3906e32c72f46", "type": "electric_scooter", "bike_id": "e2c6fdcf8e4956f945d3906e32c72f46", "rental_uris": {"ios": "https://dc.lft.to/lastmile_qr_scan", "android": "https://dc.lft.to/lastmile_qr_scan"}, "fusion_lat": 0.0}, {"lat": 38.906464666666665, "lon": -77.01434716666667, "is_disabled": 0, "fusion_lon": 0.0, "is_reserved": 0, "name": "12d80985c81b336278e591908c42adcf", "type": "electric_scooter", "bike_id": "12d80985c81b336278e591908c42adcf", "rental_uris": {"ios": "https://dc.lft.to/lastmile_qr_scan", "android": "https://dc.lft.to/lastmile_qr_scan"}, "fusion_lat": 0.0}, {"lat": 38.876699333333335, "lon": -76.99268783333333, "is_disabled": 0, "fusion_lon": 0.0, "is_reserved": 0, "name": "904a06fa4e0c045e579d50413d40e976", "type": "electric_scooter", "bike_id": "904a06fa4e0c045e579d50413d40e976", "rental_uris": {"ios": "https://dc.lft.to/lastmile_qr_scan", "android": "https://dc.lft.to/lastmile_qr_scan"}, "fusion_lat": 0.0}, {"lat": 38.867597833333335, "lon": -76.94534383333334, "is_disabled": 0, "fusion_lon": 0.0, "is_reserved": 0, "name": "e4b021397822ad1750fc8ee2b1d7bc50", "type": "electric_bike", "bike_id": "e4b021397822ad1750fc8ee2b1d7bc50", "rental_uris": {"ios": "https://dc.lft.to/lastmile_qr_scan", "android": "https://dc.lft.to/lastmile_qr_scan"}, "fusion_lat": 0.0}, {"lat": 38.895605, "lon": -77.04678216666667, "is_disabled": 0, "fusion_lon": 0.0, "is_reserved": 0, "name": "bbca9d187f3d96154e0ef7256e769944", "type": "electric_scooter", "bike_id": "bbca9d187f3d96154e0ef7256e769944", "rental_uris": {"ios": "https://dc.lft.to/lastmile_qr_scan", "android": "https://dc.lft.to/lastmile_qr_scan"}, "fusion_lat": 0.0}, {"lat": 38.922468333333335, "lon": -77.052729, "is_disabled": 0, "fusion_lon": 0.0, "is_reserved": 0, "name": "cc5145e54dfe3a2c89662ab80d0157df", "type": "electric_scooter", "bike_id": "cc5145e54dfe3a2c89662ab80d0157df", "rental_uris": {"ios": "https://dc.lft.to/lastmile_qr_scan", "android": "https://dc.lft.to/lastmile_qr_scan"}, "fusion_lat": 0.0}, {"lat": 38.911154333333336, "lon": -77.00606516666667, "is_disabled": 0, "fusion_lon": 0.0, "is_reserved": 0, "name": "5f96700d4a46f9b138eea92bf151a642", "type": "electric_scooter", "bike_id": "5f96700d4a46f9b138eea92bf151a642", "rental_uris": {"ios": "https://dc.lft.to/lastmile_qr_scan", "android": "https://dc.lft.to/lastmile_qr_scan"}, "fusion_lat": 0.0}, {"lat": 38.91427266666667, "lon": -77.03186133333334, "is_disabled": 0, "fusion_lon": 0.0, "is_reserved": 0, "name": "31a434f558ca40096a0426d50a46dcf7", "type": "electric_scooter", "bike_id": "31a434f558ca40096a0426d50a46dcf7", "rental_uris": {"ios": "https://dc.lft.to/lastmile_qr_scan", "android": "https://dc.lft.to/lastmile_qr_scan"}, "fusion_lat": 0.0}, {"lat": 38.9384535, "lon": -77.0338565, "is_disabled": 0, "fusion_lon": 0.0, "is_reserved": 0, "name": "6a42e070f1b313ff26f42ce9bc62e4b1", "type": "electric_scooter", "bike_id": "6a42e070f1b313ff26f42ce9bc62e4b1", "rental_uris": {"ios": "https://dc.lft.to/lastmile_qr_scan", "android": "https://dc.lft.to/lastmile_qr_scan"}, "fusion_lat": 0.0}, {"lat": 38.91796866666667, "lon": -77.04016233333333, "is_disabled": 0, "fusion_lon": 0.0, "is_reserved": 0, "name": "bb661669cb19467524d26870892928ef", "type": "electric_scooter", "bike_id": "bb661669cb19467524d26870892928ef", "rental_uris": {"ios": "https://dc.lft.to/lastmile_qr_scan", "android": "https://dc.lft.to/lastmile_qr_scan"}, "fusion_lat": 0.0}, {"lat": 38.9275345, "lon": -77.03280916666667, "is_disabled": 0, "fusion_lon": 0.0, "is_reserved": 0, "name": "8c42990bb44918564665c99e21d78d53", "type": "electric_scooter", "bike_id": "8c42990bb44918564665c99e21d78d53", "rental_uris": {"ios": "https://dc.lft.to/lastmile_qr_scan", "android": "https://dc.lft.to/lastmile_qr_scan"}, "fusion_lat": 0.0}, {"lat": 38.876490833333335, "lon": -77.00313533333333, "is_disabled": 0, "fusion_lon": 0.0, "is_reserved": 0, "name": "c58cf5e454d1b77bb2fb01b650c251aa", "type": "electric_scooter", "bike_id": "c58cf5e454d1b77bb2fb01b650c251aa", "rental_uris": {"ios": "https://dc.lft.to/lastmile_qr_scan", "android": "https://dc.lft.to/lastmile_qr_scan"}, "fusion_lat": 0.0}, {"lat": 38.9126635, "lon": -77.04458716666667, "is_disabled": 0, "fusion_lon": 0.0, "is_reserved": 0, "name": "41597737ce58b4cf3e4cc7ef7a9f3a27", "type": "electric_scooter", "bike_id": "41597737ce58b4cf3e4cc7ef7a9f3a27", "rental_uris": {"ios": "https://dc.lft.to/lastmile_qr_scan", "android": "https://dc.lft.to/lastmile_qr_scan"}, "fusion_lat": 0.0}, {"lat": 38.9034785, "lon": -77.029439, "is_disabled": 0, "fusion_lon": 0.0, "is_reserved": 0, "name": "4eaffe0b46bd8502623245766f27e86d", "type": "electric_scooter", "bike_id": "4eaffe0b46bd8502623245766f27e86d", "rental_uris": {"ios": "https://dc.lft.to/lastmile_qr_scan", "android": "https://dc.lft.to/lastmile_qr_scan"}, "fusion_lat": 0.0}, {"lat": 38.89229866666667, "lon": -77.04895016666667, "is_disabled": 0, "fusion_lon": 0.0, "is_reserved": 0, "name": "aaa8244b90b78d9d20444e71e11f2976", "type": "electric_scooter", "bike_id": "aaa8244b90b78d9d20444e71e11f2976", "rental_uris": {"ios": "https://dc.lft.to/lastmile_qr_scan", "android": "https://dc.lft.to/lastmile_qr_scan"}, "fusion_lat": 0.0}, {"lat": 38.9397385, "lon": -77.03692483333333, "is_disabled": 0, "fusion_lon": 0.0, "is_reserved": 0, "name": "e72e24ee177870abb7bccb8f053a301b", "type": "electric_scooter", "bike_id": "e72e24ee177870abb7bccb8f053a301b", "rental_uris": {"ios": "https://dc.lft.to/lastmile_qr_scan", "android": "https://dc.lft.to/lastmile_qr_scan"}, "fusion_lat": 0.0}, {"lat": 38.896552166666666, "lon": -77.050238, "is_disabled": 0, "fusion_lon": 0.0, "is_reserved": 0, "name": "573221b38df439656e56bc582337291c", "type": "electric_scooter", "bike_id": "573221b38df439656e56bc582337291c", "rental_uris": {"ios": "https://dc.lft.to/lastmile_qr_scan", "android": "https://dc.lft.to/lastmile_qr_scan"}, "fusion_lat": 0.0}, {"lat": 38.899135, "lon": -77.02711183333334, "is_disabled": 0, "fusion_lon": 0.0, "is_reserved": 0, "name": "4623e1be1e08b81f3b9a000855b97f44", "type": "electric_scooter", "bike_id": "4623e1be1e08b81f3b9a000855b97f44", "rental_uris": {"ios": "https://dc.lft.to/lastmile_qr_scan", "android": "https://dc.lft.to/lastmile_qr_scan"}, "fusion_lat": 0.0}, {"lat": 38.92127466666667, "lon": -77.23680233333333, "is_disabled": 0, "fusion_lon": 0.0, "is_reserved": 0, "name": "815802a5687c36f3d4f8ad4d93699340", "type": "electric_bike", "bike_id": "815802a5687c36f3d4f8ad4d93699340", "rental_uris": {"ios": "https://dc.lft.to/lastmile_qr_scan", "android": "https://dc.lft.to/lastmile_qr_scan"}, "fusion_lat": 0.0}, {"lat": 38.8994515, "lon": -77.03149633333334, "is_disabled": 0, "fusion_lon": 0.0, "is_reserved": 0, "name": "3ad9561e8f1c347797f776b39016b9fd", "type": "electric_scooter", "bike_id": "3ad9561e8f1c347797f776b39016b9fd", "rental_uris": {"ios": "https://dc.lft.to/lastmile_qr_scan", "android": "https://dc.lft.to/lastmile_qr_scan"}, "fusion_lat": 0.0}, {"lat": 38.921042666666665, "lon": -77.03255016666667, "is_disabled": 0, "fusion_lon": 0.0, "is_reserved": 0, "name": "6a86e44079662577632d5f2b3aa9f428", "type": "electric_scooter", "bike_id": "6a86e44079662577632d5f2b3aa9f428", "rental_uris": {"ios": "https://dc.lft.to/lastmile_qr_scan", "android": "https://dc.lft.to/lastmile_qr_scan"}, "fusion_lat": 0.0}, {"lat": 38.972152333333334, "lon": -77.03338233333334, "is_disabled": 0, "fusion_lon": 0.0, "is_reserved": 0, "name": "df60d7696ad848a48a406e72739878c2", "type": "electric_scooter", "bike_id": "df60d7696ad848a48a406e72739878c2", "rental_uris": {"ios": "https://dc.lft.to/lastmile_qr_scan", "android": "https://dc.lft.to/lastmile_qr_scan"}, "fusion_lat": 0.0}, {"lat": 38.922471, "lon": -77.03067583333333, "is_disabled": 0, "fusion_lon": 0.0, "is_reserved": 0, "name": "3638440abd285ee66ba944d4f45d9c61", "type": "electric_scooter", "bike_id": "3638440abd285ee66ba944d4f45d9c61", "rental_uris": {"ios": "https://dc.lft.to/lastmile_qr_scan", "android": "https://dc.lft.to/lastmile_qr_scan"}, "fusion_lat": 0.0}, {"lat": 38.8934775, "lon": -76.95227766666666, "is_disabled": 0, "fusion_lon": 0.0, "is_reserved": 0, "name": "9e6d9c6102a2705d122b0f24f6fbbf6c", "type": "electric_scooter", "bike_id": "9e6d9c6102a2705d122b0f24f6fbbf6c", "rental_uris": {"ios": "https://dc.lft.to/lastmile_qr_scan", "android": "https://dc.lft.to/lastmile_qr_scan"}, "fusion_lat": 0.0}, {"lat": 38.90922883333333, "lon": -76.99973566666667, "is_disabled": 0, "fusion_lon": 0.0, "is_reserved": 0, "name": "f4f1067aee7a8dc08836378416ec62ff", "type": "electric_scooter", "bike_id": "f4f1067aee7a8dc08836378416ec62ff", "rental_uris": {"ios": "https://dc.lft.to/lastmile_qr_scan", "android": "https://dc.lft.to/lastmile_qr_scan"}, "fusion_lat": 0.0}, {"lat": 38.89607866666667, "lon": -77.01334083333333, "is_disabled": 0, "fusion_lon": 0.0, "is_reserved": 0, "name": "3bad0d35cd63336e8e1abe46e4793627", "type": "electric_scooter", "bike_id": "3bad0d35cd63336e8e1abe46e4793627", "rental_uris": {"ios": "https://dc.lft.to/lastmile_qr_scan", "android": "https://dc.lft.to/lastmile_qr_scan"}, "fusion_lat": 0.0}, {"lat": 38.90028183333333, "lon": -76.99447666666667, "is_disabled": 0, "fusion_lon": 0.0, "is_reserved": 0, "name": "c09f29d3c2e8c47c96c22eb9332dbc0d", "type": "electric_scooter", "bike_id": "c09f29d3c2e8c47c96c22eb9332dbc0d", "rental_uris": {"ios": "https://dc.lft.to/lastmile_qr_scan", "android": "https://dc.lft.to/lastmile_qr_scan"}, "fusion_lat": 0.0}, {"lat": 38.907396, "lon": -77.03291416666667, "is_disabled": 0, "fusion_lon": 0.0, "is_reserved": 0, "name": "9a8e86da5da543984c729debda1cce29", "type": "electric_scooter", "bike_id": "9a8e86da5da543984c729debda1cce29", "rental_uris": {"ios": "https://dc.lft.to/lastmile_qr_scan", "android": "https://dc.lft.to/lastmile_qr_scan"}, "fusion_lat": 0.0}, {"lat": 38.91903383333333, "lon": -77.03196133333333, "is_disabled": 0, "fusion_lon": 0.0, "is_reserved": 0, "name": "c4503b3a2f41a332bfedd1c19afc0aab", "type": "electric_scooter", "bike_id": "c4503b3a2f41a332bfedd1c19afc0aab", "rental_uris": {"ios": "https://dc.lft.to/lastmile_qr_scan", "android": "https://dc.lft.to/lastmile_qr_scan"}, "fusion_lat": 0.0}, {"lat": 38.90411733333333, "lon": -77.044892, "is_disabled": 0, "fusion_lon": 0.0, "is_reserved": 0, "name": "c7351795144d49a28aacb445ed2807e6", "type": "electric_scooter", "bike_id": "c7351795144d49a28aacb445ed2807e6", "rental_uris": {"ios": "https://dc.lft.to/lastmile_qr_scan", "android": "https://dc.lft.to/lastmile_qr_scan"}, "fusion_lat": 0.0}, {"lat": 38.902563666666666, "lon": -77.033377, "is_disabled": 0, "fusion_lon": 0.0, "is_reserved": 0, "name": "bd3e163703f71c91c6d23dc20227b96d", "type": "electric_scooter", "bike_id": "bd3e163703f71c91c6d23dc20227b96d", "rental_uris": {"ios": "https://dc.lft.to/lastmile_qr_scan", "android": "https://dc.lft.to/lastmile_qr_scan"}, "fusion_lat": 0.0}, {"lat": 38.9255525, "lon": -77.0006845, "is_disabled": 0, "fusion_lon": 0.0, "is_reserved": 0, "name": "289c77fc19c21938dcc222d194ad2d29", "type": "electric_scooter", "bike_id": "289c77fc19c21938dcc222d194ad2d29", "rental_uris": {"ios": "https://dc.lft.to/lastmile_qr_scan", "android": "https://dc.lft.to/lastmile_qr_scan"}, "fusion_lat": 0.0}, {"lat": 38.9072985, "lon": -77.03475283333333, "is_disabled": 0, "fusion_lon": 0.0, "is_reserved": 0, "name": "84d96cf2e16f168e9fdb2bbc7779e667", "type": "electric_scooter", "bike_id": "84d96cf2e16f168e9fdb2bbc7779e667", "rental_uris": {"ios": "https://dc.lft.to/lastmile_qr_scan", "android": "https://dc.lft.to/lastmile_qr_scan"}, "fusion_lat": 0.0}, {"lat": 38.89174583333333, "lon": -76.92648216666667, "is_disabled": 0, "fusion_lon": 0.0, "is_reserved": 0, "name": "588cce4dfa4a089ff79d5ca2e131956d", "type": "electric_scooter", "bike_id": "588cce4dfa4a089ff79d5ca2e131956d", "rental_uris": {"ios": "https://dc.lft.to/lastmile_qr_scan", "android": "https://dc.lft.to/lastmile_qr_scan"}, "fusion_lat": 0.0}, {"lat": 38.9017655, "lon": -77.04643783333333, "is_disabled": 0, "fusion_lon": 0.0, "is_reserved": 0, "name": "4daa151e54031a8fff860421a2c8aa56", "type": "electric_scooter", "bike_id": "4daa151e54031a8fff860421a2c8aa56", "rental_uris": {"ios": "https://dc.lft.to/lastmile_qr_scan", "android": "https://dc.lft.to/lastmile_qr_scan"}, "fusion_lat": 0.0}, {"lat": 38.925162, "lon": -77.0503945, "is_disabled": 0, "fusion_lon": 0.0, "is_reserved": 0, "name": "0193e8b6e2e621f24bd1dd693545ec4a", "type": "electric_scooter", "bike_id": "0193e8b6e2e621f24bd1dd693545ec4a", "rental_uris": {"ios": "https://dc.lft.to/lastmile_qr_scan", "android": "https://dc.lft.to/lastmile_qr_scan"}, "fusion_lat": 0.0}, {"lat": 38.908241333333336, "lon": -77.031846, "is_disabled": 0, "fusion_lon": 0.0, "is_reserved": 0, "name": "781ceea7113f4f1106ab36a2f6244a1e", "type": "electric_scooter", "bike_id": "781ceea7113f4f1106ab36a2f6244a1e", "rental_uris": {"ios": "https://dc.lft.to/lastmile_qr_scan", "android": "https://dc.lft.to/lastmile_qr_scan"}, "fusion_lat": 0.0}, {"lat": 38.90316816666667, "lon": -77.00583366666666, "is_disabled": 0, "fusion_lon": 0.0, "is_reserved": 0, "name": "732a9fd673c564d4fa65985dea43e9b7", "type": "electric_scooter", "bike_id": "732a9fd673c564d4fa65985dea43e9b7", "rental_uris": {"ios": "https://dc.lft.to/lastmile_qr_scan", "android": "https://dc.lft.to/lastmile_qr_scan"}, "fusion_lat": 0.0}, {"lat": 38.88446733333333, "lon": -77.017651, "is_disabled": 0, "fusion_lon": 0.0, "is_reserved": 0, "name": "bbe0be0723c3d8b7de414db83191ec1b", "type": "electric_scooter", "bike_id": "bbe0be0723c3d8b7de414db83191ec1b", "rental_uris": {"ios": "https://dc.lft.to/lastmile_qr_scan", "android": "https://dc.lft.to/lastmile_qr_scan"}, "fusion_lat": 0.0}, {"lat": 38.89223666666667, "lon": -77.04329333333334, "is_disabled": 0, "fusion_lon": 0.0, "is_reserved": 0, "name": "f8718010b7a2dcd3d33f0a73f44c7d64", "type": "electric_scooter", "bike_id": "f8718010b7a2dcd3d33f0a73f44c7d64", "rental_uris": {"ios": "https://dc.lft.to/lastmile_qr_scan", "android": "https://dc.lft.to/lastmile_qr_scan"}, "fusion_lat": 0.0}, {"lat": 38.91418816666667, "lon": -77.02099533333333, "is_disabled": 0, "fusion_lon": 0.0, "is_reserved": 0, "name": "79d01882023162fc1e2b0c36c8226d37", "type": "electric_scooter", "bike_id": "79d01882023162fc1e2b0c36c8226d37", "rental_uris": {"ios": "https://dc.lft.to/lastmile_qr_scan", "android": "https://dc.lft.to/lastmile_qr_scan"}, "fusion_lat": 0.0}, {"lat": 38.919419, "lon": -77.02510266666667, "is_disabled": 0, "fusion_lon": 0.0, "is_reserved": 0, "name": "cf35aa1b6a7292926f202b806bc9c027", "type": "electric_scooter", "bike_id": "cf35aa1b6a7292926f202b806bc9c027", "rental_uris": {"ios": "https://dc.lft.to/lastmile_qr_scan", "android": "https://dc.lft.to/lastmile_qr_scan"}, "fusion_lat": 0.0}, {"lat": 38.923703333333336, "lon": -77.02125483333333, "is_disabled": 0, "fusion_lon": 0.0, "is_reserved": 0, "name": "560bfc615655f9462b27c5b10ba636a3", "type": "electric_scooter", "bike_id": "560bfc615655f9462b27c5b10ba636a3", "rental_uris": {"ios": "https://dc.lft.to/lastmile_qr_scan", "android": "https://dc.lft.to/lastmile_qr_scan"}, "fusion_lat": 0.0}, {"lat": 38.92551183333333, "lon": -76.98149666666667, "is_disabled": 0, "fusion_lon": 0.0, "is_reserved": 0, "name": "ce84bcdffefecfc724f9a6a173509f23", "type": "electric_scooter", "bike_id": "ce84bcdffefecfc724f9a6a173509f23", "rental_uris": {"ios": "https://dc.lft.to/lastmile_qr_scan", "android": "https://dc.lft.to/lastmile_qr_scan"}, "fusion_lat": 0.0}, {"lat": 38.927604333333335, "lon": -77.05264416666667, "is_disabled": 0, "fusion_lon": 0.0, "is_reserved": 0, "name": "903a22652a357311e3d5350e5ed9053e", "type": "electric_scooter", "bike_id": "903a22652a357311e3d5350e5ed9053e", "rental_uris": {"ios": "https://dc.lft.to/lastmile_qr_scan", "android": "https://dc.lft.to/lastmile_qr_scan"}, "fusion_lat": 0.0}, {"lat": 38.924498166666666, "lon": -76.98986866666667, "is_disabled": 0, "fusion_lon": 0.0, "is_reserved": 0, "name": "c68c3377cd93f743462cef9952fc7cb6", "type": "electric_scooter", "bike_id": "c68c3377cd93f743462cef9952fc7cb6", "rental_uris": {"ios": "https://dc.lft.to/lastmile_qr_scan", "android": "https://dc.lft.to/lastmile_qr_scan"}, "fusion_lat": 0.0}, {"lat": 38.819914, "lon": -76.9980955, "is_disabled": 0, "fusion_lon": 0.0, "is_reserved": 0, "name": "d5c3756d11c657d9acc066e0e978e55f", "type": "electric_bike", "bike_id": "d5c3756d11c657d9acc066e0e978e55f", "rental_uris": {"ios": "https://dc.lft.to/lastmile_qr_scan", "android": "https://dc.lft.to/lastmile_qr_scan"}, "fusion_lat": 0.0}, {"lat": 38.932001166666666, "lon": -77.02819016666666, "is_disabled": 0, "fusion_lon": 0.0, "is_reserved": 0, "name": "803c446214052d3e8769aa97fb337627", "type": "electric_scooter", "bike_id": "803c446214052d3e8769aa97fb337627", "rental_uris": {"ios": "https://dc.lft.to/lastmile_qr_scan", "android": "https://dc.lft.to/lastmile_qr_scan"}, "fusion_lat": 0.0}, {"lat": 38.90349666666667, "lon": -77.0216015, "is_disabled": 0, "fusion_lon": 0.0, "is_reserved": 0, "name": "591e7b51da2763a92bef6dbef9448ed7", "type": "electric_scooter", "bike_id": "591e7b51da2763a92bef6dbef9448ed7", "rental_uris": {"ios": "https://dc.lft.to/lastmile_qr_scan", "android": "https://dc.lft.to/lastmile_qr_scan"}, "fusion_lat": 0.0}, {"lat": 38.934104166666664, "lon": -77.04304833333333, "is_disabled": 0, "fusion_lon": 0.0, "is_reserved": 0, "name": "ffbc28b9d8c83bb01d86f6c354335c79", "type": "electric_bike", "bike_id": "ffbc28b9d8c83bb01d86f6c354335c79", "rental_uris": {"ios": "https://dc.lft.to/lastmile_qr_scan", "android": "https://dc.lft.to/lastmile_qr_scan"}, "fusion_lat": 0.0}, {"lat": 38.901221, "lon": -77.031771, "is_disabled": 0, "fusion_lon": 0.0, "is_reserved": 0, "name": "8e1e952b38cc7900dc46bd2f3866c6e5", "type": "electric_scooter", "bike_id": "8e1e952b38cc7900dc46bd2f3866c6e5", "rental_uris": {"ios": "https://dc.lft.to/lastmile_qr_scan", "android": "https://dc.lft.to/lastmile_qr_scan"}, "fusion_lat": 0.0}, {"lat": 38.9064185, "lon": -77.00666883333334, "is_disabled": 0, "fusion_lon": 0.0, "is_reserved": 0, "name": "31a290652250f4192f7997d25bf445c3", "type": "electric_scooter", "bike_id": "31a290652250f4192f7997d25bf445c3", "rental_uris": {"ios": "https://dc.lft.to/lastmile_qr_scan", "android": "https://dc.lft.to/lastmile_qr_scan"}, "fusion_lat": 0.0}, {"lat": 38.898314166666665, "lon": -77.05014533333333, "is_disabled": 0, "fusion_lon": 0.0, "is_reserved": 0, "name": "36f32ae1b446fe2b520e879dd28d366c", "type": "electric_scooter", "bike_id": "36f32ae1b446fe2b520e879dd28d366c", "rental_uris": {"ios": "https://dc.lft.to/lastmile_qr_scan", "android": "https://dc.lft.to/lastmile_qr_scan"}, "fusion_lat": 0.0}, {"lat": 38.85725466666667, "lon": -76.97773966666666, "is_disabled": 0, "fusion_lon": 0.0, "is_reserved": 0, "name": "7ef0a789ef743dfc4a68faf46f9b5404", "type": "electric_bike", "bike_id": "7ef0a789ef743dfc4a68faf46f9b5404", "rental_uris": {"ios": "https://dc.lft.to/lastmile_qr_scan", "android": "https://dc.lft.to/lastmile_qr_scan"}, "fusion_lat": 0.0}, {"lat": 38.902816666666666, "lon": -77.0460595, "is_disabled": 0, "fusion_lon": 0.0, "is_reserved": 0, "name": "e2111511281d17b7918225c7f555bf02", "type": "electric_scooter", "bike_id": "e2111511281d17b7918225c7f555bf02", "rental_uris": {"ios": "https://dc.lft.to/lastmile_qr_scan", "android": "https://dc.lft.to/lastmile_qr_scan"}, "fusion_lat": 0.0}, {"lat": 38.92104466666667, "lon": -77.04688766666666, "is_disabled": 0, "fusion_lon": 0.0, "is_reserved": 0, "name": "581632800b2f054dff43edc61f483c4c", "type": "electric_scooter", "bike_id": "581632800b2f054dff43edc61f483c4c", "rental_uris": {"ios": "https://dc.lft.to/lastmile_qr_scan", "android": "https://dc.lft.to/lastmile_qr_scan"}, "fusion_lat": 0.0}, {"lat": 38.897502, "lon": -77.00751966666667, "is_disabled": 0, "fusion_lon": 0.0, "is_reserved": 0, "name": "29e4e6e34692ef2eebd5504f7f23088b", "type": "electric_scooter", "bike_id": "29e4e6e34692ef2eebd5504f7f23088b", "rental_uris": {"ios": "https://dc.lft.to/lastmile_qr_scan", "android": "https://dc.lft.to/lastmile_qr_scan"}, "fusion_lat": 0.0}, {"lat": 38.887222333333334, "lon": -77.028246, "is_disabled": 0, "fusion_lon": 0.0, "is_reserved": 0, "name": "1464a2f2feb584aea3854dbebb021719", "type": "electric_scooter", "bike_id": "1464a2f2feb584aea3854dbebb021719", "rental_uris": {"ios": "https://dc.lft.to/lastmile_qr_scan", "android": "https://dc.lft.to/lastmile_qr_scan"}, "fusion_lat": 0.0}, {"lat": 38.906718, "lon": -77.02069783333333, "is_disabled": 0, "fusion_lon": 0.0, "is_reserved": 0, "name": "c20902a1bd52480673bce212c4199fc3", "type": "electric_scooter", "bike_id": "c20902a1bd52480673bce212c4199fc3", "rental_uris": {"ios": "https://dc.lft.to/lastmile_qr_scan", "android": "https://dc.lft.to/lastmile_qr_scan"}, "fusion_lat": 0.0}, {"lat": 38.90550016666667, "lon": -77.04243166666667, "is_disabled": 0, "fusion_lon": 0.0, "is_reserved": 0, "name": "3c3d2da0a4101830a7797a4bbb4c8898", "type": "electric_scooter", "bike_id": "3c3d2da0a4101830a7797a4bbb4c8898", "rental_uris": {"ios": "https://dc.lft.to/lastmile_qr_scan", "android": "https://dc.lft.to/lastmile_qr_scan"}, "fusion_lat": 0.0}, {"lat": 38.907792666666666, "lon": -77.07168783333333, "is_disabled": 0, "fusion_lon": 0.0, "is_reserved": 0, "name": "1b529e0003597e195ffdb36396fa4874", "type": "electric_scooter", "bike_id": "1b529e0003597e195ffdb36396fa4874", "rental_uris": {"ios": "https://dc.lft.to/lastmile_qr_scan", "android": "https://dc.lft.to/lastmile_qr_scan"}, "fusion_lat": 0.0}, {"lat": 38.9248965, "lon": -77.02138033333334, "is_disabled": 0, "fusion_lon": 0.0, "is_reserved": 0, "name": "a116f3d202e5c64ef0397897e72e1eb8", "type": "electric_scooter", "bike_id": "a116f3d202e5c64ef0397897e72e1eb8", "rental_uris": {"ios": "https://dc.lft.to/lastmile_qr_scan", "android": "https://dc.lft.to/lastmile_qr_scan"}, "fusion_lat": 0.0}, {"lat": 38.911266, "lon": -77.02194883333334, "is_disabled": 0, "fusion_lon": 0.0, "is_reserved": 0, "name": "2e8212401040023694c8bce0efc93211", "type": "electric_scooter", "bike_id": "2e8212401040023694c8bce0efc93211", "rental_uris": {"ios": "https://dc.lft.to/lastmile_qr_scan", "android": "https://dc.lft.to/lastmile_qr_scan"}, "fusion_lat": 0.0}, {"lat": 38.886117166666665, "lon": -77.00325133333334, "is_disabled": 0, "fusion_lon": 0.0, "is_reserved": 0, "name": "c57a1948e86be08e3842a995b724485b", "type": "electric_scooter", "bike_id": "c57a1948e86be08e3842a995b724485b", "rental_uris": {"ios": "https://dc.lft.to/lastmile_qr_scan", "android": "https://dc.lft.to/lastmile_qr_scan"}, "fusion_lat": 0.0}, {"lat": 38.89607083333333, "lon": -77.00216716666667, "is_disabled": 0, "fusion_lon": 0.0, "is_reserved": 0, "name": "da4df45d1dbe6a798fcc60e158317b85", "type": "electric_scooter", "bike_id": "da4df45d1dbe6a798fcc60e158317b85", "rental_uris": {"ios": "https://dc.lft.to/lastmile_qr_scan", "android": "https://dc.lft.to/lastmile_qr_scan"}, "fusion_lat": 0.0}, {"lat": 38.892187, "lon": -77.026277, "is_disabled": 0, "fusion_lon": 0.0, "is_reserved": 0, "name": "b3a8bd56aacc4bbf04131ffa4f89d886", "type": "electric_scooter", "bike_id": "b3a8bd56aacc4bbf04131ffa4f89d886", "rental_uris": {"ios": "https://dc.lft.to/lastmile_qr_scan", "android": "https://dc.lft.to/lastmile_qr_scan"}, "fusion_lat": 0.0}, {"lat": 38.87710166666667, "lon": -76.99694833333334, "is_disabled": 0, "fusion_lon": 0.0, "is_reserved": 0, "name": "1c148d5d4053ce1d6c06049bbe265eda", "type": "electric_scooter", "bike_id": "1c148d5d4053ce1d6c06049bbe265eda", "rental_uris": {"ios": "https://dc.lft.to/lastmile_qr_scan", "android": "https://dc.lft.to/lastmile_qr_scan"}, "fusion_lat": 0.0}, {"lat": 38.90394383333334, "lon": -77.06816266666667, "is_disabled": 0, "fusion_lon": 0.0, "is_reserved": 0, "name": "d70d973bc18d24bdde7505df887c1550", "type": "electric_scooter", "bike_id": "d70d973bc18d24bdde7505df887c1550", "rental_uris": {"ios": "https://dc.lft.to/lastmile_qr_scan", "android": "https://dc.lft.to/lastmile_qr_scan"}, "fusion_lat": 0.0}, {"lat": 38.89601416666667, "lon": -76.99232216666667, "is_disabled": 0, "fusion_lon": 0.0, "is_reserved": 0, "name": "90903b749102402335f28374ecc92203", "type": "electric_bike", "bike_id": "90903b749102402335f28374ecc92203", "rental_uris": {"ios": "https://dc.lft.to/lastmile_qr_scan", "android": "https://dc.lft.to/lastmile_qr_scan"}, "fusion_lat": 0.0}, {"lat": 38.908646, "lon": -77.06396616666666, "is_disabled": 0, "fusion_lon": 0.0, "is_reserved": 0, "name": "79cf65c090ec0fe7f29557a7a2e8289f", "type": "electric_scooter", "bike_id": "79cf65c090ec0fe7f29557a7a2e8289f", "rental_uris": {"ios": "https://dc.lft.to/lastmile_qr_scan", "android": "https://dc.lft.to/lastmile_qr_scan"}, "fusion_lat": 0.0}, {"lat": 38.872276166666666, "lon": -77.012197, "is_disabled": 0, "fusion_lon": 0.0, "is_reserved": 0, "name": "6fe6040f7bbfb960f8dd069afcc75f9a", "type": "electric_scooter", "bike_id": "6fe6040f7bbfb960f8dd069afcc75f9a", "rental_uris": {"ios": "https://dc.lft.to/lastmile_qr_scan", "android": "https://dc.lft.to/lastmile_qr_scan"}, "fusion_lat": 0.0}, {"lat": 38.95085816666667, "lon": -77.03158566666667, "is_disabled": 0, "fusion_lon": 0.0, "is_reserved": 0, "name": "60496cf9cd4bdb593fb88d331256322c", "type": "electric_scooter", "bike_id": "60496cf9cd4bdb593fb88d331256322c", "rental_uris": {"ios": "https://dc.lft.to/lastmile_qr_scan", "android": "https://dc.lft.to/lastmile_qr_scan"}, "fusion_lat": 0.0}, {"lat": 38.9249935, "lon": -77.02406716666667, "is_disabled": 0, "fusion_lon": 0.0, "is_reserved": 0, "name": "14e6bab3133d9df07802b2ba23d0da77", "type": "electric_scooter", "bike_id": "14e6bab3133d9df07802b2ba23d0da77", "rental_uris": {"ios": "https://dc.lft.to/lastmile_qr_scan", "android": "https://dc.lft.to/lastmile_qr_scan"}, "fusion_lat": 0.0},