{"data": {"bikes": [{"type": "electric_bike", "rental_uris": {"ios": "https://dc.lft.to/lastmile_qr_scan", "android": "https://dc.lft.to/lastmile_qr_scan"}, "lon": -77.01282083333334, "fusion_lon": 0.0, "is_disabled": 0, "lat": 38.956714, "bike_id": "f83e223ae89f25286d64eb6330633816", "name": "f83e223ae89f25286d64eb6330633816", "is_reserved": 0, "fusion_lat": 0.0}, {"type": "electric_scooter", "rental_uris": {"ios": "https://dc.lft.to/lastmile_qr_scan", "android": "https://dc.lft.to/lastmile_qr_scan"}, "lon": -77.04900766666667, "fusion_lon": 0.0, "is_disabled": 0, "lat": 38.89225166666667, "bike_id": "4591ef82741fcee95eea6bd4ebb11c7d", "name": "4591ef82741fcee95eea6bd4ebb11c7d", "is_reserved": 0, "fusion_lat": 0.0}, {"type": "electric_scooter", "rental_uris": {"ios": "https://dc.lft.to/lastmile_qr_scan", "android": "https://dc.lft.to/lastmile_qr_scan"}, "lon": -76.97946816666666, "fusion_lon": 0.0, "is_disabled": 0, "lat": 38.916916666666665, "bike_id": "7516a41caf635f2faa10f705863392c4", "name": "7516a41caf635f2faa10f705863392c4", "is_reserved": 0, "fusion_lat": 0.0}, {"type": "electric_scooter", "rental_uris": {"ios": "https://dc.lft.to/lastmile_qr_scan", "android": "https://dc.lft.to/lastmile_qr_scan"}, "lon": -77.050661, "fusion_lon": 0.0, "is_disabled": 0, "lat": 38.9040065, "bike_id": "7c6f7391cc7795a143e9f186520cf0bd", "name": "7c6f7391cc7795a143e9f186520cf0bd", "is_reserved": 0, "fusion_lat": 0.0}, {"type": "electric_scooter", "rental_uris": {"ios": "https://dc.lft.to/lastmile_qr_scan", "android": "https://dc.lft.to/lastmile_qr_scan"}, "lon": -77.03449083333334, "fusion_lon": 0.0, "is_disabled": 0, "lat": 38.907362, "bike_id": "9b52d1cf32d9b930aa5b9760c2eee8df", "name": "9b52d1cf32d9b930aa5b9760c2eee8df", "is_reserved": 0, "fusion_lat": 0.0}, {"type": "electric_bike", "rental_uris": {"ios": "https://dc.lft.to/lastmile_qr_scan", "android": "https://dc.lft.to/lastmile_qr_scan"}, "lon": -77.11039433333333, "fusion_lon": 0.0, "is_disabled": 0, "lat": 38.870925, "bike_id": "8007a1d8ffd50e21895f9aae0de0f6df", "name": "8007a1d8ffd50e21895f9aae0de0f6df", "is_reserved": 0, "fusion_lat": 0.0}, {"type": "electric_scooter", "rental_uris": {"ios": "https://dc.lft.to/lastmile_qr_scan", "android": "https://dc.lft.to/lastmile_qr_scan"}, "lon": -77.03219533333333, "fusion_lon": 0.0, "is_disabled": 0, "lat": 38.9097115, "bike_id": "1aa44f8d7b98725d0c0f960ea4bea1f6", "name": "1aa44f8d7b98725d0c0f960ea4bea1f6", "is_reserved": 0, "fusion_lat": 0.0}, {"type": "electric_scooter", "rental_uris": {"ios": "https://dc.lft.to/lastmile_qr_scan", "android": "https://dc.lft.to/lastmile_qr_scan"}, "lon": -77.03197766666666, "fusion_lon": 0.0, "is_disabled": 0, "lat": 38.91785266666667, "bike_id": "188510f60594aa7e2e8f6573f2c6cec2", "name": "188510f60594aa7e2e8f6573f2c6cec2", "is_reserved": 0, "fusion_lat": 0.0}, {"type": "electric_scooter", "rental_uris": {"ios": "https://dc.lft.to/lastmile_qr_scan", "android": "https://dc.lft.to/lastmile_qr_scan"}, "lon": -77.02609933333333, "fusion_lon": 0.0, "is_disabled": 0, "lat": 38.90131216666666, "bike_id": "104b049042751f3eb49356bc81e50a70", "name": "104b049042751f3eb49356bc81e50a70", "is_reserved": 0, "fusion_lat": 0.0}, {"type": "electric_scooter", "rental_uris": {"ios": "https://dc.lft.to/lastmile_qr_scan", "android": "https://dc.lft.to/lastmile_qr_scan"}, "lon": -77.0317805, "fusion_lon": 0.0, "is_disabled": 0, "lat": 38.919136, "bike_id": "f031c7471942c6b5e9c6851721c59e07", "name": "f031c7471942c6b5e9c6851721c59e07", "is_reserved": 0, "fusion_lat": 0.0}, {"type": "electric_scooter", "rental_uris": {"ios": "https://dc.lft.to/lastmile_qr_scan", "android": "https://dc.lft.to/lastmile_qr_scan"}, "lon": -76.99907733333333, "fusion_lon": 0.0, "is_disabled": 0, "lat": 38.94816566666667, "bike_id": "50edbfc5dafa111f69ef2c236e1f5d4c", "name": "50edbfc5dafa111f69ef2c236e1f5d4c", "is_reserved": 0, "fusion_lat": 0.0}, {"type": "electric_scooter", "rental_uris": {"ios": "https://dc.lft.to/lastmile_qr_scan", "android": "https://dc.lft.to/lastmile_qr_scan"}, "lon": -77.0161565, "fusion_lon": 0.0, "is_disabled": 0, "lat": 38.916005, "bike_id": "9460881833d3e2ff08369ac09ccf8166", "name": "9460881833d3e2ff08369ac09ccf8166", "is_reserved": 0, "fusion_lat": 0.0}, {"type": "electric_scooter", "rental_uris": {"ios": "https://dc.lft.to/lastmile_qr_scan", "android": "https://dc.lft.to/lastmile_qr_scan"}, "lon": -77.01344566666667, "fusion_lon": 0.0, "is_disabled": 0, "lat": 38.864218666666666, "bike_id": "1dc372487ebbbb26df0f26042d0b5a09", "name": "1dc372487ebbbb26df0f26042d0b5a09", "is_reserved": 0, "fusion_lat": 0.0}, {"type": "electric_scooter", "rental_uris": {"ios": "https://dc.lft.to/lastmile_qr_scan", "android": "https://dc.lft.to/lastmile_qr_scan"}, "lon": -77.00615166666667, "fusion_lon": 0.0, "is_disabled": 0, "lat": 38.871810333333336, "bike_id": "861a27a9f22eb3840b66f4dc28f2b56b", "name": "861a27a9f22eb3840b66f4dc28f2b56b", "is_reserved": 0, "fusion_lat": 0.0}, {"type": "electric_scooter", "rental_uris": {"ios": "https://dc.lft.to/lastmile_qr_scan", "android": "https://dc.lft.to/lastmile_qr_scan"}, "lon": -77.0415745, "fusion_lon": 0.0, "is_disabled": 0, "lat": 38.9160895, "bike_id": "77f80b2f281919c3ab57ee35d4cb7d12", "name": "77f80b2f281919c3ab57ee35d4cb7d12", "is_reserved": 0, "fusion_lat": 0.0}, {"type": "electric_scooter", "rental_uris": {"ios": "https://dc.lft.to/lastmile_qr_scan", "android": "https://dc.lft.to/lastmile_qr_scan"}, "lon": -77.0359395, "fusion_lon": 0.0, "is_disabled": 0, "lat": 38.9375075, "bike_id": "986c5f21c9688098f36d2ec0a7bce048", "name": "986c5f21c9688098f36d2ec0a7bce048", "is_reserved": 0, "fusion_lat": 0.0}, {"type": "electric_scooter", "rental_uris": {"ios": "https://dc.lft.to/lastmile_qr_scan", "android": "https://dc.lft.to/lastmile_qr_scan"}, "lon": -77.0215685, "fusion_lon": 0.0, "is_disabled": 0, "lat": 38.93972933333333, "bike_id": "74cc739fe5f3c2b96ed95f5eab2dc44d", "name": "74cc739fe5f3c2b96ed95f5eab2dc44d", "is_reserved": 0, "fusion_lat": 0.0}, {"type": "electric_scooter", "rental_uris": {"ios": "https://dc.lft.to/lastmile_qr_scan", "android": "https://dc.lft.to/lastmile_qr_scan"}, "lon": -77.02172216666666, "fusion_lon": 0.0, "is_disabled": 0, "lat": 38.898856333333335, "bike_id": "e3cfd9dd40d95f7d45f2fa38f0c049cd", "name": "e3cfd9dd40d95f7d45f2fa38f0c049cd", "is_reserved": 0, "fusion_lat": 0.0}, {"type": "electric_scooter", "rental_uris": {"ios": "https://dc.lft.to/lastmile_qr_scan", "android": "https://dc.lft.to/lastmile_qr_scan"}, "lon": -77.02892866666667, "fusion_lon": 0.0, "is_disabled": 0, "lat": 38.9072935, "bike_id": "05c56bbc57144bacbfead242d7d37384", "name": "05c56bbc57144bacbfead242d7d37384", "is_reserved": 0, "fusion_lat": 0.0}, {"type": "electric_scooter", "rental_uris": {"ios": "https://dc.lft.to/lastmile_qr_scan", "android": "https://dc.lft.to/lastmile_qr_scan"}, "lon": -77.02102433333333, "fusion_lon": 0.0, "is_disabled": 0, "lat": 38.910794833333334, "bike_id": "bcf905e67b9b64f8ac21195dc287e796", "name": "bcf905e67b9b64f8ac21195dc287e796", "is_reserved": 0, "fusion_lat": 0.0}, {"type": "electric_scooter", "rental_uris": {"ios": "https://dc.lft.to/lastmile_qr_scan", "android": "https://dc.lft.to/lastmile_qr_scan"}, "lon": -77.032212, "fusion_lon": 0.0, "is_disabled": 0, "lat": 38.89222683333333, "bike_id": "b383c7a55c31264cdb4540bee2828439", "name": "b383c7a55c31264cdb4540bee2828439", "is_reserved": 0, "fusion_lat": 0.0}, {"type": "electric_scooter", "rental_uris": {"ios": "https://dc.lft.to/lastmile_qr_scan", "android": "https://dc.lft.to/lastmile_qr_scan"}, "lon": -77.02861433333334, "fusion_lon": 0.0, "is_disabled": 0, "lat": 38.92575766666667, "bike_id": "dce2ee2b760bb69908be83e8976eb49b", "name": "dce2ee2b760bb69908be83e8976eb49b", "is_reserved": 0, "fusion_lat": 0.0}, {"type": "electric_scooter", "rental_uris": {"ios": "https://dc.lft.to/lastmile_qr_scan", "android": "https://dc.lft.to/lastmile_qr_scan"}, "lon": -77.04688516666667, "fusion_lon": 0.0, "is_disabled": 0, "lat": 38.897324833333336, "bike_id": "e694acef828d71f46c8d574448240d35", "name": "e694acef828d71f46c8d574448240d35", "is_reserved": 0, "fusion_lat": 0.0}, {"type": "electric_scooter", "rental_uris": {"ios": "https://dc.lft.to/lastmile_qr_scan", "android": "https://dc.lft.to/lastmile_qr_scan"}, "lon": -77.0030995, "fusion_lon": 0.0, "is_disabled": 0, "lat": 38.9247665, "bike_id": "66a34dc3f108ca8ea2135a59bb886e6d", "name": "66a34dc3f108ca8ea2135a59bb886e6d", "is_reserved": 0, "fusion_lat": 0.0}, {"type": "electric_scooter", "rental_uris": {"ios": "https://dc.lft.to/lastmile_qr_scan", "android": "https://dc.lft.to/lastmile_qr_scan"}, "lon": -76.95334566666666, "fusion_lon": 0.0, "is_disabled": 0, "lat": 38.892358333333334, "bike_id": "8e3a5f1e11f343b81e515096a5bc1d2c", "name": "8e3a5f1e11f343b81e515096a5bc1d2c", "is_reserved": 0, "fusion_lat": 0.0}, {"type": "electric_scooter", "rental_uris": {"ios": "https://dc.lft.to/lastmile_qr_scan", "android": "https://dc.lft.to/lastmile_qr_scan"}, "lon": -76.986167, "fusion_lon": 0.0, "is_disabled": 0, "lat": 38.88003633333334, "bike_id": "ee5d3e79b3d7fd9132cc09b571d5f2f4", "name": "ee5d3e79b3d7fd9132cc09b571d5f2f4", "is_reserved": 0, "fusion_lat": 0.0}, {"type": "electric_scooter", "rental_uris": {"ios": "https://dc.lft.to/lastmile_qr_scan", "android": "https://dc.lft.to/lastmile_qr_scan"}, "lon": -77.041748, "fusion_lon": 0.0, "is_disabled": 0, "lat": 38.91731166666667, "bike_id": "16933760bbda90a1e72b9a5b23386384", "name": "16933760bbda90a1e72b9a5b23386384", "is_reserved": 0, "fusion_lat": 0.0}, {"type": "electric_scooter", "rental_uris": {"ios": "https://dc.lft.to/lastmile_qr_scan", "android": "https://dc.lft.to/lastmile_qr_scan"}, "lon": -77.036607, "fusion_lon": 0.0, "is_disabled": 0, "lat": 38.921401, "bike_id": "becb096c134a5324b809144e2fd6ff0f", "name": "becb096c134a5324b809144e2fd6ff0f", "is_reserved": 0, "fusion_lat": 0.0}, {"type": "electric_scooter", "rental_uris": {"ios": "https://dc.lft.to/lastmile_qr_scan", "android": "https://dc.lft.to/lastmile_qr_scan"}, "lon": -77.02417666666666, "fusion_lon": 0.0, "is_disabled": 0, "lat": 38.927512666666665, "bike_id": "46121edacdc01a84d1e958f58b3f46de", "name": "46121edacdc01a84d1e958f58b3f46de", "is_reserved": 0, "fusion_lat": 0.0}, {"type": "electric_scooter", "rental_uris": {"ios": "https://dc.lft.to/lastmile_qr_scan", "android": "https://dc.lft.to/lastmile_qr_scan"}, "lon": -77.04387733333333, "fusion_lon": 0.0, "is_disabled": 0, "lat": 38.92103933333333, "bike_id": "b810e886c9909dcfc161f6a8f3f25b05", "name": "b810e886c9909dcfc161f6a8f3f25b05", "is_reserved": 0, "fusion_lat": 0.0}, {"type": "electric_scooter", "rental_uris": {"ios": "https://dc.lft.to/lastmile_qr_scan", "android": "https://dc.lft.to/lastmile_qr_scan"}, "lon": -77.0434015, "fusion_lon": 0.0, "is_disabled": 0, "lat": 38.90154666666667, "bike_id": "52b1276edaa09cbba38b9248ec843099", "name": "52b1276edaa09cbba38b9248ec843099", "is_reserved": 0, "fusion_lat": 0.0}, {"type": "electric_scooter", "rental_uris": {"ios": "https://dc.lft.to/lastmile_qr_scan", "android": "https://dc.lft.to/lastmile_qr_scan"}, "lon": -77.03641016666667, "fusion_lon": 0.0, "is_disabled": 0, "lat": 38.91786833333333, "bike_id": "dffaf6d4dd8d8a05493c5a08eb66cee6", "name": "dffaf6d4dd8d8a05493c5a08eb66cee6", "is_reserved": 0, "fusion_lat": 0.0}, {"type": "electric_scooter", "rental_uris": {"ios": "https://dc.lft.to/lastmile_qr_scan", "android": "https://dc.lft.to/lastmile_qr_scan"}, "lon": -77.03190916666667, "fusion_lon": 0.0, "is_disabled": 0, "lat": 38.9306335, "bike_id": "894f91920c8b447b1bb542c6b0e5cdeb", "name": "894f91920c8b447b1bb542c6b0e5cdeb", "is_reserved": 0, "fusion_lat": 0.0}, {"type": "electric_bike", "rental_uris": {"ios": "https://dc.lft.to/lastmile_qr_scan", "android": "https://dc.lft.to/lastmile_qr_scan"}, "lon": -77.0657205, "fusion_lon": 0.0, "is_disabled": 0, "lat": 38.8699775, "bike_id": "cc93d42d4bd74c80aea0909b846506a4", "name": "cc93d42d4bd74c80aea0909b846506a4", "is_reserved": 0, "fusion_lat": 0.0}, {"type": "electric_scooter", "rental_uris": {"ios": "https://dc.lft.to/lastmile_qr_scan", "android": "https://dc.lft.to/lastmile_qr_scan"}, "lon": -77.01530833333334, "fusion_lon": 0.0, "is_disabled": 0, "lat": 38.88736866666667, "bike_id": "044f6f73d307ddfb969948820c1b52c5", "name": "044f6f73d307ddfb969948820c1b52c5", "is_reserved": 0, "fusion_lat": 0.0}, {"type": "electric_scooter", "rental_uris": {"ios": "https://dc.lft.to/lastmile_qr_scan", "android": "https://dc.lft.to/lastmile_qr_scan"}, "lon": -77.03836283333334, "fusion_lon": 0.0, "is_disabled": 0, "lat": 38.9110935, "bike_id": "465f359ab4dea00897683eab1a8772e5", "name": "465f359ab4dea00897683eab1a8772e5", "is_reserved": 0, "fusion_lat": 0.0}, {"type": "electric_scooter", "rental_uris": {"ios": "https://dc.lft.to/lastmile_qr_scan", "android": "https://dc.lft.to/lastmile_qr_scan"}, "lon": -77.01534983333333, "fusion_lon": 0.0, "is_disabled": 0, "lat": 38.88410833333333, "bike_id": "17314f46e0049de18c031b0c2561b62b", "name": "17314f46e0049de18c031b0c2561b62b", "is_reserved": 0, "fusion_lat": 0.0}, {"type": "electric_scooter", "rental_uris": {"ios": "https://dc.lft.to/lastmile_qr_scan", "android": "https://dc.lft.to/lastmile_qr_scan"}, "lon": -77.03154683333334, "fusion_lon": 0.0, "is_disabled": 0, "lat": 38.897694333333334, "bike_id": "dfdc0e25a7d33052308d71d78b78d711", "name": "dfdc0e25a7d33052308d71d78b78d711", "is_reserved": 0, "fusion_lat": 0.0}, {"type": "electric_scooter", "rental_uris": {"ios": "https://dc.lft.to/lastmile_qr_scan", "android": "https://dc.lft.to/lastmile_qr_scan"}, "lon": -77.0252725, "fusion_lon": 0.0, "is_disabled": 0, "lat": 38.91255833333334, "bike_id": "b6204601e71b35769a93080c1b1d5b6a", "name": "b6204601e71b35769a93080c1b1d5b6a", "is_reserved": 0, "fusion_lat": 0.0}, {"type": "electric_scooter", "rental_uris": {"ios": "https://dc.lft.to/lastmile_qr_scan", "android": "https://dc.lft.to/lastmile_qr_scan"}, "lon": -77.059078, "fusion_lon": 0.0, "is_disabled": 0, "lat": 38.902433, "bike_id": "ac9e6660f70cd96fab5d6b571a50dfe3", "name": "ac9e6660f70cd96fab5d6b571a50dfe3", "is_reserved": 0, "fusion_lat": 0.0}, {"type": "electric_scooter", "rental_uris": {"ios": "https://dc.lft.to/lastmile_qr_scan", "android": "https://dc.lft.to/lastmile_qr_scan"}, "lon": -76.9963725, "fusion_lon": 0.0, "is_disabled": 0, "lat": 38.908850666666666, "bike_id": "a963cc4e8e28e0cf5c3099e49ce01390", "name": "a963cc4e8e28e0cf5c3099e49ce01390", "is_reserved": 0, "fusion_lat": 0.0}, {"type": "electric_scooter", "rental_uris": {"ios": "https://dc.lft.to/lastmile_qr_scan", "android": "https://dc.lft.to/lastmile_qr_scan"}, "lon": -77.02178383333333, "fusion_lon": 0.0, "is_disabled": 0, "lat": 38.921071166666664, "bike_id": "85d5b56a1ffc787e8c013c33a3420f2e", "name": "85d5b56a1ffc787e8c013c33a3420f2e", "is_reserved": 0, "fusion_lat": 0.0}, {"type": "electric_scooter", "rental_uris": {"ios": "https://dc.lft.to/lastmile_qr_scan", "android": "https://dc.lft.to/lastmile_qr_scan"}, "lon": -77.022844, "fusion_lon": 0.0, "is_disabled": 0, "lat": 38.91599716666666, "bike_id": "35eec910370ae9d49a9610f018a44032", "name": "35eec910370ae9d49a9610f018a44032", "is_reserved": 0, "fusion_lat": 0.0}, {"type": "electric_scooter", "rental_uris": {"ios": "https://dc.lft.to/lastmile_qr_scan", "android": "https://dc.lft.to/lastmile_qr_scan"}, "lon": -77.04192766666667, "fusion_lon": 0.0, "is_disabled": 0, "lat": 38.905804, "bike_id": "0ee9fa627e537acb4907e1a3890c4c69", "name": "0ee9fa627e537acb4907e1a3890c4c69", "is_reserved": 0, "fusion_lat": 0.0}, {"type": "electric_scooter", "rental_uris": {"ios": "https://dc.lft.to/lastmile_qr_scan", "android": "https://dc.lft.to/lastmile_qr_scan"}, "lon": -77.044106, "fusion_lon": 0.0, "is_disabled": 0, "lat": 38.9260025, "bike_id": "06c20e45e05de987ef6f72278923d7a2", "name": "06c20e45e05de987ef6f72278923d7a2", "is_reserved": 0, "fusion_lat": 0.0}, {"type": "electric_scooter", "rental_uris": {"ios": "https://dc.lft.to/lastmile_qr_scan", "android": "https://dc.lft.to/lastmile_qr_scan"}, "lon": -77.03177833333334, "fusion_lon": 0.0, "is_disabled": 0, "lat": 38.919142, "bike_id": "17580e4b9c70d284fd80774d1802e9f8", "name": "17580e4b9c70d284fd80774d1802e9f8", "is_reserved": 0, "fusion_lat": 0.0}, {"type": "electric_scooter", "rental_uris": {"ios": "https://dc.lft.to/lastmile_qr_scan", "android": "https://dc.lft.to/lastmile_qr_scan"}, "lon": -77.04572866666666, "fusion_lon": 0.0, "is_disabled": 0, "lat": 38.922400333333336, "bike_id": "ba04cc06d9aa2397ec3f3989942173f9", "name": "ba04cc06d9aa2397ec3f3989942173f9", "is_reserved": 0, "fusion_lat": 0.0}, {"type": "electric_scooter", "rental_uris": {"ios": "https://dc.lft.to/lastmile_qr_scan", "android": "https://dc.lft.to/lastmile_qr_scan"}, "lon": -76.9773465, "fusion_lon": 0.0, "is_disabled": 0, "lat": 38.872894, "bike_id": "9e2366ced119a7a50ba7a0f6ebf064a4", "name": "9e2366ced119a7a50ba7a0f6ebf064a4", "is_reserved": 0, "fusion_lat": 0.0}, {"type": "electric_scooter", "rental_uris": {"ios": "https://dc.lft.to/lastmile_qr_scan", "android": "https://dc.lft.to/lastmile_qr_scan"}, "lon": -77.03508516666666, "fusion_lon": 0.0, "is_disabled": 0, "lat": 38.91875733333333, "bike_id": "2fed3e317fcbc95b11db08f8f8d1da5a", "name": "2fed3e317fcbc95b11db08f8f8d1da5a", "is_reserved": 0, "fusion_lat": 0.0}, {"type": "electric_scooter", "rental_uris": {"ios": "https://dc.lft.to/lastmile_qr_scan", "android": "https://dc.lft.to/lastmile_qr_scan"}, "lon": -77.041343, "fusion_lon": 0.0, "is_disabled": 0, "lat": 38.905150666666664, "bike_id": "693e2365bb2d73abe4e85b5d4983f05c", "name": "693e2365bb2d73abe4e85b5d4983f05c", "is_reserved": 0, "fusion_lat": 0.0}, {"type": "electric_scooter", "rental_uris": {"ios": "https://dc.lft.to/lastmile_qr_scan", "android": "https://dc.lft.to/lastmile_qr_scan"}, "lon": -76.99094283333334, "fusion_lon": 0.0, "is_disabled": 0, "lat": 38.88233266666667, "bike_id": "2c140cc1955a90ffb651dc8c250b15be", "name": "2c140cc1955a90ffb651dc8c250b15be", "is_reserved": 0, "fusion_lat": 0.0}, {"type": "electric_scooter", "rental_uris": {"ios": "https://dc.lft.to/lastmile_qr_scan", "android": "https://dc.lft.to/lastmile_qr_scan"}, "lon": -77.03638366666667, "fusion_lon": 0.0, "is_disabled": 0, "lat": 38.90678833333333, "bike_id": "11f164007f87315ea6b5747896ad6ab5", "name": "11f164007f87315ea6b5747896ad6ab5", "is_reserved": 0, "fusion_lat": 0.0}, {"type": "electric_scooter", "rental_uris": {"ios": "https://dc.lft.to/lastmile_qr_scan", "android": "https://dc.lft.to/lastmile_qr_scan"}, "lon": -77.03219016666667, "fusion_lon": 0.0, "is_disabled": 0, "lat": 38.918434166666664, "bike_id": "3016ac755f738ccb4f282ec3dac2f58c", "name": "3016ac755f738ccb4f282ec3dac2f58c", "is_reserved": 0, "fusion_lat": 0.0}, {"type": "electric_scooter", "rental_uris": {"ios": "https://dc.lft.to/lastmile_qr_scan", "android": "https://dc.lft.to/lastmile_qr_scan"}, "lon": -76.99389583333334, "fusion_lon": 0.0, "is_disabled": 0, "lat": 38.910149, "bike_id": "13afd2fdc3be9ac5d08d8f1c8f7e9ec5", "name": "13afd2fdc3be9ac5d08d8f1c8f7e9ec5", "is_reserved": 0, "fusion_lat": 0.0}, {"type": "electric_scooter", "rental_uris": {"ios": "https://dc.lft.to/lastmile_qr_scan", "android": "https://dc.lft.to/lastmile_qr_scan"}, "lon": -77.03690683333333, "fusion_lon": 0.0, "is_disabled": 0, "lat": 38.91913133333333, "bike_id": "cdbff017ca2d004fb90a90a001560546", "name": "cdbff017ca2d004fb90a90a001560546", "is_reserved": 0, "fusion_lat": 0.0}, {"type": "electric_scooter", "rental_uris": {"ios": "https://dc.lft.to/lastmile_qr_scan", "android": "https://dc.lft.to/lastmile_qr_scan"}, "lon": -77.0297145, "fusion_lon": 0.0, "is_disabled": 0, "lat": 38.907145666666665, "bike_id": "cee4145e999e62c88f1bf1a862146cf8", "name": "cee4145e999e62c88f1bf1a862146cf8", "is_reserved": 0, "fusion_lat": 0.0}, {"type": "electric_scooter", "rental_uris": {"ios": "https://dc.lft.to/lastmile_qr_scan", "android": "https://dc.lft.to/lastmile_qr_scan"}, "lon": -77.04864783333333, "fusion_lon": 0.0, "is_disabled": 0, "lat": 38.909574166666665, "bike_id": "914f86f82019bcb685e426dfb5d588a1", "name": "914f86f82019bcb685e426dfb5d588a1", "is_reserved": 0, "fusion_lat": 0.0}, {"type": "electric_scooter", "rental_uris": {"ios": "https://dc.lft.to/lastmile_qr_scan", "android": "https://dc.lft.to/lastmile_qr_scan"}, "lon": -77.03241083333333, "fusion_lon": 0.0, "is_disabled": 0, "lat": 38.8988705, "bike_id": "9a456ace94c917157dea1d72ec8a82b9", "name": "9a456ace94c917157dea1d72ec8a82b9", "is_reserved": 0, "fusion_lat": 0.0}, {"type": "electric_scooter", "rental_uris": {"ios": "https://dc.lft.to/lastmile_qr_scan", "android": "https://dc.lft.to/lastmile_qr_scan"}, "lon": -77.03185866666666, "fusion_lon": 0.0, "is_disabled": 0, "lat": 38.913286166666666, "bike_id": "9bbb1dc6e1b881e2e42ae6c52a21eb7a", "name": "9bbb1dc6e1b881e2e42ae6c52a21eb7a", "is_reserved": 0, "fusion_lat": 0.0}, {"type": "electric_scooter", "rental_uris": {"ios": "https://dc.lft.to/lastmile_qr_scan", "android": "https://dc.lft.to/lastmile_qr_scan"}, "lon": -77.01742166666666, "fusion_lon": 0.0, "is_disabled": 0, "lat": 38.92037533333333, "bike_id": "2ef3487ff735e62b8e579fd7b5467b3f", "name": "2ef3487ff735e62b8e579fd7b5467b3f", "is_reserved": 0, "fusion_lat": 0.0}, {"type": "electric_scooter", "rental_uris": {"ios": "https://dc.lft.to/lastmile_qr_scan", "android": "https://dc.lft.to/lastmile_qr_scan"}, "lon": -77.03209333333334, "fusion_lon": 0.0, "is_disabled": 0, "lat": 38.89573033333333, "bike_id": "95c092d2e327bcebde2e65a1b54f8803", "name": "95c092d2e327bcebde2e65a1b54f8803", "is_reserved": 0, "fusion_lat": 0.0}, {"type": "electric_scooter", "rental_uris": {"ios": "https://dc.lft.to/lastmile_qr_scan", "android": "https://dc.lft.to/lastmile_qr_scan"}, "lon": -77.01063533333334, "fusion_lon": 0.0, "is_disabled": 0, "lat": 38.8960505, "bike_id": "2bb6c544571cb7203b69bd0d76665223", "name": "2bb6c544571cb7203b69bd0d76665223", "is_reserved": 0, "fusion_lat": 0.0}, {"type": "electric_scooter", "rental_uris": {"ios": "https://dc.lft.to/lastmile_qr_scan", "android": "https://dc.lft.to/lastmile_qr_scan"}, "lon": -76.93527466666667, "fusion_lon": 0.0, "is_disabled": 0, "lat": 38.878959, "bike_id": "594b41a7a31ee972bbeb04f318c69240", "name": "594b41a7a31ee972bbeb04f318c69240", "is_reserved": 0, "fusion_lat": 0.0}, {"type": "electric_scooter", "rental_uris": {"ios": "https://dc.lft.to/lastmile_qr_scan", "android": "https://dc.lft.to/lastmile_qr_scan"}, "lon": -77.042008, "fusion_lon": 0.0, "is_disabled": 0, "lat": 38.892233166666664, "bike_id": "002808a3085a443f2aa4d9f06c9881af", "name": "002808a3085a443f2aa4d9f06c9881af", "is_reserved": 0, "fusion_lat": 0.0}, {"type": "electric_scooter", "rental_uris": {"ios": "https://dc.lft.to/lastmile_qr_scan", "android": "https://dc.lft.to/lastmile_qr_scan"}, "lon": -77.068898, "fusion_lon": 0.0, "is_disabled": 0, "lat": 38.904194333333336, "bike_id": "9177fb67e3e63cc52190fd534303f2ee", "name": "9177fb67e3e63cc52190fd534303f2ee", "is_reserved": 0, "fusion_lat": 0.0}, {"type": "electric_scooter", "rental_uris": {"ios": "https://dc.lft.to/lastmile_qr_scan", "android": "https://dc.lft.to/lastmile_qr_scan"}, "lon": -77.03653833333334, "fusion_lon": 0.0, "is_disabled": 0, "lat": 38.92084116666667, "bike_id": "9bb3fb9894d319c4710fd5fdb693e029", "name": "9bb3fb9894d319c4710fd5fdb693e029", "is_reserved": 0, "fusion_lat": 0.0}, {"type": "electric_scooter", "rental_uris": {"ios": "https://dc.lft.to/lastmile_qr_scan", "android": "https://dc.lft.to/lastmile_qr_scan"}, "lon": -77.05333816666666, "fusion_lon": 0.0, "is_disabled": 0, "lat": 38.92338516666667, "bike_id": "ad8c4fcffde25a8af8df98bf0c1d32a9", "name": "ad8c4fcffde25a8af8df98bf0c1d32a9", "is_reserved": 0, "fusion_lat": 0.0}, {"type": "electric_scooter", "rental_uris": {"ios": "https://dc.lft.to/lastmile_qr_scan", "android": "https://dc.lft.to/lastmile_qr_scan"}, "lon": -77.03759383333333, "fusion_lon": 0.0, "is_disabled": 0, "lat": 38.925893, "bike_id": "eee8c719da0894850b0678fbdae8d7dc", "name": "eee8c719da0894850b0678fbdae8d7dc", "is_reserved": 0, "fusion_lat": 0.0}, {"type": "electric_bike", "rental_uris": {"ios": "https://dc.lft.to/lastmile_qr_scan", "android": "https://dc.lft.to/lastmile_qr_scan"}, "lon": -77.05634016666667, "fusion_lon": 0.0, "is_disabled": 0, "lat": 38.986509166666664, "bike_id": "5087a416983a6ef0b50939391ba59d52", "name": "5087a416983a6ef0b50939391ba59d52", "is_reserved": 0, "fusion_lat": 0.0}, {"type": "electric_scooter", "rental_uris": {"ios": "https://dc.lft.to/lastmile_qr_scan", "android": "https://dc.lft.to/lastmile_qr_scan"}, "lon": -77.02514433333333, "fusion_lon": 0.0, "is_disabled": 0, "lat": 38.946213166666666, "bike_id": "4d4d5b35693cbb315b764751dc990e0e", "name": "4d4d5b35693cbb315b764751dc990e0e", "is_reserved": 0, "fusion_lat": 0.0}, {"type": "electric_scooter", "rental_uris": {"ios": "https://dc.lft.to/lastmile_qr_scan", "android": "https://dc.lft.to/lastmile_qr_scan"}, "lon": -77.03341, "fusion_lon": 0.0, "is_disabled": 0, "lat": 38.91703566666666, "bike_id": "f4c4342fad787e170a6bf19db6e14296", "name": "f4c4342fad787e170a6bf19db6e14296", "is_reserved": 0, "fusion_lat": 0.0}, {"type": "electric_scooter", "rental_uris": {"ios": "https://dc.lft.to/lastmile_qr_scan", "android": "https://dc.lft.to/lastmile_qr_scan"}, "lon": -77.0354665, "fusion_lon": 0.0, "is_disabled": 0, "lat": 38.9238585, "bike_id": "78884e369303873329861b6082c166e7", "name": "78884e369303873329861b6082c166e7", "is_reserved": 0, "fusion_lat": 0.0}, {"type": "electric_scooter", "rental_uris": {"ios": "https://dc.lft.to/lastmile_qr_scan", "android": "https://dc.lft.to/lastmile_qr_scan"}, "lon": -77.04019816666667, "fusion_lon": 0.0, "is_disabled": 0, "lat": 38.91798516666667, "bike_id": "03a031e3136ffaad9d9e11199ffeb793", "name": "03a031e3136ffaad9d9e11199ffeb793", "is_reserved": 0, "fusion_lat": 0.0}, {"type": "electric_bike", "rental_uris": {"ios": "https://dc.lft.to/lastmile_qr_scan", "android": "https://dc.lft.to/lastmile_qr_scan"}, "lon": -77.0996515, "fusion_lon": 0.0, "is_disabled": 0, "lat": 38.93358, "bike_id": "e1178ae6d2e083b12e823f9903420560", "name": "e1178ae6d2e083b12e823f9903420560", "is_reserved": 0, "fusion_lat": 0.0}, {"type": "electric_scooter", "rental_uris": {"ios": "https://dc.lft.to/lastmile_qr_scan", "android": "https://dc.lft.to/lastmile_qr_scan"}, "lon": -77.04422183333334, "fusion_lon": 0.0, "is_disabled": 0, "lat": 38.910083666666665, "bike_id": "ea07e05fe56b3644694ac9e2201c853c", "name": "ea07e05fe56b3644694ac9e2201c853c", "is_reserved": 0, "fusion_lat": 0.0}, {"type": "electric_scooter", "rental_uris": {"ios": "https://dc.lft.to/lastmile_qr_scan", "android": "https://dc.lft.to/lastmile_qr_scan"}, "lon": -77.031655, "fusion_lon": 0.0, "is_disabled": 0, "lat": 38.9237005, "bike_id": "3931e5c812785d7aaba8b737d60a6747", "name": "3931e5c812785d7aaba8b737d60a6747", "is_reserved": 0, "fusion_lat": 0.0}, {"type": "electric_scooter", "rental_uris": {"ios": "https://dc.lft.to/lastmile_qr_scan", "android": "https://dc.lft.to/lastmile_qr_scan"}, "lon": -77.02843633333333, "fusion_lon": 0.0, "is_disabled": 0, "lat": 38.931931666666664, "bike_id": "060a0cdd12bfcb74c2158ee16a5dd825", "name": "060a0cdd12bfcb74c2158ee16a5dd825", "is_reserved": 0, "fusion_lat": 0.0}, {"type": "electric_bike", "rental_uris": {"ios": "https://dc.lft.to/lastmile_qr_scan", "android": "https://dc.lft.to/lastmile_qr_scan"}, "lon": -77.02389616666666, "fusion_lon": 0.0, "is_disabled": 0, "lat": 38.96280133333333, "bike_id": "63a96f4a15628cbe1d5b8f0cf5b5777d", "name": "63a96f4a15628cbe1d5b8f0cf5b5777d", "is_reserved": 0, "fusion_lat": 0.0}, {"type": "electric_scooter", "rental_uris": {"ios": "https://dc.lft.to/lastmile_qr_scan", "android": "https://dc.lft.to/lastmile_qr_scan"}, "lon": -77.03801266666666, "fusion_lon": 0.0, "is_disabled": 0, "lat": 38.92068416666667, "bike_id": "f17c8dd9237baa95ebb2f87c05f6527f", "name": "f17c8dd9237baa95ebb2f87c05f6527f", "is_reserved": 0, "fusion_lat": 0.0}, {"type": "electric_scooter", "rental_uris": {"ios": "https://dc.lft.to/lastmile_qr_scan", "android": "https://dc.lft.to/lastmile_qr_scan"}, "lon": -77.03808333333333, "fusion_lon": 0.0, "is_disabled": 0, "lat": 38.912668833333335, "bike_id": "150356c7c47234e2921d17e8f41f7664", "name": "150356c7c47234e2921d17e8f41f7664", "is_reserved": 0, "fusion_lat": 0.0}, {"type": "electric_scooter", "rental_uris": {"ios": "https://dc.lft.to/lastmile_qr_scan", "android": "https://dc.lft.to/lastmile_qr_scan"}, "lon": -77.03150216666667, "fusion_lon": 0.0, "is_disabled": 0, "lat": 38.915647666666665, "bike_id": "d8e04d8375741196234b8411a0cfd353", "name": "d8e04d8375741196234b8411a0cfd353", "is_reserved": 0, "fusion_lat": 0.0}, {"type": "electric_scooter", "rental_uris": {"ios": "https://dc.lft.to/lastmile_qr_scan", "android": "https://dc.lft.to/lastmile_qr_scan"}, "lon": -77.04125033333334, "fusion_lon": 0.0, "is_disabled": 0, "lat": 38.91216333333333, "bike_id": "49610d1ca87ba4a0374730bad26b1a48", "name": "49610d1ca87ba4a0374730bad26b1a48", "is_reserved": 0, "fusion_lat": 0.0}, {"type": "electric_bike", "rental_uris": {"ios": "https://dc.lft.to/lastmile_qr_scan", "android": "https://dc.lft.to/lastmile_qr_scan"}, "lon": -77.008019, "fusion_lon": 0.0, "is_disabled": 0, "lat": 38.94923383333333, "bike_id": "f2f24d011d4a154a724ac53ccdf97401", "name": "f2f24d011d4a154a724ac53ccdf97401", "is_reserved": 0, "fusion_lat": 0.0}, {"type": "electric_scooter", "rental_uris": {"ios": "https://dc.lft.to/lastmile_qr_scan", "android": "https://dc.lft.to/lastmile_qr_scan"}, "lon": -77.03207366666666, "fusion_lon": 0.0, "is_disabled": 0, "lat": 38.91575183333333, "bike_id": "2bd6a0235d2ece1ea59a369193e86a4c", "name": "2bd6a0235d2ece1ea59a369193e86a4c", "is_reserved": 0, "fusion_lat": 0.0}, {"type": "electric_scooter", "rental_uris": {"ios": "https://dc.lft.to/lastmile_qr_scan", "android": "https://dc.lft.to/lastmile_qr_scan"}, "lon": -77.03290766666667, "fusion_lon": 0.0, "is_disabled": 0, "lat": 38.95640316666667, "bike_id": "17079420af90c5029747c760b9f2b498", "name": "17079420af90c5029747c760b9f2b498", "is_reserved": 0, "fusion_lat": 0.0}, {"type": "electric_bike", "rental_uris": {"ios": "https://dc.lft.to/lastmile_qr_scan", "android": "https://dc.lft.to/lastmile_qr_scan"}, "lon": -77.11493416666667, "fusion_lon": 0.0, "is_disabled": 0, "lat": 39.069247, "bike_id": "dab1ae6f965779fe1d092677ff06b736", "name": "dab1ae6f965779fe1d092677ff06b736", "is_reserved": 0, "fusion_lat": 0.0}, {"type": "electric_scooter", "rental_uris": {"ios": "https://dc.lft.to/lastmile_qr_scan", "android": "https://dc.lft.to/lastmile_qr_scan"}, "lon": -77.051503, "fusion_lon": 0.0, "is_disabled": 0, "lat": 38.90589133333334, "bike_id": "cd767d5cea40f4bc67ba524a8536bfbe", "name": "cd767d5cea40f4bc67ba524a8536bfbe", "is_reserved": 0, "fusion_lat": 0.0}, {"type": "electric_scooter", "rental_uris": {"ios": "https://dc.lft.to/lastmile_qr_scan", "android": "https://dc.lft.to/lastmile_qr_scan"}, "lon": -77.02406566666667, "fusion_lon": 0.0, "is_disabled": 0, "lat": 38.9289625, "bike_id": "128046623445f3dddab24e61a90f88fc", "name": "128046623445f3dddab24e61a90f88fc", "is_reserved": 0, "fusion_lat": 0.0}, {"type": "electric_scooter", "rental_uris": {"ios": "https://dc.lft.to/lastmile_qr_scan", "android": "https://dc.lft.to/lastmile_qr_scan"}, "lon": -77.04023133333334, "fusion_lon": 0.0, "is_disabled": 0, "lat": 38.9217805, "bike_id": "8703c25405805959d6eafba9d2b49436", "name": "8703c25405805959d6eafba9d2b49436", "is_reserved": 0, "fusion_lat": 0.0}, {"type": "electric_scooter", "rental_uris": {"ios": "https://dc.lft.to/lastmile_qr_scan", "android": "https://dc.lft.to/lastmile_qr_scan"}, "lon": -77.041633, "fusion_lon": 0.0, "is_disabled": 0, "lat": 38.9279345, "bike_id": "e404b21cda8731bfc361d734a5b80bba", "name": "e404b21cda8731bfc361d734a5b80bba", "is_reserved": 0, "fusion_lat": 0.0}, {"type": "electric_scooter", "rental_uris": {"ios": "https://dc.lft.to/lastmile_qr_scan", "android": "https://dc.lft.to/lastmile_qr_scan"}, "lon": -76.93180033333333, "fusion_lon": 0.0, "is_disabled": 0, "lat": 38.89888666666667, "bike_id": "d6fafb92d5f399d6aaf6b3e4b0477ac5", "name": "d6fafb92d5f399d6aaf6b3e4b0477ac5", "is_reserved": 0, "fusion_lat": 0.0}, {"type": "electric_bike", "rental_uris": {"ios": "https://dc.lft.to/lastmile_qr_scan", "android": "https://dc.lft.to/lastmile_qr_scan"}, "lon": -76.9802575, "fusion_lon": 0.0, "is_disabled": 0, "lat": 38.9575205, "bike_id": "5e068838900ffd50386e2814ace10de4", "name": "5e068838900ffd50386e2814ace10de4", "is_reserved": 0, "fusion_lat": 0.0}, {"type": "electric_scooter", "rental_uris": {"ios": "https://dc.lft.to/lastmile_qr_scan", "android": "https://dc.lft.to/lastmile_qr_scan"}, "lon": -77.034059, "fusion_lon": 0.0, "is_disabled": 0, "lat": 38.93124016666667, "bike_id": "2160b8b33f301d71267d640baa39cbb4", "name": "2160b8b33f301d71267d640baa39cbb4", "is_reserved": 0, "fusion_lat": 0.0}, {"type": "electric_scooter", "rental_uris": {"ios": "https://dc.lft.to/lastmile_qr_scan", "android": "https://dc.lft.to/lastmile_qr_scan"}, "lon": -77.01228533333334, "fusion_lon": 0.0, "is_disabled": 0, "lat": 38.91500933333333, "bike_id": "ab991e065da012f0858bcd47a9e85bc0", "name": "ab991e065da012f0858bcd47a9e85bc0", "is_reserved": 0, "fusion_lat": 0.0}, {"type": "electric_scooter", "rental_uris": {"ios": "https://dc.lft.to/lastmile_qr_scan", "android": "https://dc.lft.to/lastmile_qr_scan"}, "lon": -77.03473033333333, "fusion_lon": 0.0, "is_disabled": 0, "lat": 38.90963133333333, "bike_id": "9288630a252b611691b15a09aab915b3", "name": "9288630a252b611691b15a09aab915b3", "is_reserved": 0, "fusion_lat": 0.0}, {"type": "electric_scooter", "rental_uris": {"ios": "https://dc.lft.to/lastmile_qr_scan", "android": "https://dc.lft.to/lastmile_qr_scan"}, "lon": -77.0400125, "fusion_lon": 0.0, "is_disabled": 0, "lat": 38.9078695, "bike_id": "f0119cc9c683bc5a6f61fb398176d411", "name": "f0119cc9c683bc5a6f61fb398176d411", "is_reserved": 0, "fusion_lat": 0.0}, {"type": "electric_scooter", "rental_uris": {"ios": "https://dc.lft.to/lastmile_qr_scan", "android": "https://dc.lft.to/lastmile_qr_scan"}, "lon": -77.001163, "fusion_lon": 0.0, "is_disabled": 0, "lat": 38.9170785, "bike_id": "54ba1ced83e70934cf991a53576b3e9d", "name": "54ba1ced83e70934cf991a53576b3e9d", "is_reserved": 0, "fusion_lat": 0.0}, {"type": "electric_scooter", "rental_uris": {"ios": "https://dc.lft.to/lastmile_qr_scan", "android": "https://dc.lft.to/lastmile_qr_scan"}, "lon": -77.02497566666666, "fusion_lon": 0.0, "is_disabled": 0, "lat": 38.91808366666667, "bike_id": "a3b42d99c190759ba8796af9c21eac8e", "name": "a3b42d99c190759ba8796af9c21eac8e", "is_reserved": 0, "fusion_lat": 0.0}, {"type": "electric_scooter", "rental_uris": {"ios": "https://dc.lft.to/lastmile_qr_scan", "android": "https://dc.lft.to/lastmile_qr_scan"}, "lon": -77.022785, "fusion_lon": 0.0, "is_disabled": 0, "lat": 38.916468, "bike_id": "88c4f0ec45be57810c8893ed1fee144b", "name": "88c4f0ec45be57810c8893ed1fee144b", "is_reserved": 0, "fusion_lat": 0.0}, {"type": "electric_scooter", "rental_uris": {"ios": "https://dc.lft.to/lastmile_qr_scan", "android": "https://dc.lft.to/lastmile_qr_scan"}, "lon": -77.03412966666667, "fusion_lon": 0.0, "is_disabled": 0, "lat": 38.9192745, "bike_id": "2f2b520661fccebe8e10087baf3c8e3d", "name": "2f2b520661fccebe8e10087baf3c8e3d", "is_reserved": 0, "fusion_lat": 0.0}, {"type": "electric_scooter", "rental_uris": {"ios": "https://dc.lft.to/lastmile_qr_scan", "android": "https://dc.lft.to/lastmile_qr_scan"}, "lon": -77.03182433333333, "fusion_lon": 0.0, "is_disabled": 0, "lat": 38.919120666666664, "bike_id": "d903a1fc068e7883c74362c68d4bbabd", "name": "d903a1fc068e7883c74362c68d4bbabd", "is_reserved": 0, "fusion_lat": 0.0}, {"type": "electric_scooter", "rental_uris": {"ios": "https://dc.lft.to/lastmile_qr_scan", "android": "https://dc.lft.to/lastmile_qr_scan"}, "lon": -77.03355566666667, "fusion_lon": 0.0, "is_disabled": 0, "lat": 38.88757566666666, "bike_id": "dcfc06b4cb5bed77796cc0a8209ce968", "name": "dcfc06b4cb5bed77796cc0a8209ce968", "is_reserved": 0, "fusion_lat": 0.0}, {"type": "electric_scooter", "rental_uris": {"ios": "https://dc.lft.to/lastmile_qr_scan", "android": "https://dc.lft.to/lastmile_qr_scan"}, "lon": -77.03851816666666, "fusion_lon": 0.0, "is_disabled": 0, "lat": 38.9101555, "bike_id": "321a43729081d5fd122cde6de53bc543", "name": "321a43729081d5fd122cde6de53bc543", "is_reserved": 0, "fusion_lat": 0.0}, {"type": "electric_scooter", "rental_uris": {"ios": "https://dc.lft.to/lastmile_qr_scan", "android": "https://dc.lft.to/lastmile_qr_scan"}, "lon": -77.03212966666666, "fusion_lon": 0.0, "is_disabled": 0, "lat": 38.908973, "bike_id": "fb5d4aecbb0f701bbb8f25c1b236bbd3", "name": "fb5d4aecbb0f701bbb8f25c1b236bbd3", "is_reserved": 0, "fusion_lat": 0.0}, {"type": "electric_bike", "rental_uris": {"ios": "https://dc.lft.to/lastmile_qr_scan", "android": "https://dc.lft.to/lastmile_qr_scan"}, "lon": -77.1345895, "fusion_lon": 0.0, "is_disabled": 0, "lat": 38.85357483333333, "bike_id": "0f03058162e3aa4a0a9a4e8e307eba2f", "name": "0f03058162e3aa4a0a9a4e8e307eba2f", "is_reserved": 0, "fusion_lat": 0.0}, {"type": "electric_scooter", "rental_uris": {"ios": "https://dc.lft.to/lastmile_qr_scan", "android": "https://dc.lft.to/lastmile_qr_scan"}, "lon": -77.03269216666666, "fusion_lon": 0.0, "is_disabled": 0, "lat": 38.9072165, "bike_id": "5c65e6b4d885d6e232dbf0b83e17d6e2", "name": "5c65e6b4d885d6e232dbf0b83e17d6e2", "is_reserved": 0, "fusion_lat": 0.0}, {"type": "electric_scooter", "rental_uris": {"ios": "https://dc.lft.to/lastmile_qr_scan", "android": "https://dc.lft.to/lastmile_qr_scan"}, "lon": -77.016575, "fusion_lon": 0.0, "is_disabled": 0, "lat": 38.91055216666667, "bike_id": "8944c4ef4163cf5ebce13f93bde861d1", "name": "8944c4ef4163cf5ebce13f93bde861d1", "is_reserved": 0, "fusion_lat": 0.0}, {"type": "electric_bike", "rental_uris": {"ios": "https://dc.lft.to/lastmile_qr_scan", "android": "https://dc.lft.to/lastmile_qr_scan"}, "lon": -76.92505166666666, "fusion_lon": 0.0, "is_disabled": 0, "lat": 38.958870833333336, "bike_id": "cfbe74da7e2dce546e99e13c635fdd77", "name": "cfbe74da7e2dce546e99e13c635fdd77", "is_reserved": 0, "fusion_lat": 0.0}, {"type": "electric_scooter", "rental_uris": {"ios": "https://dc.lft.to/lastmile_qr_scan", "android": "https://dc.lft.to/lastmile_qr_scan"}, "lon": -77.04043366666667, "fusion_lon": 0.0, "is_disabled": 0, "lat": 38.89894183333333, "bike_id": "ae6697b3da2e1841be27cee711a4bceb", "name": "ae6697b3da2e1841be27cee711a4bceb", "is_reserved": 0, "fusion_lat": 0.0}, {"type": "electric_scooter", "rental_uris": {"ios": "https://dc.lft.to/lastmile_qr_scan", "android": "https://dc.lft.to/lastmile_qr_scan"}, "lon": -77.0261875, "fusion_lon": 0.0, "is_disabled": 0, "lat": 38.901774833333334, "bike_id": "fb8b2e91ef0b6599dc4af8d837dd27a9", "name": "fb8b2e91ef0b6599dc4af8d837dd27a9", "is_reserved": 0, "fusion_lat": 0.0}, {"type": "electric_scooter", "rental_uris": {"ios": "https://dc.lft.to/lastmile_qr_scan", "android": "https://dc.lft.to/lastmile_qr_scan"}, "lon": -77.030029, "fusion_lon": 0.0, "is_disabled": 0, "lat": 38.929723, "bike_id": "b286999d75a9efe402c596d77f75244a", "name": "b286999d75a9efe402c596d77f75244a", "is_reserved": 0, "fusion_lat": 0.0}, {"type": "electric_bike", "rental_uris": {"ios": "https://dc.lft.to/lastmile_qr_scan", "android": "https://dc.lft.to/lastmile_qr_scan"}, "lon": -77.0492655, "fusion_lon": 0.0, "is_disabled": 0, "lat": 38.8134765, "bike_id": "92708f70a81b47c04bcd7534dbad145a", "name": "92708f70a81b47c04bcd7534dbad145a", "is_reserved": 0, "fusion_lat": 0.0}, {"type": "electric_scooter", "rental_uris": {"ios": "https://dc.lft.to/lastmile_qr_scan", "android": "https://dc.lft.to/lastmile_qr_scan"}, "lon": -77.04175566666666, "fusion_lon": 0.0, "is_disabled": 0, "lat": 38.917656666666666, "bike_id": "578563972701540cecb323cdbec3e8da", "name": "578563972701540cecb323cdbec3e8da", "is_reserved": 0, "fusion_lat": 0.0}, {"type": "electric_bike", "rental_uris": {"ios": "https://dc.lft.to/lastmile_qr_scan", "android": "https://dc.lft.to/lastmile_qr_scan"}, "lon": -76.98358666666667, "fusion_lon": 0.0, "is_disabled": 0, "lat": 38.894367833333334, "bike_id": "6387d70e17b370f4dfc45207c6bc3c4e", "name": "6387d70e17b370f4dfc45207c6bc3c4e", "is_reserved": 0, "fusion_lat": 0.0}, {"type": "electric_scooter", "rental_uris": {"ios": "https://dc.lft.to/lastmile_qr_scan", "android": "https://dc.lft.to/lastmile_qr_scan"}, "lon": -77.00195566666666, "fusion_lon": 0.0, "is_disabled": 0, "lat": 38.90040183333333, "bike_id": "a5c47f1876081e6bbd073805df20b988", "name": "a5c47f1876081e6bbd073805df20b988", "is_reserved": 0, "fusion_lat": 0.0}, {"type": "electric_scooter", "rental_uris": {"ios": "https://dc.lft.to/lastmile_qr_scan", "android": "https://dc.lft.to/lastmile_qr_scan"}, "lon": -76.97731566666667, "fusion_lon": 0.0, "is_disabled": 0, "lat": 38.89517516666667, "bike_id": "dc3d46286a0b6ea4061a41fe3a01768e", "name": "dc3d46286a0b6ea4061a41fe3a01768e", "is_reserved": 0, "fusion_lat": 0.0}, {"type": "electric_scooter", "rental_uris": {"ios": "https://dc.lft.to/lastmile_qr_scan", "android": "https://dc.lft.to/lastmile_qr_scan"}, "lon": -77.0021545, "fusion_lon": 0.0, "is_disabled": 0, "lat": 38.904311666666665, "bike_id": "b2bb6178f32a81e7b7a09e8e4c7d5f8c", "name": "b2bb6178f32a81e7b7a09e8e4c7d5f8c", "is_reserved": 0, "fusion_lat": 0.0}, {"type": "electric_scooter", "rental_uris": {"ios": "https://dc.lft.to/lastmile_qr_scan", "android": "https://dc.lft.to/lastmile_qr_scan"}, "lon": -77.04342866666667, "fusion_lon": 0.0, "is_disabled": 0, "lat": 38.90826933333334, "bike_id": "12a161d1b92d5f62bd666064d4c042cb", "name": "12a161d1b92d5f62bd666064d4c042cb", "is_reserved": 0, "fusion_lat": 0.0}, {"type": "electric_scooter", "rental_uris": {"ios": "https://dc.lft.to/lastmile_qr_scan", "android": "https://dc.lft.to/lastmile_qr_scan"}, "lon": -77.03214516666667, "fusion_lon": 0.0, "is_disabled": 0, "lat": 38.9171625, "bike_id": "fe5503cf3a4d4701217f09b56a28c1c4", "name": "fe5503cf3a4d4701217f09b56a28c1c4", "is_reserved": 0, "fusion_lat": 0.0}, {"type": "electric_bike", "rental_uris": {"ios": "https://dc.lft.to/lastmile_qr_scan", "android": "https://dc.lft.to/lastmile_qr_scan"}, "lon": -77.03513466666666, "fusion_lon": 0.0, "is_disabled": 0, "lat": 38.96204433333333, "bike_id": "3deb5746c098a01566fd1c48fe26735c", "name": "3deb5746c098a01566fd1c48fe26735c", "is_reserved": 0, "fusion_lat": 0.0}, {"type": "electric_scooter", "rental_uris": {"ios": "https://dc.lft.to/lastmile_qr_scan", "android": "https://dc.lft.to/lastmile_qr_scan"}, "lon": -77.023865, "fusion_lon": 0.0, "is_disabled": 0, "lat": 38.91750433333333, "bike_id": "f4a9df70a77b07b1967a5ce6363f5fa0", "name": "f4a9df70a77b07b1967a5ce6363f5fa0", "is_reserved": 0, "fusion_lat": 0.0}, {"type": "electric_scooter", "rental_uris": {"ios": "https://dc.lft.to/lastmile_qr_scan", "android": "https://dc.lft.to/lastmile_qr_scan"}, "lon": -77.03957633333333, "fusion_lon": 0.0, "is_disabled": 0, "lat": 38.8989135, "bike_id": "d0bc39d9a9dda068429cbc32092906e2", "name": "d0bc39d9a9dda068429cbc32092906e2", "is_reserved": 0, "fusion_lat": 0.0}, {"type": "electric_scooter", "rental_uris": {"ios": "https://dc.lft.to/lastmile_qr_scan", "android": "https://dc.lft.to/lastmile_qr_scan"}, "lon": -77.02221866666666, "fusion_lon": 0.0, "is_disabled": 0, "lat": 38.892205, "bike_id": "cdbad1a8b087318f4c2a2ae57343140d", "name": "cdbad1a8b087318f4c2a2ae57343140d", "is_reserved": 0, "fusion_lat": 0.0}, {"type": "electric_scooter", "rental_uris": {"ios": "https://dc.lft.to/lastmile_qr_scan", "android": "https://dc.lft.to/lastmile_qr_scan"}, "lon": -77.07281366666666, "fusion_lon": 0.0, "is_disabled": 0, "lat": 38.934893833333334, "bike_id": "4680db8a440141d170065506e8e7de4c", "name": "4680db8a440141d170065506e8e7de4c", "is_reserved": 0, "fusion_lat": 0.0}, {"type": "electric_scooter", "rental_uris": {"ios": "https://dc.lft.to/lastmile_qr_scan", "android": "https://dc.lft.to/lastmile_qr_scan"}, "lon": -77.02148483333333, "fusion_lon": 0.0, "is_disabled": 0, "lat": 38.9258945, "bike_id": "06821a6a0182497fada680e51b683ed1", "name": "06821a6a0182497fada680e51b683ed1", "is_reserved": 0, "fusion_lat": 0.0}, {"type": "electric_scooter", "rental_uris": {"ios": "https://dc.lft.to/lastmile_qr_scan", "android": "https://dc.lft.to/lastmile_qr_scan"}, "lon": -77.03293733333334, "fusion_lon": 0.0, "is_disabled": 0, "lat": 38.947148, "bike_id": "5b2c83ff6826e1e67ab5d331dca61706", "name": "5b2c83ff6826e1e67ab5d331dca61706", "is_reserved": 0, "fusion_lat": 0.0}, {"type": "electric_scooter", "rental_uris": {"ios": "https://dc.lft.to/lastmile_qr_scan", "android": "https://dc.lft.to/lastmile_qr_scan"}, "lon": -76.99771716666666, "fusion_lon": 0.0, "is_disabled": 0, "lat": 38.900184, "bike_id": "57f3c87ce3eec7edd46c0f0986e60443", "name": "57f3c87ce3eec7edd46c0f0986e60443", "is_reserved": 0, "fusion_lat": 0.0}, {"type": "electric_bike", "rental_uris": {"ios": "https://dc.lft.to/lastmile_qr_scan", "android": "https://dc.lft.to/lastmile_qr_scan"}, "lon": -77.032179, "fusion_lon": 0.0, "is_disabled": 0, "lat": 38.915571, "bike_id": "dced965feaae80a6ffb572c5151a5c26", "name": "dced965feaae80a6ffb572c5151a5c26", "is_reserved": 0, "fusion_lat": 0.0}, {"type": "electric_bike", "rental_uris": {"ios": "https://dc.lft.to/lastmile_qr_scan", "android": "https://dc.lft.to/lastmile_qr_scan"}, "lon": -77.04496066666667, "fusion_lon": 0.0, "is_disabled": 0, "lat": 38.84286483333333, "bike_id": "b16af4af3233598f7569b8135731ea0d", "name": "b16af4af3233598f7569b8135731ea0d", "is_reserved": 0, "fusion_lat": 0.0}, {"type": "electric_scooter", "rental_uris": {"ios": "https://dc.lft.to/lastmile_qr_scan", "android": "https://dc.lft.to/lastmile_qr_scan"}, "lon": -77.02466716666666, "fusion_lon": 0.0, "is_disabled": 0, "lat": 38.93305216666667, "bike_id": "48c68a58b6d418943556dfef762ae8cc", "name": "48c68a58b6d418943556dfef762ae8cc", "is_reserved": 0, "fusion_lat": 0.0}, {"type": "electric_scooter", "rental_uris": {"ios": "https://dc.lft.to/lastmile_qr_scan", "android": "https://dc.lft.to/lastmile_qr_scan"}, "lon": -77.03864716666666, "fusion_lon": 0.0, "is_disabled": 0, "lat": 38.91546233333333, "bike_id": "06b9e6e729b12409ece5614abb2dfc31", "name": "06b9e6e729b12409ece5614abb2dfc31", "is_reserved": 0, "fusion_lat": 0.0}, {"type": "electric_bike", "rental_uris": {"ios": "https://dc.lft.to/lastmile_qr_scan", "android": "https://dc.lft.to/lastmile_qr_scan"}, "lon": -77.028213, "fusion_lon": 0.0, "is_disabled": 0, "lat": 38.965074, "bike_id": "11daf05ebdd8a874dd630375f68ada2a", "name": "11daf05ebdd8a874dd630375f68ada2a", "is_reserved": 0, "fusion_lat": 0.0}, {"type": "electric_scooter", "rental_uris": {"ios": "https://dc.lft.to/lastmile_qr_scan", "android": "https://dc.lft.to/lastmile_qr_scan"}, "lon": -77.04446683333333, "fusion_lon": 0.0, "is_disabled": 0, "lat": 38.9126825, "bike_id": "9ca90355568653a52a25c89009da6fdc", "name": "9ca90355568653a52a25c89009da6fdc", "is_reserved": 0, "fusion_lat": 0.0}, {"type": "electric_scooter", "rental_uris": {"ios": "https://dc.lft.to/lastmile_qr_scan", "android": "https://dc.lft.to/lastmile_qr_scan"}, "lon": -77.00603116666667, "fusion_lon": 0.0, "is_disabled": 0, "lat": 38.90581433333333, "bike_id": "1625944741f0116225734989e335b841", "name": "1625944741f0116225734989e335b841", "is_reserved": 0, "fusion_lat": 0.0}, {"type": "electric_scooter", "rental_uris": {"ios": "https://dc.lft.to/lastmile_qr_scan", "android": "https://dc.lft.to/lastmile_qr_scan"}, "lon": -77.04014833333333, "fusion_lon": 0.0, "is_disabled": 0, "lat": 38.909989, "bike_id": "d2b95e78eb5046573889df317b0d7875", "name": "d2b95e78eb5046573889df317b0d7875", "is_reserved": 0, "fusion_lat": 0.0}, {"type": "electric_scooter", "rental_uris": {"ios": "https://dc.lft.to/lastmile_qr_scan", "android": "https://dc.lft.to/lastmile_qr_scan"}, "lon": -77.0412595, "fusion_lon": 0.0, "is_disabled": 0, "lat": 38.93396766666667, "bike_id": "cc5e125fedcaeb97fdf71eff0958f936", "name": "cc5e125fedcaeb97fdf71eff0958f936", "is_reserved": 0, "fusion_lat": 0.0}, {"type": "electric_scooter", "rental_uris": {"ios": "https://dc.lft.to/lastmile_qr_scan", "android": "https://dc.lft.to/lastmile_qr_scan"}, "lon": -77.03969933333333, "fusion_lon": 0.0, "is_disabled": 0, "lat": 38.898829, "bike_id": "99cd1bbd5ca1aa49f1d854cafd42ab44", "name": "99cd1bbd5ca1aa49f1d854cafd42ab44", "is_reserved": 0, "fusion_lat": 0.0}, {"type": "electric_scooter", "rental_uris": {"ios": "https://dc.lft.to/lastmile_qr_scan", "android": "https://dc.lft.to/lastmile_qr_scan"}, "lon": -77.05502666666666, "fusion_lon": 0.0, "is_disabled": 0, "lat": 38.93661633333333, "bike_id": "76e6c7a49e32b09a0b22baa8086c2d74", "name": "76e6c7a49e32b09a0b22baa8086c2d74", "is_reserved": 0, "fusion_lat": 0.0}, {"type": "electric_bike", "rental_uris": {"ios": "https://dc.lft.to/lastmile_qr_scan", "android": "https://dc.lft.to/lastmile_qr_scan"}, "lon": -77.13146483333334, "fusion_lon": 0.0, "is_disabled": 0, "lat": 38.86172066666666, "bike_id": "9b3d5cb99cbdd395734994ee0ba8fa4a", "name": "9b3d5cb99cbdd395734994ee0ba8fa4a", "is_reserved": 0, "fusion_lat": 0.0}, {"type": "electric_bike", "rental_uris": {"ios": "https://dc.lft.to/lastmile_qr_scan", "android": "https://dc.lft.to/lastmile_qr_scan"}, "lon": -76.98534466666666, "fusion_lon": 0.0, "is_disabled": 0, "lat": 38.8808145, "bike_id": "70925d6ca0bda8ce9c58cad4bc1205f9", "name": "70925d6ca0bda8ce9c58cad4bc1205f9", "is_reserved": 0, "fusion_lat": 0.0}, {"type": "electric_scooter", "rental_uris": {"ios": "https://dc.lft.to/lastmile_qr_scan", "android": "https://dc.lft.to/lastmile_qr_scan"}, "lon": -77.02621866666667, "fusion_lon": 0.0, "is_disabled": 0, "lat": 38.887406666666664, "bike_id": "6ff9fe7170498a06a4044ea83d3e8985", "name": "6ff9fe7170498a06a4044ea83d3e8985", "is_reserved": 0, "fusion_lat": 0.0}, {"type": "electric_scooter", "rental_uris": {"ios": "https://dc.lft.to/lastmile_qr_scan", "android": "https://dc.lft.to/lastmile_qr_scan"}, "lon": -77.02692533333334, "fusion_lon": 0.0, "is_disabled": 0, "lat": 38.90680233333333, "bike_id": "2d62625c7da46647b619836e63254108", "name": "2d62625c7da46647b619836e63254108", "is_reserved": 0, "fusion_lat": 0.0}, {"type": "electric_scooter", "rental_uris": {"ios": "https://dc.lft.to/lastmile_qr_scan", "android": "https://dc.lft.to/lastmile_qr_scan"}, "lon": -77.02493533333333, "fusion_lon": 0.0, "is_disabled": 0, "lat": 38.9418395, "bike_id": "54d520c542899cf93fcdebad45c84d9e", "name": "54d520c542899cf93fcdebad45c84d9e", "is_reserved": 0, "fusion_lat": 0.0}, {"type": "electric_scooter", "rental_uris": {"ios": "https://dc.lft.to/lastmile_qr_scan", "android": "https://dc.lft.to/lastmile_qr_scan"}, "lon": -76.9871445, "fusion_lon": 0.0, "is_disabled": 0, "lat": 38.8653975, "bike_id": "6cb764c16fd779cdbb4a8e608b00ef98", "name": "6cb764c16fd779cdbb4a8e608b00ef98", "is_reserved": 0, "fusion_lat": 0.0}, {"type": "electric_bike", "rental_uris": {"ios": "https://dc.lft.to/lastmile_qr_scan", "android": "https://dc.lft.to/lastmile_qr_scan"}, "lon": -76.9718385, "fusion_lon": 0.0, "is_disabled": 0, "lat": 38.917905166666664, "bike_id": "a9cb3b21db1c6efeae28f42d752ed7cc", "name": "a9cb3b21db1c6efeae28f42d752ed7cc", "is_reserved": 0, "fusion_lat": 0.0}, {"type": "electric_scooter", "rental_uris": {"ios": "https://dc.lft.to/lastmile_qr_scan", "android": "https://dc.lft.to/lastmile_qr_scan"}, "lon": -77.02967266666667, "fusion_lon": 0.0, "is_disabled": 0, "lat": 38.934711166666666, "bike_id": "f0c6068c6827204397960554d50345a1", "name": "f0c6068c6827204397960554d50345a1", "is_reserved": 0, "fusion_lat": 0.0}, {"type": "electric_scooter", "rental_uris": {"ios": "https://dc.lft.to/lastmile_qr_scan", "android": "https://dc.lft.to/lastmile_qr_scan"}, "lon": -77.03509383333333, "fusion_lon": 0.0, "is_disabled": 0, "lat": 38.92153233333333, "bike_id": "74dd56c9805043ce75786fd5f7ff2489", "name": "74dd56c9805043ce75786fd5f7ff2489", "is_reserved": 0, "fusion_lat": 0.0}, {"type": "electric_scooter", "rental_uris": {"ios": "https://dc.lft.to/lastmile_qr_scan", "android": "https://dc.lft.to/lastmile_qr_scan"}, "lon": -77.0113485, "fusion_lon": 0.0, "is_disabled": 0, "lat": 38.88524983333333, "bike_id": "d85a25ff70b7c0279a2847b85af3af5b", "name": "d85a25ff70b7c0279a2847b85af3af5b", "is_reserved": 0, "fusion_lat": 0.0}, {"type": "electric_scooter", "rental_uris": {"ios": "https://dc.lft.to/lastmile_qr_scan", "android": "https://dc.lft.to/lastmile_qr_scan"}, "lon": -77.04158333333334, "fusion_lon": 0.0, "is_disabled": 0, "lat": 38.9162115, "bike_id": "299192a27cffc57882557a317cc2e8a5", "name": "299192a27cffc57882557a317cc2e8a5", "is_reserved": 0, "fusion_lat": 0.0}, {"type": "electric_bike", "rental_uris": {"ios": "https://dc.lft.to/lastmile_qr_scan", "android": "https://dc.lft.to/lastmile_qr_scan"}, "lon": -77.0278095, "fusion_lon": 0.0, "is_disabled": 0, "lat": 38.9293145, "bike_id": "70be0d8f12ac9fc24cb3fa8e09f1f4c4", "name": "70be0d8f12ac9fc24cb3fa8e09f1f4c4", "is_reserved": 0, "fusion_lat": 0.0}, {"type": "electric_scooter", "rental_uris": {"ios": "https://dc.lft.to/lastmile_qr_scan", "android": "https://dc.lft.to/lastmile_qr_scan"}, "lon": -77.01775683333334, "fusion_lon": 0.0, "is_disabled": 0, "lat": 38.90560683333333, "bike_id": "39c83391381bbdd2fb069880ee436815", "name": "39c83391381bbdd2fb069880ee436815", "is_reserved": 0, "fusion_lat": 0.0}, {"type": "electric_scooter", "rental_uris": {"ios": "https://dc.lft.to/lastmile_qr_scan", "android": "https://dc.lft.to/lastmile_qr_scan"}, "lon": -77.02413116666666, "fusion_lon": 0.0, "is_disabled": 0, "lat": 38.891976666666665, "bike_id": "8d7bac29a5139c7415465216fdfdd881", "name": "8d7bac29a5139c7415465216fdfdd881", "is_reserved": 0, "fusion_lat": 0.0}, {"type": "electric_scooter", "rental_uris": {"ios": "https://dc.lft.to/lastmile_qr_scan", "android": "https://dc.lft.to/lastmile_qr_scan"}, "lon": -77.03176666666667, "fusion_lon": 0.0, "is_disabled": 0, "lat": 38.91419483333333, "bike_id": "c549cea49256bece9544edd2ac6e0412", "name": "c549cea49256bece9544edd2ac6e0412", "is_reserved": 0, "fusion_lat": 0.0}, {"type": "electric_bike", "rental_uris": {"ios": "https://dc.lft.to/lastmile_qr_scan", "android": "https://dc.lft.to/lastmile_qr_scan"}, "lon": -77.0340185, "fusion_lon": 0.0, "is_disabled": 0, "lat": 38.919100666666665, "bike_id": "a090c3f0c170eb9d099d9a46dbc2a2ef", "name": "a090c3f0c170eb9d099d9a46dbc2a2ef", "is_reserved": 0, "fusion_lat": 0.0}, {"type": "electric_scooter", "rental_uris": {"ios": "https://dc.lft.to/lastmile_qr_scan", "android": "https://dc.lft.to/lastmile_qr_scan"}, "lon": -77.04266666666666, "fusion_lon": 0.0, "is_disabled": 0, "lat": 38.91032283333333, "bike_id": "c4b648e9a7c23b88334aa27424dd60fc", "name": "c4b648e9a7c23b88334aa27424dd60fc", "is_reserved": 0, "fusion_lat": 0.0}, {"type": "electric_scooter", "rental_uris": {"ios": "https://dc.lft.to/lastmile_qr_scan", "android": "https://dc.lft.to/lastmile_qr_scan"}, "lon": -77.00609966666667, "fusion_lon": 0.0, "is_disabled": 0, "lat": 38.87178383333333, "bike_id": "9c40cf077dbd6b86c80b044a246a6876", "name": "9c40cf077dbd6b86c80b044a246a6876", "is_reserved": 0, "fusion_lat": 0.0}, {"type": "electric_scooter", "rental_uris": {"ios": "https://dc.lft.to/lastmile_qr_scan", "android": "https://dc.lft.to/lastmile_qr_scan"}, "lon": -77.0221115, "fusion_lon": 0.0, "is_disabled": 0, "lat": 38.91136183333333, "bike_id": "4861d2180435ddfffffa2a87609c9771", "name": "4861d2180435ddfffffa2a87609c9771", "is_reserved": 0, "fusion_lat": 0.0}, {"type": "electric_scooter", "rental_uris": {"ios": "https://dc.lft.to/lastmile_qr_scan", "android": "https://dc.lft.to/lastmile_qr_scan"}, "lon": -77.03344583333333, "fusion_lon": 0.0, "is_disabled": 0, "lat": 38.8924835, "bike_id": "3363cb099f2436871677c0bca95e0153", "name": "3363cb099f2436871677c0bca95e0153", "is_reserved": 0, "fusion_lat": 0.0}, {"type": "electric_scooter", "rental_uris": {"ios": "https://dc.lft.to/lastmile_qr_scan", "android": "https://dc.lft.to/lastmile_qr_scan"}, "lon": -76.98010516666666, "fusion_lon": 0.0, "is_disabled": 0, "lat": 38.853252, "bike_id": "7be8fe85bb88d718e840e4c6955ca8cf", "name": "7be8fe85bb88d718e840e4c6955ca8cf", "is_reserved": 0, "fusion_lat": 0.0}, {"type": "electric_scooter", "rental_uris": {"ios": "https://dc.lft.to/lastmile_qr_scan", "android": "https://dc.lft.to/lastmile_qr_scan"}, "lon": -76.93735666666667, "fusion_lon": 0.0, "is_disabled": 0, "lat": 38.89017, "bike_id": "61e3a020735c4d78b21f33b9cf7b5fcd", "name": "61e3a020735c4d78b21f33b9cf7b5fcd", "is_reserved": 0, "fusion_lat": 0.0}, {"type": "electric_scooter", "rental_uris": {"ios": "https://dc.lft.to/lastmile_qr_scan", "android": "https://dc.lft.to/lastmile_qr_scan"}, "lon": -77.01981166666667, "fusion_lon": 0.0, "is_disabled": 0, "lat": 38.9024175, "bike_id": "2aba6161608c61b19e76efb9164fe521", "name": "2aba6161608c61b19e76efb9164fe521", "is_reserved": 0, "fusion_lat": 0.0}, {"type": "electric_scooter", "rental_uris": {"ios": "https://dc.lft.to/lastmile_qr_scan", "android": "https://dc.lft.to/lastmile_qr_scan"}, "lon": -77.03205416666667, "fusion_lon": 0.0, "is_disabled": 0, "lat": 38.91424, "bike_id": "ed2a4abd69c3fe95ededa31ccbd3b553", "name": "ed2a4abd69c3fe95ededa31ccbd3b553", "is_reserved": 0, "fusion_lat": 0.0}, {"type": "electric_scooter", "rental_uris": {"ios": "https://dc.lft.to/lastmile_qr_scan", "android": "https://dc.lft.to/lastmile_qr_scan"}, "lon": -77.02969416666667, "fusion_lon": 0.0, "is_disabled": 0, "lat": 38.92324766666667, "bike_id": "c56484fbc833ddc65cf915f51f786529", "name": "c56484fbc833ddc65cf915f51f786529", "is_reserved": 0, "fusion_lat": 0.0}, {"type": "electric_scooter", "rental_uris": {"ios": "https://dc.lft.to/lastmile_qr_scan", "android": "https://dc.lft.to/lastmile_qr_scan"}, "lon": -77.046814, "fusion_lon": 0.0, "is_disabled": 0, "lat": 38.917140333333336, "bike_id": "5861e7ef8e89bf1f2e9157f79cf0715e", "name": "5861e7ef8e89bf1f2e9157f79cf0715e", "is_reserved": 0, "fusion_lat": 0.0}, {"type": "electric_scooter", "rental_uris": {"ios": "https://dc.lft.to/lastmile_qr_scan", "android": "https://dc.lft.to/lastmile_qr_scan"}, "lon": -77.04377116666667, "fusion_lon": 0.0, "is_disabled": 0, "lat": 38.902626166666664, "bike_id": "5e058ca0bc67f816899b23951e69e91b", "name": "5e058ca0bc67f816899b23951e69e91b", "is_reserved": 0, "fusion_lat": 0.0}, {"type": "electric_scooter", "rental_uris": {"ios": "https://dc.lft.to/lastmile_qr_scan", "android": "https://dc.lft.to/lastmile_qr_scan"}, "lon": -77.0349965, "fusion_lon": 0.0, "is_disabled": 0, "lat": 38.924765666666666, "bike_id": "7e907f6a3e8c93398211609a921b9a9c", "name": "7e907f6a3e8c93398211609a921b9a9c", "is_reserved": 0, "fusion_lat": 0.0}, {"type": "electric_scooter", "rental_uris": {"ios": "https://dc.lft.to/lastmile_qr_scan", "android": "https://dc.lft.to/lastmile_qr_scan"}, "lon": -77.01781516666667, "fusion_lon": 0.0, "is_disabled": 0, "lat": 38.88723016666667, "bike_id": "0969de81c61cc4a5689f4aef1ed6dd81", "name": "0969de81c61cc4a5689f4aef1ed6dd81", "is_reserved": 0, "fusion_lat": 0.0}, {"type": "electric_bike", "rental_uris": {"ios": "https://dc.lft.to/lastmile_qr_scan", "android": "https://dc.lft.to/lastmile_qr_scan"}, "lon": -77.00278966666667, "fusion_lon": 0.0, "is_disabled": 0, "lat": 38.911726333333334, "bike_id": "da706860090c5f7c79323a34c268c540", "name": "da706860090c5f7c79323a34c268c540", "is_reserved": 0, "fusion_lat": 0.0}, {"type": "electric_scooter", "rental_uris": {"ios": "https://dc.lft.to/lastmile_qr_scan", "android": "https://dc.lft.to/lastmile_qr_scan"}, "lon": -76.93383333333334, "fusion_lon": 0.0, "is_disabled": 0, "lat": 38.895549, "bike_id": "432f4d7673d938b6166bc35ac6103999", "name": "432f4d7673d938b6166bc35ac6103999", "is_reserved": 0, "fusion_lat": 0.0}, {"type": "electric_scooter", "rental_uris": {"ios": "https://dc.lft.to/lastmile_qr_scan", "android": "https://dc.lft.to/lastmile_qr_scan"}, "lon": -77.0262265, "fusion_lon": 0.0, "is_disabled": 0, "lat": 38.90176566666667, "bike_id": "2a7ebfd3ddfcd318a7b0c14e787d6948", "name": "2a7ebfd3ddfcd318a7b0c14e787d6948", "is_reserved": 0, "fusion_lat": 0.0}, {"type": "electric_scooter", "rental_uris": {"ios": "https://dc.lft.to/lastmile_qr_scan", "android": "https://dc.lft.to/lastmile_qr_scan"}, "lon": -77.03643383333333, "fusion_lon": 0.0, "is_disabled": 0, "lat": 38.91765816666667, "bike_id": "a1d1984356191c8d081aeaca22eef4b9", "name": "a1d1984356191c8d081aeaca22eef4b9", "is_reserved": 0, "fusion_lat": 0.0}, {"type": "electric_scooter", "rental_uris": {"ios": "https://dc.lft.to/lastmile_qr_scan", "android": "https://dc.lft.to/lastmile_qr_scan"}, "lon": -77.01539466666667, "fusion_lon": 0.0, "is_disabled": 0, "lat": 38.88738083333333, "bike_id": "750789fed6a77f8176a7418230e07d47", "name": "750789fed6a77f8176a7418230e07d47", "is_reserved": 0, "fusion_lat": 0.0}, {"type": "electric_scooter", "rental_uris": {"ios": "https://dc.lft.to/lastmile_qr_scan", "android": "https://dc.lft.to/lastmile_qr_scan"}, "lon": -77.03450683333334, "fusion_lon": 0.0, "is_disabled": 0, "lat": 38.909826, "bike_id": "d37997be4fae2cbf8744614c1ea5990b", "name": "d37997be4fae2cbf8744614c1ea5990b", "is_reserved": 0, "fusion_lat": 0.0}, {"type": "electric_scooter", "rental_uris": {"ios": "https://dc.lft.to/lastmile_qr_scan", "android": "https://dc.lft.to/lastmile_qr_scan"}, "lon": -77.0456695, "fusion_lon": 0.0, "is_disabled": 0, "lat": 38.91941766666667, "bike_id": "c8f185ff7d30144b0165e746d1f55b6c", "name": "c8f185ff7d30144b0165e746d1f55b6c", "is_reserved": 0, "fusion_lat": 0.0}, {"type": "electric_scooter", "rental_uris": {"ios": "https://dc.lft.to/lastmile_qr_scan", "android": "https://dc.lft.to/lastmile_qr_scan"}, "lon": -77.0440725, "fusion_lon": 0.0, "is_disabled": 0, "lat": 38.90290483333333, "bike_id": "96edcf50b06028098bf3e93647508fef", "name": "96edcf50b06028098bf3e93647508fef", "is_reserved": 0, "fusion_lat": 0.0}, {"type": "electric_scooter", "rental_uris": {"ios": "https://dc.lft.to/lastmile_qr_scan", "android": "https://dc.lft.to/lastmile_qr_scan"}, "lon": -76.98527033333333, "fusion_lon": 0.0, "is_disabled": 0, "lat": 38.866868, "bike_id": "69f7de4034dac7c129a1a87a1d7319e0", "name": "69f7de4034dac7c129a1a87a1d7319e0", "is_reserved": 0, "fusion_lat": 0.0}, {"type": "electric_scooter", "rental_uris": {"ios": "https://dc.lft.to/lastmile_qr_scan", "android": "https://dc.lft.to/lastmile_qr_scan"}, "lon": -77.0353375, "fusion_lon": 0.0, "is_disabled": 0, "lat": 38.925386833333334, "bike_id": "c7eda3d88ce9d84eaedc50ffbfa2f118", "name": "c7eda3d88ce9d84eaedc50ffbfa2f118", "is_reserved": 0, "fusion_lat": 0.0}, {"type": "electric_scooter", "rental_uris": {"ios": "https://dc.lft.to/lastmile_qr_scan", "android": "https://dc.lft.to/lastmile_qr_scan"}, "lon": -77.02208683333333, "fusion_lon": 0.0, "is_disabled": 0, "lat": 38.915477, "bike_id": "ca2bd29495049277d954de39f2383c5a", "name": "ca2bd29495049277d954de39f2383c5a", "is_reserved": 0, "fusion_lat": 0.0}, {"type": "electric_bike", "rental_uris": {"ios": "https://dc.lft.to/lastmile_qr_scan", "android": "https://dc.lft.to/lastmile_qr_scan"}, "lon": -77.12530316666667, "fusion_lon": 0.0, "is_disabled": 0, "lat": 39.056359666666665, "bike_id": "aa0de88d482e9360ff069aeacb8d6ce9", "name": "aa0de88d482e9360ff069aeacb8d6ce9", "is_reserved": 0, "fusion_lat": 0.0}, {"type": "electric_scooter", "rental_uris": {"ios": "https://dc.lft.to/lastmile_qr_scan", "android": "https://dc.lft.to/lastmile_qr_scan"}, "lon": -77.03794166666667, "fusion_lon": 0.0, "is_disabled": 0, "lat": 38.9111945, "bike_id": "895ec3a2f1961c380cce1c0b7228d5f8", "name": "895ec3a2f1961c380cce1c0b7228d5f8", "is_reserved": 0, "fusion_lat": 0.0}, {"type": "electric_scooter", "rental_uris": {"ios": "https://dc.lft.to/lastmile_qr_scan", "android": "https://dc.lft.to/lastmile_qr_scan"}, "lon": -77.0222385, "fusion_lon": 0.0, "is_disabled": 0, "lat": 38.89225616666667, "bike_id": "32f2095c09fc3fdf094a0edf388d69c9", "name": "32f2095c09fc3fdf094a0edf388d69c9", "is_reserved": 0, "fusion_lat": 0.0}, {"type": "electric_scooter", "rental_uris": {"ios": "https://dc.lft.to/lastmile_qr_scan", "android": "https://dc.lft.to/lastmile_qr_scan"}, "lon": -76.983981, "fusion_lon": 0.0, "is_disabled": 0, "lat": 38.880872833333335, "bike_id": "aab57951bac2a44c33a569bde224cbb2", "name": "aab57951bac2a44c33a569bde224cbb2", "is_reserved": 0, "fusion_lat": 0.0}, {"type": "electric_scooter", "rental_uris": {"ios": "https://dc.lft.to/lastmile_qr_scan", "android": "https://dc.lft.to/lastmile_qr_scan"}, "lon": -77.01176883333333, "fusion_lon": 0.0, "is_disabled": 0, "lat": 38.915661, "bike_id": "a3d1a20c33290a8cd3d94da274e5e150", "name": "a3d1a20c33290a8cd3d94da274e5e150", "is_reserved": 0, "fusion_lat": 0.0}, {"type": "electric_scooter", "rental_uris": {"ios": "https://dc.lft.to/lastmile_qr_scan", "android": "https://dc.lft.to/lastmile_qr_scan"}, "lon": -76.94656983333333, "fusion_lon": 0.0, "is_disabled": 0, "lat": 38.898276333333335, "bike_id": "906818e606bc380a5fe032a30f54004f", "name": "906818e606bc380a5fe032a30f54004f", "is_reserved": 0, "fusion_lat": 0.0}, {"type": "electric_scooter", "rental_uris": {"ios": "https://dc.lft.to/lastmile_qr_scan", "android": "https://dc.lft.to/lastmile_qr_scan"}, "lon": -77.03185066666667, "fusion_lon": 0.0, "is_disabled": 0, "lat": 38.918657, "bike_id": "4009d71eef053328104672428b76f49c", "name": "4009d71eef053328104672428b76f49c", "is_reserved": 0, "fusion_lat": 0.0}, {"type": "electric_scooter", "rental_uris": {"ios": "https://dc.lft.to/lastmile_qr_scan", "android": "https://dc.lft.to/lastmile_qr_scan"}, "lon": -77.03479866666666, "fusion_lon": 0.0, "is_disabled": 0, "lat": 38.9326485, "bike_id": "fdcd7ec0e946561e22f6f22cc7fcb394", "name": "fdcd7ec0e946561e22f6f22cc7fcb394", "is_reserved": 0, "fusion_lat": 0.0}, {"type": "electric_scooter", "rental_uris": {"ios": "https://dc.lft.to/lastmile_qr_scan", "android": "https://dc.lft.to/lastmile_qr_scan"}, "lon": -77.0513155, "fusion_lon": 0.0, "is_disabled": 0, "lat": 38.923604166666664, "bike_id": "86ed7b0b8e34b27ff933b332353e13e2", "name": "86ed7b0b8e34b27ff933b332353e13e2", "is_reserved": 0, "fusion_lat": 0.0}, {"type": "electric_scooter", "rental_uris": {"ios": "https://dc.lft.to/lastmile_qr_scan", "android": "https://dc.lft.to/lastmile_qr_scan"}, "lon": -77.0426115, "fusion_lon": 0.0, "is_disabled": 0, "lat": 38.921978333333335, "bike_id": "6b0e6dcb6a96ed63c3e8a6f71f1d7028", "name": "6b0e6dcb6a96ed63c3e8a6f71f1d7028", "is_reserved": 0, "fusion_lat": 0.0}, {"type": "electric_scooter", "rental_uris": {"ios": "https://dc.lft.to/lastmile_qr_scan", "android": "https://dc.lft.to/lastmile_qr_scan"}, "lon": -77.0413745, "fusion_lon": 0.0, "is_disabled": 0, "lat": 38.926479, "bike_id": "6ae0569b3356eedfecbe33af30927ab9", "name": "6ae0569b3356eedfecbe33af30927ab9", "is_reserved": 0, "fusion_lat": 0.0}, {"type": "electric_scooter", "rental_uris": {"ios": "https://dc.lft.to/lastmile_qr_scan", "android": "https://dc.lft.to/lastmile_qr_scan"}, "lon": -77.01205483333334, "fusion_lon": 0.0, "is_disabled": 0, "lat": 38.89331116666666, "bike_id": "ad3b83d904761a1eb257a0430f3f8a0f", "name": "ad3b83d904761a1eb257a0430f3f8a0f", "is_reserved": 0, "fusion_lat": 0.0}, {"type": "electric_scooter", "rental_uris": {"ios": "https://dc.lft.to/lastmile_qr_scan", "android": "https://dc.lft.to/lastmile_qr_scan"}, "lon": -77.03214733333333, "fusion_lon": 0.0, "is_disabled": 0, "lat": 38.8922385, "bike_id": "1b0c85c7ba162218a72e51864b75ffad", "name": "1b0c85c7ba162218a72e51864b75ffad", "is_reserved": 0, "fusion_lat": 0.0}, {"type": "electric_scooter", "rental_uris": {"ios": "https://dc.lft.to/lastmile_qr_scan", "android": "https://dc.lft.to/lastmile_qr_scan"}, "lon": -77.03443433333334, "fusion_lon": 0.0, "is_disabled": 0, "lat": 38.918426333333336, "bike_id": "6165c8321b63aad0465524902bae0f7a", "name": "6165c8321b63aad0465524902bae0f7a", "is_reserved": 0, "fusion_lat": 0.0}, {"type": "electric_scooter", "rental_uris": {"ios": "https://dc.lft.to/lastmile_qr_scan", "android": "https://dc.lft.to/lastmile_qr_scan"}, "lon": -77.02945583333333, "fusion_lon": 0.0, "is_disabled": 0, "lat": 38.905399333333335, "bike_id": "d399d51e2f03779fc2ba2afce790ff45", "name": "d399d51e2f03779fc2ba2afce790ff45", "is_reserved": 0, "fusion_lat": 0.0}, {"type": "electric_bike", "rental_uris": {"ios": "https://dc.lft.to/lastmile_qr_scan", "android": "https://dc.lft.to/lastmile_qr_scan"}, "lon": -76.923761, "fusion_lon": 0.0, "is_disabled": 0, "lat": 38.883748833333335, "bike_id": "01f39ce0c794eb5c195b938eb367518d", "name": "01f39ce0c794eb5c195b938eb367518d", "is_reserved": 0, "fusion_lat": 0.0}, {"type": "electric_scooter", "rental_uris": {"ios": "https://dc.lft.to/lastmile_qr_scan", "android": "https://dc.lft.to/lastmile_qr_scan"}, "lon": -77.03442033333333, "fusion_lon": 0.0, "is_disabled": 0, "lat": 38.907401166666666, "bike_id": "3f0ac381ca66b1ffa6a47aaff5a4ec6f", "name": "3f0ac381ca66b1ffa6a47aaff5a4ec6f", "is_reserved": 0, "fusion_lat": 0.0}, {"type": "electric_scooter", "rental_uris": {"ios": "https://dc.lft.to/lastmile_qr_scan", "android": "https://dc.lft.to/lastmile_qr_scan"}, "lon": -77.02407516666666, "fusion_lon": 0.0, "is_disabled": 0, "lat": 38.9174825, "bike_id": "2c01f4dd662e115c34169526e6f99268", "name": "2c01f4dd662e115c34169526e6f99268", "is_reserved": 0, "fusion_lat": 0.0}, {"type": "electric_bike", "rental_uris": {"ios": "https://dc.lft.to/lastmile_qr_scan", "android": "https://dc.lft.to/lastmile_qr_scan"}, "lon": -76.92331633333333, "fusion_lon": 0.0, "is_disabled": 0, "lat": 38.87107133333333, "bike_id": "b8e73eebfede35094f8952fb4c2f5470", "name": "b8e73eebfede35094f8952fb4c2f5470", "is_reserved": 0, "fusion_lat": 0.0}, {"type": "electric_scooter", "rental_uris": {"ios": "https://dc.lft.to/lastmile_qr_scan", "android": "https://dc.lft.to/lastmile_qr_scan"}, "lon": -76.987798, "fusion_lon": 0.0, "is_disabled": 0, "lat": 38.89830666666667, "bike_id": "ebd6fb968e955e298ae9dc0173be6bc5", "name": "ebd6fb968e955e298ae9dc0173be6bc5", "is_reserved": 0, "fusion_lat": 0.0}, {"type": "electric_bike", "rental_uris": {"ios": "https://dc.lft.to/lastmile_qr_scan", "android": "https://dc.lft.to/lastmile_qr_scan"}, "lon": -77.099637, "fusion_lon": 0.0, "is_disabled": 0, "lat": 38.93358216666667, "bike_id": "c1d3dbdfc639b46b8f5361589d91bb2b", "name": "c1d3dbdfc639b46b8f5361589d91bb2b", "is_reserved": 0, "fusion_lat": 0.0}, {"type": "electric_scooter", "rental_uris": {"ios": "https://dc.lft.to/lastmile_qr_scan", "android": "https://dc.lft.to/lastmile_qr_scan"}, "lon": -77.03397766666667, "fusion_lon": 0.0, "is_disabled": 0, "lat": 38.92054733333333, "bike_id": "3136dd3f08477bbc3d26499460ad54c1", "name": "3136dd3f08477bbc3d26499460ad54c1", "is_reserved": 0, "fusion_lat": 0.0}, {"type": "electric_scooter", "rental_uris": {"ios": "https://dc.lft.to/lastmile_qr_scan", "android": "https://dc.lft.to/lastmile_qr_scan"}, "lon": -77.02188783333334, "fusion_lon": 0.0, "is_disabled": 0, "lat": 38.90980283333333, "bike_id": "2c00fc40eb9e1e2ad246c0f9f203f78b", "name": "2c00fc40eb9e1e2ad246c0f9f203f78b", "is_reserved": 0, "fusion_lat": 0.0}, {"type": "electric_scooter", "rental_uris": {"ios": "https://dc.lft.to/lastmile_qr_scan", "android": "https://dc.lft.to/lastmile_qr_scan"}, "lon": -77.03340016666667, "fusion_lon": 0.0, "is_disabled": 0, "lat": 38.91702733333333, "bike_id": "1bdcc746f736890628c6d16c543c3bb5", "name": "1bdcc746f736890628c6d16c543c3bb5", "is_reserved": 0, "fusion_lat": 0.0}, {"type": "electric_scooter", "rental_uris": {"ios": "https://dc.lft.to/lastmile_qr_scan", "android": "https://dc.lft.to/lastmile_qr_scan"}, "lon": -77.012154, "fusion_lon": 0.0, "is_disabled": 0, "lat": 38.91979833333333, "bike_id": "8c60dcffd571c1cc04628261aa9b15c0", "name": "8c60dcffd571c1cc04628261aa9b15c0", "is_reserved": 0, "fusion_lat": 0.0}, {"type": "electric_scooter", "rental_uris": {"ios": "https://dc.lft.to/lastmile_qr_scan", "android": "https://dc.lft.to/lastmile_qr_scan"}, "lon": -77.02697216666667, "fusion_lon": 0.0, "is_disabled": 0, "lat": 38.9068295, "bike_id": "1ed7b51d6dedffd394022e2bf916ea0b", "name": "1ed7b51d6dedffd394022e2bf916ea0b", "is_reserved": 0, "fusion_lat": 0.0}, {"type": "electric_scooter", "rental_uris": {"ios": "https://dc.lft.to/lastmile_qr_scan", "android": "https://dc.lft.to/lastmile_qr_scan"}, "lon": -77.03141933333333, "fusion_lon": 0.0, "is_disabled": 0, "lat": 38.88748966666667, "bike_id": "b68625f5ebf05c960b5e73ac12c76c29", "name": "b68625f5ebf05c960b5e73ac12c76c29", "is_reserved": 0, "fusion_lat": 0.0}, {"type": "electric_scooter", "rental_uris": {"ios": "https://dc.lft.to/lastmile_qr_scan", "android": "https://dc.lft.to/lastmile_qr_scan"}, "lon": -77.07649866666667, "fusion_lon": 0.0, "is_disabled": 0, "lat": 38.939156, "bike_id": "edd8d4865c3b0360e568e3c73f89e9be", "name": "edd8d4865c3b0360e568e3c73f89e9be", "is_reserved": 0, "fusion_lat": 0.0}, {"type": "electric_scooter", "rental_uris": {"ios": "https://dc.lft.to/lastmile_qr_scan", "android": "https://dc.lft.to/lastmile_qr_scan"}, "lon": -77.00119016666666, "fusion_lon": 0.0, "is_disabled": 0, "lat": 38.9123915, "bike_id": "b59777e379ac56b40b53e6cb1fea643c", "name": "b59777e379ac56b40b53e6cb1fea643c", "is_reserved": 0, "fusion_lat": 0.0}, {"type": "electric_scooter", "rental_uris": {"ios": "https://dc.lft.to/lastmile_qr_scan", "android": "https://dc.lft.to/lastmile_qr_scan"}, "lon": -77.02404233333333, "fusion_lon": 0.0, "is_disabled": 0, "lat": 38.897451833333335, "bike_id": "070c82846f0e450655b4aea2fad9ae86", "name": "070c82846f0e450655b4aea2fad9ae86", "is_reserved": 0, "fusion_lat": 0.0}, {"type": "electric_scooter", "rental_uris": {"ios": "https://dc.lft.to/lastmile_qr_scan", "android": "https://dc.lft.to/lastmile_qr_scan"}, "lon": -77.03457816666666, "fusion_lon": 0.0, "is_disabled": 0, "lat": 38.937490333333336, "bike_id": "b8ab073cfd2d2719449a23f17a9734f3", "name": "b8ab073cfd2d2719449a23f17a9734f3", "is_reserved": 0, "fusion_lat": 0.0}, {"type": "electric_scooter", "rental_uris": {"ios": "https://dc.lft.to/lastmile_qr_scan", "android": "https://dc.lft.to/lastmile_qr_scan"}, "lon": -77.04331316666666, "fusion_lon": 0.0, "is_disabled": 0, "lat": 38.892228833333334, "bike_id": "7d8e10f1c8647639f7677d6439d0df67", "name": "7d8e10f1c8647639f7677d6439d0df67", "is_reserved": 0, "fusion_lat": 0.0}, {"type": "electric_scooter", "rental_uris": {"ios": "https://dc.lft.to/lastmile_qr_scan", "android": "https://dc.lft.to/lastmile_qr_scan"}, "lon": -77.0237705, "fusion_lon": 0.0, "is_disabled": 0, "lat": 38.916680166666666, "bike_id": "8ccf59f3d1ae7c43ba73d0976e364727", "name": "8ccf59f3d1ae7c43ba73d0976e364727", "is_reserved": 0, "fusion_lat": 0.0}, {"type": "electric_scooter", "rental_uris": {"ios": "https://dc.lft.to/lastmile_qr_scan", "android": "https://dc.lft.to/lastmile_qr_scan"}, "lon": -77.02495666666667, "fusion_lon": 0.0, "is_disabled": 0, "lat": 38.918092333333334, "bike_id": "58e56004c566cd7eafc65632de82a54e", "name": "58e56004c566cd7eafc65632de82a54e", "is_reserved": 0, "fusion_lat": 0.0}, {"type": "electric_scooter", "rental_uris": {"ios": "https://dc.lft.to/lastmile_qr_scan", "android": "https://dc.lft.to/lastmile_qr_scan"}, "lon": -77.03404033333334, "fusion_lon": 0.0, "is_disabled": 0, "lat": 38.92051466666667, "bike_id": "e9e6a70146a62b4c85065db54e2e502a", "name": "e9e6a70146a62b4c85065db54e2e502a", "is_reserved": 0, "fusion_lat": 0.0}, {"type": "electric_scooter", "rental_uris": {"ios": "https://dc.lft.to/lastmile_qr_scan", "android": "https://dc.lft.to/lastmile_qr_scan"}, "lon": -76.933438, "fusion_lon": 0.0, "is_disabled": 0, "lat": 38.88816166666667, "bike_id": "46c6561e63c1b2a988537af3bbc1b8c1", "name": "46c6561e63c1b2a988537af3bbc1b8c1", "is_reserved": 0, "fusion_lat": 0.0}, {"type": "electric_scooter", "rental_uris": {"ios": "https://dc.lft.to/lastmile_qr_scan", "android": "https://dc.lft.to/lastmile_qr_scan"}, "lon": -77.03992283333334, "fusion_lon": 0.0, "is_disabled": 0, "lat": 38.913353666666666, "bike_id": "34153b5ccaea7d3e9359e0c223fafba6", "name": "34153b5ccaea7d3e9359e0c223fafba6", "is_reserved": 0, "fusion_lat": 0.0}, {"type": "electric_bike", "rental_uris": {"ios": "https://dc.lft.to/lastmile_qr_scan", "android": "https://dc.lft.to/lastmile_qr_scan"}, "lon": -77.03330966666667, "fusion_lon": 0.0, "is_disabled": 0, "lat": 38.9205825, "bike_id": "db53a847fdfd38c2f9520201e5a9754f", "name": "db53a847fdfd38c2f9520201e5a9754f", "is_reserved": 0, "fusion_lat": 0.0}, {"type": "electric_bike", "rental_uris": {"ios": "https://dc.lft.to/lastmile_qr_scan", "android": "https://dc.lft.to/lastmile_qr_scan"}, "lon": -77.00567616666666, "fusion_lon": 0.0, "is_disabled": 0, "lat": 38.839818666666666, "bike_id": "ab919e9d6e515b93db386d2db7f07f57", "name": "ab919e9d6e515b93db386d2db7f07f57", "is_reserved": 0, "fusion_lat": 0.0}, {"type": "electric_bike", "rental_uris": {"ios": "https://dc.lft.to/lastmile_qr_scan", "android": "https://dc.lft.to/lastmile_qr_scan"}, "lon": -77.01441033333333, "fusion_lon": 0.0, "is_disabled": 0, "lat": 38.8767305, "bike_id": "f7f2496796f56cd2bdee693e3c76c63d", "name": "f7f2496796f56cd2bdee693e3c76c63d", "is_reserved": 0, "fusion_lat": 0.0}, {"type": "electric_scooter", "rental_uris": {"ios": "https://dc.lft.to/lastmile_qr_scan", "android": "https://dc.lft.to/lastmile_qr_scan"}, "lon": -77.0318735, "fusion_lon": 0.0, "is_disabled": 0, "lat": 38.91791033333333, "bike_id": "257f4c5fe30425340326cf9e19a49c33", "name": "257f4c5fe30425340326cf9e19a49c33", "is_reserved": 0, "fusion_lat": 0.0}, {"type": "electric_scooter", "rental_uris": {"ios": "https://dc.lft.to/lastmile_qr_scan", "android": "https://dc.lft.to/lastmile_qr_scan"}, "lon": -77.03160516666667, "fusion_lon": 0.0, "is_disabled": 0, "lat": 38.89222, "bike_id": "984bc97cef6e6b563bd233adbdbdcc4b", "name": "984bc97cef6e6b563bd233adbdbdcc4b", "is_reserved": 0, "fusion_lat": 0.0}, {"type": "electric_scooter", "rental_uris": {"ios": "https://dc.lft.to/lastmile_qr_scan", "android": "https://dc.lft.to/lastmile_qr_scan"}, "lon": -77.03211083333333, "fusion_lon": 0.0, "is_disabled": 0, "lat": 38.90886583333333, "bike_id": "411264876dfc76707fe995c459b5cbcd", "name": "411264876dfc76707fe995c459b5cbcd", "is_reserved": 0, "fusion_lat": 0.0}, {"type": "electric_scooter", "rental_uris": {"ios": "https://dc.lft.to/lastmile_qr_scan", "android": "https://dc.lft.to/lastmile_qr_scan"}, "lon": -77.0706205, "fusion_lon": 0.0, "is_disabled": 0, "lat": 38.931792, "bike_id": "7d40db50369752de6f727e25dca74c69", "name": "7d40db50369752de6f727e25dca74c69", "is_reserved": 0, "fusion_lat": 0.0}, {"type": "electric_scooter", "rental_uris": {"ios": "https://dc.lft.to/lastmile_qr_scan", "android": "https://dc.lft.to/lastmile_qr_scan"}, "lon": -76.985228, "fusion_lon": 0.0, "is_disabled": 0, "lat": 38.86686616666667, "bike_id": "98a065f8f8819bcd7b1f5f0a2a298c5d", "name": "98a065f8f8819bcd7b1f5f0a2a298c5d", "is_reserved": 0, "fusion_lat": 0.0}, {"type": "electric_scooter", "rental_uris": {"ios": "https://dc.lft.to/lastmile_qr_scan", "android": "https://dc.lft.to/lastmile_qr_scan"}, "lon": -77.04006966666667, "fusion_lon": 0.0, "is_disabled": 0, "lat": 38.921727, "bike_id": "3de53759c4bda49ebd01df03b2653458", "name": "3de53759c4bda49ebd01df03b2653458", "is_reserved": 0, "fusion_lat": 0.0}, {"type": "electric_scooter", "rental_uris": {"ios": "https://dc.lft.to/lastmile_qr_scan", "android": "https://dc.lft.to/lastmile_qr_scan"}, "lon": -76.968646, "fusion_lon": 0.0, "is_disabled": 0, "lat": 38.870907833333334, "bike_id": "af404c2166c05928b3a3a4ac9654e7c4", "name": "af404c2166c05928b3a3a4ac9654e7c4", "is_reserved": 0, "fusion_lat": 0.0}, {"type": "electric_scooter", "rental_uris": {"ios": "https://dc.lft.to/lastmile_qr_scan", "android": "https://dc.lft.to/lastmile_qr_scan"}, "lon": -76.99506916666667, "fusion_lon": 0.0, "is_disabled": 0, "lat": 38.89491266666667, "bike_id": "5bb93090818cda8aeacfb393cba4152e", "name": "5bb93090818cda8aeacfb393cba4152e", "is_reserved": 0, "fusion_lat": 0.0}, {"type": "electric_scooter", "rental_uris": {"ios": "https://dc.lft.to/lastmile_qr_scan", "android": "https://dc.lft.to/lastmile_qr_scan"}, "lon": -77.033645, "fusion_lon": 0.0, "is_disabled": 0, "lat": 38.887565333333335, "bike_id": "7d69f326aed2c89e4a8c5b2afa60cead", "name": "7d69f326aed2c89e4a8c5b2afa60cead", "is_reserved": 0, "fusion_lat": 0.0}, {"type": "electric_scooter", "rental_uris": {"ios": "https://dc.lft.to/lastmile_qr_scan", "android": "https://dc.lft.to/lastmile_qr_scan"}, "lon": -77.0450615, "fusion_lon": 0.0, "is_disabled": 0, "lat": 38.892249666666665, "bike_id": "76718b57c90eab8197789edee75a1061", "name": "76718b57c90eab8197789edee75a1061", "is_reserved": 0, "fusion_lat": 0.0}, {"type": "electric_scooter", "rental_uris": {"ios": "https://dc.lft.to/lastmile_qr_scan", "android": "https://dc.lft.to/lastmile_qr_scan"}, "lon": -76.9660225, "fusion_lon": 0.0, "is_disabled": 0, "lat": 38.87390966666667, "bike_id": "43a7bf7a17320efce7c0929cd882bc16", "name": "43a7bf7a17320efce7c0929cd882bc16", "is_reserved": 0, "fusion_lat": 0.0}, {"type": "electric_scooter", "rental_uris": {"ios": "https://dc.lft.to/lastmile_qr_scan", "android": "https://dc.lft.to/lastmile_qr_scan"}, "lon": -77.03797966666667, "fusion_lon": 0.0, "is_disabled": 0, "lat": 38.92638316666667, "bike_id": "f946290b213fb20eeb65dad99ba19d32", "name": "f946290b213fb20eeb65dad99ba19d32", "is_reserved": 0, "fusion_lat": 0.0}, {"type": "electric_scooter", "rental_uris": {"ios": "https://dc.lft.to/lastmile_qr_scan", "android": "https://dc.lft.to/lastmile_qr_scan"}, "lon": -77.02781016666667, "fusion_lon": 0.0, "is_disabled": 0, "lat": 38.892224666666664, "bike_id": "06aa83fa99cf4fbff7e081b83a8144a0", "name": "06aa83fa99cf4fbff7e081b83a8144a0", "is_reserved": 0, "fusion_lat": 0.0}, {"type": "electric_scooter", "rental_uris": {"ios": "https://dc.lft.to/lastmile_qr_scan", "android": "https://dc.lft.to/lastmile_qr_scan"}, "lon": -77.04379066666667, "fusion_lon": 0.0, "is_disabled": 0, "lat": 38.92120283333333, "bike_id": "fe4ffe8a049b875e47c9cb3f1e72e4b2", "name": "fe4ffe8a049b875e47c9cb3f1e72e4b2", "is_reserved": 0, "fusion_lat": 0.0}, {"type": "electric_scooter", "rental_uris": {"ios": "https://dc.lft.to/lastmile_qr_scan", "android": "https://dc.lft.to/lastmile_qr_scan"}, "lon": -77.03847933333333, "fusion_lon": 0.0, "is_disabled": 0, "lat": 38.93250066666667, "bike_id": "5cd2dc3bdfb80e4f5c8cdda11d5d713f", "name": "5cd2dc3bdfb80e4f5c8cdda11d5d713f", "is_reserved": 0, "fusion_lat": 0.0}, {"type": "electric_scooter", "rental_uris": {"ios": "https://dc.lft.to/lastmile_qr_scan", "android": "https://dc.lft.to/lastmile_qr_scan"}, "lon": -77.03175683333333, "fusion_lon": 0.0, "is_disabled": 0, "lat": 38.9079215, "bike_id": "0b51b5ef09eb030fd2f50bcef5794d8c", "name": "0b51b5ef09eb030fd2f50bcef5794d8c", "is_reserved": 0, "fusion_lat": 0.0}, {"type": "electric_bike", "rental_uris": {"ios": "https://dc.lft.to/lastmile_qr_scan", "android": "https://dc.lft.to/lastmile_qr_scan"}, "lon": -76.936506, "fusion_lon": 0.0, "is_disabled": 0, "lat": 38.871524, "bike_id": "b6d57be43125a7410cee252a146a6e76", "name": "b6d57be43125a7410cee252a146a6e76", "is_reserved": 0, "fusion_lat": 0.0}, {"type": "electric_scooter", "rental_uris": {"ios": "https://dc.lft.to/lastmile_qr_scan", "android": "https://dc.lft.to/lastmile_qr_scan"}, "lon": -77.02975716666667, "fusion_lon": 0.0, "is_disabled": 0, "lat": 38.916835, "bike_id": "f8f4e2546727a3fff917fd9a31423ea3", "name": "f8f4e2546727a3fff917fd9a31423ea3", "is_reserved": 0, "fusion_lat": 0.0}, {"type": "electric_scooter", "rental_uris": {"ios": "https://dc.lft.to/lastmile_qr_scan", "android": "https://dc.lft.to/lastmile_qr_scan"}, "lon": -76.97415533333333, "fusion_lon": 0.0, "is_disabled": 0, "lat": 38.864265333333336, "bike_id": "ffd809c26f9564b8c41c0d3158f878fb", "name": "ffd809c26f9564b8c41c0d3158f878fb", "is_reserved": 0, "fusion_lat": 0.0}, {"type": "electric_scooter", "rental_uris": {"ios": "https://dc.lft.to/lastmile_qr_scan", "android": "https://dc.lft.to/lastmile_qr_scan"}, "lon": -77.034185, "fusion_lon": 0.0, "is_disabled": 0, "lat": 38.90423366666667, "bike_id": "320e35a194b8c1f6939b5c517038c0a1", "name": "320e35a194b8c1f6939b5c517038c0a1", "is_reserved": 0, "fusion_lat": 0.0}, {"type": "electric_scooter", "rental_uris": {"ios": "https://dc.lft.to/lastmile_qr_scan", "android": "https://dc.lft.to/lastmile_qr_scan"}, "lon": -77.026519, "fusion_lon": 0.0, "is_disabled": 0, "lat": 38.89219583333333, "bike_id": "3f919329aa570d2ce1224215f27b2dd2", "name": "3f919329aa570d2ce1224215f27b2dd2", "is_reserved": 0, "fusion_lat": 0.0}, {"type": "electric_scooter", "rental_uris": {"ios": "https://dc.lft.to/lastmile_qr_scan", "android": "https://dc.lft.to/lastmile_qr_scan"}, "lon": -76.92621666666666, "fusion_lon": 0.0, "is_disabled": 0, "lat": 38.884595166666664, "bike_id": "c91dfa00c0755a0176df9b57fe54d329", "name": "c91dfa00c0755a0176df9b57fe54d329", "is_reserved": 0, "fusion_lat": 0.0}, {"type": "electric_scooter", "rental_uris": {"ios": "https://dc.lft.to/lastmile_qr_scan", "android": "https://dc.lft.to/lastmile_qr_scan"}, "lon": -77.02099316666667, "fusion_lon": 0.0, "is_disabled": 0, "lat": 38.931169, "bike_id": "df57aa8a12441667b937ed3c9d5551ba", "name": "df57aa8a12441667b937ed3c9d5551ba", "is_reserved": 0, "fusion_lat": 0.0}, {"type": "electric_scooter", "rental_uris": {"ios": "https://dc.lft.to/lastmile_qr_scan", "android": "https://dc.lft.to/lastmile_qr_scan"}, "lon": -77.04663033333334, "fusion_lon": 0.0, "is_disabled": 0, "lat": 38.89242183333333, "bike_id": "5de5cb6586838941ef36c5123aa0acc9", "name": "5de5cb6586838941ef36c5123aa0acc9", "is_reserved": 0, "fusion_lat": 0.0}, {"type": "electric_scooter", "rental_uris": {"ios": "https://dc.lft.to/lastmile_qr_scan", "android": "https://dc.lft.to/lastmile_qr_scan"}, "lon": -77.02333733333333, "fusion_lon": 0.0, "is_disabled": 0, "lat": 38.9167045, "bike_id": "12c58c35e3b61beaf423324ee4550b41", "name": "12c58c35e3b61beaf423324ee4550b41", "is_reserved": 0, "fusion_lat": 0.0}, {"type": "electric_scooter", "rental_uris": {"ios": "https://dc.lft.to/lastmile_qr_scan", "android": "https://dc.lft.to/lastmile_qr_scan"}, "lon": -77.04531716666666, "fusion_lon": 0.0, "is_disabled": 0, "lat": 38.91822233333333, "bike_id": "dbae319915eec731df0e25173f603783", "name": "dbae319915eec731df0e25173f603783", "is_reserved": 0, "fusion_lat": 0.0}, {"type": "electric_scooter", "rental_uris": {"ios": "https://dc.lft.to/lastmile_qr_scan", "android": "https://dc.lft.to/lastmile_qr_scan"}, "lon": -77.01793466666666, "fusion_lon": 0.0, "is_disabled": 0, "lat": 38.920532666666666, "bike_id": "ddc13ec93df87aac9332bdc89bc1f62c", "name": "ddc13ec93df87aac9332bdc89bc1f62c", "is_reserved": 0, "fusion_lat": 0.0}, {"type": "electric_bike", "rental_uris": {"ios": "https://dc.lft.to/lastmile_qr_scan", "android": "https://dc.lft.to/lastmile_qr_scan"}, "lon": -77.04981166666667, "fusion_lon": 0.0, "is_disabled": 0, "lat": 39.06296566666666, "bike_id": "8e617b411750d4fcb976c16ec5a6d54a", "name": "8e617b411750d4fcb976c16ec5a6d54a", "is_reserved": 0, "fusion_lat": 0.0}, {"type": "electric_scooter", "rental_uris": {"ios": "https://dc.lft.to/lastmile_qr_scan", "android": "https://dc.lft.to/lastmile_qr_scan"}, "lon": -77.03963983333334, "fusion_lon": 0.0, "is_disabled": 0, "lat": 38.9198115, "bike_id": "9401b3a14dc2357e7f2590fe27861acf", "name": "9401b3a14dc2357e7f2590fe27861acf", "is_reserved": 0, "fusion_lat": 0.0}, {"type": "electric_scooter", "rental_uris": {"ios": "https://dc.lft.to/lastmile_qr_scan", "android": "https://dc.lft.to/lastmile_qr_scan"}, "lon": -77.03735266666666, "fusion_lon": 0.0, "is_disabled": 0, "lat": 38.9285065, "bike_id": "f4597bb0c74f143a60b245ca1c5575ee", "name": "f4597bb0c74f143a60b245ca1c5575ee", "is_reserved": 0, "fusion_lat": 0.0}, {"type": "electric_scooter", "rental_uris": {"ios": "https://dc.lft.to/lastmile_qr_scan", "android": "https://dc.lft.to/lastmile_qr_scan"}, "lon": -77.03147216666666, "fusion_lon": 0.0, "is_disabled": 0, "lat": 38.91567333333333, "bike_id": "86fa3bd338177754039f422eba989498", "name": "86fa3bd338177754039f422eba989498", "is_reserved": 0, "fusion_lat": 0.0}, {"type": "electric_scooter", "rental_uris": {"ios": "https://dc.lft.to/lastmile_qr_scan", "android": "https://dc.lft.to/lastmile_qr_scan"}, "lon": -77.03164983333333, "fusion_lon": 0.0, "is_disabled": 0, "lat": 38.896206, "bike_id": "eb4b9a1627b8ec8a9448d22197e47d60", "name": "eb4b9a1627b8ec8a9448d22197e47d60", "is_reserved": 0, "fusion_lat": 0.0}, {"type": "electric_scooter", "rental_uris": {"ios": "https://dc.lft.to/lastmile_qr_scan", "android": "https://dc.lft.to/lastmile_qr_scan"}, "lon": -77.00619683333333, "fusion_lon": 0.0, "is_disabled": 0, "lat": 38.90649233333333, "bike_id": "7510dc164a3d6ba6f11f36298c234a55", "name": "7510dc164a3d6ba6f11f36298c234a55", "is_reserved": 0, "fusion_lat": 0.0}, {"type": "electric_scooter", "rental_uris": {"ios": "https://dc.lft.to/lastmile_qr_scan", "android": "https://dc.lft.to/lastmile_qr_scan"}, "lon": -77.032661, "fusion_lon": 0.0, "is_disabled": 0, "lat": 38.929242, "bike_id": "4c4144073ed112392c9f6eb7e1c130bb", "name": "4c4144073ed112392c9f6eb7e1c130bb", "is_reserved": 0, "fusion_lat": 0.0}, {"type": "electric_scooter", "rental_uris": {"ios": "https://dc.lft.to/lastmile_qr_scan", "android": "https://dc.lft.to/lastmile_qr_scan"}, "lon": -77.0136915, "fusion_lon": 0.0, "is_disabled": 0, "lat": 38.892277166666666, "bike_id": "3c93f6185d341ddae61f87581ebf3ee0", "name": "3c93f6185d341ddae61f87581ebf3ee0", "is_reserved": 0, "fusion_lat": 0.0}, {"type": "electric_scooter", "rental_uris": {"ios": "https://dc.lft.to/lastmile_qr_scan", "android": "https://dc.lft.to/lastmile_qr_scan"}, "lon": -77.0116275, "fusion_lon": 0.0, "is_disabled": 0, "lat": 38.90313966666667, "bike_id": "52125e36641725a0e4b07b0c260e3008", "name": "52125e36641725a0e4b07b0c260e3008", "is_reserved": 0, "fusion_lat": 0.0}, {"type": "electric_scooter", "rental_uris": {"ios": "https://dc.lft.to/lastmile_qr_scan", "android": "https://dc.lft.to/lastmile_qr_scan"}, "lon": -77.00605783333333, "fusion_lon": 0.0, "is_disabled": 0, "lat": 38.9056855, "bike_id": "47ab10af346ba03014df2a0f38c4c38e", "name": "47ab10af346ba03014df2a0f38c4c38e", "is_reserved": 0, "fusion_lat": 0.0}, {"type": "electric_scooter", "rental_uris": {"ios": "https://dc.lft.to/lastmile_qr_scan", "android": "https://dc.lft.to/lastmile_qr_scan"}, "lon": -77.02643716666667, "fusion_lon": 0.0, "is_disabled": 0, "lat": 38.910681, "bike_id": "7900ebc74f2a374304c3f552a6853704", "name": "7900ebc74f2a374304c3f552a6853704", "is_reserved": 0, "fusion_lat": 0.0}, {"type": "electric_scooter", "rental_uris": {"ios": "https://dc.lft.to/lastmile_qr_scan", "android": "https://dc.lft.to/lastmile_qr_scan"}, "lon": -77.040405, "fusion_lon": 0.0, "is_disabled": 0, "lat": 38.91860633333334, "bike_id": "192a2964d3ed63bcfe4c5559a409c2e3", "name": "192a2964d3ed63bcfe4c5559a409c2e3", "is_reserved": 0, "fusion_lat": 0.0}, {"type": "electric_scooter", "rental_uris": {"ios": "https://dc.lft.to/lastmile_qr_scan", "android": "https://dc.lft.to/lastmile_qr_scan"}, "lon": -77.023857, "fusion_lon": 0.0, "is_disabled": 0, "lat": 38.90634333333333, "bike_id": "dee3b952d50cc76acd1d56711a8e9281", "name": "dee3b952d50cc76acd1d56711a8e9281", "is_reserved": 0, "fusion_lat": 0.0}, {"type": "electric_scooter", "rental_uris": {"ios": "https://dc.lft.to/lastmile_qr_scan", "android": "https://dc.lft.to/lastmile_qr_scan"}, "lon": -77.02191616666667, "fusion_lon": 0.0, "is_disabled": 0, "lat": 38.91660783333333, "bike_id": "733f6dc52a712cf42165fd29ba8b88c0", "name": "733f6dc52a712cf42165fd29ba8b88c0", "is_reserved": 0, "fusion_lat": 0.0}, {"type": "electric_scooter", "rental_uris": {"ios": "https://dc.lft.to/lastmile_qr_scan", "android": "https://dc.lft.to/lastmile_qr_scan"}, "lon": -77.0219975, "fusion_lon": 0.0, "is_disabled": 0, "lat": 38.915467666666665, "bike_id": "55cce467dbdf7460200825f584a1a373", "name": "55cce467dbdf7460200825f584a1a373", "is_reserved": 0, "fusion_lat": 0.0}, {"type": "electric_scooter", "rental_uris": {"ios": "https://dc.lft.to/lastmile_qr_scan", "android": "https://dc.lft.to/lastmile_qr_scan"}, "lon": -76.99254333333333, "fusion_lon": 0.0, "is_disabled": 0, "lat": 38.86381983333333, "bike_id": "fc170c4269ed04df3064360d0b2f93a8", "name": "fc170c4269ed04df3064360d0b2f93a8", "is_reserved": 0, "fusion_lat": 0.0}, {"type": "electric_scooter", "rental_uris": {"ios": "https://dc.lft.to/lastmile_qr_scan", "android": "https://dc.lft.to/lastmile_qr_scan"}, "lon": -77.01764766666666, "fusion_lon": 0.0, "is_disabled": 0, "lat": 38.87725533333333, "bike_id": "9c84c77d3014fdaaef718549b244ff6e", "name": "9c84c77d3014fdaaef718549b244ff6e", "is_reserved": 0, "fusion_lat": 0.0}, {"type": "electric_scooter", "rental_uris": {"ios": "https://dc.lft.to/lastmile_qr_scan", "android": "https://dc.lft.to/lastmile_qr_scan"}, "lon": -77.02799916666666, "fusion_lon": 0.0, "is_disabled": 0, "lat": 38.93102116666667, "bike_id": "f9e64316896a1ed9e29289d729c81254", "name": "f9e64316896a1ed9e29289d729c81254", "is_reserved": 0, "fusion_lat": 0.0}, {"type": "electric_scooter", "rental_uris": {"ios": "https://dc.lft.to/lastmile_qr_scan", "android": "https://dc.lft.to/lastmile_qr_scan"}, "lon": -77.03482116666666, "fusion_lon": 0.0, "is_disabled": 0, "lat": 38.909605166666665, "bike_id": "00facdfdd327ca9ddbc2353d471a2f9b", "name": "00facdfdd327ca9ddbc2353d471a2f9b", "is_reserved": 0, "fusion_lat": 0.0}, {"type": "electric_scooter", "rental_uris": {"ios": "https://dc.lft.to/lastmile_qr_scan", "android": "https://dc.lft.to/lastmile_qr_scan"}, "lon": -77.03255416666667, "fusion_lon": 0.0, "is_disabled": 0, "lat": 38.93970983333333, "bike_id": "fdc50153234471fe9462e6639c7bbf2f", "name": "fdc50153234471fe9462e6639c7bbf2f", "is_reserved": 0, "fusion_lat": 0.0}, {"type": "electric_scooter", "rental_uris": {"ios": "https://dc.lft.to/lastmile_qr_scan", "android": "https://dc.lft.to/lastmile_qr_scan"}, "lon": -76.9837485, "fusion_lon": 0.0, "is_disabled": 0, "lat": 38.861112166666665, "bike_id": "661abb1be44661b086adb312141f5d36", "name": "661abb1be44661b086adb312141f5d36", "is_reserved": 0, "fusion_lat": 0.0}, {"type": "electric_scooter", "rental_uris": {"ios": "https://dc.lft.to/lastmile_qr_scan", "android": "https://dc.lft.to/lastmile_qr_scan"}, "lon": -77.03443916666667, "fusion_lon": 0.0, "is_disabled": 0, "lat": 38.90628866666667, "bike_id": "3d5e92e3e545985fd75ef3ac8c3cf070", "name": "3d5e92e3e545985fd75ef3ac8c3cf070", "is_reserved": 0, "fusion_lat": 0.0}, {"type": "electric_bike", "rental_uris": {"ios": "https://dc.lft.to/lastmile_qr_scan", "android": "https://dc.lft.to/lastmile_qr_scan"}, "lon": -77.02713716666666, "fusion_lon": 0.0, "is_disabled": 0, "lat": 38.92296783333333, "bike_id": "edaddb33f9d87517017db8dc3746fcf2", "name": "edaddb33f9d87517017db8dc3746fcf2", "is_reserved": 0, "fusion_lat": 0.0}, {"type": "electric_scooter", "rental_uris": {"ios": "https://dc.lft.to/lastmile_qr_scan", "android": "https://dc.lft.to/lastmile_qr_scan"}, "lon": -77.03036683333333, "fusion_lon": 0.0, "is_disabled": 0, "lat": 38.92683433333333, "bike_id": "625184f35e8442ecc20ee65bde6ef668", "name": "625184f35e8442ecc20ee65bde6ef668", "is_reserved": 0, "fusion_lat": 0.0}, {"type": "electric_scooter", "rental_uris": {"ios": "https://dc.lft.to/lastmile_qr_scan", "android": "https://dc.lft.to/lastmile_qr_scan"}, "lon": -77.02425566666666, "fusion_lon": 0.0, "is_disabled": 0, "lat": 38.92657416666667, "bike_id": "9a6634ace07d968e170bca7ae5bdeee2", "name": "9a6634ace07d968e170bca7ae5bdeee2", "is_reserved": 0, "fusion_lat": 0.0}, {"type": "electric_scooter", "rental_uris": {"ios": "https://dc.lft.to/lastmile_qr_scan", "android": "https://dc.lft.to/lastmile_qr_scan"}, "lon": -77.03077516666667, "fusion_lon": 0.0, "is_disabled": 0, "lat": 38.917579, "bike_id": "a28da5eec97b0a5949a55f9b18e10efb", "name": "a28da5eec97b0a5949a55f9b18e10efb", "is_reserved": 0, "fusion_lat": 0.0}, {"type": "electric_scooter", "rental_uris": {"ios": "https://dc.lft.to/lastmile_qr_scan", "android": "https://dc.lft.to/lastmile_qr_scan"}, "lon": -77.03356583333333, "fusion_lon": 0.0, "is_disabled": 0, "lat": 38.91704133333333, "bike_id": "5c31b30b11d925a43a8abba6a28ec8f3", "name": "5c31b30b11d925a43a8abba6a28ec8f3", "is_reserved": 0, "fusion_lat": 0.0}, {"type": "electric_scooter", "rental_uris": {"ios": "https://dc.lft.to/lastmile_qr_scan", "android": "https://dc.lft.to/lastmile_qr_scan"}, "lon": -77.013748, "fusion_lon": 0.0, "is_disabled": 0, "lat": 38.89223033333333, "bike_id": "f844ce236824b132657f6be81a0f4236", "name": "f844ce236824b132657f6be81a0f4236", "is_reserved": 0, "fusion_lat": 0.0}, {"type": "electric_scooter", "rental_uris": {"ios": "https://dc.lft.to/lastmile_qr_scan", "android": "https://dc.lft.to/lastmile_qr_scan"}, "lon": -77.03628283333333, "fusion_lon": 0.0, "is_disabled": 0, "lat": 38.936858666666666, "bike_id": "bd12e70c8fb9ce442356fd000ef8259e", "name": "bd12e70c8fb9ce442356fd000ef8259e", "is_reserved": 0, "fusion_lat": 0.0}, {"type": "electric_scooter", "rental_uris": {"ios": "https://dc.lft.to/lastmile_qr_scan", "android": "https://dc.lft.to/lastmile_qr_scan"}, "lon": -76.9702125, "fusion_lon": 0.0, "is_disabled": 0, "lat": 38.920350666666664, "bike_id": "a9a40710aca64ac2d94af678c9ed5be2", "name": "a9a40710aca64ac2d94af678c9ed5be2", "is_reserved": 0, "fusion_lat": 0.0}, {"type": "electric_scooter", "rental_uris": {"ios": "https://dc.lft.to/lastmile_qr_scan", "android": "https://dc.lft.to/lastmile_qr_scan"}, "lon": -77.0505365, "fusion_lon": 0.0, "is_disabled": 0, "lat": 38.9236605, "bike_id": "e3b37eb99c0c7966d81df44bf210f520", "name": "e3b37eb99c0c7966d81df44bf210f520", "is_reserved": 0, "fusion_lat": 0.0}, {"type": "electric_scooter", "rental_uris": {"ios": "https://dc.lft.to/lastmile_qr_scan", "android": "https://dc.lft.to/lastmile_qr_scan"}, "lon": -77.022251, "fusion_lon": 0.0, "is_disabled": 0, "lat": 38.89221933333334, "bike_id": "542f49122247523b759fe5ae066d91d3", "name": "542f49122247523b759fe5ae066d91d3", "is_reserved": 0, "fusion_lat": 0.0}, {"type": "electric_scooter", "rental_uris": {"ios": "https://dc.lft.to/lastmile_qr_scan", "android": "https://dc.lft.to/lastmile_qr_scan"}, "lon": -77.03097266666667, "fusion_lon": 0.0, "is_disabled": 0, "lat": 38.90126733333334, "bike_id": "3b5e3c67089761fb727950b32db83a36", "name": "3b5e3c67089761fb727950b32db83a36", "is_reserved": 0, "fusion_lat": 0.0}, {"type": "electric_bike", "rental_uris": {"ios": "https://dc.lft.to/lastmile_qr_scan", "android": "https://dc.lft.to/lastmile_qr_scan"}, "lon": -77.05032583333333, "fusion_lon": 0.0, "is_disabled": 0, "lat": 39.0390585, "bike_id": "66dc18eed951df6d93f8d47243e6408a", "name": "66dc18eed951df6d93f8d47243e6408a", "is_reserved": 0, "fusion_lat": 0.0}, {"type": "electric_scooter", "rental_uris": {"ios": "https://dc.lft.to/lastmile_qr_scan", "android": "https://dc.lft.to/lastmile_qr_scan"}, "lon": -77.01841983333334, "fusion_lon": 0.0, "is_disabled": 0, "lat": 38.90816316666667, "bike_id": "af00bbab42efd6de986c5dfdf92b7903", "name": "af00bbab42efd6de986c5dfdf92b7903", "is_reserved": 0, "fusion_lat": 0.0}, {"type": "electric_bike", "rental_uris": {"ios": "https://dc.lft.to/lastmile_qr_scan", "android": "https://dc.lft.to/lastmile_qr_scan"}, "lon": -76.98799266666667, "fusion_lon": 0.0, "is_disabled": 0, "lat": 38.922071, "bike_id": "0e481c72cd5e8e3f2f7ef66d32d3010c", "name": "0e481c72cd5e8e3f2f7ef66d32d3010c", "is_reserved": 0, "fusion_lat": 0.0}, {"type": "electric_scooter", "rental_uris": {"ios": "https://dc.lft.to/lastmile_qr_scan", "android": "https://dc.lft.to/lastmile_qr_scan"}, "lon": -77.03159416666666, "fusion_lon": 0.0, "is_disabled": 0, "lat": 38.915679, "bike_id": "1e431bbd9f4b4824381b37c30bfbfae4", "name": "1e431bbd9f4b4824381b37c30bfbfae4", "is_reserved": 0, "fusion_lat": 0.0}, {"type": "electric_scooter", "rental_uris": {"ios": "https://dc.lft.to/lastmile_qr_scan", "android": "https://dc.lft.to/lastmile_qr_scan"},