{"data": {"bikes": [{"rental_uris": {"android": "https://dc.lft.to/lastmile_qr_scan", "ios": "https://dc.lft.to/lastmile_qr_scan"}, "type": "electric_scooter", "lon": -77.0545525, "name": "0aa9afb2122a7cbadb118d6fab5ce140", "bike_id": "0aa9afb2122a7cbadb118d6fab5ce140", "fusion_lat": 0.0, "is_reserved": 0, "lat": 38.92898666666667, "fusion_lon": 0.0, "is_disabled": 0}, {"rental_uris": {"android": "https://dc.lft.to/lastmile_qr_scan", "ios": "https://dc.lft.to/lastmile_qr_scan"}, "type": "electric_scooter", "lon": -77.0304, "name": "cfaddf07e322fbef43c0d34ce909e783", "bike_id": "cfaddf07e322fbef43c0d34ce909e783", "fusion_lat": 0.0, "is_reserved": 0, "lat": 38.8841455, "fusion_lon": 0.0, "is_disabled": 0}, {"rental_uris": {"android": "https://dc.lft.to/lastmile_qr_scan", "ios": "https://dc.lft.to/lastmile_qr_scan"}, "type": "electric_scooter", "lon": -77.01206483333333, "name": "f796396a97c715ad3ffcb7166d829098", "bike_id": "f796396a97c715ad3ffcb7166d829098", "fusion_lat": 0.0, "is_reserved": 0, "lat": 38.90838183333334, "fusion_lon": 0.0, "is_disabled": 0}, {"rental_uris": {"android": "https://dc.lft.to/lastmile_qr_scan", "ios": "https://dc.lft.to/lastmile_qr_scan"}, "type": "electric_scooter", "lon": -77.007707, "name": "24050c4d6d3d22c86890a4d58f68e32b", "bike_id": "24050c4d6d3d22c86890a4d58f68e32b", "fusion_lat": 0.0, "is_reserved": 0, "lat": 38.87907383333334, "fusion_lon": 0.0, "is_disabled": 0}, {"rental_uris": {"android": "https://dc.lft.to/lastmile_qr_scan", "ios": "https://dc.lft.to/lastmile_qr_scan"}, "type": "electric_scooter", "lon": -77.04806533333333, "name": "19de3d64eca4630591cf05c0ed66abaf", "bike_id": "19de3d64eca4630591cf05c0ed66abaf", "fusion_lat": 0.0, "is_reserved": 0, "lat": 38.919171, "fusion_lon": 0.0, "is_disabled": 0}, {"rental_uris": {"android": "https://dc.lft.to/lastmile_qr_scan", "ios": "https://dc.lft.to/lastmile_qr_scan"}, "type": "electric_scooter", "lon": -77.0386915, "name": "76906472da1a19407cd1cd01b34c2e99", "bike_id": "76906472da1a19407cd1cd01b34c2e99", "fusion_lat": 0.0, "is_reserved": 0, "lat": 38.90970133333333, "fusion_lon": 0.0, "is_disabled": 0}, {"rental_uris": {"android": "https://dc.lft.to/lastmile_qr_scan", "ios": "https://dc.lft.to/lastmile_qr_scan"}, "type": "electric_scooter", "lon": -77.0271235, "name": "ceb4ae6ddd8aad0a1c2b8a46a1c2bcdc", "bike_id": "ceb4ae6ddd8aad0a1c2b8a46a1c2bcdc", "fusion_lat": 0.0, "is_reserved": 0, "lat": 38.924653166666666, "fusion_lon": 0.0, "is_disabled": 0}, {"rental_uris": {"android": "https://dc.lft.to/lastmile_qr_scan", "ios": "https://dc.lft.to/lastmile_qr_scan"}, "type": "electric_scooter", "lon": -77.02928916666667, "name": "88d24cb943e5ea8f2045b7fd38fbe4cb", "bike_id": "88d24cb943e5ea8f2045b7fd38fbe4cb", "fusion_lat": 0.0, "is_reserved": 0, "lat": 38.88219933333333, "fusion_lon": 0.0, "is_disabled": 0}, {"rental_uris": {"android": "https://dc.lft.to/lastmile_qr_scan", "ios": "https://dc.lft.to/lastmile_qr_scan"}, "type": "electric_scooter", "lon": -77.02446716666667, "name": "012862ceefc380d5bfd15ab024c3ba98", "bike_id": "012862ceefc380d5bfd15ab024c3ba98", "fusion_lat": 0.0, "is_reserved": 0, "lat": 38.937134, "fusion_lon": 0.0, "is_disabled": 0}, {"rental_uris": {"android": "https://dc.lft.to/lastmile_qr_scan", "ios": "https://dc.lft.to/lastmile_qr_scan"}, "type": "electric_scooter", "lon": -77.04111533333334, "name": "22d4fcfa42efadf6c2190c24525bd0c4", "bike_id": "22d4fcfa42efadf6c2190c24525bd0c4", "fusion_lat": 0.0, "is_reserved": 0, "lat": 38.92090116666667, "fusion_lon": 0.0, "is_disabled": 0}, {"rental_uris": {"android": "https://dc.lft.to/lastmile_qr_scan", "ios": "https://dc.lft.to/lastmile_qr_scan"}, "type": "electric_scooter", "lon": -76.98459783333334, "name": "bc47c8cc03c79e0427d9c10b3cab0a34", "bike_id": "bc47c8cc03c79e0427d9c10b3cab0a34", "fusion_lat": 0.0, "is_reserved": 0, "lat": 38.8801575, "fusion_lon": 0.0, "is_disabled": 0}, {"rental_uris": {"android": "https://dc.lft.to/lastmile_qr_scan", "ios": "https://dc.lft.to/lastmile_qr_scan"}, "type": "electric_scooter", "lon": -77.03188716666666, "name": "8d99a3f739c380fb81744e54dbe8abd8", "bike_id": "8d99a3f739c380fb81744e54dbe8abd8", "fusion_lat": 0.0, "is_reserved": 0, "lat": 38.91925283333333, "fusion_lon": 0.0, "is_disabled": 0}, {"rental_uris": {"android": "https://dc.lft.to/lastmile_qr_scan", "ios": "https://dc.lft.to/lastmile_qr_scan"}, "type": "electric_scooter", "lon": -77.00005266666666, "name": "5286e8e23f5692497c4fee47218f9cee", "bike_id": "5286e8e23f5692497c4fee47218f9cee", "fusion_lat": 0.0, "is_reserved": 0, "lat": 38.90017683333333, "fusion_lon": 0.0, "is_disabled": 0}, {"rental_uris": {"android": "https://dc.lft.to/lastmile_qr_scan", "ios": "https://dc.lft.to/lastmile_qr_scan"}, "type": "electric_scooter", "lon": -77.00222283333333, "name": "cdc412d76f49772580a5c0a4e5ba4ad4", "bike_id": "cdc412d76f49772580a5c0a4e5ba4ad4", "fusion_lat": 0.0, "is_reserved": 0, "lat": 38.95727816666667, "fusion_lon": 0.0, "is_disabled": 0}, {"rental_uris": {"android": "https://dc.lft.to/lastmile_qr_scan", "ios": "https://dc.lft.to/lastmile_qr_scan"}, "type": "electric_scooter", "lon": -77.00191116666667, "name": "92b68db4b0e878a9bf26605f2cb39203", "bike_id": "92b68db4b0e878a9bf26605f2cb39203", "fusion_lat": 0.0, "is_reserved": 0, "lat": 38.903747333333335, "fusion_lon": 0.0, "is_disabled": 0}, {"rental_uris": {"android": "https://dc.lft.to/lastmile_qr_scan", "ios": "https://dc.lft.to/lastmile_qr_scan"}, "type": "electric_scooter", "lon": -77.018686, "name": "5a72f1f7817f4e3b7182c149825766b5", "bike_id": "5a72f1f7817f4e3b7182c149825766b5", "fusion_lat": 0.0, "is_reserved": 0, "lat": 38.94896083333333, "fusion_lon": 0.0, "is_disabled": 0}, {"rental_uris": {"android": "https://dc.lft.to/lastmile_qr_scan", "ios": "https://dc.lft.to/lastmile_qr_scan"}, "type": "electric_bike", "lon": -76.98149116666667, "name": "7dd49976f85204206dd1735eb5c6920e", "bike_id": "7dd49976f85204206dd1735eb5c6920e", "fusion_lat": 0.0, "is_reserved": 0, "lat": 38.959680166666665, "fusion_lon": 0.0, "is_disabled": 0}, {"rental_uris": {"android": "https://dc.lft.to/lastmile_qr_scan", "ios": "https://dc.lft.to/lastmile_qr_scan"}, "type": "electric_scooter", "lon": -77.00939483333333, "name": "07e5839c8b71a39be68f4abcfb6c7da0", "bike_id": "07e5839c8b71a39be68f4abcfb6c7da0", "fusion_lat": 0.0, "is_reserved": 0, "lat": 38.87627833333333, "fusion_lon": 0.0, "is_disabled": 0}, {"rental_uris": {"android": "https://dc.lft.to/lastmile_qr_scan", "ios": "https://dc.lft.to/lastmile_qr_scan"}, "type": "electric_scooter", "lon": -77.02335283333333, "name": "793b4893c475e06a99a78801b45aa5a2", "bike_id": "793b4893c475e06a99a78801b45aa5a2", "fusion_lat": 0.0, "is_reserved": 0, "lat": 38.884638833333334, "fusion_lon": 0.0, "is_disabled": 0}, {"rental_uris": {"android": "https://dc.lft.to/lastmile_qr_scan", "ios": "https://dc.lft.to/lastmile_qr_scan"}, "type": "electric_scooter", "lon": -77.0528025, "name": "b37c5b0e2a4da852f0afb9a202436004", "bike_id": "b37c5b0e2a4da852f0afb9a202436004", "fusion_lat": 0.0, "is_reserved": 0, "lat": 38.9225415, "fusion_lon": 0.0, "is_disabled": 0}, {"rental_uris": {"android": "https://dc.lft.to/lastmile_qr_scan", "ios": "https://dc.lft.to/lastmile_qr_scan"}, "type": "electric_scooter", "lon": -76.9415865, "name": "3b8759d5aa33640c79559df0b8d34086", "bike_id": "3b8759d5aa33640c79559df0b8d34086", "fusion_lat": 0.0, "is_reserved": 0, "lat": 38.883628333333334, "fusion_lon": 0.0, "is_disabled": 0}, {"rental_uris": {"android": "https://dc.lft.to/lastmile_qr_scan", "ios": "https://dc.lft.to/lastmile_qr_scan"}, "type": "electric_scooter", "lon": -77.00195516666666, "name": "9c1208ed37c1fd459263e8f131f509df", "bike_id": "9c1208ed37c1fd459263e8f131f509df", "fusion_lat": 0.0, "is_reserved": 0, "lat": 38.902365333333336, "fusion_lon": 0.0, "is_disabled": 0}, {"rental_uris": {"android": "https://dc.lft.to/lastmile_qr_scan", "ios": "https://dc.lft.to/lastmile_qr_scan"}, "type": "electric_scooter", "lon": -77.04018566666667, "name": "a4db1c373a85f2e1c763cac396882497", "bike_id": "a4db1c373a85f2e1c763cac396882497", "fusion_lat": 0.0, "is_reserved": 0, "lat": 38.92567616666667, "fusion_lon": 0.0, "is_disabled": 0}, {"rental_uris": {"android": "https://dc.lft.to/lastmile_qr_scan", "ios": "https://dc.lft.to/lastmile_qr_scan"}, "type": "electric_scooter", "lon": -76.987238, "name": "aedf7586d5eca3d51bd0414c0f896378", "bike_id": "aedf7586d5eca3d51bd0414c0f896378", "fusion_lat": 0.0, "is_reserved": 0, "lat": 38.86712966666666, "fusion_lon": 0.0, "is_disabled": 0}, {"rental_uris": {"android": "https://dc.lft.to/lastmile_qr_scan", "ios": "https://dc.lft.to/lastmile_qr_scan"}, "type": "electric_scooter", "lon": -77.04077883333333, "name": "54090c0b44b35869ed31eeb6b41c70e1", "bike_id": "54090c0b44b35869ed31eeb6b41c70e1", "fusion_lat": 0.0, "is_reserved": 0, "lat": 38.907113, "fusion_lon": 0.0, "is_disabled": 0}, {"rental_uris": {"android": "https://dc.lft.to/lastmile_qr_scan", "ios": "https://dc.lft.to/lastmile_qr_scan"}, "type": "electric_scooter", "lon": -77.0266275, "name": "7566984f2722b7b2b56277697943ea69", "bike_id": "7566984f2722b7b2b56277697943ea69", "fusion_lat": 0.0, "is_reserved": 0, "lat": 38.9309975, "fusion_lon": 0.0, "is_disabled": 0}, {"rental_uris": {"android": "https://dc.lft.to/lastmile_qr_scan", "ios": "https://dc.lft.to/lastmile_qr_scan"}, "type": "electric_bike", "lon": -76.9755545, "name": "beeb225d050dc34785caa3d5ecc7c4e7", "bike_id": "beeb225d050dc34785caa3d5ecc7c4e7", "fusion_lat": 0.0, "is_reserved": 0, "lat": 38.90318, "fusion_lon": 0.0, "is_disabled": 0}, {"rental_uris": {"android": "https://dc.lft.to/lastmile_qr_scan", "ios": "https://dc.lft.to/lastmile_qr_scan"}, "type": "electric_scooter", "lon": -77.02569283333334, "name": "7fb740e38613d725066251d3e792ce8d", "bike_id": "7fb740e38613d725066251d3e792ce8d", "fusion_lat": 0.0, "is_reserved": 0, "lat": 38.8858925, "fusion_lon": 0.0, "is_disabled": 0}, {"rental_uris": {"android": "https://dc.lft.to/lastmile_qr_scan", "ios": "https://dc.lft.to/lastmile_qr_scan"}, "type": "electric_scooter", "lon": -77.029024, "name": "bd5737730dcf26da42d28c9796a52c75", "bike_id": "bd5737730dcf26da42d28c9796a52c75", "fusion_lat": 0.0, "is_reserved": 0, "lat": 38.95843633333333, "fusion_lon": 0.0, "is_disabled": 0}, {"rental_uris": {"android": "https://dc.lft.to/lastmile_qr_scan", "ios": "https://dc.lft.to/lastmile_qr_scan"}, "type": "electric_scooter", "lon": -77.03821516666666, "name": "d1261a42124ea85353966ffab5536756", "bike_id": "d1261a42124ea85353966ffab5536756", "fusion_lat": 0.0, "is_reserved": 0, "lat": 38.91414966666667, "fusion_lon": 0.0, "is_disabled": 0}, {"rental_uris": {"android": "https://dc.lft.to/lastmile_qr_scan", "ios": "https://dc.lft.to/lastmile_qr_scan"}, "type": "electric_scooter", "lon": -77.038715, "name": "08043b0e3bec4108130aedde7297dab8", "bike_id": "08043b0e3bec4108130aedde7297dab8", "fusion_lat": 0.0, "is_reserved": 0, "lat": 38.91264916666667, "fusion_lon": 0.0, "is_disabled": 0}, {"rental_uris": {"android": "https://dc.lft.to/lastmile_qr_scan", "ios": "https://dc.lft.to/lastmile_qr_scan"}, "type": "electric_bike", "lon": -77.088217, "name": "2ddc00bfdb8eb9b7b5d72b7876ed1a50", "bike_id": "2ddc00bfdb8eb9b7b5d72b7876ed1a50", "fusion_lat": 0.0, "is_reserved": 0, "lat": 38.90965116666667, "fusion_lon": 0.0, "is_disabled": 0}, {"rental_uris": {"android": "https://dc.lft.to/lastmile_qr_scan", "ios": "https://dc.lft.to/lastmile_qr_scan"}, "type": "electric_scooter", "lon": -77.04579166666667, "name": "1a08aec28c5900c0bd4b76815ba0e588", "bike_id": "1a08aec28c5900c0bd4b76815ba0e588", "fusion_lat": 0.0, "is_reserved": 0, "lat": 38.89984366666667, "fusion_lon": 0.0, "is_disabled": 0}, {"rental_uris": {"android": "https://dc.lft.to/lastmile_qr_scan", "ios": "https://dc.lft.to/lastmile_qr_scan"}, "type": "electric_scooter", "lon": -77.04859083333334, "name": "7ad75da7d598cbf520c5bcce1731df82", "bike_id": "7ad75da7d598cbf520c5bcce1731df82", "fusion_lat": 0.0, "is_reserved": 0, "lat": 38.904048833333334, "fusion_lon": 0.0, "is_disabled": 0}, {"rental_uris": {"android": "https://dc.lft.to/lastmile_qr_scan", "ios": "https://dc.lft.to/lastmile_qr_scan"}, "type": "electric_bike", "lon": -76.96558033333334, "name": "e4e7e6813cb44e6ef73ec47ef1deb8bc", "bike_id": "e4e7e6813cb44e6ef73ec47ef1deb8bc", "fusion_lat": 0.0, "is_reserved": 0, "lat": 38.9508445, "fusion_lon": 0.0, "is_disabled": 0}, {"rental_uris": {"android": "https://dc.lft.to/lastmile_qr_scan", "ios": "https://dc.lft.to/lastmile_qr_scan"}, "type": "electric_scooter", "lon": -77.03861583333334, "name": "439e91bb619995467f28d27570242023", "bike_id": "439e91bb619995467f28d27570242023", "fusion_lat": 0.0, "is_reserved": 0, "lat": 38.91197983333333, "fusion_lon": 0.0, "is_disabled": 0}, {"rental_uris": {"android": "https://dc.lft.to/lastmile_qr_scan", "ios": "https://dc.lft.to/lastmile_qr_scan"}, "type": "electric_scooter", "lon": -77.0784355, "name": "0bfc107bf32fefcc93620ff533f6b261", "bike_id": "0bfc107bf32fefcc93620ff533f6b261", "fusion_lat": 0.0, "is_reserved": 0, "lat": 38.931263333333334, "fusion_lon": 0.0, "is_disabled": 0}, {"rental_uris": {"android": "https://dc.lft.to/lastmile_qr_scan", "ios": "https://dc.lft.to/lastmile_qr_scan"}, "type": "electric_scooter", "lon": -77.050371, "name": "a6d2b34efb4341107fc9a1acd9ac8471", "bike_id": "a6d2b34efb4341107fc9a1acd9ac8471", "fusion_lat": 0.0, "is_reserved": 0, "lat": 38.92360016666667, "fusion_lon": 0.0, "is_disabled": 0}, {"rental_uris": {"android": "https://dc.lft.to/lastmile_qr_scan", "ios": "https://dc.lft.to/lastmile_qr_scan"}, "type": "electric_scooter", "lon": -77.0296335, "name": "b42f5e8363c7b5c1c1d62109f943ae3e", "bike_id": "b42f5e8363c7b5c1c1d62109f943ae3e", "fusion_lat": 0.0, "is_reserved": 0, "lat": 38.92457133333333, "fusion_lon": 0.0, "is_disabled": 0}, {"rental_uris": {"android": "https://dc.lft.to/lastmile_qr_scan", "ios": "https://dc.lft.to/lastmile_qr_scan"}, "type": "electric_scooter", "lon": -77.03079383333333, "name": "82c44f4cc5155c17a98756438026ddba", "bike_id": "82c44f4cc5155c17a98756438026ddba", "fusion_lat": 0.0, "is_reserved": 0, "lat": 38.92246016666667, "fusion_lon": 0.0, "is_disabled": 0}, {"rental_uris": {"android": "https://dc.lft.to/lastmile_qr_scan", "ios": "https://dc.lft.to/lastmile_qr_scan"}, "type": "electric_scooter", "lon": -77.03502616666667, "name": "f881088c5c2375e8bc7fda745a62ef69", "bike_id": "f881088c5c2375e8bc7fda745a62ef69", "fusion_lat": 0.0, "is_reserved": 0, "lat": 38.917026666666665, "fusion_lon": 0.0, "is_disabled": 0}, {"rental_uris": {"android": "https://dc.lft.to/lastmile_qr_scan", "ios": "https://dc.lft.to/lastmile_qr_scan"}, "type": "electric_scooter", "lon": -76.992166, "name": "7dfefe3d805b01fd91f48e80a92f929c", "bike_id": "7dfefe3d805b01fd91f48e80a92f929c", "fusion_lat": 0.0, "is_reserved": 0, "lat": 38.904651333333334, "fusion_lon": 0.0, "is_disabled": 0}, {"rental_uris": {"android": "https://dc.lft.to/lastmile_qr_scan", "ios": "https://dc.lft.to/lastmile_qr_scan"}, "type": "electric_scooter", "lon": -76.9948145, "name": "861b2097def13c38bf97a8ea1a503494", "bike_id": "861b2097def13c38bf97a8ea1a503494", "fusion_lat": 0.0, "is_reserved": 0, "lat": 38.8961505, "fusion_lon": 0.0, "is_disabled": 0}, {"rental_uris": {"android": "https://dc.lft.to/lastmile_qr_scan", "ios": "https://dc.lft.to/lastmile_qr_scan"}, "type": "electric_scooter", "lon": -77.06154683333334, "name": "652e9f58d2579a0b835ef15c5dad3c74", "bike_id": "652e9f58d2579a0b835ef15c5dad3c74", "fusion_lat": 0.0, "is_reserved": 0, "lat": 38.9105805, "fusion_lon": 0.0, "is_disabled": 0}, {"rental_uris": {"android": "https://dc.lft.to/lastmile_qr_scan", "ios": "https://dc.lft.to/lastmile_qr_scan"}, "type": "electric_scooter", "lon": -76.9840795, "name": "1d931f3c7637411191615721b3a4e0d7", "bike_id": "1d931f3c7637411191615721b3a4e0d7", "fusion_lat": 0.0, "is_reserved": 0, "lat": 38.91391133333333, "fusion_lon": 0.0, "is_disabled": 0}, {"rental_uris": {"android": "https://dc.lft.to/lastmile_qr_scan", "ios": "https://dc.lft.to/lastmile_qr_scan"}, "type": "electric_scooter", "lon": -77.0409875, "name": "0c70637427ba5fb9bc60ae445d7d5282", "bike_id": "0c70637427ba5fb9bc60ae445d7d5282", "fusion_lat": 0.0, "is_reserved": 0, "lat": 38.91779, "fusion_lon": 0.0, "is_disabled": 0}, {"rental_uris": {"android": "https://dc.lft.to/lastmile_qr_scan", "ios": "https://dc.lft.to/lastmile_qr_scan"}, "type": "electric_scooter", "lon": -77.00924533333334, "name": "28d31bf1a595025156e63116a27d8462", "bike_id": "28d31bf1a595025156e63116a27d8462", "fusion_lat": 0.0, "is_reserved": 0, "lat": 38.91051933333333, "fusion_lon": 0.0, "is_disabled": 0}, {"rental_uris": {"android": "https://dc.lft.to/lastmile_qr_scan", "ios": "https://dc.lft.to/lastmile_qr_scan"}, "type": "electric_scooter", "lon": -77.01955383333333, "name": "8137a6baf6f6805c8813fece7c1b24ee", "bike_id": "8137a6baf6f6805c8813fece7c1b24ee", "fusion_lat": 0.0, "is_reserved": 0, "lat": 38.947484, "fusion_lon": 0.0, "is_disabled": 0}, {"rental_uris": {"android": "https://dc.lft.to/lastmile_qr_scan", "ios": "https://dc.lft.to/lastmile_qr_scan"}, "type": "electric_scooter", "lon": -76.93834166666667, "name": "1bb577eb5b37a4686ae4ed56827b4354", "bike_id": "1bb577eb5b37a4686ae4ed56827b4354", "fusion_lat": 0.0, "is_reserved": 0, "lat": 38.897574666666664, "fusion_lon": 0.0, "is_disabled": 0}, {"rental_uris": {"android": "https://dc.lft.to/lastmile_qr_scan", "ios": "https://dc.lft.to/lastmile_qr_scan"}, "type": "electric_scooter", "lon": -77.03056916666667, "name": "7bbb3a13b4b47046a5131e211374f219", "bike_id": "7bbb3a13b4b47046a5131e211374f219", "fusion_lat": 0.0, "is_reserved": 0, "lat": 38.91930166666667, "fusion_lon": 0.0, "is_disabled": 0}, {"rental_uris": {"android": "https://dc.lft.to/lastmile_qr_scan", "ios": "https://dc.lft.to/lastmile_qr_scan"}, "type": "electric_scooter", "lon": -77.08218783333334, "name": "bd05bef8b30eaaaa3ab2e0cea256c2bb", "bike_id": "bd05bef8b30eaaaa3ab2e0cea256c2bb", "fusion_lat": 0.0, "is_reserved": 0, "lat": 38.93551383333333, "fusion_lon": 0.0, "is_disabled": 0}, {"rental_uris": {"android": "https://dc.lft.to/lastmile_qr_scan", "ios": "https://dc.lft.to/lastmile_qr_scan"}, "type": "electric_scooter", "lon": -77.00344533333333, "name": "7969c0df498f8b1399d192c34c91d03d", "bike_id": "7969c0df498f8b1399d192c34c91d03d", "fusion_lat": 0.0, "is_reserved": 0, "lat": 38.913444166666665, "fusion_lon": 0.0, "is_disabled": 0}, {"rental_uris": {"android": "https://dc.lft.to/lastmile_qr_scan", "ios": "https://dc.lft.to/lastmile_qr_scan"}, "type": "electric_scooter", "lon": -76.94841916666667, "name": "af395d87205fc631491d9fd3c61b43ef", "bike_id": "af395d87205fc631491d9fd3c61b43ef", "fusion_lat": 0.0, "is_reserved": 0, "lat": 38.894841666666665, "fusion_lon": 0.0, "is_disabled": 0}, {"rental_uris": {"android": "https://dc.lft.to/lastmile_qr_scan", "ios": "https://dc.lft.to/lastmile_qr_scan"}, "type": "electric_scooter", "lon": -77.009639, "name": "46f01e1b149f708df9c8ec54ab12b174", "bike_id": "46f01e1b149f708df9c8ec54ab12b174", "fusion_lat": 0.0, "is_reserved": 0, "lat": 38.88129416666666, "fusion_lon": 0.0, "is_disabled": 0}, {"rental_uris": {"android": "https://dc.lft.to/lastmile_qr_scan", "ios": "https://dc.lft.to/lastmile_qr_scan"}, "type": "electric_scooter", "lon": -77.02500633333334, "name": "b5e2b21293b3084582021fd7fc6d6c56", "bike_id": "b5e2b21293b3084582021fd7fc6d6c56", "fusion_lat": 0.0, "is_reserved": 0, "lat": 38.94199016666666, "fusion_lon": 0.0, "is_disabled": 0}, {"rental_uris": {"android": "https://dc.lft.to/lastmile_qr_scan", "ios": "https://dc.lft.to/lastmile_qr_scan"}, "type": "electric_scooter", "lon": -76.99071683333334, "name": "ebf10bfc7ba415697a9b33e92d465054", "bike_id": "ebf10bfc7ba415697a9b33e92d465054", "fusion_lat": 0.0, "is_reserved": 0, "lat": 38.929440666666665, "fusion_lon": 0.0, "is_disabled": 0}, {"rental_uris": {"android": "https://dc.lft.to/lastmile_qr_scan", "ios": "https://dc.lft.to/lastmile_qr_scan"}, "type": "electric_scooter", "lon": -77.03258116666667, "name": "9a25d17c63fed3e4f97bcd473d404211", "bike_id": "9a25d17c63fed3e4f97bcd473d404211", "fusion_lat": 0.0, "is_reserved": 0, "lat": 38.935232666666664, "fusion_lon": 0.0, "is_disabled": 0}, {"rental_uris": {"android": "https://dc.lft.to/lastmile_qr_scan", "ios": "https://dc.lft.to/lastmile_qr_scan"}, "type": "electric_scooter", "lon": -77.03854116666666, "name": "f12a4e26f9b46f57cf0b15c13806514d", "bike_id": "f12a4e26f9b46f57cf0b15c13806514d", "fusion_lat": 0.0, "is_reserved": 0, "lat": 38.915462833333336, "fusion_lon": 0.0, "is_disabled": 0}, {"rental_uris": {"android": "https://dc.lft.to/lastmile_qr_scan", "ios": "https://dc.lft.to/lastmile_qr_scan"}, "type": "electric_scooter", "lon": -77.02793483333333, "name": "ce040c28badb2c35af8125841bf27d09", "bike_id": "ce040c28badb2c35af8125841bf27d09", "fusion_lat": 0.0, "is_reserved": 0, "lat": 38.961398833333334, "fusion_lon": 0.0, "is_disabled": 0}, {"rental_uris": {"android": "https://dc.lft.to/lastmile_qr_scan", "ios": "https://dc.lft.to/lastmile_qr_scan"}, "type": "electric_scooter", "lon": -77.02968483333333, "name": "8c06df027fd95a4b4db10f15c368ad1c", "bike_id": "8c06df027fd95a4b4db10f15c368ad1c", "fusion_lat": 0.0, "is_reserved": 0, "lat": 38.9064155, "fusion_lon": 0.0, "is_disabled": 0}, {"rental_uris": {"android": "https://dc.lft.to/lastmile_qr_scan", "ios": "https://dc.lft.to/lastmile_qr_scan"}, "type": "electric_scooter", "lon": -77.0678395, "name": "cf49673293674e917ccfca79997d7aef", "bike_id": "cf49673293674e917ccfca79997d7aef", "fusion_lat": 0.0, "is_reserved": 0, "lat": 38.95209083333334, "fusion_lon": 0.0, "is_disabled": 0}, {"rental_uris": {"android": "https://dc.lft.to/lastmile_qr_scan", "ios": "https://dc.lft.to/lastmile_qr_scan"}, "type": "electric_scooter", "lon": -77.00740816666666, "name": "a6a09c1e94d69b1f1bef3a8321a16d85", "bike_id": "a6a09c1e94d69b1f1bef3a8321a16d85", "fusion_lat": 0.0, "is_reserved": 0, "lat": 38.95520966666667, "fusion_lon": 0.0, "is_disabled": 0}, {"rental_uris": {"android": "https://dc.lft.to/lastmile_qr_scan", "ios": "https://dc.lft.to/lastmile_qr_scan"}, "type": "electric_scooter", "lon": -77.02009966666667, "name": "e191dd585819f6188e8aa14d90bb30ce", "bike_id": "e191dd585819f6188e8aa14d90bb30ce", "fusion_lat": 0.0, "is_reserved": 0, "lat": 38.9241925, "fusion_lon": 0.0, "is_disabled": 0}, {"rental_uris": {"android": "https://dc.lft.to/lastmile_qr_scan", "ios": "https://dc.lft.to/lastmile_qr_scan"}, "type": "electric_scooter", "lon": -77.0351375, "name": "8fdd9848d4c6a51de35b32a89976b39a", "bike_id": "8fdd9848d4c6a51de35b32a89976b39a", "fusion_lat": 0.0, "is_reserved": 0, "lat": 38.926368833333335, "fusion_lon": 0.0, "is_disabled": 0}, {"rental_uris": {"android": "https://dc.lft.to/lastmile_qr_scan", "ios": "https://dc.lft.to/lastmile_qr_scan"}, "type": "electric_scooter", "lon": -77.03148333333333, "name": "a5fd584dde33310d7ea19b051b73ad6c", "bike_id": "a5fd584dde33310d7ea19b051b73ad6c", "fusion_lat": 0.0, "is_reserved": 0, "lat": 38.88749633333333, "fusion_lon": 0.0, "is_disabled": 0}, {"rental_uris": {"android": "https://dc.lft.to/lastmile_qr_scan", "ios": "https://dc.lft.to/lastmile_qr_scan"}, "type": "electric_scooter", "lon": -77.02372133333333, "name": "5a638e3860d04c7823d25997d59f45c9", "bike_id": "5a638e3860d04c7823d25997d59f45c9", "fusion_lat": 0.0, "is_reserved": 0, "lat": 38.89387766666667, "fusion_lon": 0.0, "is_disabled": 0}, {"rental_uris": {"android": "https://dc.lft.to/lastmile_qr_scan", "ios": "https://dc.lft.to/lastmile_qr_scan"}, "type": "electric_scooter", "lon": -76.94840516666666, "name": "12e23c32d3d0bb2abf2c7b26d4e6eb71", "bike_id": "12e23c32d3d0bb2abf2c7b26d4e6eb71", "fusion_lat": 0.0, "is_reserved": 0, "lat": 38.89483466666667, "fusion_lon": 0.0, "is_disabled": 0}, {"rental_uris": {"android": "https://dc.lft.to/lastmile_qr_scan", "ios": "https://dc.lft.to/lastmile_qr_scan"}, "type": "electric_scooter", "lon": -77.034335, "name": "1420f18f81d57990ff1bd2abdd271be3", "bike_id": "1420f18f81d57990ff1bd2abdd271be3", "fusion_lat": 0.0, "is_reserved": 0, "lat": 38.90273466666667, "fusion_lon": 0.0, "is_disabled": 0}, {"rental_uris": {"android": "https://dc.lft.to/lastmile_qr_scan", "ios": "https://dc.lft.to/lastmile_qr_scan"}, "type": "electric_scooter", "lon": -77.05519583333333, "name": "8604f0c658e5f2be117f01a352205de0", "bike_id": "8604f0c658e5f2be117f01a352205de0", "fusion_lat": 0.0, "is_reserved": 0, "lat": 38.9441325, "fusion_lon": 0.0, "is_disabled": 0}, {"rental_uris": {"android": "https://dc.lft.to/lastmile_qr_scan", "ios": "https://dc.lft.to/lastmile_qr_scan"}, "type": "electric_bike", "lon": -76.99397166666667, "name": "626bfdeaf1dc74b08c2bc4afed73e636", "bike_id": "626bfdeaf1dc74b08c2bc4afed73e636", "fusion_lat": 0.0, "is_reserved": 0, "lat": 38.922603, "fusion_lon": 0.0, "is_disabled": 0}, {"rental_uris": {"android": "https://dc.lft.to/lastmile_qr_scan", "ios": "https://dc.lft.to/lastmile_qr_scan"}, "type": "electric_scooter", "lon": -77.03009683333333, "name": "49b59f6b31cc3f31df178dd69be54e1b", "bike_id": "49b59f6b31cc3f31df178dd69be54e1b", "fusion_lat": 0.0, "is_reserved": 0, "lat": 38.931175333333336, "fusion_lon": 0.0, "is_disabled": 0}, {"rental_uris": {"android": "https://dc.lft.to/lastmile_qr_scan", "ios": "https://dc.lft.to/lastmile_qr_scan"}, "type": "electric_scooter", "lon": -77.04577933333333, "name": "9647fb824c4c3124ecb3b2d964f426ae", "bike_id": "9647fb824c4c3124ecb3b2d964f426ae", "fusion_lat": 0.0, "is_reserved": 0, "lat": 38.921255, "fusion_lon": 0.0, "is_disabled": 0}, {"rental_uris": {"android": "https://dc.lft.to/lastmile_qr_scan", "ios": "https://dc.lft.to/lastmile_qr_scan"}, "type": "electric_scooter", "lon": -77.00109, "name": "f7a1067495c784f81411be6e110baf45", "bike_id": "f7a1067495c784f81411be6e110baf45", "fusion_lat": 0.0, "is_reserved": 0, "lat": 38.916341833333334, "fusion_lon": 0.0, "is_disabled": 0}, {"rental_uris": {"android": "https://dc.lft.to/lastmile_qr_scan", "ios": "https://dc.lft.to/lastmile_qr_scan"}, "type": "electric_scooter", "lon": -76.9860245, "name": "ef3fd128269a7de896eb1c0b4adda912", "bike_id": "ef3fd128269a7de896eb1c0b4adda912", "fusion_lat": 0.0, "is_reserved": 0, "lat": 38.854373, "fusion_lon": 0.0, "is_disabled": 0}, {"rental_uris": {"android": "https://dc.lft.to/lastmile_qr_scan", "ios": "https://dc.lft.to/lastmile_qr_scan"}, "type": "electric_scooter", "lon": -76.948536, "name": "b5cfe1a07f639c6496f304f2ec087c46", "bike_id": "b5cfe1a07f639c6496f304f2ec087c46", "fusion_lat": 0.0, "is_reserved": 0, "lat": 38.882966, "fusion_lon": 0.0, "is_disabled": 0}, {"rental_uris": {"android": "https://dc.lft.to/lastmile_qr_scan", "ios": "https://dc.lft.to/lastmile_qr_scan"}, "type": "electric_scooter", "lon": -76.98928583333333, "name": "b991e97d725d1cd33efe293ec6de8467", "bike_id": "b991e97d725d1cd33efe293ec6de8467", "fusion_lat": 0.0, "is_reserved": 0, "lat": 38.902308, "fusion_lon": 0.0, "is_disabled": 0}, {"rental_uris": {"android": "https://dc.lft.to/lastmile_qr_scan", "ios": "https://dc.lft.to/lastmile_qr_scan"}, "type": "electric_scooter", "lon": -77.058817, "name": "5599988a225dcd0f1912954fa11885be", "bike_id": "5599988a225dcd0f1912954fa11885be", "fusion_lat": 0.0, "is_reserved": 0, "lat": 38.936346, "fusion_lon": 0.0, "is_disabled": 0}, {"rental_uris": {"android": "https://dc.lft.to/lastmile_qr_scan", "ios": "https://dc.lft.to/lastmile_qr_scan"}, "type": "electric_scooter", "lon": -77.045839, "name": "a9866913a58de2d314d7eca715f2bd0f", "bike_id": "a9866913a58de2d314d7eca715f2bd0f", "fusion_lat": 0.0, "is_reserved": 0, "lat": 38.921405166666666, "fusion_lon": 0.0, "is_disabled": 0}, {"rental_uris": {"android": "https://dc.lft.to/lastmile_qr_scan", "ios": "https://dc.lft.to/lastmile_qr_scan"}, "type": "electric_bike", "lon": -77.09966083333333, "name": "6eee6bc1eebcb16007b5a1d423f7feaa", "bike_id": "6eee6bc1eebcb16007b5a1d423f7feaa", "fusion_lat": 0.0, "is_reserved": 0, "lat": 38.8578595, "fusion_lon": 0.0, "is_disabled": 0}, {"rental_uris": {"android": "https://dc.lft.to/lastmile_qr_scan", "ios": "https://dc.lft.to/lastmile_qr_scan"}, "type": "electric_scooter", "lon": -77.02365083333333, "name": "b9197c21db2743022b8e484888e33561", "bike_id": "b9197c21db2743022b8e484888e33561", "fusion_lat": 0.0, "is_reserved": 0, "lat": 38.917788, "fusion_lon": 0.0, "is_disabled": 0}, {"rental_uris": {"android": "https://dc.lft.to/lastmile_qr_scan", "ios": "https://dc.lft.to/lastmile_qr_scan"}, "type": "electric_scooter", "lon": -77.04627866666667, "name": "48f9d00d162fd2b8bdb8edebc2ef3049", "bike_id": "48f9d00d162fd2b8bdb8edebc2ef3049", "fusion_lat": 0.0, "is_reserved": 0, "lat": 38.90070933333333, "fusion_lon": 0.0, "is_disabled": 0}, {"rental_uris": {"android": "https://dc.lft.to/lastmile_qr_scan", "ios": "https://dc.lft.to/lastmile_qr_scan"}, "type": "electric_bike", "lon": -76.9882755, "name": "d55c29fb6d864ed7e039431b5767fb43", "bike_id": "d55c29fb6d864ed7e039431b5767fb43", "fusion_lat": 0.0, "is_reserved": 0, "lat": 38.985600833333336, "fusion_lon": 0.0, "is_disabled": 0}, {"rental_uris": {"android": "https://dc.lft.to/lastmile_qr_scan", "ios": "https://dc.lft.to/lastmile_qr_scan"}, "type": "electric_scooter", "lon": -77.0254145, "name": "d0bd3443c44ff4cc53ac451151c5cb9d", "bike_id": "d0bd3443c44ff4cc53ac451151c5cb9d", "fusion_lat": 0.0, "is_reserved": 0, "lat": 38.9274675, "fusion_lon": 0.0, "is_disabled": 0}, {"rental_uris": {"android": "https://dc.lft.to/lastmile_qr_scan", "ios": "https://dc.lft.to/lastmile_qr_scan"}, "type": "electric_scooter", "lon": -77.023537, "name": "26ce1adfdf3f3a2fb56128b876f8c176", "bike_id": "26ce1adfdf3f3a2fb56128b876f8c176", "fusion_lat": 0.0, "is_reserved": 0, "lat": 38.933122, "fusion_lon": 0.0, "is_disabled": 0}, {"rental_uris": {"android": "https://dc.lft.to/lastmile_qr_scan", "ios": "https://dc.lft.to/lastmile_qr_scan"}, "type": "electric_scooter", "lon": -77.023466, "name": "9b10416717738060ecf0e41f986767a7", "bike_id": "9b10416717738060ecf0e41f986767a7", "fusion_lat": 0.0, "is_reserved": 0, "lat": 38.929897, "fusion_lon": 0.0, "is_disabled": 0}, {"rental_uris": {"android": "https://dc.lft.to/lastmile_qr_scan", "ios": "https://dc.lft.to/lastmile_qr_scan"}, "type": "electric_scooter", "lon": -77.02543916666667, "name": "8a6036a9115ad3d2bffbb26905ce9fe4", "bike_id": "8a6036a9115ad3d2bffbb26905ce9fe4", "fusion_lat": 0.0, "is_reserved": 0, "lat": 38.93519633333333, "fusion_lon": 0.0, "is_disabled": 0}, {"rental_uris": {"android": "https://dc.lft.to/lastmile_qr_scan", "ios": "https://dc.lft.to/lastmile_qr_scan"}, "type": "electric_scooter", "lon": -77.050064, "name": "49345c2b849a57b6b6315ad7eec2f30c", "bike_id": "49345c2b849a57b6b6315ad7eec2f30c", "fusion_lat": 0.0, "is_reserved": 0, "lat": 38.892296333333334, "fusion_lon": 0.0, "is_disabled": 0}, {"rental_uris": {"android": "https://dc.lft.to/lastmile_qr_scan", "ios": "https://dc.lft.to/lastmile_qr_scan"}, "type": "electric_scooter", "lon": -77.03284983333333, "name": "e5e5bff074b197fea75dc972990e912b", "bike_id": "e5e5bff074b197fea75dc972990e912b", "fusion_lat": 0.0, "is_reserved": 0, "lat": 38.924536833333335, "fusion_lon": 0.0, "is_disabled": 0}, {"rental_uris": {"android": "https://dc.lft.to/lastmile_qr_scan", "ios": "https://dc.lft.to/lastmile_qr_scan"}, "type": "electric_scooter", "lon": -77.048496, "name": "8022eaa12cf2d52db38c359acbb0a326", "bike_id": "8022eaa12cf2d52db38c359acbb0a326", "fusion_lat": 0.0, "is_reserved": 0, "lat": 38.90052416666666, "fusion_lon": 0.0, "is_disabled": 0}, {"rental_uris": {"android": "https://dc.lft.to/lastmile_qr_scan", "ios": "https://dc.lft.to/lastmile_qr_scan"}, "type": "electric_scooter", "lon": -77.0218255, "name": "c65f1df2fcca8752b022058dba99e438", "bike_id": "c65f1df2fcca8752b022058dba99e438", "fusion_lat": 0.0, "is_reserved": 0, "lat": 38.892279333333335, "fusion_lon": 0.0, "is_disabled": 0}, {"rental_uris": {"android": "https://dc.lft.to/lastmile_qr_scan", "ios": "https://dc.lft.to/lastmile_qr_scan"}, "type": "electric_scooter", "lon": -77.05141666666667, "name": "8185abd3743406db5031944a4cde58a8", "bike_id": "8185abd3743406db5031944a4cde58a8", "fusion_lat": 0.0, "is_reserved": 0, "lat": 38.90799766666667, "fusion_lon": 0.0, "is_disabled": 0}, {"rental_uris": {"android": "https://dc.lft.to/lastmile_qr_scan", "ios": "https://dc.lft.to/lastmile_qr_scan"}, "type": "electric_scooter", "lon": -77.0390245, "name": "e3da809260a877e5c5a6ca7682e6cd2a", "bike_id": "e3da809260a877e5c5a6ca7682e6cd2a", "fusion_lat": 0.0, "is_reserved": 0, "lat": 38.92236116666667, "fusion_lon": 0.0, "is_disabled": 0}, {"rental_uris": {"android": "https://dc.lft.to/lastmile_qr_scan", "ios": "https://dc.lft.to/lastmile_qr_scan"}, "type": "electric_scooter", "lon": -77.03252083333334, "name": "ea175a4803896d33c1e92024f2a3db24", "bike_id": "ea175a4803896d33c1e92024f2a3db24", "fusion_lat": 0.0, "is_reserved": 0, "lat": 38.9366405, "fusion_lon": 0.0, "is_disabled": 0}, {"rental_uris": {"android": "https://dc.lft.to/lastmile_qr_scan", "ios": "https://dc.lft.to/lastmile_qr_scan"}, "type": "electric_scooter", "lon": -77.02871033333334, "name": "03e0f43fbbb9819afe72073cdeb1ef77", "bike_id": "03e0f43fbbb9819afe72073cdeb1ef77", "fusion_lat": 0.0, "is_reserved": 0, "lat": 38.922193, "fusion_lon": 0.0, "is_disabled": 0}, {"rental_uris": {"android": "https://dc.lft.to/lastmile_qr_scan", "ios": "https://dc.lft.to/lastmile_qr_scan"}, "type": "electric_scooter", "lon": -76.93431733333334, "name": "8d8ffd62cc616bbdb6d237941e191f01", "bike_id": "8d8ffd62cc616bbdb6d237941e191f01", "fusion_lat": 0.0, "is_reserved": 0, "lat": 38.89963433333333, "fusion_lon": 0.0, "is_disabled": 0}, {"rental_uris": {"android": "https://dc.lft.to/lastmile_qr_scan", "ios": "https://dc.lft.to/lastmile_qr_scan"}, "type": "electric_scooter", "lon": -77.0445965, "name": "0c6ac9299e0ae323a23d97db63d695f5", "bike_id": "0c6ac9299e0ae323a23d97db63d695f5", "fusion_lat": 0.0, "is_reserved": 0, "lat": 38.92316183333333, "fusion_lon": 0.0, "is_disabled": 0}, {"rental_uris": {"android": "https://dc.lft.to/lastmile_qr_scan", "ios": "https://dc.lft.to/lastmile_qr_scan"}, "type": "electric_scooter", "lon": -76.94831266666667, "name": "aff1d64a09ccb588d833e3e85b0beab4", "bike_id": "aff1d64a09ccb588d833e3e85b0beab4", "fusion_lat": 0.0, "is_reserved": 0, "lat": 38.893456666666665, "fusion_lon": 0.0, "is_disabled": 0}, {"rental_uris": {"android": "https://dc.lft.to/lastmile_qr_scan", "ios": "https://dc.lft.to/lastmile_qr_scan"}, "type": "electric_scooter", "lon": -77.00231366666667, "name": "30742aff2f9e97748101751f1e589bc3", "bike_id": "30742aff2f9e97748101751f1e589bc3", "fusion_lat": 0.0, "is_reserved": 0, "lat": 38.90840033333333, "fusion_lon": 0.0, "is_disabled": 0}, {"rental_uris": {"android": "https://dc.lft.to/lastmile_qr_scan", "ios": "https://dc.lft.to/lastmile_qr_scan"}, "type": "electric_scooter", "lon": -77.002234, "name": "44d01cae04d3ff4a24dd5a67c4f3c8ea", "bike_id": "44d01cae04d3ff4a24dd5a67c4f3c8ea", "fusion_lat": 0.0, "is_reserved": 0, "lat": 38.95726833333333, "fusion_lon": 0.0, "is_disabled": 0}, {"rental_uris": {"android": "https://dc.lft.to/lastmile_qr_scan", "ios": "https://dc.lft.to/lastmile_qr_scan"}, "type": "electric_scooter", "lon": -76.99004516666666, "name": "fed28f34963bd533b31c4fb8125ea2e4", "bike_id": "fed28f34963bd533b31c4fb8125ea2e4", "fusion_lat": 0.0, "is_reserved": 0, "lat": 38.86505783333333, "fusion_lon": 0.0, "is_disabled": 0}, {"rental_uris": {"android": "https://dc.lft.to/lastmile_qr_scan", "ios": "https://dc.lft.to/lastmile_qr_scan"}, "type": "electric_scooter", "lon": -77.01772666666666, "name": "4d0766df5c951c1c6a0809412178e4f8", "bike_id": "4d0766df5c951c1c6a0809412178e4f8", "fusion_lat": 0.0, "is_reserved": 0, "lat": 38.87295, "fusion_lon": 0.0, "is_disabled": 0}, {"rental_uris": {"android": "https://dc.lft.to/lastmile_qr_scan", "ios": "https://dc.lft.to/lastmile_qr_scan"}, "type": "electric_bike", "lon": -76.99494016666667, "name": "3e5098fc661e55dc3e1a5a9ce2e9c973", "bike_id": "3e5098fc661e55dc3e1a5a9ce2e9c973", "fusion_lat": 0.0, "is_reserved": 0, "lat": 38.9257655, "fusion_lon": 0.0, "is_disabled": 0}, {"rental_uris": {"android": "https://dc.lft.to/lastmile_qr_scan", "ios": "https://dc.lft.to/lastmile_qr_scan"}, "type": "electric_scooter", "lon": -77.01134466666667, "name": "ed4a353a6b458d67c747372c7848e5ef", "bike_id": "ed4a353a6b458d67c747372c7848e5ef", "fusion_lat": 0.0, "is_reserved": 0, "lat": 38.90733433333333, "fusion_lon": 0.0, "is_disabled": 0}, {"rental_uris": {"android": "https://dc.lft.to/lastmile_qr_scan", "ios": "https://dc.lft.to/lastmile_qr_scan"}, "type": "electric_scooter", "lon": -77.03658633333333, "name": "fd81efe15f69220657de5a0c825e8a91", "bike_id": "fd81efe15f69220657de5a0c825e8a91", "fusion_lat": 0.0, "is_reserved": 0, "lat": 38.916262333333336, "fusion_lon": 0.0, "is_disabled": 0}, {"rental_uris": {"android": "https://dc.lft.to/lastmile_qr_scan", "ios": "https://dc.lft.to/lastmile_qr_scan"}, "type": "electric_scooter", "lon": -77.03444016666667, "name": "689867a0fdaf3c77b66e08d8827b2f46", "bike_id": "689867a0fdaf3c77b66e08d8827b2f46", "fusion_lat": 0.0, "is_reserved": 0, "lat": 38.90579783333333, "fusion_lon": 0.0, "is_disabled": 0}, {"rental_uris": {"android": "https://dc.lft.to/lastmile_qr_scan", "ios": "https://dc.lft.to/lastmile_qr_scan"}, "type": "electric_scooter", "lon": -77.03440883333333, "name": "9d07008ad5bc2e712f26899c6e9c0889", "bike_id": "9d07008ad5bc2e712f26899c6e9c0889", "fusion_lat": 0.0, "is_reserved": 0, "lat": 38.9180575, "fusion_lon": 0.0, "is_disabled": 0}, {"rental_uris": {"android": "https://dc.lft.to/lastmile_qr_scan", "ios": "https://dc.lft.to/lastmile_qr_scan"}, "type": "electric_bike", "lon": -76.99759883333333, "name": "d8bfe4dc6bef7c098acdcd4b7b763aca", "bike_id": "d8bfe4dc6bef7c098acdcd4b7b763aca", "fusion_lat": 0.0, "is_reserved": 0, "lat": 39.005953166666664, "fusion_lon": 0.0, "is_disabled": 0}, {"rental_uris": {"android": "https://dc.lft.to/lastmile_qr_scan", "ios": "https://dc.lft.to/lastmile_qr_scan"}, "type": "electric_scooter", "lon": -76.99728516666667, "name": "d2f8e38c4002fe271c2ecd1eab749720", "bike_id": "d2f8e38c4002fe271c2ecd1eab749720", "fusion_lat": 0.0, "is_reserved": 0, "lat": 38.907923833333335, "fusion_lon": 0.0, "is_disabled": 0}, {"rental_uris": {"android": "https://dc.lft.to/lastmile_qr_scan", "ios": "https://dc.lft.to/lastmile_qr_scan"}, "type": "electric_scooter", "lon": -76.99776066666666, "name": "edf0c37a61bd6cc79ff328c67d765100", "bike_id": "edf0c37a61bd6cc79ff328c67d765100", "fusion_lat": 0.0, "is_reserved": 0, "lat": 38.9227115, "fusion_lon": 0.0, "is_disabled": 0}, {"rental_uris": {"android": "https://dc.lft.to/lastmile_qr_scan", "ios": "https://dc.lft.to/lastmile_qr_scan"}, "type": "electric_scooter", "lon": -76.98362333333333, "name": "1c023e336740244f6bcf4a056df973d3", "bike_id": "1c023e336740244f6bcf4a056df973d3", "fusion_lat": 0.0, "is_reserved": 0, "lat": 38.86476183333333, "fusion_lon": 0.0, "is_disabled": 0}, {"rental_uris": {"android": "https://dc.lft.to/lastmile_qr_scan", "ios": "https://dc.lft.to/lastmile_qr_scan"}, "type": "electric_scooter", "lon": -77.02383383333333, "name": "cd60803a4400795feba6392d2fd830aa", "bike_id": "cd60803a4400795feba6392d2fd830aa", "fusion_lat": 0.0, "is_reserved": 0, "lat": 38.9190935, "fusion_lon": 0.0, "is_disabled": 0}, {"rental_uris": {"android": "https://dc.lft.to/lastmile_qr_scan", "ios": "https://dc.lft.to/lastmile_qr_scan"}, "type": "electric_scooter", "lon": -77.03210466666667, "name": "6953654cda47fb10322792d3d5e5bd18", "bike_id": "6953654cda47fb10322792d3d5e5bd18", "fusion_lat": 0.0, "is_reserved": 0, "lat": 38.91729383333333, "fusion_lon": 0.0, "is_disabled": 0}, {"rental_uris": {"android": "https://dc.lft.to/lastmile_qr_scan", "ios": "https://dc.lft.to/lastmile_qr_scan"}, "type": "electric_bike", "lon": -77.11434233333334, "name": "129c2f02e872826e099a819142db3844", "bike_id": "129c2f02e872826e099a819142db3844", "fusion_lat": 0.0, "is_reserved": 0, "lat": 38.85242366666667, "fusion_lon": 0.0, "is_disabled": 0}, {"rental_uris": {"android": "https://dc.lft.to/lastmile_qr_scan", "ios": "https://dc.lft.to/lastmile_qr_scan"}, "type": "electric_scooter", "lon": -76.98132966666667, "name": "ecf05b8bbde2009c664fa41d7a7309e4", "bike_id": "ecf05b8bbde2009c664fa41d7a7309e4", "fusion_lat": 0.0, "is_reserved": 0, "lat": 38.88419116666667, "fusion_lon": 0.0, "is_disabled": 0}, {"rental_uris": {"android": "https://dc.lft.to/lastmile_qr_scan", "ios": "https://dc.lft.to/lastmile_qr_scan"}, "type": "electric_scooter", "lon": -77.01765066666667, "name": "fe923278663508f3e67225add41eaf03", "bike_id": "fe923278663508f3e67225add41eaf03", "fusion_lat": 0.0, "is_reserved": 0, "lat": 38.87291966666667, "fusion_lon": 0.0, "is_disabled": 0}, {"rental_uris": {"android": "https://dc.lft.to/lastmile_qr_scan", "ios": "https://dc.lft.to/lastmile_qr_scan"}, "type": "electric_scooter", "lon": -77.02050266666667, "name": "566c9805000071d1a3674602df7a2c96", "bike_id": "566c9805000071d1a3674602df7a2c96", "fusion_lat": 0.0, "is_reserved": 0, "lat": 38.89256733333333, "fusion_lon": 0.0, "is_disabled": 0}, {"rental_uris": {"android": "https://dc.lft.to/lastmile_qr_scan", "ios": "https://dc.lft.to/lastmile_qr_scan"}, "type": "electric_scooter", "lon": -77.06347833333334, "name": "c77aa9d5fd8a3c80178adb7db02b35c1", "bike_id": "c77aa9d5fd8a3c80178adb7db02b35c1", "fusion_lat": 0.0, "is_reserved": 0, "lat": 38.908493, "fusion_lon": 0.0, "is_disabled": 0}, {"rental_uris": {"android": "https://dc.lft.to/lastmile_qr_scan", "ios": "https://dc.lft.to/lastmile_qr_scan"}, "type": "electric_scooter", "lon": -77.02696433333334, "name": "713e4429ff73a965217467aaae483994", "bike_id": "713e4429ff73a965217467aaae483994", "fusion_lat": 0.0, "is_reserved": 0, "lat": 38.91273316666667, "fusion_lon": 0.0, "is_disabled": 0}, {"rental_uris": {"android": "https://dc.lft.to/lastmile_qr_scan", "ios": "https://dc.lft.to/lastmile_qr_scan"}, "type": "electric_scooter", "lon": -77.02169583333334, "name": "2b996840abade8f413e9acee2cc89234", "bike_id": "2b996840abade8f413e9acee2cc89234", "fusion_lat": 0.0, "is_reserved": 0, "lat": 38.9408385, "fusion_lon": 0.0, "is_disabled": 0}, {"rental_uris": {"android": "https://dc.lft.to/lastmile_qr_scan", "ios": "https://dc.lft.to/lastmile_qr_scan"}, "type": "electric_scooter", "lon": -77.02472683333333, "name": "e08d30091f1184fd2fbdf082e6494094", "bike_id": "e08d30091f1184fd2fbdf082e6494094", "fusion_lat": 0.0, "is_reserved": 0, "lat": 38.93852966666667, "fusion_lon": 0.0, "is_disabled": 0}, {"rental_uris": {"android": "https://dc.lft.to/lastmile_qr_scan", "ios": "https://dc.lft.to/lastmile_qr_scan"}, "type": "electric_scooter", "lon": -77.03273216666666, "name": "612b35034c4945e40dada96e25376a28", "bike_id": "612b35034c4945e40dada96e25376a28", "fusion_lat": 0.0, "is_reserved": 0, "lat": 38.896370833333336, "fusion_lon": 0.0, "is_disabled": 0}, {"rental_uris": {"android": "https://dc.lft.to/lastmile_qr_scan", "ios": "https://dc.lft.to/lastmile_qr_scan"}, "type": "electric_scooter", "lon": -77.0243805, "name": "b7213eb14d38f236e8a0afddfb6e5f41", "bike_id": "b7213eb14d38f236e8a0afddfb6e5f41", "fusion_lat": 0.0, "is_reserved": 0, "lat": 38.932928, "fusion_lon": 0.0, "is_disabled": 0}, {"rental_uris": {"android": "https://dc.lft.to/lastmile_qr_scan", "ios": "https://dc.lft.to/lastmile_qr_scan"}, "type": "electric_scooter", "lon": -76.992784, "name": "7676d68f585ef9f7d37ed1148ba77a06", "bike_id": "7676d68f585ef9f7d37ed1148ba77a06", "fusion_lat": 0.0, "is_reserved": 0, "lat": 38.857543166666666, "fusion_lon": 0.0, "is_disabled": 0}, {"rental_uris": {"android": "https://dc.lft.to/lastmile_qr_scan", "ios": "https://dc.lft.to/lastmile_qr_scan"}, "type": "electric_scooter", "lon": -77.04258266666666, "name": "9aa71064d1fe04194214406ab16ee8ed", "bike_id": "9aa71064d1fe04194214406ab16ee8ed", "fusion_lat": 0.0, "is_reserved": 0, "lat": 38.922011, "fusion_lon": 0.0, "is_disabled": 0}, {"rental_uris": {"android": "https://dc.lft.to/lastmile_qr_scan", "ios": "https://dc.lft.to/lastmile_qr_scan"}, "type": "electric_scooter", "lon": -77.01494316666667, "name": "68cbe9836891347c844037fac60b7168", "bike_id": "68cbe9836891347c844037fac60b7168", "fusion_lat": 0.0, "is_reserved": 0, "lat": 38.9176975, "fusion_lon": 0.0, "is_disabled": 0}, {"rental_uris": {"android": "https://dc.lft.to/lastmile_qr_scan", "ios": "https://dc.lft.to/lastmile_qr_scan"}, "type": "electric_bike", "lon": -77.13097266666666, "name": "1bb4cdb209eb381029118a5547ffe2ea", "bike_id": "1bb4cdb209eb381029118a5547ffe2ea", "fusion_lat": 0.0, "is_reserved": 0, "lat": 38.86161533333333, "fusion_lon": 0.0, "is_disabled": 0}, {"rental_uris": {"android": "https://dc.lft.to/lastmile_qr_scan", "ios": "https://dc.lft.to/lastmile_qr_scan"}, "type": "electric_scooter", "lon": -77.03128033333333, "name": "a6a045c2916980e354b1b60b3dcbff95", "bike_id": "a6a045c2916980e354b1b60b3dcbff95", "fusion_lat": 0.0, "is_reserved": 0, "lat": 38.897142, "fusion_lon": 0.0, "is_disabled": 0}, {"rental_uris": {"android": "https://dc.lft.to/lastmile_qr_scan", "ios": "https://dc.lft.to/lastmile_qr_scan"}, "type": "electric_scooter", "lon": -77.00589066666667, "name": "0017b9df4b34261fe8e750f5a0adb0a8", "bike_id": "0017b9df4b34261fe8e750f5a0adb0a8", "fusion_lat": 0.0, "is_reserved": 0, "lat": 38.90567733333334, "fusion_lon": 0.0, "is_disabled": 0}, {"rental_uris": {"android": "https://dc.lft.to/lastmile_qr_scan", "ios": "https://dc.lft.to/lastmile_qr_scan"}, "type": "electric_scooter", "lon": -77.00725866666667, "name": "c606fc0b6b10cce3df6f8e5d073b08c3", "bike_id": "c606fc0b6b10cce3df6f8e5d073b08c3", "fusion_lat": 0.0, "is_reserved": 0, "lat": 38.876764, "fusion_lon": 0.0, "is_disabled": 0}, {"rental_uris": {"android": "https://dc.lft.to/lastmile_qr_scan", "ios": "https://dc.lft.to/lastmile_qr_scan"}, "type": "electric_scooter", "lon": -77.0384395, "name": "8425d7e4e2f3816ffefd1223754f2fa3", "bike_id": "8425d7e4e2f3816ffefd1223754f2fa3", "fusion_lat": 0.0, "is_reserved": 0, "lat": 38.91548066666667, "fusion_lon": 0.0, "is_disabled": 0}, {"rental_uris": {"android": "https://dc.lft.to/lastmile_qr_scan", "ios": "https://dc.lft.to/lastmile_qr_scan"}, "type": "electric_scooter", "lon": -77.02389466666666, "name": "a23412202156461638f61a26ee5a4ae5", "bike_id": "a23412202156461638f61a26ee5a4ae5", "fusion_lat": 0.0, "is_reserved": 0, "lat": 38.8873355, "fusion_lon": 0.0, "is_disabled": 0}, {"rental_uris": {"android": "https://dc.lft.to/lastmile_qr_scan", "ios": "https://dc.lft.to/lastmile_qr_scan"}, "type": "electric_scooter", "lon": -76.94118833333333, "name": "d6965f4be5163b3892601ba0cf47138f", "bike_id": "d6965f4be5163b3892601ba0cf47138f", "fusion_lat": 0.0, "is_reserved": 0, "lat": 38.907937833333335, "fusion_lon": 0.0, "is_disabled": 0}, {"rental_uris": {"android": "https://dc.lft.to/lastmile_qr_scan", "ios": "https://dc.lft.to/lastmile_qr_scan"}, "type": "electric_scooter", "lon": -77.03855766666666, "name": "be439a7de59012c2c02ba7eafb3ef642", "bike_id": "be439a7de59012c2c02ba7eafb3ef642", "fusion_lat": 0.0, "is_reserved": 0, "lat": 38.91276366666666, "fusion_lon": 0.0, "is_disabled": 0}, {"rental_uris": {"android": "https://dc.lft.to/lastmile_qr_scan", "ios": "https://dc.lft.to/lastmile_qr_scan"}, "type": "electric_scooter", "lon": -77.01982416666667, "name": "81127d5eca545da43e8f18733005afcf", "bike_id": "81127d5eca545da43e8f18733005afcf", "fusion_lat": 0.0, "is_reserved": 0, "lat": 38.90023683333333, "fusion_lon": 0.0, "is_disabled": 0}, {"rental_uris": {"android": "https://dc.lft.to/lastmile_qr_scan", "ios": "https://dc.lft.to/lastmile_qr_scan"}, "type": "electric_scooter", "lon": -77.06160083333333, "name": "94d9cc99d7e811a816522e15430ff644", "bike_id": "94d9cc99d7e811a816522e15430ff644", "fusion_lat": 0.0, "is_reserved": 0, "lat": 38.94219983333333, "fusion_lon": 0.0, "is_disabled": 0}, {"rental_uris": {"android": "https://dc.lft.to/lastmile_qr_scan", "ios": "https://dc.lft.to/lastmile_qr_scan"}, "type": "electric_scooter", "lon": -76.9868725, "name": "18499c0e17d2a9a35627072ba882e7e5", "bike_id": "18499c0e17d2a9a35627072ba882e7e5", "fusion_lat": 0.0, "is_reserved": 0, "lat": 38.855682333333334, "fusion_lon": 0.0, "is_disabled": 0}, {"rental_uris": {"android": "https://dc.lft.to/lastmile_qr_scan", "ios": "https://dc.lft.to/lastmile_qr_scan"}, "type": "electric_scooter", "lon": -76.98773833333334, "name": "5c40d206b44f1d39f87aede68e1f6d74", "bike_id": "5c40d206b44f1d39f87aede68e1f6d74", "fusion_lat": 0.0, "is_reserved": 0, "lat": 38.911700333333336, "fusion_lon": 0.0, "is_disabled": 0}, {"rental_uris": {"android": "https://dc.lft.to/lastmile_qr_scan", "ios": "https://dc.lft.to/lastmile_qr_scan"}, "type": "electric_scooter", "lon": -77.04355466666667, "name": "2fc08bb4c62ca5b97979fd236758f4fa", "bike_id": "2fc08bb4c62ca5b97979fd236758f4fa", "fusion_lat": 0.0, "is_reserved": 0, "lat": 38.92153866666666, "fusion_lon": 0.0, "is_disabled": 0}, {"rental_uris": {"android": "https://dc.lft.to/lastmile_qr_scan", "ios": "https://dc.lft.to/lastmile_qr_scan"}, "type": "electric_scooter", "lon": -77.0399675, "name": "3b0c9b96b16e6b478fbc6dd6c2d12a8f", "bike_id": "3b0c9b96b16e6b478fbc6dd6c2d12a8f", "fusion_lat": 0.0, "is_reserved": 0, "lat": 38.914077, "fusion_lon": 0.0, "is_disabled": 0}, {"rental_uris": {"android": "https://dc.lft.to/lastmile_qr_scan", "ios": "https://dc.lft.to/lastmile_qr_scan"}, "type": "electric_scooter", "lon": -77.0247305, "name": "7d25671850dde407f4d1cc9eaee755d8", "bike_id": "7d25671850dde407f4d1cc9eaee755d8", "fusion_lat": 0.0, "is_reserved": 0, "lat": 38.8834665, "fusion_lon": 0.0, "is_disabled": 0}, {"rental_uris": {"android": "https://dc.lft.to/lastmile_qr_scan", "ios": "https://dc.lft.to/lastmile_qr_scan"}, "type": "electric_scooter", "lon": -77.04987466666667, "name": "f2cd66e3acc7427601fee98ee37965b6", "bike_id": "f2cd66e3acc7427601fee98ee37965b6", "fusion_lat": 0.0, "is_reserved": 0, "lat": 38.905507166666666, "fusion_lon": 0.0, "is_disabled": 0}, {"rental_uris": {"android": "https://dc.lft.to/lastmile_qr_scan", "ios": "https://dc.lft.to/lastmile_qr_scan"}, "type": "electric_scooter", "lon": -77.04167, "name": "26efc4abab6eaf4d970b60356bac5b95", "bike_id": "26efc4abab6eaf4d970b60356bac5b95", "fusion_lat": 0.0, "is_reserved": 0, "lat": 38.91586516666667, "fusion_lon": 0.0, "is_disabled": 0}, {"rental_uris": {"android": "https://dc.lft.to/lastmile_qr_scan", "ios": "https://dc.lft.to/lastmile_qr_scan"}, "type": "electric_scooter", "lon": -76.99449333333334, "name": "566e741f1193cff9bda77fdf09bf9a19", "bike_id": "566e741f1193cff9bda77fdf09bf9a19", "fusion_lat": 0.0, "is_reserved": 0, "lat": 38.87657316666667, "fusion_lon": 0.0, "is_disabled": 0}, {"rental_uris": {"android": "https://dc.lft.to/lastmile_qr_scan", "ios": "https://dc.lft.to/lastmile_qr_scan"}, "type": "electric_scooter", "lon": -76.93151666666667, "name": "fedaff08e4a0ad6bb9719add5029d28b", "bike_id": "fedaff08e4a0ad6bb9719add5029d28b", "fusion_lat": 0.0, "is_reserved": 0, "lat": 38.89877283333333, "fusion_lon": 0.0, "is_disabled": 0}, {"rental_uris": {"android": "https://dc.lft.to/lastmile_qr_scan", "ios": "https://dc.lft.to/lastmile_qr_scan"}, "type": "electric_scooter", "lon": -77.06580233333334, "name": "dba102c99228aa34adc3c3d74b5fec7d", "bike_id": "dba102c99228aa34adc3c3d74b5fec7d", "fusion_lat": 0.0, "is_reserved": 0, "lat": 38.913658833333336, "fusion_lon": 0.0, "is_disabled": 0}, {"rental_uris": {"android": "https://dc.lft.to/lastmile_qr_scan", "ios": "https://dc.lft.to/lastmile_qr_scan"}, "type": "electric_bike", "lon": -76.968819, "name": "50c718a47354e349c03dc2e740f46ecf", "bike_id": "50c718a47354e349c03dc2e740f46ecf", "fusion_lat": 0.0, "is_reserved": 0, "lat": 38.84601466666667, "fusion_lon": 0.0, "is_disabled": 0}, {"rental_uris": {"android": "https://dc.lft.to/lastmile_qr_scan", "ios": "https://dc.lft.to/lastmile_qr_scan"}, "type": "electric_scooter", "lon": -77.024019, "name": "d24ca1f2e63be4ecca3562be1a532ed6", "bike_id": "d24ca1f2e63be4ecca3562be1a532ed6", "fusion_lat": 0.0, "is_reserved": 0, "lat": 38.916843666666665, "fusion_lon": 0.0, "is_disabled": 0}, {"rental_uris": {"android": "https://dc.lft.to/lastmile_qr_scan", "ios": "https://dc.lft.to/lastmile_qr_scan"}, "type": "electric_bike", "lon": -77.1274165, "name": "a54012ccebff4370566baae1298f455e", "bike_id": "a54012ccebff4370566baae1298f455e", "fusion_lat": 0.0, "is_reserved": 0, "lat": 38.8882465, "fusion_lon": 0.0, "is_disabled": 0}, {"rental_uris": {"android": "https://dc.lft.to/lastmile_qr_scan", "ios": "https://dc.lft.to/lastmile_qr_scan"}, "type": "electric_scooter", "lon": -77.041317, "name": "633c9d6025a163f63738d92558bda466", "bike_id": "633c9d6025a163f63738d92558bda466", "fusion_lat": 0.0, "is_reserved": 0, "lat": 38.9213365, "fusion_lon": 0.0, "is_disabled": 0}, {"rental_uris": {"android": "https://dc.lft.to/lastmile_qr_scan", "ios": "https://dc.lft.to/lastmile_qr_scan"}, "type": "electric_bike", "lon": -77.02369816666666, "name": "8cc7098643a4969ae9f76e0ea1ad63b5", "bike_id": "8cc7098643a4969ae9f76e0ea1ad63b5", "fusion_lat": 0.0, "is_reserved": 0, "lat": 38.952938, "fusion_lon": 0.0, "is_disabled": 0}, {"rental_uris": {"android": "https://dc.lft.to/lastmile_qr_scan", "ios": "https://dc.lft.to/lastmile_qr_scan"}, "type": "electric_scooter", "lon": -77.03185983333333, "name": "ca42184b85e786f89e3f0378d50e076f", "bike_id": "ca42184b85e786f89e3f0378d50e076f", "fusion_lat": 0.0, "is_reserved": 0, "lat": 38.9164065, "fusion_lon": 0.0, "is_disabled": 0}, {"rental_uris": {"android": "https://dc.lft.to/lastmile_qr_scan", "ios": "https://dc.lft.to/lastmile_qr_scan"}, "type": "electric_scooter", "lon": -77.065689, "name": "f755d08821f0e8c76798b2a95949ea33", "bike_id": "f755d08821f0e8c76798b2a95949ea33", "fusion_lat": 0.0, "is_reserved": 0, "lat": 38.905226666666664, "fusion_lon": 0.0, "is_disabled": 0}, {"rental_uris": {"android": "https://dc.lft.to/lastmile_qr_scan", "ios": "https://dc.lft.to/lastmile_qr_scan"}, "type": "electric_scooter", "lon": -77.06786466666667, "name": "01fb8a36fa8ddcedbbbb19795797aa97", "bike_id": "01fb8a36fa8ddcedbbbb19795797aa97", "fusion_lat": 0.0, "is_reserved": 0, "lat": 38.905194333333334, "fusion_lon": 0.0, "is_disabled": 0}, {"rental_uris": {"android": "https://dc.lft.to/lastmile_qr_scan", "ios": "https://dc.lft.to/lastmile_qr_scan"}, "type": "electric_scooter", "lon": -77.04182816666666, "name": "c66f9caa92fbf6239797ed9711645013", "bike_id": "c66f9caa92fbf6239797ed9711645013", "fusion_lat": 0.0, "is_reserved": 0, "lat": 38.91264283333334, "fusion_lon": 0.0, "is_disabled": 0}, {"rental_uris": {"android": "https://dc.lft.to/lastmile_qr_scan", "ios": "https://dc.lft.to/lastmile_qr_scan"}, "type": "electric_scooter", "lon": -76.93873516666666, "name": "92ac87ddb841f461bee85dadb61b89e1", "bike_id": "92ac87ddb841f461bee85dadb61b89e1", "fusion_lat": 0.0, "is_reserved": 0, "lat": 38.900739, "fusion_lon": 0.0, "is_disabled": 0}, {"rental_uris": {"android": "https://dc.lft.to/lastmile_qr_scan", "ios": "https://dc.lft.to/lastmile_qr_scan"}, "type": "electric_scooter", "lon": -77.02208933333333, "name": "0a40cf6605d855c8ef1705d250ebc44f", "bike_id": "0a40cf6605d855c8ef1705d250ebc44f", "fusion_lat": 0.0, "is_reserved": 0, "lat": 38.91272883333333, "fusion_lon": 0.0, "is_disabled": 0}, {"rental_uris": {"android": "https://dc.lft.to/lastmile_qr_scan", "ios": "https://dc.lft.to/lastmile_qr_scan"}, "type": "electric_scooter", "lon": -77.02611316666666, "name": "19bc118127c85c5368009606ffc1af87", "bike_id": "19bc118127c85c5368009606ffc1af87", "fusion_lat": 0.0, "is_reserved": 0, "lat": 38.904874666666664, "fusion_lon": 0.0, "is_disabled": 0}, {"rental_uris": {"android": "https://dc.lft.to/lastmile_qr_scan", "ios": "https://dc.lft.to/lastmile_qr_scan"}, "type": "electric_bike", "lon": -76.90944533333334, "name": "6959f68609303852743cfde0d4d9e6ea", "bike_id": "6959f68609303852743cfde0d4d9e6ea", "fusion_lat": 0.0, "is_reserved": 0, "lat": 38.854142, "fusion_lon": 0.0, "is_disabled": 0}, {"rental_uris": {"android": "https://dc.lft.to/lastmile_qr_scan", "ios": "https://dc.lft.to/lastmile_qr_scan"}, "type": "electric_scooter", "lon": -77.03331016666667, "name": "fddd92c950de4adc5e607d94aa32ddc2", "bike_id": "fddd92c950de4adc5e607d94aa32ddc2", "fusion_lat": 0.0, "is_reserved": 0, "lat": 38.92873016666667, "fusion_lon": 0.0, "is_disabled": 0}, {"rental_uris": {"android": "https://dc.lft.to/lastmile_qr_scan", "ios": "https://dc.lft.to/lastmile_qr_scan"}, "type": "electric_scooter", "lon": -77.0138255, "name": "cea3f48b9819cb0ac56911fc6d126983", "bike_id": "cea3f48b9819cb0ac56911fc6d126983", "fusion_lat": 0.0, "is_reserved": 0, "lat": 38.91503133333333, "fusion_lon": 0.0, "is_disabled": 0}, {"rental_uris": {"android": "https://dc.lft.to/lastmile_qr_scan", "ios": "https://dc.lft.to/lastmile_qr_scan"}, "type": "electric_scooter", "lon": -77.0385585, "name": "15d563b60adccc9073ccdc57fe87bc9e", "bike_id": "15d563b60adccc9073ccdc57fe87bc9e", "fusion_lat": 0.0, "is_reserved": 0, "lat": 38.917134833333336, "fusion_lon": 0.0, "is_disabled": 0}, {"rental_uris": {"android": "https://dc.lft.to/lastmile_qr_scan", "ios": "https://dc.lft.to/lastmile_qr_scan"}, "type": "electric_scooter", "lon": -77.04602366666667, "name": "3bdf0af818fcdde2a3cd7a136365f9ac", "bike_id": "3bdf0af818fcdde2a3cd7a136365f9ac", "fusion_lat": 0.0, "is_reserved": 0, "lat": 38.906709, "fusion_lon": 0.0, "is_disabled": 0}, {"rental_uris": {"android": "https://dc.lft.to/lastmile_qr_scan", "ios": "https://dc.lft.to/lastmile_qr_scan"}, "type": "electric_scooter", "lon": -77.0268725, "name": "e5e5c71cc13b00071b96f092d2426dcd", "bike_id": "e5e5c71cc13b00071b96f092d2426dcd", "fusion_lat": 0.0, "is_reserved": 0, "lat": 38.909608666666664, "fusion_lon": 0.0, "is_disabled": 0}, {"rental_uris": {"android": "https://dc.lft.to/lastmile_qr_scan", "ios": "https://dc.lft.to/lastmile_qr_scan"}, "type": "electric_scooter", "lon": -77.02414883333333, "name": "1874551e086680aed97ad812d8480162", "bike_id": "1874551e086680aed97ad812d8480162", "fusion_lat": 0.0, "is_reserved": 0, "lat": 38.957313166666665, "fusion_lon": 0.0, "is_disabled": 0}, {"rental_uris": {"android": "https://dc.lft.to/lastmile_qr_scan", "ios": "https://dc.lft.to/lastmile_qr_scan"}, "type": "electric_scooter", "lon": -77.02465983333333, "name": "8e1536b690497c4e7cc796f64e731f16", "bike_id": "8e1536b690497c4e7cc796f64e731f16", "fusion_lat": 0.0, "is_reserved": 0, "lat": 38.938573833333336, "fusion_lon": 0.0, "is_disabled": 0}, {"rental_uris": {"android": "https://dc.lft.to/lastmile_qr_scan", "ios": "https://dc.lft.to/lastmile_qr_scan"}, "type": "electric_bike", "lon": -77.02876483333333, "name": "d7b634ffd2d7302c4afcbbbad5d9a0da", "bike_id": "d7b634ffd2d7302c4afcbbbad5d9a0da", "fusion_lat": 0.0, "is_reserved": 0, "lat": 38.979446333333335, "fusion_lon": 0.0, "is_disabled": 0}, {"rental_uris": {"android": "https://dc.lft.to/lastmile_qr_scan", "ios": "https://dc.lft.to/lastmile_qr_scan"}, "type": "electric_scooter", "lon": -77.062844, "name": "16f6bb5d3aae934c49d3348c49b14165", "bike_id": "16f6bb5d3aae934c49d3348c49b14165", "fusion_lat": 0.0, "is_reserved": 0, "lat": 38.906152, "fusion_lon": 0.0, "is_disabled": 0}, {"rental_uris": {"android": "https://dc.lft.to/lastmile_qr_scan", "ios": "https://dc.lft.to/lastmile_qr_scan"}, "type": "electric_scooter", "lon": -76.94823783333334, "name": "c1d11d575130a92b194d8d306a4ae2aa", "bike_id": "c1d11d575130a92b194d8d306a4ae2aa", "fusion_lat": 0.0, "is_reserved": 0, "lat": 38.88515016666667, "fusion_lon": 0.0, "is_disabled": 0}, {"rental_uris": {"android": "https://dc.lft.to/lastmile_qr_scan", "ios": "https://dc.lft.to/lastmile_qr_scan"}, "type": "electric_scooter", "lon": -77.0194545, "name": "54648c3df6f5872ad95134460f74b570", "bike_id": "54648c3df6f5872ad95134460f74b570", "fusion_lat": 0.0, "is_reserved": 0, "lat": 38.922469166666666, "fusion_lon": 0.0, "is_disabled": 0}, {"rental_uris": {"android": "https://dc.lft.to/lastmile_qr_scan", "ios": "https://dc.lft.to/lastmile_qr_scan"}, "type": "electric_scooter", "lon": -77.03842383333334, "name": "dd054b325c632d291243ee72718d9fe6", "bike_id": "dd054b325c632d291243ee72718d9fe6", "fusion_lat": 0.0, "is_reserved": 0, "lat": 38.9120965, "fusion_lon": 0.0, "is_disabled": 0}, {"rental_uris": {"android": "https://dc.lft.to/lastmile_qr_scan", "ios": "https://dc.lft.to/lastmile_qr_scan"}, "type": "electric_scooter", "lon": -77.04156883333333, "name": "014b6236f295441ae32058c143036bdb", "bike_id": "014b6236f295441ae32058c143036bdb", "fusion_lat": 0.0, "is_reserved": 0, "lat": 38.89265983333333, "fusion_lon": 0.0, "is_disabled": 0}, {"rental_uris": {"android": "https://dc.lft.to/lastmile_qr_scan", "ios": "https://dc.lft.to/lastmile_qr_scan"}, "type": "electric_scooter", "lon": -77.02201216666667, "name": "350cf3fb43fca7414412a7aab1378585", "bike_id": "350cf3fb43fca7414412a7aab1378585", "fusion_lat": 0.0, "is_reserved": 0, "lat": 38.89504816666667, "fusion_lon": 0.0, "is_disabled": 0}, {"rental_uris": {"android": "https://dc.lft.to/lastmile_qr_scan", "ios": "https://dc.lft.to/lastmile_qr_scan"}, "type": "electric_scooter", "lon": -76.98593516666666, "name": "021250889d73c5ca2ecd8103256eeef8", "bike_id": "021250889d73c5ca2ecd8103256eeef8", "fusion_lat": 0.0, "is_reserved": 0, "lat": 38.900198, "fusion_lon": 0.0, "is_disabled": 0}, {"rental_uris": {"android": "https://dc.lft.to/lastmile_qr_scan", "ios": "https://dc.lft.to/lastmile_qr_scan"}, "type": "electric_scooter", "lon": -77.03173683333333, "name": "1f5916d179eda8a06b086d0b4e690784", "bike_id": "1f5916d179eda8a06b086d0b4e690784", "fusion_lat": 0.0, "is_reserved": 0, "lat": 38.901093, "fusion_lon": 0.0, "is_disabled": 0}, {"rental_uris": {"android": "https://dc.lft.to/lastmile_qr_scan", "ios": "https://dc.lft.to/lastmile_qr_scan"}, "type": "electric_scooter", "lon": -76.98499566666666, "name": "2c76237ad5dab94b7d8799bd863f4737", "bike_id": "2c76237ad5dab94b7d8799bd863f4737", "fusion_lat": 0.0, "is_reserved": 0, "lat": 38.860468166666664, "fusion_lon": 0.0, "is_disabled": 0}, {"rental_uris": {"android": "https://dc.lft.to/lastmile_qr_scan", "ios": "https://dc.lft.to/lastmile_qr_scan"}, "type": "electric_bike", "lon": -77.18293866666667, "name": "4ca17eccf9a0e3f378ec5cc8e7b454c8", "bike_id": "4ca17eccf9a0e3f378ec5cc8e7b454c8", "fusion_lat": 0.0, "is_reserved": 0, "lat": 38.8834185, "fusion_lon": 0.0, "is_disabled": 0}, {"rental_uris": {"android": "https://dc.lft.to/lastmile_qr_scan", "ios": "https://dc.lft.to/lastmile_qr_scan"}, "type": "electric_scooter", "lon": -76.9901605, "name": "6890a67173b3b82698a94c3e48e9bb05", "bike_id": "6890a67173b3b82698a94c3e48e9bb05", "fusion_lat": 0.0, "is_reserved": 0, "lat": 38.85868633333333, "fusion_lon": 0.0, "is_disabled": 0}, {"rental_uris": {"android": "https://dc.lft.to/lastmile_qr_scan", "ios": "https://dc.lft.to/lastmile_qr_scan"}, "type": "electric_scooter", "lon": -77.0467315, "name": "023474edae8501ce6facabdd544d66f6", "bike_id": "023474edae8501ce6facabdd544d66f6", "fusion_lat": 0.0, "is_reserved": 0, "lat": 38.90264066666667, "fusion_lon": 0.0, "is_disabled": 0}, {"rental_uris": {"android": "https://dc.lft.to/lastmile_qr_scan", "ios": "https://dc.lft.to/lastmile_qr_scan"}, "type": "electric_scooter", "lon": -77.0610665, "name": "c93bb71d538f87011bb5a0ce0088a489", "bike_id": "c93bb71d538f87011bb5a0ce0088a489", "fusion_lat": 0.0, "is_reserved": 0, "lat": 38.943218333333334, "fusion_lon": 0.0, "is_disabled": 0}, {"rental_uris": {"android": "https://dc.lft.to/lastmile_qr_scan", "ios": "https://dc.lft.to/lastmile_qr_scan"}, "type": "electric_scooter", "lon": -76.9375135, "name": "dc659bb7fc60df7cac154e0991ff6e67", "bike_id": "dc659bb7fc60df7cac154e0991ff6e67", "fusion_lat": 0.0, "is_reserved": 0, "lat": 38.890486333333335, "fusion_lon": 0.0, "is_disabled": 0}, {"rental_uris": {"android": "https://dc.lft.to/lastmile_qr_scan", "ios": "https://dc.lft.to/lastmile_qr_scan"}, "type": "electric_scooter", "lon": -76.9975745, "name": "525545b0d163e3133043da305b90680d", "bike_id": "525545b0d163e3133043da305b90680d", "fusion_lat": 0.0, "is_reserved": 0, "lat": 38.921966, "fusion_lon": 0.0, "is_disabled": 0}, {"rental_uris": {"android": "https://dc.lft.to/lastmile_qr_scan", "ios": "https://dc.lft.to/lastmile_qr_scan"}, "type": "electric_scooter", "lon": -77.0320405, "name": "837744fc0034b60a8f3ea48a8c8152d7", "bike_id": "837744fc0034b60a8f3ea48a8c8152d7", "fusion_lat": 0.0, "is_reserved": 0, "lat": 38.9076165, "fusion_lon": 0.0, "is_disabled": 0}, {"rental_uris": {"android": "https://dc.lft.to/lastmile_qr_scan", "ios": "https://dc.lft.to/lastmile_qr_scan"}, "type": "electric_scooter", "lon": -77.03185233333333, "name": "ccf20b09684832691cc2516ee8ccd5c2", "bike_id": "ccf20b09684832691cc2516ee8ccd5c2", "fusion_lat": 0.0, "is_reserved": 0, "lat": 38.90754366666667, "fusion_lon": 0.0, "is_disabled": 0}, {"rental_uris": {"android": "https://dc.lft.to/lastmile_qr_scan", "ios": "https://dc.lft.to/lastmile_qr_scan"}, "type": "electric_scooter", "lon": -77.02475083333333, "name": "74c7592962174ef3ecdaf73ec53c2822", "bike_id": "74c7592962174ef3ecdaf73ec53c2822", "fusion_lat": 0.0, "is_reserved": 0, "lat": 38.9390835, "fusion_lon": 0.0, "is_disabled": 0}, {"rental_uris": {"android": "https://dc.lft.to/lastmile_qr_scan", "ios": "https://dc.lft.to/lastmile_qr_scan"}, "type": "electric_scooter", "lon": -77.0399515, "name": "780bb6de536db791731d6eb9ddc02fe3", "bike_id": "780bb6de536db791731d6eb9ddc02fe3", "fusion_lat": 0.0, "is_reserved": 0, "lat": 38.9180825, "fusion_lon": 0.0, "is_disabled": 0}, {"rental_uris": {"android": "https://dc.lft.to/lastmile_qr_scan", "ios": "https://dc.lft.to/lastmile_qr_scan"}, "type": "electric_scooter", "lon": -77.02312633333334, "name": "1ecd2c62c39078d168fdf80d70684d0b", "bike_id": "1ecd2c62c39078d168fdf80d70684d0b", "fusion_lat": 0.0, "is_reserved": 0, "lat": 38.918182333333334, "fusion_lon": 0.0, "is_disabled": 0}, {"rental_uris": {"android": "https://dc.lft.to/lastmile_qr_scan", "ios": "https://dc.lft.to/lastmile_qr_scan"}, "type": "electric_scooter", "lon": -77.002743, "name": "e7551a391d72d356b00b6aa5cc61df8b", "bike_id": "e7551a391d72d356b00b6aa5cc61df8b", "fusion_lat": 0.0, "is_reserved": 0, "lat": 38.914860833333336, "fusion_lon": 0.0, "is_disabled": 0}, {"rental_uris": {"android": "https://dc.lft.to/lastmile_qr_scan", "ios": "https://dc.lft.to/lastmile_qr_scan"}, "type": "electric_scooter", "lon": -77.02547416666667, "name": "1cda42e9e440aa2fecc90767e056b00a", "bike_id": "1cda42e9e440aa2fecc90767e056b00a", "fusion_lat": 0.0, "is_reserved": 0, "lat": 38.892204166666666, "fusion_lon": 0.0, "is_disabled": 0}, {"rental_uris": {"android": "https://dc.lft.to/lastmile_qr_scan", "ios": "https://dc.lft.to/lastmile_qr_scan"}, "type": "electric_scooter", "lon": -77.02580616666667, "name": "c1f541a518bdb265f9731b056bee6346", "bike_id": "c1f541a518bdb265f9731b056bee6346", "fusion_lat": 0.0, "is_reserved": 0, "lat": 38.8969165, "fusion_lon": 0.0, "is_disabled": 0}, {"rental_uris": {"android": "https://dc.lft.to/lastmile_qr_scan", "ios": "https://dc.lft.to/lastmile_qr_scan"}, "type": "electric_scooter", "lon": -77.03463933333333, "name": "137d5a2d5810c39c98d6e2d92db3d65d", "bike_id": "137d5a2d5810c39c98d6e2d92db3d65d", "fusion_lat": 0.0, "is_reserved": 0, "lat": 38.902559, "fusion_lon": 0.0, "is_disabled": 0}, {"rental_uris": {"android": "https://dc.lft.to/lastmile_qr_scan", "ios": "https://dc.lft.to/lastmile_qr_scan"}, "type": "electric_scooter", "lon": -77.034435, "name": "52fb97aa396953679572fe1433fc622e", "bike_id": "52fb97aa396953679572fe1433fc622e", "fusion_lat": 0.0, "is_reserved": 0, "lat": 38.91804066666667, "fusion_lon": 0.0, "is_disabled": 0}, {"rental_uris": {"android": "https://dc.lft.to/lastmile_qr_scan", "ios": "https://dc.lft.to/lastmile_qr_scan"}, "type": "electric_scooter", "lon": -77.03174066666666, "name": "46ad0dbf8fc407e1062047ccf2b7f48c", "bike_id": "46ad0dbf8fc407e1062047ccf2b7f48c", "fusion_lat": 0.0, "is_reserved": 0, "lat": 38.914157, "fusion_lon": 0.0, "is_disabled": 0}, {"rental_uris": {"android": "https://dc.lft.to/lastmile_qr_scan", "ios": "https://dc.lft.to/lastmile_qr_scan"}, "type": "electric_scooter", "lon": -77.01203966666667, "name": "8f0c2b3b248e3901e16dd29040d7c1a4", "bike_id": "8f0c2b3b248e3901e16dd29040d7c1a4", "fusion_lat": 0.0, "is_reserved": 0, "lat": 38.87151316666667, "fusion_lon": 0.0, "is_disabled": 0}, {"rental_uris": {"android": "https://dc.lft.to/lastmile_qr_scan", "ios": "https://dc.lft.to/lastmile_qr_scan"}, "type": "electric_scooter", "lon": -77.00884183333334, "name": "0e4929bb106fd7281983094cf1351b6b", "bike_id": "0e4929bb106fd7281983094cf1351b6b", "fusion_lat": 0.0, "is_reserved": 0, "lat": 38.87629533333333, "fusion_lon": 0.0, "is_disabled": 0}, {"rental_uris": {"android": "https://dc.lft.to/lastmile_qr_scan", "ios": "https://dc.lft.to/lastmile_qr_scan"}, "type": "electric_bike", "lon": -76.99733833333333, "name": "ec12741aad6ecf22e7afcb8660df3702", "bike_id": "ec12741aad6ecf22e7afcb8660df3702", "fusion_lat": 0.0, "is_reserved": 0, "lat": 38.89088733333333, "fusion_lon": 0.0, "is_disabled": 0}, {"rental_uris": {"android": "https://dc.lft.to/lastmile_qr_scan", "ios": "https://dc.lft.to/lastmile_qr_scan"}, "type": "electric_scooter", "lon": -77.00381183333333, "name": "d62f2a922c685abbc42ecb20cdc326da", "bike_id": "d62f2a922c685abbc42ecb20cdc326da", "fusion_lat": 0.0, "is_reserved": 0, "lat": 38.897324833333336, "fusion_lon": 0.0, "is_disabled": 0}, {"rental_uris": {"android": "https://dc.lft.to/lastmile_qr_scan", "ios": "https://dc.lft.to/lastmile_qr_scan"}, "type": "electric_bike", "lon": -77.1317935, "name": "e58a441589bd9976fb2f28b3a0764dc3", "bike_id": "e58a441589bd9976fb2f28b3a0764dc3", "fusion_lat": 0.0, "is_reserved": 0, "lat": 38.86904066666666, "fusion_lon": 0.0, "is_disabled": 0}, {"rental_uris": {"android": "https://dc.lft.to/lastmile_qr_scan", "ios": "https://dc.lft.to/lastmile_qr_scan"}, "type": "electric_bike", "lon": -76.99760866666666, "name": "0133802c5052ffc3e11e4c9aea2f22a4", "bike_id": "0133802c5052ffc3e11e4c9aea2f22a4", "fusion_lat": 0.0, "is_reserved": 0, "lat": 39.00591033333333, "fusion_lon": 0.0, "is_disabled": 0}, {"rental_uris": {"android": "https://dc.lft.to/lastmile_qr_scan", "ios": "https://dc.lft.to/lastmile_qr_scan"}, "type": "electric_scooter", "lon": -76.99148383333333, "name": "cd46803377e1bbb531a01a75cad1d35c", "bike_id": "cd46803377e1bbb531a01a75cad1d35c", "fusion_lat": 0.0, "is_reserved": 0, "lat": 38.87903683333333, "fusion_lon": 0.0, "is_disabled": 0}, {"rental_uris": {"android": "https://dc.lft.to/lastmile_qr_scan", "ios": "https://dc.lft.to/lastmile_qr_scan"}, "type": "electric_scooter", "lon": -77.04994966666666, "name": "5486499e7848cf965ea47b5dfbe26628", "bike_id": "5486499e7848cf965ea47b5dfbe26628", "fusion_lat": 0.0, "is_reserved": 0, "lat": 38.900806833333334, "fusion_lon": 0.0, "is_disabled": 0}, {"rental_uris": {"android": "https://dc.lft.to/lastmile_qr_scan", "ios": "https://dc.lft.to/lastmile_qr_scan"}, "type": "electric_scooter", "lon": -76.929538, "name": "d4cda602e3fd754f925e420afb634046", "bike_id": "d4cda602e3fd754f925e420afb634046", "fusion_lat": 0.0, "is_reserved": 0, "lat": 38.89874433333333, "fusion_lon": 0.0, "is_disabled": 0}, {"rental_uris": {"android": "https://dc.lft.to/lastmile_qr_scan", "ios": "https://dc.lft.to/lastmile_qr_scan"}, "type": "electric_scooter", "lon": -77.03855483333334, "name": "e095493fa8f30ca1870335a148208734", "bike_id": "e095493fa8f30ca1870335a148208734", "fusion_lat": 0.0, "is_reserved": 0, "lat": 38.9153935, "fusion_lon": 0.0, "is_disabled": 0}, {"rental_uris": {"android": "https://dc.lft.to/lastmile_qr_scan", "ios": "https://dc.lft.to/lastmile_qr_scan"}, "type": "electric_scooter", "lon": -77.046753, "name": "1782ee1e9a9a0daafd094fd455b54741", "bike_id": "1782ee1e9a9a0daafd094fd455b54741", "fusion_lat": 0.0, "is_reserved": 0, "lat": 38.91566266666667, "fusion_lon": 0.0, "is_disabled": 0}, {"rental_uris": {"android": "https://dc.lft.to/lastmile_qr_scan", "ios": "https://dc.lft.to/lastmile_qr_scan"}, "type": "electric_scooter", "lon": -77.0341895, "name": "4a4a5884a021c1c44a25181c3290f21c", "bike_id": "4a4a5884a021c1c44a25181c3290f21c", "fusion_lat": 0.0, "is_reserved": 0, "lat": 38.92941833333333, "fusion_lon": 0.0, "is_disabled": 0}, {"rental_uris": {"android": "https://dc.lft.to/lastmile_qr_scan", "ios": "https://dc.lft.to/lastmile_qr_scan"}, "type": "electric_scooter", "lon": -77.01212133333334, "name": "f17f66891ac74c4e56c70c5df9209267", "bike_id": "f17f66891ac74c4e56c70c5df9209267", "fusion_lat": 0.0, "is_reserved": 0, "lat": 38.893296166666666, "fusion_lon": 0.0, "is_disabled": 0}, {"rental_uris": {"android": "https://dc.lft.to/lastmile_qr_scan", "ios": "https://dc.lft.to/lastmile_qr_scan"}, "type": "electric_scooter", "lon": -77.03652483333333, "name": "6d19f8cd6e97cb50a9f3ad3dfa5fe719", "bike_id": "6d19f8cd6e97cb50a9f3ad3dfa5fe719", "fusion_lat": 0.0, "is_reserved": 0, "lat": 38.921036666666666, "fusion_lon": 0.0, "is_disabled": 0}, {"rental_uris": {"android": "https://dc.lft.to/lastmile_qr_scan", "ios": "https://dc.lft.to/lastmile_qr_scan"}, "type": "electric_scooter", "lon": -76.99894966666666, "name": "217794bce4d921145956a57c59b10eaa", "bike_id": "217794bce4d921145956a57c59b10eaa", "fusion_lat": 0.0, "is_reserved": 0, "lat": 38.90018416666667, "fusion_lon": 0.0, "is_disabled": 0}, {"rental_uris": {"android": "https://dc.lft.to/lastmile_qr_scan", "ios": "https://dc.lft.to/lastmile_qr_scan"}, "type": "electric_scooter", "lon": -77.03067116666666, "name": "ff183c4b5fb25d5207d9b203f4980331", "bike_id": "ff183c4b5fb25d5207d9b203f4980331", "fusion_lat": 0.0, "is_reserved": 0, "lat": 38.88043, "fusion_lon": 0.0, "is_disabled": 0}, {"rental_uris": {"android": "https://dc.lft.to/lastmile_qr_scan", "ios": "https://dc.lft.to/lastmile_qr_scan"}, "type": "electric_scooter", "lon": -77.03026183333333, "name": "56ee9d71040231e782f7ddffe1efc38b", "bike_id": "56ee9d71040231e782f7ddffe1efc38b", "fusion_lat": 0.0, "is_reserved": 0, "lat": 38.92677333333334, "fusion_lon": 0.0, "is_disabled": 0}, {"rental_uris": {"android": "https://dc.lft.to/lastmile_qr_scan", "ios": "https://dc.lft.to/lastmile_qr_scan"}, "type": "electric_scooter", "lon": -76.9994895, "name": "1f0015ccfb6d710f9e469f22354d2911", "bike_id": "1f0015ccfb6d710f9e469f22354d2911", "fusion_lat": 0.0, "is_reserved": 0, "lat": 38.842923, "fusion_lon": 0.0, "is_disabled": 0}, {"rental_uris": {"android": "https://dc.lft.to/lastmile_qr_scan", "ios": "https://dc.lft.to/lastmile_qr_scan"}, "type": "electric_scooter", "lon": -77.03443033333333, "name": "950049a982c1da66e5fe69603449ca60", "bike_id": "950049a982c1da66e5fe69603449ca60", "fusion_lat": 0.0, "is_reserved": 0, "lat": 38.905815833333335, "fusion_lon": 0.0, "is_disabled": 0}, {"rental_uris": {"android": "https://dc.lft.to/lastmile_qr_scan", "ios": "https://dc.lft.to/lastmile_qr_scan"}, "type": "electric_bike", "lon": -77.08575933333333, "name": "64c376396d8e8e004d3b4c3523985f10", "bike_id": "64c376396d8e8e004d3b4c3523985f10", "fusion_lat": 0.0, "is_reserved": 0, "lat": 38.87421466666667, "fusion_lon": 0.0, "is_disabled": 0}, {"rental_uris": {"android": "https://dc.lft.to/lastmile_qr_scan", "ios": "https://dc.lft.to/lastmile_qr_scan"}, "type": "electric_scooter", "lon": -77.02285466666666, "name": "0100c49dedf893051ef4569b0070111e", "bike_id": "0100c49dedf893051ef4569b0070111e", "fusion_lat": 0.0, "is_reserved": 0, "lat": 38.91733683333333, "fusion_lon": 0.0, "is_disabled": 0}, {"rental_uris": {"android": "https://dc.lft.to/lastmile_qr_scan", "ios": "https://dc.lft.to/lastmile_qr_scan"}, "type": "electric_scooter", "lon": -77.054611, "name": "4053588bb9b005f5803e9727332073ca", "bike_id": "4053588bb9b005f5803e9727332073ca", "fusion_lat": 0.0, "is_reserved": 0, "lat": 38.92847533333333, "fusion_lon": 0.0, "is_disabled": 0}, {"rental_uris": {"android": "https://dc.lft.to/lastmile_qr_scan", "ios": "https://dc.lft.to/lastmile_qr_scan"}, "type": "electric_scooter", "lon": -77.02724133333334, "name": "0f9507a7c9c134c858a2fb270200d025", "bike_id": "0f9507a7c9c134c858a2fb270200d025", "fusion_lat": 0.0, "is_reserved": 0, "lat": 38.899722, "fusion_lon": 0.0, "is_disabled": 0}, {"rental_uris": {"android": "https://dc.lft.to/lastmile_qr_scan", "ios": "https://dc.lft.to/lastmile_qr_scan"}, "type": "electric_scooter", "lon": -77.02542883333334, "name": "dea9c38a0d3a9c8906749a77a6607d57", "bike_id": "dea9c38a0d3a9c8906749a77a6607d57", "fusion_lat": 0.0, "is_reserved": 0, "lat": 38.907242833333335, "fusion_lon": 0.0, "is_disabled": 0}, {"rental_uris": {"android": "https://dc.lft.to/lastmile_qr_scan", "ios": "https://dc.lft.to/lastmile_qr_scan"}, "type": "electric_scooter", "lon": -77.00600683333333, "name": "b0af7293f7d9cd6140dc54b0ecc0d8b8", "bike_id": "b0af7293f7d9cd6140dc54b0ecc0d8b8", "fusion_lat": 0.0, "is_reserved": 0, "lat": 38.90567, "fusion_lon": 0.0, "is_disabled": 0}, {"rental_uris": {"android": "https://dc.lft.to/lastmile_qr_scan", "ios": "https://dc.lft.to/lastmile_qr_scan"}, "type": "electric_scooter", "lon": -77.02511933333334, "name": "4e060c1972ee66985475dc1181d21276", "bike_id": "4e060c1972ee66985475dc1181d21276", "fusion_lat": 0.0, "is_reserved": 0, "lat": 38.941782333333336, "fusion_lon": 0.0, "is_disabled": 0}, {"rental_uris": {"android": "https://dc.lft.to/lastmile_qr_scan", "ios": "https://dc.lft.to/lastmile_qr_scan"}, "type": "electric_scooter", "lon": -76.98036533333334, "name": "ffc4ae33671a767e4be71ccc5a9d2e7b", "bike_id": "ffc4ae33671a767e4be71ccc5a9d2e7b", "fusion_lat": 0.0, "is_reserved": 0, "lat": 38.916746, "fusion_lon": 0.0, "is_disabled": 0}, {"rental_uris": {"android": "https://dc.lft.to/lastmile_qr_scan", "ios": "https://dc.lft.to/lastmile_qr_scan"}, "type": "electric_bike", "lon": -77.0249735, "name": "059aa4688c3fa82929dd41b823054461", "bike_id": "059aa4688c3fa82929dd41b823054461", "fusion_lat": 0.0, "is_reserved": 0, "lat": 38.974049666666666, "fusion_lon": 0.0, "is_disabled": 0}, {"rental_uris": {"android": "https://dc.lft.to/lastmile_qr_scan", "ios": "https://dc.lft.to/lastmile_qr_scan"}, "type": "electric_scooter", "lon": -77.0543645, "name": "41129299e26ddb65e24a9dbbdd3e5d6a", "bike_id": "41129299e26ddb65e24a9dbbdd3e5d6a", "fusion_lat": 0.0, "is_reserved": 0, "lat": 38.895995166666665, "fusion_lon": 0.0, "is_disabled": 0}, {"rental_uris": {"android": "https://dc.lft.to/lastmile_qr_scan", "ios": "https://dc.lft.to/lastmile_qr_scan"}, "type": "electric_scooter", "lon": -77.03360433333333, "name": "3cd38396363ca7bbbc04703ad6896670", "bike_id": "3cd38396363ca7bbbc04703ad6896670", "fusion_lat": 0.0, "is_reserved": 0, "lat": 38.9119185, "fusion_lon": 0.0, "is_disabled": 0}, {"rental_uris": {"android": "https://dc.lft.to/lastmile_qr_scan", "ios": "https://dc.lft.to/lastmile_qr_scan"}, "type": "electric_scooter", "lon": -76.9473, "name": "b9434089db26f69c9dae3a8be6ad440a", "bike_id": "b9434089db26f69c9dae3a8be6ad440a", "fusion_lat": 0.0, "is_reserved": 0, "lat": 38.896698, "fusion_lon": 0.0, "is_disabled": 0}, {"rental_uris": {"android": "https://dc.lft.to/lastmile_qr_scan", "ios": "https://dc.lft.to/lastmile_qr_scan"}, "type": "electric_scooter", "lon": -77.041691, "name": "018933c023a9fec8587953b75561c722", "bike_id": "018933c023a9fec8587953b75561c722", "fusion_lat": 0.0, "is_reserved": 0, "lat": 38.9134045, "fusion_lon": 0.0, "is_disabled": 0}, {"rental_uris": {"android": "https://dc.lft.to/lastmile_qr_scan", "ios": "https://dc.lft.to/lastmile_qr_scan"}, "type": "electric_scooter", "lon": -77.03674166666667, "name": "3f4a98048db9dff30381d7d7332fbb64", "bike_id": "3f4a98048db9dff30381d7d7332fbb64", "fusion_lat": 0.0, "is_reserved": 0, "lat": 38.93649816666667, "fusion_lon": 0.0, "is_disabled": 0}, {"rental_uris": {"android": "https://dc.lft.to/lastmile_qr_scan", "ios": "https://dc.lft.to/lastmile_qr_scan"}, "type": "electric_scooter", "lon": -77.00571266666667, "name": "3917b91295d0d99658298e79affdece7", "bike_id": "3917b91295d0d99658298e79affdece7", "fusion_lat": 0.0, "is_reserved": 0, "lat": 38.8784435, "fusion_lon": 0.0, "is_disabled": 0}, {"rental_uris": {"android": "https://dc.lft.to/lastmile_qr_scan", "ios": "https://dc.lft.to/lastmile_qr_scan"}, "type": "electric_scooter", "lon": -77.02512566666667, "name": "5719ec8b56a318658f6b1c88941b7b0d", "bike_id": "5719ec8b56a318658f6b1c88941b7b0d", "fusion_lat": 0.0, "is_reserved": 0, "lat": 38.90175833333333, "fusion_lon": 0.0, "is_disabled": 0}, {"rental_uris": {"android": "https://dc.lft.to/lastmile_qr_scan", "ios": "https://dc.lft.to/lastmile_qr_scan"}, "type": "electric_scooter", "lon": -77.01927983333333, "name": "f598fd8d8216a478fa5e15597efe5ba1", "bike_id": "f598fd8d8216a478fa5e15597efe5ba1", "fusion_lat": 0.0, "is_reserved": 0, "lat": 38.93575583333333, "fusion_lon": 0.0, "is_disabled": 0}, {"rental_uris": {"android": "https://dc.lft.to/lastmile_qr_scan", "ios": "https://dc.lft.to/lastmile_qr_scan"}, "type": "electric_scooter", "lon": -77.007488, "name": "a24f10d4ea47177ba1f08b92a4a8991b", "bike_id": "a24f10d4ea47177ba1f08b92a4a8991b", "fusion_lat": 0.0, "is_reserved": 0, "lat": 38.92670916666667, "fusion_lon": 0.0, "is_disabled": 0}, {"rental_uris": {"android": "https://dc.lft.to/lastmile_qr_scan", "ios": "https://dc.lft.to/lastmile_qr_scan"}, "type": "electric_scooter", "lon": -76.964314, "name": "941bc0c885796237320bf0bb1ab5d4c5", "bike_id": "941bc0c885796237320bf0bb1ab5d4c5", "fusion_lat": 0.0, "is_reserved": 0, "lat": 38.934430666666664, "fusion_lon": 0.0, "is_disabled": 0}, {"rental_uris": {"android": "https://dc.lft.to/lastmile_qr_scan", "ios": "https://dc.lft.to/lastmile_qr_scan"}, "type": "electric_bike", "lon": -77.1100105, "name": "242ecfcc27fd3829ed1aafead53510e2", "bike_id": "242ecfcc27fd3829ed1aafead53510e2", "fusion_lat": 0.0, "is_reserved": 0, "lat": 38.870497, "fusion_lon": 0.0, "is_disabled": 0}, {"rental_uris": {"android": "https://dc.lft.to/lastmile_qr_scan", "ios": "https://dc.lft.to/lastmile_qr_scan"}, "type": "electric_scooter", "lon": -77.03448433333334, "name": "1fafe6c69f44cc90f00ac9e8634912c2", "bike_id": "1fafe6c69f44cc90f00ac9e8634912c2", "fusion_lat": 0.0, "is_reserved": 0, "lat": 38.918028166666666, "fusion_lon": 0.0, "is_disabled": 0}, {"rental_uris": {"android": "https://dc.lft.to/lastmile_qr_scan", "ios": "https://dc.lft.to/lastmile_qr_scan"}, "type": "electric_scooter", "lon": -77.04464916666667, "name": "41ebdeba4d25a34a475b0c1c62a2798d", "bike_id": "41ebdeba4d25a34a475b0c1c62a2798d", "fusion_lat": 0.0, "is_reserved": 0, "lat": 38.91884233333333, "fusion_lon": 0.0, "is_disabled": 0}, {"rental_uris": {"android": "https://dc.lft.to/lastmile_qr_scan", "ios": "https://dc.lft.to/lastmile_qr_scan"}, "type": "electric_scooter", "lon": -77.02341883333334, "name": "06ea390302c15550d92c1e3993688f8d", "bike_id": "06ea390302c15550d92c1e3993688f8d", "fusion_lat": 0.0, "is_reserved": 0, "lat": 38.9620585, "fusion_lon": 0.0, "is_disabled": 0}, {"rental_uris": {"android": "https://dc.lft.to/lastmile_qr_scan", "ios": "https://dc.lft.to/lastmile_qr_scan"}, "type": "electric_scooter", "lon": -77.04561916666667, "name": "880c0abfb419da2384e5e3e851c8b2c4", "bike_id": "880c0abfb419da2384e5e3e851c8b2c4", "fusion_lat": 0.0, "is_reserved": 0, "lat": 38.919447, "fusion_lon": 0.0, "is_disabled": 0}, {"rental_uris": {"android": "https://dc.lft.to/lastmile_qr_scan", "ios": "https://dc.lft.to/lastmile_qr_scan"}, "type": "electric_scooter", "lon": -77.034699, "name": "7d3e1b790b4ff7ab02a3a413097c8183", "bike_id": "7d3e1b790b4ff7ab02a3a413097c8183", "fusion_lat": 0.0, "is_reserved": 0, "lat": 38.903145333333335, "fusion_lon": 0.0, "is_disabled": 0}, {"rental_uris": {"android": "https://dc.lft.to/lastmile_qr_scan", "ios": "https://dc.lft.to/lastmile_qr_scan"}, "type": "electric_scooter", "lon": -76.99486066666667, "name": "ac83325670bb299b042cd879903eae6b", "bike_id": "ac83325670bb299b042cd879903eae6b", "fusion_lat": 0.0, "is_reserved": 0, "lat": 38.877369333333334, "fusion_lon": 0.0, "is_disabled": 0}, {"rental_uris": {"android": "https://dc.lft.to/lastmile_qr_scan", "ios": "https://dc.lft.to/lastmile_qr_scan"}, "type": "electric_scooter", "lon": -76.98995333333333, "name": "3fd67d4523eaffe57519007bc4956041", "bike_id": "3fd67d4523eaffe57519007bc4956041", "fusion_lat": 0.0, "is_reserved": 0, "lat": 38.86441966666667, "fusion_lon": 0.0, "is_disabled": 0}, {"rental_uris": {"android": "https://dc.lft.to/lastmile_qr_scan", "ios": "https://dc.lft.to/lastmile_qr_scan"}, "type": "electric_scooter", "lon": -76.94632083333333, "name": "d3006ba7d7794aab09417590c85a1d37", "bike_id": "d3006ba7d7794aab09417590c85a1d37", "fusion_lat": 0.0, "is_reserved": 0, "lat": 38.898430833333336, "fusion_lon": 0.0, "is_disabled": 0}, {"rental_uris": {"android": "https://dc.lft.to/lastmile_qr_scan", "ios": "https://dc.lft.to/lastmile_qr_scan"}, "type": "electric_scooter", "lon": -77.057382, "name": "ff38ccfc4abd5644c17958ea96b28a89", "bike_id": "ff38ccfc4abd5644c17958ea96b28a89", "fusion_lat": 0.0, "is_reserved": 0, "lat": 38.933590333333335, "fusion_lon": 0.0, "is_disabled": 0}, {"rental_uris": {"android": "https://dc.lft.to/lastmile_qr_scan", "ios": "https://dc.lft.to/lastmile_qr_scan"}, "type": "electric_scooter", "lon": -77.02155716666667, "name": "e0b081bfedcb87edbab5833c8c290192", "bike_id": "e0b081bfedcb87edbab5833c8c290192", "fusion_lat": 0.0, "is_reserved": 0, "lat": 38.8848655, "fusion_lon": 0.0, "is_disabled": 0}, {"rental_uris": {"android": "https://dc.lft.to/lastmile_qr_scan", "ios": "https://dc.lft.to/lastmile_qr_scan"}, "type": "electric_scooter", "lon": -77.023551, "name": "a150a99a60337e5016a9dc5f049eba72", "bike_id": "a150a99a60337e5016a9dc5f049eba72", "fusion_lat": 0.0, "is_reserved": 0, "lat": 38.892209, "fusion_lon": 0.0, "is_disabled": 0}, {"rental_uris": {"android": "https://dc.lft.to/lastmile_qr_scan", "ios": "https://dc.lft.to/lastmile_qr_scan"}, "type": "electric_scooter", "lon": -77.002255, "name": "5f86e76c56dd861c64cb277ec4f37c32", "bike_id": "5f86e76c56dd861c64cb277ec4f37c32", "fusion_lat": 0.0, "is_reserved": 0, "lat": 38.957285, "fusion_lon": 0.0, "is_disabled": 0}, {"rental_uris": {"android": "https://dc.lft.to/lastmile_qr_scan", "ios": "https://dc.lft.to/lastmile_qr_scan"}, "type": "electric_scooter", "lon": -77.01820316666667, "name": "4180e68abb55e37e29a6ab8adb7d4806", "bike_id": "4180e68abb55e37e29a6ab8adb7d4806", "fusion_lat": 0.0, "is_reserved": 0, "lat": 38.92207483333333, "fusion_lon": 0.0, "is_disabled": 0}, {"rental_uris": {"android": "https://dc.lft.to/lastmile_qr_scan", "ios": "https://dc.lft.to/lastmile_qr_scan"}, "type": "electric_scooter", "lon": -77.03840533333333, "name": "b5171fb7b334fab0a5409e3429abb6d2", "bike_id": "b5171fb7b334fab0a5409e3429abb6d2", "fusion_lat": 0.0, "is_reserved": 0, "lat": 38.91552266666667, "fusion_lon": 0.0, "is_disabled": 0}, {"rental_uris": {"android": "https://dc.lft.to/lastmile_qr_scan", "ios": "https://dc.lft.to/lastmile_qr_scan"}, "type": "electric_scooter", "lon": -77.0343, "name": "1db6ae880999ea6bd5b99950dc446f7d", "bike_id": "1db6ae880999ea6bd5b99950dc446f7d", "fusion_lat": 0.0, "is_reserved": 0, "lat": 38.905668666666664, "fusion_lon": 0.0, "is_disabled": 0}, {"rental_uris": {"android": "https://dc.lft.to/lastmile_qr_scan", "ios": "https://dc.lft.to/lastmile_qr_scan"}, "type": "electric_scooter", "lon": -77.0455025, "name": "bedc3545968314b4ef7857f0450e077e", "bike_id": "bedc3545968314b4ef7857f0450e077e", "fusion_lat": 0.0, "is_reserved": 0, "lat": 38.90850283333333, "fusion_lon": 0.0, "is_disabled": 0}, {"rental_uris": {"android": "https://dc.lft.to/lastmile_qr_scan", "ios": "https://dc.lft.to/lastmile_qr_scan"}, "type": "electric_bike", "lon": -77.12954016666667, "name": "7273b5e39d3a78320cfd384b95bf8702", "bike_id": "7273b5e39d3a78320cfd384b95bf8702", "fusion_lat": 0.0, "is_reserved": 0, "lat": 38.85216033333333, "fusion_lon": 0.0, "is_disabled": 0}, {"rental_uris": {"android": "https://dc.lft.to/lastmile_qr_scan", "ios": "https://dc.lft.to/lastmile_qr_scan"}, "type": "electric_scooter", "lon": -77.02602616666667, "name": "a57e41948e92a1e4e597daca6fecc51b", "bike_id": "a57e41948e92a1e4e597daca6fecc51b", "fusion_lat": 0.0, "is_reserved": 0, "lat": 38.91632833333333, "fusion_lon": 0.0, "is_disabled": 0}, {"rental_uris": {"android": "https://dc.lft.to/lastmile_qr_scan", "ios": "https://dc.lft.to/lastmile_qr_scan"}, "type": "electric_scooter", "lon": -77.02719566666667, "name": "bf0a5ee275c7bc689c9bb8e56a6746f0", "bike_id": "bf0a5ee275c7bc689c9bb8e56a6746f0", "fusion_lat": 0.0, "is_reserved": 0, "lat": 38.92246733333333, "fusion_lon": 0.0, "is_disabled": 0}, {"rental_uris": {"android": "https://dc.lft.to/lastmile_qr_scan", "ios": "https://dc.lft.to/lastmile_qr_scan"}, "type": "electric_scooter", "lon": -77.00586766666666, "name": "1bc55ae4b6d796d24e44dc01c6ff467a", "bike_id": "1bc55ae4b6d796d24e44dc01c6ff467a", "fusion_lat": 0.0, "is_reserved": 0, "lat": 38.9056995, "fusion_lon": 0.0, "is_disabled": 0}, {"rental_uris": {"android": "https://dc.lft.to/lastmile_qr_scan", "ios": "https://dc.lft.to/lastmile_qr_scan"}, "type": "electric_scooter", "lon": -77.00929383333333, "name": "32a930a5469aa045baaf9a7a51642b27", "bike_id": "32a930a5469aa045baaf9a7a51642b27", "fusion_lat": 0.0, "is_reserved": 0, "lat": 38.912540166666666, "fusion_lon": 0.0, "is_disabled": 0}, {"rental_uris": {"android": "https://dc.lft.to/lastmile_qr_scan", "ios": "https://dc.lft.to/lastmile_qr_scan"}, "type": "electric_bike", "lon": -76.93231066666667, "name": "370949e3d6c716eff12f774ce5135b4c", "bike_id": "370949e3d6c716eff12f774ce5135b4c", "fusion_lat": 0.0, "is_reserved": 0, "lat": 38.86595283333333, "fusion_lon": 0.0, "is_disabled": 0}, {"rental_uris": {"android": "https://dc.lft.to/lastmile_qr_scan", "ios": "https://dc.lft.to/lastmile_qr_scan"}, "type": "electric_scooter", "lon": -77.073289, "name": "0d9765c6488d3cd299f830b0ce2d3b02", "bike_id": "0d9765c6488d3cd299f830b0ce2d3b02", "fusion_lat": 0.0, "is_reserved": 0, "lat": 38.9335665, "fusion_lon": 0.0, "is_disabled": 0}, {"rental_uris": {"android": "https://dc.lft.to/lastmile_qr_scan", "ios": "https://dc.lft.to/lastmile_qr_scan"}, "type": "electric_scooter", "lon": -77.0345375, "name": "73f951ab887aa0929d862a50277c4b38", "bike_id": "73f951ab887aa0929d862a50277c4b38", "fusion_lat": 0.0, "is_reserved": 0, "lat": 38.9308885, "fusion_lon": 0.0, "is_disabled": 0}, {"rental_uris": {"android": "https://dc.lft.to/lastmile_qr_scan", "ios": "https://dc.lft.to/lastmile_qr_scan"}, "type": "electric_bike", "lon": -77.01106333333334, "name": "7decf2c9138eca276a763aa056ee57e8", "bike_id": "7decf2c9138eca276a763aa056ee57e8", "fusion_lat": 0.0, "is_reserved": 0, "lat": 38.96305266666667, "fusion_lon": 0.0, "is_disabled": 0}, {"rental_uris": {"android": "https://dc.lft.to/lastmile_qr_scan", "ios": "https://dc.lft.to/lastmile_qr_scan"}, "type": "electric_scooter", "lon": -77.04991816666667, "name": "280ccefc5af2d4c5ed0e3c1ff558788b", "bike_id": "280ccefc5af2d4c5ed0e3c1ff558788b", "fusion_lat": 0.0, "is_reserved": 0, "lat": 38.905142, "fusion_lon": 0.0, "is_disabled": 0}, {"rental_uris": {"android": "https://dc.lft.to/lastmile_qr_scan", "ios": "https://dc.lft.to/lastmile_qr_scan"}, "type": "electric_scooter", "lon": -77.04163733333333, "name": "b1863605fdd86ab5f089ae6071a87c6e", "bike_id": "b1863605fdd86ab5f089ae6071a87c6e", "fusion_lat": 0.0, "is_reserved": 0, "lat": 38.910224666666664, "fusion_lon": 0.0, "is_disabled": 0}, {"rental_uris": {"android": "https://dc.lft.to/lastmile_qr_scan", "ios": "https://dc.lft.to/lastmile_qr_scan"}, "type": "electric_scooter", "lon": -77.03632666666667, "name": "0c4eeddf17d33a42230421f0ef7f43fb", "bike_id": "0c4eeddf17d33a42230421f0ef7f43fb", "fusion_lat": 0.0, "is_reserved": 0, "lat": 38.9130575, "fusion_lon": 0.0, "is_disabled": 0}, {"rental_uris": {"android": "https://dc.lft.to/lastmile_qr_scan", "ios": "https://dc.lft.to/lastmile_qr_scan"}, "type": "electric_scooter", "lon": -77.07102316666666, "name": "90b5cccf72d02a0233553dd73493a885", "bike_id": "90b5cccf72d02a0233553dd73493a885", "fusion_lat": 0.0, "is_reserved": 0, "lat": 38.919749, "fusion_lon": 0.0, "is_disabled": 0}, {"rental_uris": {"android": "https://dc.lft.to/lastmile_qr_scan", "ios": "https://dc.lft.to/lastmile_qr_scan"}, "type": "electric_scooter", "lon": -76.98691233333334, "name": "b7814399e5c22b9c2d3299422771d3e0", "bike_id": "b7814399e5c22b9c2d3299422771d3e0", "fusion_lat": 0.0, "is_reserved": 0, "lat": 38.904894, "fusion_lon": 0.0, "is_disabled": 0}, {"rental_uris": {"android": "https://dc.lft.to/lastmile_qr_scan", "ios": "https://dc.lft.to/lastmile_qr_scan"}, "type": "electric_scooter", "lon": -76.97328266666666, "name": "ba778823547755dba1224be53a1dc614", "bike_id": "ba778823547755dba1224be53a1dc614", "fusion_lat": 0.0, "is_reserved": 0, "lat": 38.9048075, "fusion_lon": 0.0, "is_disabled": 0}, {"rental_uris": {"android": "https://dc.lft.to/lastmile_qr_scan", "ios": "https://dc.lft.to/lastmile_qr_scan"}, "type": "electric_scooter", "lon": -77.04497116666667, "name": "c531b456973e4774d56d7e7cb323db81", "bike_id": "c531b456973e4774d56d7e7cb323db81", "fusion_lat": 0.0, "is_reserved": 0, "lat": 38.896454166666665, "fusion_lon": 0.0, "is_disabled": 0}, {"rental_uris": {"android": "https://dc.lft.to/lastmile_qr_scan", "ios": "https://dc.lft.to/lastmile_qr_scan"}, "type": "electric_scooter", "lon": -77.07104916666667, "name": "83c2f635c7023a759ba1498ed76cbb2b", "bike_id": "83c2f635c7023a759ba1498ed76cbb2b", "fusion_lat": 0.0, "is_reserved": 0, "lat": 38.91411433333333, "fusion_lon": 0.0, "is_disabled": 0}, {"rental_uris": {"android": "https://dc.lft.to/lastmile_qr_scan", "ios": "https://dc.lft.to/lastmile_qr_scan"}, "type": "electric_scooter", "lon": -77.04875933333334, "name": "f56a522436e79a3266d4067227892162", "bike_id": "f56a522436e79a3266d4067227892162", "fusion_lat": 0.0, "is_reserved": 0, "lat": 38.89292666666667, "fusion_lon": 0.0, "is_disabled": 0}, {"rental_uris": {"android": "https://dc.lft.to/lastmile_qr_scan", "ios": "https://dc.lft.to/lastmile_qr_scan"}, "type": "electric_scooter", "lon": -77.02411333333333, "name": "3fdf688bacf7919b9256b3182745329b", "bike_id": "3fdf688bacf7919b9256b3182745329b", "fusion_lat": 0.0, "is_reserved": 0, "lat": 38.9019665, "fusion_lon": 0.0, "is_disabled": 0}, {"rental_uris": {"android": "https://dc.lft.to/lastmile_qr_scan", "ios": "https://dc.lft.to/lastmile_qr_scan"}, "type": "electric_scooter", "lon": -77.0448585, "name": "6a56caac016d75c1093170f75062abae", "bike_id": "6a56caac016d75c1093170f75062abae", "fusion_lat": 0.0, "is_reserved": 0, "lat": 38.9034535, "fusion_lon": 0.0, "is_disabled": 0}, {"rental_uris": {"android": "https://dc.lft.to/lastmile_qr_scan", "ios": "https://dc.lft.to/lastmile_qr_scan"}, "type": "electric_scooter", "lon": -76.97905466666667, "name": "40b94427bc173b7df96763933526716b", "bike_id": "40b94427bc173b7df96763933526716b", "fusion_lat": 0.0, "is_reserved": 0, "lat": 38.894296833333335, "fusion_lon": 0.0, "is_disabled": 0}, {"rental_uris": {"android": "https://dc.lft.to/lastmile_qr_scan", "ios": "https://dc.lft.to/lastmile_qr_scan"}, "type": "electric_scooter", "lon": -76.97714316666666, "name": "a199cfbcec43715c69b7d8b662d97c20", "bike_id": "a199cfbcec43715c69b7d8b662d97c20", "fusion_lat": 0.0, "is_reserved": 0, "lat": 38.90027533333333, "fusion_lon": 0.0, "is_disabled": 0}, {"rental_uris": {"android": "https://dc.lft.to/lastmile_qr_scan", "ios": "https://dc.lft.to/lastmile_qr_scan"}, "type": "electric_scooter", "lon": -76.98532483333334, "name": "7168b2a66efa2ceb6f48e8caf0b13d52", "bike_id": "7168b2a66efa2ceb6f48e8caf0b13d52", "fusion_lat": 0.0, "is_reserved": 0, "lat": 38.85852166666667, "fusion_lon": 0.0, "is_disabled": 0}, {"rental_uris": {"android": "https://dc.lft.to/lastmile_qr_scan", "ios": "https://dc.lft.to/lastmile_qr_scan"}, "type": "electric_scooter", "lon": -77.02661833333333, "name": "98587799d1cebe68cc9643933664433c", "bike_id": "98587799d1cebe68cc9643933664433c", "fusion_lat": 0.0, "is_reserved": 0, "lat": 38.90251216666667, "fusion_lon": 0.0, "is_disabled": 0}, {"rental_uris": {"android": "https://dc.lft.to/lastmile_qr_scan", "ios": "https://dc.lft.to/lastmile_qr_scan"}, "type": "electric_scooter", "lon": -77.00189283333333, "name": "fce50cffda05466cdf0cd389025fddd4", "bike_id": "fce50cffda05466cdf0cd389025fddd4", "fusion_lat": 0.0, "is_reserved": 0, "lat": 38.87828016666667, "fusion_lon": 0.0, "is_disabled": 0}, {"rental_uris": {"android": "https://dc.lft.to/lastmile_qr_scan", "ios": "https://dc.lft.to/lastmile_qr_scan"}, "type": "electric_scooter", "lon": -77.02124183333333, "name": "7d1698d183492a4a150b31250a2e23f9", "bike_id": "7d1698d183492a4a150b31250a2e23f9", "fusion_lat": 0.0, "is_reserved": 0, "lat": 38.89476233333333, "fusion_lon": 0.0, "is_disabled": 0}, {"rental_uris": {"android": "https://dc.lft.to/lastmile_qr_scan", "ios": "https://dc.lft.to/lastmile_qr_scan"}, "type": "electric_scooter", "lon": -77.01397533333333, "name": "444fac6971fdd59015d2866bdf2f638e", "bike_id": "444fac6971fdd59015d2866bdf2f638e", "fusion_lat": 0.0, "is_reserved": 0, "lat": 38.880261, "fusion_lon": 0.0, "is_disabled": 0}, {"rental_uris": {"android": "https://dc.lft.to/lastmile_qr_scan", "ios": "https://dc.lft.to/lastmile_qr_scan"}, "type": "electric_bike", "lon": -77.10680516666666, "name": "cd701db2f66b37756e60ea2d3e0293b6", "bike_id": "cd701db2f66b37756e60ea2d3e0293b6", "fusion_lat": 0.0, "is_reserved": 0, "lat": 38.9358065, "fusion_lon": 0.0, "is_disabled": 0}, {"rental_uris": {"android": "https://dc.lft.to/lastmile_qr_scan", "ios": "https://dc.lft.to/lastmile_qr_scan"}, "type": "electric_scooter", "lon": -77.042208, "name": "c6817139dc3e3a8e548b665b8602199c", "bike_id": "c6817139dc3e3a8e548b665b8602199c", "fusion_lat": 0.0, "is_reserved": 0, "lat": 38.91697583333333, "fusion_lon": 0.0, "is_disabled": 0}, {"rental_uris": {"android": "https://dc.lft.to/lastmile_qr_scan", "ios": "https://dc.lft.to/lastmile_qr_scan"}, "type": "electric_bike", "lon": -76.97252283333333, "name": "64eccafb68ca64ff3bb87ee3740e24ad", "bike_id": "64eccafb68ca64ff3bb87ee3740e24ad", "fusion_lat": 0.0, "is_reserved": 0, "lat": 38.957427, "fusion_lon": 0.0, "is_disabled": 0}, {"rental_uris": {"android": "https://dc.lft.to/lastmile_qr_scan", "ios": "https://dc.lft.to/lastmile_qr_scan"}, "type": "electric_scooter", "lon": -76.98221466666666, "name": "a9afc403a848f0b9fd66487c5b55b809", "bike_id": "a9afc403a848f0b9fd66487c5b55b809", "fusion_lat": 0.0, "is_reserved": 0, "lat": 38.901796166666664, "fusion_lon": 0.0, "is_disabled": 0}, {"rental_uris": {"android": "https://dc.lft.to/lastmile_qr_scan", "ios": "https://dc.lft.to/lastmile_qr_scan"}, "type": "electric_scooter", "lon": -77.03715083333333, "name": "f8c2cb73f79a5013c3b5909134b25a94", "bike_id": "f8c2cb73f79a5013c3b5909134b25a94", "fusion_lat": 0.0, "is_reserved": 0, "lat": 38.915510833333336, "fusion_lon": 0.0, "is_disabled": 0}, {"rental_uris": {"android": "https://dc.lft.to/lastmile_qr_scan", "ios": "https://dc.lft.to/lastmile_qr_scan"}, "type": "electric_scooter", "lon": -77.02614116666666, "name": "0b10a61f3af6ac7a4993049a87cfdbc5", "bike_id": "0b10a61f3af6ac7a4993049a87cfdbc5", "fusion_lat": 0.0, "is_reserved": 0, "lat": 38.9191575, "fusion_lon": 0.0, "is_disabled": 0}, {"rental_uris": {"android": "https://dc.lft.to/lastmile_qr_scan", "ios": "https://dc.lft.to/lastmile_qr_scan"}, "type": "electric_scooter", "lon": -77.06392183333334, "name": "7024be1dbd4a4ed738586b6552cde989", "bike_id": "7024be1dbd4a4ed738586b6552cde989", "fusion_lat": 0.0, "is_reserved": 0, "lat": 38.944184666666665, "fusion_lon": 0.0, "is_disabled": 0}, {"rental_uris": {"android": "https://dc.lft.to/lastmile_qr_scan", "ios": "https://dc.lft.to/lastmile_qr_scan"}, "type": "electric_bike", "lon": -76.96088466666667, "name": "45dabd57f4e2002d2ae6bfe81243b8a3", "bike_id": "45dabd57f4e2002d2ae6bfe81243b8a3", "fusion_lat": 0.0, "is_reserved": 0, "lat": 38.91852566666667, "fusion_lon": 0.0, "is_disabled": 0}, {"rental_uris": {"android": "https://dc.lft.to/lastmile_qr_scan", "ios": "https://dc.lft.to/lastmile_qr_scan"},