{"data": {"bikes": [{"bike_id": "04ac6ef4a8987192d5d9ca9aeee436e0", "is_reserved": 0, "name": "04ac6ef4a8987192d5d9ca9aeee436e0", "lat": 38.90602333333333, "fusion_lat": 0.0, "lon": -77.07625416666667, "is_disabled": 0, "fusion_lon": 0.0, "rental_uris": {"android": "https://dc.lft.to/lastmile_qr_scan", "ios": "https://dc.lft.to/lastmile_qr_scan"}, "type": "electric_bike"}, {"bike_id": "74ec3d12a26dc10935dca233030f5e3c", "is_reserved": 0, "name": "74ec3d12a26dc10935dca233030f5e3c", "lat": 38.954004, "fusion_lat": 0.0, "lon": -77.02795, "is_disabled": 0, "fusion_lon": 0.0, "rental_uris": {"android": "https://dc.lft.to/lastmile_qr_scan", "ios": "https://dc.lft.to/lastmile_qr_scan"}, "type": "electric_scooter"}, {"bike_id": "24f0483a6ff0496e11821fb18fd35174", "is_reserved": 0, "name": "24f0483a6ff0496e11821fb18fd35174", "lat": 38.876541, "fusion_lat": 0.0, "lon": -77.00070366666667, "is_disabled": 0, "fusion_lon": 0.0, "rental_uris": {"android": "https://dc.lft.to/lastmile_qr_scan", "ios": "https://dc.lft.to/lastmile_qr_scan"}, "type": "electric_scooter"}, {"bike_id": "171c2d022b76abc425a67b989685eee3", "is_reserved": 0, "name": "171c2d022b76abc425a67b989685eee3", "lat": 38.87489516666667, "fusion_lat": 0.0, "lon": -77.00284183333333, "is_disabled": 0, "fusion_lon": 0.0, "rental_uris": {"android": "https://dc.lft.to/lastmile_qr_scan", "ios": "https://dc.lft.to/lastmile_qr_scan"}, "type": "electric_scooter"}, {"bike_id": "936db35dc96001ec4130c2676ea79bfd", "is_reserved": 0, "name": "936db35dc96001ec4130c2676ea79bfd", "lat": 38.866646333333335, "fusion_lat": 0.0, "lon": -76.9890605, "is_disabled": 0, "fusion_lon": 0.0, "rental_uris": {"android": "https://dc.lft.to/lastmile_qr_scan", "ios": "https://dc.lft.to/lastmile_qr_scan"}, "type": "electric_scooter"}, {"bike_id": "e22a0b8b72f95abe01349974b08918bb", "is_reserved": 0, "name": "e22a0b8b72f95abe01349974b08918bb", "lat": 38.92464433333333, "fusion_lat": 0.0, "lon": -77.05236166666667, "is_disabled": 0, "fusion_lon": 0.0, "rental_uris": {"android": "https://dc.lft.to/lastmile_qr_scan", "ios": "https://dc.lft.to/lastmile_qr_scan"}, "type": "electric_scooter"}, {"bike_id": "5c7174f9b7876c6a68a87cd1ba4ff2a1", "is_reserved": 0, "name": "5c7174f9b7876c6a68a87cd1ba4ff2a1", "lat": 38.91686333333333, "fusion_lat": 0.0, "lon": -77.0295705, "is_disabled": 0, "fusion_lon": 0.0, "rental_uris": {"android": "https://dc.lft.to/lastmile_qr_scan", "ios": "https://dc.lft.to/lastmile_qr_scan"}, "type": "electric_scooter"}, {"bike_id": "36df599bf887e63286739fae64d3d9ee", "is_reserved": 0, "name": "36df599bf887e63286739fae64d3d9ee", "lat": 38.88732783333333, "fusion_lat": 0.0, "lon": -77.03182666666666, "is_disabled": 0, "fusion_lon": 0.0, "rental_uris": {"android": "https://dc.lft.to/lastmile_qr_scan", "ios": "https://dc.lft.to/lastmile_qr_scan"}, "type": "electric_scooter"}, {"bike_id": "206d19e3a877de1fed1ee19e792c28e5", "is_reserved": 0, "name": "206d19e3a877de1fed1ee19e792c28e5", "lat": 38.93179883333333, "fusion_lat": 0.0, "lon": -77.03152883333334, "is_disabled": 0, "fusion_lon": 0.0, "rental_uris": {"android": "https://dc.lft.to/lastmile_qr_scan", "ios": "https://dc.lft.to/lastmile_qr_scan"}, "type": "electric_scooter"}, {"bike_id": "83f2d6200b039de138f9af1541f06574", "is_reserved": 0, "name": "83f2d6200b039de138f9af1541f06574", "lat": 38.909487, "fusion_lat": 0.0, "lon": -77.02714, "is_disabled": 0, "fusion_lon": 0.0, "rental_uris": {"android": "https://dc.lft.to/lastmile_qr_scan", "ios": "https://dc.lft.to/lastmile_qr_scan"}, "type": "electric_scooter"}, {"bike_id": "d525ea1d653993eb3e390f60221ea295", "is_reserved": 0, "name": "d525ea1d653993eb3e390f60221ea295", "lat": 38.918015, "fusion_lat": 0.0, "lon": -77.03185033333334, "is_disabled": 0, "fusion_lon": 0.0, "rental_uris": {"android": "https://dc.lft.to/lastmile_qr_scan", "ios": "https://dc.lft.to/lastmile_qr_scan"}, "type": "electric_scooter"}, {"bike_id": "01b126ddccf01c758e3dc127f7134b0b", "is_reserved": 0, "name": "01b126ddccf01c758e3dc127f7134b0b", "lat": 38.92063066666667, "fusion_lat": 0.0, "lon": -77.03808216666667, "is_disabled": 0, "fusion_lon": 0.0, "rental_uris": {"android": "https://dc.lft.to/lastmile_qr_scan", "ios": "https://dc.lft.to/lastmile_qr_scan"}, "type": "electric_scooter"}, {"bike_id": "3e6b33a41ae4412e339a3f06ec9c7b63", "is_reserved": 0, "name": "3e6b33a41ae4412e339a3f06ec9c7b63", "lat": 38.92720716666667, "fusion_lat": 0.0, "lon": -77.02982933333334, "is_disabled": 0, "fusion_lon": 0.0, "rental_uris": {"android": "https://dc.lft.to/lastmile_qr_scan", "ios": "https://dc.lft.to/lastmile_qr_scan"}, "type": "electric_scooter"}, {"bike_id": "a90eca4bc9183b548d5b849337f03dae", "is_reserved": 0, "name": "a90eca4bc9183b548d5b849337f03dae", "lat": 38.91729266666667, "fusion_lat": 0.0, "lon": -77.018893, "is_disabled": 0, "fusion_lon": 0.0, "rental_uris": {"android": "https://dc.lft.to/lastmile_qr_scan", "ios": "https://dc.lft.to/lastmile_qr_scan"}, "type": "electric_scooter"}, {"bike_id": "90c035a870c87df3337bd2ea89fb27d8", "is_reserved": 0, "name": "90c035a870c87df3337bd2ea89fb27d8", "lat": 38.928293333333336, "fusion_lat": 0.0, "lon": -77.01412766666667, "is_disabled": 0, "fusion_lon": 0.0, "rental_uris": {"android": "https://dc.lft.to/lastmile_qr_scan", "ios": "https://dc.lft.to/lastmile_qr_scan"}, "type": "electric_scooter"}, {"bike_id": "8d4c12f8f882e6d79bebe0d01c7658f2", "is_reserved": 0, "name": "8d4c12f8f882e6d79bebe0d01c7658f2", "lat": 38.916972333333334, "fusion_lat": 0.0, "lon": -77.02646083333333, "is_disabled": 0, "fusion_lon": 0.0, "rental_uris": {"android": "https://dc.lft.to/lastmile_qr_scan", "ios": "https://dc.lft.to/lastmile_qr_scan"}, "type": "electric_scooter"}, {"bike_id": "5f54c09c51788d8277abf6f5bae6c7dd", "is_reserved": 0, "name": "5f54c09c51788d8277abf6f5bae6c7dd", "lat": 38.86019916666667, "fusion_lat": 0.0, "lon": -77.128101, "is_disabled": 0, "fusion_lon": 0.0, "rental_uris": {"android": "https://dc.lft.to/lastmile_qr_scan", "ios": "https://dc.lft.to/lastmile_qr_scan"}, "type": "electric_bike"}, {"bike_id": "dbe3e92ecfd9f4da6267f59c8255e7c3", "is_reserved": 0, "name": "dbe3e92ecfd9f4da6267f59c8255e7c3", "lat": 38.91483483333333, "fusion_lat": 0.0, "lon": -77.0461015, "is_disabled": 0, "fusion_lon": 0.0, "rental_uris": {"android": "https://dc.lft.to/lastmile_qr_scan", "ios": "https://dc.lft.to/lastmile_qr_scan"}, "type": "electric_scooter"}, {"bike_id": "ea067eaeda20d25e79300bc4b1cdec9c", "is_reserved": 0, "name": "ea067eaeda20d25e79300bc4b1cdec9c", "lat": 38.91723483333333, "fusion_lat": 0.0, "lon": -77.0229765, "is_disabled": 0, "fusion_lon": 0.0, "rental_uris": {"android": "https://dc.lft.to/lastmile_qr_scan", "ios": "https://dc.lft.to/lastmile_qr_scan"}, "type": "electric_scooter"}, {"bike_id": "f14fb7d1e058fa8d20c9970951ee88e5", "is_reserved": 0, "name": "f14fb7d1e058fa8d20c9970951ee88e5", "lat": 38.883699666666665, "fusion_lat": 0.0, "lon": -76.99518466666666, "is_disabled": 0, "fusion_lon": 0.0, "rental_uris": {"android": "https://dc.lft.to/lastmile_qr_scan", "ios": "https://dc.lft.to/lastmile_qr_scan"}, "type": "electric_scooter"}, {"bike_id": "0a0611c922c02719e7834306a117f318", "is_reserved": 0, "name": "0a0611c922c02719e7834306a117f318", "lat": 38.909495, "fusion_lat": 0.0, "lon": -77.027172, "is_disabled": 0, "fusion_lon": 0.0, "rental_uris": {"android": "https://dc.lft.to/lastmile_qr_scan", "ios": "https://dc.lft.to/lastmile_qr_scan"}, "type": "electric_scooter"}, {"bike_id": "d519027cb110b7493be56fccf396aaba", "is_reserved": 0, "name": "d519027cb110b7493be56fccf396aaba", "lat": 38.9500245, "fusion_lat": 0.0, "lon": -77.08051533333334, "is_disabled": 0, "fusion_lon": 0.0, "rental_uris": {"android": "https://dc.lft.to/lastmile_qr_scan", "ios": "https://dc.lft.to/lastmile_qr_scan"}, "type": "electric_scooter"}, {"bike_id": "33fa7bea76f6400a3b357896b4e47574", "is_reserved": 0, "name": "33fa7bea76f6400a3b357896b4e47574", "lat": 38.893542333333336, "fusion_lat": 0.0, "lon": -77.003334, "is_disabled": 0, "fusion_lon": 0.0, "rental_uris": {"android": "https://dc.lft.to/lastmile_qr_scan", "ios": "https://dc.lft.to/lastmile_qr_scan"}, "type": "electric_scooter"}, {"bike_id": "a0231a5579be9d8d8dea133fb41b9d4b", "is_reserved": 0, "name": "a0231a5579be9d8d8dea133fb41b9d4b", "lat": 38.90014683333333, "fusion_lat": 0.0, "lon": -77.04142766666666, "is_disabled": 0, "fusion_lon": 0.0, "rental_uris": {"android": "https://dc.lft.to/lastmile_qr_scan", "ios": "https://dc.lft.to/lastmile_qr_scan"}, "type": "electric_scooter"}, {"bike_id": "91be5405d6a216c58cdf62d23056cb36", "is_reserved": 0, "name": "91be5405d6a216c58cdf62d23056cb36", "lat": 38.921891333333335, "fusion_lat": 0.0, "lon": -77.0397925, "is_disabled": 0, "fusion_lon": 0.0, "rental_uris": {"android": "https://dc.lft.to/lastmile_qr_scan", "ios": "https://dc.lft.to/lastmile_qr_scan"}, "type": "electric_scooter"}, {"bike_id": "727b256a71ae1f0a5502ed287861fb65", "is_reserved": 0, "name": "727b256a71ae1f0a5502ed287861fb65", "lat": 38.905537333333335, "fusion_lat": 0.0, "lon": -76.99463483333334, "is_disabled": 0, "fusion_lon": 0.0, "rental_uris": {"android": "https://dc.lft.to/lastmile_qr_scan", "ios": "https://dc.lft.to/lastmile_qr_scan"}, "type": "electric_scooter"}, {"bike_id": "2b3c67098af90b24a9877cb1fe37200e", "is_reserved": 0, "name": "2b3c67098af90b24a9877cb1fe37200e", "lat": 38.89220016666667, "fusion_lat": 0.0, "lon": -77.02657066666667, "is_disabled": 0, "fusion_lon": 0.0, "rental_uris": {"android": "https://dc.lft.to/lastmile_qr_scan", "ios": "https://dc.lft.to/lastmile_qr_scan"}, "type": "electric_scooter"}, {"bike_id": "e831a8314c96326016919109cfdd2844", "is_reserved": 0, "name": "e831a8314c96326016919109cfdd2844", "lat": 38.9186645, "fusion_lat": 0.0, "lon": -77.0365045, "is_disabled": 0, "fusion_lon": 0.0, "rental_uris": {"android": "https://dc.lft.to/lastmile_qr_scan", "ios": "https://dc.lft.to/lastmile_qr_scan"}, "type": "electric_scooter"}, {"bike_id": "498295baa69917286dca040a538ac55b", "is_reserved": 0, "name": "498295baa69917286dca040a538ac55b", "lat": 38.90871166666667, "fusion_lat": 0.0, "lon": -77.0318865, "is_disabled": 0, "fusion_lon": 0.0, "rental_uris": {"android": "https://dc.lft.to/lastmile_qr_scan", "ios": "https://dc.lft.to/lastmile_qr_scan"}, "type": "electric_scooter"}, {"bike_id": "c1dbbe20395fd252cf23d0570c99bdb0", "is_reserved": 0, "name": "c1dbbe20395fd252cf23d0570c99bdb0", "lat": 38.926947166666665, "fusion_lat": 0.0, "lon": -77.02126716666666, "is_disabled": 0, "fusion_lon": 0.0, "rental_uris": {"android": "https://dc.lft.to/lastmile_qr_scan", "ios": "https://dc.lft.to/lastmile_qr_scan"}, "type": "electric_scooter"}, {"bike_id": "55b5a9861310d47d8b21b4023c0c9d0d", "is_reserved": 0, "name": "55b5a9861310d47d8b21b4023c0c9d0d", "lat": 38.896108166666664, "fusion_lat": 0.0, "lon": -77.00562283333333, "is_disabled": 0, "fusion_lon": 0.0, "rental_uris": {"android": "https://dc.lft.to/lastmile_qr_scan", "ios": "https://dc.lft.to/lastmile_qr_scan"}, "type": "electric_scooter"}, {"bike_id": "14f208782aa5a4b45be41df0b6659b19", "is_reserved": 0, "name": "14f208782aa5a4b45be41df0b6659b19", "lat": 38.90371066666667, "fusion_lat": 0.0, "lon": -77.00987133333334, "is_disabled": 0, "fusion_lon": 0.0, "rental_uris": {"android": "https://dc.lft.to/lastmile_qr_scan", "ios": "https://dc.lft.to/lastmile_qr_scan"}, "type": "electric_scooter"}, {"bike_id": "4fa42468bc8887464676f1e3ed5e01b6", "is_reserved": 0, "name": "4fa42468bc8887464676f1e3ed5e01b6", "lat": 38.921307166666665, "fusion_lat": 0.0, "lon": -77.0255305, "is_disabled": 0, "fusion_lon": 0.0, "rental_uris": {"android": "https://dc.lft.to/lastmile_qr_scan", "ios": "https://dc.lft.to/lastmile_qr_scan"}, "type": "electric_scooter"}, {"bike_id": "00a5a079d55220500925f3e341f76a3c", "is_reserved": 0, "name": "00a5a079d55220500925f3e341f76a3c", "lat": 38.878267, "fusion_lat": 0.0, "lon": -77.00629183333334, "is_disabled": 0, "fusion_lon": 0.0, "rental_uris": {"android": "https://dc.lft.to/lastmile_qr_scan", "ios": "https://dc.lft.to/lastmile_qr_scan"}, "type": "electric_scooter"}, {"bike_id": "b072b33c8b5b71b986905e9324a8cea6", "is_reserved": 0, "name": "b072b33c8b5b71b986905e9324a8cea6", "lat": 38.89617283333333, "fusion_lat": 0.0, "lon": -76.9856855, "is_disabled": 0, "fusion_lon": 0.0, "rental_uris": {"android": "https://dc.lft.to/lastmile_qr_scan", "ios": "https://dc.lft.to/lastmile_qr_scan"}, "type": "electric_scooter"}, {"bike_id": "8f270f9f2854a0c7947beaf1b54f851b", "is_reserved": 0, "name": "8f270f9f2854a0c7947beaf1b54f851b", "lat": 38.928753, "fusion_lat": 0.0, "lon": -77.03350966666666, "is_disabled": 0, "fusion_lon": 0.0, "rental_uris": {"android": "https://dc.lft.to/lastmile_qr_scan", "ios": "https://dc.lft.to/lastmile_qr_scan"}, "type": "electric_scooter"}, {"bike_id": "b21d9f4f1aca75619612dda474e42e61", "is_reserved": 0, "name": "b21d9f4f1aca75619612dda474e42e61", "lat": 38.956322166666666, "fusion_lat": 0.0, "lon": -77.00995633333334, "is_disabled": 0, "fusion_lon": 0.0, "rental_uris": {"android": "https://dc.lft.to/lastmile_qr_scan", "ios": "https://dc.lft.to/lastmile_qr_scan"}, "type": "electric_scooter"}, {"bike_id": "8b6a00600e07aae93b2bc995b55d3438", "is_reserved": 0, "name": "8b6a00600e07aae93b2bc995b55d3438", "lat": 38.918058333333335, "fusion_lat": 0.0, "lon": -77.0249605, "is_disabled": 0, "fusion_lon": 0.0, "rental_uris": {"android": "https://dc.lft.to/lastmile_qr_scan", "ios": "https://dc.lft.to/lastmile_qr_scan"}, "type": "electric_scooter"}, {"bike_id": "d96a79a95307226f83ea6ec7bbc59954", "is_reserved": 0, "name": "d96a79a95307226f83ea6ec7bbc59954", "lat": 38.9304635, "fusion_lat": 0.0, "lon": -77.03228333333334, "is_disabled": 0, "fusion_lon": 0.0, "rental_uris": {"android": "https://dc.lft.to/lastmile_qr_scan", "ios": "https://dc.lft.to/lastmile_qr_scan"}, "type": "electric_scooter"}, {"bike_id": "2f2d3579b034a2563f028db29d5a0d23", "is_reserved": 0, "name": "2f2d3579b034a2563f028db29d5a0d23", "lat": 38.8705965, "fusion_lat": 0.0, "lon": -77.01356883333334, "is_disabled": 0, "fusion_lon": 0.0, "rental_uris": {"android": "https://dc.lft.to/lastmile_qr_scan", "ios": "https://dc.lft.to/lastmile_qr_scan"}, "type": "electric_bike"}, {"bike_id": "ce41642e4f9bdad57871e1986b1bcaa7", "is_reserved": 0, "name": "ce41642e4f9bdad57871e1986b1bcaa7", "lat": 38.92622883333333, "fusion_lat": 0.0, "lon": -77.041904, "is_disabled": 0, "fusion_lon": 0.0, "rental_uris": {"android": "https://dc.lft.to/lastmile_qr_scan", "ios": "https://dc.lft.to/lastmile_qr_scan"}, "type": "electric_scooter"}, {"bike_id": "65a082dc43f89b37f269c9880ceab0ae", "is_reserved": 0, "name": "65a082dc43f89b37f269c9880ceab0ae", "lat": 38.92606966666666, "fusion_lat": 0.0, "lon": -77.02397916666666, "is_disabled": 0, "fusion_lon": 0.0, "rental_uris": {"android": "https://dc.lft.to/lastmile_qr_scan", "ios": "https://dc.lft.to/lastmile_qr_scan"}, "type": "electric_scooter"}, {"bike_id": "18eabfd7b9329b7b22c46eef5ae9bad7", "is_reserved": 0, "name": "18eabfd7b9329b7b22c46eef5ae9bad7", "lat": 38.90569283333333, "fusion_lat": 0.0, "lon": -77.030666, "is_disabled": 0, "fusion_lon": 0.0, "rental_uris": {"android": "https://dc.lft.to/lastmile_qr_scan", "ios": "https://dc.lft.to/lastmile_qr_scan"}, "type": "electric_scooter"}, {"bike_id": "6f6f15315155ceddba6b40387ef38d18", "is_reserved": 0, "name": "6f6f15315155ceddba6b40387ef38d18", "lat": 38.902246166666664, "fusion_lat": 0.0, "lon": -77.01798483333333, "is_disabled": 0, "fusion_lon": 0.0, "rental_uris": {"android": "https://dc.lft.to/lastmile_qr_scan", "ios": "https://dc.lft.to/lastmile_qr_scan"}, "type": "electric_scooter"}, {"bike_id": "a751a60a1ef8f0e149650b0f018fa1eb", "is_reserved": 0, "name": "a751a60a1ef8f0e149650b0f018fa1eb", "lat": 38.90726433333333, "fusion_lat": 0.0, "lon": -77.04517383333334, "is_disabled": 0, "fusion_lon": 0.0, "rental_uris": {"android": "https://dc.lft.to/lastmile_qr_scan", "ios": "https://dc.lft.to/lastmile_qr_scan"}, "type": "electric_scooter"}, {"bike_id": "0f4d2304e54874731ddb40c06c2ff967", "is_reserved": 0, "name": "0f4d2304e54874731ddb40c06c2ff967", "lat": 38.900277833333334, "fusion_lat": 0.0, "lon": -76.99626733333334, "is_disabled": 0, "fusion_lon": 0.0, "rental_uris": {"android": "https://dc.lft.to/lastmile_qr_scan", "ios": "https://dc.lft.to/lastmile_qr_scan"}, "type": "electric_scooter"}, {"bike_id": "e2d8271440391e311da39f52988435ef", "is_reserved": 0, "name": "e2d8271440391e311da39f52988435ef", "lat": 38.94281133333333, "fusion_lat": 0.0, "lon": -77.02935033333333, "is_disabled": 0, "fusion_lon": 0.0, "rental_uris": {"android": "https://dc.lft.to/lastmile_qr_scan", "ios": "https://dc.lft.to/lastmile_qr_scan"}, "type": "electric_scooter"}, {"bike_id": "7e44cad5356993915c8946b9164a2aab", "is_reserved": 0, "name": "7e44cad5356993915c8946b9164a2aab", "lat": 38.92251566666667, "fusion_lat": 0.0, "lon": -77.0193645, "is_disabled": 0, "fusion_lon": 0.0, "rental_uris": {"android": "https://dc.lft.to/lastmile_qr_scan", "ios": "https://dc.lft.to/lastmile_qr_scan"}, "type": "electric_scooter"}, {"bike_id": "ac4b3559fb925da45d75854af51b0dbc", "is_reserved": 0, "name": "ac4b3559fb925da45d75854af51b0dbc", "lat": 38.90908, "fusion_lat": 0.0, "lon": -77.02705783333333, "is_disabled": 0, "fusion_lon": 0.0, "rental_uris": {"android": "https://dc.lft.to/lastmile_qr_scan", "ios": "https://dc.lft.to/lastmile_qr_scan"}, "type": "electric_scooter"}, {"bike_id": "8cba8c9ebc2ed9403d58f453dabeee5e", "is_reserved": 0, "name": "8cba8c9ebc2ed9403d58f453dabeee5e", "lat": 38.892417333333334, "fusion_lat": 0.0, "lon": -77.03184283333333, "is_disabled": 0, "fusion_lon": 0.0, "rental_uris": {"android": "https://dc.lft.to/lastmile_qr_scan", "ios": "https://dc.lft.to/lastmile_qr_scan"}, "type": "electric_scooter"}, {"bike_id": "0f4fe1abedb46d5ca5965d9b9cc44edc", "is_reserved": 0, "name": "0f4fe1abedb46d5ca5965d9b9cc44edc", "lat": 38.91094666666667, "fusion_lat": 0.0, "lon": -77.07352533333334, "is_disabled": 0, "fusion_lon": 0.0, "rental_uris": {"android": "https://dc.lft.to/lastmile_qr_scan", "ios": "https://dc.lft.to/lastmile_qr_scan"}, "type": "electric_scooter"}, {"bike_id": "ed5997b72a73c5a5a7ac385143ce4cdb", "is_reserved": 0, "name": "ed5997b72a73c5a5a7ac385143ce4cdb", "lat": 38.903746, "fusion_lat": 0.0, "lon": -77.00988, "is_disabled": 0, "fusion_lon": 0.0, "rental_uris": {"android": "https://dc.lft.to/lastmile_qr_scan", "ios": "https://dc.lft.to/lastmile_qr_scan"}, "type": "electric_scooter"}, {"bike_id": "30f1ff719082bdc9f9f90676765306a8", "is_reserved": 0, "name": "30f1ff719082bdc9f9f90676765306a8", "lat": 38.9007275, "fusion_lat": 0.0, "lon": -77.04756333333333, "is_disabled": 0, "fusion_lon": 0.0, "rental_uris": {"android": "https://dc.lft.to/lastmile_qr_scan", "ios": "https://dc.lft.to/lastmile_qr_scan"}, "type": "electric_scooter"}, {"bike_id": "2bda33580857c5dbecd9096817cd04bc", "is_reserved": 0, "name": "2bda33580857c5dbecd9096817cd04bc", "lat": 38.997774166666666, "fusion_lat": 0.0, "lon": -77.047198, "is_disabled": 0, "fusion_lon": 0.0, "rental_uris": {"android": "https://dc.lft.to/lastmile_qr_scan", "ios": "https://dc.lft.to/lastmile_qr_scan"}, "type": "electric_bike"}, {"bike_id": "28dad32d14652182df83e0ee164ac914", "is_reserved": 0, "name": "28dad32d14652182df83e0ee164ac914", "lat": 38.9256275, "fusion_lat": 0.0, "lon": -77.05265366666667, "is_disabled": 0, "fusion_lon": 0.0, "rental_uris": {"android": "https://dc.lft.to/lastmile_qr_scan", "ios": "https://dc.lft.to/lastmile_qr_scan"}, "type": "electric_scooter"}, {"bike_id": "07863b200c842b72c0f96486bd64e51e", "is_reserved": 0, "name": "07863b200c842b72c0f96486bd64e51e", "lat": 38.928905, "fusion_lat": 0.0, "lon": -77.03267016666666, "is_disabled": 0, "fusion_lon": 0.0, "rental_uris": {"android": "https://dc.lft.to/lastmile_qr_scan", "ios": "https://dc.lft.to/lastmile_qr_scan"}, "type": "electric_scooter"}, {"bike_id": "453e02fefe7f134e5b1990a9f8d86421", "is_reserved": 0, "name": "453e02fefe7f134e5b1990a9f8d86421", "lat": 38.868869, "fusion_lat": 0.0, "lon": -76.989994, "is_disabled": 0, "fusion_lon": 0.0, "rental_uris": {"android": "https://dc.lft.to/lastmile_qr_scan", "ios": "https://dc.lft.to/lastmile_qr_scan"}, "type": "electric_scooter"}, {"bike_id": "87d9f4296d165d79033efc400705af2d", "is_reserved": 0, "name": "87d9f4296d165d79033efc400705af2d", "lat": 38.943236166666665, "fusion_lat": 0.0, "lon": -77.061347, "is_disabled": 0, "fusion_lon": 0.0, "rental_uris": {"android": "https://dc.lft.to/lastmile_qr_scan", "ios": "https://dc.lft.to/lastmile_qr_scan"}, "type": "electric_scooter"}, {"bike_id": "4fdab4e1dcea43c915fdb6eb835d755e", "is_reserved": 0, "name": "4fdab4e1dcea43c915fdb6eb835d755e", "lat": 38.90240633333333, "fusion_lat": 0.0, "lon": -77.03262316666667, "is_disabled": 0, "fusion_lon": 0.0, "rental_uris": {"android": "https://dc.lft.to/lastmile_qr_scan", "ios": "https://dc.lft.to/lastmile_qr_scan"}, "type": "electric_scooter"}, {"bike_id": "373b3d95604ade0217552ae555d056e2", "is_reserved": 0, "name": "373b3d95604ade0217552ae555d056e2", "lat": 38.919099, "fusion_lat": 0.0, "lon": -77.02732333333333, "is_disabled": 0, "fusion_lon": 0.0, "rental_uris": {"android": "https://dc.lft.to/lastmile_qr_scan", "ios": "https://dc.lft.to/lastmile_qr_scan"}, "type": "electric_scooter"}, {"bike_id": "64f64c40f03ad0eaa07f23bc05d7a10d", "is_reserved": 0, "name": "64f64c40f03ad0eaa07f23bc05d7a10d", "lat": 38.87388416666667, "fusion_lat": 0.0, "lon": -77.000405, "is_disabled": 0, "fusion_lon": 0.0, "rental_uris": {"android": "https://dc.lft.to/lastmile_qr_scan", "ios": "https://dc.lft.to/lastmile_qr_scan"}, "type": "electric_scooter"}, {"bike_id": "0e62eeb58cc01b41e190a61cb8053e15", "is_reserved": 0, "name": "0e62eeb58cc01b41e190a61cb8053e15", "lat": 39.0342455, "fusion_lat": 0.0, "lon": -77.0429055, "is_disabled": 0, "fusion_lon": 0.0, "rental_uris": {"android": "https://dc.lft.to/lastmile_qr_scan", "ios": "https://dc.lft.to/lastmile_qr_scan"}, "type": "electric_bike"}, {"bike_id": "97f76e4f1c4e252d30d6ff19e8d5ddf8", "is_reserved": 0, "name": "97f76e4f1c4e252d30d6ff19e8d5ddf8", "lat": 38.874756, "fusion_lat": 0.0, "lon": -77.00599066666666, "is_disabled": 0, "fusion_lon": 0.0, "rental_uris": {"android": "https://dc.lft.to/lastmile_qr_scan", "ios": "https://dc.lft.to/lastmile_qr_scan"}, "type": "electric_scooter"}, {"bike_id": "495b655c74dd3c5f18235613c58ea95e", "is_reserved": 0, "name": "495b655c74dd3c5f18235613c58ea95e", "lat": 38.9268145, "fusion_lat": 0.0, "lon": -77.03144883333333, "is_disabled": 0, "fusion_lon": 0.0, "rental_uris": {"android": "https://dc.lft.to/lastmile_qr_scan", "ios": "https://dc.lft.to/lastmile_qr_scan"}, "type": "electric_scooter"}, {"bike_id": "0f22b561d9ce07506d0de0e049316f90", "is_reserved": 0, "name": "0f22b561d9ce07506d0de0e049316f90", "lat": 38.904874666666664, "fusion_lat": 0.0, "lon": -77.0384255, "is_disabled": 0, "fusion_lon": 0.0, "rental_uris": {"android": "https://dc.lft.to/lastmile_qr_scan", "ios": "https://dc.lft.to/lastmile_qr_scan"}, "type": "electric_scooter"}, {"bike_id": "bbf3212fbe04dfd07c018d1377697133", "is_reserved": 0, "name": "bbf3212fbe04dfd07c018d1377697133", "lat": 38.91756933333333, "fusion_lat": 0.0, "lon": -77.02274783333333, "is_disabled": 0, "fusion_lon": 0.0, "rental_uris": {"android": "https://dc.lft.to/lastmile_qr_scan", "ios": "https://dc.lft.to/lastmile_qr_scan"}, "type": "electric_scooter"}, {"bike_id": "7ac4baea17a897d93c86fead7086916b", "is_reserved": 0, "name": "7ac4baea17a897d93c86fead7086916b", "lat": 38.8918205, "fusion_lat": 0.0, "lon": -77.01593916666667, "is_disabled": 0, "fusion_lon": 0.0, "rental_uris": {"android": "https://dc.lft.to/lastmile_qr_scan", "ios": "https://dc.lft.to/lastmile_qr_scan"}, "type": "electric_scooter"}, {"bike_id": "f07d5241deba12106bf8074449df1fcb", "is_reserved": 0, "name": "f07d5241deba12106bf8074449df1fcb", "lat": 38.860595, "fusion_lat": 0.0, "lon": -76.96713316666667, "is_disabled": 0, "fusion_lon": 0.0, "rental_uris": {"android": "https://dc.lft.to/lastmile_qr_scan", "ios": "https://dc.lft.to/lastmile_qr_scan"}, "type": "electric_scooter"}, {"bike_id": "30ff7129c0b8a0be50e48dd617414c1a", "is_reserved": 0, "name": "30ff7129c0b8a0be50e48dd617414c1a", "lat": 38.92320983333333, "fusion_lat": 0.0, "lon": -77.04349183333333, "is_disabled": 0, "fusion_lon": 0.0, "rental_uris": {"android": "https://dc.lft.to/lastmile_qr_scan", "ios": "https://dc.lft.to/lastmile_qr_scan"}, "type": "electric_scooter"}, {"bike_id": "53417a78b6c2baa02a01c11ff10b797b", "is_reserved": 0, "name": "53417a78b6c2baa02a01c11ff10b797b", "lat": 38.911259, "fusion_lat": 0.0, "lon": -77.021998, "is_disabled": 0, "fusion_lon": 0.0, "rental_uris": {"android": "https://dc.lft.to/lastmile_qr_scan", "ios": "https://dc.lft.to/lastmile_qr_scan"}, "type": "electric_scooter"}, {"bike_id": "83b60a859cba769ab975c33977490c21", "is_reserved": 0, "name": "83b60a859cba769ab975c33977490c21", "lat": 38.916971, "fusion_lat": 0.0, "lon": -77.0304015, "is_disabled": 0, "fusion_lon": 0.0, "rental_uris": {"android": "https://dc.lft.to/lastmile_qr_scan", "ios": "https://dc.lft.to/lastmile_qr_scan"}, "type": "electric_scooter"}, {"bike_id": "0bf24992b6048a2835dae88ad9b1d9b7", "is_reserved": 0, "name": "0bf24992b6048a2835dae88ad9b1d9b7", "lat": 38.85358866666667, "fusion_lat": 0.0, "lon": -77.11491166666667, "is_disabled": 0, "fusion_lon": 0.0, "rental_uris": {"android": "https://dc.lft.to/lastmile_qr_scan", "ios": "https://dc.lft.to/lastmile_qr_scan"}, "type": "electric_bike"}, {"bike_id": "116055693665744cece443300d1057ac", "is_reserved": 0, "name": "116055693665744cece443300d1057ac", "lat": 38.918124, "fusion_lat": 0.0, "lon": -77.03183216666666, "is_disabled": 0, "fusion_lon": 0.0, "rental_uris": {"android": "https://dc.lft.to/lastmile_qr_scan", "ios": "https://dc.lft.to/lastmile_qr_scan"}, "type": "electric_scooter"}, {"bike_id": "389c5172b423b2593437bda3b5f68854", "is_reserved": 0, "name": "389c5172b423b2593437bda3b5f68854", "lat": 38.897740166666665, "fusion_lat": 0.0, "lon": -76.984617, "is_disabled": 0, "fusion_lon": 0.0, "rental_uris": {"android": "https://dc.lft.to/lastmile_qr_scan", "ios": "https://dc.lft.to/lastmile_qr_scan"}, "type": "electric_scooter"}, {"bike_id": "e833e962f0c0b02ca0cceaf852043035", "is_reserved": 0, "name": "e833e962f0c0b02ca0cceaf852043035", "lat": 38.887279166666666, "fusion_lat": 0.0, "lon": -77.025857, "is_disabled": 0, "fusion_lon": 0.0, "rental_uris": {"android": "https://dc.lft.to/lastmile_qr_scan", "ios": "https://dc.lft.to/lastmile_qr_scan"}, "type": "electric_scooter"}, {"bike_id": "f52a47642e9a16641bee8fb6da9cab2e", "is_reserved": 0, "name": "f52a47642e9a16641bee8fb6da9cab2e", "lat": 38.90015416666667, "fusion_lat": 0.0, "lon": -77.0117735, "is_disabled": 0, "fusion_lon": 0.0, "rental_uris": {"android": "https://dc.lft.to/lastmile_qr_scan", "ios": "https://dc.lft.to/lastmile_qr_scan"}, "type": "electric_scooter"}, {"bike_id": "f7e42dc95498dfd6750ece771b03c1c6", "is_reserved": 0, "name": "f7e42dc95498dfd6750ece771b03c1c6", "lat": 38.9307475, "fusion_lat": 0.0, "lon": -77.0215865, "is_disabled": 0, "fusion_lon": 0.0, "rental_uris": {"android": "https://dc.lft.to/lastmile_qr_scan", "ios": "https://dc.lft.to/lastmile_qr_scan"}, "type": "electric_scooter"}, {"bike_id": "21af942a9a326f6018d8d7a5884509b0", "is_reserved": 0, "name": "21af942a9a326f6018d8d7a5884509b0", "lat": 38.878261333333334, "fusion_lat": 0.0, "lon": -77.0012305, "is_disabled": 0, "fusion_lon": 0.0, "rental_uris": {"android": "https://dc.lft.to/lastmile_qr_scan", "ios": "https://dc.lft.to/lastmile_qr_scan"}, "type": "electric_scooter"}, {"bike_id": "9a29a7560d7c4bf0369feaacd7306566", "is_reserved": 0, "name": "9a29a7560d7c4bf0369feaacd7306566", "lat": 38.92619283333333, "fusion_lat": 0.0, "lon": -77.04190583333333, "is_disabled": 0, "fusion_lon": 0.0, "rental_uris": {"android": "https://dc.lft.to/lastmile_qr_scan", "ios": "https://dc.lft.to/lastmile_qr_scan"}, "type": "electric_scooter"}, {"bike_id": "db4376cd5ed54d63d80e2f09c769d8fc", "is_reserved": 0, "name": "db4376cd5ed54d63d80e2f09c769d8fc", "lat": 38.887170166666664, "fusion_lat": 0.0, "lon": -77.02582466666667, "is_disabled": 0, "fusion_lon": 0.0, "rental_uris": {"android": "https://dc.lft.to/lastmile_qr_scan", "ios": "https://dc.lft.to/lastmile_qr_scan"}, "type": "electric_scooter"}, {"bike_id": "84ef7e5364abf4ac6fb9a9cd9be8c0ea", "is_reserved": 0, "name": "84ef7e5364abf4ac6fb9a9cd9be8c0ea", "lat": 38.849103, "fusion_lat": 0.0, "lon": -77.099832, "is_disabled": 0, "fusion_lon": 0.0, "rental_uris": {"android": "https://dc.lft.to/lastmile_qr_scan", "ios": "https://dc.lft.to/lastmile_qr_scan"}, "type": "electric_bike"}, {"bike_id": "dc4cf4da63e1dd4b581007251751b3e0", "is_reserved": 0, "name": "dc4cf4da63e1dd4b581007251751b3e0", "lat": 38.9311025, "fusion_lat": 0.0, "lon": -77.030197, "is_disabled": 0, "fusion_lon": 0.0, "rental_uris": {"android": "https://dc.lft.to/lastmile_qr_scan", "ios": "https://dc.lft.to/lastmile_qr_scan"}, "type": "electric_scooter"}, {"bike_id": "a24da7321c64efb88eeab5cdd31380a1", "is_reserved": 0, "name": "a24da7321c64efb88eeab5cdd31380a1", "lat": 38.87372583333333, "fusion_lat": 0.0, "lon": -77.00163466666666, "is_disabled": 0, "fusion_lon": 0.0, "rental_uris": {"android": "https://dc.lft.to/lastmile_qr_scan", "ios": "https://dc.lft.to/lastmile_qr_scan"}, "type": "electric_scooter"}, {"bike_id": "2c153d16865cfefba5ad8ecf0ce3bee8", "is_reserved": 0, "name": "2c153d16865cfefba5ad8ecf0ce3bee8", "lat": 38.91660533333334, "fusion_lat": 0.0, "lon": -77.03186683333334, "is_disabled": 0, "fusion_lon": 0.0, "rental_uris": {"android": "https://dc.lft.to/lastmile_qr_scan", "ios": "https://dc.lft.to/lastmile_qr_scan"}, "type": "electric_scooter"}, {"bike_id": "d5aba714602e3217b0bc2ea7dd77f711", "is_reserved": 0, "name": "d5aba714602e3217b0bc2ea7dd77f711", "lat": 38.850755666666664, "fusion_lat": 0.0, "lon": -76.95676983333334, "is_disabled": 0, "fusion_lon": 0.0, "rental_uris": {"android": "https://dc.lft.to/lastmile_qr_scan", "ios": "https://dc.lft.to/lastmile_qr_scan"}, "type": "electric_bike"}, {"bike_id": "ef89912b85980fcea5177139ab7fb700", "is_reserved": 0, "name": "ef89912b85980fcea5177139ab7fb700", "lat": 38.865364666666665, "fusion_lat": 0.0, "lon": -76.9870815, "is_disabled": 0, "fusion_lon": 0.0, "rental_uris": {"android": "https://dc.lft.to/lastmile_qr_scan", "ios": "https://dc.lft.to/lastmile_qr_scan"}, "type": "electric_scooter"}, {"bike_id": "62bfef3e4b9519e1ff0fce82157d977c", "is_reserved": 0, "name": "62bfef3e4b9519e1ff0fce82157d977c", "lat": 38.90508766666667, "fusion_lat": 0.0, "lon": -77.0465555, "is_disabled": 0, "fusion_lon": 0.0, "rental_uris": {"android": "https://dc.lft.to/lastmile_qr_scan", "ios": "https://dc.lft.to/lastmile_qr_scan"}, "type": "electric_scooter"}, {"bike_id": "321174f1889e314335f73a038e820250", "is_reserved": 0, "name": "321174f1889e314335f73a038e820250", "lat": 38.916849666666664, "fusion_lat": 0.0, "lon": -77.06943183333334, "is_disabled": 0, "fusion_lon": 0.0, "rental_uris": {"android": "https://dc.lft.to/lastmile_qr_scan", "ios": "https://dc.lft.to/lastmile_qr_scan"}, "type": "electric_bike"}, {"bike_id": "b6a7e5998829c2ebc6fc77fd67312814", "is_reserved": 0, "name": "b6a7e5998829c2ebc6fc77fd67312814", "lat": 38.918408666666664, "fusion_lat": 0.0, "lon": -77.04097433333334, "is_disabled": 0, "fusion_lon": 0.0, "rental_uris": {"android": "https://dc.lft.to/lastmile_qr_scan", "ios": "https://dc.lft.to/lastmile_qr_scan"}, "type": "electric_scooter"}, {"bike_id": "f9a1c5f79cd4bf5679672f359e2dd6a9", "is_reserved": 0, "name": "f9a1c5f79cd4bf5679672f359e2dd6a9", "lat": 38.892218166666666, "fusion_lat": 0.0, "lon": -77.04644783333333, "is_disabled": 0, "fusion_lon": 0.0, "rental_uris": {"android": "https://dc.lft.to/lastmile_qr_scan", "ios": "https://dc.lft.to/lastmile_qr_scan"}, "type": "electric_scooter"}, {"bike_id": "a60c3a7cc4a320857fa9bf34b67a6e67", "is_reserved": 0, "name": "a60c3a7cc4a320857fa9bf34b67a6e67", "lat": 38.903861166666665, "fusion_lat": 0.0, "lon": -77.032766, "is_disabled": 0, "fusion_lon": 0.0, "rental_uris": {"android": "https://dc.lft.to/lastmile_qr_scan", "ios": "https://dc.lft.to/lastmile_qr_scan"}, "type": "electric_scooter"}, {"bike_id": "e8219249d8d9c6d2afe844847da7b14e", "is_reserved": 0, "name": "e8219249d8d9c6d2afe844847da7b14e", "lat": 38.923713166666666, "fusion_lat": 0.0, "lon": -77.0281695, "is_disabled": 0, "fusion_lon": 0.0, "rental_uris": {"android": "https://dc.lft.to/lastmile_qr_scan", "ios": "https://dc.lft.to/lastmile_qr_scan"}, "type": "electric_scooter"}, {"bike_id": "800da838f1ee9cef786dcf70d20c04a8", "is_reserved": 0, "name": "800da838f1ee9cef786dcf70d20c04a8", "lat": 38.908605, "fusion_lat": 0.0, "lon": -76.99789416666667, "is_disabled": 0, "fusion_lon": 0.0, "rental_uris": {"android": "https://dc.lft.to/lastmile_qr_scan", "ios": "https://dc.lft.to/lastmile_qr_scan"}, "type": "electric_scooter"}, {"bike_id": "b4b47c2a4f34fba63882f21639270c7c", "is_reserved": 0, "name": "b4b47c2a4f34fba63882f21639270c7c", "lat": 38.91036583333333, "fusion_lat": 0.0, "lon": -77.04263683333333, "is_disabled": 0, "fusion_lon": 0.0, "rental_uris": {"android": "https://dc.lft.to/lastmile_qr_scan", "ios": "https://dc.lft.to/lastmile_qr_scan"}, "type": "electric_scooter"}, {"bike_id": "261ee7c95e5c8468443fe0205615b769", "is_reserved": 0, "name": "261ee7c95e5c8468443fe0205615b769", "lat": 38.92135566666666, "fusion_lat": 0.0, "lon": -77.009429, "is_disabled": 0, "fusion_lon": 0.0, "rental_uris": {"android": "https://dc.lft.to/lastmile_qr_scan", "ios": "https://dc.lft.to/lastmile_qr_scan"}, "type": "electric_scooter"}, {"bike_id": "d72a881e80e8d64ab833b3eb84ed18e7", "is_reserved": 0, "name": "d72a881e80e8d64ab833b3eb84ed18e7", "lat": 38.919162166666666, "fusion_lat": 0.0, "lon": -77.03181116666667, "is_disabled": 0, "fusion_lon": 0.0, "rental_uris": {"android": "https://dc.lft.to/lastmile_qr_scan", "ios": "https://dc.lft.to/lastmile_qr_scan"}, "type": "electric_scooter"}, {"bike_id": "491fe00a3518e7c7f04a51f6b6be245f", "is_reserved": 0, "name": "491fe00a3518e7c7f04a51f6b6be245f", "lat": 38.90023816666667, "fusion_lat": 0.0, "lon": -76.998552, "is_disabled": 0, "fusion_lon": 0.0, "rental_uris": {"android": "https://dc.lft.to/lastmile_qr_scan", "ios": "https://dc.lft.to/lastmile_qr_scan"}, "type": "electric_scooter"}, {"bike_id": "40ea0fea1f50d0540f50384e82889c8b", "is_reserved": 0, "name": "40ea0fea1f50d0540f50384e82889c8b", "lat": 38.929711, "fusion_lat": 0.0, "lon": -77.026289, "is_disabled": 0, "fusion_lon": 0.0, "rental_uris": {"android": "https://dc.lft.to/lastmile_qr_scan", "ios": "https://dc.lft.to/lastmile_qr_scan"}, "type": "electric_bike"}, {"bike_id": "95690ede60414e06ff1ef8dea13d4100", "is_reserved": 0, "name": "95690ede60414e06ff1ef8dea13d4100", "lat": 38.8818355, "fusion_lat": 0.0, "lon": -77.00353466666667, "is_disabled": 0, "fusion_lon": 0.0, "rental_uris": {"android": "https://dc.lft.to/lastmile_qr_scan", "ios": "https://dc.lft.to/lastmile_qr_scan"}, "type": "electric_scooter"}, {"bike_id": "6555f02dfd76cf112cfdf3b7974d7ac8", "is_reserved": 0, "name": "6555f02dfd76cf112cfdf3b7974d7ac8", "lat": 38.93025016666667, "fusion_lat": 0.0, "lon": -77.03796516666667, "is_disabled": 0, "fusion_lon": 0.0, "rental_uris": {"android": "https://dc.lft.to/lastmile_qr_scan", "ios": "https://dc.lft.to/lastmile_qr_scan"}, "type": "electric_scooter"}, {"bike_id": "d18dcbb4ba127109a292efee4ce6712f", "is_reserved": 0, "name": "d18dcbb4ba127109a292efee4ce6712f", "lat": 38.897273166666665, "fusion_lat": 0.0, "lon": -77.0187545, "is_disabled": 0, "fusion_lon": 0.0, "rental_uris": {"android": "https://dc.lft.to/lastmile_qr_scan", "ios": "https://dc.lft.to/lastmile_qr_scan"}, "type": "electric_scooter"}, {"bike_id": "fc6e2a073186545c7a414aa09825fb88", "is_reserved": 0, "name": "fc6e2a073186545c7a414aa09825fb88", "lat": 38.90453266666667, "fusion_lat": 0.0, "lon": -77.05330816666667, "is_disabled": 0, "fusion_lon": 0.0, "rental_uris": {"android": "https://dc.lft.to/lastmile_qr_scan", "ios": "https://dc.lft.to/lastmile_qr_scan"}, "type": "electric_scooter"}, {"bike_id": "c9ab70a9fcd8efb8728e7902ff6c9448", "is_reserved": 0, "name": "c9ab70a9fcd8efb8728e7902ff6c9448", "lat": 38.91798433333334, "fusion_lat": 0.0, "lon": -77.0270925, "is_disabled": 0, "fusion_lon": 0.0, "rental_uris": {"android": "https://dc.lft.to/lastmile_qr_scan", "ios": "https://dc.lft.to/lastmile_qr_scan"}, "type": "electric_scooter"}, {"bike_id": "ede0f58b6669e187113b3e0558e6d64c", "is_reserved": 0, "name": "ede0f58b6669e187113b3e0558e6d64c", "lat": 38.90755166666667, "fusion_lat": 0.0, "lon": -77.03600316666666, "is_disabled": 0, "fusion_lon": 0.0, "rental_uris": {"android": "https://dc.lft.to/lastmile_qr_scan", "ios": "https://dc.lft.to/lastmile_qr_scan"}, "type": "electric_scooter"}, {"bike_id": "f6bf355dbbd501a0c78008b1c1919c6c", "is_reserved": 0, "name": "f6bf355dbbd501a0c78008b1c1919c6c", "lat": 38.903811, "fusion_lat": 0.0, "lon": -76.9761975, "is_disabled": 0, "fusion_lon": 0.0, "rental_uris": {"android": "https://dc.lft.to/lastmile_qr_scan", "ios": "https://dc.lft.to/lastmile_qr_scan"}, "type": "electric_scooter"}, {"bike_id": "e5d26d5c38aec44a206fe072a9e35767", "is_reserved": 0, "name": "e5d26d5c38aec44a206fe072a9e35767", "lat": 38.908983166666665, "fusion_lat": 0.0, "lon": -77.07275083333333, "is_disabled": 0, "fusion_lon": 0.0, "rental_uris": {"android": "https://dc.lft.to/lastmile_qr_scan", "ios": "https://dc.lft.to/lastmile_qr_scan"}, "type": "electric_scooter"}, {"bike_id": "ebe2742a5f854f1b5abab57179400d6b", "is_reserved": 0, "name": "ebe2742a5f854f1b5abab57179400d6b", "lat": 38.874371, "fusion_lat": 0.0, "lon": -77.00928066666667, "is_disabled": 0, "fusion_lon": 0.0, "rental_uris": {"android": "https://dc.lft.to/lastmile_qr_scan", "ios": "https://dc.lft.to/lastmile_qr_scan"}, "type": "electric_scooter"}, {"bike_id": "1bf538af0ea314e75c8b11d868389a38", "is_reserved": 0, "name": "1bf538af0ea314e75c8b11d868389a38", "lat": 38.892293, "fusion_lat": 0.0, "lon": -77.048765, "is_disabled": 0, "fusion_lon": 0.0, "rental_uris": {"android": "https://dc.lft.to/lastmile_qr_scan", "ios": "https://dc.lft.to/lastmile_qr_scan"}, "type": "electric_scooter"}, {"bike_id": "7f9a943670d73750956e60210f73457c", "is_reserved": 0, "name": "7f9a943670d73750956e60210f73457c", "lat": 38.905782, "fusion_lat": 0.0, "lon": -77.05698816666667, "is_disabled": 0, "fusion_lon": 0.0, "rental_uris": {"android": "https://dc.lft.to/lastmile_qr_scan", "ios": "https://dc.lft.to/lastmile_qr_scan"}, "type": "electric_scooter"}, {"bike_id": "aa5495651365352f838e412614d71d1b", "is_reserved": 0, "name": "aa5495651365352f838e412614d71d1b", "lat": 38.924726166666666, "fusion_lat": 0.0, "lon": -77.0304375, "is_disabled": 0, "fusion_lon": 0.0, "rental_uris": {"android": "https://dc.lft.to/lastmile_qr_scan", "ios": "https://dc.lft.to/lastmile_qr_scan"}, "type": "electric_scooter"}, {"bike_id": "d33e32dfef9bc54b9115b6e07c3b5b17", "is_reserved": 0, "name": "d33e32dfef9bc54b9115b6e07c3b5b17", "lat": 38.9059245, "fusion_lat": 0.0, "lon": -77.0466585, "is_disabled": 0, "fusion_lon": 0.0, "rental_uris": {"android": "https://dc.lft.to/lastmile_qr_scan", "ios": "https://dc.lft.to/lastmile_qr_scan"}, "type": "electric_scooter"}, {"bike_id": "0dc5d3bd9b5740ef21af50bc0fa2c10f", "is_reserved": 0, "name": "0dc5d3bd9b5740ef21af50bc0fa2c10f", "lat": 38.9036225, "fusion_lat": 0.0, "lon": -77.02951683333333, "is_disabled": 0, "fusion_lon": 0.0, "rental_uris": {"android": "https://dc.lft.to/lastmile_qr_scan", "ios": "https://dc.lft.to/lastmile_qr_scan"}, "type": "electric_scooter"}, {"bike_id": "0fd8c73761f083f372d69877a6c808b0", "is_reserved": 0, "name": "0fd8c73761f083f372d69877a6c808b0", "lat": 38.887694, "fusion_lat": 0.0, "lon": -77.02371516666666, "is_disabled": 0, "fusion_lon": 0.0, "rental_uris": {"android": "https://dc.lft.to/lastmile_qr_scan", "ios": "https://dc.lft.to/lastmile_qr_scan"}, "type": "electric_scooter"}, {"bike_id": "cc9d59168aa52933e98599896df2daea", "is_reserved": 0, "name": "cc9d59168aa52933e98599896df2daea", "lat": 38.92179466666666, "fusion_lat": 0.0, "lon": -77.021073, "is_disabled": 0, "fusion_lon": 0.0, "rental_uris": {"android": "https://dc.lft.to/lastmile_qr_scan", "ios": "https://dc.lft.to/lastmile_qr_scan"}, "type": "electric_scooter"}, {"bike_id": "720951e7ef4b85df839bad9fad1db16a", "is_reserved": 0, "name": "720951e7ef4b85df839bad9fad1db16a", "lat": 38.91045033333333, "fusion_lat": 0.0, "lon": -77.03209666666666, "is_disabled": 0, "fusion_lon": 0.0, "rental_uris": {"android": "https://dc.lft.to/lastmile_qr_scan", "ios": "https://dc.lft.to/lastmile_qr_scan"}, "type": "electric_scooter"}, {"bike_id": "87e74a9268f5702c54c409a0a65c35a8", "is_reserved": 0, "name": "87e74a9268f5702c54c409a0a65c35a8", "lat": 38.92114983333333, "fusion_lat": 0.0, "lon": -77.23680466666667, "is_disabled": 0, "fusion_lon": 0.0, "rental_uris": {"android": "https://dc.lft.to/lastmile_qr_scan", "ios": "https://dc.lft.to/lastmile_qr_scan"}, "type": "electric_bike"}, {"bike_id": "aa17851195009c132525ae174076c5e6", "is_reserved": 0, "name": "aa17851195009c132525ae174076c5e6", "lat": 38.94136616666667, "fusion_lat": 0.0, "lon": -77.02500583333334, "is_disabled": 0, "fusion_lon": 0.0, "rental_uris": {"android": "https://dc.lft.to/lastmile_qr_scan", "ios": "https://dc.lft.to/lastmile_qr_scan"}, "type": "electric_scooter"}, {"bike_id": "e18ebef4efc6e9b4758be60335604d17", "is_reserved": 0, "name": "e18ebef4efc6e9b4758be60335604d17", "lat": 38.899068166666666, "fusion_lat": 0.0, "lon": -77.02729733333334, "is_disabled": 0, "fusion_lon": 0.0, "rental_uris": {"android": "https://dc.lft.to/lastmile_qr_scan", "ios": "https://dc.lft.to/lastmile_qr_scan"}, "type": "electric_scooter"}, {"bike_id": "f3c8e3f85e065a6f7d144b0f924d923a", "is_reserved": 0, "name": "f3c8e3f85e065a6f7d144b0f924d923a", "lat": 38.9064965, "fusion_lat": 0.0, "lon": -77.03160383333334, "is_disabled": 0, "fusion_lon": 0.0, "rental_uris": {"android": "https://dc.lft.to/lastmile_qr_scan", "ios": "https://dc.lft.to/lastmile_qr_scan"}, "type": "electric_scooter"}, {"bike_id": "4c40336088502c82134143567c6ee4c7", "is_reserved": 0, "name": "4c40336088502c82134143567c6ee4c7", "lat": 38.876652, "fusion_lat": 0.0, "lon": -77.00311666666667, "is_disabled": 0, "fusion_lon": 0.0, "rental_uris": {"android": "https://dc.lft.to/lastmile_qr_scan", "ios": "https://dc.lft.to/lastmile_qr_scan"}, "type": "electric_scooter"}, {"bike_id": "91c1ff122efc2f1795453b184c44081c", "is_reserved": 0, "name": "91c1ff122efc2f1795453b184c44081c", "lat": 38.898482666666666, "fusion_lat": 0.0, "lon": -76.950431, "is_disabled": 0, "fusion_lon": 0.0, "rental_uris": {"android": "https://dc.lft.to/lastmile_qr_scan", "ios": "https://dc.lft.to/lastmile_qr_scan"}, "type": "electric_scooter"}, {"bike_id": "86123328362a24661b37527717a31f8a", "is_reserved": 0, "name": "86123328362a24661b37527717a31f8a", "lat": 38.915813166666666, "fusion_lat": 0.0, "lon": -76.98388, "is_disabled": 0, "fusion_lon": 0.0, "rental_uris": {"android": "https://dc.lft.to/lastmile_qr_scan", "ios": "https://dc.lft.to/lastmile_qr_scan"}, "type": "electric_scooter"}, {"bike_id": "218fd775b8f55de21c6be5e7ed9df1f0", "is_reserved": 0, "name": "218fd775b8f55de21c6be5e7ed9df1f0", "lat": 38.899353166666664, "fusion_lat": 0.0, "lon": -77.04040266666667, "is_disabled": 0, "fusion_lon": 0.0, "rental_uris": {"android": "https://dc.lft.to/lastmile_qr_scan", "ios": "https://dc.lft.to/lastmile_qr_scan"}, "type": "electric_scooter"}, {"bike_id": "06b277af3c9cdede6c225ef95560b676", "is_reserved": 0, "name": "06b277af3c9cdede6c225ef95560b676", "lat": 38.9144385, "fusion_lat": 0.0, "lon": -77.0447955, "is_disabled": 0, "fusion_lon": 0.0, "rental_uris": {"android": "https://dc.lft.to/lastmile_qr_scan", "ios": "https://dc.lft.to/lastmile_qr_scan"}, "type": "electric_scooter"}, {"bike_id": "38ba2cc431d9196f4e8f0bad6c37fc4c", "is_reserved": 0, "name": "38ba2cc431d9196f4e8f0bad6c37fc4c", "lat": 38.905797666666665, "fusion_lat": 0.0, "lon": -77.00886716666666, "is_disabled": 0, "fusion_lon": 0.0, "rental_uris": {"android": "https://dc.lft.to/lastmile_qr_scan", "ios": "https://dc.lft.to/lastmile_qr_scan"}, "type": "electric_scooter"}, {"bike_id": "40ceabd2eb4918b611a118a046903988", "is_reserved": 0, "name": "40ceabd2eb4918b611a118a046903988", "lat": 38.89955633333334, "fusion_lat": 0.0, "lon": -76.98568483333334, "is_disabled": 0, "fusion_lon": 0.0, "rental_uris": {"android": "https://dc.lft.to/lastmile_qr_scan", "ios": "https://dc.lft.to/lastmile_qr_scan"}, "type": "electric_scooter"}, {"bike_id": "47b8e6945b7248065e03ebb6baa8fdf1", "is_reserved": 0, "name": "47b8e6945b7248065e03ebb6baa8fdf1", "lat": 38.8898715, "fusion_lat": 0.0, "lon": -76.91418416666667, "is_disabled": 0, "fusion_lon": 0.0, "rental_uris": {"android": "https://dc.lft.to/lastmile_qr_scan", "ios": "https://dc.lft.to/lastmile_qr_scan"}, "type": "electric_scooter"}, {"bike_id": "f2a68ce04bb67cc7ee4fe41f95d8dcda", "is_reserved": 0, "name": "f2a68ce04bb67cc7ee4fe41f95d8dcda", "lat": 38.90572916666667, "fusion_lat": 0.0, "lon": -77.03989716666666, "is_disabled": 0, "fusion_lon": 0.0, "rental_uris": {"android": "https://dc.lft.to/lastmile_qr_scan", "ios": "https://dc.lft.to/lastmile_qr_scan"}, "type": "electric_scooter"}, {"bike_id": "0a3b6460033be9eccde32afe399297f8", "is_reserved": 0, "name": "0a3b6460033be9eccde32afe399297f8", "lat": 38.9550955, "fusion_lat": 0.0, "lon": -77.02919733333333, "is_disabled": 0, "fusion_lon": 0.0, "rental_uris": {"android": "https://dc.lft.to/lastmile_qr_scan", "ios": "https://dc.lft.to/lastmile_qr_scan"}, "type": "electric_bike"}, {"bike_id": "444995655cae436fcff845b61dfd3aee", "is_reserved": 0, "name": "444995655cae436fcff845b61dfd3aee", "lat": 38.9173905, "fusion_lat": 0.0, "lon": -77.02826733333333, "is_disabled": 0, "fusion_lon": 0.0, "rental_uris": {"android": "https://dc.lft.to/lastmile_qr_scan", "ios": "https://dc.lft.to/lastmile_qr_scan"}, "type": "electric_scooter"}, {"bike_id": "1d26c628337adaab71934d76d4f1e026", "is_reserved": 0, "name": "1d26c628337adaab71934d76d4f1e026", "lat": 38.93152666666667, "fusion_lat": 0.0, "lon": -77.0786765, "is_disabled": 0, "fusion_lon": 0.0, "rental_uris": {"android": "https://dc.lft.to/lastmile_qr_scan", "ios": "https://dc.lft.to/lastmile_qr_scan"}, "type": "electric_scooter"}, {"bike_id": "7ace31ba9715c073e8ab8a72ccb1fb9d", "is_reserved": 0, "name": "7ace31ba9715c073e8ab8a72ccb1fb9d", "lat": 38.91772733333333, "fusion_lat": 0.0, "lon": -77.02305633333333, "is_disabled": 0, "fusion_lon": 0.0, "rental_uris": {"android": "https://dc.lft.to/lastmile_qr_scan", "ios": "https://dc.lft.to/lastmile_qr_scan"}, "type": "electric_scooter"}, {"bike_id": "c34fb0341f7333b9fa8b52fdcf909eec", "is_reserved": 0, "name": "c34fb0341f7333b9fa8b52fdcf909eec", "lat": 38.96066316666667, "fusion_lat": 0.0, "lon": -76.941677, "is_disabled": 0, "fusion_lon": 0.0, "rental_uris": {"android": "https://dc.lft.to/lastmile_qr_scan", "ios": "https://dc.lft.to/lastmile_qr_scan"}, "type": "electric_bike"}, {"bike_id": "585e82dce642581867c8f3df115e3383", "is_reserved": 0, "name": "585e82dce642581867c8f3df115e3383", "lat": 38.9062745, "fusion_lat": 0.0, "lon": -77.00586366666667, "is_disabled": 0, "fusion_lon": 0.0, "rental_uris": {"android": "https://dc.lft.to/lastmile_qr_scan", "ios": "https://dc.lft.to/lastmile_qr_scan"}, "type": "electric_scooter"}, {"bike_id": "821d5b110a77c4ca96589025aff4244c", "is_reserved": 0, "name": "821d5b110a77c4ca96589025aff4244c", "lat": 38.90014133333333, "fusion_lat": 0.0, "lon": -77.000688, "is_disabled": 0, "fusion_lon": 0.0, "rental_uris": {"android": "https://dc.lft.to/lastmile_qr_scan", "ios": "https://dc.lft.to/lastmile_qr_scan"}, "type": "electric_scooter"}, {"bike_id": "3ada0f1298e556d496354bba25b904b1", "is_reserved": 0, "name": "3ada0f1298e556d496354bba25b904b1", "lat": 38.9162555, "fusion_lat": 0.0, "lon": -77.03189433333333, "is_disabled": 0, "fusion_lon": 0.0, "rental_uris": {"android": "https://dc.lft.to/lastmile_qr_scan", "ios": "https://dc.lft.to/lastmile_qr_scan"}, "type": "electric_scooter"}, {"bike_id": "b7da2b4596887104ec2b31c42f200f25", "is_reserved": 0, "name": "b7da2b4596887104ec2b31c42f200f25", "lat": 38.901483166666665, "fusion_lat": 0.0, "lon": -76.9742395, "is_disabled": 0, "fusion_lon": 0.0, "rental_uris": {"android": "https://dc.lft.to/lastmile_qr_scan", "ios": "https://dc.lft.to/lastmile_qr_scan"}, "type": "electric_scooter"}, {"bike_id": "67654867d4661cdb086bf730d68117da", "is_reserved": 0, "name": "67654867d4661cdb086bf730d68117da", "lat": 38.90741766666667, "fusion_lat": 0.0, "lon": -77.04326916666666, "is_disabled": 0, "fusion_lon": 0.0, "rental_uris": {"android": "https://dc.lft.to/lastmile_qr_scan", "ios": "https://dc.lft.to/lastmile_qr_scan"}, "type": "electric_scooter"}, {"bike_id": "726c1a2d15a9e4b96daf19ee490b25bb", "is_reserved": 0, "name": "726c1a2d15a9e4b96daf19ee490b25bb", "lat": 38.8874595, "fusion_lat": 0.0, "lon": -77.01785066666666, "is_disabled": 0, "fusion_lon": 0.0, "rental_uris": {"android": "https://dc.lft.to/lastmile_qr_scan", "ios": "https://dc.lft.to/lastmile_qr_scan"}, "type": "electric_scooter"}, {"bike_id": "541b2a742114b73389472373bbc237dd", "is_reserved": 0, "name": "541b2a742114b73389472373bbc237dd", "lat": 38.88730266666666, "fusion_lat": 0.0, "lon": -76.9835825, "is_disabled": 0, "fusion_lon": 0.0, "rental_uris": {"android": "https://dc.lft.to/lastmile_qr_scan", "ios": "https://dc.lft.to/lastmile_qr_scan"}, "type": "electric_scooter"}, {"bike_id": "5176c3a1c14da2e44f11ad037066f69f", "is_reserved": 0, "name": "5176c3a1c14da2e44f11ad037066f69f", "lat": 38.91702566666667, "fusion_lat": 0.0, "lon": -77.03347133333334, "is_disabled": 0, "fusion_lon": 0.0, "rental_uris": {"android": "https://dc.lft.to/lastmile_qr_scan", "ios": "https://dc.lft.to/lastmile_qr_scan"}, "type": "electric_scooter"}, {"bike_id": "d19a3185955a40716690f1f55b924108", "is_reserved": 0, "name": "d19a3185955a40716690f1f55b924108", "lat": 38.920400666666666, "fusion_lat": 0.0, "lon": -77.01679783333333, "is_disabled": 0, "fusion_lon": 0.0, "rental_uris": {"android": "https://dc.lft.to/lastmile_qr_scan", "ios": "https://dc.lft.to/lastmile_qr_scan"}, "type": "electric_scooter"}, {"bike_id": "524b666723f5b35a2d9a1c58fff6417c", "is_reserved": 0, "name": "524b666723f5b35a2d9a1c58fff6417c", "lat": 38.907558333333334, "fusion_lat": 0.0, "lon": -77.03585416666667, "is_disabled": 0, "fusion_lon": 0.0, "rental_uris": {"android": "https://dc.lft.to/lastmile_qr_scan", "ios": "https://dc.lft.to/lastmile_qr_scan"}, "type": "electric_scooter"}, {"bike_id": "d5cabc4c9cfdc1b49f1fb215363978e7", "is_reserved": 0, "name": "d5cabc4c9cfdc1b49f1fb215363978e7", "lat": 38.91961916666666, "fusion_lat": 0.0, "lon": -77.02703433333333, "is_disabled": 0, "fusion_lon": 0.0, "rental_uris": {"android": "https://dc.lft.to/lastmile_qr_scan", "ios": "https://dc.lft.to/lastmile_qr_scan"}, "type": "electric_scooter"}, {"bike_id": "40dfd282dc536360b12301f7d4b0d1dd", "is_reserved": 0, "name": "40dfd282dc536360b12301f7d4b0d1dd", "lat": 38.9083465, "fusion_lat": 0.0, "lon": -77.04354216666667, "is_disabled": 0, "fusion_lon": 0.0, "rental_uris": {"android": "https://dc.lft.to/lastmile_qr_scan", "ios": "https://dc.lft.to/lastmile_qr_scan"}, "type": "electric_scooter"}, {"bike_id": "e9017038e08f615f72c92f22c308e6b6", "is_reserved": 0, "name": "e9017038e08f615f72c92f22c308e6b6", "lat": 38.9170445, "fusion_lat": 0.0, "lon": -77.03114416666666, "is_disabled": 0, "fusion_lon": 0.0, "rental_uris": {"android": "https://dc.lft.to/lastmile_qr_scan", "ios": "https://dc.lft.to/lastmile_qr_scan"}, "type": "electric_scooter"}, {"bike_id": "c1225e2e1a52f919062f97720ebdcc5f", "is_reserved": 0, "name": "c1225e2e1a52f919062f97720ebdcc5f", "lat": 38.915916833333334, "fusion_lat": 0.0, "lon": -77.01481833333334, "is_disabled": 0, "fusion_lon": 0.0, "rental_uris": {"android": "https://dc.lft.to/lastmile_qr_scan", "ios": "https://dc.lft.to/lastmile_qr_scan"}, "type": "electric_scooter"}, {"bike_id": "2e113a1ddcc24fc8891c37eb8be2bb71", "is_reserved": 0, "name": "2e113a1ddcc24fc8891c37eb8be2bb71", "lat": 38.905624333333336, "fusion_lat": 0.0, "lon": -77.00802433333334, "is_disabled": 0, "fusion_lon": 0.0, "rental_uris": {"android": "https://dc.lft.to/lastmile_qr_scan", "ios": "https://dc.lft.to/lastmile_qr_scan"}, "type": "electric_scooter"}, {"bike_id": "843e087fafe57b35f7d4b57eaab74214", "is_reserved": 0, "name": "843e087fafe57b35f7d4b57eaab74214", "lat": 38.9284165, "fusion_lat": 0.0, "lon": -77.0205905, "is_disabled": 0, "fusion_lon": 0.0, "rental_uris": {"android": "https://dc.lft.to/lastmile_qr_scan", "ios": "https://dc.lft.to/lastmile_qr_scan"}, "type": "electric_bike"}, {"bike_id": "3221470bad9c8b15686416eff0c41d07", "is_reserved": 0, "name": "3221470bad9c8b15686416eff0c41d07", "lat": 38.916067, "fusion_lat": 0.0, "lon": -77.03211266666666, "is_disabled": 0, "fusion_lon": 0.0, "rental_uris": {"android": "https://dc.lft.to/lastmile_qr_scan", "ios": "https://dc.lft.to/lastmile_qr_scan"}, "type": "electric_scooter"}, {"bike_id": "e26f8b13236c8e5b06b685bc2f589a18", "is_reserved": 0, "name": "e26f8b13236c8e5b06b685bc2f589a18", "lat": 38.908126333333335, "fusion_lat": 0.0, "lon": -77.04157133333334, "is_disabled": 0, "fusion_lon": 0.0, "rental_uris": {"android": "https://dc.lft.to/lastmile_qr_scan", "ios": "https://dc.lft.to/lastmile_qr_scan"}, "type": "electric_scooter"}, {"bike_id": "17931364d4e015e4a282ae11e78409e7", "is_reserved": 0, "name": "17931364d4e015e4a282ae11e78409e7", "lat": 38.9075635, "fusion_lat": 0.0, "lon": -77.0358405, "is_disabled": 0, "fusion_lon": 0.0, "rental_uris": {"android": "https://dc.lft.to/lastmile_qr_scan", "ios": "https://dc.lft.to/lastmile_qr_scan"}, "type": "electric_scooter"}, {"bike_id": "40318de73a1d80f50f434c0856bb1c1e", "is_reserved": 0, "name": "40318de73a1d80f50f434c0856bb1c1e", "lat": 38.9215125, "fusion_lat": 0.0, "lon": -77.04351816666667, "is_disabled": 0, "fusion_lon": 0.0, "rental_uris": {"android": "https://dc.lft.to/lastmile_qr_scan", "ios": "https://dc.lft.to/lastmile_qr_scan"}, "type": "electric_scooter"}, {"bike_id": "d4e2dd6f282c447c6640ae421cac2717", "is_reserved": 0, "name": "d4e2dd6f282c447c6640ae421cac2717", "lat": 38.900209, "fusion_lat": 0.0, "lon": -76.99978583333333, "is_disabled": 0, "fusion_lon": 0.0, "rental_uris": {"android": "https://dc.lft.to/lastmile_qr_scan", "ios": "https://dc.lft.to/lastmile_qr_scan"}, "type": "electric_scooter"}, {"bike_id": "df28736b357d5f310ccab9fd6e8e09ce", "is_reserved": 0, "name": "df28736b357d5f310ccab9fd6e8e09ce", "lat": 38.89799983333333, "fusion_lat": 0.0, "lon": -77.04614566666666, "is_disabled": 0, "fusion_lon": 0.0, "rental_uris": {"android": "https://dc.lft.to/lastmile_qr_scan", "ios": "https://dc.lft.to/lastmile_qr_scan"}, "type": "electric_scooter"}, {"bike_id": "197541f5f6b620df3aebeca4190d32a8", "is_reserved": 0, "name": "197541f5f6b620df3aebeca4190d32a8", "lat": 38.87670883333333, "fusion_lat": 0.0, "lon": -77.00306983333333, "is_disabled": 0, "fusion_lon": 0.0, "rental_uris": {"android": "https://dc.lft.to/lastmile_qr_scan", "ios": "https://dc.lft.to/lastmile_qr_scan"}, "type": "electric_scooter"}, {"bike_id": "cde6e4a7e81fc2214e464f7bdd7b8185", "is_reserved": 0, "name": "cde6e4a7e81fc2214e464f7bdd7b8185", "lat": 38.914724166666666, "fusion_lat": 0.0, "lon": -77.03667933333334, "is_disabled": 0, "fusion_lon": 0.0, "rental_uris": {"android": "https://dc.lft.to/lastmile_qr_scan", "ios": "https://dc.lft.to/lastmile_qr_scan"}, "type": "electric_scooter"}, {"bike_id": "0a932f2f86614f04e6a641934d3889a7", "is_reserved": 0, "name": "0a932f2f86614f04e6a641934d3889a7", "lat": 38.924213333333334, "fusion_lat": 0.0, "lon": -77.02710283333333, "is_disabled": 0, "fusion_lon": 0.0, "rental_uris": {"android": "https://dc.lft.to/lastmile_qr_scan", "ios": "https://dc.lft.to/lastmile_qr_scan"}, "type": "electric_scooter"}, {"bike_id": "1a4f4679cd1f635670643c91c88e7a76", "is_reserved": 0, "name": "1a4f4679cd1f635670643c91c88e7a76", "lat": 38.89744016666667, "fusion_lat": 0.0, "lon": -77.03303416666667, "is_disabled": 0, "fusion_lon": 0.0, "rental_uris": {"android": "https://dc.lft.to/lastmile_qr_scan", "ios": "https://dc.lft.to/lastmile_qr_scan"}, "type": "electric_scooter"}, {"bike_id": "c0b06211ffda3e5c203b79342bdb834b", "is_reserved": 0, "name": "c0b06211ffda3e5c203b79342bdb834b", "lat": 38.914777666666666, "fusion_lat": 0.0, "lon": -77.04253466666667, "is_disabled": 0, "fusion_lon": 0.0, "rental_uris": {"android": "https://dc.lft.to/lastmile_qr_scan", "ios": "https://dc.lft.to/lastmile_qr_scan"}, "type": "electric_scooter"}, {"bike_id": "36729c9f67c0ae2a4cbffe64112ae747", "is_reserved": 0, "name": "36729c9f67c0ae2a4cbffe64112ae747", "lat": 38.99677966666667, "fusion_lat": 0.0, "lon": -77.02559766666667, "is_disabled": 0, "fusion_lon": 0.0, "rental_uris": {"android": "https://dc.lft.to/lastmile_qr_scan", "ios": "https://dc.lft.to/lastmile_qr_scan"}, "type": "electric_bike"}, {"bike_id": "60caf1d6ff8d471dabfc4682aeea2c03", "is_reserved": 0, "name": "60caf1d6ff8d471dabfc4682aeea2c03", "lat": 38.897613666666665, "fusion_lat": 0.0, "lon": -77.0445285, "is_disabled": 0, "fusion_lon": 0.0, "rental_uris": {"android": "https://dc.lft.to/lastmile_qr_scan", "ios": "https://dc.lft.to/lastmile_qr_scan"}, "type": "electric_scooter"}, {"bike_id": "44c1da1ea84ce5dbe3eec637a384a4c6", "is_reserved": 0, "name": "44c1da1ea84ce5dbe3eec637a384a4c6", "lat": 38.901268333333334, "fusion_lat": 0.0, "lon": -77.04337633333333, "is_disabled": 0, "fusion_lon": 0.0, "rental_uris": {"android": "https://dc.lft.to/lastmile_qr_scan", "ios": "https://dc.lft.to/lastmile_qr_scan"}, "type": "electric_scooter"}, {"bike_id": "4cdfa5d3b7203f16aa7651f8b74fc163", "is_reserved": 0, "name": "4cdfa5d3b7203f16aa7651f8b74fc163", "lat": 38.9326815, "fusion_lat": 0.0, "lon": -77.0192405, "is_disabled": 0, "fusion_lon": 0.0, "rental_uris": {"android": "https://dc.lft.to/lastmile_qr_scan", "ios": "https://dc.lft.to/lastmile_qr_scan"}, "type": "electric_scooter"}, {"bike_id": "d8fc0d51a44b6756bd55bdd45cb8b010", "is_reserved": 0, "name": "d8fc0d51a44b6756bd55bdd45cb8b010", "lat": 38.925204, "fusion_lat": 0.0, "lon": -77.05031483333333, "is_disabled": 0, "fusion_lon": 0.0, "rental_uris": {"android": "https://dc.lft.to/lastmile_qr_scan", "ios": "https://dc.lft.to/lastmile_qr_scan"}, "type": "electric_scooter"}, {"bike_id": "6a7b06c722df990aed8117c7b90e6e4e", "is_reserved": 0, "name": "6a7b06c722df990aed8117c7b90e6e4e", "lat": 38.91926616666667, "fusion_lat": 0.0, "lon": -77.024866, "is_disabled": 0, "fusion_lon": 0.0, "rental_uris": {"android": "https://dc.lft.to/lastmile_qr_scan", "ios": "https://dc.lft.to/lastmile_qr_scan"}, "type": "electric_scooter"}, {"bike_id": "4f729719e72acfd7e5bee9689a8931e0", "is_reserved": 0, "name": "4f729719e72acfd7e5bee9689a8931e0", "lat": 38.903201833333334, "fusion_lat": 0.0, "lon": -77.00573116666666, "is_disabled": 0, "fusion_lon": 0.0, "rental_uris": {"android": "https://dc.lft.to/lastmile_qr_scan", "ios": "https://dc.lft.to/lastmile_qr_scan"}, "type": "electric_scooter"}, {"bike_id": "cb71a38e136c9afd5476c4f7a238b632", "is_reserved": 0, "name": "cb71a38e136c9afd5476c4f7a238b632", "lat": 38.90811033333333, "fusion_lat": 0.0, "lon": -77.041726, "is_disabled": 0, "fusion_lon": 0.0, "rental_uris": {"android": "https://dc.lft.to/lastmile_qr_scan", "ios": "https://dc.lft.to/lastmile_qr_scan"}, "type": "electric_scooter"}, {"bike_id": "cbb523f4b09188552256a14e66a01240", "is_reserved": 0, "name": "cbb523f4b09188552256a14e66a01240", "lat": 38.8198635, "fusion_lat": 0.0, "lon": -76.99818683333334, "is_disabled": 0, "fusion_lon": 0.0, "rental_uris": {"android": "https://dc.lft.to/lastmile_qr_scan", "ios": "https://dc.lft.to/lastmile_qr_scan"}, "type": "electric_bike"}, {"bike_id": "0f2dbb337abd7297ce1f91d016dedf0c", "is_reserved": 0, "name": "0f2dbb337abd7297ce1f91d016dedf0c", "lat": 38.9180955, "fusion_lat": 0.0, "lon": -77.0317705, "is_disabled": 0, "fusion_lon": 0.0, "rental_uris": {"android": "https://dc.lft.to/lastmile_qr_scan", "ios": "https://dc.lft.to/lastmile_qr_scan"}, "type": "electric_scooter"}, {"bike_id": "199a23d4cfcce6b52a6fa0a4ca4f2b9a", "is_reserved": 0, "name": "199a23d4cfcce6b52a6fa0a4ca4f2b9a", "lat": 38.89218783333333, "fusion_lat": 0.0, "lon": -77.0433025, "is_disabled": 0, "fusion_lon": 0.0, "rental_uris": {"android": "https://dc.lft.to/lastmile_qr_scan", "ios": "https://dc.lft.to/lastmile_qr_scan"}, "type": "electric_scooter"}, {"bike_id": "d58e03e5637ff1fc55da9b4bcd96fea3", "is_reserved": 0, "name": "d58e03e5637ff1fc55da9b4bcd96fea3", "lat": 38.92144016666666, "fusion_lat": 0.0, "lon": -77.01925066666666, "is_disabled": 0, "fusion_lon": 0.0, "rental_uris": {"android": "https://dc.lft.to/lastmile_qr_scan", "ios": "https://dc.lft.to/lastmile_qr_scan"}, "type": "electric_scooter"}, {"bike_id": "3dc14c85a969851fe10bc19d485b1621", "is_reserved": 0, "name": "3dc14c85a969851fe10bc19d485b1621", "lat": 38.927939333333335, "fusion_lat": 0.0, "lon": -77.0211215, "is_disabled": 0, "fusion_lon": 0.0, "rental_uris": {"android": "https://dc.lft.to/lastmile_qr_scan", "ios": "https://dc.lft.to/lastmile_qr_scan"}, "type": "electric_scooter"}, {"bike_id": "5c3150fb78bdbce786659c3f2f24c411", "is_reserved": 0, "name": "5c3150fb78bdbce786659c3f2f24c411", "lat": 38.90017816666666, "fusion_lat": 0.0, "lon": -77.04498266666667, "is_disabled": 0, "fusion_lon": 0.0, "rental_uris": {"android": "https://dc.lft.to/lastmile_qr_scan", "ios": "https://dc.lft.to/lastmile_qr_scan"}, "type": "electric_scooter"}, {"bike_id": "fdf230189c97f76d224d0127d1419203", "is_reserved": 0, "name": "fdf230189c97f76d224d0127d1419203", "lat": 38.9012155, "fusion_lat": 0.0, "lon": -77.02602466666667, "is_disabled": 0, "fusion_lon": 0.0, "rental_uris": {"android": "https://dc.lft.to/lastmile_qr_scan", "ios": "https://dc.lft.to/lastmile_qr_scan"}, "type": "electric_scooter"}, {"bike_id": "86fcd946cb5e274fb2beaaf15c18c07c", "is_reserved": 0, "name": "86fcd946cb5e274fb2beaaf15c18c07c", "lat": 38.89173916666667, "fusion_lat": 0.0, "lon": -76.9265255, "is_disabled": 0, "fusion_lon": 0.0, "rental_uris": {"android": "https://dc.lft.to/lastmile_qr_scan", "ios": "https://dc.lft.to/lastmile_qr_scan"}, "type": "electric_scooter"}, {"bike_id": "ee9b1a1ca2bc99e5fd84461619b93310", "is_reserved": 0, "name": "ee9b1a1ca2bc99e5fd84461619b93310", "lat": 38.92150133333333, "fusion_lat": 0.0, "lon": -76.99355916666667, "is_disabled": 0, "fusion_lon": 0.0, "rental_uris": {"android": "https://dc.lft.to/lastmile_qr_scan", "ios": "https://dc.lft.to/lastmile_qr_scan"}, "type": "electric_scooter"}, {"bike_id": "31608ed48379df01e6a53ac75d71fec1", "is_reserved": 0, "name": "31608ed48379df01e6a53ac75d71fec1", "lat": 38.927570333333335, "fusion_lat": 0.0, "lon": -77.05271533333334, "is_disabled": 0, "fusion_lon": 0.0, "rental_uris": {"android": "https://dc.lft.to/lastmile_qr_scan", "ios": "https://dc.lft.to/lastmile_qr_scan"}, "type": "electric_scooter"}, {"bike_id": "0625785953c5b181525c1c989447a5ac", "is_reserved": 0, "name": "0625785953c5b181525c1c989447a5ac", "lat": 38.9278535, "fusion_lat": 0.0, "lon": -77.05313933333333, "is_disabled": 0, "fusion_lon": 0.0, "rental_uris": {"android": "https://dc.lft.to/lastmile_qr_scan", "ios": "https://dc.lft.to/lastmile_qr_scan"}, "type": "electric_scooter"}, {"bike_id": "dcbac1d6d0daaf4dbeb9c95d28953d83", "is_reserved": 0, "name": "dcbac1d6d0daaf4dbeb9c95d28953d83", "lat": 38.92940816666667, "fusion_lat": 0.0, "lon": -77.0326765, "is_disabled": 0, "fusion_lon": 0.0, "rental_uris": {"android": "https://dc.lft.to/lastmile_qr_scan", "ios": "https://dc.lft.to/lastmile_qr_scan"}, "type": "electric_scooter"}, {"bike_id": "5d1289c1d577262e95d77e4b346ffe21", "is_reserved": 0, "name": "5d1289c1d577262e95d77e4b346ffe21", "lat": 38.903546, "fusion_lat": 0.0, "lon": -77.03934733333334, "is_disabled": 0, "fusion_lon": 0.0, "rental_uris": {"android": "https://dc.lft.to/lastmile_qr_scan", "ios": "https://dc.lft.to/lastmile_qr_scan"}, "type": "electric_scooter"}, {"bike_id": "a783c7d4ac095017b8ca309652943926", "is_reserved": 0, "name": "a783c7d4ac095017b8ca309652943926", "lat": 38.917054666666665, "fusion_lat": 0.0, "lon": -77.03349133333333, "is_disabled": 0, "fusion_lon": 0.0, "rental_uris": {"android": "https://dc.lft.to/lastmile_qr_scan", "ios": "https://dc.lft.to/lastmile_qr_scan"}, "type": "electric_scooter"}, {"bike_id": "fa8c634f748cd8cf070ea6d26c4d13e7", "is_reserved": 0, "name": "fa8c634f748cd8cf070ea6d26c4d13e7", "lat": 38.924666333333334, "fusion_lat": 0.0, "lon": -77.03948783333334, "is_disabled": 0, "fusion_lon": 0.0, "rental_uris": {"android": "https://dc.lft.to/lastmile_qr_scan", "ios": "https://dc.lft.to/lastmile_qr_scan"}, "type": "electric_scooter"}, {"bike_id": "5ee5f15fe647d3455029b61f656dfce6", "is_reserved": 0, "name": "5ee5f15fe647d3455029b61f656dfce6", "lat": 38.90527, "fusion_lat": 0.0, "lon": -77.05632, "is_disabled": 0, "fusion_lon": 0.0, "rental_uris": {"android": "https://dc.lft.to/lastmile_qr_scan", "ios": "https://dc.lft.to/lastmile_qr_scan"}, "type": "electric_scooter"}, {"bike_id": "4c0a1b9166c6af5d45f3db16e2337d77", "is_reserved": 0, "name": "4c0a1b9166c6af5d45f3db16e2337d77", "lat": 38.90261916666667, "fusion_lat": 0.0, "lon": -77.01862166666666, "is_disabled": 0, "fusion_lon": 0.0, "rental_uris": {"android": "https://dc.lft.to/lastmile_qr_scan", "ios": "https://dc.lft.to/lastmile_qr_scan"}, "type": "electric_scooter"}, {"bike_id": "3fa846de248df232e7c3b6b0892647cc", "is_reserved": 0, "name": "3fa846de248df232e7c3b6b0892647cc", "lat": 38.908441333333336, "fusion_lat": 0.0, "lon": -77.06344183333333, "is_disabled": 0, "fusion_lon": 0.0, "rental_uris": {"android": "https://dc.lft.to/lastmile_qr_scan", "ios": "https://dc.lft.to/lastmile_qr_scan"}, "type": "electric_scooter"}, {"bike_id": "1dfce68502a68fc23e14b496aaf2628e", "is_reserved": 0, "name": "1dfce68502a68fc23e14b496aaf2628e", "lat": 38.79984233333333, "fusion_lat": 0.0, "lon": -77.12984666666667, "is_disabled": 0, "fusion_lon": 0.0, "rental_uris": {"android": "https://dc.lft.to/lastmile_qr_scan", "ios": "https://dc.lft.to/lastmile_qr_scan"}, "type": "electric_bike"}, {"bike_id": "796a1a15bb6ff2a1192b9545f9331d5f", "is_reserved": 0, "name": "796a1a15bb6ff2a1192b9545f9331d5f", "lat": 38.9172865, "fusion_lat": 0.0, "lon": -77.041705, "is_disabled": 0, "fusion_lon": 0.0, "rental_uris": {"android": "https://dc.lft.to/lastmile_qr_scan", "ios": "https://dc.lft.to/lastmile_qr_scan"}, "type": "electric_scooter"}, {"bike_id": "8fccd95e59e1667599261b8792a3c213", "is_reserved": 0, "name": "8fccd95e59e1667599261b8792a3c213", "lat": 38.932576, "fusion_lat": 0.0, "lon": -76.9890245, "is_disabled": 0, "fusion_lon": 0.0, "rental_uris": {"android": "https://dc.lft.to/lastmile_qr_scan", "ios": "https://dc.lft.to/lastmile_qr_scan"}, "type": "electric_scooter"}, {"bike_id": "15382b889f1ddbd79db52ef6d2dd2e30", "is_reserved": 0, "name": "15382b889f1ddbd79db52ef6d2dd2e30", "lat": 38.88651983333333, "fusion_lat": 0.0, "lon": -77.02000166666667, "is_disabled": 0, "fusion_lon": 0.0, "rental_uris": {"android": "https://dc.lft.to/lastmile_qr_scan", "ios": "https://dc.lft.to/lastmile_qr_scan"}, "type": "electric_scooter"}, {"bike_id": "ea3e94a9637c52301b9e629ff831c5bf", "is_reserved": 0, "name": "ea3e94a9637c52301b9e629ff831c5bf", "lat": 38.908635833333335, "fusion_lat": 0.0, "lon": -77.0384695, "is_disabled": 0, "fusion_lon": 0.0, "rental_uris": {"android": "https://dc.lft.to/lastmile_qr_scan", "ios": "https://dc.lft.to/lastmile_qr_scan"}, "type": "electric_scooter"}, {"bike_id": "705b2082fce9fb0e660ddf29a70dfa13", "is_reserved": 0, "name": "705b2082fce9fb0e660ddf29a70dfa13", "lat": 38.954837, "fusion_lat": 0.0, "lon": -77.0267035, "is_disabled": 0, "fusion_lon": 0.0, "rental_uris": {"android": "https://dc.lft.to/lastmile_qr_scan", "ios": "https://dc.lft.to/lastmile_qr_scan"}, "type": "electric_bike"}, {"bike_id": "bdfc5e045b3fffa2e3fba7c4d5c6ceaa", "is_reserved": 0, "name": "bdfc5e045b3fffa2e3fba7c4d5c6ceaa", "lat": 38.87208066666667, "fusion_lat": 0.0, "lon": -77.0168155, "is_disabled": 0, "fusion_lon": 0.0, "rental_uris": {"android": "https://dc.lft.to/lastmile_qr_scan", "ios": "https://dc.lft.to/lastmile_qr_scan"}, "type": "electric_scooter"}, {"bike_id": "cdf53382633d43d9cecaa169ef7f079d", "is_reserved": 0, "name": "cdf53382633d43d9cecaa169ef7f079d", "lat": 38.86332133333333, "fusion_lat": 0.0, "lon": -76.98717166666667, "is_disabled": 0, "fusion_lon": 0.0, "rental_uris": {"android": "https://dc.lft.to/lastmile_qr_scan", "ios": "https://dc.lft.to/lastmile_qr_scan"}, "type": "electric_bike"}, {"bike_id": "aa0439e82e9b4718b301854f543ceb31", "is_reserved": 0, "name": "aa0439e82e9b4718b301854f543ceb31", "lat": 38.9091305, "fusion_lat": 0.0, "lon": -77.0642535, "is_disabled": 0, "fusion_lon": 0.0, "rental_uris": {"android": "https://dc.lft.to/lastmile_qr_scan", "ios": "https://dc.lft.to/lastmile_qr_scan"}, "type": "electric_scooter"}, {"bike_id": "639f965a7a339472da6e184e16ce2e97", "is_reserved": 0, "name": "639f965a7a339472da6e184e16ce2e97", "lat": 38.89032, "fusion_lat": 0.0, "lon": -76.93749616666666, "is_disabled": 0, "fusion_lon": 0.0, "rental_uris": {"android": "https://dc.lft.to/lastmile_qr_scan", "ios": "https://dc.lft.to/lastmile_qr_scan"}, "type": "electric_scooter"}, {"bike_id": "36133663aaafa0332beb1341dd6695eb", "is_reserved": 0, "name": "36133663aaafa0332beb1341dd6695eb", "lat": 38.921831833333336, "fusion_lat": 0.0, "lon": -77.04182816666666, "is_disabled": 0, "fusion_lon": 0.0, "rental_uris": {"android": "https://dc.lft.to/lastmile_qr_scan", "ios": "https://dc.lft.to/lastmile_qr_scan"}, "type": "electric_scooter"}, {"bike_id": "4b6dd20a1d7a5dcc1c5a83fd05e56ad9", "is_reserved": 0, "name": "4b6dd20a1d7a5dcc1c5a83fd05e56ad9", "lat": 38.8984455, "fusion_lat": 0.0, "lon": -77.02961066666667, "is_disabled": 0, "fusion_lon": 0.0, "rental_uris": {"android": "https://dc.lft.to/lastmile_qr_scan", "ios": "https://dc.lft.to/lastmile_qr_scan"}, "type": "electric_scooter"}, {"bike_id": "f6d0687480f6a084ec4bd9eacd17924a", "is_reserved": 0, "name": "f6d0687480f6a084ec4bd9eacd17924a", "lat": 38.90463733333333, "fusion_lat": 0.0, "lon": -77.06296066666667, "is_disabled": 0, "fusion_lon": 0.0, "rental_uris": {"android": "https://dc.lft.to/lastmile_qr_scan", "ios": "https://dc.lft.to/lastmile_qr_scan"}, "type": "electric_scooter"}, {"bike_id": "80be2b38538671f34ddb55035e5da88f", "is_reserved": 0, "name": "80be2b38538671f34ddb55035e5da88f", "lat": 38.916986666666666, "fusion_lat": 0.0, "lon": -77.02354633333333, "is_disabled": 0, "fusion_lon": 0.0, "rental_uris": {"android": "https://dc.lft.to/lastmile_qr_scan", "ios": "https://dc.lft.to/lastmile_qr_scan"}, "type": "electric_scooter"}, {"bike_id": "320504922aabcb1937a8024fefc7051e", "is_reserved": 0, "name": "320504922aabcb1937a8024fefc7051e", "lat": 38.885343, "fusion_lat": 0.0, "lon": -77.00064, "is_disabled": 0, "fusion_lon": 0.0, "rental_uris": {"android": "https://dc.lft.to/lastmile_qr_scan", "ios": "https://dc.lft.to/lastmile_qr_scan"}, "type": "electric_scooter"}, {"bike_id": "18f5404239654c8eb65f9204e7e717e4", "is_reserved": 0, "name": "18f5404239654c8eb65f9204e7e717e4", "lat": 38.92254883333333, "fusion_lat": 0.0, "lon": -77.03515933333334, "is_disabled": 0, "fusion_lon": 0.0, "rental_uris": {"android": "https://dc.lft.to/lastmile_qr_scan", "ios": "https://dc.lft.to/lastmile_qr_scan"}, "type": "electric_scooter"}, {"bike_id": "c49d64958efdc2ae60edf3cac4433bdf", "is_reserved": 0, "name": "c49d64958efdc2ae60edf3cac4433bdf", "lat": 38.904584666666665, "fusion_lat": 0.0, "lon": -77.00163833333333, "is_disabled": 0, "fusion_lon": 0.0, "rental_uris": {"android": "https://dc.lft.to/lastmile_qr_scan", "ios": "https://dc.lft.to/lastmile_qr_scan"}, "type": "electric_scooter"}, {"bike_id": "128bcb91beba8c5cfa6c8640dbfc53ed", "is_reserved": 0, "name": "128bcb91beba8c5cfa6c8640dbfc53ed", "lat": 38.907732833333334, "fusion_lat": 0.0, "lon": -77.0716565, "is_disabled": 0, "fusion_lon": 0.0, "rental_uris": {"android": "https://dc.lft.to/lastmile_qr_scan", "ios": "https://dc.lft.to/lastmile_qr_scan"}, "type": "electric_scooter"}, {"bike_id": "fc94fcf7ec710a692be592cdc8d28906", "is_reserved": 0, "name": "fc94fcf7ec710a692be592cdc8d28906", "lat": 38.892208333333336, "fusion_lat": 0.0, "lon": -77.026286, "is_disabled": 0, "fusion_lon": 0.0, "rental_uris": {"android": "https://dc.lft.to/lastmile_qr_scan", "ios": "https://dc.lft.to/lastmile_qr_scan"}, "type": "electric_scooter"}, {"bike_id": "ac227340ca001fb11caff4c8ba20976d", "is_reserved": 0, "name": "ac227340ca001fb11caff4c8ba20976d", "lat": 38.88727183333334, "fusion_lat": 0.0, "lon": -77.01768633333333, "is_disabled": 0, "fusion_lon": 0.0, "rental_uris": {"android": "https://dc.lft.to/lastmile_qr_scan", "ios": "https://dc.lft.to/lastmile_qr_scan"}, "type": "electric_scooter"}, {"bike_id": "ad4397238fe017816f7e665b4aa03974", "is_reserved": 0, "name": "ad4397238fe017816f7e665b4aa03974", "lat": 38.885392, "fusion_lat": 0.0, "lon": -77.0006555, "is_disabled": 0, "fusion_lon": 0.0, "rental_uris": {"android": "https://dc.lft.to/lastmile_qr_scan", "ios": "https://dc.lft.to/lastmile_qr_scan"}, "type": "electric_scooter"}, {"bike_id": "272e805b648083d265947a29e20fd31e", "is_reserved": 0, "name": "272e805b648083d265947a29e20fd31e", "lat": 38.918708, "fusion_lat": 0.0, "lon": -77.0419755, "is_disabled": 0, "fusion_lon": 0.0, "rental_uris": {"android": "https://dc.lft.to/lastmile_qr_scan", "ios": "https://dc.lft.to/lastmile_qr_scan"}, "type": "electric_scooter"}, {"bike_id": "ecae4420c4b00ae30ede6c3dedabb413", "is_reserved": 0, "name": "ecae4420c4b00ae30ede6c3dedabb413", "lat": 38.903903666666665, "fusion_lat": 0.0, "lon": -77.06809616666666, "is_disabled": 0, "fusion_lon": 0.0, "rental_uris": {"android": "https://dc.lft.to/lastmile_qr_scan", "ios": "https://dc.lft.to/lastmile_qr_scan"}, "type": "electric_scooter"}, {"bike_id": "195c7216f4b1e9535bdff7b74cedf2b6", "is_reserved": 0, "name": "195c7216f4b1e9535bdff7b74cedf2b6", "lat": 38.909530333333336, "fusion_lat": 0.0, "lon": -77.03467383333333, "is_disabled": 0, "fusion_lon": 0.0, "rental_uris": {"android": "https://dc.lft.to/lastmile_qr_scan", "ios": "https://dc.lft.to/lastmile_qr_scan"}, "type": "electric_scooter"}, {"bike_id": "995d533cd5133913e53abc8b4ffb18b1", "is_reserved": 0, "name": "995d533cd5133913e53abc8b4ffb18b1", "lat": 38.899552166666666, "fusion_lat": 0.0, "lon": -77.05702333333333, "is_disabled": 0, "fusion_lon": 0.0, "rental_uris": {"android": "https://dc.lft.to/lastmile_qr_scan", "ios": "https://dc.lft.to/lastmile_qr_scan"}, "type": "electric_scooter"}, {"bike_id": "779002c84761309333149c62b9b129ce", "is_reserved": 0, "name": "779002c84761309333149c62b9b129ce", "lat": 38.898307333333335, "fusion_lat": 0.0, "lon": -76.94632033333333, "is_disabled": 0, "fusion_lon": 0.0, "rental_uris": {"android": "https://dc.lft.to/lastmile_qr_scan", "ios": "https://dc.lft.to/lastmile_qr_scan"}, "type": "electric_scooter"}, {"bike_id": "30e9df662c83e3c73a8cc9bfa77e5ee9", "is_reserved": 0, "name": "30e9df662c83e3c73a8cc9bfa77e5ee9", "lat": 38.8863, "fusion_lat": 0.0, "lon": -76.9258215, "is_disabled": 0, "fusion_lon": 0.0, "rental_uris": {"android": "https://dc.lft.to/lastmile_qr_scan", "ios": "https://dc.lft.to/lastmile_qr_scan"}, "type": "electric_scooter"}, {"bike_id": "02dd6bd14e39c2bb955ab9c08ef3d402", "is_reserved": 0, "name": "02dd6bd14e39c2bb955ab9c08ef3d402", "lat": 38.9037975, "fusion_lat": 0.0, "lon": -77.03336816666666, "is_disabled": 0, "fusion_lon": 0.0, "rental_uris": {"android": "https://dc.lft.to/lastmile_qr_scan", "ios": "https://dc.lft.to/lastmile_qr_scan"}, "type": "electric_scooter"}, {"bike_id": "8b909947b067da795a0fe62f38485399", "is_reserved": 0, "name": "8b909947b067da795a0fe62f38485399", "lat": 38.89926666666667, "fusion_lat": 0.0, "lon": -77.05003633333334, "is_disabled": 0, "fusion_lon": 0.0, "rental_uris": {"android": "https://dc.lft.to/lastmile_qr_scan", "ios": "https://dc.lft.to/lastmile_qr_scan"}, "type": "electric_scooter"}, {"bike_id": "aa157f0b284dd04ebdc6e5c6a8c7ac3c", "is_reserved": 0, "name": "aa157f0b284dd04ebdc6e5c6a8c7ac3c", "lat": 38.895271, "fusion_lat": 0.0, "lon": -77.00208983333333, "is_disabled": 0, "fusion_lon": 0.0, "rental_uris": {"android": "https://dc.lft.to/lastmile_qr_scan", "ios": "https://dc.lft.to/lastmile_qr_scan"}, "type": "electric_scooter"}, {"bike_id": "288f94c486d481bf37dfcf85987f41c4", "is_reserved": 0, "name": "288f94c486d481bf37dfcf85987f41c4", "lat": 38.91065833333333, "fusion_lat": 0.0, "lon": -77.04246966666666, "is_disabled": 0, "fusion_lon": 0.0, "rental_uris": {"android": "https://dc.lft.to/lastmile_qr_scan", "ios": "https://dc.lft.to/lastmile_qr_scan"}, "type": "electric_scooter"}, {"bike_id": "9b96530c0d0fc1b19e5766c47921c4d1", "is_reserved": 0, "name": "9b96530c0d0fc1b19e5766c47921c4d1", "lat": 38.914038833333336, "fusion_lat": 0.0, "lon": -77.07554633333334, "is_disabled": 0, "fusion_lon": 0.0, "rental_uris": {"android": "https://dc.lft.to/lastmile_qr_scan", "ios": "https://dc.lft.to/lastmile_qr_scan"}, "type": "electric_scooter"}, {"bike_id": "08977137e8b7bedf45972d689c56f22f", "is_reserved": 0, "name": "08977137e8b7bedf45972d689c56f22f", "lat": 38.89213766666667, "fusion_lat": 0.0, "lon": -76.99569483333333, "is_disabled": 0, "fusion_lon": 0.0, "rental_uris": {"android": "https://dc.lft.to/lastmile_qr_scan", "ios": "https://dc.lft.to/lastmile_qr_scan"}, "type": "electric_scooter"}, {"bike_id": "5bcd6be38fa85df33d8c653473bc0136", "is_reserved": 0, "name": "5bcd6be38fa85df33d8c653473bc0136", "lat": 38.93776833333333, "fusion_lat": 0.0, "lon": -77.03264316666667, "is_disabled": 0, "fusion_lon": 0.0, "rental_uris": {"android": "https://dc.lft.to/lastmile_qr_scan", "ios": "https://dc.lft.to/lastmile_qr_scan"}, "type": "electric_scooter"}, {"bike_id": "735d431b36984069bade7cc76a421049", "is_reserved": 0, "name": "735d431b36984069bade7cc76a421049", "lat": 38.95604066666667, "fusion_lat": 0.0, "lon": -77.03355166666667, "is_disabled": 0, "fusion_lon": 0.0, "rental_uris": {"android": "https://dc.lft.to/lastmile_qr_scan", "ios": "https://dc.lft.to/lastmile_qr_scan"}, "type": "electric_scooter"}, {"bike_id": "d5ef14db5133d73d0061b87393c3605d", "is_reserved": 0, "name": "d5ef14db5133d73d0061b87393c3605d", "lat": 38.91187633333333, "fusion_lat": 0.0, "lon": -77.03761833333333, "is_disabled": 0, "fusion_lon": 0.0, "rental_uris": {"android": "https://dc.lft.to/lastmile_qr_scan", "ios": "https://dc.lft.to/lastmile_qr_scan"}, "type": "electric_scooter"}, {"bike_id": "9ee87a662042d4c2bf12c802354c7834", "is_reserved": 0, "name": "9ee87a662042d4c2bf12c802354c7834", "lat": 38.902882, "fusion_lat": 0.0, "lon": -77.03358666666666, "is_disabled": 0, "fusion_lon": 0.0, "rental_uris": {"android": "https://dc.lft.to/lastmile_qr_scan", "ios": "https://dc.lft.to/lastmile_qr_scan"}, "type": "electric_scooter"}, {"bike_id": "45c0566a30c9dead89cbf5655bc76045", "is_reserved": 0, "name": "45c0566a30c9dead89cbf5655bc76045", "lat": 38.89588533333333, "fusion_lat": 0.0, "lon": -77.02355333333334, "is_disabled": 0, "fusion_lon": 0.0, "rental_uris": {"android": "https://dc.lft.to/lastmile_qr_scan", "ios": "https://dc.lft.to/lastmile_qr_scan"}, "type": "electric_scooter"}, {"bike_id": "a02f55d5aa352ac854a37043b11ec857", "is_reserved": 0, "name": "a02f55d5aa352ac854a37043b11ec857", "lat": 38.9181385, "fusion_lat": 0.0, "lon": -77.03999766666666, "is_disabled": 0, "fusion_lon": 0.0, "rental_uris": {"android": "https://dc.lft.to/lastmile_qr_scan", "ios": "https://dc.lft.to/lastmile_qr_scan"}, "type": "electric_scooter"}, {"bike_id": "3616fa4cd12800b675c1a6fb4a4b77ba", "is_reserved": 0, "name": "3616fa4cd12800b675c1a6fb4a4b77ba", "lat": 38.91264433333333, "fusion_lat": 0.0, "lon": -77.02822733333333, "is_disabled": 0, "fusion_lon": 0.0, "rental_uris": {"android": "https://dc.lft.to/lastmile_qr_scan", "ios": "https://dc.lft.to/lastmile_qr_scan"}, "type": "electric_scooter"}, {"bike_id": "aec8e86df5a55ed91a2bf5a9f69a552c", "is_reserved": 0, "name": "aec8e86df5a55ed91a2bf5a9f69a552c", "lat": 38.899469333333336, "fusion_lat": 0.0, "lon": -77.024707, "is_disabled": 0, "fusion_lon": 0.0, "rental_uris": {"android": "https://dc.lft.to/lastmile_qr_scan", "ios": "https://dc.lft.to/lastmile_qr_scan"}, "type": "electric_scooter"}, {"bike_id": "3f0fc261f896bdddd3d163cf838a25df", "is_reserved": 0, "name": "3f0fc261f896bdddd3d163cf838a25df", "lat": 38.90725233333333, "fusion_lat": 0.0, "lon": -77.040778, "is_disabled": 0, "fusion_lon": 0.0, "rental_uris": {"android": "https://dc.lft.to/lastmile_qr_scan", "ios": "https://dc.lft.to/lastmile_qr_scan"}, "type": "electric_scooter"}, {"bike_id": "df1d04eafdb939965029791dc4786430", "is_reserved": 0, "name": "df1d04eafdb939965029791dc4786430", "lat": 38.917440666666664, "fusion_lat": 0.0, "lon": -77.0345205, "is_disabled": 0, "fusion_lon": 0.0, "rental_uris": {"android": "https://dc.lft.to/lastmile_qr_scan", "ios": "https://dc.lft.to/lastmile_qr_scan"}, "type": "electric_scooter"}, {"bike_id": "0a4aded99cda10c1738118aa002df43a", "is_reserved": 0, "name": "0a4aded99cda10c1738118aa002df43a", "lat": 38.8999945, "fusion_lat": 0.0, "lon": -77.02716983333333, "is_disabled": 0, "fusion_lon": 0.0, "rental_uris": {"android": "https://dc.lft.to/lastmile_qr_scan", "ios": "https://dc.lft.to/lastmile_qr_scan"}, "type": "electric_scooter"}, {"bike_id": "d36baf27fa7eff69ca0fb5251caa1750", "is_reserved": 0, "name": "d36baf27fa7eff69ca0fb5251caa1750", "lat": 38.91414983333333, "fusion_lat": 0.0, "lon": -77.03895766666666, "is_disabled": 0, "fusion_lon": 0.0, "rental_uris": {"android": "https://dc.lft.to/lastmile_qr_scan", "ios": "https://dc.lft.to/lastmile_qr_scan"}, "type": "electric_scooter"}, {"bike_id": "aa7145e158a8f263f112618d9b026d30", "is_reserved": 0, "name": "aa7145e158a8f263f112618d9b026d30", "lat": 38.88748916666667, "fusion_lat": 0.0, "lon": -77.02775933333334, "is_disabled": 0, "fusion_lon": 0.0, "rental_uris": {"android": "https://dc.lft.to/lastmile_qr_scan", "ios": "https://dc.lft.to/lastmile_qr_scan"}, "type": "electric_scooter"}, {"bike_id": "53489998290694e026aa291d8625474f", "is_reserved": 0, "name": "53489998290694e026aa291d8625474f", "lat": 38.91854566666667, "fusion_lat": 0.0, "lon": -77.040387, "is_disabled": 0, "fusion_lon": 0.0, "rental_uris": {"android": "https://dc.lft.to/lastmile_qr_scan", "ios": "https://dc.lft.to/lastmile_qr_scan"}, "type": "electric_scooter"}, {"bike_id": "d1f93a7e9224e75e80bf47f57181167a", "is_reserved": 0, "name": "d1f93a7e9224e75e80bf47f57181167a", "lat": 38.9181045, "fusion_lat": 0.0, "lon": -77.03181233333333, "is_disabled": 0, "fusion_lon": 0.0, "rental_uris": {"android": "https://dc.lft.to/lastmile_qr_scan", "ios": "https://dc.lft.to/lastmile_qr_scan"}, "type": "electric_scooter"}, {"bike_id": "9dc3ef1f0d35edf99f0ad5a4c1a37e6c", "is_reserved": 0, "name": "9dc3ef1f0d35edf99f0ad5a4c1a37e6c", "lat": 38.928502333333334, "fusion_lat": 0.0, "lon": -77.0138585, "is_disabled": 0, "fusion_lon": 0.0, "rental_uris": {"android": "https://dc.lft.to/lastmile_qr_scan", "ios": "https://dc.lft.to/lastmile_qr_scan"}, "type": "electric_scooter"}, {"bike_id": "fe79c85f75d1327eca3307dc7357ae16", "is_reserved": 0, "name": "fe79c85f75d1327eca3307dc7357ae16", "lat": 38.934218333333334, "fusion_lat": 0.0, "lon": -77.04280066666666, "is_disabled": 0, "fusion_lon": 0.0, "rental_uris": {"android": "https://dc.lft.to/lastmile_qr_scan", "ios": "https://dc.lft.to/lastmile_qr_scan"}, "type": "electric_scooter"}, {"bike_id": "df7e2c3598639a0f35e896373c105420", "is_reserved": 0, "name": "df7e2c3598639a0f35e896373c105420", "lat": 38.920322166666665, "fusion_lat": 0.0, "lon": -77.0819535, "is_disabled": 0, "fusion_lon": 0.0, "rental_uris": {"android": "https://dc.lft.to/lastmile_qr_scan", "ios": "https://dc.lft.to/lastmile_qr_scan"}, "type": "electric_scooter"}, {"bike_id": "93b6b20673a63d7d409237d787b159bb", "is_reserved": 0, "name": "93b6b20673a63d7d409237d787b159bb", "lat": 38.921305333333336, "fusion_lat": 0.0, "lon": -77.0457665, "is_disabled": 0, "fusion_lon": 0.0, "rental_uris": {"android": "https://dc.lft.to/lastmile_qr_scan", "ios": "https://dc.lft.to/lastmile_qr_scan"}, "type": "electric_scooter"}, {"bike_id": "484e3abad1f107c1077b51f31ee01a8b", "is_reserved": 0, "name": "484e3abad1f107c1077b51f31ee01a8b", "lat": 38.91631566666667, "fusion_lat": 0.0, "lon": -77.050716, "is_disabled": 0, "fusion_lon": 0.0, "rental_uris": {"android": "https://dc.lft.to/lastmile_qr_scan", "ios": "https://dc.lft.to/lastmile_qr_scan"}, "type": "electric_scooter"}, {"bike_id": "1f8dc6cd5621ff8b0d4ba2d95c7e1f2d", "is_reserved": 0, "name": "1f8dc6cd5621ff8b0d4ba2d95c7e1f2d", "lat": 38.89716416666667, "fusion_lat": 0.0, "lon": -77.02727783333333, "is_disabled": 0, "fusion_lon": 0.0, "rental_uris": {"android": "https://dc.lft.to/lastmile_qr_scan", "ios": "https://dc.lft.to/lastmile_qr_scan"}, "type": "electric_scooter"}, {"bike_id": "1ab8a6ba0882e0eea48821d43e75932d", "is_reserved": 0, "name": "1ab8a6ba0882e0eea48821d43e75932d", "lat": 38.93088516666667, "fusion_lat": 0.0, "lon": -77.03438366666667, "is_disabled": 0, "fusion_lon": 0.0, "rental_uris": {"android": "https://dc.lft.to/lastmile_qr_scan", "ios": "https://dc.lft.to/lastmile_qr_scan"}, "type": "electric_scooter"}, {"bike_id": "1d840e158f021238df37b581de842158", "is_reserved": 0, "name": "1d840e158f021238df37b581de842158", "lat": 38.902492333333335, "fusion_lat": 0.0, "lon": -77.0342435, "is_disabled": 0, "fusion_lon": 0.0, "rental_uris": {"android": "https://dc.lft.to/lastmile_qr_scan", "ios": "https://dc.lft.to/lastmile_qr_scan"}, "type": "electric_scooter"}, {"bike_id": "cfa46670c5f7cd33b20883b52823bb20", "is_reserved": 0, "name": "cfa46670c5f7cd33b20883b52823bb20", "lat": 38.90535716666667, "fusion_lat": 0.0, "lon": -77.0450935, "is_disabled": 0, "fusion_lon": 0.0, "rental_uris": {"android": "https://dc.lft.to/lastmile_qr_scan", "ios": "https://dc.lft.to/lastmile_qr_scan"}, "type": "electric_scooter"}, {"bike_id": "722cca26f4da80039652aaab9f5b8b88", "is_reserved": 0, "name": "722cca26f4da80039652aaab9f5b8b88", "lat": 38.875569166666665, "fusion_lat": 0.0, "lon": -77.00602133333334, "is_disabled": 0, "fusion_lon": 0.0, "rental_uris": {"android": "https://dc.lft.to/lastmile_qr_scan", "ios": "https://dc.lft.to/lastmile_qr_scan"}, "type": "electric_scooter"}, {"bike_id": "c042f40f74a664b53360bc028d2dc39c", "is_reserved": 0, "name": "c042f40f74a664b53360bc028d2dc39c", "lat": 38.9111205, "fusion_lat": 0.0, "lon": -77.04537, "is_disabled": 0, "fusion_lon": 0.0, "rental_uris": {"android": "https://dc.lft.to/lastmile_qr_scan", "ios": "https://dc.lft.to/lastmile_qr_scan"}, "type": "electric_scooter"}, {"bike_id": "559433ae95f306d4e3c9863d57ba8e2f", "is_reserved": 0, "name": "559433ae95f306d4e3c9863d57ba8e2f", "lat": 38.91562533333333, "fusion_lat": 0.0, "lon": -77.02173233333333, "is_disabled": 0, "fusion_lon": 0.0, "rental_uris": {"android": "https://dc.lft.to/lastmile_qr_scan", "ios": "https://dc.lft.to/lastmile_qr_scan"}, "type": "electric_scooter"}, {"bike_id": "742f8c46d0d04e7f3a8850a636c1ef21", "is_reserved": 0, "name": "742f8c46d0d04e7f3a8850a636c1ef21", "lat": 38.9005415, "fusion_lat": 0.0, "lon": -77.02335333333333, "is_disabled": 0, "fusion_lon": 0.0, "rental_uris": {"android": "https://dc.lft.to/lastmile_qr_scan", "ios": "https://dc.lft.to/lastmile_qr_scan"}, "type": "electric_scooter"}, {"bike_id": "2713176b3b59bfc57856ac833d77cbd0", "is_reserved": 0, "name": "2713176b3b59bfc57856ac833d77cbd0", "lat": 38.8922115, "fusion_lat": 0.0, "lon": -77.04508483333333, "is_disabled": 0, "fusion_lon": 0.0, "rental_uris": {"android": "https://dc.lft.to/lastmile_qr_scan", "ios": "https://dc.lft.to/lastmile_qr_scan"}, "type": "electric_scooter"}, {"bike_id": "95647153cf959930426a7687adb8f814", "is_reserved": 0, "name": "95647153cf959930426a7687adb8f814", "lat": 38.871552333333334, "fusion_lat": 0.0, "lon": -77.1314265, "is_disabled": 0, "fusion_lon": 0.0, "rental_uris": {"android": "https://dc.lft.to/lastmile_qr_scan", "ios": "https://dc.lft.to/lastmile_qr_scan"}, "type": "electric_bike"}, {"bike_id": "83eabcf9d3be9560e6849f58f24132a3", "is_reserved": 0, "name": "83eabcf9d3be9560e6849f58f24132a3", "lat": 38.89849433333333, "fusion_lat": 0.0, "lon": -77.021789, "is_disabled": 0, "fusion_lon": 0.0, "rental_uris": {"android": "https://dc.lft.to/lastmile_qr_scan", "ios": "https://dc.lft.to/lastmile_qr_scan"}, "type": "electric_scooter"}, {"bike_id": "9bf74238925cc12e32b1c8134a3b2c7f", "is_reserved": 0, "name": "9bf74238925cc12e32b1c8134a3b2c7f", "lat": 38.96223, "fusion_lat": 0.0, "lon": -77.02631716666667, "is_disabled": 0, "fusion_lon": 0.0, "rental_uris": {"android": "https://dc.lft.to/lastmile_qr_scan", "ios": "https://dc.lft.to/lastmile_qr_scan"}, "type": "electric_bike"}, {"bike_id": "9701f74d672caad0c7fe2e6c6b7145eb", "is_reserved": 0, "name": "9701f74d672caad0c7fe2e6c6b7145eb", "lat": 38.92377583333333, "fusion_lat": 0.0, "lon": -77.04107366666666, "is_disabled": 0, "fusion_lon": 0.0, "rental_uris": {"android": "https://dc.lft.to/lastmile_qr_scan", "ios": "https://dc.lft.to/lastmile_qr_scan"}, "type": "electric_scooter"}, {"bike_id": "f2c7eb3810a9ddd73d3669e3ebf1f8d7", "is_reserved": 0, "name": "f2c7eb3810a9ddd73d3669e3ebf1f8d7", "lat": 38.895, "fusion_lat": 0.0, "lon": -77.03959516666667, "is_disabled": 0, "fusion_lon": 0.0, "rental_uris": {"android": "https://dc.lft.to/lastmile_qr_scan", "ios": "https://dc.lft.to/lastmile_qr_scan"}, "type": "electric_scooter"}, {"bike_id": "ea21fc37aeff4573d15c1d7586db28f9", "is_reserved": 0, "name": "ea21fc37aeff4573d15c1d7586db28f9", "lat": 38.910483, "fusion_lat": 0.0, "lon": -77.03208733333334, "is_disabled": 0, "fusion_lon": 0.0, "rental_uris": {"android": "https://dc.lft.to/lastmile_qr_scan", "ios": "https://dc.lft.to/lastmile_qr_scan"}, "type": "electric_scooter"}, {"bike_id": "8db92d3a88aafb4a84f9d92b56f8403e", "is_reserved": 0, "name": "8db92d3a88aafb4a84f9d92b56f8403e", "lat": 38.892365166666664, "fusion_lat": 0.0, "lon": -77.02383183333333, "is_disabled": 0, "fusion_lon": 0.0, "rental_uris": {"android": "https://dc.lft.to/lastmile_qr_scan", "ios": "https://dc.lft.to/lastmile_qr_scan"}, "type": "electric_scooter"}, {"bike_id": "78f3fdfda2ec8084b4883eac668c6e67", "is_reserved": 0, "name": "78f3fdfda2ec8084b4883eac668c6e67", "lat": 38.906219, "fusion_lat": 0.0, "lon": -77.0259805, "is_disabled": 0, "fusion_lon": 0.0, "rental_uris": {"android": "https://dc.lft.to/lastmile_qr_scan", "ios": "https://dc.lft.to/lastmile_qr_scan"}, "type": "electric_scooter"}, {"bike_id": "cee9235e1aebb3032757b6fb49d4a250", "is_reserved": 0, "name": "cee9235e1aebb3032757b6fb49d4a250", "lat": 38.880142666666664, "fusion_lat": 0.0, "lon": -76.98069266666667, "is_disabled": 0, "fusion_lon": 0.0, "rental_uris": {"android": "https://dc.lft.to/lastmile_qr_scan", "ios": "https://dc.lft.to/lastmile_qr_scan"}, "type": "electric_scooter"}, {"bike_id": "2a29cdd29982325b2cd4dc87048ad796", "is_reserved": 0, "name": "2a29cdd29982325b2cd4dc87048ad796", "lat": 38.906140666666666, "fusion_lat": 0.0, "lon": -77.04139366666666, "is_disabled": 0, "fusion_lon": 0.0, "rental_uris": {"android": "https://dc.lft.to/lastmile_qr_scan", "ios": "https://dc.lft.to/lastmile_qr_scan"}, "type": "electric_scooter"}, {"bike_id": "c118fbaef413d5d81d01315a7d0762d5", "is_reserved": 0, "name": "c118fbaef413d5d81d01315a7d0762d5", "lat": 38.914910666666664, "fusion_lat": 0.0, "lon": -77.04171333333333, "is_disabled": 0, "fusion_lon": 0.0, "rental_uris": {"android": "https://dc.lft.to/lastmile_qr_scan", "ios": "https://dc.lft.to/lastmile_qr_scan"}, "type": "electric_scooter"}, {"bike_id": "2d413185bb3abc466c4199cc3480524d", "is_reserved": 0, "name": "2d413185bb3abc466c4199cc3480524d", "lat": 38.93175166666666, "fusion_lat": 0.0, "lon": -77.0564975, "is_disabled": 0, "fusion_lon": 0.0, "rental_uris": {"android": "https://dc.lft.to/lastmile_qr_scan", "ios": "https://dc.lft.to/lastmile_qr_scan"}, "type": "electric_scooter"}, {"bike_id": "124b1387ab101131caf11cc0f7b46582", "is_reserved": 0, "name": "124b1387ab101131caf11cc0f7b46582", "lat": 38.900945166666666, "fusion_lat": 0.0, "lon": -77.0568945, "is_disabled": 0, "fusion_lon": 0.0, "rental_uris": {"android": "https://dc.lft.to/lastmile_qr_scan", "ios": "https://dc.lft.to/lastmile_qr_scan"}, "type": "electric_scooter"}, {"bike_id": "30154683881cf8fbf233b71e88324548", "is_reserved": 0, "name": "30154683881cf8fbf233b71e88324548", "lat": 38.9248845, "fusion_lat": 0.0, "lon": -77.2334945, "is_disabled": 0, "fusion_lon": 0.0, "rental_uris": {"android": "https://dc.lft.to/lastmile_qr_scan", "ios": "https://dc.lft.to/lastmile_qr_scan"}, "type": "electric_bike"}, {"bike_id": "a8fd686e9c7738a9c40c838f8202d6b9", "is_reserved": 0, "name": "a8fd686e9c7738a9c40c838f8202d6b9", "lat": 38.908799333333334, "fusion_lat": 0.0, "lon": -77.07535466666667, "is_disabled": 0, "fusion_lon": 0.0, "rental_uris": {"android": "https://dc.lft.to/lastmile_qr_scan", "ios": "https://dc.lft.to/lastmile_qr_scan"}, "type": "electric_scooter"}, {"bike_id": "cf8964c8b8399108457b165f5b774593", "is_reserved": 0, "name": "cf8964c8b8399108457b165f5b774593", "lat": 38.9073725, "fusion_lat": 0.0, "lon": -77.02950216666666, "is_disabled": 0, "fusion_lon": 0.0, "rental_uris": {"android": "https://dc.lft.to/lastmile_qr_scan", "ios": "https://dc.lft.to/lastmile_qr_scan"}, "type": "electric_scooter"}, {"bike_id": "1fa4731dd4fbf51600de5849293fa269", "is_reserved": 0, "name": "1fa4731dd4fbf51600de5849293fa269", "lat": 38.91019933333333, "fusion_lat": 0.0, "lon": -77.0424245, "is_disabled": 0, "fusion_lon": 0.0, "rental_uris": {"android": "https://dc.lft.to/lastmile_qr_scan", "ios": "https://dc.lft.to/lastmile_qr_scan"}, "type": "electric_scooter"}, {"bike_id": "1b97aa739c0bcd9fdb49facd1fb59340", "is_reserved": 0, "name": "1b97aa739c0bcd9fdb49facd1fb59340", "lat": 38.9056185, "fusion_lat": 0.0, "lon": -76.98144, "is_disabled": 0, "fusion_lon": 0.0, "rental_uris": {"android": "https://dc.lft.to/lastmile_qr_scan", "ios": "https://dc.lft.to/lastmile_qr_scan"}, "type": "electric_scooter"}, {"bike_id": "b27a1320cb81d9c18ace7bbf8734318c", "is_reserved": 0, "name": "b27a1320cb81d9c18ace7bbf8734318c", "lat": 38.911051666666665, "fusion_lat": 0.0, "lon": -77.04206316666667, "is_disabled": 0, "fusion_lon": 0.0, "rental_uris": {"android": "https://dc.lft.to/lastmile_qr_scan", "ios": "https://dc.lft.to/lastmile_qr_scan"}, "type": "electric_scooter"}, {"bike_id": "0421654071d107aadd0c579fe5ba1f71", "is_reserved": 0, "name": "0421654071d107aadd0c579fe5ba1f71", "lat": 38.90967033333333, "fusion_lat": 0.0, "lon": -77.0342455, "is_disabled": 0, "fusion_lon": 0.0, "rental_uris": {"android": "https://dc.lft.to/lastmile_qr_scan", "ios": "https://dc.lft.to/lastmile_qr_scan"}, "type": "electric_scooter"}, {"bike_id": "21fe0cccc8833d1aa63aea5a5c46f1b0", "is_reserved": 0, "name": "21fe0cccc8833d1aa63aea5a5c46f1b0", "lat": 38.901149333333336, "fusion_lat": 0.0, "lon": -77.03379233333334, "is_disabled": 0, "fusion_lon": 0.0, "rental_uris": {"android": "https://dc.lft.to/lastmile_qr_scan", "ios": "https://dc.lft.to/lastmile_qr_scan"}, "type": "electric_scooter"}, {"bike_id": "ffc00eb41c4d36870601635f337a36f9", "is_reserved": 0, "name": "ffc00eb41c4d36870601635f337a36f9", "lat": 38.910195333333334, "fusion_lat": 0.0, "lon": -77.04248266666667, "is_disabled": 0, "fusion_lon": 0.0, "rental_uris": {"android": "https://dc.lft.to/lastmile_qr_scan", "ios": "https://dc.lft.to/lastmile_qr_scan"}, "type": "electric_scooter"}, {"bike_id": "9da5fe8c275ac14af74334febaed3afe", "is_reserved": 0, "name": "9da5fe8c275ac14af74334febaed3afe", "lat": 38.906677333333334, "fusion_lat": 0.0, "lon": -77.02714583333334, "is_disabled": 0, "fusion_lon": 0.0, "rental_uris": {"android": "https://dc.lft.to/lastmile_qr_scan", "ios": "https://dc.lft.to/lastmile_qr_scan"}, "type": "electric_scooter"}, {"bike_id": "55059ca28ae88a45044ba4842577b0ba", "is_reserved": 0, "name": "55059ca28ae88a45044ba4842577b0ba", "lat": 38.9020145, "fusion_lat": 0.0, "lon": -77.02380216666667, "is_disabled": 0, "fusion_lon": 0.0, "rental_uris": {"android": "https://dc.lft.to/lastmile_qr_scan", "ios": "https://dc.lft.to/lastmile_qr_scan"}, "type": "electric_scooter"}, {"bike_id": "47a5dd4187d59f1181897d56136a3225", "is_reserved": 0, "name": "47a5dd4187d59f1181897d56136a3225", "lat": 38.92026766666667, "fusion_lat": 0.0, "lon": -76.99562766666666, "is_disabled": 0, "fusion_lon": 0.0, "rental_uris": {"android": "https://dc.lft.to/lastmile_qr_scan", "ios": "https://dc.lft.to/lastmile_qr_scan"}, "type": "electric_scooter"}, {"bike_id": "1d61eb52f0e95acc9e530d949db4db26", "is_reserved": 0, "name": "1d61eb52f0e95acc9e530d949db4db26", "lat": 38.923822, "fusion_lat": 0.0, "lon": -77.02732516666667, "is_disabled": 0, "fusion_lon": 0.0, "rental_uris": {"android": "https://dc.lft.to/lastmile_qr_scan", "ios": "https://dc.lft.to/lastmile_qr_scan"}, "type": "electric_scooter"}, {"bike_id": "b87ed693cf4719cd455c54b77def5620", "is_reserved": 0, "name": "b87ed693cf4719cd455c54b77def5620", "lat": 38.887327666666664, "fusion_lat": 0.0, "lon": -77.0317825, "is_disabled": 0, "fusion_lon": 0.0, "rental_uris": {"android": "https://dc.lft.to/lastmile_qr_scan", "ios": "https://dc.lft.to/lastmile_qr_scan"}, "type": "electric_scooter"}, {"bike_id": "291af18e99e8fab7c9fca0f4ef55375f", "is_reserved": 0, "name": "291af18e99e8fab7c9fca0f4ef55375f", "lat": 38.92096133333333, "fusion_lat": 0.0, "lon": -77.025308, "is_disabled": 0, "fusion_lon": 0.0, "rental_uris": {"android": "https://dc.lft.to/lastmile_qr_scan", "ios": "https://dc.lft.to/lastmile_qr_scan"}, "type": "electric_scooter"}, {"bike_id": "e8eefc234b3d6a40216e0e2245b395aa", "is_reserved": 0, "name": "e8eefc234b3d6a40216e0e2245b395aa", "lat": 38.90160516666667, "fusion_lat": 0.0, "lon": -77.0504805, "is_disabled": 0, "fusion_lon": 0.0, "rental_uris": {"android": "https://dc.lft.to/lastmile_qr_scan", "ios": "https://dc.lft.to/lastmile_qr_scan"}, "type": "electric_scooter"}, {"bike_id": "b0c7cbdcc654a3c724123740ff00f8a3", "is_reserved": 0, "name": "b0c7cbdcc654a3c724123740ff00f8a3", "lat": 38.920748, "fusion_lat": 0.0, "lon": -77.02413116666666, "is_disabled": 0, "fusion_lon": 0.0, "rental_uris": {"android": "https://dc.lft.to/lastmile_qr_scan", "ios": "https://dc.lft.to/lastmile_qr_scan"}, "type": "electric_scooter"}, {"bike_id": "d2f94ddaa66ba1a5d35bd283b2ec3cf0", "is_reserved": 0, "name": "d2f94ddaa66ba1a5d35bd283b2ec3cf0", "lat": 38.912675, "fusion_lat": 0.0, "lon": -77.02237083333333, "is_disabled": 0, "fusion_lon": 0.0, "rental_uris": {"android": "https://dc.lft.to/lastmile_qr_scan", "ios": "https://dc.lft.to/lastmile_qr_scan"}, "type": "electric_scooter"}, {"bike_id": "b0fa6a6618a66d03dbc0dfad59109120", "is_reserved": 0, "name": "b0fa6a6618a66d03dbc0dfad59109120", "lat": 38.91562066666667, "fusion_lat": 0.0, "lon": -77.021771, "is_disabled": 0, "fusion_lon": 0.0, "rental_uris": {"android": "https://dc.lft.to/lastmile_qr_scan", "ios": "https://dc.lft.to/lastmile_qr_scan"}, "type": "electric_scooter"}, {"bike_id": "2ab65f8bf8d84dbffe9c96c5f37756d3", "is_reserved": 0, "name": "2ab65f8bf8d84dbffe9c96c5f37756d3", "lat": 38.90557716666667, "fusion_lat": 0.0, "lon": -77.0375575, "is_disabled": 0, "fusion_lon": 0.0, "rental_uris": {"android": "https://dc.lft.to/lastmile_qr_scan", "ios": "https://dc.lft.to/lastmile_qr_scan"}, "type": "electric_scooter"}, {"bike_id": "22bbc21ba74b88f94b034935bd2da3ca", "is_reserved": 0, "name": "22bbc21ba74b88f94b034935bd2da3ca", "lat": 38.883359, "fusion_lat": 0.0, "lon": -76.934953, "is_disabled": 0, "fusion_lon": 0.0, "rental_uris": {"android": "https://dc.lft.to/lastmile_qr_scan", "ios": "https://dc.lft.to/lastmile_qr_scan"}, "type": "electric_scooter"},