{"data": {"bikes": [{"name": "5d51e522724096a554f5c87aa29c147e", "type": "electric_scooter", "lat": 38.883151166666664, "is_reserved": 0, "lon": -77.017709, "fusion_lon": 0.0, "is_disabled": 0, "fusion_lat": 0.0, "bike_id": "5d51e522724096a554f5c87aa29c147e", "rental_uris": {"ios": "https://dc.lft.to/lastmile_qr_scan", "android": "https://dc.lft.to/lastmile_qr_scan"}}, {"name": "cc331f425ee0358647546428a5caee93", "type": "electric_bike", "lat": 38.990625333333334, "is_reserved": 0, "lon": -77.10027616666666, "fusion_lon": 0.0, "is_disabled": 0, "fusion_lat": 0.0, "bike_id": "cc331f425ee0358647546428a5caee93", "rental_uris": {"ios": "https://dc.lft.to/lastmile_qr_scan", "android": "https://dc.lft.to/lastmile_qr_scan"}}, {"name": "047feb4e960b7f26ad9e5a6e1bd3bbd5", "type": "electric_scooter", "lat": 38.938433, "is_reserved": 0, "lon": -77.02463816666666, "fusion_lon": 0.0, "is_disabled": 0, "fusion_lat": 0.0, "bike_id": "047feb4e960b7f26ad9e5a6e1bd3bbd5", "rental_uris": {"ios": "https://dc.lft.to/lastmile_qr_scan", "android": "https://dc.lft.to/lastmile_qr_scan"}}, {"name": "2b5a2ecbc0572e936e91241fdb28ce5d", "type": "electric_scooter", "lat": 38.91312083333333, "is_reserved": 0, "lon": -77.04478816666666, "fusion_lon": 0.0, "is_disabled": 0, "fusion_lat": 0.0, "bike_id": "2b5a2ecbc0572e936e91241fdb28ce5d", "rental_uris": {"ios": "https://dc.lft.to/lastmile_qr_scan", "android": "https://dc.lft.to/lastmile_qr_scan"}}, {"name": "c7842bb907b81769f6976ad6b625925c", "type": "electric_scooter", "lat": 38.94769683333333, "is_reserved": 0, "lon": -77.06538683333333, "fusion_lon": 0.0, "is_disabled": 0, "fusion_lat": 0.0, "bike_id": "c7842bb907b81769f6976ad6b625925c", "rental_uris": {"ios": "https://dc.lft.to/lastmile_qr_scan", "android": "https://dc.lft.to/lastmile_qr_scan"}}, {"name": "a515ea915441430606e79978cd8837f9", "type": "electric_scooter", "lat": 38.90719466666667, "is_reserved": 0, "lon": -77.030639, "fusion_lon": 0.0, "is_disabled": 0, "fusion_lat": 0.0, "bike_id": "a515ea915441430606e79978cd8837f9", "rental_uris": {"ios": "https://dc.lft.to/lastmile_qr_scan", "android": "https://dc.lft.to/lastmile_qr_scan"}}, {"name": "175b96d2d4bcd0aca767ebb8e846edbc", "type": "electric_scooter", "lat": 38.91184766666667, "is_reserved": 0, "lon": -77.00552683333333, "fusion_lon": 0.0, "is_disabled": 0, "fusion_lat": 0.0, "bike_id": "175b96d2d4bcd0aca767ebb8e846edbc", "rental_uris": {"ios": "https://dc.lft.to/lastmile_qr_scan", "android": "https://dc.lft.to/lastmile_qr_scan"}}, {"name": "7c02c95366dd1debb96c3af022f7884b", "type": "electric_scooter", "lat": 38.939732666666664, "is_reserved": 0, "lon": -77.03253933333333, "fusion_lon": 0.0, "is_disabled": 0, "fusion_lat": 0.0, "bike_id": "7c02c95366dd1debb96c3af022f7884b", "rental_uris": {"ios": "https://dc.lft.to/lastmile_qr_scan", "android": "https://dc.lft.to/lastmile_qr_scan"}}, {"name": "a421ba6885b1ccb7c4cc6b48014de3e6", "type": "electric_scooter", "lat": 38.876462, "is_reserved": 0, "lon": -76.96505933333333, "fusion_lon": 0.0, "is_disabled": 0, "fusion_lat": 0.0, "bike_id": "a421ba6885b1ccb7c4cc6b48014de3e6", "rental_uris": {"ios": "https://dc.lft.to/lastmile_qr_scan", "android": "https://dc.lft.to/lastmile_qr_scan"}}, {"name": "f258310bbe25ce220d431c100ad73fac", "type": "electric_scooter", "lat": 38.881121666666665, "is_reserved": 0, "lon": -76.99943433333334, "fusion_lon": 0.0, "is_disabled": 0, "fusion_lat": 0.0, "bike_id": "f258310bbe25ce220d431c100ad73fac", "rental_uris": {"ios": "https://dc.lft.to/lastmile_qr_scan", "android": "https://dc.lft.to/lastmile_qr_scan"}}, {"name": "7133afbfc763ecdef9dbe87a29379567", "type": "electric_scooter", "lat": 38.93941783333333, "is_reserved": 0, "lon": -77.03270983333333, "fusion_lon": 0.0, "is_disabled": 0, "fusion_lat": 0.0, "bike_id": "7133afbfc763ecdef9dbe87a29379567", "rental_uris": {"ios": "https://dc.lft.to/lastmile_qr_scan", "android": "https://dc.lft.to/lastmile_qr_scan"}}, {"name": "3c50b42f14d37bebf65c04bcd0498d62", "type": "electric_scooter", "lat": 38.940762666666664, "is_reserved": 0, "lon": -77.02702633333334, "fusion_lon": 0.0, "is_disabled": 0, "fusion_lat": 0.0, "bike_id": "3c50b42f14d37bebf65c04bcd0498d62", "rental_uris": {"ios": "https://dc.lft.to/lastmile_qr_scan", "android": "https://dc.lft.to/lastmile_qr_scan"}}, {"name": "82e13ceab5f4f28f1ca55c112f01f9a4", "type": "electric_scooter", "lat": 38.91801616666667, "is_reserved": 0, "lon": -77.02708983333333, "fusion_lon": 0.0, "is_disabled": 0, "fusion_lat": 0.0, "bike_id": "82e13ceab5f4f28f1ca55c112f01f9a4", "rental_uris": {"ios": "https://dc.lft.to/lastmile_qr_scan", "android": "https://dc.lft.to/lastmile_qr_scan"}}, {"name": "975b55c223840eda3c1c35f9381ae3a1", "type": "electric_scooter", "lat": 38.929532, "is_reserved": 0, "lon": -77.034703, "fusion_lon": 0.0, "is_disabled": 0, "fusion_lat": 0.0, "bike_id": "975b55c223840eda3c1c35f9381ae3a1", "rental_uris": {"ios": "https://dc.lft.to/lastmile_qr_scan", "android": "https://dc.lft.to/lastmile_qr_scan"}}, {"name": "21a0df894a9ce6f640156352aee03805", "type": "electric_scooter", "lat": 38.923274666666664, "is_reserved": 0, "lon": -77.0351235, "fusion_lon": 0.0, "is_disabled": 0, "fusion_lat": 0.0, "bike_id": "21a0df894a9ce6f640156352aee03805", "rental_uris": {"ios": "https://dc.lft.to/lastmile_qr_scan", "android": "https://dc.lft.to/lastmile_qr_scan"}}, {"name": "18e41bf99b062fd4f3b9aea048d4e41d", "type": "electric_scooter", "lat": 38.91531333333333, "is_reserved": 0, "lon": -77.03194, "fusion_lon": 0.0, "is_disabled": 0, "fusion_lat": 0.0, "bike_id": "18e41bf99b062fd4f3b9aea048d4e41d", "rental_uris": {"ios": "https://dc.lft.to/lastmile_qr_scan", "android": "https://dc.lft.to/lastmile_qr_scan"}}, {"name": "6480688b6c9656ae4998c4171c9106a5", "type": "electric_bike", "lat": 38.990885166666665, "is_reserved": 0, "lon": -76.87495516666667, "fusion_lon": 0.0, "is_disabled": 0, "fusion_lat": 0.0, "bike_id": "6480688b6c9656ae4998c4171c9106a5", "rental_uris": {"ios": "https://dc.lft.to/lastmile_qr_scan", "android": "https://dc.lft.to/lastmile_qr_scan"}}, {"name": "811149b1992e7141a8f49f8df890f4fe", "type": "electric_scooter", "lat": 38.90008816666667, "is_reserved": 0, "lon": -77.01128466666667, "fusion_lon": 0.0, "is_disabled": 0, "fusion_lat": 0.0, "bike_id": "811149b1992e7141a8f49f8df890f4fe", "rental_uris": {"ios": "https://dc.lft.to/lastmile_qr_scan", "android": "https://dc.lft.to/lastmile_qr_scan"}}, {"name": "73e0d24d7dce4744aeb48ff0515c2493", "type": "electric_bike", "lat": 38.8287725, "is_reserved": 0, "lon": -77.11214383333333, "fusion_lon": 0.0, "is_disabled": 0, "fusion_lat": 0.0, "bike_id": "73e0d24d7dce4744aeb48ff0515c2493", "rental_uris": {"ios": "https://dc.lft.to/lastmile_qr_scan", "android": "https://dc.lft.to/lastmile_qr_scan"}}, {"name": "be24500086dcb76e11fa6ef0a8347576", "type": "electric_scooter", "lat": 38.89230833333333, "is_reserved": 0, "lon": -77.0220775, "fusion_lon": 0.0, "is_disabled": 0, "fusion_lat": 0.0, "bike_id": "be24500086dcb76e11fa6ef0a8347576", "rental_uris": {"ios": "https://dc.lft.to/lastmile_qr_scan", "android": "https://dc.lft.to/lastmile_qr_scan"}}, {"name": "21d14c4431f6d70617a22805adb925f4", "type": "electric_scooter", "lat": 38.917155666666666, "is_reserved": 0, "lon": -77.03859066666666, "fusion_lon": 0.0, "is_disabled": 0, "fusion_lat": 0.0, "bike_id": "21d14c4431f6d70617a22805adb925f4", "rental_uris": {"ios": "https://dc.lft.to/lastmile_qr_scan", "android": "https://dc.lft.to/lastmile_qr_scan"}}, {"name": "5d1740aa1068f91b541c25bf56b62b87", "type": "electric_scooter", "lat": 38.9053845, "is_reserved": 0, "lon": -77.0593155, "fusion_lon": 0.0, "is_disabled": 0, "fusion_lat": 0.0, "bike_id": "5d1740aa1068f91b541c25bf56b62b87", "rental_uris": {"ios": "https://dc.lft.to/lastmile_qr_scan", "android": "https://dc.lft.to/lastmile_qr_scan"}}, {"name": "d77b6e64ce64cd0814ff17fe25792230", "type": "electric_scooter", "lat": 38.8763125, "is_reserved": 0, "lon": -77.009162, "fusion_lon": 0.0, "is_disabled": 0, "fusion_lat": 0.0, "bike_id": "d77b6e64ce64cd0814ff17fe25792230", "rental_uris": {"ios": "https://dc.lft.to/lastmile_qr_scan", "android": "https://dc.lft.to/lastmile_qr_scan"}}, {"name": "26e344d88e961fa8223e769bb1e47708", "type": "electric_scooter", "lat": 38.88409983333333, "is_reserved": 0, "lon": -77.01505816666666, "fusion_lon": 0.0, "is_disabled": 0, "fusion_lat": 0.0, "bike_id": "26e344d88e961fa8223e769bb1e47708", "rental_uris": {"ios": "https://dc.lft.to/lastmile_qr_scan", "android": "https://dc.lft.to/lastmile_qr_scan"}}, {"name": "edfa9490b4a00213698aac01bfe46236", "type": "electric_scooter", "lat": 38.924436166666666, "is_reserved": 0, "lon": -77.03353983333334, "fusion_lon": 0.0, "is_disabled": 0, "fusion_lat": 0.0, "bike_id": "edfa9490b4a00213698aac01bfe46236", "rental_uris": {"ios": "https://dc.lft.to/lastmile_qr_scan", "android": "https://dc.lft.to/lastmile_qr_scan"}}, {"name": "429e676da3948ff903ea32c8221c9070", "type": "electric_scooter", "lat": 38.9057575, "is_reserved": 0, "lon": -77.04862033333333, "fusion_lon": 0.0, "is_disabled": 0, "fusion_lat": 0.0, "bike_id": "429e676da3948ff903ea32c8221c9070", "rental_uris": {"ios": "https://dc.lft.to/lastmile_qr_scan", "android": "https://dc.lft.to/lastmile_qr_scan"}}, {"name": "cf33d09a6c545698630ea32ab88850ec", "type": "electric_scooter", "lat": 38.949625, "is_reserved": 0, "lon": -77.02720366666667, "fusion_lon": 0.0, "is_disabled": 0, "fusion_lat": 0.0, "bike_id": "cf33d09a6c545698630ea32ab88850ec", "rental_uris": {"ios": "https://dc.lft.to/lastmile_qr_scan", "android": "https://dc.lft.to/lastmile_qr_scan"}}, {"name": "441118c922ec76370cf1e13a2510b764", "type": "electric_scooter", "lat": 38.927341, "is_reserved": 0, "lon": -77.02494683333333, "fusion_lon": 0.0, "is_disabled": 0, "fusion_lat": 0.0, "bike_id": "441118c922ec76370cf1e13a2510b764", "rental_uris": {"ios": "https://dc.lft.to/lastmile_qr_scan", "android": "https://dc.lft.to/lastmile_qr_scan"}}, {"name": "9b54df8e79ff5de7d639b04d60348f0e", "type": "electric_scooter", "lat": 38.92275766666667, "is_reserved": 0, "lon": -77.03669133333334, "fusion_lon": 0.0, "is_disabled": 0, "fusion_lat": 0.0, "bike_id": "9b54df8e79ff5de7d639b04d60348f0e", "rental_uris": {"ios": "https://dc.lft.to/lastmile_qr_scan", "android": "https://dc.lft.to/lastmile_qr_scan"}}, {"name": "02b1050a6adb3701fa2e3b584fa9b507", "type": "electric_bike", "lat": 38.83933716666667, "is_reserved": 0, "lon": -77.0789955, "fusion_lon": 0.0, "is_disabled": 0, "fusion_lat": 0.0, "bike_id": "02b1050a6adb3701fa2e3b584fa9b507", "rental_uris": {"ios": "https://dc.lft.to/lastmile_qr_scan", "android": "https://dc.lft.to/lastmile_qr_scan"}}, {"name": "1d37718dd7d068f7fb1361d01e7e7e8e", "type": "electric_scooter", "lat": 38.905778, "is_reserved": 0, "lon": -77.0343845, "fusion_lon": 0.0, "is_disabled": 0, "fusion_lat": 0.0, "bike_id": "1d37718dd7d068f7fb1361d01e7e7e8e", "rental_uris": {"ios": "https://dc.lft.to/lastmile_qr_scan", "android": "https://dc.lft.to/lastmile_qr_scan"}}, {"name": "875e72082855844926282929935893b0", "type": "electric_scooter", "lat": 38.93265066666667, "is_reserved": 0, "lon": -77.032841, "fusion_lon": 0.0, "is_disabled": 0, "fusion_lat": 0.0, "bike_id": "875e72082855844926282929935893b0", "rental_uris": {"ios": "https://dc.lft.to/lastmile_qr_scan", "android": "https://dc.lft.to/lastmile_qr_scan"}}, {"name": "952a618d5fa44aa71429c651d4e56773", "type": "electric_scooter", "lat": 38.91819616666667, "is_reserved": 0, "lon": -77.02317366666666, "fusion_lon": 0.0, "is_disabled": 0, "fusion_lat": 0.0, "bike_id": "952a618d5fa44aa71429c651d4e56773", "rental_uris": {"ios": "https://dc.lft.to/lastmile_qr_scan", "android": "https://dc.lft.to/lastmile_qr_scan"}}, {"name": "fb617ed349400a8f5ee95fb5555fde08", "type": "electric_scooter", "lat": 38.921845, "is_reserved": 0, "lon": -77.04284483333333, "fusion_lon": 0.0, "is_disabled": 0, "fusion_lat": 0.0, "bike_id": "fb617ed349400a8f5ee95fb5555fde08", "rental_uris": {"ios": "https://dc.lft.to/lastmile_qr_scan", "android": "https://dc.lft.to/lastmile_qr_scan"}}, {"name": "566c21029349e7727f60a5c441e67ffc", "type": "electric_scooter", "lat": 38.896143333333335, "is_reserved": 0, "lon": -77.05080133333334, "fusion_lon": 0.0, "is_disabled": 0, "fusion_lat": 0.0, "bike_id": "566c21029349e7727f60a5c441e67ffc", "rental_uris": {"ios": "https://dc.lft.to/lastmile_qr_scan", "android": "https://dc.lft.to/lastmile_qr_scan"}}, {"name": "ee57dd3912ff27b43f4e830932bac5fc", "type": "electric_scooter", "lat": 38.89222216666667, "is_reserved": 0, "lon": -77.04641033333333, "fusion_lon": 0.0, "is_disabled": 0, "fusion_lat": 0.0, "bike_id": "ee57dd3912ff27b43f4e830932bac5fc", "rental_uris": {"ios": "https://dc.lft.to/lastmile_qr_scan", "android": "https://dc.lft.to/lastmile_qr_scan"}}, {"name": "8b36eb5bb2bc773aab67a90bfedfb4df", "type": "electric_scooter", "lat": 38.921573333333335, "is_reserved": 0, "lon": -77.03660633333334, "fusion_lon": 0.0, "is_disabled": 0, "fusion_lat": 0.0, "bike_id": "8b36eb5bb2bc773aab67a90bfedfb4df", "rental_uris": {"ios": "https://dc.lft.to/lastmile_qr_scan", "android": "https://dc.lft.to/lastmile_qr_scan"}}, {"name": "7d03a4e70546e1c1fd35ceaec70aa4f4", "type": "electric_scooter", "lat": 38.918964333333335, "is_reserved": 0, "lon": -77.019726, "fusion_lon": 0.0, "is_disabled": 0, "fusion_lat": 0.0, "bike_id": "7d03a4e70546e1c1fd35ceaec70aa4f4", "rental_uris": {"ios": "https://dc.lft.to/lastmile_qr_scan", "android": "https://dc.lft.to/lastmile_qr_scan"}}, {"name": "621e92e4991431940238dc1e3ed1eccf", "type": "electric_scooter", "lat": 38.90018666666667, "is_reserved": 0, "lon": -77.0112835, "fusion_lon": 0.0, "is_disabled": 0, "fusion_lat": 0.0, "bike_id": "621e92e4991431940238dc1e3ed1eccf", "rental_uris": {"ios": "https://dc.lft.to/lastmile_qr_scan", "android": "https://dc.lft.to/lastmile_qr_scan"}}, {"name": "55331900c3d1efd11fc6246d6f1176f5", "type": "electric_scooter", "lat": 38.87709983333333, "is_reserved": 0, "lon": -76.99386766666667, "fusion_lon": 0.0, "is_disabled": 0, "fusion_lat": 0.0, "bike_id": "55331900c3d1efd11fc6246d6f1176f5", "rental_uris": {"ios": "https://dc.lft.to/lastmile_qr_scan", "android": "https://dc.lft.to/lastmile_qr_scan"}}, {"name": "49db8b8af45e4b7d525df39aecdef0cd", "type": "electric_scooter", "lat": 38.9026335, "is_reserved": 0, "lon": -77.038294, "fusion_lon": 0.0, "is_disabled": 0, "fusion_lat": 0.0, "bike_id": "49db8b8af45e4b7d525df39aecdef0cd", "rental_uris": {"ios": "https://dc.lft.to/lastmile_qr_scan", "android": "https://dc.lft.to/lastmile_qr_scan"}}, {"name": "2100a40007037e2c962376d9c5e83842", "type": "electric_scooter", "lat": 38.89828966666666, "is_reserved": 0, "lon": -77.0332975, "fusion_lon": 0.0, "is_disabled": 0, "fusion_lat": 0.0, "bike_id": "2100a40007037e2c962376d9c5e83842", "rental_uris": {"ios": "https://dc.lft.to/lastmile_qr_scan", "android": "https://dc.lft.to/lastmile_qr_scan"}}, {"name": "454e1bca4d4495486378e056dd4b5a31", "type": "electric_scooter", "lat": 38.900326166666666, "is_reserved": 0, "lon": -77.00210866666667, "fusion_lon": 0.0, "is_disabled": 0, "fusion_lat": 0.0, "bike_id": "454e1bca4d4495486378e056dd4b5a31", "rental_uris": {"ios": "https://dc.lft.to/lastmile_qr_scan", "android": "https://dc.lft.to/lastmile_qr_scan"}}, {"name": "17a577bfbc4be930b2ceb0a1b67d2f77", "type": "electric_scooter", "lat": 38.93073716666667, "is_reserved": 0, "lon": -77.03811883333333, "fusion_lon": 0.0, "is_disabled": 0, "fusion_lat": 0.0, "bike_id": "17a577bfbc4be930b2ceb0a1b67d2f77", "rental_uris": {"ios": "https://dc.lft.to/lastmile_qr_scan", "android": "https://dc.lft.to/lastmile_qr_scan"}}, {"name": "a810c620e120c87d859ba90b541c6229", "type": "electric_scooter", "lat": 38.876445833333335, "is_reserved": 0, "lon": -76.99586633333334, "fusion_lon": 0.0, "is_disabled": 0, "fusion_lat": 0.0, "bike_id": "a810c620e120c87d859ba90b541c6229", "rental_uris": {"ios": "https://dc.lft.to/lastmile_qr_scan", "android": "https://dc.lft.to/lastmile_qr_scan"}}, {"name": "3633bbb401018ead53134a80db2a5781", "type": "electric_scooter", "lat": 38.91753416666667, "is_reserved": 0, "lon": -77.03859383333334, "fusion_lon": 0.0, "is_disabled": 0, "fusion_lat": 0.0, "bike_id": "3633bbb401018ead53134a80db2a5781", "rental_uris": {"ios": "https://dc.lft.to/lastmile_qr_scan", "android": "https://dc.lft.to/lastmile_qr_scan"}}, {"name": "e3cb9581c82272c3c00c3255ef48ee50", "type": "electric_scooter", "lat": 38.949542666666666, "is_reserved": 0, "lon": -77.02719233333333, "fusion_lon": 0.0, "is_disabled": 0, "fusion_lat": 0.0, "bike_id": "e3cb9581c82272c3c00c3255ef48ee50", "rental_uris": {"ios": "https://dc.lft.to/lastmile_qr_scan", "android": "https://dc.lft.to/lastmile_qr_scan"}}, {"name": "332c5c3926f0b55aaec6ee9d044fa58a", "type": "electric_scooter", "lat": 38.883525666666664, "is_reserved": 0, "lon": -76.98561216666667, "fusion_lon": 0.0, "is_disabled": 0, "fusion_lat": 0.0, "bike_id": "332c5c3926f0b55aaec6ee9d044fa58a", "rental_uris": {"ios": "https://dc.lft.to/lastmile_qr_scan", "android": "https://dc.lft.to/lastmile_qr_scan"}}, {"name": "e87b6adbc2ae7b1814f45f60f9fb0d37", "type": "electric_scooter", "lat": 38.885918833333335, "is_reserved": 0, "lon": -76.95270566666667, "fusion_lon": 0.0, "is_disabled": 0, "fusion_lat": 0.0, "bike_id": "e87b6adbc2ae7b1814f45f60f9fb0d37", "rental_uris": {"ios": "https://dc.lft.to/lastmile_qr_scan", "android": "https://dc.lft.to/lastmile_qr_scan"}}, {"name": "b7aaa4003c65aa205250268ef0a36174", "type": "electric_scooter", "lat": 38.90269983333334, "is_reserved": 0, "lon": -77.040453, "fusion_lon": 0.0, "is_disabled": 0, "fusion_lat": 0.0, "bike_id": "b7aaa4003c65aa205250268ef0a36174", "rental_uris": {"ios": "https://dc.lft.to/lastmile_qr_scan", "android": "https://dc.lft.to/lastmile_qr_scan"}}, {"name": "4dc2b22fbbc7beac180d0ca9ae88f633", "type": "electric_bike", "lat": 38.865898, "is_reserved": 0, "lon": -76.932304, "fusion_lon": 0.0, "is_disabled": 0, "fusion_lat": 0.0, "bike_id": "4dc2b22fbbc7beac180d0ca9ae88f633", "rental_uris": {"ios": "https://dc.lft.to/lastmile_qr_scan", "android": "https://dc.lft.to/lastmile_qr_scan"}}, {"name": "a88dd03123c3da93f4e65a6576bbf798", "type": "electric_scooter", "lat": 38.92755233333333, "is_reserved": 0, "lon": -77.05385516666666, "fusion_lon": 0.0, "is_disabled": 0, "fusion_lat": 0.0, "bike_id": "a88dd03123c3da93f4e65a6576bbf798", "rental_uris": {"ios": "https://dc.lft.to/lastmile_qr_scan", "android": "https://dc.lft.to/lastmile_qr_scan"}}, {"name": "8dbabe399f8a2a5ce016f1f95016cd45", "type": "electric_scooter", "lat": 38.939438833333334, "is_reserved": 0, "lon": -77.03270516666667, "fusion_lon": 0.0, "is_disabled": 0, "fusion_lat": 0.0, "bike_id": "8dbabe399f8a2a5ce016f1f95016cd45", "rental_uris": {"ios": "https://dc.lft.to/lastmile_qr_scan", "android": "https://dc.lft.to/lastmile_qr_scan"}}, {"name": "c252de9f31e466d85f0039fc44463710", "type": "electric_bike", "lat": 38.8068895, "is_reserved": 0, "lon": -77.05972283333334, "fusion_lon": 0.0, "is_disabled": 0, "fusion_lat": 0.0, "bike_id": "c252de9f31e466d85f0039fc44463710", "rental_uris": {"ios": "https://dc.lft.to/lastmile_qr_scan", "android": "https://dc.lft.to/lastmile_qr_scan"}}, {"name": "8740398d728abf00e7872defc3adfcc9", "type": "electric_scooter", "lat": 38.92233516666667, "is_reserved": 0, "lon": -77.03521233333333, "fusion_lon": 0.0, "is_disabled": 0, "fusion_lat": 0.0, "bike_id": "8740398d728abf00e7872defc3adfcc9", "rental_uris": {"ios": "https://dc.lft.to/lastmile_qr_scan", "android": "https://dc.lft.to/lastmile_qr_scan"}}, {"name": "f7ec9390a584c43490e40eff8e78bc15", "type": "electric_bike", "lat": 38.83234483333333, "is_reserved": 0, "lon": -77.0071815, "fusion_lon": 0.0, "is_disabled": 0, "fusion_lat": 0.0, "bike_id": "f7ec9390a584c43490e40eff8e78bc15", "rental_uris": {"ios": "https://dc.lft.to/lastmile_qr_scan", "android": "https://dc.lft.to/lastmile_qr_scan"}}, {"name": "0b838ff95e7b214b338a584ff4be73fd", "type": "electric_bike", "lat": 38.852203, "is_reserved": 0, "lon": -77.12961033333333, "fusion_lon": 0.0, "is_disabled": 0, "fusion_lat": 0.0, "bike_id": "0b838ff95e7b214b338a584ff4be73fd", "rental_uris": {"ios": "https://dc.lft.to/lastmile_qr_scan", "android": "https://dc.lft.to/lastmile_qr_scan"}}, {"name": "433c1bacf0ee6702e4507ce040b29804", "type": "electric_scooter", "lat": 38.905829, "is_reserved": 0, "lon": -77.06278, "fusion_lon": 0.0, "is_disabled": 0, "fusion_lat": 0.0, "bike_id": "433c1bacf0ee6702e4507ce040b29804", "rental_uris": {"ios": "https://dc.lft.to/lastmile_qr_scan", "android": "https://dc.lft.to/lastmile_qr_scan"}}, {"name": "2e137af2a4f351e5900933bd433d082b", "type": "electric_bike", "lat": 38.984551333333336, "is_reserved": 0, "lon": -76.9551845, "fusion_lon": 0.0, "is_disabled": 0, "fusion_lat": 0.0, "bike_id": "2e137af2a4f351e5900933bd433d082b", "rental_uris": {"ios": "https://dc.lft.to/lastmile_qr_scan", "android": "https://dc.lft.to/lastmile_qr_scan"}}, {"name": "01e238cb7eeeb62e5d0795ef5cdc4a36", "type": "electric_scooter", "lat": 38.924899333333336, "is_reserved": 0, "lon": -77.0271355, "fusion_lon": 0.0, "is_disabled": 0, "fusion_lat": 0.0, "bike_id": "01e238cb7eeeb62e5d0795ef5cdc4a36", "rental_uris": {"ios": "https://dc.lft.to/lastmile_qr_scan", "android": "https://dc.lft.to/lastmile_qr_scan"}}, {"name": "bc6f6e0ed795ea2576e44b747a7d9cbf", "type": "electric_scooter", "lat": 38.939442666666665, "is_reserved": 0, "lon": -77.03272183333333, "fusion_lon": 0.0, "is_disabled": 0, "fusion_lat": 0.0, "bike_id": "bc6f6e0ed795ea2576e44b747a7d9cbf", "rental_uris": {"ios": "https://dc.lft.to/lastmile_qr_scan", "android": "https://dc.lft.to/lastmile_qr_scan"}}, {"name": "f44b9318adf3779218865d2412a19281", "type": "electric_scooter", "lat": 38.883061, "is_reserved": 0, "lon": -77.01743, "fusion_lon": 0.0, "is_disabled": 0, "fusion_lat": 0.0, "bike_id": "f44b9318adf3779218865d2412a19281", "rental_uris": {"ios": "https://dc.lft.to/lastmile_qr_scan", "android": "https://dc.lft.to/lastmile_qr_scan"}}, {"name": "b84848432f554be2d619ebca75229422", "type": "electric_scooter", "lat": 38.900122, "is_reserved": 0, "lon": -76.99123083333333, "fusion_lon": 0.0, "is_disabled": 0, "fusion_lat": 0.0, "bike_id": "b84848432f554be2d619ebca75229422", "rental_uris": {"ios": "https://dc.lft.to/lastmile_qr_scan", "android": "https://dc.lft.to/lastmile_qr_scan"}}, {"name": "eb9ccfa0449e4cb9847e7693a313b1e7", "type": "electric_scooter", "lat": 38.88310533333333, "is_reserved": 0, "lon": -77.017425, "fusion_lon": 0.0, "is_disabled": 0, "fusion_lat": 0.0, "bike_id": "eb9ccfa0449e4cb9847e7693a313b1e7", "rental_uris": {"ios": "https://dc.lft.to/lastmile_qr_scan", "android": "https://dc.lft.to/lastmile_qr_scan"}}, {"name": "732cd64bf12c943f03a95379a9e3b8e0", "type": "electric_scooter", "lat": 38.900842833333336, "is_reserved": 0, "lon": -77.0501975, "fusion_lon": 0.0, "is_disabled": 0, "fusion_lat": 0.0, "bike_id": "732cd64bf12c943f03a95379a9e3b8e0", "rental_uris": {"ios": "https://dc.lft.to/lastmile_qr_scan", "android": "https://dc.lft.to/lastmile_qr_scan"}}, {"name": "e42270ceca5d4401ee2919f560f66427", "type": "electric_scooter", "lat": 38.905254666666664, "is_reserved": 0, "lon": -77.0435935, "fusion_lon": 0.0, "is_disabled": 0, "fusion_lat": 0.0, "bike_id": "e42270ceca5d4401ee2919f560f66427", "rental_uris": {"ios": "https://dc.lft.to/lastmile_qr_scan", "android": "https://dc.lft.to/lastmile_qr_scan"}}, {"name": "7502457d994718c151a73e1014b5080d", "type": "electric_scooter", "lat": 38.943047, "is_reserved": 0, "lon": -77.05926666666667, "fusion_lon": 0.0, "is_disabled": 0, "fusion_lat": 0.0, "bike_id": "7502457d994718c151a73e1014b5080d", "rental_uris": {"ios": "https://dc.lft.to/lastmile_qr_scan", "android": "https://dc.lft.to/lastmile_qr_scan"}}, {"name": "1bdf551f67898faf9f349fb2cb674813", "type": "electric_scooter", "lat": 38.918168666666666, "is_reserved": 0, "lon": -77.03455166666667, "fusion_lon": 0.0, "is_disabled": 0, "fusion_lat": 0.0, "bike_id": "1bdf551f67898faf9f349fb2cb674813", "rental_uris": {"ios": "https://dc.lft.to/lastmile_qr_scan", "android": "https://dc.lft.to/lastmile_qr_scan"}}, {"name": "6d301b695ef48bac484d875f28d346bb", "type": "electric_scooter", "lat": 38.90132416666667, "is_reserved": 0, "lon": -77.04159666666666, "fusion_lon": 0.0, "is_disabled": 0, "fusion_lat": 0.0, "bike_id": "6d301b695ef48bac484d875f28d346bb", "rental_uris": {"ios": "https://dc.lft.to/lastmile_qr_scan", "android": "https://dc.lft.to/lastmile_qr_scan"}}, {"name": "3173b93bb176a668e79a33827463da36", "type": "electric_scooter", "lat": 38.92169616666666, "is_reserved": 0, "lon": -77.03248, "fusion_lon": 0.0, "is_disabled": 0, "fusion_lat": 0.0, "bike_id": "3173b93bb176a668e79a33827463da36", "rental_uris": {"ios": "https://dc.lft.to/lastmile_qr_scan", "android": "https://dc.lft.to/lastmile_qr_scan"}}, {"name": "76657633f9db9bd1b543c02ea799ee67", "type": "electric_bike", "lat": 39.038826666666665, "is_reserved": 0, "lon": -76.99039433333333, "fusion_lon": 0.0, "is_disabled": 0, "fusion_lat": 0.0, "bike_id": "76657633f9db9bd1b543c02ea799ee67", "rental_uris": {"ios": "https://dc.lft.to/lastmile_qr_scan", "android": "https://dc.lft.to/lastmile_qr_scan"}}, {"name": "1ec6ab5dc9074a5071769b71fdf7272f", "type": "electric_scooter", "lat": 38.916298166666664, "is_reserved": 0, "lon": -77.01339833333333, "fusion_lon": 0.0, "is_disabled": 0, "fusion_lat": 0.0, "bike_id": "1ec6ab5dc9074a5071769b71fdf7272f", "rental_uris": {"ios": "https://dc.lft.to/lastmile_qr_scan", "android": "https://dc.lft.to/lastmile_qr_scan"}}, {"name": "b221fbabde39ff8ec9b17ceb26574efd", "type": "electric_scooter", "lat": 38.9061505, "is_reserved": 0, "lon": -77.07490633333333, "fusion_lon": 0.0, "is_disabled": 0, "fusion_lat": 0.0, "bike_id": "b221fbabde39ff8ec9b17ceb26574efd", "rental_uris": {"ios": "https://dc.lft.to/lastmile_qr_scan", "android": "https://dc.lft.to/lastmile_qr_scan"}}, {"name": "20abdf289451ecbcfcf5c1e1a97cf561", "type": "electric_scooter", "lat": 38.915779666666666, "is_reserved": 0, "lon": -77.04502, "fusion_lon": 0.0, "is_disabled": 0, "fusion_lat": 0.0, "bike_id": "20abdf289451ecbcfcf5c1e1a97cf561", "rental_uris": {"ios": "https://dc.lft.to/lastmile_qr_scan", "android": "https://dc.lft.to/lastmile_qr_scan"}}, {"name": "50876507edff9d4bda050e3f8e32f9df", "type": "electric_scooter", "lat": 38.90557416666667, "is_reserved": 0, "lon": -77.021691, "fusion_lon": 0.0, "is_disabled": 0, "fusion_lat": 0.0, "bike_id": "50876507edff9d4bda050e3f8e32f9df", "rental_uris": {"ios": "https://dc.lft.to/lastmile_qr_scan", "android": "https://dc.lft.to/lastmile_qr_scan"}}, {"name": "c1a1b844c150db92c06caf9427e26925", "type": "electric_scooter", "lat": 38.899562333333336, "is_reserved": 0, "lon": -76.985652, "fusion_lon": 0.0, "is_disabled": 0, "fusion_lat": 0.0, "bike_id": "c1a1b844c150db92c06caf9427e26925", "rental_uris": {"ios": "https://dc.lft.to/lastmile_qr_scan", "android": "https://dc.lft.to/lastmile_qr_scan"}}, {"name": "ecd3c8c14b5c1e6077e7b005dacaf63b", "type": "electric_scooter", "lat": 38.86657116666667, "is_reserved": 0, "lon": -76.990155, "fusion_lon": 0.0, "is_disabled": 0, "fusion_lat": 0.0, "bike_id": "ecd3c8c14b5c1e6077e7b005dacaf63b", "rental_uris": {"ios": "https://dc.lft.to/lastmile_qr_scan", "android": "https://dc.lft.to/lastmile_qr_scan"}}, {"name": "ec136a88eacc8dedcea5904e63b9071b", "type": "electric_scooter", "lat": 38.91420566666667, "is_reserved": 0, "lon": -77.0227955, "fusion_lon": 0.0, "is_disabled": 0, "fusion_lat": 0.0, "bike_id": "ec136a88eacc8dedcea5904e63b9071b", "rental_uris": {"ios": "https://dc.lft.to/lastmile_qr_scan", "android": "https://dc.lft.to/lastmile_qr_scan"}}, {"name": "35a41eb64d01b04851f06a1b11d3cc56", "type": "electric_scooter", "lat": 38.900784333333334, "is_reserved": 0, "lon": -77.05061183333333, "fusion_lon": 0.0, "is_disabled": 0, "fusion_lat": 0.0, "bike_id": "35a41eb64d01b04851f06a1b11d3cc56", "rental_uris": {"ios": "https://dc.lft.to/lastmile_qr_scan", "android": "https://dc.lft.to/lastmile_qr_scan"}}, {"name": "388efebb6c79f13157b61934367f41f3", "type": "electric_scooter", "lat": 38.898283, "is_reserved": 0, "lon": -76.94652166666667, "fusion_lon": 0.0, "is_disabled": 0, "fusion_lat": 0.0, "bike_id": "388efebb6c79f13157b61934367f41f3", "rental_uris": {"ios": "https://dc.lft.to/lastmile_qr_scan", "android": "https://dc.lft.to/lastmile_qr_scan"}}, {"name": "ae06dc68743b7e88f23015328dbb2b4b", "type": "electric_scooter", "lat": 38.9307155, "is_reserved": 0, "lon": -77.02990516666667, "fusion_lon": 0.0, "is_disabled": 0, "fusion_lat": 0.0, "bike_id": "ae06dc68743b7e88f23015328dbb2b4b", "rental_uris": {"ios": "https://dc.lft.to/lastmile_qr_scan", "android": "https://dc.lft.to/lastmile_qr_scan"}}, {"name": "a9c8890b53b0946d6561bae76176f5de", "type": "electric_bike", "lat": 38.839852666666665, "is_reserved": 0, "lon": -77.0056285, "fusion_lon": 0.0, "is_disabled": 0, "fusion_lat": 0.0, "bike_id": "a9c8890b53b0946d6561bae76176f5de", "rental_uris": {"ios": "https://dc.lft.to/lastmile_qr_scan", "android": "https://dc.lft.to/lastmile_qr_scan"}}, {"name": "5118922977ea0b6f7ed18d4d63e9356a", "type": "electric_bike", "lat": 38.92214966666667, "is_reserved": 0, "lon": -77.08198983333334, "fusion_lon": 0.0, "is_disabled": 0, "fusion_lat": 0.0, "bike_id": "5118922977ea0b6f7ed18d4d63e9356a", "rental_uris": {"ios": "https://dc.lft.to/lastmile_qr_scan", "android": "https://dc.lft.to/lastmile_qr_scan"}}, {"name": "b640dc5572ffe62cf9794facc84df6f7", "type": "electric_scooter", "lat": 38.913334166666665, "is_reserved": 0, "lon": -77.0316465, "fusion_lon": 0.0, "is_disabled": 0, "fusion_lat": 0.0, "bike_id": "b640dc5572ffe62cf9794facc84df6f7", "rental_uris": {"ios": "https://dc.lft.to/lastmile_qr_scan", "android": "https://dc.lft.to/lastmile_qr_scan"}}, {"name": "2f0e65794c6049bd8a28b4b128e9c6f1", "type": "electric_scooter", "lat": 38.9376945, "is_reserved": 0, "lon": -77.02266066666667, "fusion_lon": 0.0, "is_disabled": 0, "fusion_lat": 0.0, "bike_id": "2f0e65794c6049bd8a28b4b128e9c6f1", "rental_uris": {"ios": "https://dc.lft.to/lastmile_qr_scan", "android": "https://dc.lft.to/lastmile_qr_scan"}}, {"name": "9080b9cb675456eb214fd9323da025bd", "type": "electric_scooter", "lat": 38.930669, "is_reserved": 0, "lon": -77.029199, "fusion_lon": 0.0, "is_disabled": 0, "fusion_lat": 0.0, "bike_id": "9080b9cb675456eb214fd9323da025bd", "rental_uris": {"ios": "https://dc.lft.to/lastmile_qr_scan", "android": "https://dc.lft.to/lastmile_qr_scan"}}, {"name": "10dc547d03e5a96d24fa2443da3a43ed", "type": "electric_scooter", "lat": 38.919179, "is_reserved": 0, "lon": -77.03421933333334, "fusion_lon": 0.0, "is_disabled": 0, "fusion_lat": 0.0, "bike_id": "10dc547d03e5a96d24fa2443da3a43ed", "rental_uris": {"ios": "https://dc.lft.to/lastmile_qr_scan", "android": "https://dc.lft.to/lastmile_qr_scan"}}, {"name": "39f5e0a40752f60c59e77557d0c0a4b3", "type": "electric_scooter", "lat": 38.92480533333333, "is_reserved": 0, "lon": -77.02886016666666, "fusion_lon": 0.0, "is_disabled": 0, "fusion_lat": 0.0, "bike_id": "39f5e0a40752f60c59e77557d0c0a4b3", "rental_uris": {"ios": "https://dc.lft.to/lastmile_qr_scan", "android": "https://dc.lft.to/lastmile_qr_scan"}}, {"name": "608dd9a0768d41e9c7122ff20401c183", "type": "electric_scooter", "lat": 38.92330883333333, "is_reserved": 0, "lon": -77.03513666666667, "fusion_lon": 0.0, "is_disabled": 0, "fusion_lat": 0.0, "bike_id": "608dd9a0768d41e9c7122ff20401c183", "rental_uris": {"ios": "https://dc.lft.to/lastmile_qr_scan", "android": "https://dc.lft.to/lastmile_qr_scan"}}, {"name": "f637e1c6f5daecd40a7b90c0ef0d0459", "type": "electric_scooter", "lat": 38.89728366666667, "is_reserved": 0, "lon": -77.04336816666667, "fusion_lon": 0.0, "is_disabled": 0, "fusion_lat": 0.0, "bike_id": "f637e1c6f5daecd40a7b90c0ef0d0459", "rental_uris": {"ios": "https://dc.lft.to/lastmile_qr_scan", "android": "https://dc.lft.to/lastmile_qr_scan"}}, {"name": "e41e8814fd08b737a41b6f82679c5d4b", "type": "electric_scooter", "lat": 38.910866, "is_reserved": 0, "lon": -77.004942, "fusion_lon": 0.0, "is_disabled": 0, "fusion_lat": 0.0, "bike_id": "e41e8814fd08b737a41b6f82679c5d4b", "rental_uris": {"ios": "https://dc.lft.to/lastmile_qr_scan", "android": "https://dc.lft.to/lastmile_qr_scan"}}, {"name": "9456a3686e4b0a168e48bbae6e95238d", "type": "electric_scooter", "lat": 38.90564716666667, "is_reserved": 0, "lon": -77.03442966666667, "fusion_lon": 0.0, "is_disabled": 0, "fusion_lat": 0.0, "bike_id": "9456a3686e4b0a168e48bbae6e95238d", "rental_uris": {"ios": "https://dc.lft.to/lastmile_qr_scan", "android": "https://dc.lft.to/lastmile_qr_scan"}}, {"name": "5a0a678df9df7df0d65ab689dddca1d9", "type": "electric_scooter", "lat": 38.906153333333336, "is_reserved": 0, "lon": -77.05146766666667, "fusion_lon": 0.0, "is_disabled": 0, "fusion_lat": 0.0, "bike_id": "5a0a678df9df7df0d65ab689dddca1d9", "rental_uris": {"ios": "https://dc.lft.to/lastmile_qr_scan", "android": "https://dc.lft.to/lastmile_qr_scan"}}, {"name": "446db5182056818f0801c13dd0bf1658", "type": "electric_scooter", "lat": 38.906656, "is_reserved": 0, "lon": -77.05145166666667, "fusion_lon": 0.0, "is_disabled": 0, "fusion_lat": 0.0, "bike_id": "446db5182056818f0801c13dd0bf1658", "rental_uris": {"ios": "https://dc.lft.to/lastmile_qr_scan", "android": "https://dc.lft.to/lastmile_qr_scan"}}, {"name": "3bdab18483b61395059d12d8b453f5de", "type": "electric_scooter", "lat": 38.930113166666665, "is_reserved": 0, "lon": -77.023282, "fusion_lon": 0.0, "is_disabled": 0, "fusion_lat": 0.0, "bike_id": "3bdab18483b61395059d12d8b453f5de", "rental_uris": {"ios": "https://dc.lft.to/lastmile_qr_scan", "android": "https://dc.lft.to/lastmile_qr_scan"}}, {"name": "63e5f6d0eee08f67991b2be8a2bc2c5c", "type": "electric_scooter", "lat": 38.900252, "is_reserved": 0, "lon": -77.0403765, "fusion_lon": 0.0, "is_disabled": 0, "fusion_lat": 0.0, "bike_id": "63e5f6d0eee08f67991b2be8a2bc2c5c", "rental_uris": {"ios": "https://dc.lft.to/lastmile_qr_scan", "android": "https://dc.lft.to/lastmile_qr_scan"}}, {"name": "286073ae14febf9054fdec20537a6b30", "type": "electric_scooter", "lat": 38.902692, "is_reserved": 0, "lon": -77.06103966666667, "fusion_lon": 0.0, "is_disabled": 0, "fusion_lat": 0.0, "bike_id": "286073ae14febf9054fdec20537a6b30", "rental_uris": {"ios": "https://dc.lft.to/lastmile_qr_scan", "android": "https://dc.lft.to/lastmile_qr_scan"}}, {"name": "70e1daae2f9e8c48c8dcb6150e108fa2", "type": "electric_scooter", "lat": 38.90132633333333, "is_reserved": 0, "lon": -77.01190366666667, "fusion_lon": 0.0, "is_disabled": 0, "fusion_lat": 0.0, "bike_id": "70e1daae2f9e8c48c8dcb6150e108fa2", "rental_uris": {"ios": "https://dc.lft.to/lastmile_qr_scan", "android": "https://dc.lft.to/lastmile_qr_scan"}}, {"name": "5839a09ce13f39891e8529523e9f4bab", "type": "electric_scooter", "lat": 38.91111183333334, "is_reserved": 0, "lon": -77.03731, "fusion_lon": 0.0, "is_disabled": 0, "fusion_lat": 0.0, "bike_id": "5839a09ce13f39891e8529523e9f4bab", "rental_uris": {"ios": "https://dc.lft.to/lastmile_qr_scan", "android": "https://dc.lft.to/lastmile_qr_scan"}}, {"name": "ee8281373a0fee0d4b58215a7946a73b", "type": "electric_bike", "lat": 38.922094333333334, "is_reserved": 0, "lon": -76.98832766666666, "fusion_lon": 0.0, "is_disabled": 0, "fusion_lat": 0.0, "bike_id": "ee8281373a0fee0d4b58215a7946a73b", "rental_uris": {"ios": "https://dc.lft.to/lastmile_qr_scan", "android": "https://dc.lft.to/lastmile_qr_scan"}}, {"name": "63469504b5a7684e58d488ddb1c0b417", "type": "electric_bike", "lat": 38.96899033333333, "is_reserved": 0, "lon": -76.95658166666666, "fusion_lon": 0.0, "is_disabled": 0, "fusion_lat": 0.0, "bike_id": "63469504b5a7684e58d488ddb1c0b417", "rental_uris": {"ios": "https://dc.lft.to/lastmile_qr_scan", "android": "https://dc.lft.to/lastmile_qr_scan"}}, {"name": "327fd700ba343f969c35070923fc07ac", "type": "electric_scooter", "lat": 38.84293016666667, "is_reserved": 0, "lon": -76.99947033333333, "fusion_lon": 0.0, "is_disabled": 0, "fusion_lat": 0.0, "bike_id": "327fd700ba343f969c35070923fc07ac", "rental_uris": {"ios": "https://dc.lft.to/lastmile_qr_scan", "android": "https://dc.lft.to/lastmile_qr_scan"}}, {"name": "cd0bff9249148beac0c37f817dd6ecdc", "type": "electric_bike", "lat": 38.99232833333333, "is_reserved": 0, "lon": -76.87820066666667, "fusion_lon": 0.0, "is_disabled": 0, "fusion_lat": 0.0, "bike_id": "cd0bff9249148beac0c37f817dd6ecdc", "rental_uris": {"ios": "https://dc.lft.to/lastmile_qr_scan", "android": "https://dc.lft.to/lastmile_qr_scan"}}, {"name": "d0d5915a901644a8f4be7d3a7dd5c988", "type": "electric_scooter", "lat": 38.900211, "is_reserved": 0, "lon": -77.02612583333334, "fusion_lon": 0.0, "is_disabled": 0, "fusion_lat": 0.0, "bike_id": "d0d5915a901644a8f4be7d3a7dd5c988", "rental_uris": {"ios": "https://dc.lft.to/lastmile_qr_scan", "android": "https://dc.lft.to/lastmile_qr_scan"}}, {"name": "916284c8a36a01e3635d601690707c3a", "type": "electric_scooter", "lat": 38.942448666666664, "is_reserved": 0, "lon": -77.02171433333334, "fusion_lon": 0.0, "is_disabled": 0, "fusion_lat": 0.0, "bike_id": "916284c8a36a01e3635d601690707c3a", "rental_uris": {"ios": "https://dc.lft.to/lastmile_qr_scan", "android": "https://dc.lft.to/lastmile_qr_scan"}}, {"name": "35bd1f826e5b0896acc419d537b945b5", "type": "electric_scooter", "lat": 38.90361433333333, "is_reserved": 0, "lon": -77.044662, "fusion_lon": 0.0, "is_disabled": 0, "fusion_lat": 0.0, "bike_id": "35bd1f826e5b0896acc419d537b945b5", "rental_uris": {"ios": "https://dc.lft.to/lastmile_qr_scan", "android": "https://dc.lft.to/lastmile_qr_scan"}}, {"name": "a4c8ef837748bc83f0fdf1d9f15803f7", "type": "electric_scooter", "lat": 38.95107683333333, "is_reserved": 0, "lon": -77.01577933333333, "fusion_lon": 0.0, "is_disabled": 0, "fusion_lat": 0.0, "bike_id": "a4c8ef837748bc83f0fdf1d9f15803f7", "rental_uris": {"ios": "https://dc.lft.to/lastmile_qr_scan", "android": "https://dc.lft.to/lastmile_qr_scan"}}, {"name": "397936fb380783fe244e94106ebb9f82", "type": "electric_scooter", "lat": 38.957319, "is_reserved": 0, "lon": -77.02407016666666, "fusion_lon": 0.0, "is_disabled": 0, "fusion_lat": 0.0, "bike_id": "397936fb380783fe244e94106ebb9f82", "rental_uris": {"ios": "https://dc.lft.to/lastmile_qr_scan", "android": "https://dc.lft.to/lastmile_qr_scan"}}, {"name": "dae1c90f2bbc840fef9cb1b50397c187", "type": "electric_scooter", "lat": 38.91106966666667, "is_reserved": 0, "lon": -77.04225433333333, "fusion_lon": 0.0, "is_disabled": 0, "fusion_lat": 0.0, "bike_id": "dae1c90f2bbc840fef9cb1b50397c187", "rental_uris": {"ios": "https://dc.lft.to/lastmile_qr_scan", "android": "https://dc.lft.to/lastmile_qr_scan"}}, {"name": "80a8662c6d30935d8fb3970a647701ef", "type": "electric_scooter", "lat": 38.903802666666664, "is_reserved": 0, "lon": -77.0403455, "fusion_lon": 0.0, "is_disabled": 0, "fusion_lat": 0.0, "bike_id": "80a8662c6d30935d8fb3970a647701ef", "rental_uris": {"ios": "https://dc.lft.to/lastmile_qr_scan", "android": "https://dc.lft.to/lastmile_qr_scan"}}, {"name": "9f1b97b071b3f5fb4407203bb70846d8", "type": "electric_scooter", "lat": 38.917159833333336, "is_reserved": 0, "lon": -77.03858716666667, "fusion_lon": 0.0, "is_disabled": 0, "fusion_lat": 0.0, "bike_id": "9f1b97b071b3f5fb4407203bb70846d8", "rental_uris": {"ios": "https://dc.lft.to/lastmile_qr_scan", "android": "https://dc.lft.to/lastmile_qr_scan"}}, {"name": "aff3fa67314e87cad6dc527b91eefcb6", "type": "electric_scooter", "lat": 38.91699283333333, "is_reserved": 0, "lon": -77.00811516666667, "fusion_lon": 0.0, "is_disabled": 0, "fusion_lat": 0.0, "bike_id": "aff3fa67314e87cad6dc527b91eefcb6", "rental_uris": {"ios": "https://dc.lft.to/lastmile_qr_scan", "android": "https://dc.lft.to/lastmile_qr_scan"}}, {"name": "682560901cbb2b04ce8f643a5926431c", "type": "electric_scooter", "lat": 38.950063166666666, "is_reserved": 0, "lon": -77.06690866666666, "fusion_lon": 0.0, "is_disabled": 0, "fusion_lat": 0.0, "bike_id": "682560901cbb2b04ce8f643a5926431c", "rental_uris": {"ios": "https://dc.lft.to/lastmile_qr_scan", "android": "https://dc.lft.to/lastmile_qr_scan"}}, {"name": "c01367330809bdb804eb297f0a3122f8", "type": "electric_scooter", "lat": 38.9027045, "is_reserved": 0, "lon": -77.03644883333334, "fusion_lon": 0.0, "is_disabled": 0, "fusion_lat": 0.0, "bike_id": "c01367330809bdb804eb297f0a3122f8", "rental_uris": {"ios": "https://dc.lft.to/lastmile_qr_scan", "android": "https://dc.lft.to/lastmile_qr_scan"}}, {"name": "37970aa0256813cb3546f38ffc65a89f", "type": "electric_scooter", "lat": 38.8946985, "is_reserved": 0, "lon": -76.98593083333333, "fusion_lon": 0.0, "is_disabled": 0, "fusion_lat": 0.0, "bike_id": "37970aa0256813cb3546f38ffc65a89f", "rental_uris": {"ios": "https://dc.lft.to/lastmile_qr_scan", "android": "https://dc.lft.to/lastmile_qr_scan"}}, {"name": "d23b575f57bfb96a8dd7dcf0b35d0de1", "type": "electric_scooter", "lat": 38.94016716666667, "is_reserved": 0, "lon": -77.07169666666667, "fusion_lon": 0.0, "is_disabled": 0, "fusion_lat": 0.0, "bike_id": "d23b575f57bfb96a8dd7dcf0b35d0de1", "rental_uris": {"ios": "https://dc.lft.to/lastmile_qr_scan", "android": "https://dc.lft.to/lastmile_qr_scan"}}, {"name": "3788e493529033e78a28b22f9ca6fbbc", "type": "electric_scooter", "lat": 38.930976333333334, "is_reserved": 0, "lon": -77.02508066666667, "fusion_lon": 0.0, "is_disabled": 0, "fusion_lat": 0.0, "bike_id": "3788e493529033e78a28b22f9ca6fbbc", "rental_uris": {"ios": "https://dc.lft.to/lastmile_qr_scan", "android": "https://dc.lft.to/lastmile_qr_scan"}}, {"name": "e4e81f382f212bc13fba4927e49a5f1e", "type": "electric_bike", "lat": 38.8505995, "is_reserved": 0, "lon": -76.97329166666667, "fusion_lon": 0.0, "is_disabled": 0, "fusion_lat": 0.0, "bike_id": "e4e81f382f212bc13fba4927e49a5f1e", "rental_uris": {"ios": "https://dc.lft.to/lastmile_qr_scan", "android": "https://dc.lft.to/lastmile_qr_scan"}}, {"name": "4c99132b754e87d49d61a886e0b1b8dc", "type": "electric_scooter", "lat": 38.9073365, "is_reserved": 0, "lon": -76.985961, "fusion_lon": 0.0, "is_disabled": 0, "fusion_lat": 0.0, "bike_id": "4c99132b754e87d49d61a886e0b1b8dc", "rental_uris": {"ios": "https://dc.lft.to/lastmile_qr_scan", "android": "https://dc.lft.to/lastmile_qr_scan"}}, {"name": "785bc5c6ff80ddb742045b12bc605905", "type": "electric_scooter", "lat": 38.90344066666667, "is_reserved": 0, "lon": -77.03850683333333, "fusion_lon": 0.0, "is_disabled": 0, "fusion_lat": 0.0, "bike_id": "785bc5c6ff80ddb742045b12bc605905", "rental_uris": {"ios": "https://dc.lft.to/lastmile_qr_scan", "android": "https://dc.lft.to/lastmile_qr_scan"}}, {"name": "63543c1c5e5e5c748a408cdb02d40567", "type": "electric_scooter", "lat": 38.915661166666666, "is_reserved": 0, "lon": -77.04661233333333, "fusion_lon": 0.0, "is_disabled": 0, "fusion_lat": 0.0, "bike_id": "63543c1c5e5e5c748a408cdb02d40567", "rental_uris": {"ios": "https://dc.lft.to/lastmile_qr_scan", "android": "https://dc.lft.to/lastmile_qr_scan"}}, {"name": "d249c812146b136283f2c620ae4694dd", "type": "electric_scooter", "lat": 38.92798966666667, "is_reserved": 0, "lon": -77.043491, "fusion_lon": 0.0, "is_disabled": 0, "fusion_lat": 0.0, "bike_id": "d249c812146b136283f2c620ae4694dd", "rental_uris": {"ios": "https://dc.lft.to/lastmile_qr_scan", "android": "https://dc.lft.to/lastmile_qr_scan"}}, {"name": "f0c40dcb1b591066f681f7109d97e7ff", "type": "electric_scooter", "lat": 38.949430166666666, "is_reserved": 0, "lon": -77.01600283333333, "fusion_lon": 0.0, "is_disabled": 0, "fusion_lat": 0.0, "bike_id": "f0c40dcb1b591066f681f7109d97e7ff", "rental_uris": {"ios": "https://dc.lft.to/lastmile_qr_scan", "android": "https://dc.lft.to/lastmile_qr_scan"}}, {"name": "ad6296f6d2f1b5141bb0cbb62a6d12d3", "type": "electric_scooter", "lat": 38.910974833333334, "is_reserved": 0, "lon": -77.04665233333333, "fusion_lon": 0.0, "is_disabled": 0, "fusion_lat": 0.0, "bike_id": "ad6296f6d2f1b5141bb0cbb62a6d12d3", "rental_uris": {"ios": "https://dc.lft.to/lastmile_qr_scan", "android": "https://dc.lft.to/lastmile_qr_scan"}}, {"name": "a5effbe33b5ba2d5d0993b9396ab8b7a", "type": "electric_scooter", "lat": 38.90083, "is_reserved": 0, "lon": -77.02585233333333, "fusion_lon": 0.0, "is_disabled": 0, "fusion_lat": 0.0, "bike_id": "a5effbe33b5ba2d5d0993b9396ab8b7a", "rental_uris": {"ios": "https://dc.lft.to/lastmile_qr_scan", "android": "https://dc.lft.to/lastmile_qr_scan"}}, {"name": "49577407b13243a00393aefee9fc0fd6", "type": "electric_scooter", "lat": 38.92511916666667, "is_reserved": 0, "lon": -77.01933516666666, "fusion_lon": 0.0, "is_disabled": 0, "fusion_lat": 0.0, "bike_id": "49577407b13243a00393aefee9fc0fd6", "rental_uris": {"ios": "https://dc.lft.to/lastmile_qr_scan", "android": "https://dc.lft.to/lastmile_qr_scan"}}, {"name": "cf48892eda6931dd1c3a9946b6984bbd", "type": "electric_scooter", "lat": 38.911111166666664, "is_reserved": 0, "lon": -77.0382835, "fusion_lon": 0.0, "is_disabled": 0, "fusion_lat": 0.0, "bike_id": "cf48892eda6931dd1c3a9946b6984bbd", "rental_uris": {"ios": "https://dc.lft.to/lastmile_qr_scan", "android": "https://dc.lft.to/lastmile_qr_scan"}}, {"name": "b62d28a3245d0df58f8777b8cb7bdf01", "type": "electric_scooter", "lat": 38.911120333333336, "is_reserved": 0, "lon": -77.01390116666667, "fusion_lon": 0.0, "is_disabled": 0, "fusion_lat": 0.0, "bike_id": "b62d28a3245d0df58f8777b8cb7bdf01", "rental_uris": {"ios": "https://dc.lft.to/lastmile_qr_scan", "android": "https://dc.lft.to/lastmile_qr_scan"}}, {"name": "d0c4543ef263c54593963fb29d8814d0", "type": "electric_scooter", "lat": 38.92150383333333, "is_reserved": 0, "lon": -77.03379833333334, "fusion_lon": 0.0, "is_disabled": 0, "fusion_lat": 0.0, "bike_id": "d0c4543ef263c54593963fb29d8814d0", "rental_uris": {"ios": "https://dc.lft.to/lastmile_qr_scan", "android": "https://dc.lft.to/lastmile_qr_scan"}}, {"name": "f50a709803b65429f3e63bae34fb4833", "type": "electric_scooter", "lat": 38.8637365, "is_reserved": 0, "lon": -76.99057533333334, "fusion_lon": 0.0, "is_disabled": 0, "fusion_lat": 0.0, "bike_id": "f50a709803b65429f3e63bae34fb4833", "rental_uris": {"ios": "https://dc.lft.to/lastmile_qr_scan", "android": "https://dc.lft.to/lastmile_qr_scan"}}, {"name": "d4ead48092a381df70161366070441a6", "type": "electric_scooter", "lat": 38.92008466666667, "is_reserved": 0, "lon": -77.03882833333333, "fusion_lon": 0.0, "is_disabled": 0, "fusion_lat": 0.0, "bike_id": "d4ead48092a381df70161366070441a6", "rental_uris": {"ios": "https://dc.lft.to/lastmile_qr_scan", "android": "https://dc.lft.to/lastmile_qr_scan"}}, {"name": "6d48c0567f54e91f5751e21610c192a6", "type": "electric_scooter", "lat": 38.90681033333333, "is_reserved": 0, "lon": -77.038257, "fusion_lon": 0.0, "is_disabled": 0, "fusion_lat": 0.0, "bike_id": "6d48c0567f54e91f5751e21610c192a6", "rental_uris": {"ios": "https://dc.lft.to/lastmile_qr_scan", "android": "https://dc.lft.to/lastmile_qr_scan"}}, {"name": "67046bc432e4814b2ef9ba8ac29a9af1", "type": "electric_scooter", "lat": 38.86664316666667, "is_reserved": 0, "lon": -76.98879133333334, "fusion_lon": 0.0, "is_disabled": 0, "fusion_lat": 0.0, "bike_id": "67046bc432e4814b2ef9ba8ac29a9af1", "rental_uris": {"ios": "https://dc.lft.to/lastmile_qr_scan", "android": "https://dc.lft.to/lastmile_qr_scan"}}, {"name": "e8ff0e0177b3cdf553d0107ec4d065ea", "type": "electric_scooter", "lat": 38.926797, "is_reserved": 0, "lon": -77.02786183333333, "fusion_lon": 0.0, "is_disabled": 0, "fusion_lat": 0.0, "bike_id": "e8ff0e0177b3cdf553d0107ec4d065ea", "rental_uris": {"ios": "https://dc.lft.to/lastmile_qr_scan", "android": "https://dc.lft.to/lastmile_qr_scan"}}, {"name": "fe609c275c994b03584572bd9e333fd1", "type": "electric_scooter", "lat": 38.893965666666666, "is_reserved": 0, "lon": -77.029959, "fusion_lon": 0.0, "is_disabled": 0, "fusion_lat": 0.0, "bike_id": "fe609c275c994b03584572bd9e333fd1", "rental_uris": {"ios": "https://dc.lft.to/lastmile_qr_scan", "android": "https://dc.lft.to/lastmile_qr_scan"}}, {"name": "11fa48634ffbfc8005b455cd4e4ee4af", "type": "electric_scooter", "lat": 38.8652255, "is_reserved": 0, "lon": -76.99034383333333, "fusion_lon": 0.0, "is_disabled": 0, "fusion_lat": 0.0, "bike_id": "11fa48634ffbfc8005b455cd4e4ee4af", "rental_uris": {"ios": "https://dc.lft.to/lastmile_qr_scan", "android": "https://dc.lft.to/lastmile_qr_scan"}}, {"name": "24cfaf0ca52c17a2ba4b1907aa0e159a", "type": "electric_bike", "lat": 38.95271133333333, "is_reserved": 0, "lon": -77.06989333333334, "fusion_lon": 0.0, "is_disabled": 0, "fusion_lat": 0.0, "bike_id": "24cfaf0ca52c17a2ba4b1907aa0e159a", "rental_uris": {"ios": "https://dc.lft.to/lastmile_qr_scan", "android": "https://dc.lft.to/lastmile_qr_scan"}}, {"name": "3f9b89d55f2ecf3573046deae77922b0", "type": "electric_scooter", "lat": 38.924799666666665, "is_reserved": 0, "lon": -77.03486116666667, "fusion_lon": 0.0, "is_disabled": 0, "fusion_lat": 0.0, "bike_id": "3f9b89d55f2ecf3573046deae77922b0", "rental_uris": {"ios": "https://dc.lft.to/lastmile_qr_scan", "android": "https://dc.lft.to/lastmile_qr_scan"}}, {"name": "2041d8547bb05a0bfdb7c35590ab10cc", "type": "electric_bike", "lat": 38.862766, "is_reserved": 0, "lon": -77.0637035, "fusion_lon": 0.0, "is_disabled": 0, "fusion_lat": 0.0, "bike_id": "2041d8547bb05a0bfdb7c35590ab10cc", "rental_uris": {"ios": "https://dc.lft.to/lastmile_qr_scan", "android": "https://dc.lft.to/lastmile_qr_scan"}}, {"name": "6d81a4bc91beaace4db498102a1c88bd", "type": "electric_scooter", "lat": 38.927397, "is_reserved": 0, "lon": -77.0325545, "fusion_lon": 0.0, "is_disabled": 0, "fusion_lat": 0.0, "bike_id": "6d81a4bc91beaace4db498102a1c88bd", "rental_uris": {"ios": "https://dc.lft.to/lastmile_qr_scan", "android": "https://dc.lft.to/lastmile_qr_scan"}}, {"name": "f099ef309c50b62b0e079ca346b67555", "type": "electric_scooter", "lat": 38.88607, "is_reserved": 0, "lon": -76.99513366666666, "fusion_lon": 0.0, "is_disabled": 0, "fusion_lat": 0.0, "bike_id": "f099ef309c50b62b0e079ca346b67555", "rental_uris": {"ios": "https://dc.lft.to/lastmile_qr_scan", "android": "https://dc.lft.to/lastmile_qr_scan"}}, {"name": "5b8d1eac53df83cb90fa487b242b186b", "type": "electric_scooter", "lat": 38.88215183333333, "is_reserved": 0, "lon": -76.94182166666667, "fusion_lon": 0.0, "is_disabled": 0, "fusion_lat": 0.0, "bike_id": "5b8d1eac53df83cb90fa487b242b186b", "rental_uris": {"ios": "https://dc.lft.to/lastmile_qr_scan", "android": "https://dc.lft.to/lastmile_qr_scan"}}, {"name": "ccff492fcebe322a8e684f279fb8f1c2", "type": "electric_scooter", "lat": 38.90554933333333, "is_reserved": 0, "lon": -77.00583583333334, "fusion_lon": 0.0, "is_disabled": 0, "fusion_lat": 0.0, "bike_id": "ccff492fcebe322a8e684f279fb8f1c2", "rental_uris": {"ios": "https://dc.lft.to/lastmile_qr_scan", "android": "https://dc.lft.to/lastmile_qr_scan"}}, {"name": "f4510578c2db87ed8055e064b45330fb", "type": "electric_scooter", "lat": 38.90253533333333, "is_reserved": 0, "lon": -77.0320405, "fusion_lon": 0.0, "is_disabled": 0, "fusion_lat": 0.0, "bike_id": "f4510578c2db87ed8055e064b45330fb", "rental_uris": {"ios": "https://dc.lft.to/lastmile_qr_scan", "android": "https://dc.lft.to/lastmile_qr_scan"}}, {"name": "21940f5d02d4aa46750915853cf3c434", "type": "electric_scooter", "lat": 38.929731333333336, "is_reserved": 0, "lon": -77.023461, "fusion_lon": 0.0, "is_disabled": 0, "fusion_lat": 0.0, "bike_id": "21940f5d02d4aa46750915853cf3c434", "rental_uris": {"ios": "https://dc.lft.to/lastmile_qr_scan", "android": "https://dc.lft.to/lastmile_qr_scan"}}, {"name": "0eceed532369fe91a660f44a933f1dea", "type": "electric_scooter", "lat": 38.907304833333335, "is_reserved": 0, "lon": -77.011337, "fusion_lon": 0.0, "is_disabled": 0, "fusion_lat": 0.0, "bike_id": "0eceed532369fe91a660f44a933f1dea", "rental_uris": {"ios": "https://dc.lft.to/lastmile_qr_scan", "android": "https://dc.lft.to/lastmile_qr_scan"}}, {"name": "fc6507a14c904cbf65ba7159378fb258", "type": "electric_scooter", "lat": 38.90328266666667, "is_reserved": 0, "lon": -76.989679, "fusion_lon": 0.0, "is_disabled": 0, "fusion_lat": 0.0, "bike_id": "fc6507a14c904cbf65ba7159378fb258", "rental_uris": {"ios": "https://dc.lft.to/lastmile_qr_scan", "android": "https://dc.lft.to/lastmile_qr_scan"}}, {"name": "5b66ae4020b6337fce3d59b77547fccc", "type": "electric_scooter", "lat": 38.92155566666667, "is_reserved": 0, "lon": -77.033857, "fusion_lon": 0.0, "is_disabled": 0, "fusion_lat": 0.0, "bike_id": "5b66ae4020b6337fce3d59b77547fccc", "rental_uris": {"ios": "https://dc.lft.to/lastmile_qr_scan", "android": "https://dc.lft.to/lastmile_qr_scan"}}, {"name": "66c328a7ba8a35eaee15ef30e0311d93", "type": "electric_scooter", "lat": 38.9221085, "is_reserved": 0, "lon": -77.0423, "fusion_lon": 0.0, "is_disabled": 0, "fusion_lat": 0.0, "bike_id": "66c328a7ba8a35eaee15ef30e0311d93", "rental_uris": {"ios": "https://dc.lft.to/lastmile_qr_scan", "android": "https://dc.lft.to/lastmile_qr_scan"}}, {"name": "ebf62155b482f1d664c5458010db11e7", "type": "electric_scooter", "lat": 38.88615566666667, "is_reserved": 0, "lon": -76.99513433333334, "fusion_lon": 0.0, "is_disabled": 0, "fusion_lat": 0.0, "bike_id": "ebf62155b482f1d664c5458010db11e7", "rental_uris": {"ios": "https://dc.lft.to/lastmile_qr_scan", "android": "https://dc.lft.to/lastmile_qr_scan"}}, {"name": "ee2e73ade6b7f6bc09f6ffd84501e628", "type": "electric_bike", "lat": 38.88403683333333, "is_reserved": 0, "lon": -76.960561, "fusion_lon": 0.0, "is_disabled": 0, "fusion_lat": 0.0, "bike_id": "ee2e73ade6b7f6bc09f6ffd84501e628", "rental_uris": {"ios": "https://dc.lft.to/lastmile_qr_scan", "android": "https://dc.lft.to/lastmile_qr_scan"}}, {"name": "b45d310f3077cfb92fc13fb4d489e9d7", "type": "electric_scooter", "lat": 38.904892833333335, "is_reserved": 0, "lon": -77.02955516666667, "fusion_lon": 0.0, "is_disabled": 0, "fusion_lat": 0.0, "bike_id": "b45d310f3077cfb92fc13fb4d489e9d7", "rental_uris": {"ios": "https://dc.lft.to/lastmile_qr_scan", "android": "https://dc.lft.to/lastmile_qr_scan"}}, {"name": "b635bc210bab2af7283bd409f47e9431", "type": "electric_bike", "lat": 38.831398166666666, "is_reserved": 0, "lon": -77.113148, "fusion_lon": 0.0, "is_disabled": 0, "fusion_lat": 0.0, "bike_id": "b635bc210bab2af7283bd409f47e9431", "rental_uris": {"ios": "https://dc.lft.to/lastmile_qr_scan", "android": "https://dc.lft.to/lastmile_qr_scan"}}, {"name": "167814e2f63ef1b9644c1bc04fbdc116", "type": "electric_scooter", "lat": 38.939633666666666, "is_reserved": 0, "lon": -77.03254816666667, "fusion_lon": 0.0, "is_disabled": 0, "fusion_lat": 0.0, "bike_id": "167814e2f63ef1b9644c1bc04fbdc116", "rental_uris": {"ios": "https://dc.lft.to/lastmile_qr_scan", "android": "https://dc.lft.to/lastmile_qr_scan"}}, {"name": "32e3acfd951188c42f28e28158fd56f5", "type": "electric_scooter", "lat": 38.89478583333333, "is_reserved": 0, "lon": -76.94871416666666, "fusion_lon": 0.0, "is_disabled": 0, "fusion_lat": 0.0, "bike_id": "32e3acfd951188c42f28e28158fd56f5", "rental_uris": {"ios": "https://dc.lft.to/lastmile_qr_scan", "android": "https://dc.lft.to/lastmile_qr_scan"}}, {"name": "4f1b14c428132f652a8a89bb490f8425", "type": "electric_scooter", "lat": 38.93714966666667, "is_reserved": 0, "lon": -77.0241715, "fusion_lon": 0.0, "is_disabled": 0, "fusion_lat": 0.0, "bike_id": "4f1b14c428132f652a8a89bb490f8425", "rental_uris": {"ios": "https://dc.lft.to/lastmile_qr_scan", "android": "https://dc.lft.to/lastmile_qr_scan"}}, {"name": "219cf31d37dee8c1c1b9dc8213b96380", "type": "electric_scooter", "lat": 38.922750666666666, "is_reserved": 0, "lon": -77.0366555, "fusion_lon": 0.0, "is_disabled": 0, "fusion_lat": 0.0, "bike_id": "219cf31d37dee8c1c1b9dc8213b96380", "rental_uris": {"ios": "https://dc.lft.to/lastmile_qr_scan", "android": "https://dc.lft.to/lastmile_qr_scan"}}, {"name": "24967c88f42ea8a43c9c6b4a64f1b1cd", "type": "electric_scooter", "lat": 38.914200666666666, "is_reserved": 0, "lon": -77.04645416666666, "fusion_lon": 0.0, "is_disabled": 0, "fusion_lat": 0.0, "bike_id": "24967c88f42ea8a43c9c6b4a64f1b1cd", "rental_uris": {"ios": "https://dc.lft.to/lastmile_qr_scan", "android": "https://dc.lft.to/lastmile_qr_scan"}}, {"name": "e7b76d53b61682be7e7775baeea59052", "type": "electric_bike", "lat": 38.950767, "is_reserved": 0, "lon": -77.01206333333333, "fusion_lon": 0.0, "is_disabled": 0, "fusion_lat": 0.0, "bike_id": "e7b76d53b61682be7e7775baeea59052", "rental_uris": {"ios": "https://dc.lft.to/lastmile_qr_scan", "android": "https://dc.lft.to/lastmile_qr_scan"}}, {"name": "41996395f1979259198496af137b67a2", "type": "electric_scooter", "lat": 38.90032183333334, "is_reserved": 0, "lon": -77.00209366666667, "fusion_lon": 0.0, "is_disabled": 0, "fusion_lat": 0.0, "bike_id": "41996395f1979259198496af137b67a2", "rental_uris": {"ios": "https://dc.lft.to/lastmile_qr_scan", "android": "https://dc.lft.to/lastmile_qr_scan"}}, {"name": "f688630e731630399b87c4ed4154e399", "type": "electric_scooter", "lat": 38.93709616666666, "is_reserved": 0, "lon": -77.029317, "fusion_lon": 0.0, "is_disabled": 0, "fusion_lat": 0.0, "bike_id": "f688630e731630399b87c4ed4154e399", "rental_uris": {"ios": "https://dc.lft.to/lastmile_qr_scan", "android": "https://dc.lft.to/lastmile_qr_scan"}}, {"name": "5f1651de89c3f60d2a55d0dbed171f78", "type": "electric_scooter", "lat": 38.8851125, "is_reserved": 0, "lon": -77.00572616666666, "fusion_lon": 0.0, "is_disabled": 0, "fusion_lat": 0.0, "bike_id": "5f1651de89c3f60d2a55d0dbed171f78", "rental_uris": {"ios": "https://dc.lft.to/lastmile_qr_scan", "android": "https://dc.lft.to/lastmile_qr_scan"}}, {"name": "34057c08d09b6dd42517498ea7d222be", "type": "electric_scooter", "lat": 38.90397933333333, "is_reserved": 0, "lon": -77.0058445, "fusion_lon": 0.0, "is_disabled": 0, "fusion_lat": 0.0, "bike_id": "34057c08d09b6dd42517498ea7d222be", "rental_uris": {"ios": "https://dc.lft.to/lastmile_qr_scan", "android": "https://dc.lft.to/lastmile_qr_scan"}}, {"name": "785ca636c568156b23755567e52818ff", "type": "electric_scooter", "lat": 38.8922185, "is_reserved": 0, "lon": -77.03090433333334, "fusion_lon": 0.0, "is_disabled": 0, "fusion_lat": 0.0, "bike_id": "785ca636c568156b23755567e52818ff", "rental_uris": {"ios": "https://dc.lft.to/lastmile_qr_scan", "android": "https://dc.lft.to/lastmile_qr_scan"}}, {"name": "3269e26dc06f8c2e29f2b5fa4b97d3f4", "type": "electric_scooter", "lat": 38.903697333333334, "is_reserved": 0, "lon": -77.00980933333334, "fusion_lon": 0.0, "is_disabled": 0, "fusion_lat": 0.0, "bike_id": "3269e26dc06f8c2e29f2b5fa4b97d3f4", "rental_uris": {"ios": "https://dc.lft.to/lastmile_qr_scan", "android": "https://dc.lft.to/lastmile_qr_scan"}}, {"name": "2722a2f2684cf2b59a436f94b68c665c", "type": "electric_scooter", "lat": 38.8994365, "is_reserved": 0, "lon": -76.98006266666667, "fusion_lon": 0.0, "is_disabled": 0, "fusion_lat": 0.0, "bike_id": "2722a2f2684cf2b59a436f94b68c665c", "rental_uris": {"ios": "https://dc.lft.to/lastmile_qr_scan", "android": "https://dc.lft.to/lastmile_qr_scan"}}, {"name": "1251dd4c833c661dd45a6658522623fa", "type": "electric_scooter", "lat": 38.93437466666666, "is_reserved": 0, "lon": -77.040073, "fusion_lon": 0.0, "is_disabled": 0, "fusion_lat": 0.0, "bike_id": "1251dd4c833c661dd45a6658522623fa", "rental_uris": {"ios": "https://dc.lft.to/lastmile_qr_scan", "android": "https://dc.lft.to/lastmile_qr_scan"}}, {"name": "d4f93ea13854021f572c52debd7a1e59", "type": "electric_scooter", "lat": 38.907841833333336, "is_reserved": 0, "lon": -77.048735, "fusion_lon": 0.0, "is_disabled": 0, "fusion_lat": 0.0, "bike_id": "d4f93ea13854021f572c52debd7a1e59", "rental_uris": {"ios": "https://dc.lft.to/lastmile_qr_scan", "android": "https://dc.lft.to/lastmile_qr_scan"}}, {"name": "3b42d3bc571d22256c744ef486825879", "type": "electric_scooter", "lat": 38.929848666666665, "is_reserved": 0, "lon": -77.03473616666666, "fusion_lon": 0.0, "is_disabled": 0, "fusion_lat": 0.0, "bike_id": "3b42d3bc571d22256c744ef486825879", "rental_uris": {"ios": "https://dc.lft.to/lastmile_qr_scan", "android": "https://dc.lft.to/lastmile_qr_scan"}}, {"name": "b1db8d11690e1a2a70556ce7b4baa417", "type": "electric_bike", "lat": 38.87736683333333, "is_reserved": 0, "lon": -77.118428, "fusion_lon": 0.0, "is_disabled": 0, "fusion_lat": 0.0, "bike_id": "b1db8d11690e1a2a70556ce7b4baa417", "rental_uris": {"ios": "https://dc.lft.to/lastmile_qr_scan", "android": "https://dc.lft.to/lastmile_qr_scan"}}, {"name": "40b5c3b761c4de70510a5ab42a14eac2", "type": "electric_scooter", "lat": 38.930625166666665, "is_reserved": 0, "lon": -77.0379595, "fusion_lon": 0.0, "is_disabled": 0, "fusion_lat": 0.0, "bike_id": "40b5c3b761c4de70510a5ab42a14eac2", "rental_uris": {"ios": "https://dc.lft.to/lastmile_qr_scan", "android": "https://dc.lft.to/lastmile_qr_scan"}}, {"name": "a828575d159ece35b9f338413b4197c1", "type": "electric_scooter", "lat": 38.91215616666667, "is_reserved": 0, "lon": -77.02800483333333, "fusion_lon": 0.0, "is_disabled": 0, "fusion_lat": 0.0, "bike_id": "a828575d159ece35b9f338413b4197c1", "rental_uris": {"ios": "https://dc.lft.to/lastmile_qr_scan", "android": "https://dc.lft.to/lastmile_qr_scan"}}, {"name": "671b37ab12dfa91ce5d5a05d93458acb", "type": "electric_scooter", "lat": 38.90289333333333, "is_reserved": 0, "lon": -77.06012483333333, "fusion_lon": 0.0, "is_disabled": 0, "fusion_lat": 0.0, "bike_id": "671b37ab12dfa91ce5d5a05d93458acb", "rental_uris": {"ios": "https://dc.lft.to/lastmile_qr_scan", "android": "https://dc.lft.to/lastmile_qr_scan"}}, {"name": "84d1ea4ca96e648a8ee04b5eb3bed7d5", "type": "electric_scooter", "lat": 38.911097, "is_reserved": 0, "lon": -77.00238616666667, "fusion_lon": 0.0, "is_disabled": 0, "fusion_lat": 0.0, "bike_id": "84d1ea4ca96e648a8ee04b5eb3bed7d5", "rental_uris": {"ios": "https://dc.lft.to/lastmile_qr_scan", "android": "https://dc.lft.to/lastmile_qr_scan"}}, {"name": "c33ec11867b446f95571c7bfe56d7a49", "type": "electric_scooter", "lat": 38.9320975, "is_reserved": 0, "lon": -77.02384533333333, "fusion_lon": 0.0, "is_disabled": 0, "fusion_lat": 0.0, "bike_id": "c33ec11867b446f95571c7bfe56d7a49", "rental_uris": {"ios": "https://dc.lft.to/lastmile_qr_scan", "android": "https://dc.lft.to/lastmile_qr_scan"}}, {"name": "39fe7a2e4ea7c1d605827936ca83711b", "type": "electric_scooter", "lat": 38.88353733333334, "is_reserved": 0, "lon": -76.98565583333334, "fusion_lon": 0.0, "is_disabled": 0, "fusion_lat": 0.0, "bike_id": "39fe7a2e4ea7c1d605827936ca83711b", "rental_uris": {"ios": "https://dc.lft.to/lastmile_qr_scan", "android": "https://dc.lft.to/lastmile_qr_scan"}}, {"name": "0c78577d0ac0929c84ace23fd1737c35", "type": "electric_scooter", "lat": 38.878924, "is_reserved": 0, "lon": -77.02270483333334, "fusion_lon": 0.0, "is_disabled": 0, "fusion_lat": 0.0, "bike_id": "0c78577d0ac0929c84ace23fd1737c35", "rental_uris": {"ios": "https://dc.lft.to/lastmile_qr_scan", "android": "https://dc.lft.to/lastmile_qr_scan"}}, {"name": "565472d297df3337ebb1578ecb997748", "type": "electric_scooter", "lat": 38.938964166666665, "is_reserved": 0, "lon": -77.01761533333334, "fusion_lon": 0.0, "is_disabled": 0, "fusion_lat": 0.0, "bike_id": "565472d297df3337ebb1578ecb997748", "rental_uris": {"ios": "https://dc.lft.to/lastmile_qr_scan", "android": "https://dc.lft.to/lastmile_qr_scan"}}, {"name": "a956f6729bd595bc388f1491c5c1088b", "type": "electric_scooter", "lat": 38.93961316666667, "is_reserved": 0, "lon": -77.05320033333334, "fusion_lon": 0.0, "is_disabled": 0, "fusion_lat": 0.0, "bike_id": "a956f6729bd595bc388f1491c5c1088b", "rental_uris": {"ios": "https://dc.lft.to/lastmile_qr_scan", "android": "https://dc.lft.to/lastmile_qr_scan"}}, {"name": "3b9658837c91a681e1bdb3244084c67a", "type": "electric_scooter", "lat": 38.90599066666667, "is_reserved": 0, "lon": -77.051208, "fusion_lon": 0.0, "is_disabled": 0, "fusion_lat": 0.0, "bike_id": "3b9658837c91a681e1bdb3244084c67a", "rental_uris": {"ios": "https://dc.lft.to/lastmile_qr_scan", "android": "https://dc.lft.to/lastmile_qr_scan"}}, {"name": "3c3a67d8ce2f739fa1069c3d28392046", "type": "electric_scooter", "lat": 38.8972265, "is_reserved": 0, "lon": -77.0014795, "fusion_lon": 0.0, "is_disabled": 0, "fusion_lat": 0.0, "bike_id": "3c3a67d8ce2f739fa1069c3d28392046", "rental_uris": {"ios": "https://dc.lft.to/lastmile_qr_scan", "android": "https://dc.lft.to/lastmile_qr_scan"}}, {"name": "b50270126485880be4f0d977b3ee311c", "type": "electric_bike", "lat": 38.8708305, "is_reserved": 0, "lon": -77.01209416666667, "fusion_lon": 0.0, "is_disabled": 0, "fusion_lat": 0.0, "bike_id": "b50270126485880be4f0d977b3ee311c", "rental_uris": {"ios": "https://dc.lft.to/lastmile_qr_scan", "android": "https://dc.lft.to/lastmile_qr_scan"}}, {"name": "bb0b166583ddd32fa244f98bc0f72ba3", "type": "electric_scooter", "lat": 38.911053833333334, "is_reserved": 0, "lon": -77.04224016666667, "fusion_lon": 0.0, "is_disabled": 0, "fusion_lat": 0.0, "bike_id": "bb0b166583ddd32fa244f98bc0f72ba3", "rental_uris": {"ios": "https://dc.lft.to/lastmile_qr_scan", "android": "https://dc.lft.to/lastmile_qr_scan"}}, {"name": "e336e9f5ca069d649dd9a75d1051eaaa", "type": "electric_scooter", "lat": 38.90623216666667, "is_reserved": 0, "lon": -76.983151, "fusion_lon": 0.0, "is_disabled": 0, "fusion_lat": 0.0, "bike_id": "e336e9f5ca069d649dd9a75d1051eaaa", "rental_uris": {"ios": "https://dc.lft.to/lastmile_qr_scan", "android": "https://dc.lft.to/lastmile_qr_scan"}}, {"name": "30472b03dca20ab10de17f26709aa950", "type": "electric_bike", "lat": 38.9369155, "is_reserved": 0, "lon": -77.0564575, "fusion_lon": 0.0, "is_disabled": 0, "fusion_lat": 0.0, "bike_id": "30472b03dca20ab10de17f26709aa950", "rental_uris": {"ios": "https://dc.lft.to/lastmile_qr_scan", "android": "https://dc.lft.to/lastmile_qr_scan"}}, {"name": "ffb8a44f1d8b6ca0f75cc4f62e0e0c57", "type": "electric_scooter", "lat": 38.860938833333336, "is_reserved": 0, "lon": -76.983772, "fusion_lon": 0.0, "is_disabled": 0, "fusion_lat": 0.0, "bike_id": "ffb8a44f1d8b6ca0f75cc4f62e0e0c57", "rental_uris": {"ios": "https://dc.lft.to/lastmile_qr_scan", "android": "https://dc.lft.to/lastmile_qr_scan"}}, {"name": "f3f3e37e53d30a3c25772981efbab768", "type": "electric_scooter", "lat": 38.902462666666665, "is_reserved": 0, "lon": -77.00202266666666, "fusion_lon": 0.0, "is_disabled": 0, "fusion_lat": 0.0, "bike_id": "f3f3e37e53d30a3c25772981efbab768", "rental_uris": {"ios": "https://dc.lft.to/lastmile_qr_scan", "android": "https://dc.lft.to/lastmile_qr_scan"}}, {"name": "4b5d55190351ef063c206034d9919b83", "type": "electric_scooter", "lat": 38.891032833333334, "is_reserved": 0, "lon": -76.98705133333333, "fusion_lon": 0.0, "is_disabled": 0, "fusion_lat": 0.0, "bike_id": "4b5d55190351ef063c206034d9919b83", "rental_uris": {"ios": "https://dc.lft.to/lastmile_qr_scan", "android": "https://dc.lft.to/lastmile_qr_scan"}}, {"name": "7091640335f47511e0e1f4641ccddc32", "type": "electric_bike", "lat": 38.93699183333333, "is_reserved": 0, "lon": -77.02981933333334, "fusion_lon": 0.0, "is_disabled": 0, "fusion_lat": 0.0, "bike_id": "7091640335f47511e0e1f4641ccddc32", "rental_uris": {"ios": "https://dc.lft.to/lastmile_qr_scan", "android": "https://dc.lft.to/lastmile_qr_scan"}}, {"name": "0ee21b0c855af83cdb8160869fd45926", "type": "electric_scooter", "lat": 38.915987333333334, "is_reserved": 0, "lon": -76.98377533333333, "fusion_lon": 0.0, "is_disabled": 0, "fusion_lat": 0.0, "bike_id": "0ee21b0c855af83cdb8160869fd45926", "rental_uris": {"ios": "https://dc.lft.to/lastmile_qr_scan", "android": "https://dc.lft.to/lastmile_qr_scan"}}, {"name": "0f647f0cb1d208d2fbe5b8d2fae70b81", "type": "electric_scooter", "lat": 38.898138833333334, "is_reserved": 0, "lon": -77.03291533333334, "fusion_lon": 0.0, "is_disabled": 0, "fusion_lat": 0.0, "bike_id": "0f647f0cb1d208d2fbe5b8d2fae70b81", "rental_uris": {"ios": "https://dc.lft.to/lastmile_qr_scan", "android": "https://dc.lft.to/lastmile_qr_scan"}}, {"name": "17ce77c4a2da603eaea4b180aa50e3b4", "type": "electric_scooter", "lat": 38.9095295, "is_reserved": 0, "lon": -77.04321483333334, "fusion_lon": 0.0, "is_disabled": 0, "fusion_lat": 0.0, "bike_id": "17ce77c4a2da603eaea4b180aa50e3b4", "rental_uris": {"ios": "https://dc.lft.to/lastmile_qr_scan", "android": "https://dc.lft.to/lastmile_qr_scan"}}, {"name": "e3153c746bb13e345a04ddc99e01566b", "type": "electric_bike", "lat": 38.87134983333333, "is_reserved": 0, "lon": -76.93731933333333, "fusion_lon": 0.0, "is_disabled": 0, "fusion_lat": 0.0, "bike_id": "e3153c746bb13e345a04ddc99e01566b", "rental_uris": {"ios": "https://dc.lft.to/lastmile_qr_scan", "android": "https://dc.lft.to/lastmile_qr_scan"}}, {"name": "048a02a57c1ab692c08894c97e009c62", "type": "electric_scooter", "lat": 38.90942833333333, "is_reserved": 0, "lon": -76.9989265, "fusion_lon": 0.0, "is_disabled": 0, "fusion_lat": 0.0, "bike_id": "048a02a57c1ab692c08894c97e009c62", "rental_uris": {"ios": "https://dc.lft.to/lastmile_qr_scan", "android": "https://dc.lft.to/lastmile_qr_scan"}}, {"name": "2f052ed59540498636eed13ca7b5ed1a", "type": "electric_scooter", "lat": 38.929872, "is_reserved": 0, "lon": -77.079422, "fusion_lon": 0.0, "is_disabled": 0, "fusion_lat": 0.0, "bike_id": "2f052ed59540498636eed13ca7b5ed1a", "rental_uris": {"ios": "https://dc.lft.to/lastmile_qr_scan", "android": "https://dc.lft.to/lastmile_qr_scan"}}, {"name": "5c1e9883b927eaafedee45a813e86ec0", "type": "electric_scooter", "lat": 38.924862166666664, "is_reserved": 0, "lon": -77.02711516666666, "fusion_lon": 0.0, "is_disabled": 0, "fusion_lat": 0.0, "bike_id": "5c1e9883b927eaafedee45a813e86ec0", "rental_uris": {"ios": "https://dc.lft.to/lastmile_qr_scan", "android": "https://dc.lft.to/lastmile_qr_scan"}}, {"name": "520c6e97f7d6fb0a9184ee08770d3026", "type": "electric_bike", "lat": 38.832415, "is_reserved": 0, "lon": -76.94621316666667, "fusion_lon": 0.0, "is_disabled": 0, "fusion_lat": 0.0, "bike_id": "520c6e97f7d6fb0a9184ee08770d3026", "rental_uris": {"ios": "https://dc.lft.to/lastmile_qr_scan", "android": "https://dc.lft.to/lastmile_qr_scan"}}, {"name": "df52a8cb7148a111560e18be60e909e7", "type": "electric_scooter", "lat": 38.931148, "is_reserved": 0, "lon": -77.03811216666666, "fusion_lon": 0.0, "is_disabled": 0, "fusion_lat": 0.0, "bike_id": "df52a8cb7148a111560e18be60e909e7", "rental_uris": {"ios": "https://dc.lft.to/lastmile_qr_scan", "android": "https://dc.lft.to/lastmile_qr_scan"}}, {"name": "1db46ae9252f45f53f51110316c13a14", "type": "electric_scooter", "lat": 38.90584066666667, "is_reserved": 0, "lon": -77.029478, "fusion_lon": 0.0, "is_disabled": 0, "fusion_lat": 0.0, "bike_id": "1db46ae9252f45f53f51110316c13a14", "rental_uris": {"ios": "https://dc.lft.to/lastmile_qr_scan", "android": "https://dc.lft.to/lastmile_qr_scan"}}, {"name": "02635c5d367566ed269be0f07c813cfd", "type": "electric_scooter", "lat": 38.941304833333334, "is_reserved": 0, "lon": -77.01546733333333, "fusion_lon": 0.0, "is_disabled": 0, "fusion_lat": 0.0, "bike_id": "02635c5d367566ed269be0f07c813cfd", "rental_uris": {"ios": "https://dc.lft.to/lastmile_qr_scan", "android": "https://dc.lft.to/lastmile_qr_scan"}}, {"name": "86f6275ad9d388d7298d1c717d8b4b89", "type": "electric_scooter", "lat": 38.93287616666667, "is_reserved": 0, "lon": -77.03981283333333, "fusion_lon": 0.0, "is_disabled": 0, "fusion_lat": 0.0, "bike_id": "86f6275ad9d388d7298d1c717d8b4b89", "rental_uris": {"ios": "https://dc.lft.to/lastmile_qr_scan", "android": "https://dc.lft.to/lastmile_qr_scan"}}, {"name": "f60a912fbbe530708f5273afe59d8d66", "type": "electric_scooter", "lat": 38.865234, "is_reserved": 0, "lon": -76.9902955, "fusion_lon": 0.0, "is_disabled": 0, "fusion_lat": 0.0, "bike_id": "f60a912fbbe530708f5273afe59d8d66", "rental_uris": {"ios": "https://dc.lft.to/lastmile_qr_scan", "android": "https://dc.lft.to/lastmile_qr_scan"}}, {"name": "69b4057b23fa84df3d7431b4292aec82", "type": "electric_scooter", "lat": 38.908406, "is_reserved": 0, "lon": -77.02694633333333, "fusion_lon": 0.0, "is_disabled": 0, "fusion_lat": 0.0, "bike_id": "69b4057b23fa84df3d7431b4292aec82", "rental_uris": {"ios": "https://dc.lft.to/lastmile_qr_scan", "android": "https://dc.lft.to/lastmile_qr_scan"}}, {"name": "1386e8614a610ee51e8a368be3d52490", "type": "electric_scooter", "lat": 38.9067435, "is_reserved": 0, "lon": -77.0381505, "fusion_lon": 0.0, "is_disabled": 0, "fusion_lat": 0.0, "bike_id": "1386e8614a610ee51e8a368be3d52490", "rental_uris": {"ios": "https://dc.lft.to/lastmile_qr_scan", "android": "https://dc.lft.to/lastmile_qr_scan"}}, {"name": "922a653fc986da3b5e8db2c00fb5354a", "type": "electric_scooter", "lat": 38.89741216666667, "is_reserved": 0, "lon": -76.93848133333333, "fusion_lon": 0.0, "is_disabled": 0, "fusion_lat": 0.0, "bike_id": "922a653fc986da3b5e8db2c00fb5354a", "rental_uris": {"ios": "https://dc.lft.to/lastmile_qr_scan", "android": "https://dc.lft.to/lastmile_qr_scan"}}, {"name": "a489c1622c942191d03f5e34600af144", "type": "electric_scooter", "lat": 38.8869045, "is_reserved": 0, "lon": -76.95761333333333, "fusion_lon": 0.0, "is_disabled": 0, "fusion_lat": 0.0, "bike_id": "a489c1622c942191d03f5e34600af144", "rental_uris": {"ios": "https://dc.lft.to/lastmile_qr_scan", "android": "https://dc.lft.to/lastmile_qr_scan"}}, {"name": "45c2fcdae4d2ffa9d4e1f701ea2ecfb9", "type": "electric_scooter", "lat": 38.89461333333333, "is_reserved": 0, "lon": -77.01915716666667, "fusion_lon": 0.0, "is_disabled": 0, "fusion_lat": 0.0, "bike_id": "45c2fcdae4d2ffa9d4e1f701ea2ecfb9", "rental_uris": {"ios": "https://dc.lft.to/lastmile_qr_scan", "android": "https://dc.lft.to/lastmile_qr_scan"}}, {"name": "593095865db09d66460bce6c5179ed68", "type": "electric_scooter", "lat": 38.8763015, "is_reserved": 0, "lon": -76.96528083333334, "fusion_lon": 0.0, "is_disabled": 0, "fusion_lat": 0.0, "bike_id": "593095865db09d66460bce6c5179ed68", "rental_uris": {"ios": "https://dc.lft.to/lastmile_qr_scan", "android": "https://dc.lft.to/lastmile_qr_scan"}}, {"name": "ed57297ccba0ade8d603eb6a05079887", "type": "electric_bike", "lat": 38.838294833333336, "is_reserved": 0, "lon": -76.996862, "fusion_lon": 0.0, "is_disabled": 0, "fusion_lat": 0.0, "bike_id": "ed57297ccba0ade8d603eb6a05079887", "rental_uris": {"ios": "https://dc.lft.to/lastmile_qr_scan", "android": "https://dc.lft.to/lastmile_qr_scan"}}, {"name": "d3bb06995ccb22c1a6dbea846380589b", "type": "electric_scooter", "lat": 38.930911, "is_reserved": 0, "lon": -77.02542566666666, "fusion_lon": 0.0, "is_disabled": 0, "fusion_lat": 0.0, "bike_id": "d3bb06995ccb22c1a6dbea846380589b", "rental_uris": {"ios": "https://dc.lft.to/lastmile_qr_scan", "android": "https://dc.lft.to/lastmile_qr_scan"}}, {"name": "616e688e7fe2e1194139ae15925a7976", "type": "electric_scooter", "lat": 38.8923645, "is_reserved": 0, "lon": -77.0153405, "fusion_lon": 0.0, "is_disabled": 0, "fusion_lat": 0.0, "bike_id": "616e688e7fe2e1194139ae15925a7976", "rental_uris": {"ios": "https://dc.lft.to/lastmile_qr_scan", "android": "https://dc.lft.to/lastmile_qr_scan"}}, {"name": "ba4927cc05f256cb440121c9d990cdb9", "type": "electric_scooter", "lat": 38.92347483333333, "is_reserved": 0, "lon": -77.05307766666667, "fusion_lon": 0.0, "is_disabled": 0, "fusion_lat": 0.0, "bike_id": "ba4927cc05f256cb440121c9d990cdb9", "rental_uris": {"ios": "https://dc.lft.to/lastmile_qr_scan", "android": "https://dc.lft.to/lastmile_qr_scan"}}, {"name": "3cc478928220a20cc6adc07d53d398bb", "type": "electric_scooter", "lat": 38.908456, "is_reserved": 0, "lon": -77.0852985, "fusion_lon": 0.0, "is_disabled": 0, "fusion_lat": 0.0, "bike_id": "3cc478928220a20cc6adc07d53d398bb", "rental_uris": {"ios": "https://dc.lft.to/lastmile_qr_scan", "android": "https://dc.lft.to/lastmile_qr_scan"}}, {"name": "2789b34538223204c1eb002fe26dada1", "type": "electric_scooter", "lat": 38.906766, "is_reserved": 0, "lon": -77.02718916666667, "fusion_lon": 0.0, "is_disabled": 0, "fusion_lat": 0.0, "bike_id": "2789b34538223204c1eb002fe26dada1", "rental_uris": {"ios": "https://dc.lft.to/lastmile_qr_scan", "android": "https://dc.lft.to/lastmile_qr_scan"}}, {"name": "f4645137f34bc18902b32ef8debdc466", "type": "electric_scooter", "lat": 38.909866, "is_reserved": 0, "lon": -77.00894466666666, "fusion_lon": 0.0, "is_disabled": 0, "fusion_lat": 0.0, "bike_id": "f4645137f34bc18902b32ef8debdc466", "rental_uris": {"ios": "https://dc.lft.to/lastmile_qr_scan", "android": "https://dc.lft.to/lastmile_qr_scan"}}, {"name": "1d743362ac2e205e0716b6d4a06d1017", "type": "electric_scooter", "lat": 38.8973965, "is_reserved": 0, "lon": -77.02906533333334, "fusion_lon": 0.0, "is_disabled": 0, "fusion_lat": 0.0, "bike_id": "1d743362ac2e205e0716b6d4a06d1017", "rental_uris": {"ios": "https://dc.lft.to/lastmile_qr_scan", "android": "https://dc.lft.to/lastmile_qr_scan"}}, {"name": "4c5d8f37476104f1f0d068d8ee317d15", "type": "electric_scooter", "lat": 38.92883966666667, "is_reserved": 0, "lon": -77.05454383333333, "fusion_lon": 0.0, "is_disabled": 0, "fusion_lat": 0.0, "bike_id": "4c5d8f37476104f1f0d068d8ee317d15", "rental_uris": {"ios": "https://dc.lft.to/lastmile_qr_scan", "android": "https://dc.lft.to/lastmile_qr_scan"}}, {"name": "79858caf6fccd89d986b0df7c6700a17", "type": "electric_scooter", "lat": 38.8996485, "is_reserved": 0, "lon": -76.93767716666666, "fusion_lon": 0.0, "is_disabled": 0, "fusion_lat": 0.0, "bike_id": "79858caf6fccd89d986b0df7c6700a17", "rental_uris": {"ios": "https://dc.lft.to/lastmile_qr_scan", "android": "https://dc.lft.to/lastmile_qr_scan"}}, {"name": "3bc8edefcb785b2d7a82681a3e9d3bad", "type": "electric_scooter", "lat": 38.918788166666666, "is_reserved": 0, "lon": -77.041919, "fusion_lon": 0.0, "is_disabled": 0, "fusion_lat": 0.0, "bike_id": "3bc8edefcb785b2d7a82681a3e9d3bad", "rental_uris": {"ios": "https://dc.lft.to/lastmile_qr_scan", "android": "https://dc.lft.to/lastmile_qr_scan"}}, {"name": "87b4760f910332f5f2d451e0fef7175a", "type": "electric_scooter", "lat": 38.9187945, "is_reserved": 0, "lon": -77.03505466666667, "fusion_lon": 0.0, "is_disabled": 0, "fusion_lat": 0.0, "bike_id": "87b4760f910332f5f2d451e0fef7175a", "rental_uris": {"ios": "https://dc.lft.to/lastmile_qr_scan", "android": "https://dc.lft.to/lastmile_qr_scan"}}, {"name": "19aac0c1ae6382fbdbb5187ad451c1b1", "type": "electric_scooter", "lat": 38.876846, "is_reserved": 0, "lon": -77.00065483333333, "fusion_lon": 0.0, "is_disabled": 0, "fusion_lat": 0.0, "bike_id": "19aac0c1ae6382fbdbb5187ad451c1b1", "rental_uris": {"ios": "https://dc.lft.to/lastmile_qr_scan", "android": "https://dc.lft.to/lastmile_qr_scan"}}, {"name": "0cdb12a1808c20f28d2db708f00eabfb", "type": "electric_scooter", "lat": 38.90566716666667, "is_reserved": 0, "lon": -76.98149916666667, "fusion_lon": 0.0, "is_disabled": 0, "fusion_lat": 0.0, "bike_id": "0cdb12a1808c20f28d2db708f00eabfb", "rental_uris": {"ios": "https://dc.lft.to/lastmile_qr_scan", "android": "https://dc.lft.to/lastmile_qr_scan"}}, {"name": "019c2d0ff78fe39c542820202154517e", "type": "electric_scooter", "lat": 38.914377, "is_reserved": 0, "lon": -77.00347, "fusion_lon": 0.0, "is_disabled": 0, "fusion_lat": 0.0, "bike_id": "019c2d0ff78fe39c542820202154517e", "rental_uris": {"ios": "https://dc.lft.to/lastmile_qr_scan", "android": "https://dc.lft.to/lastmile_qr_scan"}}, {"name": "d9082b9d1bc4dedcdf1e3a8079578c1d", "type": "electric_scooter", "lat": 38.9003235, "is_reserved": 0, "lon": -76.9985935, "fusion_lon": 0.0, "is_disabled": 0, "fusion_lat": 0.0, "bike_id": "d9082b9d1bc4dedcdf1e3a8079578c1d", "rental_uris": {"ios": "https://dc.lft.to/lastmile_qr_scan", "android": "https://dc.lft.to/lastmile_qr_scan"}}, {"name": "a3d74049415de7af6d27096776cbbef0", "type": "electric_scooter", "lat": 38.9428065, "is_reserved": 0, "lon": -77.025044, "fusion_lon": 0.0, "is_disabled": 0, "fusion_lat": 0.0, "bike_id": "a3d74049415de7af6d27096776cbbef0", "rental_uris": {"ios": "https://dc.lft.to/lastmile_qr_scan", "android": "https://dc.lft.to/lastmile_qr_scan"}}, {"name": "ba8627e358df471b99f711581f466643", "type": "electric_scooter", "lat": 38.8972935, "is_reserved": 0, "lon": -77.05568616666666, "fusion_lon": 0.0, "is_disabled": 0, "fusion_lat": 0.0, "bike_id": "ba8627e358df471b99f711581f466643", "rental_uris": {"ios": "https://dc.lft.to/lastmile_qr_scan", "android": "https://dc.lft.to/lastmile_qr_scan"}}, {"name": "35878c6ba9942eaae50c9cfead6572da", "type": "electric_scooter", "lat": 38.894824666666665, "is_reserved": 0, "lon": -76.94870166666666, "fusion_lon": 0.0, "is_disabled": 0, "fusion_lat": 0.0, "bike_id": "35878c6ba9942eaae50c9cfead6572da", "rental_uris": {"ios": "https://dc.lft.to/lastmile_qr_scan", "android": "https://dc.lft.to/lastmile_qr_scan"}}, {"name": "4bb0ba1cda45ad8e2ec066c1147e12de", "type": "electric_scooter", "lat": 38.9079035, "is_reserved": 0, "lon": -76.9970025, "fusion_lon": 0.0, "is_disabled": 0, "fusion_lat": 0.0, "bike_id": "4bb0ba1cda45ad8e2ec066c1147e12de", "rental_uris": {"ios": "https://dc.lft.to/lastmile_qr_scan", "android": "https://dc.lft.to/lastmile_qr_scan"}}, {"name": "a72fb0df570f2bff29475ae93f66cdcb", "type": "electric_scooter", "lat": 38.916868666666666, "is_reserved": 0, "lon": -77.012299, "fusion_lon": 0.0, "is_disabled": 0, "fusion_lat": 0.0, "bike_id": "a72fb0df570f2bff29475ae93f66cdcb", "rental_uris": {"ios": "https://dc.lft.to/lastmile_qr_scan", "android": "https://dc.lft.to/lastmile_qr_scan"}}, {"name": "4efd6d81f1e04cf13c74aa82d6d7b828", "type": "electric_scooter", "lat": 38.934251833333335, "is_reserved": 0, "lon": -77.07239, "fusion_lon": 0.0, "is_disabled": 0, "fusion_lat": 0.0, "bike_id": "4efd6d81f1e04cf13c74aa82d6d7b828", "rental_uris": {"ios": "https://dc.lft.to/lastmile_qr_scan", "android": "https://dc.lft.to/lastmile_qr_scan"}}, {"name": "24f32c247463c99f3800769130df0d83", "type": "electric_scooter", "lat": 38.8968055, "is_reserved": 0, "lon": -76.9962455, "fusion_lon": 0.0, "is_disabled": 0, "fusion_lat": 0.0, "bike_id": "24f32c247463c99f3800769130df0d83", "rental_uris": {"ios": "https://dc.lft.to/lastmile_qr_scan", "android": "https://dc.lft.to/lastmile_qr_scan"}}, {"name": "0e60821d24eefa9b442140c18733d26b", "type": "electric_bike", "lat": 38.94831416666667, "is_reserved": 0, "lon": -77.0390275, "fusion_lon": 0.0, "is_disabled": 0, "fusion_lat": 0.0, "bike_id": "0e60821d24eefa9b442140c18733d26b", "rental_uris": {"ios": "https://dc.lft.to/lastmile_qr_scan", "android": "https://dc.lft.to/lastmile_qr_scan"}}, {"name": "0c4a907588da677741802fb0bc67b214", "type": "electric_scooter", "lat": 38.958415333333335, "is_reserved": 0, "lon": -77.029287, "fusion_lon": 0.0, "is_disabled": 0, "fusion_lat": 0.0, "bike_id": "0c4a907588da677741802fb0bc67b214", "rental_uris": {"ios": "https://dc.lft.to/lastmile_qr_scan", "android": "https://dc.lft.to/lastmile_qr_scan"}}, {"name": "a4f545ff3a1cf7666255eca0f47200ba", "type": "electric_scooter", "lat": 38.9390425, "is_reserved": 0, "lon": -77.0772805, "fusion_lon": 0.0, "is_disabled": 0, "fusion_lat": 0.0, "bike_id": "a4f545ff3a1cf7666255eca0f47200ba", "rental_uris": {"ios": "https://dc.lft.to/lastmile_qr_scan", "android": "https://dc.lft.to/lastmile_qr_scan"}}, {"name": "1c22eadd17388db2d797ff1088834738", "type": "electric_scooter", "lat": 38.9349195, "is_reserved": 0, "lon": -77.03283066666667, "fusion_lon": 0.0, "is_disabled": 0, "fusion_lat": 0.0, "bike_id": "1c22eadd17388db2d797ff1088834738", "rental_uris": {"ios": "https://dc.lft.to/lastmile_qr_scan", "android": "https://dc.lft.to/lastmile_qr_scan"}}, {"name": "fc670a4f249041ddc5acb2e0ccabba35", "type": "electric_scooter", "lat": 38.89476716666667, "is_reserved": 0, "lon": -77.03059283333333, "fusion_lon": 0.0, "is_disabled": 0, "fusion_lat": 0.0, "bike_id": "fc670a4f249041ddc5acb2e0ccabba35", "rental_uris": {"ios": "https://dc.lft.to/lastmile_qr_scan", "android": "https://dc.lft.to/lastmile_qr_scan"}}, {"name": "77ba68c054bf2cbd33ae96c2aa252b45", "type": "electric_scooter", "lat": 38.933772, "is_reserved": 0, "lon": -77.03463366666666, "fusion_lon": 0.0, "is_disabled": 0, "fusion_lat": 0.0, "bike_id": "77ba68c054bf2cbd33ae96c2aa252b45", "rental_uris": {"ios": "https://dc.lft.to/lastmile_qr_scan", "android": "https://dc.lft.to/lastmile_qr_scan"}}, {"name": "ead748160694aead3ad7611f6cfde060", "type": "electric_scooter", "lat": 38.8812485, "is_reserved": 0, "lon": -77.0165155, "fusion_lon": 0.0, "is_disabled": 0, "fusion_lat": 0.0, "bike_id": "ead748160694aead3ad7611f6cfde060", "rental_uris": {"ios": "https://dc.lft.to/lastmile_qr_scan", "android": "https://dc.lft.to/lastmile_qr_scan"}}, {"name": "823fdae53eeec58c5ce2da9a18e9d24f", "type": "electric_scooter", "lat": 38.9171715, "is_reserved": 0, "lon": -77.06836816666667, "fusion_lon": 0.0, "is_disabled": 0, "fusion_lat": 0.0, "bike_id": "823fdae53eeec58c5ce2da9a18e9d24f", "rental_uris": {"ios": "https://dc.lft.to/lastmile_qr_scan", "android": "https://dc.lft.to/lastmile_qr_scan"}}, {"name": "cf734abec4ea1bc33b96355be3218a5d", "type": "electric_scooter", "lat": 38.9121685, "is_reserved": 0, "lon": -77.0446765, "fusion_lon": 0.0, "is_disabled": 0, "fusion_lat": 0.0, "bike_id": "cf734abec4ea1bc33b96355be3218a5d", "rental_uris": {"ios": "https://dc.lft.to/lastmile_qr_scan", "android": "https://dc.lft.to/lastmile_qr_scan"}}, {"name": "9282c89fdc6022f65faa655b9e10ab40", "type": "electric_scooter", "lat": 38.927288833333336, "is_reserved": 0, "lon": -77.02978533333334, "fusion_lon": 0.0, "is_disabled": 0, "fusion_lat": 0.0, "bike_id": "9282c89fdc6022f65faa655b9e10ab40", "rental_uris": {"ios": "https://dc.lft.to/lastmile_qr_scan", "android": "https://dc.lft.to/lastmile_qr_scan"}}, {"name": "1aac56041a02c8fa42fd842dcbd5b9a2", "type": "electric_bike", "lat": 38.95478266666667, "is_reserved": 0, "lon": -77.08239383333333, "fusion_lon": 0.0, "is_disabled": 0, "fusion_lat": 0.0, "bike_id": "1aac56041a02c8fa42fd842dcbd5b9a2", "rental_uris": {"ios": "https://dc.lft.to/lastmile_qr_scan", "android": "https://dc.lft.to/lastmile_qr_scan"}}, {"name": "3d2b76e9d0c01ca6ea99d04d47fbb65f", "type": "electric_scooter", "lat": 38.920391333333335, "is_reserved": 0, "lon": -77.04170966666666, "fusion_lon": 0.0, "is_disabled": 0, "fusion_lat": 0.0, "bike_id": "3d2b76e9d0c01ca6ea99d04d47fbb65f", "rental_uris": {"ios": "https://dc.lft.to/lastmile_qr_scan", "android": "https://dc.lft.to/lastmile_qr_scan"}}, {"name": "c935b8a6faa325e75066f2069da869a9", "type": "electric_scooter", "lat": 38.91335566666667, "is_reserved": 0, "lon": -77.0021595, "fusion_lon": 0.0, "is_disabled": 0, "fusion_lat": 0.0, "bike_id": "c935b8a6faa325e75066f2069da869a9", "rental_uris": {"ios": "https://dc.lft.to/lastmile_qr_scan", "android": "https://dc.lft.to/lastmile_qr_scan"}}, {"name": "a50a82283f7807a1b0221d5113eca9f4", "type": "electric_scooter", "lat": 38.928781666666666, "is_reserved": 0, "lon": -77.04128516666667, "fusion_lon": 0.0, "is_disabled": 0, "fusion_lat": 0.0, "bike_id": "a50a82283f7807a1b0221d5113eca9f4", "rental_uris": {"ios": "https://dc.lft.to/lastmile_qr_scan", "android": "https://dc.lft.to/lastmile_qr_scan"}}, {"name": "5c6645aee282bd2e264933825061779a", "type": "electric_scooter", "lat": 38.8635475, "is_reserved": 0, "lon": -76.99068766666667, "fusion_lon": 0.0, "is_disabled": 0, "fusion_lat": 0.0, "bike_id": "5c6645aee282bd2e264933825061779a", "rental_uris": {"ios": "https://dc.lft.to/lastmile_qr_scan", "android": "https://dc.lft.to/lastmile_qr_scan"}}, {"name": "3f83bf897fbb59bac9920e91571b62d1", "type": "electric_scooter", "lat": 38.920614, "is_reserved": 0, "lon": -77.042533, "fusion_lon": 0.0, "is_disabled": 0, "fusion_lat": 0.0, "bike_id": "3f83bf897fbb59bac9920e91571b62d1", "rental_uris": {"ios": "https://dc.lft.to/lastmile_qr_scan", "android": "https://dc.lft.to/lastmile_qr_scan"}}, {"name": "9f2adc42962705de7a4b81d3a6f55142", "type": "electric_scooter", "lat": 38.92595416666666, "is_reserved": 0, "lon": -77.0048585, "fusion_lon": 0.0, "is_disabled": 0, "fusion_lat": 0.0, "bike_id": "9f2adc42962705de7a4b81d3a6f55142", "rental_uris": {"ios": "https://dc.lft.to/lastmile_qr_scan", "android": "https://dc.lft.to/lastmile_qr_scan"}}, {"name": "25b6f2064ddde7390e7afbc0b50f92c3", "type": "electric_scooter", "lat": 38.89471016666667, "is_reserved": 0, "lon": -77.0108515, "fusion_lon": 0.0, "is_disabled": 0, "fusion_lat": 0.0, "bike_id": "25b6f2064ddde7390e7afbc0b50f92c3", "rental_uris": {"ios": "https://dc.lft.to/lastmile_qr_scan", "android": "https://dc.lft.to/lastmile_qr_scan"}}, {"name": "3b2020b5eeac4225f47f71ab14e258a5", "type": "electric_scooter", "lat": 38.9037015, "is_reserved": 0, "lon": -77.0628805, "fusion_lon": 0.0, "is_disabled": 0, "fusion_lat": 0.0, "bike_id": "3b2020b5eeac4225f47f71ab14e258a5", "rental_uris": {"ios": "https://dc.lft.to/lastmile_qr_scan", "android": "https://dc.lft.to/lastmile_qr_scan"}}, {"name": "f2b2fb2706cb9b7742264bb8e7d379ef", "type": "electric_scooter", "lat": 38.898338333333335, "is_reserved": 0, "lon": -76.94633466666667, "fusion_lon": 0.0, "is_disabled": 0, "fusion_lat": 0.0, "bike_id": "f2b2fb2706cb9b7742264bb8e7d379ef", "rental_uris": {"ios": "https://dc.lft.to/lastmile_qr_scan", "android": "https://dc.lft.to/lastmile_qr_scan"}}, {"name": "ef45fbde80398e4dc9a2b4edec1c553d", "type": "electric_scooter", "lat": 38.924202, "is_reserved": 0, "lon": -77.01948333333333, "fusion_lon": 0.0, "is_disabled": 0, "fusion_lat": 0.0, "bike_id": "ef45fbde80398e4dc9a2b4edec1c553d", "rental_uris": {"ios": "https://dc.lft.to/lastmile_qr_scan", "android": "https://dc.lft.to/lastmile_qr_scan"}}, {"name": "1aae80b82a5f5b5ae8d6a8d958fd29a6", "type": "electric_scooter", "lat": 38.917091166666665, "is_reserved": 0, "lon": -77.026803, "fusion_lon": 0.0, "is_disabled": 0, "fusion_lat": 0.0, "bike_id": "1aae80b82a5f5b5ae8d6a8d958fd29a6", "rental_uris": {"ios": "https://dc.lft.to/lastmile_qr_scan", "android": "https://dc.lft.to/lastmile_qr_scan"}}, {"name": "8fc94ad993d90cf3b22eac32ac96768c", "type": "electric_scooter", "lat": 38.927693833333336, "is_reserved": 0, "lon": -77.02648683333334, "fusion_lon": 0.0, "is_disabled": 0, "fusion_lat": 0.0, "bike_id": "8fc94ad993d90cf3b22eac32ac96768c", "rental_uris": {"ios": "https://dc.lft.to/lastmile_qr_scan", "android": "https://dc.lft.to/lastmile_qr_scan"}}, {"name": "7d68958a59ad5a1b7a4ff91f02c070ae", "type": "electric_scooter", "lat": 38.959084833333335, "is_reserved": 0, "lon": -77.08079266666667, "fusion_lon": 0.0, "is_disabled": 0, "fusion_lat": 0.0, "bike_id": "7d68958a59ad5a1b7a4ff91f02c070ae", "rental_uris": {"ios": "https://dc.lft.to/lastmile_qr_scan", "android": "https://dc.lft.to/lastmile_qr_scan"}}, {"name": "360ece8874c9819d6fc41493ce1ab8ed", "type": "electric_scooter", "lat": 38.89231216666667, "is_reserved": 0, "lon": -77.01273433333333, "fusion_lon": 0.0, "is_disabled": 0, "fusion_lat": 0.0, "bike_id": "360ece8874c9819d6fc41493ce1ab8ed", "rental_uris": {"ios": "https://dc.lft.to/lastmile_qr_scan", "android": "https://dc.lft.to/lastmile_qr_scan"}}, {"name": "78b8022414ce487e93a753e7d4a37e13", "type": "electric_scooter", "lat": 38.880248, "is_reserved": 0, "lon": -76.988375, "fusion_lon": 0.0, "is_disabled": 0, "fusion_lat": 0.0, "bike_id": "78b8022414ce487e93a753e7d4a37e13", "rental_uris": {"ios": "https://dc.lft.to/lastmile_qr_scan", "android": "https://dc.lft.to/lastmile_qr_scan"}}, {"name": "3fc92e77cc974935fab7ad7c202abdd0", "type": "electric_scooter", "lat": 38.93398283333333, "is_reserved": 0, "lon": -77.0389105, "fusion_lon": 0.0, "is_disabled": 0, "fusion_lat": 0.0, "bike_id": "3fc92e77cc974935fab7ad7c202abdd0", "rental_uris": {"ios": "https://dc.lft.to/lastmile_qr_scan", "android": "https://dc.lft.to/lastmile_qr_scan"}}, {"name": "7a6b501f5f18a3afc893eb1e704a4792", "type": "electric_scooter", "lat": 38.8772145, "is_reserved": 0, "lon": -77.00558316666667, "fusion_lon": 0.0, "is_disabled": 0, "fusion_lat": 0.0, "bike_id": "7a6b501f5f18a3afc893eb1e704a4792", "rental_uris": {"ios": "https://dc.lft.to/lastmile_qr_scan", "android": "https://dc.lft.to/lastmile_qr_scan"}}, {"name": "77b25b8656052acdbf3350d03eb67d91", "type": "electric_scooter", "lat": 38.90528, "is_reserved": 0, "lon": -77.05333483333334, "fusion_lon": 0.0, "is_disabled": 0, "fusion_lat": 0.0, "bike_id": "77b25b8656052acdbf3350d03eb67d91", "rental_uris": {"ios": "https://dc.lft.to/lastmile_qr_scan", "android": "https://dc.lft.to/lastmile_qr_scan"}}, {"name": "7dd88fef3af77f782837f389e352e85a", "type": "electric_scooter", "lat": 38.87127433333333, "is_reserved": 0, "lon": -77.00601833333333, "fusion_lon": 0.0, "is_disabled": 0, "fusion_lat": 0.0, "bike_id": "7dd88fef3af77f782837f389e352e85a", "rental_uris": {"ios": "https://dc.lft.to/lastmile_qr_scan", "android": "https://dc.lft.to/lastmile_qr_scan"}}, {"name": "5b54c892df14eafdd92fd7354616e63d", "type": "electric_scooter", "lat": 38.91497, "is_reserved": 0, "lon": -77.01853316666667, "fusion_lon": 0.0, "is_disabled": 0, "fusion_lat": 0.0, "bike_id": "5b54c892df14eafdd92fd7354616e63d", "rental_uris": {"ios": "https://dc.lft.to/lastmile_qr_scan", "android": "https://dc.lft.to/lastmile_qr_scan"}}, {"name": "19905f0b97d0ddfc15245aba0713c04c", "type": "electric_scooter", "lat": 38.883199, "is_reserved": 0, "lon": -77.01530316666667, "fusion_lon": 0.0, "is_disabled": 0, "fusion_lat": 0.0, "bike_id": "19905f0b97d0ddfc15245aba0713c04c", "rental_uris": {"ios": "https://dc.lft.to/lastmile_qr_scan", "android": "https://dc.lft.to/lastmile_qr_scan"}}, {"name": "926a0fcf777c8da6a5288baea3ca01a5", "type": "electric_scooter", "lat": 38.86698666666667, "is_reserved": 0, "lon": -76.987176, "fusion_lon": 0.0, "is_disabled": 0, "fusion_lat": 0.0, "bike_id": "926a0fcf777c8da6a5288baea3ca01a5", "rental_uris": {"ios": "https://dc.lft.to/lastmile_qr_scan", "android": "https://dc.lft.to/lastmile_qr_scan"}}, {"name": "ea172d174e5bafab3f7caa55a351e9b3", "type": "electric_scooter", "lat": 38.90004233333333, "is_reserved": 0, "lon": -76.99152916666667, "fusion_lon": 0.0, "is_disabled": 0, "fusion_lat": 0.0, "bike_id": "ea172d174e5bafab3f7caa55a351e9b3", "rental_uris": {"ios": "https://dc.lft.to/lastmile_qr_scan", "android": "https://dc.lft.to/lastmile_qr_scan"}}, {"name": "b968d9f2388b830f655e6cf4913128b1", "type": "electric_scooter", "lat": 38.93378666666667, "is_reserved": 0, "lon": -77.029618, "fusion_lon": 0.0, "is_disabled": 0, "fusion_lat": 0.0, "bike_id": "b968d9f2388b830f655e6cf4913128b1", "rental_uris": {"ios": "https://dc.lft.to/lastmile_qr_scan", "android": "https://dc.lft.to/lastmile_qr_scan"}}, {"name": "a3750606c8db3073dd5c9ad521576fc3", "type": "electric_bike", "lat": 38.999393166666664, "is_reserved": 0, "lon": -77.017668, "fusion_lon": 0.0, "is_disabled": 0, "fusion_lat": 0.0, "bike_id": "a3750606c8db3073dd5c9ad521576fc3", "rental_uris": {"ios": "https://dc.lft.to/lastmile_qr_scan", "android": "https://dc.lft.to/lastmile_qr_scan"}}, {"name": "ba0cafaf5da0e10654cb76cfe1e91138", "type": "electric_scooter", "lat": 38.939871333333336, "is_reserved": 0, "lon": -77.02899283333333, "fusion_lon": 0.0, "is_disabled": 0, "fusion_lat": 0.0, "bike_id": "ba0cafaf5da0e10654cb76cfe1e91138", "rental_uris": {"ios": "https://dc.lft.to/lastmile_qr_scan", "android": "https://dc.lft.to/lastmile_qr_scan"}}, {"name": "3996694670d3bd686805a0fc16a20ac7", "type": "electric_bike", "lat": 38.966238, "is_reserved": 0, "lon": -76.97669116666667, "fusion_lon": 0.0, "is_disabled": 0, "fusion_lat": 0.0, "bike_id": "3996694670d3bd686805a0fc16a20ac7", "rental_uris": {"ios": "https://dc.lft.to/lastmile_qr_scan", "android": "https://dc.lft.to/lastmile_qr_scan"}}, {"name": "eca59041b6c989c0d48a672db5ee5524", "type": "electric_scooter", "lat": 38.92354383333333, "is_reserved": 0, "lon": -77.04144233333334, "fusion_lon": 0.0, "is_disabled": 0, "fusion_lat": 0.0, "bike_id": "eca59041b6c989c0d48a672db5ee5524", "rental_uris": {"ios": "https://dc.lft.to/lastmile_qr_scan", "android": "https://dc.lft.to/lastmile_qr_scan"}}, {"name": "ebe02f3754773adfea398b2b1bc5dc99", "type": "electric_scooter", "lat": 38.92184433333333, "is_reserved": 0, "lon": -77.02662683333334, "fusion_lon": 0.0, "is_disabled": 0, "fusion_lat": 0.0, "bike_id": "ebe02f3754773adfea398b2b1bc5dc99", "rental_uris": {"ios": "https://dc.lft.to/lastmile_qr_scan", "android": "https://dc.lft.to/lastmile_qr_scan"}}, {"name": "79842f494c2e0b41571fbdf26461e7dd", "type": "electric_scooter", "lat": 38.920572166666666, "is_reserved": 0, "lon": -77.03347416666666, "fusion_lon": 0.0, "is_disabled": 0, "fusion_lat": 0.0, "bike_id": "79842f494c2e0b41571fbdf26461e7dd", "rental_uris": {"ios": "https://dc.lft.to/lastmile_qr_scan", "android": "https://dc.lft.to/lastmile_qr_scan"}}, {"name": "d6666f61eedf00c344f1ec528941147c", "type": "electric_bike", "lat": 38.8585075, "is_reserved": 0, "lon": -77.09748683333333, "fusion_lon": 0.0, "is_disabled": 0, "fusion_lat": 0.0, "bike_id": "d6666f61eedf00c344f1ec528941147c", "rental_uris": {"ios": "https://dc.lft.to/lastmile_qr_scan", "android": "https://dc.lft.to/lastmile_qr_scan"}}, {"name": "798d0d6ef738c96e80cefcc13c05dbc8", "type": "electric_scooter", "lat": 38.92044033333333, "is_reserved": 0, "lon": -77.03462383333333, "fusion_lon": 0.0, "is_disabled": 0, "fusion_lat": 0.0, "bike_id": "798d0d6ef738c96e80cefcc13c05dbc8", "rental_uris": {"ios": "https://dc.lft.to/lastmile_qr_scan", "android": "https://dc.lft.to/lastmile_qr_scan"}}, {"name": "7cd0d22480754c808c5d5d6e31feb016", "type": "electric_bike", "lat": 38.908615833333336, "is_reserved": 0, "lon": -77.08075916666667, "fusion_lon": 0.0, "is_disabled": 0, "fusion_lat": 0.0, "bike_id": "7cd0d22480754c808c5d5d6e31feb016", "rental_uris": {"ios": "https://dc.lft.to/lastmile_qr_scan", "android": "https://dc.lft.to/lastmile_qr_scan"}}, {"name": "46aabb1a52220af3265b1e77e54a38cc", "type": "electric_scooter", "lat": 38.919600833333334, "is_reserved": 0, "lon": -77.03376466666667, "fusion_lon": 0.0, "is_disabled": 0, "fusion_lat": 0.0, "bike_id": "46aabb1a52220af3265b1e77e54a38cc", "rental_uris": {"ios": "https://dc.lft.to/lastmile_qr_scan", "android": "https://dc.lft.to/lastmile_qr_scan"}}, {"name": "652c4bf42ab1d1d62670ea461afb7fdd", "type": "electric_scooter", "lat": 38.91268783333334, "is_reserved": 0, "lon": -77.0373835, "fusion_lon": 0.0, "is_disabled": 0, "fusion_lat": 0.0, "bike_id": "652c4bf42ab1d1d62670ea461afb7fdd", "rental_uris": {"ios": "https://dc.lft.to/lastmile_qr_scan", "android": "https://dc.lft.to/lastmile_qr_scan"}}, {"name": "9f75295df0a37c95bda79355e61fcf37", "type": "electric_scooter", "lat": 38.925183833333335, "is_reserved": 0, "lon": -77.03335833333334, "fusion_lon": 0.0, "is_disabled": 0, "fusion_lat": 0.0, "bike_id": "9f75295df0a37c95bda79355e61fcf37", "rental_uris": {"ios": "https://dc.lft.to/lastmile_qr_scan", "android": "https://dc.lft.to/lastmile_qr_scan"}}, {"name": "d725ea5def05a33b0ccd49ee792c1601", "type": "electric_scooter", "lat": 38.92743266666667, "is_reserved": 0, "lon": -77.02268733333334, "fusion_lon": 0.0, "is_disabled": 0, "fusion_lat": 0.0, "bike_id": "d725ea5def05a33b0ccd49ee792c1601", "rental_uris": {"ios": "https://dc.lft.to/lastmile_qr_scan", "android": "https://dc.lft.to/lastmile_qr_scan"}}, {"name": "b66952586a4a0cd82029ade105f27174", "type": "electric_scooter", "lat": 38.89221633333333, "is_reserved": 0, "lon": -77.04334566666667, "fusion_lon": 0.0, "is_disabled": 0, "fusion_lat": 0.0, "bike_id": "b66952586a4a0cd82029ade105f27174", "rental_uris": {"ios": "https://dc.lft.to/lastmile_qr_scan", "android": "https://dc.lft.to/lastmile_qr_scan"}}, {"name": "82e15ae102a38b5f5d7bec6e61114382", "type": "electric_scooter", "lat": 38.906139833333334, "is_reserved": 0, "lon": -77.07490283333334, "fusion_lon": 0.0, "is_disabled": 0, "fusion_lat": 0.0, "bike_id": "82e15ae102a38b5f5d7bec6e61114382", "rental_uris": {"ios": "https://dc.lft.to/lastmile_qr_scan", "android": "https://dc.lft.to/lastmile_qr_scan"}}, {"name": "5b430176139d021542b7fe0d8abe5ec9", "type": "electric_scooter", "lat": 38.8665685, "is_reserved": 0, "lon": -76.9888475, "fusion_lon": 0.0, "is_disabled": 0, "fusion_lat": 0.0, "bike_id": "5b430176139d021542b7fe0d8abe5ec9", "rental_uris": {"ios": "https://dc.lft.to/lastmile_qr_scan", "android": "https://dc.lft.to/lastmile_qr_scan"}},