{"data": {"bikes": [{"rental_uris": {"ios": "https://dc.lft.to/lastmile_qr_scan", "android": "https://dc.lft.to/lastmile_qr_scan"}, "type": "electric_scooter", "name": "cead25b93a566c5c2537c52297c82e98", "is_reserved": 0, "lon": -76.99940316666667, "is_disabled": 0, "fusion_lat": 0.0, "lat": 38.8916665, "bike_id": "cead25b93a566c5c2537c52297c82e98", "fusion_lon": 0.0}, {"rental_uris": {"ios": "https://dc.lft.to/lastmile_qr_scan", "android": "https://dc.lft.to/lastmile_qr_scan"}, "type": "electric_scooter", "name": "97f929061a379cea6020b3f2fb94238d", "is_reserved": 0, "lon": -77.01345166666667, "is_disabled": 0, "fusion_lat": 0.0, "lat": 38.89607133333333, "bike_id": "97f929061a379cea6020b3f2fb94238d", "fusion_lon": 0.0}, {"rental_uris": {"ios": "https://dc.lft.to/lastmile_qr_scan", "android": "https://dc.lft.to/lastmile_qr_scan"}, "type": "electric_bike", "name": "dfd6883fed475ec9b4dfb918fe654837", "is_reserved": 0, "lon": -77.004047, "is_disabled": 0, "fusion_lat": 0.0, "lat": 38.98551466666667, "bike_id": "dfd6883fed475ec9b4dfb918fe654837", "fusion_lon": 0.0}, {"rental_uris": {"ios": "https://dc.lft.to/lastmile_qr_scan", "android": "https://dc.lft.to/lastmile_qr_scan"}, "type": "electric_scooter", "name": "833a821e0955394310c83fae60174ff7", "is_reserved": 0, "lon": -77.044994, "is_disabled": 0, "fusion_lat": 0.0, "lat": 38.9187175, "bike_id": "833a821e0955394310c83fae60174ff7", "fusion_lon": 0.0}, {"rental_uris": {"ios": "https://dc.lft.to/lastmile_qr_scan", "android": "https://dc.lft.to/lastmile_qr_scan"}, "type": "electric_bike", "name": "32cd642ce4bbd18338901161a7814be8", "is_reserved": 0, "lon": -77.0982285, "is_disabled": 0, "fusion_lat": 0.0, "lat": 38.850247833333334, "bike_id": "32cd642ce4bbd18338901161a7814be8", "fusion_lon": 0.0}, {"rental_uris": {"ios": "https://dc.lft.to/lastmile_qr_scan", "android": "https://dc.lft.to/lastmile_qr_scan"}, "type": "electric_scooter", "name": "b7edb7fda5ffa57883006e8281321285", "is_reserved": 0, "lon": -77.04279016666666, "is_disabled": 0, "fusion_lat": 0.0, "lat": 38.90435466666667, "bike_id": "b7edb7fda5ffa57883006e8281321285", "fusion_lon": 0.0}, {"rental_uris": {"ios": "https://dc.lft.to/lastmile_qr_scan", "android": "https://dc.lft.to/lastmile_qr_scan"}, "type": "electric_scooter", "name": "bc1a08dcc865aeead223aff207dcaebd", "is_reserved": 0, "lon": -77.044055, "is_disabled": 0, "fusion_lat": 0.0, "lat": 38.929528, "bike_id": "bc1a08dcc865aeead223aff207dcaebd", "fusion_lon": 0.0}, {"rental_uris": {"ios": "https://dc.lft.to/lastmile_qr_scan", "android": "https://dc.lft.to/lastmile_qr_scan"}, "type": "electric_scooter", "name": "b75ceb8098cb22a6c486e6df56e8a6d6", "is_reserved": 0, "lon": -77.025551, "is_disabled": 0, "fusion_lat": 0.0, "lat": 38.930983166666664, "bike_id": "b75ceb8098cb22a6c486e6df56e8a6d6", "fusion_lon": 0.0}, {"rental_uris": {"ios": "https://dc.lft.to/lastmile_qr_scan", "android": "https://dc.lft.to/lastmile_qr_scan"}, "type": "electric_scooter", "name": "fa2b6d0f08d4d0530a7b2c6392864e96", "is_reserved": 0, "lon": -76.93213116666666, "is_disabled": 0, "fusion_lat": 0.0, "lat": 38.89672933333333, "bike_id": "fa2b6d0f08d4d0530a7b2c6392864e96", "fusion_lon": 0.0}, {"rental_uris": {"ios": "https://dc.lft.to/lastmile_qr_scan", "android": "https://dc.lft.to/lastmile_qr_scan"}, "type": "electric_scooter", "name": "2e35c992c663d332d01045eaa3686afa", "is_reserved": 0, "lon": -77.0257975, "is_disabled": 0, "fusion_lat": 0.0, "lat": 38.887215166666664, "bike_id": "2e35c992c663d332d01045eaa3686afa", "fusion_lon": 0.0}, {"rental_uris": {"ios": "https://dc.lft.to/lastmile_qr_scan", "android": "https://dc.lft.to/lastmile_qr_scan"}, "type": "electric_scooter", "name": "364b7bb9744ec86bb61a265e84974669", "is_reserved": 0, "lon": -77.0473395, "is_disabled": 0, "fusion_lat": 0.0, "lat": 38.895607, "bike_id": "364b7bb9744ec86bb61a265e84974669", "fusion_lon": 0.0}, {"rental_uris": {"ios": "https://dc.lft.to/lastmile_qr_scan", "android": "https://dc.lft.to/lastmile_qr_scan"}, "type": "electric_scooter", "name": "f3cd0a3ef31b75c4d79de1dc769cf3fe", "is_reserved": 0, "lon": -77.035035, "is_disabled": 0, "fusion_lat": 0.0, "lat": 38.915624, "bike_id": "f3cd0a3ef31b75c4d79de1dc769cf3fe", "fusion_lon": 0.0}, {"rental_uris": {"ios": "https://dc.lft.to/lastmile_qr_scan", "android": "https://dc.lft.to/lastmile_qr_scan"}, "type": "electric_scooter", "name": "546d01d243ef25e62b0f00c0ad6aa2d8", "is_reserved": 0, "lon": -77.02287016666666, "is_disabled": 0, "fusion_lat": 0.0, "lat": 38.916841833333336, "bike_id": "546d01d243ef25e62b0f00c0ad6aa2d8", "fusion_lon": 0.0}, {"rental_uris": {"ios": "https://dc.lft.to/lastmile_qr_scan", "android": "https://dc.lft.to/lastmile_qr_scan"}, "type": "electric_scooter", "name": "d77ad3219596c35bd433225086f4ab53", "is_reserved": 0, "lon": -77.02695366666667, "is_disabled": 0, "fusion_lat": 0.0, "lat": 38.908427, "bike_id": "d77ad3219596c35bd433225086f4ab53", "fusion_lon": 0.0}, {"rental_uris": {"ios": "https://dc.lft.to/lastmile_qr_scan", "android": "https://dc.lft.to/lastmile_qr_scan"}, "type": "electric_scooter", "name": "349fe7d6a83470ce91f9daf36fb15749", "is_reserved": 0, "lon": -77.01014133333334, "is_disabled": 0, "fusion_lat": 0.0, "lat": 38.912590333333334, "bike_id": "349fe7d6a83470ce91f9daf36fb15749", "fusion_lon": 0.0}, {"rental_uris": {"ios": "https://dc.lft.to/lastmile_qr_scan", "android": "https://dc.lft.to/lastmile_qr_scan"}, "type": "electric_scooter", "name": "82f7264854250796c58dac8a5478033f", "is_reserved": 0, "lon": -76.93186183333333, "is_disabled": 0, "fusion_lat": 0.0, "lat": 38.898787166666665, "bike_id": "82f7264854250796c58dac8a5478033f", "fusion_lon": 0.0}, {"rental_uris": {"ios": "https://dc.lft.to/lastmile_qr_scan", "android": "https://dc.lft.to/lastmile_qr_scan"}, "type": "electric_scooter", "name": "bc4b257c1d2deefac04172c3e2364140", "is_reserved": 0, "lon": -77.019192, "is_disabled": 0, "fusion_lat": 0.0, "lat": 38.9054785, "bike_id": "bc4b257c1d2deefac04172c3e2364140", "fusion_lon": 0.0}, {"rental_uris": {"ios": "https://dc.lft.to/lastmile_qr_scan", "android": "https://dc.lft.to/lastmile_qr_scan"}, "type": "electric_scooter", "name": "79d3ad75f113e1316839fd155faf8243", "is_reserved": 0, "lon": -77.0377205, "is_disabled": 0, "fusion_lat": 0.0, "lat": 38.923334, "bike_id": "79d3ad75f113e1316839fd155faf8243", "fusion_lon": 0.0}, {"rental_uris": {"ios": "https://dc.lft.to/lastmile_qr_scan", "android": "https://dc.lft.to/lastmile_qr_scan"}, "type": "electric_scooter", "name": "4a40603121bf36c95f2f04cb31a50cd4", "is_reserved": 0, "lon": -77.00923866666666, "is_disabled": 0, "fusion_lat": 0.0, "lat": 38.912447, "bike_id": "4a40603121bf36c95f2f04cb31a50cd4", "fusion_lon": 0.0}, {"rental_uris": {"ios": "https://dc.lft.to/lastmile_qr_scan", "android": "https://dc.lft.to/lastmile_qr_scan"}, "type": "electric_scooter", "name": "e48af83bd9bdf637fa06e387cf7490cb", "is_reserved": 0, "lon": -77.03214316666667, "is_disabled": 0, "fusion_lat": 0.0, "lat": 38.90704916666667, "bike_id": "e48af83bd9bdf637fa06e387cf7490cb", "fusion_lon": 0.0}, {"rental_uris": {"ios": "https://dc.lft.to/lastmile_qr_scan", "android": "https://dc.lft.to/lastmile_qr_scan"}, "type": "electric_scooter", "name": "ad92169d758302d7dbc1aea777f65ff9", "is_reserved": 0, "lon": -77.01235016666666, "is_disabled": 0, "fusion_lat": 0.0, "lat": 38.915866666666666, "bike_id": "ad92169d758302d7dbc1aea777f65ff9", "fusion_lon": 0.0}, {"rental_uris": {"ios": "https://dc.lft.to/lastmile_qr_scan", "android": "https://dc.lft.to/lastmile_qr_scan"}, "type": "electric_scooter", "name": "4a35749d105165da4e48d2dac9761d20", "is_reserved": 0, "lon": -77.03435933333333, "is_disabled": 0, "fusion_lat": 0.0, "lat": 38.91922116666667, "bike_id": "4a35749d105165da4e48d2dac9761d20", "fusion_lon": 0.0}, {"rental_uris": {"ios": "https://dc.lft.to/lastmile_qr_scan", "android": "https://dc.lft.to/lastmile_qr_scan"}, "type": "electric_scooter", "name": "123406a23949a188e78263bbac0d5106", "is_reserved": 0, "lon": -77.063093, "is_disabled": 0, "fusion_lat": 0.0, "lat": 38.943786, "bike_id": "123406a23949a188e78263bbac0d5106", "fusion_lon": 0.0}, {"rental_uris": {"ios": "https://dc.lft.to/lastmile_qr_scan", "android": "https://dc.lft.to/lastmile_qr_scan"}, "type": "electric_scooter", "name": "15b8193ba160af21897d25c58c6d3346", "is_reserved": 0, "lon": -77.06168633333333, "is_disabled": 0, "fusion_lat": 0.0, "lat": 38.902627333333335, "bike_id": "15b8193ba160af21897d25c58c6d3346", "fusion_lon": 0.0}, {"rental_uris": {"ios": "https://dc.lft.to/lastmile_qr_scan", "android": "https://dc.lft.to/lastmile_qr_scan"}, "type": "electric_scooter", "name": "bba87bf72f741e9348ec793cf48aeaa6", "is_reserved": 0, "lon": -77.065268, "is_disabled": 0, "fusion_lat": 0.0, "lat": 38.911151833333335, "bike_id": "bba87bf72f741e9348ec793cf48aeaa6", "fusion_lon": 0.0}, {"rental_uris": {"ios": "https://dc.lft.to/lastmile_qr_scan", "android": "https://dc.lft.to/lastmile_qr_scan"}, "type": "electric_scooter", "name": "af71015027c0d368a1b2d7e97498a7ef", "is_reserved": 0, "lon": -77.04334716666666, "is_disabled": 0, "fusion_lat": 0.0, "lat": 38.90745016666666, "bike_id": "af71015027c0d368a1b2d7e97498a7ef", "fusion_lon": 0.0}, {"rental_uris": {"ios": "https://dc.lft.to/lastmile_qr_scan", "android": "https://dc.lft.to/lastmile_qr_scan"}, "type": "electric_scooter", "name": "d3184d0011eb57f7466468c8de1743c6", "is_reserved": 0, "lon": -77.03424, "is_disabled": 0, "fusion_lat": 0.0, "lat": 38.9274795, "bike_id": "d3184d0011eb57f7466468c8de1743c6", "fusion_lon": 0.0}, {"rental_uris": {"ios": "https://dc.lft.to/lastmile_qr_scan", "android": "https://dc.lft.to/lastmile_qr_scan"}, "type": "electric_scooter", "name": "2ed857b315a6cd069cc0dbe6969d06af", "is_reserved": 0, "lon": -76.99752533333333, "is_disabled": 0, "fusion_lat": 0.0, "lat": 38.885092666666665, "bike_id": "2ed857b315a6cd069cc0dbe6969d06af", "fusion_lon": 0.0}, {"rental_uris": {"ios": "https://dc.lft.to/lastmile_qr_scan", "android": "https://dc.lft.to/lastmile_qr_scan"}, "type": "electric_scooter", "name": "5b147293ecc750d369caa26bac2aa9fb", "is_reserved": 0, "lon": -77.028144, "is_disabled": 0, "fusion_lat": 0.0, "lat": 38.909229333333336, "bike_id": "5b147293ecc750d369caa26bac2aa9fb", "fusion_lon": 0.0}, {"rental_uris": {"ios": "https://dc.lft.to/lastmile_qr_scan", "android": "https://dc.lft.to/lastmile_qr_scan"}, "type": "electric_scooter", "name": "028977e4d29e9a9870e6ca8114e385c7", "is_reserved": 0, "lon": -76.97720316666667, "is_disabled": 0, "fusion_lat": 0.0, "lat": 38.8882135, "bike_id": "028977e4d29e9a9870e6ca8114e385c7", "fusion_lon": 0.0}, {"rental_uris": {"ios": "https://dc.lft.to/lastmile_qr_scan", "android": "https://dc.lft.to/lastmile_qr_scan"}, "type": "electric_scooter", "name": "bd0352b3cc0e417b90df86d060e6de4d", "is_reserved": 0, "lon": -77.03868766666666, "is_disabled": 0, "fusion_lat": 0.0, "lat": 38.915677333333335, "bike_id": "bd0352b3cc0e417b90df86d060e6de4d", "fusion_lon": 0.0}, {"rental_uris": {"ios": "https://dc.lft.to/lastmile_qr_scan", "android": "https://dc.lft.to/lastmile_qr_scan"}, "type": "electric_scooter", "name": "9fea6f3d780286e9bc773aa4682aae21", "is_reserved": 0, "lon": -77.04295633333334, "is_disabled": 0, "fusion_lat": 0.0, "lat": 38.9065, "bike_id": "9fea6f3d780286e9bc773aa4682aae21", "fusion_lon": 0.0}, {"rental_uris": {"ios": "https://dc.lft.to/lastmile_qr_scan", "android": "https://dc.lft.to/lastmile_qr_scan"}, "type": "electric_scooter", "name": "ca04cf5cc8da46344b71b31e1d564b8d", "is_reserved": 0, "lon": -77.0347005, "is_disabled": 0, "fusion_lat": 0.0, "lat": 38.902688833333336, "bike_id": "ca04cf5cc8da46344b71b31e1d564b8d", "fusion_lon": 0.0}, {"rental_uris": {"ios": "https://dc.lft.to/lastmile_qr_scan", "android": "https://dc.lft.to/lastmile_qr_scan"}, "type": "electric_scooter", "name": "ebeb16703494c4ef774006ab7e97e697", "is_reserved": 0, "lon": -77.04101333333334, "is_disabled": 0, "fusion_lat": 0.0, "lat": 38.925325666666666, "bike_id": "ebeb16703494c4ef774006ab7e97e697", "fusion_lon": 0.0}, {"rental_uris": {"ios": "https://dc.lft.to/lastmile_qr_scan", "android": "https://dc.lft.to/lastmile_qr_scan"}, "type": "electric_bike", "name": "c7ecb680c50b58f17daeb1f95d09e01a", "is_reserved": 0, "lon": -76.96155733333333, "is_disabled": 0, "fusion_lat": 0.0, "lat": 38.85621583333333, "bike_id": "c7ecb680c50b58f17daeb1f95d09e01a", "fusion_lon": 0.0}, {"rental_uris": {"ios": "https://dc.lft.to/lastmile_qr_scan", "android": "https://dc.lft.to/lastmile_qr_scan"}, "type": "electric_scooter", "name": "ef365fc4c155a85145058f270d4fc268", "is_reserved": 0, "lon": -77.04339916666666, "is_disabled": 0, "fusion_lat": 0.0, "lat": 38.92232166666667, "bike_id": "ef365fc4c155a85145058f270d4fc268", "fusion_lon": 0.0}, {"rental_uris": {"ios": "https://dc.lft.to/lastmile_qr_scan", "android": "https://dc.lft.to/lastmile_qr_scan"}, "type": "electric_bike", "name": "3d41cd39fc97bcd47c729283c2ba0c59", "is_reserved": 0, "lon": -76.9625705, "is_disabled": 0, "fusion_lat": 0.0, "lat": 38.882464666666664, "bike_id": "3d41cd39fc97bcd47c729283c2ba0c59", "fusion_lon": 0.0}, {"rental_uris": {"ios": "https://dc.lft.to/lastmile_qr_scan", "android": "https://dc.lft.to/lastmile_qr_scan"}, "type": "electric_scooter", "name": "82edeb6347364a2bb422baf995800519", "is_reserved": 0, "lon": -77.02832716666667, "is_disabled": 0, "fusion_lat": 0.0, "lat": 38.887407833333334, "bike_id": "82edeb6347364a2bb422baf995800519", "fusion_lon": 0.0}, {"rental_uris": {"ios": "https://dc.lft.to/lastmile_qr_scan", "android": "https://dc.lft.to/lastmile_qr_scan"}, "type": "electric_scooter", "name": "9ff98a31eab35f710fba8c4eac6a9e40", "is_reserved": 0, "lon": -77.0483805, "is_disabled": 0, "fusion_lat": 0.0, "lat": 38.90968316666667, "bike_id": "9ff98a31eab35f710fba8c4eac6a9e40", "fusion_lon": 0.0}, {"rental_uris": {"ios": "https://dc.lft.to/lastmile_qr_scan", "android": "https://dc.lft.to/lastmile_qr_scan"}, "type": "electric_bike", "name": "b8984471454745872b7f1f539135d6c2", "is_reserved": 0, "lon": -76.97699916666667, "is_disabled": 0, "fusion_lat": 0.0, "lat": 38.822102, "bike_id": "b8984471454745872b7f1f539135d6c2", "fusion_lon": 0.0}, {"rental_uris": {"ios": "https://dc.lft.to/lastmile_qr_scan", "android": "https://dc.lft.to/lastmile_qr_scan"}, "type": "electric_scooter", "name": "62b1d3cd84014277b22a2d53281725d9", "is_reserved": 0, "lon": -76.99728916666666, "is_disabled": 0, "fusion_lat": 0.0, "lat": 38.920529, "bike_id": "62b1d3cd84014277b22a2d53281725d9", "fusion_lon": 0.0}, {"rental_uris": {"ios": "https://dc.lft.to/lastmile_qr_scan", "android": "https://dc.lft.to/lastmile_qr_scan"}, "type": "electric_scooter", "name": "12a5001223e0a793af2f0779796b7843", "is_reserved": 0, "lon": -77.0407065, "is_disabled": 0, "fusion_lat": 0.0, "lat": 38.9159985, "bike_id": "12a5001223e0a793af2f0779796b7843", "fusion_lon": 0.0}, {"rental_uris": {"ios": "https://dc.lft.to/lastmile_qr_scan", "android": "https://dc.lft.to/lastmile_qr_scan"}, "type": "electric_scooter", "name": "db231f71a7616d1d915db288d0aeb862", "is_reserved": 0, "lon": -77.03857266666667, "is_disabled": 0, "fusion_lat": 0.0, "lat": 38.92479133333333, "bike_id": "db231f71a7616d1d915db288d0aeb862", "fusion_lon": 0.0}, {"rental_uris": {"ios": "https://dc.lft.to/lastmile_qr_scan", "android": "https://dc.lft.to/lastmile_qr_scan"}, "type": "electric_scooter", "name": "17d2720e2028f2c3cf5d374837eedcc8", "is_reserved": 0, "lon": -76.965433, "is_disabled": 0, "fusion_lat": 0.0, "lat": 38.878878, "bike_id": "17d2720e2028f2c3cf5d374837eedcc8", "fusion_lon": 0.0}, {"rental_uris": {"ios": "https://dc.lft.to/lastmile_qr_scan", "android": "https://dc.lft.to/lastmile_qr_scan"}, "type": "electric_scooter", "name": "c85ae33592e6e3e3c7ca6260dfb7553e", "is_reserved": 0, "lon": -77.03816233333333, "is_disabled": 0, "fusion_lat": 0.0, "lat": 38.930676166666665, "bike_id": "c85ae33592e6e3e3c7ca6260dfb7553e", "fusion_lon": 0.0}, {"rental_uris": {"ios": "https://dc.lft.to/lastmile_qr_scan", "android": "https://dc.lft.to/lastmile_qr_scan"}, "type": "electric_scooter", "name": "929ef554a3dbf9a1a8dc552e18119479", "is_reserved": 0, "lon": -77.02287633333333, "is_disabled": 0, "fusion_lat": 0.0, "lat": 38.89869483333333, "bike_id": "929ef554a3dbf9a1a8dc552e18119479", "fusion_lon": 0.0}, {"rental_uris": {"ios": "https://dc.lft.to/lastmile_qr_scan", "android": "https://dc.lft.to/lastmile_qr_scan"}, "type": "electric_bike", "name": "e619c71726ecf150b0e98c9b9abbe5e9", "is_reserved": 0, "lon": -77.08367, "is_disabled": 0, "fusion_lat": 0.0, "lat": 38.854192, "bike_id": "e619c71726ecf150b0e98c9b9abbe5e9", "fusion_lon": 0.0}, {"rental_uris": {"ios": "https://dc.lft.to/lastmile_qr_scan", "android": "https://dc.lft.to/lastmile_qr_scan"}, "type": "electric_scooter", "name": "8010685f623413e9ef4c423d7ee37d4a", "is_reserved": 0, "lon": -76.93744283333334, "is_disabled": 0, "fusion_lat": 0.0, "lat": 38.890121666666666, "bike_id": "8010685f623413e9ef4c423d7ee37d4a", "fusion_lon": 0.0}, {"rental_uris": {"ios": "https://dc.lft.to/lastmile_qr_scan", "android": "https://dc.lft.to/lastmile_qr_scan"}, "type": "electric_bike", "name": "b49e5a1526abc94f47df63165e64db61", "is_reserved": 0, "lon": -77.11285166666667, "is_disabled": 0, "fusion_lat": 0.0, "lat": 38.831054, "bike_id": "b49e5a1526abc94f47df63165e64db61", "fusion_lon": 0.0}, {"rental_uris": {"ios": "https://dc.lft.to/lastmile_qr_scan", "android": "https://dc.lft.to/lastmile_qr_scan"}, "type": "electric_bike", "name": "a486a152984f4de7361d34ec82d247ba", "is_reserved": 0, "lon": -76.9936915, "is_disabled": 0, "fusion_lat": 0.0, "lat": 38.92738283333333, "bike_id": "a486a152984f4de7361d34ec82d247ba", "fusion_lon": 0.0}, {"rental_uris": {"ios": "https://dc.lft.to/lastmile_qr_scan", "android": "https://dc.lft.to/lastmile_qr_scan"}, "type": "electric_bike", "name": "e7b9888ead41a3a9f4e6ec181a25d87e", "is_reserved": 0, "lon": -77.02007866666666, "is_disabled": 0, "fusion_lat": 0.0, "lat": 39.02625616666667, "bike_id": "e7b9888ead41a3a9f4e6ec181a25d87e", "fusion_lon": 0.0}, {"rental_uris": {"ios": "https://dc.lft.to/lastmile_qr_scan", "android": "https://dc.lft.to/lastmile_qr_scan"}, "type": "electric_scooter", "name": "6e583510367f5cf0db99e0286b4fe9f2", "is_reserved": 0, "lon": -77.08778883333333, "is_disabled": 0, "fusion_lat": 0.0, "lat": 38.935635166666664, "bike_id": "6e583510367f5cf0db99e0286b4fe9f2", "fusion_lon": 0.0}, {"rental_uris": {"ios": "https://dc.lft.to/lastmile_qr_scan", "android": "https://dc.lft.to/lastmile_qr_scan"}, "type": "electric_scooter", "name": "d7da6f975ff16bacf803600679dfcfe7", "is_reserved": 0, "lon": -77.00217816666667, "is_disabled": 0, "fusion_lat": 0.0, "lat": 38.90044066666667, "bike_id": "d7da6f975ff16bacf803600679dfcfe7", "fusion_lon": 0.0}, {"rental_uris": {"ios": "https://dc.lft.to/lastmile_qr_scan", "android": "https://dc.lft.to/lastmile_qr_scan"}, "type": "electric_scooter", "name": "c9a0063bf9522423a68660df6e2b4ca0", "is_reserved": 0, "lon": -77.04022216666667, "is_disabled": 0, "fusion_lat": 0.0, "lat": 38.92167083333333, "bike_id": "c9a0063bf9522423a68660df6e2b4ca0", "fusion_lon": 0.0}, {"rental_uris": {"ios": "https://dc.lft.to/lastmile_qr_scan", "android": "https://dc.lft.to/lastmile_qr_scan"}, "type": "electric_scooter", "name": "463426c30e16ec447b79774a75952740", "is_reserved": 0, "lon": -77.0307705, "is_disabled": 0, "fusion_lat": 0.0, "lat": 38.9239245, "bike_id": "463426c30e16ec447b79774a75952740", "fusion_lon": 0.0}, {"rental_uris": {"ios": "https://dc.lft.to/lastmile_qr_scan", "android": "https://dc.lft.to/lastmile_qr_scan"}, "type": "electric_scooter", "name": "ef9fc62938f0558b0c4193b7bf3ea2e6", "is_reserved": 0, "lon": -77.02187316666667, "is_disabled": 0, "fusion_lat": 0.0, "lat": 38.9291735, "bike_id": "ef9fc62938f0558b0c4193b7bf3ea2e6", "fusion_lon": 0.0}, {"rental_uris": {"ios": "https://dc.lft.to/lastmile_qr_scan", "android": "https://dc.lft.to/lastmile_qr_scan"}, "type": "electric_scooter", "name": "b9c5c58c14d4607877c7845ffc68ef4b", "is_reserved": 0, "lon": -77.0082205, "is_disabled": 0, "fusion_lat": 0.0, "lat": 38.915670666666664, "bike_id": "b9c5c58c14d4607877c7845ffc68ef4b", "fusion_lon": 0.0}, {"rental_uris": {"ios": "https://dc.lft.to/lastmile_qr_scan", "android": "https://dc.lft.to/lastmile_qr_scan"}, "type": "electric_bike", "name": "18f48fc255158a91032f99837ddb52b7", "is_reserved": 0, "lon": -77.04329066666666, "is_disabled": 0, "fusion_lat": 0.0, "lat": 38.92792816666667, "bike_id": "18f48fc255158a91032f99837ddb52b7", "fusion_lon": 0.0}, {"rental_uris": {"ios": "https://dc.lft.to/lastmile_qr_scan", "android": "https://dc.lft.to/lastmile_qr_scan"}, "type": "electric_bike", "name": "7eff323d26d60481d61093b2b7c10b46", "is_reserved": 0, "lon": -77.01685383333333, "is_disabled": 0, "fusion_lat": 0.0, "lat": 38.975218, "bike_id": "7eff323d26d60481d61093b2b7c10b46", "fusion_lon": 0.0}, {"rental_uris": {"ios": "https://dc.lft.to/lastmile_qr_scan", "android": "https://dc.lft.to/lastmile_qr_scan"}, "type": "electric_scooter", "name": "2081f649c8d51c18f31bef73950c4822", "is_reserved": 0, "lon": -77.0283425, "is_disabled": 0, "fusion_lat": 0.0, "lat": 38.887412833333336, "bike_id": "2081f649c8d51c18f31bef73950c4822", "fusion_lon": 0.0}, {"rental_uris": {"ios": "https://dc.lft.to/lastmile_qr_scan", "android": "https://dc.lft.to/lastmile_qr_scan"}, "type": "electric_scooter", "name": "2af7a79fbd5a2dafde9e1a46d7dbf96d", "is_reserved": 0, "lon": -77.01469533333334, "is_disabled": 0, "fusion_lat": 0.0, "lat": 38.87940583333334, "bike_id": "2af7a79fbd5a2dafde9e1a46d7dbf96d", "fusion_lon": 0.0}, {"rental_uris": {"ios": "https://dc.lft.to/lastmile_qr_scan", "android": "https://dc.lft.to/lastmile_qr_scan"}, "type": "electric_scooter", "name": "2dde7d6bc8a5cd6872eb7714ee8f052a", "is_reserved": 0, "lon": -77.04331483333333, "is_disabled": 0, "fusion_lat": 0.0, "lat": 38.9074725, "bike_id": "2dde7d6bc8a5cd6872eb7714ee8f052a", "fusion_lon": 0.0}, {"rental_uris": {"ios": "https://dc.lft.to/lastmile_qr_scan", "android": "https://dc.lft.to/lastmile_qr_scan"}, "type": "electric_scooter", "name": "539d7d6c39425e2bb68773b5476f205c", "is_reserved": 0, "lon": -77.0391945, "is_disabled": 0, "fusion_lat": 0.0, "lat": 38.92472266666667, "bike_id": "539d7d6c39425e2bb68773b5476f205c", "fusion_lon": 0.0}, {"rental_uris": {"ios": "https://dc.lft.to/lastmile_qr_scan", "android": "https://dc.lft.to/lastmile_qr_scan"}, "type": "electric_scooter", "name": "a3cc8949698422951825814f20ab11bf", "is_reserved": 0, "lon": -77.04493916666667, "is_disabled": 0, "fusion_lat": 0.0, "lat": 38.91448533333333, "bike_id": "a3cc8949698422951825814f20ab11bf", "fusion_lon": 0.0}, {"rental_uris": {"ios": "https://dc.lft.to/lastmile_qr_scan", "android": "https://dc.lft.to/lastmile_qr_scan"}, "type": "electric_scooter", "name": "1f8d0fa00f47c6057fb7c0056d766c5b", "is_reserved": 0, "lon": -77.04669233333334, "is_disabled": 0, "fusion_lat": 0.0, "lat": 38.90040416666667, "bike_id": "1f8d0fa00f47c6057fb7c0056d766c5b", "fusion_lon": 0.0}, {"rental_uris": {"ios": "https://dc.lft.to/lastmile_qr_scan", "android": "https://dc.lft.to/lastmile_qr_scan"}, "type": "electric_scooter", "name": "373fb6c742e546ee01b57e1bc45c2650", "is_reserved": 0, "lon": -77.03135816666666, "is_disabled": 0, "fusion_lat": 0.0, "lat": 38.923785, "bike_id": "373fb6c742e546ee01b57e1bc45c2650", "fusion_lon": 0.0}, {"rental_uris": {"ios": "https://dc.lft.to/lastmile_qr_scan", "android": "https://dc.lft.to/lastmile_qr_scan"}, "type": "electric_scooter", "name": "5ff53ef4ea2cc1328c5d47956bd83bdb", "is_reserved": 0, "lon": -77.032731, "is_disabled": 0, "fusion_lat": 0.0, "lat": 38.932626, "bike_id": "5ff53ef4ea2cc1328c5d47956bd83bdb", "fusion_lon": 0.0}, {"rental_uris": {"ios": "https://dc.lft.to/lastmile_qr_scan", "android": "https://dc.lft.to/lastmile_qr_scan"}, "type": "electric_bike", "name": "5412bc8076e26d20179b3205e1d7a75a", "is_reserved": 0, "lon": -77.05273616666666, "is_disabled": 0, "fusion_lat": 0.0, "lat": 38.94096316666667, "bike_id": "5412bc8076e26d20179b3205e1d7a75a", "fusion_lon": 0.0}, {"rental_uris": {"ios": "https://dc.lft.to/lastmile_qr_scan", "android": "https://dc.lft.to/lastmile_qr_scan"}, "type": "electric_scooter", "name": "9b379e2fc6c8160c40042b57fba17b42", "is_reserved": 0, "lon": -77.005196, "is_disabled": 0, "fusion_lat": 0.0, "lat": 38.8793935, "bike_id": "9b379e2fc6c8160c40042b57fba17b42", "fusion_lon": 0.0}, {"rental_uris": {"ios": "https://dc.lft.to/lastmile_qr_scan", "android": "https://dc.lft.to/lastmile_qr_scan"}, "type": "electric_scooter", "name": "b3020aa57afc063da075f13dbfffdd94", "is_reserved": 0, "lon": -76.99956416666667, "is_disabled": 0, "fusion_lat": 0.0, "lat": 38.908530666666664, "bike_id": "b3020aa57afc063da075f13dbfffdd94", "fusion_lon": 0.0}, {"rental_uris": {"ios": "https://dc.lft.to/lastmile_qr_scan", "android": "https://dc.lft.to/lastmile_qr_scan"}, "type": "electric_bike", "name": "8131c71214dc6910f126241349b037c1", "is_reserved": 0, "lon": -76.973169, "is_disabled": 0, "fusion_lat": 0.0, "lat": 38.91769166666667, "bike_id": "8131c71214dc6910f126241349b037c1", "fusion_lon": 0.0}, {"rental_uris": {"ios": "https://dc.lft.to/lastmile_qr_scan", "android": "https://dc.lft.to/lastmile_qr_scan"}, "type": "electric_scooter", "name": "0a91ffb25e02d6b9613d0c892b7fdcc2", "is_reserved": 0, "lon": -77.03644366666667, "is_disabled": 0, "fusion_lat": 0.0, "lat": 38.91654283333333, "bike_id": "0a91ffb25e02d6b9613d0c892b7fdcc2", "fusion_lon": 0.0}, {"rental_uris": {"ios": "https://dc.lft.to/lastmile_qr_scan", "android": "https://dc.lft.to/lastmile_qr_scan"}, "type": "electric_scooter", "name": "c79d7c1d9e9b0bf0dcfc1be423c3b836", "is_reserved": 0, "lon": -76.99254566666667, "is_disabled": 0, "fusion_lat": 0.0, "lat": 38.9407095, "bike_id": "c79d7c1d9e9b0bf0dcfc1be423c3b836", "fusion_lon": 0.0}, {"rental_uris": {"ios": "https://dc.lft.to/lastmile_qr_scan", "android": "https://dc.lft.to/lastmile_qr_scan"}, "type": "electric_scooter", "name": "fe044720d5eb48807496f540b8e0f644", "is_reserved": 0, "lon": -77.02559616666667, "is_disabled": 0, "fusion_lat": 0.0, "lat": 38.9539715, "bike_id": "fe044720d5eb48807496f540b8e0f644", "fusion_lon": 0.0}, {"rental_uris": {"ios": "https://dc.lft.to/lastmile_qr_scan", "android": "https://dc.lft.to/lastmile_qr_scan"}, "type": "electric_scooter", "name": "4bbb5c5e9c7cb5b1ee28d17699947d48", "is_reserved": 0, "lon": -77.0488025, "is_disabled": 0, "fusion_lat": 0.0, "lat": 38.90732633333333, "bike_id": "4bbb5c5e9c7cb5b1ee28d17699947d48", "fusion_lon": 0.0}, {"rental_uris": {"ios": "https://dc.lft.to/lastmile_qr_scan", "android": "https://dc.lft.to/lastmile_qr_scan"}, "type": "electric_bike", "name": "822dcfc0d93ae22b0638edb9dbdcd590", "is_reserved": 0, "lon": -76.96089633333334, "is_disabled": 0, "fusion_lat": 0.0, "lat": 38.91865083333333, "bike_id": "822dcfc0d93ae22b0638edb9dbdcd590", "fusion_lon": 0.0}, {"rental_uris": {"ios": "https://dc.lft.to/lastmile_qr_scan", "android": "https://dc.lft.to/lastmile_qr_scan"}, "type": "electric_bike", "name": "85a8a28d409c64289bbcbb05be68f003", "is_reserved": 0, "lon": -77.07755666666667, "is_disabled": 0, "fusion_lat": 0.0, "lat": 38.84197783333333, "bike_id": "85a8a28d409c64289bbcbb05be68f003", "fusion_lon": 0.0}, {"rental_uris": {"ios": "https://dc.lft.to/lastmile_qr_scan", "android": "https://dc.lft.to/lastmile_qr_scan"}, "type": "electric_scooter", "name": "011f5529acdf9fd34d3adbba42a2d418", "is_reserved": 0, "lon": -77.00096433333333, "is_disabled": 0, "fusion_lat": 0.0, "lat": 38.91964433333333, "bike_id": "011f5529acdf9fd34d3adbba42a2d418", "fusion_lon": 0.0}, {"rental_uris": {"ios": "https://dc.lft.to/lastmile_qr_scan", "android": "https://dc.lft.to/lastmile_qr_scan"}, "type": "electric_scooter", "name": "c252b58d25ab8b77c588e93f4ecbe67d", "is_reserved": 0, "lon": -77.0345935, "is_disabled": 0, "fusion_lat": 0.0, "lat": 38.90802816666667, "bike_id": "c252b58d25ab8b77c588e93f4ecbe67d", "fusion_lon": 0.0}, {"rental_uris": {"ios": "https://dc.lft.to/lastmile_qr_scan", "android": "https://dc.lft.to/lastmile_qr_scan"}, "type": "electric_scooter", "name": "bf5f3e666cf69ab9291d5b6d6bfd913c", "is_reserved": 0, "lon": -77.04436816666667, "is_disabled": 0, "fusion_lat": 0.0, "lat": 38.90136, "bike_id": "bf5f3e666cf69ab9291d5b6d6bfd913c", "fusion_lon": 0.0}, {"rental_uris": {"ios": "https://dc.lft.to/lastmile_qr_scan", "android": "https://dc.lft.to/lastmile_qr_scan"}, "type": "electric_scooter", "name": "a78518f1ee8e9812d8b7c9ca95c3b446", "is_reserved": 0, "lon": -76.94899133333334, "is_disabled": 0, "fusion_lat": 0.0, "lat": 38.89529116666667, "bike_id": "a78518f1ee8e9812d8b7c9ca95c3b446", "fusion_lon": 0.0}, {"rental_uris": {"ios": "https://dc.lft.to/lastmile_qr_scan", "android": "https://dc.lft.to/lastmile_qr_scan"}, "type": "electric_scooter", "name": "e0481e43bde972a04f7630c3c5ae85b9", "is_reserved": 0, "lon": -77.03453166666667, "is_disabled": 0, "fusion_lat": 0.0, "lat": 38.908353, "bike_id": "e0481e43bde972a04f7630c3c5ae85b9", "fusion_lon": 0.0}, {"rental_uris": {"ios": "https://dc.lft.to/lastmile_qr_scan", "android": "https://dc.lft.to/lastmile_qr_scan"}, "type": "electric_scooter", "name": "8c08c9db1d2e36895bb5efc98eb52a5a", "is_reserved": 0, "lon": -77.04770116666667, "is_disabled": 0, "fusion_lat": 0.0, "lat": 38.9125245, "bike_id": "8c08c9db1d2e36895bb5efc98eb52a5a", "fusion_lon": 0.0}, {"rental_uris": {"ios": "https://dc.lft.to/lastmile_qr_scan", "android": "https://dc.lft.to/lastmile_qr_scan"}, "type": "electric_scooter", "name": "d11878ad1b9efdeaaf390f48b1221d4d", "is_reserved": 0, "lon": -77.05382083333333, "is_disabled": 0, "fusion_lat": 0.0, "lat": 38.898447, "bike_id": "d11878ad1b9efdeaaf390f48b1221d4d", "fusion_lon": 0.0}, {"rental_uris": {"ios": "https://dc.lft.to/lastmile_qr_scan", "android": "https://dc.lft.to/lastmile_qr_scan"}, "type": "electric_bike", "name": "8f88a9eb8352782df35a29277b498789", "is_reserved": 0, "lon": -76.99070533333334, "is_disabled": 0, "fusion_lat": 0.0, "lat": 38.93060933333334, "bike_id": "8f88a9eb8352782df35a29277b498789", "fusion_lon": 0.0}, {"rental_uris": {"ios": "https://dc.lft.to/lastmile_qr_scan", "android": "https://dc.lft.to/lastmile_qr_scan"}, "type": "electric_scooter", "name": "cc0e0466eea4b441cb99f5a6585a3a10", "is_reserved": 0, "lon": -77.02801716666667, "is_disabled": 0, "fusion_lat": 0.0, "lat": 38.89228683333333, "bike_id": "cc0e0466eea4b441cb99f5a6585a3a10", "fusion_lon": 0.0}, {"rental_uris": {"ios": "https://dc.lft.to/lastmile_qr_scan", "android": "https://dc.lft.to/lastmile_qr_scan"}, "type": "electric_scooter", "name": "4502f51bb373e80568233d382f091225", "is_reserved": 0, "lon": -77.03240133333334, "is_disabled": 0, "fusion_lat": 0.0, "lat": 38.910357166666664, "bike_id": "4502f51bb373e80568233d382f091225", "fusion_lon": 0.0}, {"rental_uris": {"ios": "https://dc.lft.to/lastmile_qr_scan", "android": "https://dc.lft.to/lastmile_qr_scan"}, "type": "electric_scooter", "name": "ce9ee4f63ff65ba0f8913fd41c89e4d1", "is_reserved": 0, "lon": -77.00462566666667, "is_disabled": 0, "fusion_lat": 0.0, "lat": 38.92084533333333, "bike_id": "ce9ee4f63ff65ba0f8913fd41c89e4d1", "fusion_lon": 0.0}, {"rental_uris": {"ios": "https://dc.lft.to/lastmile_qr_scan", "android": "https://dc.lft.to/lastmile_qr_scan"}, "type": "electric_scooter", "name": "931a20a4a939332f513be51350e9df35", "is_reserved": 0, "lon": -77.03211383333333, "is_disabled": 0, "fusion_lat": 0.0, "lat": 38.90729566666667, "bike_id": "931a20a4a939332f513be51350e9df35", "fusion_lon": 0.0}, {"rental_uris": {"ios": "https://dc.lft.to/lastmile_qr_scan", "android": "https://dc.lft.to/lastmile_qr_scan"}, "type": "electric_scooter", "name": "3abfa2efc24626fc86260fa39adc3980", "is_reserved": 0, "lon": -77.001182, "is_disabled": 0, "fusion_lat": 0.0, "lat": 38.90849766666667, "bike_id": "3abfa2efc24626fc86260fa39adc3980", "fusion_lon": 0.0}, {"rental_uris": {"ios": "https://dc.lft.to/lastmile_qr_scan", "android": "https://dc.lft.to/lastmile_qr_scan"}, "type": "electric_scooter", "name": "0288cc44f340281b1f7e91fb1e22705f", "is_reserved": 0, "lon": -77.045117, "is_disabled": 0, "fusion_lat": 0.0, "lat": 38.908026, "bike_id": "0288cc44f340281b1f7e91fb1e22705f", "fusion_lon": 0.0}, {"rental_uris": {"ios": "https://dc.lft.to/lastmile_qr_scan", "android": "https://dc.lft.to/lastmile_qr_scan"}, "type": "electric_bike", "name": "167d32f6515fa910e3941e8775250434", "is_reserved": 0, "lon": -77.11354366666667, "is_disabled": 0, "fusion_lat": 0.0, "lat": 38.841970333333336, "bike_id": "167d32f6515fa910e3941e8775250434", "fusion_lon": 0.0}, {"rental_uris": {"ios": "https://dc.lft.to/lastmile_qr_scan", "android": "https://dc.lft.to/lastmile_qr_scan"}, "type": "electric_scooter", "name": "d7f530c948a1ee65f597c3c02cee74d2", "is_reserved": 0, "lon": -77.00502466666667, "is_disabled": 0, "fusion_lat": 0.0, "lat": 38.879375, "bike_id": "d7f530c948a1ee65f597c3c02cee74d2", "fusion_lon": 0.0}, {"rental_uris": {"ios": "https://dc.lft.to/lastmile_qr_scan", "android": "https://dc.lft.to/lastmile_qr_scan"}, "type": "electric_scooter", "name": "c025dcde0ddc88ba5c2c7807a4f366c5", "is_reserved": 0, "lon": -77.03269516666667, "is_disabled": 0, "fusion_lat": 0.0, "lat": 38.93265683333333, "bike_id": "c025dcde0ddc88ba5c2c7807a4f366c5", "fusion_lon": 0.0}, {"rental_uris": {"ios": "https://dc.lft.to/lastmile_qr_scan", "android": "https://dc.lft.to/lastmile_qr_scan"}, "type": "electric_scooter", "name": "31b74d2d4c82017104b17462d41effe9", "is_reserved": 0, "lon": -76.97380433333333, "is_disabled": 0, "fusion_lat": 0.0, "lat": 38.85003966666667, "bike_id": "31b74d2d4c82017104b17462d41effe9", "fusion_lon": 0.0}, {"rental_uris": {"ios": "https://dc.lft.to/lastmile_qr_scan", "android": "https://dc.lft.to/lastmile_qr_scan"}, "type": "electric_scooter", "name": "3ce56d682400166231806811cd6191fd", "is_reserved": 0, "lon": -76.9986265, "is_disabled": 0, "fusion_lat": 0.0, "lat": 38.900317, "bike_id": "3ce56d682400166231806811cd6191fd", "fusion_lon": 0.0}, {"rental_uris": {"ios": "https://dc.lft.to/lastmile_qr_scan", "android": "https://dc.lft.to/lastmile_qr_scan"}, "type": "electric_scooter", "name": "1dea8b8cc1d4201b7cabd0915fa6651d", "is_reserved": 0, "lon": -77.01026083333333, "is_disabled": 0, "fusion_lat": 0.0, "lat": 38.906557666666664, "bike_id": "1dea8b8cc1d4201b7cabd0915fa6651d", "fusion_lon": 0.0}, {"rental_uris": {"ios": "https://dc.lft.to/lastmile_qr_scan", "android": "https://dc.lft.to/lastmile_qr_scan"}, "type": "electric_scooter", "name": "8caa3678ccc095406c0329437e250970", "is_reserved": 0, "lon": -77.07449766666667, "is_disabled": 0, "fusion_lat": 0.0, "lat": 38.937871666666666, "bike_id": "8caa3678ccc095406c0329437e250970", "fusion_lon": 0.0}, {"rental_uris": {"ios": "https://dc.lft.to/lastmile_qr_scan", "android": "https://dc.lft.to/lastmile_qr_scan"}, "type": "electric_scooter", "name": "c2bce63f434c9c9f726537a98ad1e17a", "is_reserved": 0, "lon": -77.00214583333333, "is_disabled": 0, "fusion_lat": 0.0, "lat": 38.91462516666667, "bike_id": "c2bce63f434c9c9f726537a98ad1e17a", "fusion_lon": 0.0}, {"rental_uris": {"ios": "https://dc.lft.to/lastmile_qr_scan", "android": "https://dc.lft.to/lastmile_qr_scan"}, "type": "electric_scooter", "name": "5a25a847e2d6a302b4fcf15dcc6bdc9c", "is_reserved": 0, "lon": -77.017786, "is_disabled": 0, "fusion_lat": 0.0, "lat": 38.90052716666667, "bike_id": "5a25a847e2d6a302b4fcf15dcc6bdc9c", "fusion_lon": 0.0}, {"rental_uris": {"ios": "https://dc.lft.to/lastmile_qr_scan", "android": "https://dc.lft.to/lastmile_qr_scan"}, "type": "electric_scooter", "name": "b3dd62a154c58043fd3be1e037bca6ed", "is_reserved": 0, "lon": -76.99350983333333, "is_disabled": 0, "fusion_lat": 0.0, "lat": 38.8769135, "bike_id": "b3dd62a154c58043fd3be1e037bca6ed", "fusion_lon": 0.0}, {"rental_uris": {"ios": "https://dc.lft.to/lastmile_qr_scan", "android": "https://dc.lft.to/lastmile_qr_scan"}, "type": "electric_scooter", "name": "a597f10ba3765e4e063d61a99cac112f", "is_reserved": 0, "lon": -76.98112533333334, "is_disabled": 0, "fusion_lat": 0.0, "lat": 38.90253083333333, "bike_id": "a597f10ba3765e4e063d61a99cac112f", "fusion_lon": 0.0}, {"rental_uris": {"ios": "https://dc.lft.to/lastmile_qr_scan", "android": "https://dc.lft.to/lastmile_qr_scan"}, "type": "electric_bike", "name": "cc0a9a3b87e742b8fe99eadc602578d8", "is_reserved": 0, "lon": -77.04313366666666, "is_disabled": 0, "fusion_lat": 0.0, "lat": 39.034267, "bike_id": "cc0a9a3b87e742b8fe99eadc602578d8", "fusion_lon": 0.0}, {"rental_uris": {"ios": "https://dc.lft.to/lastmile_qr_scan", "android": "https://dc.lft.to/lastmile_qr_scan"}, "type": "electric_scooter", "name": "b6d5f62a1fe7f5e318c10db1f3a075e8", "is_reserved": 0, "lon": -77.0486035, "is_disabled": 0, "fusion_lat": 0.0, "lat": 38.91265333333333, "bike_id": "b6d5f62a1fe7f5e318c10db1f3a075e8", "fusion_lon": 0.0}, {"rental_uris": {"ios": "https://dc.lft.to/lastmile_qr_scan", "android": "https://dc.lft.to/lastmile_qr_scan"}, "type": "electric_scooter", "name": "13fe91259c346ac16a00342cbb538c52", "is_reserved": 0, "lon": -77.02536766666667, "is_disabled": 0, "fusion_lat": 0.0, "lat": 38.945401333333336, "bike_id": "13fe91259c346ac16a00342cbb538c52", "fusion_lon": 0.0}, {"rental_uris": {"ios": "https://dc.lft.to/lastmile_qr_scan", "android": "https://dc.lft.to/lastmile_qr_scan"}, "type": "electric_scooter", "name": "b032bf9413fa32840a7cb66d8a0fa7be", "is_reserved": 0, "lon": -77.03849216666667, "is_disabled": 0, "fusion_lat": 0.0, "lat": 38.916653333333336, "bike_id": "b032bf9413fa32840a7cb66d8a0fa7be", "fusion_lon": 0.0}, {"rental_uris": {"ios": "https://dc.lft.to/lastmile_qr_scan", "android": "https://dc.lft.to/lastmile_qr_scan"}, "type": "electric_scooter", "name": "eda7fdf215d03b3ccb895444af116e71", "is_reserved": 0, "lon": -77.0494, "is_disabled": 0, "fusion_lat": 0.0, "lat": 38.90980283333333, "bike_id": "eda7fdf215d03b3ccb895444af116e71", "fusion_lon": 0.0}, {"rental_uris": {"ios": "https://dc.lft.to/lastmile_qr_scan", "android": "https://dc.lft.to/lastmile_qr_scan"}, "type": "electric_scooter", "name": "a0f6f58180e460f182b0688f1199deda", "is_reserved": 0, "lon": -77.03673533333334, "is_disabled": 0, "fusion_lat": 0.0, "lat": 38.932144666666666, "bike_id": "a0f6f58180e460f182b0688f1199deda", "fusion_lon": 0.0}, {"rental_uris": {"ios": "https://dc.lft.to/lastmile_qr_scan", "android": "https://dc.lft.to/lastmile_qr_scan"}, "type": "electric_scooter", "name": "c7cb81c31a8fb96ea66290de829fc23e", "is_reserved": 0, "lon": -76.93371033333334, "is_disabled": 0, "fusion_lat": 0.0, "lat": 38.89872883333334, "bike_id": "c7cb81c31a8fb96ea66290de829fc23e", "fusion_lon": 0.0}, {"rental_uris": {"ios": "https://dc.lft.to/lastmile_qr_scan", "android": "https://dc.lft.to/lastmile_qr_scan"}, "type": "electric_scooter", "name": "925b1752f3b9977c70cf2e74e7b7ea54", "is_reserved": 0, "lon": -77.03180216666667, "is_disabled": 0, "fusion_lat": 0.0, "lat": 38.918277, "bike_id": "925b1752f3b9977c70cf2e74e7b7ea54", "fusion_lon": 0.0}, {"rental_uris": {"ios": "https://dc.lft.to/lastmile_qr_scan", "android": "https://dc.lft.to/lastmile_qr_scan"}, "type": "electric_bike", "name": "0c614ece8addc407195926e546636a7c", "is_reserved": 0, "lon": -76.99444983333333, "is_disabled": 0, "fusion_lat": 0.0, "lat": 38.83104983333333, "bike_id": "0c614ece8addc407195926e546636a7c", "fusion_lon": 0.0}, {"rental_uris": {"ios": "https://dc.lft.to/lastmile_qr_scan", "android": "https://dc.lft.to/lastmile_qr_scan"}, "type": "electric_scooter", "name": "49f210ab515f4a97c381724237058e98", "is_reserved": 0, "lon": -76.98891083333334, "is_disabled": 0, "fusion_lat": 0.0, "lat": 38.90652266666667, "bike_id": "49f210ab515f4a97c381724237058e98", "fusion_lon": 0.0}, {"rental_uris": {"ios": "https://dc.lft.to/lastmile_qr_scan", "android": "https://dc.lft.to/lastmile_qr_scan"}, "type": "electric_scooter", "name": "c5004fb5fa824d8511a9dee08e65a7b1", "is_reserved": 0, "lon": -77.02049483333333, "is_disabled": 0, "fusion_lat": 0.0, "lat": 38.92925866666667, "bike_id": "c5004fb5fa824d8511a9dee08e65a7b1", "fusion_lon": 0.0}, {"rental_uris": {"ios": "https://dc.lft.to/lastmile_qr_scan", "android": "https://dc.lft.to/lastmile_qr_scan"}, "type": "electric_scooter", "name": "565e15ffc007436919067e47fc2d8dd9", "is_reserved": 0, "lon": -77.02155766666667, "is_disabled": 0, "fusion_lat": 0.0, "lat": 38.88754616666667, "bike_id": "565e15ffc007436919067e47fc2d8dd9", "fusion_lon": 0.0}, {"rental_uris": {"ios": "https://dc.lft.to/lastmile_qr_scan", "android": "https://dc.lft.to/lastmile_qr_scan"}, "type": "electric_scooter", "name": "66bf9a2839e4596ce9254d3dc66e82b2", "is_reserved": 0, "lon": -77.03672833333333, "is_disabled": 0, "fusion_lat": 0.0, "lat": 38.921262666666664, "bike_id": "66bf9a2839e4596ce9254d3dc66e82b2", "fusion_lon": 0.0}, {"rental_uris": {"ios": "https://dc.lft.to/lastmile_qr_scan", "android": "https://dc.lft.to/lastmile_qr_scan"}, "type": "electric_scooter", "name": "f763a607eb07aaf0e270da00af0ab60b", "is_reserved": 0, "lon": -77.032503, "is_disabled": 0, "fusion_lat": 0.0, "lat": 38.911192666666665, "bike_id": "f763a607eb07aaf0e270da00af0ab60b", "fusion_lon": 0.0}, {"rental_uris": {"ios": "https://dc.lft.to/lastmile_qr_scan", "android": "https://dc.lft.to/lastmile_qr_scan"}, "type": "electric_scooter", "name": "7a05daf50ebef7a9b88d07eb1224e63b", "is_reserved": 0, "lon": -77.046943, "is_disabled": 0, "fusion_lat": 0.0, "lat": 38.90287433333334, "bike_id": "7a05daf50ebef7a9b88d07eb1224e63b", "fusion_lon": 0.0}, {"rental_uris": {"ios": "https://dc.lft.to/lastmile_qr_scan", "android": "https://dc.lft.to/lastmile_qr_scan"}, "type": "electric_scooter", "name": "74351ed205c179da4511784164b88bea", "is_reserved": 0, "lon": -76.9465395, "is_disabled": 0, "fusion_lat": 0.0, "lat": 38.898254, "bike_id": "74351ed205c179da4511784164b88bea", "fusion_lon": 0.0}, {"rental_uris": {"ios": "https://dc.lft.to/lastmile_qr_scan", "android": "https://dc.lft.to/lastmile_qr_scan"}, "type": "electric_scooter", "name": "934de7b8e3dd79ea5f974cd9f64d748b", "is_reserved": 0, "lon": -77.04177266666666, "is_disabled": 0, "fusion_lat": 0.0, "lat": 38.9183885, "bike_id": "934de7b8e3dd79ea5f974cd9f64d748b", "fusion_lon": 0.0}, {"rental_uris": {"ios": "https://dc.lft.to/lastmile_qr_scan", "android": "https://dc.lft.to/lastmile_qr_scan"}, "type": "electric_scooter", "name": "69bc24c0b71a851e493b1db787de92c1", "is_reserved": 0, "lon": -77.0380715, "is_disabled": 0, "fusion_lat": 0.0, "lat": 38.91047416666667, "bike_id": "69bc24c0b71a851e493b1db787de92c1", "fusion_lon": 0.0}, {"rental_uris": {"ios": "https://dc.lft.to/lastmile_qr_scan", "android": "https://dc.lft.to/lastmile_qr_scan"}, "type": "electric_bike", "name": "3a22009286206b88500f1f46a1e9ebb1", "is_reserved": 0, "lon": -77.12731916666667, "is_disabled": 0, "fusion_lat": 0.0, "lat": 38.895641833333336, "bike_id": "3a22009286206b88500f1f46a1e9ebb1", "fusion_lon": 0.0}, {"rental_uris": {"ios": "https://dc.lft.to/lastmile_qr_scan", "android": "https://dc.lft.to/lastmile_qr_scan"}, "type": "electric_scooter", "name": "24e6c58e43b6e201170aa09f2587ebdb", "is_reserved": 0, "lon": -77.06156283333333, "is_disabled": 0, "fusion_lat": 0.0, "lat": 38.94338116666667, "bike_id": "24e6c58e43b6e201170aa09f2587ebdb", "fusion_lon": 0.0}, {"rental_uris": {"ios": "https://dc.lft.to/lastmile_qr_scan", "android": "https://dc.lft.to/lastmile_qr_scan"}, "type": "electric_bike", "name": "dc2237081932962f61565ace4bbca8b5", "is_reserved": 0, "lon": -77.024535, "is_disabled": 0, "fusion_lat": 0.0, "lat": 38.95739666666667, "bike_id": "dc2237081932962f61565ace4bbca8b5", "fusion_lon": 0.0}, {"rental_uris": {"ios": "https://dc.lft.to/lastmile_qr_scan", "android": "https://dc.lft.to/lastmile_qr_scan"}, "type": "electric_scooter", "name": "56a916649870f5fb6db09c9bd84c487a", "is_reserved": 0, "lon": -77.012902, "is_disabled": 0, "fusion_lat": 0.0, "lat": 38.91042133333333, "bike_id": "56a916649870f5fb6db09c9bd84c487a", "fusion_lon": 0.0}, {"rental_uris": {"ios": "https://dc.lft.to/lastmile_qr_scan", "android": "https://dc.lft.to/lastmile_qr_scan"}, "type": "electric_scooter", "name": "b03a6e162e49dfec1036a64c474f8e56", "is_reserved": 0, "lon": -76.93189683333334, "is_disabled": 0, "fusion_lat": 0.0, "lat": 38.89880316666667, "bike_id": "b03a6e162e49dfec1036a64c474f8e56", "fusion_lon": 0.0}, {"rental_uris": {"ios": "https://dc.lft.to/lastmile_qr_scan", "android": "https://dc.lft.to/lastmile_qr_scan"}, "type": "electric_scooter", "name": "086b87397912dd2f12b303c98637cdc3", "is_reserved": 0, "lon": -77.0331565, "is_disabled": 0, "fusion_lat": 0.0, "lat": 38.900081166666666, "bike_id": "086b87397912dd2f12b303c98637cdc3", "fusion_lon": 0.0}, {"rental_uris": {"ios": "https://dc.lft.to/lastmile_qr_scan", "android": "https://dc.lft.to/lastmile_qr_scan"}, "type": "electric_scooter", "name": "d91b906566ae33d72bcb5fe988fade66", "is_reserved": 0, "lon": -77.03471966666666, "is_disabled": 0, "fusion_lat": 0.0, "lat": 38.9066815, "bike_id": "d91b906566ae33d72bcb5fe988fade66", "fusion_lon": 0.0}, {"rental_uris": {"ios": "https://dc.lft.to/lastmile_qr_scan", "android": "https://dc.lft.to/lastmile_qr_scan"}, "type": "electric_scooter", "name": "0591c8408a37578355089e0449943c41", "is_reserved": 0, "lon": -77.07223766666667, "is_disabled": 0, "fusion_lat": 0.0, "lat": 38.91973816666667, "bike_id": "0591c8408a37578355089e0449943c41", "fusion_lon": 0.0}, {"rental_uris": {"ios": "https://dc.lft.to/lastmile_qr_scan", "android": "https://dc.lft.to/lastmile_qr_scan"}, "type": "electric_scooter", "name": "e387e33e0211144d0f1cdae893ede1aa", "is_reserved": 0, "lon": -77.00626266666667, "is_disabled": 0, "fusion_lat": 0.0, "lat": 38.8717815, "bike_id": "e387e33e0211144d0f1cdae893ede1aa", "fusion_lon": 0.0}, {"rental_uris": {"ios": "https://dc.lft.to/lastmile_qr_scan", "android": "https://dc.lft.to/lastmile_qr_scan"}, "type": "electric_scooter", "name": "467aac006870f264b968ec66ab296e9e", "is_reserved": 0, "lon": -77.06374166666667, "is_disabled": 0, "fusion_lat": 0.0, "lat": 38.93559833333333, "bike_id": "467aac006870f264b968ec66ab296e9e", "fusion_lon": 0.0}, {"rental_uris": {"ios": "https://dc.lft.to/lastmile_qr_scan", "android": "https://dc.lft.to/lastmile_qr_scan"}, "type": "electric_bike", "name": "b628a6d008825e7aeb2c3f1647308e4e", "is_reserved": 0, "lon": -77.12650533333333, "is_disabled": 0, "fusion_lat": 0.0, "lat": 38.81908583333333, "bike_id": "b628a6d008825e7aeb2c3f1647308e4e", "fusion_lon": 0.0}, {"rental_uris": {"ios": "https://dc.lft.to/lastmile_qr_scan", "android": "https://dc.lft.to/lastmile_qr_scan"}, "type": "electric_scooter", "name": "8fb4f40c2e0bb39325cf34c80e91b1da", "is_reserved": 0, "lon": -77.03816533333334, "is_disabled": 0, "fusion_lat": 0.0, "lat": 38.931156666666666, "bike_id": "8fb4f40c2e0bb39325cf34c80e91b1da", "fusion_lon": 0.0}, {"rental_uris": {"ios": "https://dc.lft.to/lastmile_qr_scan", "android": "https://dc.lft.to/lastmile_qr_scan"}, "type": "electric_scooter", "name": "912edbf6bbcaf0215abfa36428598576", "is_reserved": 0, "lon": -77.03470116666666, "is_disabled": 0, "fusion_lat": 0.0, "lat": 38.905753, "bike_id": "912edbf6bbcaf0215abfa36428598576", "fusion_lon": 0.0}, {"rental_uris": {"ios": "https://dc.lft.to/lastmile_qr_scan", "android": "https://dc.lft.to/lastmile_qr_scan"}, "type": "electric_scooter", "name": "98f3dd471618dd927fdd4dab71cd34cc", "is_reserved": 0, "lon": -76.97719866666667, "is_disabled": 0, "fusion_lat": 0.0, "lat": 38.8882135, "bike_id": "98f3dd471618dd927fdd4dab71cd34cc", "fusion_lon": 0.0}, {"rental_uris": {"ios": "https://dc.lft.to/lastmile_qr_scan", "android": "https://dc.lft.to/lastmile_qr_scan"}, "type": "electric_bike", "name": "c5549407995afdf50679164d158686ab", "is_reserved": 0, "lon": -76.9525025, "is_disabled": 0, "fusion_lat": 0.0, "lat": 38.907007666666665, "bike_id": "c5549407995afdf50679164d158686ab", "fusion_lon": 0.0}, {"rental_uris": {"ios": "https://dc.lft.to/lastmile_qr_scan", "android": "https://dc.lft.to/lastmile_qr_scan"}, "type": "electric_bike", "name": "abf3144e1ec5ef7bd2747d7cda0012b2", "is_reserved": 0, "lon": -77.07906483333333, "is_disabled": 0, "fusion_lat": 0.0, "lat": 38.83937266666667, "bike_id": "abf3144e1ec5ef7bd2747d7cda0012b2", "fusion_lon": 0.0}, {"rental_uris": {"ios": "https://dc.lft.to/lastmile_qr_scan", "android": "https://dc.lft.to/lastmile_qr_scan"}, "type": "electric_scooter", "name": "f308358ccadfd7dc5dd0da4502fd8748", "is_reserved": 0, "lon": -77.0335235, "is_disabled": 0, "fusion_lat": 0.0, "lat": 38.901145666666665, "bike_id": "f308358ccadfd7dc5dd0da4502fd8748", "fusion_lon": 0.0}, {"rental_uris": {"ios": "https://dc.lft.to/lastmile_qr_scan", "android": "https://dc.lft.to/lastmile_qr_scan"}, "type": "electric_scooter", "name": "ec688358f99ab7927bba5f3800e111ed", "is_reserved": 0, "lon": -77.02406716666667, "is_disabled": 0, "fusion_lat": 0.0, "lat": 38.904201666666665, "bike_id": "ec688358f99ab7927bba5f3800e111ed", "fusion_lon": 0.0}, {"rental_uris": {"ios": "https://dc.lft.to/lastmile_qr_scan", "android": "https://dc.lft.to/lastmile_qr_scan"}, "type": "electric_scooter", "name": "889cbaf070bc21f8d660bf62bee6b8c5", "is_reserved": 0, "lon": -77.020937, "is_disabled": 0, "fusion_lat": 0.0, "lat": 38.881934333333334, "bike_id": "889cbaf070bc21f8d660bf62bee6b8c5", "fusion_lon": 0.0}, {"rental_uris": {"ios": "https://dc.lft.to/lastmile_qr_scan", "android": "https://dc.lft.to/lastmile_qr_scan"}, "type": "electric_bike", "name": "a1d07e7b3ebaaee28a9a9a64929b6951", "is_reserved": 0, "lon": -76.99696483333334, "is_disabled": 0, "fusion_lat": 0.0, "lat": 38.83871516666667, "bike_id": "a1d07e7b3ebaaee28a9a9a64929b6951", "fusion_lon": 0.0}, {"rental_uris": {"ios": "https://dc.lft.to/lastmile_qr_scan", "android": "https://dc.lft.to/lastmile_qr_scan"}, "type": "electric_bike", "name": "671ba6b9e7db7f0d9395a0fa3e980276", "is_reserved": 0, "lon": -76.9927955, "is_disabled": 0, "fusion_lat": 0.0, "lat": 38.972607333333336, "bike_id": "671ba6b9e7db7f0d9395a0fa3e980276", "fusion_lon": 0.0}, {"rental_uris": {"ios": "https://dc.lft.to/lastmile_qr_scan", "android": "https://dc.lft.to/lastmile_qr_scan"}, "type": "electric_scooter", "name": "783fc660b8ddf08149372f0f3bdc0b9c", "is_reserved": 0, "lon": -77.0074565, "is_disabled": 0, "fusion_lat": 0.0, "lat": 38.878433666666666, "bike_id": "783fc660b8ddf08149372f0f3bdc0b9c", "fusion_lon": 0.0}, {"rental_uris": {"ios": "https://dc.lft.to/lastmile_qr_scan", "android": "https://dc.lft.to/lastmile_qr_scan"}, "type": "electric_scooter", "name": "812b843e1de6ee1816d77ce680a15500", "is_reserved": 0, "lon": -77.0336645, "is_disabled": 0, "fusion_lat": 0.0, "lat": 38.93522133333333, "bike_id": "812b843e1de6ee1816d77ce680a15500", "fusion_lon": 0.0}, {"rental_uris": {"ios": "https://dc.lft.to/lastmile_qr_scan", "android": "https://dc.lft.to/lastmile_qr_scan"}, "type": "electric_scooter", "name": "d9877c9982f8f300e570f2bca34ac598", "is_reserved": 0, "lon": -76.98072916666666, "is_disabled": 0, "fusion_lat": 0.0, "lat": 38.90179083333334, "bike_id": "d9877c9982f8f300e570f2bca34ac598", "fusion_lon": 0.0}, {"rental_uris": {"ios": "https://dc.lft.to/lastmile_qr_scan", "android": "https://dc.lft.to/lastmile_qr_scan"}, "type": "electric_scooter", "name": "ca09e09bd996adceed70f9d8505f00ad", "is_reserved": 0, "lon": -77.05218616666667, "is_disabled": 0, "fusion_lat": 0.0, "lat": 38.92493666666667, "bike_id": "ca09e09bd996adceed70f9d8505f00ad", "fusion_lon": 0.0}, {"rental_uris": {"ios": "https://dc.lft.to/lastmile_qr_scan", "android": "https://dc.lft.to/lastmile_qr_scan"}, "type": "electric_scooter", "name": "71925f303a17268b78fbc5527401a71e", "is_reserved": 0, "lon": -77.04035166666667, "is_disabled": 0, "fusion_lat": 0.0, "lat": 38.911875, "bike_id": "71925f303a17268b78fbc5527401a71e", "fusion_lon": 0.0}, {"rental_uris": {"ios": "https://dc.lft.to/lastmile_qr_scan", "android": "https://dc.lft.to/lastmile_qr_scan"}, "type": "electric_scooter", "name": "673f4d61bb17358ca0e22278d1161c4b", "is_reserved": 0, "lon": -77.0357945, "is_disabled": 0, "fusion_lat": 0.0, "lat": 38.917750833333336, "bike_id": "673f4d61bb17358ca0e22278d1161c4b", "fusion_lon": 0.0}, {"rental_uris": {"ios": "https://dc.lft.to/lastmile_qr_scan", "android": "https://dc.lft.to/lastmile_qr_scan"}, "type": "electric_scooter", "name": "1653e4659421bec1b5f424113f0e0786", "is_reserved": 0, "lon": -77.03709666666667, "is_disabled": 0, "fusion_lat": 0.0, "lat": 38.914846, "bike_id": "1653e4659421bec1b5f424113f0e0786", "fusion_lon": 0.0}, {"rental_uris": {"ios": "https://dc.lft.to/lastmile_qr_scan", "android": "https://dc.lft.to/lastmile_qr_scan"}, "type": "electric_scooter", "name": "735eaafc23302526f2690839a578ee82", "is_reserved": 0, "lon": -77.02408183333333, "is_disabled": 0, "fusion_lat": 0.0, "lat": 38.93820133333333, "bike_id": "735eaafc23302526f2690839a578ee82", "fusion_lon": 0.0}, {"rental_uris": {"ios": "https://dc.lft.to/lastmile_qr_scan", "android": "https://dc.lft.to/lastmile_qr_scan"}, "type": "electric_scooter", "name": "133fb6ce4fb6e809ec8abd120295eb79", "is_reserved": 0, "lon": -76.997614, "is_disabled": 0, "fusion_lat": 0.0, "lat": 38.896747166666664, "bike_id": "133fb6ce4fb6e809ec8abd120295eb79", "fusion_lon": 0.0}, {"rental_uris": {"ios": "https://dc.lft.to/lastmile_qr_scan", "android": "https://dc.lft.to/lastmile_qr_scan"}, "type": "electric_scooter", "name": "e77f8becf0685f1bed1abf50aae6ef67", "is_reserved": 0, "lon": -77.017995, "is_disabled": 0, "fusion_lat": 0.0, "lat": 38.90242816666667, "bike_id": "e77f8becf0685f1bed1abf50aae6ef67", "fusion_lon": 0.0}, {"rental_uris": {"ios": "https://dc.lft.to/lastmile_qr_scan", "android": "https://dc.lft.to/lastmile_qr_scan"}, "type": "electric_scooter", "name": "a73d3be95a62630c9c39a748adf0a6eb", "is_reserved": 0, "lon": -76.99143616666667, "is_disabled": 0, "fusion_lat": 0.0, "lat": 38.873400833333335, "bike_id": "a73d3be95a62630c9c39a748adf0a6eb", "fusion_lon": 0.0}, {"rental_uris": {"ios": "https://dc.lft.to/lastmile_qr_scan", "android": "https://dc.lft.to/lastmile_qr_scan"}, "type": "electric_scooter", "name": "31dc867205b22cc2f7386f680b9dbee5", "is_reserved": 0, "lon": -76.985368, "is_disabled": 0, "fusion_lat": 0.0, "lat": 38.879688, "bike_id": "31dc867205b22cc2f7386f680b9dbee5", "fusion_lon": 0.0}, {"rental_uris": {"ios": "https://dc.lft.to/lastmile_qr_scan", "android": "https://dc.lft.to/lastmile_qr_scan"}, "type": "electric_scooter", "name": "089a1385b587b6a1fe3a728a0827f868", "is_reserved": 0, "lon": -77.05317066666667, "is_disabled": 0, "fusion_lat": 0.0, "lat": 38.94097433333334, "bike_id": "089a1385b587b6a1fe3a728a0827f868", "fusion_lon": 0.0}, {"rental_uris": {"ios": "https://dc.lft.to/lastmile_qr_scan", "android": "https://dc.lft.to/lastmile_qr_scan"}, "type": "electric_scooter", "name": "14839bde3a4c26515f8af63d86f3cc86", "is_reserved": 0, "lon": -77.02183133333334, "is_disabled": 0, "fusion_lat": 0.0, "lat": 38.9283675, "bike_id": "14839bde3a4c26515f8af63d86f3cc86", "fusion_lon": 0.0}, {"rental_uris": {"ios": "https://dc.lft.to/lastmile_qr_scan", "android": "https://dc.lft.to/lastmile_qr_scan"}, "type": "electric_bike", "name": "fba0b63e5753f207d58d52c096f306a7", "is_reserved": 0, "lon": -76.96889366666667, "is_disabled": 0, "fusion_lat": 0.0, "lat": 38.869866333333334, "bike_id": "fba0b63e5753f207d58d52c096f306a7", "fusion_lon": 0.0}, {"rental_uris": {"ios": "https://dc.lft.to/lastmile_qr_scan", "android": "https://dc.lft.to/lastmile_qr_scan"}, "type": "electric_scooter", "name": "9eda36ab36f940568ae6461ae666f089", "is_reserved": 0, "lon": -77.02470916666667, "is_disabled": 0, "fusion_lat": 0.0, "lat": 38.903254833333335, "bike_id": "9eda36ab36f940568ae6461ae666f089", "fusion_lon": 0.0}, {"rental_uris": {"ios": "https://dc.lft.to/lastmile_qr_scan", "android": "https://dc.lft.to/lastmile_qr_scan"}, "type": "electric_scooter", "name": "b5ad4f5f3d105df2edf49eedb80425e9", "is_reserved": 0, "lon": -77.06391616666667, "is_disabled": 0, "fusion_lat": 0.0, "lat": 38.908658333333335, "bike_id": "b5ad4f5f3d105df2edf49eedb80425e9", "fusion_lon": 0.0}, {"rental_uris": {"ios": "https://dc.lft.to/lastmile_qr_scan", "android": "https://dc.lft.to/lastmile_qr_scan"}, "type": "electric_bike", "name": "d109d586050f7b2e0b8af1556af01515", "is_reserved": 0, "lon": -77.128931, "is_disabled": 0, "fusion_lat": 0.0, "lat": 38.905975833333336, "bike_id": "d109d586050f7b2e0b8af1556af01515", "fusion_lon": 0.0}, {"rental_uris": {"ios": "https://dc.lft.to/lastmile_qr_scan", "android": "https://dc.lft.to/lastmile_qr_scan"}, "type": "electric_scooter", "name": "412c140bdf3062bf6592dc4c2b27b108", "is_reserved": 0, "lon": -77.018921, "is_disabled": 0, "fusion_lat": 0.0, "lat": 38.874672333333336, "bike_id": "412c140bdf3062bf6592dc4c2b27b108", "fusion_lon": 0.0}, {"rental_uris": {"ios": "https://dc.lft.to/lastmile_qr_scan", "android": "https://dc.lft.to/lastmile_qr_scan"}, "type": "electric_scooter", "name": "00741f00103be9138d8b205dbd7a18fc", "is_reserved": 0, "lon": -77.020823, "is_disabled": 0, "fusion_lat": 0.0, "lat": 38.9125425, "bike_id": "00741f00103be9138d8b205dbd7a18fc", "fusion_lon": 0.0}, {"rental_uris": {"ios": "https://dc.lft.to/lastmile_qr_scan", "android": "https://dc.lft.to/lastmile_qr_scan"}, "type": "electric_scooter", "name": "7312487e913db2648eac5b5afdd68597", "is_reserved": 0, "lon": -77.0400415, "is_disabled": 0, "fusion_lat": 0.0, "lat": 38.93430016666667, "bike_id": "7312487e913db2648eac5b5afdd68597", "fusion_lon": 0.0}, {"rental_uris": {"ios": "https://dc.lft.to/lastmile_qr_scan", "android": "https://dc.lft.to/lastmile_qr_scan"}, "type": "electric_scooter", "name": "1645d61b32bb002bdc01a7074d2e0b89", "is_reserved": 0, "lon": -76.98562166666666, "is_disabled": 0, "fusion_lat": 0.0, "lat": 38.900339, "bike_id": "1645d61b32bb002bdc01a7074d2e0b89", "fusion_lon": 0.0}, {"rental_uris": {"ios": "https://dc.lft.to/lastmile_qr_scan", "android": "https://dc.lft.to/lastmile_qr_scan"}, "type": "electric_scooter", "name": "d19126a88ce3c60c8859486d39ee027f", "is_reserved": 0, "lon": -77.02393166666667, "is_disabled": 0, "fusion_lat": 0.0, "lat": 38.9032785, "bike_id": "d19126a88ce3c60c8859486d39ee027f", "fusion_lon": 0.0}, {"rental_uris": {"ios": "https://dc.lft.to/lastmile_qr_scan", "android": "https://dc.lft.to/lastmile_qr_scan"}, "type": "electric_scooter", "name": "aad73f1f74dfac1072e931d7aaae7423", "is_reserved": 0, "lon": -77.03563883333334, "is_disabled": 0, "fusion_lat": 0.0, "lat": 38.9273845, "bike_id": "aad73f1f74dfac1072e931d7aaae7423", "fusion_lon": 0.0}, {"rental_uris": {"ios": "https://dc.lft.to/lastmile_qr_scan", "android": "https://dc.lft.to/lastmile_qr_scan"}, "type": "electric_scooter", "name": "2684709981f21da79e047f570d6f827d", "is_reserved": 0, "lon": -77.02820983333334, "is_disabled": 0, "fusion_lat": 0.0, "lat": 38.89926466666667, "bike_id": "2684709981f21da79e047f570d6f827d", "fusion_lon": 0.0}, {"rental_uris": {"ios": "https://dc.lft.to/lastmile_qr_scan", "android": "https://dc.lft.to/lastmile_qr_scan"}, "type": "electric_scooter", "name": "472f83d35688bbd2ef81dd3b60ea1a3c", "is_reserved": 0, "lon": -77.04521366666667, "is_disabled": 0, "fusion_lat": 0.0, "lat": 38.92328933333334, "bike_id": "472f83d35688bbd2ef81dd3b60ea1a3c", "fusion_lon": 0.0}, {"rental_uris": {"ios": "https://dc.lft.to/lastmile_qr_scan", "android": "https://dc.lft.to/lastmile_qr_scan"}, "type": "electric_scooter", "name": "503f5088ff8f312ffc91c05992b8977a", "is_reserved": 0, "lon": -77.03874616666667, "is_disabled": 0, "fusion_lat": 0.0, "lat": 38.921542, "bike_id": "503f5088ff8f312ffc91c05992b8977a", "fusion_lon": 0.0}, {"rental_uris": {"ios": "https://dc.lft.to/lastmile_qr_scan", "android": "https://dc.lft.to/lastmile_qr_scan"}, "type": "electric_scooter", "name": "24a154ffb901feccba33b40fa3f7a8cb", "is_reserved": 0, "lon": -77.03333616666667, "is_disabled": 0, "fusion_lat": 0.0, "lat": 38.9191985, "bike_id": "24a154ffb901feccba33b40fa3f7a8cb", "fusion_lon": 0.0}, {"rental_uris": {"ios": "https://dc.lft.to/lastmile_qr_scan", "android": "https://dc.lft.to/lastmile_qr_scan"}, "type": "electric_scooter", "name": "d6136582181e2cc192ece01b81a6b26c", "is_reserved": 0, "lon": -77.02110216666667, "is_disabled": 0, "fusion_lat": 0.0, "lat": 38.92691216666667, "bike_id": "d6136582181e2cc192ece01b81a6b26c", "fusion_lon": 0.0}, {"rental_uris": {"ios": "https://dc.lft.to/lastmile_qr_scan", "android": "https://dc.lft.to/lastmile_qr_scan"}, "type": "electric_scooter", "name": "11368c09904b69a3f2c2981060b2dec4", "is_reserved": 0, "lon": -77.00589233333334, "is_disabled": 0, "fusion_lat": 0.0, "lat": 38.905578, "bike_id": "11368c09904b69a3f2c2981060b2dec4", "fusion_lon": 0.0}, {"rental_uris": {"ios": "https://dc.lft.to/lastmile_qr_scan", "android": "https://dc.lft.to/lastmile_qr_scan"}, "type": "electric_scooter", "name": "db80b9a79b0fcd278cf88edd4851c353", "is_reserved": 0, "lon": -77.029437, "is_disabled": 0, "fusion_lat": 0.0, "lat": 38.90423366666667, "bike_id": "db80b9a79b0fcd278cf88edd4851c353", "fusion_lon": 0.0}, {"rental_uris": {"ios": "https://dc.lft.to/lastmile_qr_scan", "android": "https://dc.lft.to/lastmile_qr_scan"}, "type": "electric_scooter", "name": "8dd6efc6903ecd4a25a34a3a21c29c34", "is_reserved": 0, "lon": -77.03440816666667, "is_disabled": 0, "fusion_lat": 0.0, "lat": 38.918001333333336, "bike_id": "8dd6efc6903ecd4a25a34a3a21c29c34", "fusion_lon": 0.0}, {"rental_uris": {"ios": "https://dc.lft.to/lastmile_qr_scan", "android": "https://dc.lft.to/lastmile_qr_scan"}, "type": "electric_scooter", "name": "da181b231c51aee0cfe63462fd49a5e9", "is_reserved": 0, "lon": -77.062911, "is_disabled": 0, "fusion_lat": 0.0, "lat": 38.91252033333333, "bike_id": "da181b231c51aee0cfe63462fd49a5e9", "fusion_lon": 0.0}, {"rental_uris": {"ios": "https://dc.lft.to/lastmile_qr_scan", "android": "https://dc.lft.to/lastmile_qr_scan"}, "type": "electric_scooter", "name": "0c8913f6110eb176fd721cff5c6d426f", "is_reserved": 0, "lon": -76.985422, "is_disabled": 0, "fusion_lat": 0.0, "lat": 38.91289583333333, "bike_id": "0c8913f6110eb176fd721cff5c6d426f", "fusion_lon": 0.0}, {"rental_uris": {"ios": "https://dc.lft.to/lastmile_qr_scan", "android": "https://dc.lft.to/lastmile_qr_scan"}, "type": "electric_scooter", "name": "e771dea26ce3d924bf2759db71405d82", "is_reserved": 0, "lon": -77.02609, "is_disabled": 0, "fusion_lat": 0.0, "lat": 38.924200166666665, "bike_id": "e771dea26ce3d924bf2759db71405d82", "fusion_lon": 0.0}, {"rental_uris": {"ios": "https://dc.lft.to/lastmile_qr_scan", "android": "https://dc.lft.to/lastmile_qr_scan"}, "type": "electric_scooter", "name": "b5b2fa200b418459014c27f04f0c793f", "is_reserved": 0, "lon": -77.03375516666667, "is_disabled": 0, "fusion_lat": 0.0, "lat": 38.9111375, "bike_id": "b5b2fa200b418459014c27f04f0c793f", "fusion_lon": 0.0}, {"rental_uris": {"ios": "https://dc.lft.to/lastmile_qr_scan", "android": "https://dc.lft.to/lastmile_qr_scan"}, "type": "electric_scooter", "name": "fcb37fdccec706cd20a3cd1c51e04b5f", "is_reserved": 0, "lon": -76.95741383333333, "is_disabled": 0, "fusion_lat": 0.0, "lat": 38.8839125, "bike_id": "fcb37fdccec706cd20a3cd1c51e04b5f", "fusion_lon": 0.0}, {"rental_uris": {"ios": "https://dc.lft.to/lastmile_qr_scan", "android": "https://dc.lft.to/lastmile_qr_scan"}, "type": "electric_scooter", "name": "2a30cd214959e4919ef3e498550f9a09", "is_reserved": 0, "lon": -76.98095166666667, "is_disabled": 0, "fusion_lat": 0.0, "lat": 38.90423966666667, "bike_id": "2a30cd214959e4919ef3e498550f9a09", "fusion_lon": 0.0}, {"rental_uris": {"ios": "https://dc.lft.to/lastmile_qr_scan", "android": "https://dc.lft.to/lastmile_qr_scan"}, "type": "electric_scooter", "name": "6e38ade35a5e9d700a1f5b6b105aeed5", "is_reserved": 0, "lon": -77.04675833333333, "is_disabled": 0, "fusion_lat": 0.0, "lat": 38.89227783333333, "bike_id": "6e38ade35a5e9d700a1f5b6b105aeed5", "fusion_lon": 0.0}, {"rental_uris": {"ios": "https://dc.lft.to/lastmile_qr_scan", "android": "https://dc.lft.to/lastmile_qr_scan"}, "type": "electric_scooter", "name": "110286989fa36f9fa865443ebaac6638", "is_reserved": 0, "lon": -77.02283816666667, "is_disabled": 0, "fusion_lat": 0.0, "lat": 38.926616833333334, "bike_id": "110286989fa36f9fa865443ebaac6638", "fusion_lon": 0.0}, {"rental_uris": {"ios": "https://dc.lft.to/lastmile_qr_scan", "android": "https://dc.lft.to/lastmile_qr_scan"}, "type": "electric_scooter", "name": "0b7cecf84f8ac27496a77fab03a7f5e9", "is_reserved": 0, "lon": -77.02451733333334, "is_disabled": 0, "fusion_lat": 0.0, "lat": 38.917965333333335, "bike_id": "0b7cecf84f8ac27496a77fab03a7f5e9", "fusion_lon": 0.0}, {"rental_uris": {"ios": "https://dc.lft.to/lastmile_qr_scan", "android": "https://dc.lft.to/lastmile_qr_scan"}, "type": "electric_bike", "name": "8b5a1f30cab9c7f2c263b4a83df8540a", "is_reserved": 0, "lon": -77.04354616666667, "is_disabled": 0, "fusion_lat": 0.0, "lat": 38.897300333333334, "bike_id": "8b5a1f30cab9c7f2c263b4a83df8540a", "fusion_lon": 0.0}, {"rental_uris": {"ios": "https://dc.lft.to/lastmile_qr_scan", "android": "https://dc.lft.to/lastmile_qr_scan"}, "type": "electric_scooter", "name": "5bea24b036f74fd005ddfa8dda8c2585", "is_reserved": 0, "lon": -77.03476466666666, "is_disabled": 0, "fusion_lat": 0.0, "lat": 38.9303475, "bike_id": "5bea24b036f74fd005ddfa8dda8c2585", "fusion_lon": 0.0}, {"rental_uris": {"ios": "https://dc.lft.to/lastmile_qr_scan", "android": "https://dc.lft.to/lastmile_qr_scan"}, "type": "electric_scooter", "name": "57843470851f6e93a707427de4bda25d", "is_reserved": 0, "lon": -77.039649, "is_disabled": 0, "fusion_lat": 0.0, "lat": 38.93156466666667, "bike_id": "57843470851f6e93a707427de4bda25d", "fusion_lon": 0.0}, {"rental_uris": {"ios": "https://dc.lft.to/lastmile_qr_scan", "android": "https://dc.lft.to/lastmile_qr_scan"}, "type": "electric_scooter", "name": "d07b73fc27443ce3d5b5ee45a17d0421", "is_reserved": 0, "lon": -77.05410316666666, "is_disabled": 0, "fusion_lat": 0.0, "lat": 38.92828766666667, "bike_id": "d07b73fc27443ce3d5b5ee45a17d0421", "fusion_lon": 0.0}, {"rental_uris": {"ios": "https://dc.lft.to/lastmile_qr_scan", "android": "https://dc.lft.to/lastmile_qr_scan"}, "type": "electric_scooter", "name": "307834745155206d5861d89feafc35e8", "is_reserved": 0, "lon": -77.02193583333333, "is_disabled": 0, "fusion_lat": 0.0, "lat": 38.87904066666667, "bike_id": "307834745155206d5861d89feafc35e8", "fusion_lon": 0.0}, {"rental_uris": {"ios": "https://dc.lft.to/lastmile_qr_scan", "android": "https://dc.lft.to/lastmile_qr_scan"}, "type": "electric_scooter", "name": "a86b845e8c2f796a57444941d00173d0", "is_reserved": 0, "lon": -77.02162, "is_disabled": 0, "fusion_lat": 0.0, "lat": 38.92499983333333, "bike_id": "a86b845e8c2f796a57444941d00173d0", "fusion_lon": 0.0}, {"rental_uris": {"ios": "https://dc.lft.to/lastmile_qr_scan", "android": "https://dc.lft.to/lastmile_qr_scan"}, "type": "electric_scooter", "name": "5703f654e5c0340e1079a3dc6973288e", "is_reserved": 0, "lon": -77.042429, "is_disabled": 0, "fusion_lat": 0.0, "lat": 38.92442116666667, "bike_id": "5703f654e5c0340e1079a3dc6973288e", "fusion_lon": 0.0}, {"rental_uris": {"ios": "https://dc.lft.to/lastmile_qr_scan", "android": "https://dc.lft.to/lastmile_qr_scan"}, "type": "electric_scooter", "name": "6fa682813f8860f920e40cc6a5bd7f58", "is_reserved": 0, "lon": -77.00705083333334, "is_disabled": 0, "fusion_lat": 0.0, "lat": 38.87835783333333, "bike_id": "6fa682813f8860f920e40cc6a5bd7f58", "fusion_lon": 0.0}, {"rental_uris": {"ios": "https://dc.lft.to/lastmile_qr_scan", "android": "https://dc.lft.to/lastmile_qr_scan"}, "type": "electric_scooter", "name": "6d72130bf72074a56b6d7bc169f3291a", "is_reserved": 0, "lon": -77.0272345, "is_disabled": 0, "fusion_lat": 0.0, "lat": 38.92488916666667, "bike_id": "6d72130bf72074a56b6d7bc169f3291a", "fusion_lon": 0.0}, {"rental_uris": {"ios": "https://dc.lft.to/lastmile_qr_scan", "android": "https://dc.lft.to/lastmile_qr_scan"}, "type": "electric_scooter", "name": "9c936f7dc08bb7bc685fe1f09480e1c2", "is_reserved": 0, "lon": -77.04346066666666, "is_disabled": 0, "fusion_lat": 0.0, "lat": 38.908226166666665, "bike_id": "9c936f7dc08bb7bc685fe1f09480e1c2", "fusion_lon": 0.0}, {"rental_uris": {"ios": "https://dc.lft.to/lastmile_qr_scan", "android": "https://dc.lft.to/lastmile_qr_scan"}, "type": "electric_scooter", "name": "4dd6c94539b0a15a0cb0633d7aee14ad", "is_reserved": 0, "lon": -77.04461033333334, "is_disabled": 0, "fusion_lat": 0.0, "lat": 38.90388733333333, "bike_id": "4dd6c94539b0a15a0cb0633d7aee14ad", "fusion_lon": 0.0}, {"rental_uris": {"ios": "https://dc.lft.to/lastmile_qr_scan", "android": "https://dc.lft.to/lastmile_qr_scan"}, "type": "electric_scooter", "name": "1fc8edac0d59e44841dfcda95d8b4a94", "is_reserved": 0, "lon": -77.02715866666666, "is_disabled": 0, "fusion_lat": 0.0, "lat": 38.91018533333333, "bike_id": "1fc8edac0d59e44841dfcda95d8b4a94", "fusion_lon": 0.0}, {"rental_uris": {"ios": "https://dc.lft.to/lastmile_qr_scan", "android": "https://dc.lft.to/lastmile_qr_scan"}, "type": "electric_scooter", "name": "1741a31b2c9d15e9587ef60e5e078f0d", "is_reserved": 0, "lon": -77.081974, "is_disabled": 0, "fusion_lat": 0.0, "lat": 38.933397166666666, "bike_id": "1741a31b2c9d15e9587ef60e5e078f0d", "fusion_lon": 0.0}, {"rental_uris": {"ios": "https://dc.lft.to/lastmile_qr_scan", "android": "https://dc.lft.to/lastmile_qr_scan"}, "type": "electric_scooter", "name": "85b4a01c7cf1fd7cbd0e66126b7b1acf", "is_reserved": 0, "lon": -77.00116366666667, "is_disabled": 0, "fusion_lat": 0.0, "lat": 38.877883833333335, "bike_id": "85b4a01c7cf1fd7cbd0e66126b7b1acf", "fusion_lon": 0.0}, {"rental_uris": {"ios": "https://dc.lft.to/lastmile_qr_scan", "android": "https://dc.lft.to/lastmile_qr_scan"}, "type": "electric_scooter", "name": "76494e0a94d0c741f744a38b6dbac8cd", "is_reserved": 0, "lon": -76.98532866666666, "is_disabled": 0, "fusion_lat": 0.0, "lat": 38.880868666666665, "bike_id": "76494e0a94d0c741f744a38b6dbac8cd", "fusion_lon": 0.0}, {"rental_uris": {"ios": "https://dc.lft.to/lastmile_qr_scan", "android": "https://dc.lft.to/lastmile_qr_scan"}, "type": "electric_scooter", "name": "5fb86fa12e02ef97a7bb5c6860d1e04d", "is_reserved": 0, "lon": -76.98702433333334, "is_disabled": 0, "fusion_lat": 0.0, "lat": 38.859659, "bike_id": "5fb86fa12e02ef97a7bb5c6860d1e04d", "fusion_lon": 0.0}, {"rental_uris": {"ios": "https://dc.lft.to/lastmile_qr_scan", "android": "https://dc.lft.to/lastmile_qr_scan"}, "type": "electric_scooter", "name": "e86f1186665cbddd422e89fa25fb400b", "is_reserved": 0, "lon": -76.9951415, "is_disabled": 0, "fusion_lat": 0.0, "lat": 38.8899615, "bike_id": "e86f1186665cbddd422e89fa25fb400b", "fusion_lon": 0.0}, {"rental_uris": {"ios": "https://dc.lft.to/lastmile_qr_scan", "android": "https://dc.lft.to/lastmile_qr_scan"}, "type": "electric_scooter", "name": "b3b2a99f9fdc839bfa90e19e19999468", "is_reserved": 0, "lon": -77.01429133333333, "is_disabled": 0, "fusion_lat": 0.0, "lat": 38.920361166666666, "bike_id": "b3b2a99f9fdc839bfa90e19e19999468", "fusion_lon": 0.0}, {"rental_uris": {"ios": "https://dc.lft.to/lastmile_qr_scan", "android": "https://dc.lft.to/lastmile_qr_scan"}, "type": "electric_scooter", "name": "33e90d5a874db2d960d232e89845cc24", "is_reserved": 0, "lon": -77.012136, "is_disabled": 0, "fusion_lat": 0.0, "lat": 38.90171616666667, "bike_id": "33e90d5a874db2d960d232e89845cc24", "fusion_lon": 0.0}, {"rental_uris": {"ios": "https://dc.lft.to/lastmile_qr_scan", "android": "https://dc.lft.to/lastmile_qr_scan"}, "type": "electric_scooter", "name": "f720d031403fe31e12477ceaf24ed93f", "is_reserved": 0, "lon": -77.0378665, "is_disabled": 0, "fusion_lat": 0.0, "lat": 38.9232995, "bike_id": "f720d031403fe31e12477ceaf24ed93f", "fusion_lon": 0.0}, {"rental_uris": {"ios": "https://dc.lft.to/lastmile_qr_scan", "android": "https://dc.lft.to/lastmile_qr_scan"}, "type": "electric_scooter", "name": "ec19de2eae24881c5514cfa2b36e4e99", "is_reserved": 0, "lon": -77.01715, "is_disabled": 0, "fusion_lat": 0.0, "lat": 38.914111166666665, "bike_id": "ec19de2eae24881c5514cfa2b36e4e99", "fusion_lon": 0.0}, {"rental_uris": {"ios": "https://dc.lft.to/lastmile_qr_scan", "android": "https://dc.lft.to/lastmile_qr_scan"}, "type": "electric_scooter", "name": "341fe7c555e29ff8edbb034a90768cc0", "is_reserved": 0, "lon": -77.03025083333333, "is_disabled": 0, "fusion_lat": 0.0, "lat": 38.9312585, "bike_id": "341fe7c555e29ff8edbb034a90768cc0", "fusion_lon": 0.0}, {"rental_uris": {"ios": "https://dc.lft.to/lastmile_qr_scan", "android": "https://dc.lft.to/lastmile_qr_scan"}, "type": "electric_scooter", "name": "7957b2da83126eed318850c9e5fbf576", "is_reserved": 0, "lon": -77.02945683333333, "is_disabled": 0, "fusion_lat": 0.0, "lat": 38.9206, "bike_id": "7957b2da83126eed318850c9e5fbf576", "fusion_lon": 0.0}, {"rental_uris": {"ios": "https://dc.lft.to/lastmile_qr_scan", "android": "https://dc.lft.to/lastmile_qr_scan"}, "type": "electric_scooter", "name": "b24ee9a1554be361709f3f066ef85bde", "is_reserved": 0, "lon": -76.993638, "is_disabled": 0, "fusion_lat": 0.0, "lat": 38.90038283333333, "bike_id": "b24ee9a1554be361709f3f066ef85bde", "fusion_lon": 0.0}, {"rental_uris": {"ios": "https://dc.lft.to/lastmile_qr_scan", "android": "https://dc.lft.to/lastmile_qr_scan"}, "type": "electric_scooter", "name": "9aab5b1739a93fdeb2d804a9d5539101", "is_reserved": 0, "lon": -77.0239695, "is_disabled": 0, "fusion_lat": 0.0, "lat": 38.920859666666665, "bike_id": "9aab5b1739a93fdeb2d804a9d5539101", "fusion_lon": 0.0}, {"rental_uris": {"ios": "https://dc.lft.to/lastmile_qr_scan", "android": "https://dc.lft.to/lastmile_qr_scan"}, "type": "electric_scooter", "name": "34238ee1fd53ac06c748e3291c796dcd", "is_reserved": 0, "lon": -77.05697716666667, "is_disabled": 0, "fusion_lat": 0.0, "lat": 38.93723716666667, "bike_id": "34238ee1fd53ac06c748e3291c796dcd", "fusion_lon": 0.0}, {"rental_uris": {"ios": "https://dc.lft.to/lastmile_qr_scan", "android": "https://dc.lft.to/lastmile_qr_scan"}, "type": "electric_scooter", "name": "b557a06c55a775bf63eb736657858eac", "is_reserved": 0, "lon": -77.03045266666666, "is_disabled": 0, "fusion_lat": 0.0, "lat": 38.9903385, "bike_id": "b557a06c55a775bf63eb736657858eac", "fusion_lon": 0.0}, {"rental_uris": {"ios": "https://dc.lft.to/lastmile_qr_scan", "android": "https://dc.lft.to/lastmile_qr_scan"}, "type": "electric_scooter", "name": "2011edb9421e6196f5232b1d496f676f", "is_reserved": 0, "lon": -77.02149, "is_disabled": 0, "fusion_lat": 0.0, "lat": 38.91625066666667, "bike_id": "2011edb9421e6196f5232b1d496f676f", "fusion_lon": 0.0}, {"rental_uris": {"ios": "https://dc.lft.to/lastmile_qr_scan", "android": "https://dc.lft.to/lastmile_qr_scan"}, "type": "electric_scooter", "name": "972ce3805fa42011f73773d74c79186f", "is_reserved": 0, "lon": -77.0195765, "is_disabled": 0, "fusion_lat": 0.0, "lat": 38.9313735, "bike_id": "972ce3805fa42011f73773d74c79186f", "fusion_lon": 0.0}, {"rental_uris": {"ios": "https://dc.lft.to/lastmile_qr_scan", "android": "https://dc.lft.to/lastmile_qr_scan"}, "type": "electric_scooter", "name": "8d8cf86bb68c4637cae0480078421ee8", "is_reserved": 0, "lon": -77.07245066666667, "is_disabled": 0, "fusion_lat": 0.0, "lat": 38.934474333333334, "bike_id": "8d8cf86bb68c4637cae0480078421ee8", "fusion_lon": 0.0}, {"rental_uris": {"ios": "https://dc.lft.to/lastmile_qr_scan", "android": "https://dc.lft.to/lastmile_qr_scan"}, "type": "electric_scooter", "name": "f88e3318fce2fabf165bb5a041afced0", "is_reserved": 0, "lon": -77.02321833333333, "is_disabled": 0, "fusion_lat": 0.0, "lat": 38.938132833333334, "bike_id": "f88e3318fce2fabf165bb5a041afced0", "fusion_lon": 0.0}, {"rental_uris": {"ios": "https://dc.lft.to/lastmile_qr_scan", "android": "https://dc.lft.to/lastmile_qr_scan"}, "type": "electric_scooter", "name": "953dcb6cd30ca4c3951fa646ffc878e3", "is_reserved": 0, "lon": -77.00475216666666, "is_disabled": 0, "fusion_lat": 0.0, "lat": 38.88518533333333, "bike_id": "953dcb6cd30ca4c3951fa646ffc878e3", "fusion_lon": 0.0}, {"rental_uris": {"ios": "https://dc.lft.to/lastmile_qr_scan", "android": "https://dc.lft.to/lastmile_qr_scan"}, "type": "electric_scooter", "name": "47449a6696e99db8c5a47805de1db2d0", "is_reserved": 0, "lon": -77.03854833333334, "is_disabled": 0, "fusion_lat": 0.0, "lat": 38.912879333333336, "bike_id": "47449a6696e99db8c5a47805de1db2d0", "fusion_lon": 0.0}, {"rental_uris": {"ios": "https://dc.lft.to/lastmile_qr_scan", "android": "https://dc.lft.to/lastmile_qr_scan"}, "type": "electric_scooter", "name": "db57b19817f11bc58c46f115bc3e334d", "is_reserved": 0, "lon": -77.03288833333333, "is_disabled": 0, "fusion_lat": 0.0, "lat": 38.904431, "bike_id": "db57b19817f11bc58c46f115bc3e334d", "fusion_lon": 0.0}, {"rental_uris": {"ios": "https://dc.lft.to/lastmile_qr_scan", "android": "https://dc.lft.to/lastmile_qr_scan"}, "type": "electric_scooter", "name": "70b3087b1450b498fb7515cf5f583008", "is_reserved": 0, "lon": -77.03177366666667, "is_disabled": 0, "fusion_lat": 0.0, "lat": 38.913447166666664, "bike_id": "70b3087b1450b498fb7515cf5f583008", "fusion_lon": 0.0}, {"rental_uris": {"ios": "https://dc.lft.to/lastmile_qr_scan", "android": "https://dc.lft.to/lastmile_qr_scan"}, "type": "electric_scooter", "name": "f5928a6071ada05bb53af5c4922c1405", "is_reserved": 0, "lon": -76.9950635, "is_disabled": 0, "fusion_lat": 0.0, "lat": 38.909816666666664, "bike_id": "f5928a6071ada05bb53af5c4922c1405", "fusion_lon": 0.0}, {"rental_uris": {"ios": "https://dc.lft.to/lastmile_qr_scan", "android": "https://dc.lft.to/lastmile_qr_scan"}, "type": "electric_scooter", "name": "d378f078213fe2616e333a31a804b8dc", "is_reserved": 0, "lon": -76.93394566666667, "is_disabled": 0, "fusion_lat": 0.0, "lat": 38.899142499999996, "bike_id": "d378f078213fe2616e333a31a804b8dc", "fusion_lon": 0.0}, {"rental_uris": {"ios": "https://dc.lft.to/lastmile_qr_scan", "android": "https://dc.lft.to/lastmile_qr_scan"}, "type": "electric_scooter", "name": "7c075237b1df73151c2813c3321de089", "is_reserved": 0, "lon": -77.02301316666667, "is_disabled": 0, "fusion_lat": 0.0, "lat": 38.949304166666664, "bike_id": "7c075237b1df73151c2813c3321de089", "fusion_lon": 0.0}, {"rental_uris": {"ios": "https://dc.lft.to/lastmile_qr_scan", "android": "https://dc.lft.to/lastmile_qr_scan"}, "type": "electric_scooter", "name": "8eb81db222f7e732945cebdccc8ef630", "is_reserved": 0, "lon": -76.94064033333333, "is_disabled": 0, "fusion_lat": 0.0, "lat": 38.88592883333333, "bike_id": "8eb81db222f7e732945cebdccc8ef630", "fusion_lon": 0.0}, {"rental_uris": {"ios": "https://dc.lft.to/lastmile_qr_scan", "android": "https://dc.lft.to/lastmile_qr_scan"}, "type": "electric_scooter", "name": "6972614ecfa6d8793685c846bd127ff7", "is_reserved": 0, "lon": -77.02593666666667, "is_disabled": 0, "fusion_lat": 0.0, "lat": 38.95821683333333, "bike_id": "6972614ecfa6d8793685c846bd127ff7", "fusion_lon": 0.0}, {"rental_uris": {"ios": "https://dc.lft.to/lastmile_qr_scan", "android": "https://dc.lft.to/lastmile_qr_scan"}, "type": "electric_scooter", "name": "6a337005d8ee95ee4e3385654ae477a0", "is_reserved": 0, "lon": -77.031836, "is_disabled": 0, "fusion_lat": 0.0, "lat": 38.9135055, "bike_id": "6a337005d8ee95ee4e3385654ae477a0", "fusion_lon": 0.0}, {"rental_uris": {"ios": "https://dc.lft.to/lastmile_qr_scan", "android": "https://dc.lft.to/lastmile_qr_scan"}, "type": "electric_scooter", "name": "567e34b9582b5de6a19d4f338e796029", "is_reserved": 0, "lon": -77.00346816666666, "is_disabled": 0, "fusion_lat": 0.0, "lat": 38.917786666666665, "bike_id": "567e34b9582b5de6a19d4f338e796029", "fusion_lon": 0.0}, {"rental_uris": {"ios": "https://dc.lft.to/lastmile_qr_scan", "android": "https://dc.lft.to/lastmile_qr_scan"}, "type": "electric_bike", "name": "35d8da3769337d4891ed4dd5be7fab78", "is_reserved": 0, "lon": -76.9626525, "is_disabled": 0, "fusion_lat": 0.0, "lat": 38.967909, "bike_id": "35d8da3769337d4891ed4dd5be7fab78", "fusion_lon": 0.0}, {"rental_uris": {"ios": "https://dc.lft.to/lastmile_qr_scan", "android": "https://dc.lft.to/lastmile_qr_scan"}, "type": "electric_scooter", "name": "641f4117c0869f078da27d6becaff070", "is_reserved": 0, "lon": -76.98834083333334, "is_disabled": 0, "fusion_lat": 0.0, "lat": 38.8429645, "bike_id": "641f4117c0869f078da27d6becaff070", "fusion_lon": 0.0}, {"rental_uris": {"ios": "https://dc.lft.to/lastmile_qr_scan", "android": "https://dc.lft.to/lastmile_qr_scan"}, "type": "electric_scooter", "name": "340b9d09b176a5576aea40be073ba949", "is_reserved": 0, "lon": -77.044709, "is_disabled": 0, "fusion_lat": 0.0, "lat": 38.903873833333336, "bike_id": "340b9d09b176a5576aea40be073ba949", "fusion_lon": 0.0}, {"rental_uris": {"ios": "https://dc.lft.to/lastmile_qr_scan", "android": "https://dc.lft.to/lastmile_qr_scan"}, "type": "electric_bike", "name": "e087b99c4264b886a724512ba58a5dba", "is_reserved": 0, "lon": -77.10213916666666, "is_disabled": 0, "fusion_lat": 0.0, "lat": 38.920009, "bike_id": "e087b99c4264b886a724512ba58a5dba", "fusion_lon": 0.0}, {"rental_uris": {"ios": "https://dc.lft.to/lastmile_qr_scan", "android": "https://dc.lft.to/lastmile_qr_scan"}, "type": "electric_bike", "name": "7b5671391bd2525f4edb0c0f748db37e", "is_reserved": 0, "lon": -76.98688366666667, "is_disabled": 0, "fusion_lat": 0.0, "lat": 38.944757833333334, "bike_id": "7b5671391bd2525f4edb0c0f748db37e", "fusion_lon": 0.0}, {"rental_uris": {"ios": "https://dc.lft.to/lastmile_qr_scan", "android": "https://dc.lft.to/lastmile_qr_scan"}, "type": "electric_bike", "name": "12bfbb731d85d37d52f04e4403333ebc", "is_reserved": 0, "lon": -77.0362495, "is_disabled": 0, "fusion_lat": 0.0, "lat": 38.973029333333336, "bike_id": "12bfbb731d85d37d52f04e4403333ebc", "fusion_lon": 0.0}, {"rental_uris": {"ios": "https://dc.lft.to/lastmile_qr_scan", "android": "https://dc.lft.to/lastmile_qr_scan"}, "type": "electric_scooter", "name": "20402941ef53e87ad5d33bb438767782", "is_reserved": 0, "lon": -76.99624466666667, "is_disabled": 0, "fusion_lat": 0.0, "lat": 38.889706333333336, "bike_id": "20402941ef53e87ad5d33bb438767782", "fusion_lon": 0.0}, {"rental_uris": {"ios": "https://dc.lft.to/lastmile_qr_scan", "android": "https://dc.lft.to/lastmile_qr_scan"}, "type": "electric_scooter", "name": "52cd9884e3b491e4595dbfe1dca25885", "is_reserved": 0, "lon": -77.07410633333333, "is_disabled": 0, "fusion_lat": 0.0, "lat": 38.93754116666667, "bike_id": "52cd9884e3b491e4595dbfe1dca25885", "fusion_lon": 0.0}, {"rental_uris": {"ios": "https://dc.lft.to/lastmile_qr_scan", "android": "https://dc.lft.to/lastmile_qr_scan"}, "type": "electric_scooter", "name": "05f962ced623b638bd85e3925eb5dde6", "is_reserved": 0, "lon": -77.031333, "is_disabled": 0, "fusion_lat": 0.0, "lat": 38.923766666666666, "bike_id": "05f962ced623b638bd85e3925eb5dde6", "fusion_lon": 0.0}, {"rental_uris": {"ios": "https://dc.lft.to/lastmile_qr_scan", "android": "https://dc.lft.to/lastmile_qr_scan"}, "type": "electric_scooter", "name": "cfd21b62a8afa5980fbf4154118ba893", "is_reserved": 0, "lon": -77.02357966666666, "is_disabled": 0, "fusion_lat": 0.0, "lat": 38.9452445, "bike_id": "cfd21b62a8afa5980fbf4154118ba893", "fusion_lon": 0.0}, {"rental_uris": {"ios": "https://dc.lft.to/lastmile_qr_scan", "android": "https://dc.lft.to/lastmile_qr_scan"}, "type": "electric_scooter", "name": "e329d5d8f558cd32c63dd9a60a8d1e78", "is_reserved": 0, "lon": -76.99386483333333, "is_disabled": 0, "fusion_lat": 0.0, "lat": 38.91014, "bike_id": "e329d5d8f558cd32c63dd9a60a8d1e78", "fusion_lon": 0.0}, {"rental_uris": {"ios": "https://dc.lft.to/lastmile_qr_scan", "android": "https://dc.lft.to/lastmile_qr_scan"}, "type": "electric_scooter", "name": "d73ef18c114b7481e23dfcb4f0a1398a", "is_reserved": 0, "lon": -77.050185, "is_disabled": 0, "fusion_lat": 0.0, "lat": 38.897848833333335, "bike_id": "d73ef18c114b7481e23dfcb4f0a1398a", "fusion_lon": 0.0}, {"rental_uris": {"ios": "https://dc.lft.to/lastmile_qr_scan", "android": "https://dc.lft.to/lastmile_qr_scan"}, "type": "electric_scooter", "name": "4ec7c0289e4f98ecaf7efedf7069e01b", "is_reserved": 0, "lon": -76.98187183333333, "is_disabled": 0, "fusion_lat": 0.0, "lat": 38.90585933333333, "bike_id": "4ec7c0289e4f98ecaf7efedf7069e01b", "fusion_lon": 0.0}, {"rental_uris": {"ios": "https://dc.lft.to/lastmile_qr_scan", "android": "https://dc.lft.to/lastmile_qr_scan"}, "type": "electric_scooter", "name": "d0d65e5c4dd578e2416f45f5f2721a97", "is_reserved": 0, "lon": -77.03956916666667, "is_disabled": 0, "fusion_lat": 0.0, "lat": 38.913450166666664, "bike_id": "d0d65e5c4dd578e2416f45f5f2721a97", "fusion_lon": 0.0}, {"rental_uris": {"ios": "https://dc.lft.to/lastmile_qr_scan", "android": "https://dc.lft.to/lastmile_qr_scan"}, "type": "electric_scooter", "name": "4f3fed3e9da349acdba6d7eb2c307e3c", "is_reserved": 0, "lon": -77.02407366666667, "is_disabled": 0, "fusion_lat": 0.0, "lat": 38.92760233333333, "bike_id": "4f3fed3e9da349acdba6d7eb2c307e3c", "fusion_lon": 0.0}, {"rental_uris": {"ios": "https://dc.lft.to/lastmile_qr_scan", "android": "https://dc.lft.to/lastmile_qr_scan"}, "type": "electric_scooter", "name": "4666fa24e99199456116fd237d1f03cb", "is_reserved": 0, "lon": -77.039955, "is_disabled": 0, "fusion_lat": 0.0, "lat": 38.91417383333334, "bike_id": "4666fa24e99199456116fd237d1f03cb", "fusion_lon": 0.0}, {"rental_uris": {"ios": "https://dc.lft.to/lastmile_qr_scan", "android": "https://dc.lft.to/lastmile_qr_scan"}, "type": "electric_scooter", "name": "5bf4b91254603cecb46128b724e5af14", "is_reserved": 0, "lon": -77.019965, "is_disabled": 0, "fusion_lat": 0.0, "lat": 38.930590333333335, "bike_id": "5bf4b91254603cecb46128b724e5af14", "fusion_lon": 0.0}, {"rental_uris": {"ios": "https://dc.lft.to/lastmile_qr_scan", "android": "https://dc.lft.to/lastmile_qr_scan"}, "type": "electric_scooter", "name": "24ed32d1a8ea20ce2b2b1c51241e1107", "is_reserved": 0, "lon": -77.02413316666667, "is_disabled": 0, "fusion_lat": 0.0, "lat": 38.91724333333333, "bike_id": "24ed32d1a8ea20ce2b2b1c51241e1107", "fusion_lon": 0.0}, {"rental_uris": {"ios": "https://dc.lft.to/lastmile_qr_scan", "android": "https://dc.lft.to/lastmile_qr_scan"}, "type": "electric_bike", "name": "532186d0a16b96a0cb1fec9da4a6024b", "is_reserved": 0, "lon": -76.9505895, "is_disabled": 0, "fusion_lat": 0.0, "lat": 39.085124666666665, "bike_id": "532186d0a16b96a0cb1fec9da4a6024b", "fusion_lon": 0.0}, {"rental_uris": {"ios": "https://dc.lft.to/lastmile_qr_scan", "android": "https://dc.lft.to/lastmile_qr_scan"}, "type": "electric_scooter", "name": "1987b7890d987c4aa8b505b7b52c5ef7", "is_reserved": 0, "lon": -77.00210816666667, "is_disabled": 0, "fusion_lat": 0.0, "lat": 38.907628833333334, "bike_id": "1987b7890d987c4aa8b505b7b52c5ef7", "fusion_lon": 0.0}, {"rental_uris": {"ios": "https://dc.lft.to/lastmile_qr_scan", "android": "https://dc.lft.to/lastmile_qr_scan"}, "type": "electric_scooter", "name": "c63b37b1dfbfbab3c657662b6ac85935", "is_reserved": 0, "lon": -77.027421, "is_disabled": 0, "fusion_lat": 0.0, "lat": 38.929708, "bike_id": "c63b37b1dfbfbab3c657662b6ac85935", "fusion_lon": 0.0}, {"rental_uris": {"ios": "https://dc.lft.to/lastmile_qr_scan", "android": "https://dc.lft.to/lastmile_qr_scan"}, "type": "electric_scooter", "name": "dbb3789c4a9523bb22ef68a6eb5b7bd0", "is_reserved": 0, "lon": -77.01642933333333, "is_disabled": 0, "fusion_lat": 0.0, "lat": 38.902593833333334, "bike_id": "dbb3789c4a9523bb22ef68a6eb5b7bd0", "fusion_lon": 0.0}, {"rental_uris": {"ios": "https://dc.lft.to/lastmile_qr_scan", "android": "https://dc.lft.to/lastmile_qr_scan"}, "type": "electric_scooter", "name": "cc8a523a591820f283f21ae63c7c7167", "is_reserved": 0, "lon": -77.04127933333334, "is_disabled": 0, "fusion_lat": 0.0, "lat": 38.934065333333336, "bike_id": "cc8a523a591820f283f21ae63c7c7167", "fusion_lon": 0.0}, {"rental_uris": {"ios": "https://dc.lft.to/lastmile_qr_scan", "android": "https://dc.lft.to/lastmile_qr_scan"}, "type": "electric_scooter", "name": "94cf3ac78d2dc9959ad1bc71a6f20d40", "is_reserved": 0, "lon": -77.05940883333334, "is_disabled": 0, "fusion_lat": 0.0, "lat": 38.901711666666664, "bike_id": "94cf3ac78d2dc9959ad1bc71a6f20d40", "fusion_lon": 0.0}, {"rental_uris": {"ios": "https://dc.lft.to/lastmile_qr_scan", "android": "https://dc.lft.to/lastmile_qr_scan"}, "type": "electric_scooter", "name": "56299f0e3a24039ae1797d7b053d57a3", "is_reserved": 0, "lon": -77.00584033333334, "is_disabled": 0, "fusion_lat": 0.0, "lat": 38.905588333333334, "bike_id": "56299f0e3a24039ae1797d7b053d57a3", "fusion_lon": 0.0}, {"rental_uris": {"ios": "https://dc.lft.to/lastmile_qr_scan", "android": "https://dc.lft.to/lastmile_qr_scan"}, "type": "electric_bike", "name": "d04d8256bdfea96452a3f5ebfe8df7b1", "is_reserved": 0, "lon": -77.03364166666667, "is_disabled": 0, "fusion_lat": 0.0, "lat": 38.92877633333333, "bike_id": "d04d8256bdfea96452a3f5ebfe8df7b1", "fusion_lon": 0.0}, {"rental_uris": {"ios": "https://dc.lft.to/lastmile_qr_scan", "android": "https://dc.lft.to/lastmile_qr_scan"}, "type": "electric_scooter", "name": "e506730b2140105f189f8a189a82e32a", "is_reserved": 0, "lon": -77.02314466666667, "is_disabled": 0, "fusion_lat": 0.0, "lat": 38.92787383333334, "bike_id": "e506730b2140105f189f8a189a82e32a", "fusion_lon": 0.0}, {"rental_uris": {"ios": "https://dc.lft.to/lastmile_qr_scan", "android": "https://dc.lft.to/lastmile_qr_scan"}, "type": "electric_bike", "name": "c79a3408d6699d46b372ac2d2eac6d91", "is_reserved": 0, "lon": -77.08142183333334, "is_disabled": 0, "fusion_lat": 0.0, "lat": 38.82299883333334, "bike_id": "c79a3408d6699d46b372ac2d2eac6d91", "fusion_lon": 0.0}, {"rental_uris": {"ios": "https://dc.lft.to/lastmile_qr_scan", "android": "https://dc.lft.to/lastmile_qr_scan"}, "type": "electric_scooter", "name": "328bf10a939af90d1212437f626e13cc", "is_reserved": 0, "lon": -77.02076, "is_disabled": 0, "fusion_lat": 0.0, "lat": 38.930317, "bike_id": "328bf10a939af90d1212437f626e13cc", "fusion_lon": 0.0}, {"rental_uris": {"ios": "https://dc.lft.to/lastmile_qr_scan", "android": "https://dc.lft.to/lastmile_qr_scan"}, "type": "electric_scooter", "name": "9380d9da5f8a21193cf6c6437355e246", "is_reserved": 0, "lon": -77.03853533333333, "is_disabled": 0, "fusion_lat": 0.0, "lat": 38.91196016666667, "bike_id": "9380d9da5f8a21193cf6c6437355e246", "fusion_lon": 0.0}, {"rental_uris": {"ios": "https://dc.lft.to/lastmile_qr_scan", "android": "https://dc.lft.to/lastmile_qr_scan"}, "type": "electric_scooter", "name": "981ad15bf992f250e5de790de533a45e", "is_reserved": 0, "lon": -77.0209225, "is_disabled": 0, "fusion_lat": 0.0, "lat": 38.931199, "bike_id": "981ad15bf992f250e5de790de533a45e", "fusion_lon": 0.0}, {"rental_uris": {"ios": "https://dc.lft.to/lastmile_qr_scan", "android": "https://dc.lft.to/lastmile_qr_scan"}, "type": "electric_bike", "name": "2c630e0271efb91a75a44a9176153abe", "is_reserved": 0, "lon": -76.96325583333333, "is_disabled": 0, "fusion_lat": 0.0, "lat": 38.938988, "bike_id": "2c630e0271efb91a75a44a9176153abe", "fusion_lon": 0.0}, {"rental_uris": {"ios": "https://dc.lft.to/lastmile_qr_scan", "android": "https://dc.lft.to/lastmile_qr_scan"}, "type": "electric_scooter", "name": "39a6a54963efec820d4406abc19cb294", "is_reserved": 0, "lon": -76.98563283333333, "is_disabled": 0, "fusion_lat": 0.0, "lat": 38.900320666666666, "bike_id": "39a6a54963efec820d4406abc19cb294", "fusion_lon": 0.0}, {"rental_uris": {"ios": "https://dc.lft.to/lastmile_qr_scan", "android": "https://dc.lft.to/lastmile_qr_scan"}, "type": "electric_scooter", "name": "dabbf189808a523ae9071eb23e7f3cdb", "is_reserved": 0, "lon": -77.0283135, "is_disabled": 0, "fusion_lat": 0.0, "lat": 38.88745266666667, "bike_id": "dabbf189808a523ae9071eb23e7f3cdb", "fusion_lon": 0.0}, {"rental_uris": {"ios": "https://dc.lft.to/lastmile_qr_scan", "android": "https://dc.lft.to/lastmile_qr_scan"}, "type": "electric_scooter", "name": "6c44b7fdea1add582ece979862e3da2f", "is_reserved": 0, "lon": -77.01971333333333, "is_disabled": 0, "fusion_lat": 0.0, "lat": 38.899631, "bike_id": "6c44b7fdea1add582ece979862e3da2f", "fusion_lon": 0.0}, {"rental_uris": {"ios": "https://dc.lft.to/lastmile_qr_scan", "android": "https://dc.lft.to/lastmile_qr_scan"}, "type": "electric_scooter", "name": "3d3d4e11cf2a1c63ed6ae4c265911b97", "is_reserved": 0, "lon": -77.03633333333333, "is_disabled": 0, "fusion_lat": 0.0, "lat": 38.91849083333334, "bike_id": "3d3d4e11cf2a1c63ed6ae4c265911b97", "fusion_lon": 0.0}, {"rental_uris": {"ios": "https://dc.lft.to/lastmile_qr_scan", "android": "https://dc.lft.to/lastmile_qr_scan"}, "type": "electric_scooter", "name": "73f86bc1d76018ce7ef4b836f8688477", "is_reserved": 0, "lon": -77.03815333333333, "is_disabled": 0, "fusion_lat": 0.0, "lat": 38.925679333333335, "bike_id": "73f86bc1d76018ce7ef4b836f8688477", "fusion_lon": 0.0}, {"rental_uris": {"ios": "https://dc.lft.to/lastmile_qr_scan", "android": "https://dc.lft.to/lastmile_qr_scan"}, "type": "electric_scooter", "name": "0bff8a748a36a47fac387632b9bdf42c", "is_reserved": 0, "lon": -77.03449233333333, "is_disabled": 0, "fusion_lat": 0.0, "lat": 38.908313, "bike_id": "0bff8a748a36a47fac387632b9bdf42c", "fusion_lon": 0.0}, {"rental_uris": {"ios": "https://dc.lft.to/lastmile_qr_scan", "android": "https://dc.lft.to/lastmile_qr_scan"}, "type": "electric_scooter", "name": "58cec28c0ecbb970ab9021d35e07819b", "is_reserved": 0, "lon": -77.034445, "is_disabled": 0, "fusion_lat": 0.0, "lat": 38.90933316666667, "bike_id": "58cec28c0ecbb970ab9021d35e07819b", "fusion_lon": 0.0}, {"rental_uris": {"ios": "https://dc.lft.to/lastmile_qr_scan", "android": "https://dc.lft.to/lastmile_qr_scan"}, "type": "electric_bike", "name": "5d55a760f190a3d13b1a9788a9af4a81", "is_reserved": 0, "lon": -77.01096733333334, "is_disabled": 0, "fusion_lat": 0.0, "lat": 38.873068333333336, "bike_id": "5d55a760f190a3d13b1a9788a9af4a81", "fusion_lon": 0.0}, {"rental_uris": {"ios": "https://dc.lft.to/lastmile_qr_scan", "android": "https://dc.lft.to/lastmile_qr_scan"}, "type": "electric_scooter", "name": "c397be6c58ccc32c1c8e33f6307509e7", "is_reserved": 0, "lon": -77.07455866666666, "is_disabled": 0, "fusion_lat": 0.0, "lat": 38.93789733333333, "bike_id": "c397be6c58ccc32c1c8e33f6307509e7", "fusion_lon": 0.0}, {"rental_uris": {"ios": "https://dc.lft.to/lastmile_qr_scan", "android": "https://dc.lft.to/lastmile_qr_scan"}, "type": "electric_scooter", "name": "1cbbb1881d08fcae97bfb761398ab33b", "is_reserved": 0, "lon": -76.99860483333333, "is_disabled": 0, "fusion_lat": 0.0, "lat": 38.90034, "bike_id": "1cbbb1881d08fcae97bfb761398ab33b", "fusion_lon": 0.0}, {"rental_uris": {"ios": "https://dc.lft.to/lastmile_qr_scan", "android": "https://dc.lft.to/lastmile_qr_scan"}, "type": "electric_scooter", "name": "76a578623aba71843abf362b1987b9dd", "is_reserved": 0, "lon": -77.026065, "is_disabled": 0, "fusion_lat": 0.0, "lat": 38.9081635, "bike_id": "76a578623aba71843abf362b1987b9dd", "fusion_lon": 0.0}, {"rental_uris": {"ios": "https://dc.lft.to/lastmile_qr_scan", "android": "https://dc.lft.to/lastmile_qr_scan"}, "type": "electric_scooter", "name": "738ae83eb98c509aa0123cf6e0dc9085", "is_reserved": 0, "lon": -77.0290955, "is_disabled": 0, "fusion_lat": 0.0, "lat": 38.95298016666667, "bike_id": "738ae83eb98c509aa0123cf6e0dc9085", "fusion_lon": 0.0}, {"rental_uris": {"ios": "https://dc.lft.to/lastmile_qr_scan", "android": "https://dc.lft.to/lastmile_qr_scan"}, "type": "electric_scooter", "name": "2c03dfeaf34c69675fb2bd570068bd41", "is_reserved": 0, "lon": -76.99703383333333, "is_disabled": 0, "fusion_lat": 0.0, "lat": 38.88765083333333, "bike_id": "2c03dfeaf34c69675fb2bd570068bd41", "fusion_lon": 0.0}, {"rental_uris": {"ios": "https://dc.lft.to/lastmile_qr_scan", "android": "https://dc.lft.to/lastmile_qr_scan"}, "type": "electric_scooter", "name": "928c42fe6b7260c8e60ad961d8ac816f", "is_reserved": 0, "lon": -77.07485516666667, "is_disabled": 0, "fusion_lat": 0.0, "lat": 38.962099333333335, "bike_id": "928c42fe6b7260c8e60ad961d8ac816f", "fusion_lon": 0.0}, {"rental_uris": {"ios": "https://dc.lft.to/lastmile_qr_scan", "android": "https://dc.lft.to/lastmile_qr_scan"}, "type": "electric_scooter", "name": "2e87d02a56a205bb06ec7f6d7fffa1f3", "is_reserved": 0, "lon": -77.03631133333333, "is_disabled": 0, "fusion_lat": 0.0, "lat": 38.903738833333335, "bike_id": "2e87d02a56a205bb06ec7f6d7fffa1f3", "fusion_lon": 0.0}, {"rental_uris": {"ios": "https://dc.lft.to/lastmile_qr_scan", "android": "https://dc.lft.to/lastmile_qr_scan"}, "type": "electric_scooter", "name": "a74d3bdd015dc48fe901be2bf3d0f5fd", "is_reserved": 0, "lon": -77.03432983333333, "is_disabled": 0, "fusion_lat": 0.0, "lat": 38.919231, "bike_id": "a74d3bdd015dc48fe901be2bf3d0f5fd", "fusion_lon": 0.0}, {"rental_uris": {"ios": "https://dc.lft.to/lastmile_qr_scan", "android": "https://dc.lft.to/lastmile_qr_scan"}, "type": "electric_scooter", "name": "21f04e69f979a90be16e1cb6c167fcab", "is_reserved": 0, "lon": -76.99036066666666, "is_disabled": 0, "fusion_lat": 0.0, "lat": 38.89858566666667, "bike_id": "21f04e69f979a90be16e1cb6c167fcab", "fusion_lon": 0.0}, {"rental_uris": {"ios": "https://dc.lft.to/lastmile_qr_scan", "android": "https://dc.lft.to/lastmile_qr_scan"}, "type": "electric_scooter", "name": "f6db9e69fb819e892b5b633ae85bceac", "is_reserved": 0, "lon": -77.02425083333333, "is_disabled": 0, "fusion_lat": 0.0, "lat": 38.935638833333336, "bike_id": "f6db9e69fb819e892b5b633ae85bceac", "fusion_lon": 0.0}, {"rental_uris": {"ios": "https://dc.lft.to/lastmile_qr_scan", "android": "https://dc.lft.to/lastmile_qr_scan"}, "type": "electric_scooter", "name": "b5215e5df0290bf328344e3cb6ee5bc8", "is_reserved": 0, "lon": -76.983762, "is_disabled": 0, "fusion_lat": 0.0, "lat": 38.8603625, "bike_id": "b5215e5df0290bf328344e3cb6ee5bc8", "fusion_lon": 0.0}, {"rental_uris": {"ios": "https://dc.lft.to/lastmile_qr_scan", "android": "https://dc.lft.to/lastmile_qr_scan"}, "type": "electric_scooter", "name": "bc51b8571686ddee41100cd9b9895adf", "is_reserved": 0, "lon": -77.0320915, "is_disabled": 0, "fusion_lat": 0.0, "lat": 38.90499033333333, "bike_id": "bc51b8571686ddee41100cd9b9895adf", "fusion_lon": 0.0}, {"rental_uris": {"ios": "https://dc.lft.to/lastmile_qr_scan", "android": "https://dc.lft.to/lastmile_qr_scan"}, "type": "electric_scooter", "name": "243c815575bcae03657da83b662ce430", "is_reserved": 0, "lon": -77.03663133333333, "is_disabled": 0, "fusion_lat": 0.0, "lat": 38.93636816666667, "bike_id": "243c815575bcae03657da83b662ce430", "fusion_lon": 0.0}, {"rental_uris": {"ios": "https://dc.lft.to/lastmile_qr_scan", "android": "https://dc.lft.to/lastmile_qr_scan"}, "type": "electric_scooter", "name": "8e25170c8780f8a3da40de2ecc875f63", "is_reserved": 0, "lon": -77.03907583333333, "is_disabled": 0, "fusion_lat": 0.0, "lat": 38.91420133333333, "bike_id": "8e25170c8780f8a3da40de2ecc875f63", "fusion_lon": 0.0}, {"rental_uris": {"ios": "https://dc.lft.to/lastmile_qr_scan", "android": "https://dc.lft.to/lastmile_qr_scan"}, "type": "electric_scooter", "name": "b1fba78d3e7d5bf7bcb3a2f46a403b64", "is_reserved": 0, "lon": -77.02151583333334, "is_disabled": 0, "fusion_lat": 0.0, "lat": 38.887463, "bike_id": "b1fba78d3e7d5bf7bcb3a2f46a403b64", "fusion_lon": 0.0}, {"rental_uris": {"ios": "https://dc.lft.to/lastmile_qr_scan", "android": "https://dc.lft.to/lastmile_qr_scan"}, "type": "electric_scooter", "name": "6f7e8e7af284cf2eabb5da20a2697669", "is_reserved": 0, "lon": -77.02197316666667, "is_disabled": 0, "fusion_lat": 0.0, "lat": 38.911272833333335, "bike_id": "6f7e8e7af284cf2eabb5da20a2697669", "fusion_lon": 0.0}, {"rental_uris": {"ios": "https://dc.lft.to/lastmile_qr_scan", "android": "https://dc.lft.to/lastmile_qr_scan"}, "type": "electric_scooter", "name": "8473d99ee57be2cd3faa872d7f932838", "is_reserved": 0, "lon": -77.03874066666667, "is_disabled": 0, "fusion_lat": 0.0, "lat": 38.915606333333336, "bike_id": "8473d99ee57be2cd3faa872d7f932838", "fusion_lon": 0.0}, {"rental_uris": {"ios": "https://dc.lft.to/lastmile_qr_scan", "android": "https://dc.lft.to/lastmile_qr_scan"}, "type": "electric_scooter", "name": "1aa5bea2cac2fe5faa8f864f598d964b", "is_reserved": 0, "lon": -77.0213195, "is_disabled": 0, "fusion_lat": 0.0, "lat": 38.924109333333334, "bike_id": "1aa5bea2cac2fe5faa8f864f598d964b", "fusion_lon": 0.0}, {"rental_uris": {"ios": "https://dc.lft.to/lastmile_qr_scan", "android": "https://dc.lft.to/lastmile_qr_scan"},