{"data": {"bikes": [{"rental_uris": {"android": "https://dc.lft.to/lastmile_qr_scan", "ios": "https://dc.lft.to/lastmile_qr_scan"}, "is_reserved": 0, "is_disabled": 0, "bike_id": "57808088e496a88f34d87344021b2f4e", "lat": 38.90078666666667, "name": "57808088e496a88f34d87344021b2f4e", "fusion_lon": 0.0, "fusion_lat": 0.0, "type": "electric_scooter", "lon": -77.03185583333334}, {"rental_uris": {"android": "https://dc.lft.to/lastmile_qr_scan", "ios": "https://dc.lft.to/lastmile_qr_scan"}, "is_reserved": 0, "is_disabled": 0, "bike_id": "5c09caf2860e9867688958e18d0c2fc1", "lat": 38.915628, "name": "5c09caf2860e9867688958e18d0c2fc1", "fusion_lon": 0.0, "fusion_lat": 0.0, "type": "electric_scooter", "lon": -77.01986416666666}, {"rental_uris": {"android": "https://dc.lft.to/lastmile_qr_scan", "ios": "https://dc.lft.to/lastmile_qr_scan"}, "is_reserved": 0, "is_disabled": 0, "bike_id": "76cfc652db2faaf7917ce9cad9798382", "lat": 38.999461333333336, "name": "76cfc652db2faaf7917ce9cad9798382", "fusion_lon": 0.0, "fusion_lat": 0.0, "type": "electric_bike", "lon": -77.07429683333334}, {"rental_uris": {"android": "https://dc.lft.to/lastmile_qr_scan", "ios": "https://dc.lft.to/lastmile_qr_scan"}, "is_reserved": 0, "is_disabled": 0, "bike_id": "7ce461bc4b15fccb6280cde62e555172", "lat": 38.92336933333333, "name": "7ce461bc4b15fccb6280cde62e555172", "fusion_lon": 0.0, "fusion_lat": 0.0, "type": "electric_scooter", "lon": -77.01890633333333}, {"rental_uris": {"android": "https://dc.lft.to/lastmile_qr_scan", "ios": "https://dc.lft.to/lastmile_qr_scan"}, "is_reserved": 0, "is_disabled": 0, "bike_id": "c999d8f8b8cac7c7e733f88a67056ca8", "lat": 38.86626783333333, "name": "c999d8f8b8cac7c7e733f88a67056ca8", "fusion_lon": 0.0, "fusion_lat": 0.0, "type": "electric_scooter", "lon": -76.9871145}, {"rental_uris": {"android": "https://dc.lft.to/lastmile_qr_scan", "ios": "https://dc.lft.to/lastmile_qr_scan"}, "is_reserved": 0, "is_disabled": 0, "bike_id": "577e1d2b66a299cf5c2e5fad7b955fd9", "lat": 38.902693, "name": "577e1d2b66a299cf5c2e5fad7b955fd9", "fusion_lon": 0.0, "fusion_lat": 0.0, "type": "electric_scooter", "lon": -77.02004666666667}, {"rental_uris": {"android": "https://dc.lft.to/lastmile_qr_scan", "ios": "https://dc.lft.to/lastmile_qr_scan"}, "is_reserved": 0, "is_disabled": 0, "bike_id": "d92f0e4666a44c65855821ac7c7ad35c", "lat": 38.8070745, "name": "d92f0e4666a44c65855821ac7c7ad35c", "fusion_lon": 0.0, "fusion_lat": 0.0, "type": "electric_bike", "lon": -77.06175333333333}, {"rental_uris": {"android": "https://dc.lft.to/lastmile_qr_scan", "ios": "https://dc.lft.to/lastmile_qr_scan"}, "is_reserved": 0, "is_disabled": 0, "bike_id": "9730d906ab1f9d7bea5d3aad7cecd8dc", "lat": 38.93106483333333, "name": "9730d906ab1f9d7bea5d3aad7cecd8dc", "fusion_lon": 0.0, "fusion_lat": 0.0, "type": "electric_scooter", "lon": -77.038052}, {"rental_uris": {"android": "https://dc.lft.to/lastmile_qr_scan", "ios": "https://dc.lft.to/lastmile_qr_scan"}, "is_reserved": 0, "is_disabled": 0, "bike_id": "818ce2755c620d8fa4535b49ae63c389", "lat": 38.89947333333333, "name": "818ce2755c620d8fa4535b49ae63c389", "fusion_lon": 0.0, "fusion_lat": 0.0, "type": "electric_scooter", "lon": -77.04888383333333}, {"rental_uris": {"android": "https://dc.lft.to/lastmile_qr_scan", "ios": "https://dc.lft.to/lastmile_qr_scan"}, "is_reserved": 0, "is_disabled": 0, "bike_id": "057a1e87ae1d8589b6998eb0fe310743", "lat": 38.908552, "name": "057a1e87ae1d8589b6998eb0fe310743", "fusion_lon": 0.0, "fusion_lat": 0.0, "type": "electric_scooter", "lon": -77.02515383333333}, {"rental_uris": {"android": "https://dc.lft.to/lastmile_qr_scan", "ios": "https://dc.lft.to/lastmile_qr_scan"}, "is_reserved": 0, "is_disabled": 0, "bike_id": "387d23c62cea0bcb2f1ee93c77df8a29", "lat": 38.89228116666666, "name": "387d23c62cea0bcb2f1ee93c77df8a29", "fusion_lon": 0.0, "fusion_lat": 0.0, "type": "electric_scooter", "lon": -77.02522166666667}, {"rental_uris": {"android": "https://dc.lft.to/lastmile_qr_scan", "ios": "https://dc.lft.to/lastmile_qr_scan"}, "is_reserved": 0, "is_disabled": 0, "bike_id": "d75505259dfd83a298281a1153c59ad5", "lat": 38.917456333333334, "name": "d75505259dfd83a298281a1153c59ad5", "fusion_lon": 0.0, "fusion_lat": 0.0, "type": "electric_scooter", "lon": -77.03182733333334}, {"rental_uris": {"android": "https://dc.lft.to/lastmile_qr_scan", "ios": "https://dc.lft.to/lastmile_qr_scan"}, "is_reserved": 0, "is_disabled": 0, "bike_id": "8a72fbe399f34c7deb8f0b30007babe9", "lat": 38.929171, "name": "8a72fbe399f34c7deb8f0b30007babe9", "fusion_lon": 0.0, "fusion_lat": 0.0, "type": "electric_scooter", "lon": -77.054636}, {"rental_uris": {"android": "https://dc.lft.to/lastmile_qr_scan", "ios": "https://dc.lft.to/lastmile_qr_scan"}, "is_reserved": 0, "is_disabled": 0, "bike_id": "e06309f52d8e3af6a378f096e3eb7b1c", "lat": 38.9097055, "name": "e06309f52d8e3af6a378f096e3eb7b1c", "fusion_lon": 0.0, "fusion_lat": 0.0, "type": "electric_scooter", "lon": -77.03866883333333}, {"rental_uris": {"android": "https://dc.lft.to/lastmile_qr_scan", "ios": "https://dc.lft.to/lastmile_qr_scan"}, "is_reserved": 0, "is_disabled": 0, "bike_id": "05b6148613d13abfa101d902fedf1433", "lat": 38.893548833333334, "name": "05b6148613d13abfa101d902fedf1433", "fusion_lon": 0.0, "fusion_lat": 0.0, "type": "electric_scooter", "lon": -76.94919983333334}, {"rental_uris": {"android": "https://dc.lft.to/lastmile_qr_scan", "ios": "https://dc.lft.to/lastmile_qr_scan"}, "is_reserved": 0, "is_disabled": 0, "bike_id": "4346b40190d27572e80965c4934420b0", "lat": 38.92867866666667, "name": "4346b40190d27572e80965c4934420b0", "fusion_lon": 0.0, "fusion_lat": 0.0, "type": "electric_scooter", "lon": -77.032752}, {"rental_uris": {"android": "https://dc.lft.to/lastmile_qr_scan", "ios": "https://dc.lft.to/lastmile_qr_scan"}, "is_reserved": 0, "is_disabled": 0, "bike_id": "f6b4999b1aa2e6d03e67b77c35739708", "lat": 38.934752833333334, "name": "f6b4999b1aa2e6d03e67b77c35739708", "fusion_lon": 0.0, "fusion_lat": 0.0, "type": "electric_scooter", "lon": -77.07337683333333}, {"rental_uris": {"android": "https://dc.lft.to/lastmile_qr_scan", "ios": "https://dc.lft.to/lastmile_qr_scan"}, "is_reserved": 0, "is_disabled": 0, "bike_id": "9ed691b71c67fb5f32e96ceb454e10b7", "lat": 38.902587, "name": "9ed691b71c67fb5f32e96ceb454e10b7", "fusion_lon": 0.0, "fusion_lat": 0.0, "type": "electric_scooter", "lon": -77.00160816666667}, {"rental_uris": {"android": "https://dc.lft.to/lastmile_qr_scan", "ios": "https://dc.lft.to/lastmile_qr_scan"}, "is_reserved": 0, "is_disabled": 0, "bike_id": "8534df5338e84ceaf8ff41d1600d9a6b", "lat": 38.923186, "name": "8534df5338e84ceaf8ff41d1600d9a6b", "fusion_lon": 0.0, "fusion_lat": 0.0, "type": "electric_scooter", "lon": -77.04204733333333}, {"rental_uris": {"android": "https://dc.lft.to/lastmile_qr_scan", "ios": "https://dc.lft.to/lastmile_qr_scan"}, "is_reserved": 0, "is_disabled": 0, "bike_id": "aee2ac53ec5297dc57669c3b4f5d004b", "lat": 38.928100666666666, "name": "aee2ac53ec5297dc57669c3b4f5d004b", "fusion_lon": 0.0, "fusion_lat": 0.0, "type": "electric_scooter", "lon": -77.03365833333334}, {"rental_uris": {"android": "https://dc.lft.to/lastmile_qr_scan", "ios": "https://dc.lft.to/lastmile_qr_scan"}, "is_reserved": 0, "is_disabled": 0, "bike_id": "9f5bd785e7ef4b798103c36b8ee51c38", "lat": 38.887372, "name": "9f5bd785e7ef4b798103c36b8ee51c38", "fusion_lon": 0.0, "fusion_lat": 0.0, "type": "electric_scooter", "lon": -77.02212416666667}, {"rental_uris": {"android": "https://dc.lft.to/lastmile_qr_scan", "ios": "https://dc.lft.to/lastmile_qr_scan"}, "is_reserved": 0, "is_disabled": 0, "bike_id": "c0166bd5ce897236a3c5bd571a4131ad", "lat": 38.91116616666667, "name": "c0166bd5ce897236a3c5bd571a4131ad", "fusion_lon": 0.0, "fusion_lat": 0.0, "type": "electric_scooter", "lon": -77.044964}, {"rental_uris": {"android": "https://dc.lft.to/lastmile_qr_scan", "ios": "https://dc.lft.to/lastmile_qr_scan"}, "is_reserved": 0, "is_disabled": 0, "bike_id": "a85d629639430140e80e2a90c7d98349", "lat": 38.91519133333333, "name": "a85d629639430140e80e2a90c7d98349", "fusion_lon": 0.0, "fusion_lat": 0.0, "type": "electric_scooter", "lon": -77.05492}, {"rental_uris": {"android": "https://dc.lft.to/lastmile_qr_scan", "ios": "https://dc.lft.to/lastmile_qr_scan"}, "is_reserved": 0, "is_disabled": 0, "bike_id": "c35bc97903209a37129c187922140718", "lat": 38.90670266666667, "name": "c35bc97903209a37129c187922140718", "fusion_lon": 0.0, "fusion_lat": 0.0, "type": "electric_scooter", "lon": -77.07014183333334}, {"rental_uris": {"android": "https://dc.lft.to/lastmile_qr_scan", "ios": "https://dc.lft.to/lastmile_qr_scan"}, "is_reserved": 0, "is_disabled": 0, "bike_id": "e80dc07788433d6630213bd414d9e935", "lat": 38.890139833333336, "name": "e80dc07788433d6630213bd414d9e935", "fusion_lon": 0.0, "fusion_lat": 0.0, "type": "electric_scooter", "lon": -76.93730166666667}, {"rental_uris": {"android": "https://dc.lft.to/lastmile_qr_scan", "ios": "https://dc.lft.to/lastmile_qr_scan"}, "is_reserved": 0, "is_disabled": 0, "bike_id": "b627bb4e90040e395884433ec0a3cb4d", "lat": 38.923790333333336, "name": "b627bb4e90040e395884433ec0a3cb4d", "fusion_lon": 0.0, "fusion_lat": 0.0, "type": "electric_scooter", "lon": -77.05148183333333}, {"rental_uris": {"android": "https://dc.lft.to/lastmile_qr_scan", "ios": "https://dc.lft.to/lastmile_qr_scan"}, "is_reserved": 0, "is_disabled": 0, "bike_id": "c80ea428e8662dcf90e12bce0900d6ff", "lat": 38.87843183333333, "name": "c80ea428e8662dcf90e12bce0900d6ff", "fusion_lon": 0.0, "fusion_lat": 0.0, "type": "electric_scooter", "lon": -76.93147233333333}, {"rental_uris": {"android": "https://dc.lft.to/lastmile_qr_scan", "ios": "https://dc.lft.to/lastmile_qr_scan"}, "is_reserved": 0, "is_disabled": 0, "bike_id": "e46ee2b004cb93e19e2f4a2d2996c8a8", "lat": 38.90465366666667, "name": "e46ee2b004cb93e19e2f4a2d2996c8a8", "fusion_lon": 0.0, "fusion_lat": 0.0, "type": "electric_scooter", "lon": -77.04362333333333}, {"rental_uris": {"android": "https://dc.lft.to/lastmile_qr_scan", "ios": "https://dc.lft.to/lastmile_qr_scan"}, "is_reserved": 0, "is_disabled": 0, "bike_id": "8225b136e85dfb70bb77b32e1b7f5791", "lat": 38.93244033333333, "name": "8225b136e85dfb70bb77b32e1b7f5791", "fusion_lon": 0.0, "fusion_lat": 0.0, "type": "electric_scooter", "lon": -77.03104816666666}, {"rental_uris": {"android": "https://dc.lft.to/lastmile_qr_scan", "ios": "https://dc.lft.to/lastmile_qr_scan"}, "is_reserved": 0, "is_disabled": 0, "bike_id": "f129944379da17a8f801426d51454344", "lat": 38.892216833333336, "name": "f129944379da17a8f801426d51454344", "fusion_lon": 0.0, "fusion_lat": 0.0, "type": "electric_scooter", "lon": -77.04635983333333}, {"rental_uris": {"android": "https://dc.lft.to/lastmile_qr_scan", "ios": "https://dc.lft.to/lastmile_qr_scan"}, "is_reserved": 0, "is_disabled": 0, "bike_id": "c977ae60ac186a23c7914ddecfd10d4d", "lat": 38.897163166666665, "name": "c977ae60ac186a23c7914ddecfd10d4d", "fusion_lon": 0.0, "fusion_lat": 0.0, "type": "electric_scooter", "lon": -77.03078516666666}, {"rental_uris": {"android": "https://dc.lft.to/lastmile_qr_scan", "ios": "https://dc.lft.to/lastmile_qr_scan"}, "is_reserved": 0, "is_disabled": 0, "bike_id": "058816ec341eb11a1937c811d07e379b", "lat": 38.913485666666666, "name": "058816ec341eb11a1937c811d07e379b", "fusion_lon": 0.0, "fusion_lat": 0.0, "type": "electric_scooter", "lon": -77.03183933333334}, {"rental_uris": {"android": "https://dc.lft.to/lastmile_qr_scan", "ios": "https://dc.lft.to/lastmile_qr_scan"}, "is_reserved": 0, "is_disabled": 0, "bike_id": "1601baac4ed12130e743c0c0d8c3dbbd", "lat": 38.89222266666667, "name": "1601baac4ed12130e743c0c0d8c3dbbd", "fusion_lon": 0.0, "fusion_lat": 0.0, "type": "electric_scooter", "lon": -77.0321605}, {"rental_uris": {"android": "https://dc.lft.to/lastmile_qr_scan", "ios": "https://dc.lft.to/lastmile_qr_scan"}, "is_reserved": 0, "is_disabled": 0, "bike_id": "c8e952db236a175e24bf4531f584b0da", "lat": 38.91714533333333, "name": "c8e952db236a175e24bf4531f584b0da", "fusion_lon": 0.0, "fusion_lat": 0.0, "type": "electric_scooter", "lon": -77.0323385}, {"rental_uris": {"android": "https://dc.lft.to/lastmile_qr_scan", "ios": "https://dc.lft.to/lastmile_qr_scan"}, "is_reserved": 0, "is_disabled": 0, "bike_id": "1baf5434123c9e2b1482c2a6e3cb16dd", "lat": 38.916986, "name": "1baf5434123c9e2b1482c2a6e3cb16dd", "fusion_lon": 0.0, "fusion_lat": 0.0, "type": "electric_scooter", "lon": -77.03074666666667}, {"rental_uris": {"android": "https://dc.lft.to/lastmile_qr_scan", "ios": "https://dc.lft.to/lastmile_qr_scan"}, "is_reserved": 0, "is_disabled": 0, "bike_id": "3769ab951c675bcd8c728f5066e40795", "lat": 38.866698166666666, "name": "3769ab951c675bcd8c728f5066e40795", "fusion_lon": 0.0, "fusion_lat": 0.0, "type": "electric_scooter", "lon": -76.98503766666667}, {"rental_uris": {"android": "https://dc.lft.to/lastmile_qr_scan", "ios": "https://dc.lft.to/lastmile_qr_scan"}, "is_reserved": 0, "is_disabled": 0, "bike_id": "85b5ddd664d2a716c684684220864539", "lat": 38.97498933333333, "name": "85b5ddd664d2a716c684684220864539", "fusion_lon": 0.0, "fusion_lat": 0.0, "type": "electric_scooter", "lon": -77.016776}, {"rental_uris": {"android": "https://dc.lft.to/lastmile_qr_scan", "ios": "https://dc.lft.to/lastmile_qr_scan"}, "is_reserved": 0, "is_disabled": 0, "bike_id": "94f55c6e870b2d3a7043239e352d837e", "lat": 38.892225833333335, "name": "94f55c6e870b2d3a7043239e352d837e", "fusion_lon": 0.0, "fusion_lat": 0.0, "type": "electric_scooter", "lon": -77.03158933333333}, {"rental_uris": {"android": "https://dc.lft.to/lastmile_qr_scan", "ios": "https://dc.lft.to/lastmile_qr_scan"}, "is_reserved": 0, "is_disabled": 0, "bike_id": "ae189ad6bf6133c08e61c3f7c707d958", "lat": 38.897444666666665, "name": "ae189ad6bf6133c08e61c3f7c707d958", "fusion_lon": 0.0, "fusion_lat": 0.0, "type": "electric_scooter", "lon": -76.98977633333334}, {"rental_uris": {"android": "https://dc.lft.to/lastmile_qr_scan", "ios": "https://dc.lft.to/lastmile_qr_scan"}, "is_reserved": 0, "is_disabled": 0, "bike_id": "0e49252775af84abec1941288a11b21e", "lat": 38.86520216666667, "name": "0e49252775af84abec1941288a11b21e", "fusion_lon": 0.0, "fusion_lat": 0.0, "type": "electric_bike", "lon": -76.97328916666666}, {"rental_uris": {"android": "https://dc.lft.to/lastmile_qr_scan", "ios": "https://dc.lft.to/lastmile_qr_scan"}, "is_reserved": 0, "is_disabled": 0, "bike_id": "f25686ced1de4e1b8e2c89d2219f2b2d", "lat": 38.90639866666667, "name": "f25686ced1de4e1b8e2c89d2219f2b2d", "fusion_lon": 0.0, "fusion_lat": 0.0, "type": "electric_scooter", "lon": -77.01026816666666}, {"rental_uris": {"android": "https://dc.lft.to/lastmile_qr_scan", "ios": "https://dc.lft.to/lastmile_qr_scan"}, "is_reserved": 0, "is_disabled": 0, "bike_id": "24c600af9e9419c17f197ca325fc3451", "lat": 38.85850666666666, "name": "24c600af9e9419c17f197ca325fc3451", "fusion_lon": 0.0, "fusion_lat": 0.0, "type": "electric_bike", "lon": -77.0974995}, {"rental_uris": {"android": "https://dc.lft.to/lastmile_qr_scan", "ios": "https://dc.lft.to/lastmile_qr_scan"}, "is_reserved": 0, "is_disabled": 0, "bike_id": "674dbb5eefab59db910102c44d1dea44", "lat": 38.926475333333336, "name": "674dbb5eefab59db910102c44d1dea44", "fusion_lon": 0.0, "fusion_lat": 0.0, "type": "electric_scooter", "lon": -77.041311}, {"rental_uris": {"android": "https://dc.lft.to/lastmile_qr_scan", "ios": "https://dc.lft.to/lastmile_qr_scan"}, "is_reserved": 0, "is_disabled": 0, "bike_id": "d69646e9a7b22dd784f9aea98263f4e0", "lat": 38.8836875, "name": "d69646e9a7b22dd784f9aea98263f4e0", "fusion_lon": 0.0, "fusion_lat": 0.0, "type": "electric_scooter", "lon": -76.9415545}, {"rental_uris": {"android": "https://dc.lft.to/lastmile_qr_scan", "ios": "https://dc.lft.to/lastmile_qr_scan"}, "is_reserved": 0, "is_disabled": 0, "bike_id": "63bc66b42a607d22fbf113eac6f3e90d", "lat": 38.90972766666667, "name": "63bc66b42a607d22fbf113eac6f3e90d", "fusion_lon": 0.0, "fusion_lat": 0.0, "type": "electric_scooter", "lon": -77.03224633333333}, {"rental_uris": {"android": "https://dc.lft.to/lastmile_qr_scan", "ios": "https://dc.lft.to/lastmile_qr_scan"}, "is_reserved": 0, "is_disabled": 0, "bike_id": "5c4aec4c9437dc0ae5742ae2177a52d5", "lat": 38.9136665, "name": "5c4aec4c9437dc0ae5742ae2177a52d5", "fusion_lon": 0.0, "fusion_lat": 0.0, "type": "electric_scooter", "lon": -77.01988516666667}, {"rental_uris": {"android": "https://dc.lft.to/lastmile_qr_scan", "ios": "https://dc.lft.to/lastmile_qr_scan"}, "is_reserved": 0, "is_disabled": 0, "bike_id": "82722d2a90ced1c21409ff0d5383e693", "lat": 38.922103, "name": "82722d2a90ced1c21409ff0d5383e693", "fusion_lon": 0.0, "fusion_lat": 0.0, "type": "electric_scooter", "lon": -77.0196285}, {"rental_uris": {"android": "https://dc.lft.to/lastmile_qr_scan", "ios": "https://dc.lft.to/lastmile_qr_scan"}, "is_reserved": 0, "is_disabled": 0, "bike_id": "c0b3525c431735cf6b4b22ae9373a6bb", "lat": 38.90316283333333, "name": "c0b3525c431735cf6b4b22ae9373a6bb", "fusion_lon": 0.0, "fusion_lat": 0.0, "type": "electric_scooter", "lon": -77.0342495}, {"rental_uris": {"android": "https://dc.lft.to/lastmile_qr_scan", "ios": "https://dc.lft.to/lastmile_qr_scan"}, "is_reserved": 0, "is_disabled": 0, "bike_id": "fb45f693c70df590dc83dcb31e58354e", "lat": 38.899475333333335, "name": "fb45f693c70df590dc83dcb31e58354e", "fusion_lon": 0.0, "fusion_lat": 0.0, "type": "electric_scooter", "lon": -76.98192783333333}, {"rental_uris": {"android": "https://dc.lft.to/lastmile_qr_scan", "ios": "https://dc.lft.to/lastmile_qr_scan"}, "is_reserved": 0, "is_disabled": 0, "bike_id": "023ee28fe8fef9ff6732d873f99f702f", "lat": 38.857910333333336, "name": "023ee28fe8fef9ff6732d873f99f702f", "fusion_lon": 0.0, "fusion_lat": 0.0, "type": "electric_bike", "lon": -77.09960016666666}, {"rental_uris": {"android": "https://dc.lft.to/lastmile_qr_scan", "ios": "https://dc.lft.to/lastmile_qr_scan"}, "is_reserved": 0, "is_disabled": 0, "bike_id": "ab1df8544044c61fd7c3a39f217ef455", "lat": 38.91569633333334, "name": "ab1df8544044c61fd7c3a39f217ef455", "fusion_lon": 0.0, "fusion_lat": 0.0, "type": "electric_scooter", "lon": -77.02706916666666}, {"rental_uris": {"android": "https://dc.lft.to/lastmile_qr_scan", "ios": "https://dc.lft.to/lastmile_qr_scan"}, "is_reserved": 0, "is_disabled": 0, "bike_id": "a76a97fdf249beb00f5f5e6fb095ae6d", "lat": 38.895634, "name": "a76a97fdf249beb00f5f5e6fb095ae6d", "fusion_lon": 0.0, "fusion_lat": 0.0, "type": "electric_scooter", "lon": -77.0281225}, {"rental_uris": {"android": "https://dc.lft.to/lastmile_qr_scan", "ios": "https://dc.lft.to/lastmile_qr_scan"}, "is_reserved": 0, "is_disabled": 0, "bike_id": "e43f0921feef2674b1cf823d32487a3d", "lat": 38.88526266666667, "name": "e43f0921feef2674b1cf823d32487a3d", "fusion_lon": 0.0, "fusion_lat": 0.0, "type": "electric_scooter", "lon": -77.01517383333334}, {"rental_uris": {"android": "https://dc.lft.to/lastmile_qr_scan", "ios": "https://dc.lft.to/lastmile_qr_scan"}, "is_reserved": 0, "is_disabled": 0, "bike_id": "874762b1be4f815d7687d5e760c71293", "lat": 38.903511333333334, "name": "874762b1be4f815d7687d5e760c71293", "fusion_lon": 0.0, "fusion_lat": 0.0, "type": "electric_scooter", "lon": -77.0364975}, {"rental_uris": {"android": "https://dc.lft.to/lastmile_qr_scan", "ios": "https://dc.lft.to/lastmile_qr_scan"}, "is_reserved": 0, "is_disabled": 0, "bike_id": "ad56ee4bd24e85ad11bfe61e8a7f8628", "lat": 38.91441116666667, "name": "ad56ee4bd24e85ad11bfe61e8a7f8628", "fusion_lon": 0.0, "fusion_lat": 0.0, "type": "electric_scooter", "lon": -77.00456433333333}, {"rental_uris": {"android": "https://dc.lft.to/lastmile_qr_scan", "ios": "https://dc.lft.to/lastmile_qr_scan"}, "is_reserved": 0, "is_disabled": 0, "bike_id": "64cfe238054166c9fe59674a2258e853", "lat": 38.91111566666667, "name": "64cfe238054166c9fe59674a2258e853", "fusion_lon": 0.0, "fusion_lat": 0.0, "type": "electric_scooter", "lon": -77.03377583333334}, {"rental_uris": {"android": "https://dc.lft.to/lastmile_qr_scan", "ios": "https://dc.lft.to/lastmile_qr_scan"}, "is_reserved": 0, "is_disabled": 0, "bike_id": "768937b031ccdcf99914fc92c568e3b3", "lat": 38.89522316666667, "name": "768937b031ccdcf99914fc92c568e3b3", "fusion_lon": 0.0, "fusion_lat": 0.0, "type": "electric_scooter", "lon": -77.02814066666667}, {"rental_uris": {"android": "https://dc.lft.to/lastmile_qr_scan", "ios": "https://dc.lft.to/lastmile_qr_scan"}, "is_reserved": 0, "is_disabled": 0, "bike_id": "39c0bcf92690acd3d03fd18b744c0a99", "lat": 38.919253833333336, "name": "39c0bcf92690acd3d03fd18b744c0a99", "fusion_lon": 0.0, "fusion_lat": 0.0, "type": "electric_scooter", "lon": -77.0325935}, {"rental_uris": {"android": "https://dc.lft.to/lastmile_qr_scan", "ios": "https://dc.lft.to/lastmile_qr_scan"}, "is_reserved": 0, "is_disabled": 0, "bike_id": "596409855f9137a467488dd1d81ef9c2", "lat": 38.952861666666664, "name": "596409855f9137a467488dd1d81ef9c2", "fusion_lon": 0.0, "fusion_lat": 0.0, "type": "electric_bike", "lon": -76.94590633333334}, {"rental_uris": {"android": "https://dc.lft.to/lastmile_qr_scan", "ios": "https://dc.lft.to/lastmile_qr_scan"}, "is_reserved": 0, "is_disabled": 0, "bike_id": "cdd3d914e58222e0f4e3cdfcf29684d4", "lat": 38.94555283333333, "name": "cdd3d914e58222e0f4e3cdfcf29684d4", "fusion_lon": 0.0, "fusion_lat": 0.0, "type": "electric_bike", "lon": -76.89538233333333}, {"rental_uris": {"android": "https://dc.lft.to/lastmile_qr_scan", "ios": "https://dc.lft.to/lastmile_qr_scan"}, "is_reserved": 0, "is_disabled": 0, "bike_id": "464da7d4d9900354f6833ec5752a9218", "lat": 38.92825366666667, "name": "464da7d4d9900354f6833ec5752a9218", "fusion_lon": 0.0, "fusion_lat": 0.0, "type": "electric_scooter", "lon": -77.02254583333334}, {"rental_uris": {"android": "https://dc.lft.to/lastmile_qr_scan", "ios": "https://dc.lft.to/lastmile_qr_scan"}, "is_reserved": 0, "is_disabled": 0, "bike_id": "575532caffa08973c42cb99fcd0d382f", "lat": 38.903968, "name": "575532caffa08973c42cb99fcd0d382f", "fusion_lon": 0.0, "fusion_lat": 0.0, "type": "electric_scooter", "lon": -77.0486895}, {"rental_uris": {"android": "https://dc.lft.to/lastmile_qr_scan", "ios": "https://dc.lft.to/lastmile_qr_scan"}, "is_reserved": 0, "is_disabled": 0, "bike_id": "dcd917bb64764cc9c8c447ed2f4725a2", "lat": 38.90855, "name": "dcd917bb64764cc9c8c447ed2f4725a2", "fusion_lon": 0.0, "fusion_lat": 0.0, "type": "electric_scooter", "lon": -77.02513266666666}, {"rental_uris": {"android": "https://dc.lft.to/lastmile_qr_scan", "ios": "https://dc.lft.to/lastmile_qr_scan"}, "is_reserved": 0, "is_disabled": 0, "bike_id": "62f433c6dac6efbba039d11c083e9f4f", "lat": 38.9147695, "name": "62f433c6dac6efbba039d11c083e9f4f", "fusion_lon": 0.0, "fusion_lat": 0.0, "type": "electric_scooter", "lon": -77.0256425}, {"rental_uris": {"android": "https://dc.lft.to/lastmile_qr_scan", "ios": "https://dc.lft.to/lastmile_qr_scan"}, "is_reserved": 0, "is_disabled": 0, "bike_id": "daafab68b2dedf5aef23f187aa9f8271", "lat": 38.92988866666666, "name": "daafab68b2dedf5aef23f187aa9f8271", "fusion_lon": 0.0, "fusion_lat": 0.0, "type": "electric_scooter", "lon": -77.05503083333333}, {"rental_uris": {"android": "https://dc.lft.to/lastmile_qr_scan", "ios": "https://dc.lft.to/lastmile_qr_scan"}, "is_reserved": 0, "is_disabled": 0, "bike_id": "2d6e033897117b81af3636145e23f82b", "lat": 38.90545016666667, "name": "2d6e033897117b81af3636145e23f82b", "fusion_lon": 0.0, "fusion_lat": 0.0, "type": "electric_scooter", "lon": -77.0220315}, {"rental_uris": {"android": "https://dc.lft.to/lastmile_qr_scan", "ios": "https://dc.lft.to/lastmile_qr_scan"}, "is_reserved": 0, "is_disabled": 0, "bike_id": "d8919f145af5ef8411e0cafd492c1fab", "lat": 38.933563666666664, "name": "d8919f145af5ef8411e0cafd492c1fab", "fusion_lon": 0.0, "fusion_lat": 0.0, "type": "electric_scooter", "lon": -77.07302216666666}, {"rental_uris": {"android": "https://dc.lft.to/lastmile_qr_scan", "ios": "https://dc.lft.to/lastmile_qr_scan"}, "is_reserved": 0, "is_disabled": 0, "bike_id": "31efdec1a3e967e6400cbe2dbb0ed678", "lat": 38.8131355, "name": "31efdec1a3e967e6400cbe2dbb0ed678", "fusion_lon": 0.0, "fusion_lat": 0.0, "type": "electric_bike", "lon": -77.10965933333334}, {"rental_uris": {"android": "https://dc.lft.to/lastmile_qr_scan", "ios": "https://dc.lft.to/lastmile_qr_scan"}, "is_reserved": 0, "is_disabled": 0, "bike_id": "3fca2b4b0f451b11329e36dbfd6245cd", "lat": 38.893829833333335, "name": "3fca2b4b0f451b11329e36dbfd6245cd", "fusion_lon": 0.0, "fusion_lat": 0.0, "type": "electric_scooter", "lon": -77.046719}, {"rental_uris": {"android": "https://dc.lft.to/lastmile_qr_scan", "ios": "https://dc.lft.to/lastmile_qr_scan"}, "is_reserved": 0, "is_disabled": 0, "bike_id": "018dcb51abc996f039176f6cd16ff439", "lat": 38.906500666666666, "name": "018dcb51abc996f039176f6cd16ff439", "fusion_lon": 0.0, "fusion_lat": 0.0, "type": "electric_scooter", "lon": -76.978085}, {"rental_uris": {"android": "https://dc.lft.to/lastmile_qr_scan", "ios": "https://dc.lft.to/lastmile_qr_scan"}, "is_reserved": 0, "is_disabled": 0, "bike_id": "26df7a39574e068af2db6edfccc0f05b", "lat": 38.94173766666667, "name": "26df7a39574e068af2db6edfccc0f05b", "fusion_lon": 0.0, "fusion_lat": 0.0, "type": "electric_scooter", "lon": -77.02557116666667}, {"rental_uris": {"android": "https://dc.lft.to/lastmile_qr_scan", "ios": "https://dc.lft.to/lastmile_qr_scan"}, "is_reserved": 0, "is_disabled": 0, "bike_id": "2d9dd303acf5ac62647ea29bde302056", "lat": 38.92460616666666, "name": "2d9dd303acf5ac62647ea29bde302056", "fusion_lon": 0.0, "fusion_lat": 0.0, "type": "electric_scooter", "lon": -77.02253783333333}, {"rental_uris": {"android": "https://dc.lft.to/lastmile_qr_scan", "ios": "https://dc.lft.to/lastmile_qr_scan"}, "is_reserved": 0, "is_disabled": 0, "bike_id": "60d6668cd2c5f8de5bbcb3c735c9dbed", "lat": 38.8843245, "name": "60d6668cd2c5f8de5bbcb3c735c9dbed", "fusion_lon": 0.0, "fusion_lat": 0.0, "type": "electric_scooter", "lon": -76.9959375}, {"rental_uris": {"android": "https://dc.lft.to/lastmile_qr_scan", "ios": "https://dc.lft.to/lastmile_qr_scan"}, "is_reserved": 0, "is_disabled": 0, "bike_id": "33045a7a46efd37a063a84f83e87a637", "lat": 38.92488816666667, "name": "33045a7a46efd37a063a84f83e87a637", "fusion_lon": 0.0, "fusion_lat": 0.0, "type": "electric_scooter", "lon": -77.02269583333333}, {"rental_uris": {"android": "https://dc.lft.to/lastmile_qr_scan", "ios": "https://dc.lft.to/lastmile_qr_scan"}, "is_reserved": 0, "is_disabled": 0, "bike_id": "bfa1964d1d7ffc9f67c7b8b472eb3410", "lat": 38.921519333333336, "name": "bfa1964d1d7ffc9f67c7b8b472eb3410", "fusion_lon": 0.0, "fusion_lat": 0.0, "type": "electric_scooter", "lon": -77.03871183333334}, {"rental_uris": {"android": "https://dc.lft.to/lastmile_qr_scan", "ios": "https://dc.lft.to/lastmile_qr_scan"}, "is_reserved": 0, "is_disabled": 0, "bike_id": "c1f2e50c9b22a0fd09c707ee8c003598", "lat": 38.89787066666667, "name": "c1f2e50c9b22a0fd09c707ee8c003598", "fusion_lon": 0.0, "fusion_lat": 0.0, "type": "electric_scooter", "lon": -77.03970633333333}, {"rental_uris": {"android": "https://dc.lft.to/lastmile_qr_scan", "ios": "https://dc.lft.to/lastmile_qr_scan"}, "is_reserved": 0, "is_disabled": 0, "bike_id": "57ebcfbf4cca39d7dbc7b78c2bd41421", "lat": 38.88453033333333, "name": "57ebcfbf4cca39d7dbc7b78c2bd41421", "fusion_lon": 0.0, "fusion_lat": 0.0, "type": "electric_scooter", "lon": -76.993887}, {"rental_uris": {"android": "https://dc.lft.to/lastmile_qr_scan", "ios": "https://dc.lft.to/lastmile_qr_scan"}, "is_reserved": 0, "is_disabled": 0, "bike_id": "0a7fca8d01c7db91a2ae168355ae79fb", "lat": 38.90376833333333, "name": "0a7fca8d01c7db91a2ae168355ae79fb", "fusion_lon": 0.0, "fusion_lat": 0.0, "type": "electric_scooter", "lon": -77.00751466666667}, {"rental_uris": {"android": "https://dc.lft.to/lastmile_qr_scan", "ios": "https://dc.lft.to/lastmile_qr_scan"}, "is_reserved": 0, "is_disabled": 0, "bike_id": "9052464beb2719eafaed64e600326488", "lat": 38.900362666666666, "name": "9052464beb2719eafaed64e600326488", "fusion_lon": 0.0, "fusion_lat": 0.0, "type": "electric_scooter", "lon": -77.03304716666666}, {"rental_uris": {"android": "https://dc.lft.to/lastmile_qr_scan", "ios": "https://dc.lft.to/lastmile_qr_scan"}, "is_reserved": 0, "is_disabled": 0, "bike_id": "f248bee298b7f83d40742eae4cfe14b0", "lat": 38.92797683333333, "name": "f248bee298b7f83d40742eae4cfe14b0", "fusion_lon": 0.0, "fusion_lat": 0.0, "type": "electric_scooter", "lon": -77.04354683333334}, {"rental_uris": {"android": "https://dc.lft.to/lastmile_qr_scan", "ios": "https://dc.lft.to/lastmile_qr_scan"}, "is_reserved": 0, "is_disabled": 0, "bike_id": "578d198dc8fec0521fee6a05975f44cb", "lat": 38.9336415, "name": "578d198dc8fec0521fee6a05975f44cb", "fusion_lon": 0.0, "fusion_lat": 0.0, "type": "electric_scooter", "lon": -77.03258666666666}, {"rental_uris": {"android": "https://dc.lft.to/lastmile_qr_scan", "ios": "https://dc.lft.to/lastmile_qr_scan"}, "is_reserved": 0, "is_disabled": 0, "bike_id": "34f600b2ed0b871bfac4c7462db39b49", "lat": 38.919047666666664, "name": "34f600b2ed0b871bfac4c7462db39b49", "fusion_lon": 0.0, "fusion_lat": 0.0, "type": "electric_scooter", "lon": -77.02296883333334}, {"rental_uris": {"android": "https://dc.lft.to/lastmile_qr_scan", "ios": "https://dc.lft.to/lastmile_qr_scan"}, "is_reserved": 0, "is_disabled": 0, "bike_id": "28b0e8f4c5fa2f2cb92e255b07bbc4ee", "lat": 38.82786566666667, "name": "28b0e8f4c5fa2f2cb92e255b07bbc4ee", "fusion_lon": 0.0, "fusion_lat": 0.0, "type": "electric_bike", "lon": -77.00914}, {"rental_uris": {"android": "https://dc.lft.to/lastmile_qr_scan", "ios": "https://dc.lft.to/lastmile_qr_scan"}, "is_reserved": 0, "is_disabled": 0, "bike_id": "428da47cf0189342119caace3416ba0d", "lat": 38.922621666666664, "name": "428da47cf0189342119caace3416ba0d", "fusion_lon": 0.0, "fusion_lat": 0.0, "type": "electric_scooter", "lon": -77.02029333333333}, {"rental_uris": {"android": "https://dc.lft.to/lastmile_qr_scan", "ios": "https://dc.lft.to/lastmile_qr_scan"}, "is_reserved": 0, "is_disabled": 0, "bike_id": "ed02b8d3f775260aa2b17d5efda49c26", "lat": 38.89236066666667, "name": "ed02b8d3f775260aa2b17d5efda49c26", "fusion_lon": 0.0, "fusion_lat": 0.0, "type": "electric_scooter", "lon": -77.04367483333333}, {"rental_uris": {"android": "https://dc.lft.to/lastmile_qr_scan", "ios": "https://dc.lft.to/lastmile_qr_scan"}, "is_reserved": 0, "is_disabled": 0, "bike_id": "b8d5cd090cfcb4ef16751fdfbe4d578c", "lat": 38.92361666666667, "name": "b8d5cd090cfcb4ef16751fdfbe4d578c", "fusion_lon": 0.0, "fusion_lat": 0.0, "type": "electric_scooter", "lon": -77.0504175}, {"rental_uris": {"android": "https://dc.lft.to/lastmile_qr_scan", "ios": "https://dc.lft.to/lastmile_qr_scan"}, "is_reserved": 0, "is_disabled": 0, "bike_id": "b7fdec610788a7894d42a3421bafb93d", "lat": 38.9081685, "name": "b7fdec610788a7894d42a3421bafb93d", "fusion_lon": 0.0, "fusion_lat": 0.0, "type": "electric_scooter", "lon": -77.04345766666667}, {"rental_uris": {"android": "https://dc.lft.to/lastmile_qr_scan", "ios": "https://dc.lft.to/lastmile_qr_scan"}, "is_reserved": 0, "is_disabled": 0, "bike_id": "8474fde2bea1ad7f18cf86cbc81ea2ec", "lat": 38.92365616666667, "name": "8474fde2bea1ad7f18cf86cbc81ea2ec", "fusion_lon": 0.0, "fusion_lat": 0.0, "type": "electric_scooter", "lon": -77.0196}, {"rental_uris": {"android": "https://dc.lft.to/lastmile_qr_scan", "ios": "https://dc.lft.to/lastmile_qr_scan"}, "is_reserved": 0, "is_disabled": 0, "bike_id": "429a3ab2f90bd770c19d56302e203f73", "lat": 38.899465166666666, "name": "429a3ab2f90bd770c19d56302e203f73", "fusion_lon": 0.0, "fusion_lat": 0.0, "type": "electric_scooter", "lon": -77.04485733333334}, {"rental_uris": {"android": "https://dc.lft.to/lastmile_qr_scan", "ios": "https://dc.lft.to/lastmile_qr_scan"}, "is_reserved": 0, "is_disabled": 0, "bike_id": "1885fe9a36f601d367f2fab1af76d0e6", "lat": 38.892221666666664, "name": "1885fe9a36f601d367f2fab1af76d0e6", "fusion_lon": 0.0, "fusion_lat": 0.0, "type": "electric_scooter", "lon": -77.0262805}, {"rental_uris": {"android": "https://dc.lft.to/lastmile_qr_scan", "ios": "https://dc.lft.to/lastmile_qr_scan"}, "is_reserved": 0, "is_disabled": 0, "bike_id": "210b1b9e3bb02ab0703e640275398095", "lat": 38.90786333333333, "name": "210b1b9e3bb02ab0703e640275398095", "fusion_lon": 0.0, "fusion_lat": 0.0, "type": "electric_scooter", "lon": -77.0227785}, {"rental_uris": {"android": "https://dc.lft.to/lastmile_qr_scan", "ios": "https://dc.lft.to/lastmile_qr_scan"}, "is_reserved": 0, "is_disabled": 0, "bike_id": "715be5a2abc2ca5229ea6086b6642880", "lat": 38.878162, "name": "715be5a2abc2ca5229ea6086b6642880", "fusion_lon": 0.0, "fusion_lat": 0.0, "type": "electric_scooter", "lon": -77.0134125}, {"rental_uris": {"android": "https://dc.lft.to/lastmile_qr_scan", "ios": "https://dc.lft.to/lastmile_qr_scan"}, "is_reserved": 0, "is_disabled": 0, "bike_id": "b49a59e9395b87705ba1815e5efb4f82", "lat": 38.89196283333333, "name": "b49a59e9395b87705ba1815e5efb4f82", "fusion_lon": 0.0, "fusion_lat": 0.0, "type": "electric_scooter", "lon": -77.02765816666667}, {"rental_uris": {"android": "https://dc.lft.to/lastmile_qr_scan", "ios": "https://dc.lft.to/lastmile_qr_scan"}, "is_reserved": 0, "is_disabled": 0, "bike_id": "b5bb6ad22945eaf4c9bebc68342b8933", "lat": 38.96745516666667, "name": "b5bb6ad22945eaf4c9bebc68342b8933", "fusion_lon": 0.0, "fusion_lat": 0.0, "type": "electric_bike", "lon": -76.98189866666667}, {"rental_uris": {"android": "https://dc.lft.to/lastmile_qr_scan", "ios": "https://dc.lft.to/lastmile_qr_scan"}, "is_reserved": 0, "is_disabled": 0, "bike_id": "4269774feedfcd6bbc0dd5403af32254", "lat": 38.90083516666667, "name": "4269774feedfcd6bbc0dd5403af32254", "fusion_lon": 0.0, "fusion_lat": 0.0, "type": "electric_scooter", "lon": -77.02233916666667}, {"rental_uris": {"android": "https://dc.lft.to/lastmile_qr_scan", "ios": "https://dc.lft.to/lastmile_qr_scan"}, "is_reserved": 0, "is_disabled": 0, "bike_id": "a2e603f62c1eb16350fca26d0f4a4f18", "lat": 38.92363, "name": "a2e603f62c1eb16350fca26d0f4a4f18", "fusion_lon": 0.0, "fusion_lat": 0.0, "type": "electric_scooter", "lon": -77.0512845}, {"rental_uris": {"android": "https://dc.lft.to/lastmile_qr_scan", "ios": "https://dc.lft.to/lastmile_qr_scan"}, "is_reserved": 0, "is_disabled": 0, "bike_id": "b12aeb450825f3e64b669781b77f9689", "lat": 38.90962866666667, "name": "b12aeb450825f3e64b669781b77f9689", "fusion_lon": 0.0, "fusion_lat": 0.0, "type": "electric_scooter", "lon": -77.01168866666667}, {"rental_uris": {"android": "https://dc.lft.to/lastmile_qr_scan", "ios": "https://dc.lft.to/lastmile_qr_scan"}, "is_reserved": 0, "is_disabled": 0, "bike_id": "3dde47c79e3d44a4833a32d317064fe7", "lat": 38.9043645, "name": "3dde47c79e3d44a4833a32d317064fe7", "fusion_lon": 0.0, "fusion_lat": 0.0, "type": "electric_scooter", "lon": -77.04639533333334}, {"rental_uris": {"android": "https://dc.lft.to/lastmile_qr_scan", "ios": "https://dc.lft.to/lastmile_qr_scan"}, "is_reserved": 0, "is_disabled": 0, "bike_id": "71dce2a8f9267e56b9c781364b90fa13", "lat": 38.90782516666667, "name": "71dce2a8f9267e56b9c781364b90fa13", "fusion_lon": 0.0, "fusion_lat": 0.0, "type": "electric_scooter", "lon": -77.03761466666667}, {"rental_uris": {"android": "https://dc.lft.to/lastmile_qr_scan", "ios": "https://dc.lft.to/lastmile_qr_scan"}, "is_reserved": 0, "is_disabled": 0, "bike_id": "b48d077ae1419dcdf88283d558a42b27", "lat": 38.906589833333335, "name": "b48d077ae1419dcdf88283d558a42b27", "fusion_lon": 0.0, "fusion_lat": 0.0, "type": "electric_scooter", "lon": -77.02705433333334}, {"rental_uris": {"android": "https://dc.lft.to/lastmile_qr_scan", "ios": "https://dc.lft.to/lastmile_qr_scan"}, "is_reserved": 0, "is_disabled": 0, "bike_id": "0958bdc4c4b92d1d1405eff798daddc0", "lat": 38.902615, "name": "0958bdc4c4b92d1d1405eff798daddc0", "fusion_lon": 0.0, "fusion_lat": 0.0, "type": "electric_scooter", "lon": -77.0215285}, {"rental_uris": {"android": "https://dc.lft.to/lastmile_qr_scan", "ios": "https://dc.lft.to/lastmile_qr_scan"}, "is_reserved": 0, "is_disabled": 0, "bike_id": "d890f233b78b55c207dcddba14b5b28e", "lat": 38.934174666666664, "name": "d890f233b78b55c207dcddba14b5b28e", "fusion_lon": 0.0, "fusion_lat": 0.0, "type": "electric_scooter", "lon": -77.02838783333333}, {"rental_uris": {"android": "https://dc.lft.to/lastmile_qr_scan", "ios": "https://dc.lft.to/lastmile_qr_scan"}, "is_reserved": 0, "is_disabled": 0, "bike_id": "307838ef98f4eee497cbc637f04efb71", "lat": 38.932607, "name": "307838ef98f4eee497cbc637f04efb71", "fusion_lon": 0.0, "fusion_lat": 0.0, "type": "electric_scooter", "lon": -77.0326015}, {"rental_uris": {"android": "https://dc.lft.to/lastmile_qr_scan", "ios": "https://dc.lft.to/lastmile_qr_scan"}, "is_reserved": 0, "is_disabled": 0, "bike_id": "dd93a48750e52cce5e3b298eaefd4047", "lat": 38.92274483333333, "name": "dd93a48750e52cce5e3b298eaefd4047", "fusion_lon": 0.0, "fusion_lat": 0.0, "type": "electric_scooter", "lon": -77.0363925}, {"rental_uris": {"android": "https://dc.lft.to/lastmile_qr_scan", "ios": "https://dc.lft.to/lastmile_qr_scan"}, "is_reserved": 0, "is_disabled": 0, "bike_id": "356594e05926a271a40a30bd1a8bf436", "lat": 38.89196666666667, "name": "356594e05926a271a40a30bd1a8bf436", "fusion_lon": 0.0, "fusion_lat": 0.0, "type": "electric_scooter", "lon": -76.99851233333334}, {"rental_uris": {"android": "https://dc.lft.to/lastmile_qr_scan", "ios": "https://dc.lft.to/lastmile_qr_scan"}, "is_reserved": 0, "is_disabled": 0, "bike_id": "b28a631c5ca66182b53d3ae4238d6bd0", "lat": 39.014770166666665, "name": "b28a631c5ca66182b53d3ae4238d6bd0", "fusion_lon": 0.0, "fusion_lat": 0.0, "type": "electric_bike", "lon": -77.05491983333333}, {"rental_uris": {"android": "https://dc.lft.to/lastmile_qr_scan", "ios": "https://dc.lft.to/lastmile_qr_scan"}, "is_reserved": 0, "is_disabled": 0, "bike_id": "4ac3edaccf26a3148d2d6ca1caaed5f3", "lat": 38.895980333333334, "name": "4ac3edaccf26a3148d2d6ca1caaed5f3", "fusion_lon": 0.0, "fusion_lat": 0.0, "type": "electric_scooter", "lon": -77.02587916666667}, {"rental_uris": {"android": "https://dc.lft.to/lastmile_qr_scan", "ios": "https://dc.lft.to/lastmile_qr_scan"}, "is_reserved": 0, "is_disabled": 0, "bike_id": "6f691230d16f4518e38ba2c107031192", "lat": 38.90263183333333, "name": "6f691230d16f4518e38ba2c107031192", "fusion_lon": 0.0, "fusion_lat": 0.0, "type": "electric_scooter", "lon": -77.03971283333334}, {"rental_uris": {"android": "https://dc.lft.to/lastmile_qr_scan", "ios": "https://dc.lft.to/lastmile_qr_scan"}, "is_reserved": 0, "is_disabled": 0, "bike_id": "eacbeb2313090319aa828e86f28ea765", "lat": 38.92050016666666, "name": "eacbeb2313090319aa828e86f28ea765", "fusion_lon": 0.0, "fusion_lat": 0.0, "type": "electric_scooter", "lon": -77.03459333333333}, {"rental_uris": {"android": "https://dc.lft.to/lastmile_qr_scan", "ios": "https://dc.lft.to/lastmile_qr_scan"}, "is_reserved": 0, "is_disabled": 0, "bike_id": "111890714462ebd224375e896cc83f7e", "lat": 38.90574216666667, "name": "111890714462ebd224375e896cc83f7e", "fusion_lon": 0.0, "fusion_lat": 0.0, "type": "electric_scooter", "lon": -77.04433466666667}, {"rental_uris": {"android": "https://dc.lft.to/lastmile_qr_scan", "ios": "https://dc.lft.to/lastmile_qr_scan"}, "is_reserved": 0, "is_disabled": 0, "bike_id": "e5f185b2c1ed011afa3b46e346641adc", "lat": 38.899707166666666, "name": "e5f185b2c1ed011afa3b46e346641adc", "fusion_lon": 0.0, "fusion_lat": 0.0, "type": "electric_scooter", "lon": -77.04717866666667}, {"rental_uris": {"android": "https://dc.lft.to/lastmile_qr_scan", "ios": "https://dc.lft.to/lastmile_qr_scan"}, "is_reserved": 0, "is_disabled": 0, "bike_id": "90b50e1bb1ecb0b91a93583a7c9d7289", "lat": 38.906944833333334, "name": "90b50e1bb1ecb0b91a93583a7c9d7289", "fusion_lon": 0.0, "fusion_lat": 0.0, "type": "electric_bike", "lon": -76.95247966666666}, {"rental_uris": {"android": "https://dc.lft.to/lastmile_qr_scan", "ios": "https://dc.lft.to/lastmile_qr_scan"}, "is_reserved": 0, "is_disabled": 0, "bike_id": "a131b83b254e427da05cd0c7416509d9", "lat": 38.92365183333333, "name": "a131b83b254e427da05cd0c7416509d9", "fusion_lon": 0.0, "fusion_lat": 0.0, "type": "electric_scooter", "lon": -77.052714}, {"rental_uris": {"android": "https://dc.lft.to/lastmile_qr_scan", "ios": "https://dc.lft.to/lastmile_qr_scan"}, "is_reserved": 0, "is_disabled": 0, "bike_id": "ca7daef91ef150a227414886df433d3e", "lat": 38.887312, "name": "ca7daef91ef150a227414886df433d3e", "fusion_lon": 0.0, "fusion_lat": 0.0, "type": "electric_scooter", "lon": -77.02822166666667}, {"rental_uris": {"android": "https://dc.lft.to/lastmile_qr_scan", "ios": "https://dc.lft.to/lastmile_qr_scan"}, "is_reserved": 0, "is_disabled": 0, "bike_id": "63eb96134aba0ad6516fd8d932edb72f", "lat": 38.9027115, "name": "63eb96134aba0ad6516fd8d932edb72f", "fusion_lon": 0.0, "fusion_lat": 0.0, "type": "electric_scooter", "lon": -77.03394416666667}, {"rental_uris": {"android": "https://dc.lft.to/lastmile_qr_scan", "ios": "https://dc.lft.to/lastmile_qr_scan"}, "is_reserved": 0, "is_disabled": 0, "bike_id": "b17be9651608aa29116a0f47b36d456d", "lat": 38.945972166666664, "name": "b17be9651608aa29116a0f47b36d456d", "fusion_lon": 0.0, "fusion_lat": 0.0, "type": "electric_bike", "lon": -77.00708833333333}, {"rental_uris": {"android": "https://dc.lft.to/lastmile_qr_scan", "ios": "https://dc.lft.to/lastmile_qr_scan"}, "is_reserved": 0, "is_disabled": 0, "bike_id": "7241e58d168e6ad5cfb2e6417da502a8", "lat": 38.92575683333333, "name": "7241e58d168e6ad5cfb2e6417da502a8", "fusion_lon": 0.0, "fusion_lat": 0.0, "type": "electric_scooter", "lon": -77.03912483333333}, {"rental_uris": {"android": "https://dc.lft.to/lastmile_qr_scan", "ios": "https://dc.lft.to/lastmile_qr_scan"}, "is_reserved": 0, "is_disabled": 0, "bike_id": "870c98d8e98ed2a21290ad098d232cbf", "lat": 38.85207833333333, "name": "870c98d8e98ed2a21290ad098d232cbf", "fusion_lon": 0.0, "fusion_lat": 0.0, "type": "electric_bike", "lon": -77.10125216666667}, {"rental_uris": {"android": "https://dc.lft.to/lastmile_qr_scan", "ios": "https://dc.lft.to/lastmile_qr_scan"}, "is_reserved": 0, "is_disabled": 0, "bike_id": "28b654249c4ed7be9fc48312ea66e354", "lat": 38.91870633333333, "name": "28b654249c4ed7be9fc48312ea66e354", "fusion_lon": 0.0, "fusion_lat": 0.0, "type": "electric_scooter", "lon": -77.03219633333333}, {"rental_uris": {"android": "https://dc.lft.to/lastmile_qr_scan", "ios": "https://dc.lft.to/lastmile_qr_scan"}, "is_reserved": 0, "is_disabled": 0, "bike_id": "548097b57f68dd7aabbdeeb2772ef348", "lat": 38.892381, "name": "548097b57f68dd7aabbdeeb2772ef348", "fusion_lon": 0.0, "fusion_lat": 0.0, "type": "electric_scooter", "lon": -77.032092}, {"rental_uris": {"android": "https://dc.lft.to/lastmile_qr_scan", "ios": "https://dc.lft.to/lastmile_qr_scan"}, "is_reserved": 0, "is_disabled": 0, "bike_id": "29d8b11a067bd62e5a184e89b7031be1", "lat": 38.89373366666667, "name": "29d8b11a067bd62e5a184e89b7031be1", "fusion_lon": 0.0, "fusion_lat": 0.0, "type": "electric_scooter", "lon": -76.9498535}, {"rental_uris": {"android": "https://dc.lft.to/lastmile_qr_scan", "ios": "https://dc.lft.to/lastmile_qr_scan"}, "is_reserved": 0, "is_disabled": 0, "bike_id": "4fd0f44b6eb63626928a843b45a1132c", "lat": 38.90433916666667, "name": "4fd0f44b6eb63626928a843b45a1132c", "fusion_lon": 0.0, "fusion_lat": 0.0, "type": "electric_scooter", "lon": -77.03207083333334}, {"rental_uris": {"android": "https://dc.lft.to/lastmile_qr_scan", "ios": "https://dc.lft.to/lastmile_qr_scan"}, "is_reserved": 0, "is_disabled": 0, "bike_id": "0b6e85c9ed2364b02384b5204735b98e", "lat": 38.89913883333333, "name": "0b6e85c9ed2364b02384b5204735b98e", "fusion_lon": 0.0, "fusion_lat": 0.0, "type": "electric_scooter", "lon": -76.93366316666666}, {"rental_uris": {"android": "https://dc.lft.to/lastmile_qr_scan", "ios": "https://dc.lft.to/lastmile_qr_scan"}, "is_reserved": 0, "is_disabled": 0, "bike_id": "5647c71e2ded2155d42a7bd6ab35819c", "lat": 38.92647133333333, "name": "5647c71e2ded2155d42a7bd6ab35819c", "fusion_lon": 0.0, "fusion_lat": 0.0, "type": "electric_scooter", "lon": -77.03299766666666}, {"rental_uris": {"android": "https://dc.lft.to/lastmile_qr_scan", "ios": "https://dc.lft.to/lastmile_qr_scan"}, "is_reserved": 0, "is_disabled": 0, "bike_id": "18faecfea6c86124fda0d4e46ceafb81", "lat": 38.86690633333333, "name": "18faecfea6c86124fda0d4e46ceafb81", "fusion_lon": 0.0, "fusion_lat": 0.0, "type": "electric_scooter", "lon": -76.98539766666667}, {"rental_uris": {"android": "https://dc.lft.to/lastmile_qr_scan", "ios": "https://dc.lft.to/lastmile_qr_scan"}, "is_reserved": 0, "is_disabled": 0, "bike_id": "6d4dc83540fd657a0a7432b5a3c80ac2", "lat": 38.914048333333334, "name": "6d4dc83540fd657a0a7432b5a3c80ac2", "fusion_lon": 0.0, "fusion_lat": 0.0, "type": "electric_scooter", "lon": -77.0245355}, {"rental_uris": {"android": "https://dc.lft.to/lastmile_qr_scan", "ios": "https://dc.lft.to/lastmile_qr_scan"}, "is_reserved": 0, "is_disabled": 0, "bike_id": "13f88658180260be44ae375e0dd4b231", "lat": 38.9346355, "name": "13f88658180260be44ae375e0dd4b231", "fusion_lon": 0.0, "fusion_lat": 0.0, "type": "electric_scooter", "lon": -77.0276325}, {"rental_uris": {"android": "https://dc.lft.to/lastmile_qr_scan", "ios": "https://dc.lft.to/lastmile_qr_scan"}, "is_reserved": 0, "is_disabled": 0, "bike_id": "105f414be036ad317b114aaed4248b7c", "lat": 38.921479, "name": "105f414be036ad317b114aaed4248b7c", "fusion_lon": 0.0, "fusion_lat": 0.0, "type": "electric_scooter", "lon": -77.03507283333333}, {"rental_uris": {"android": "https://dc.lft.to/lastmile_qr_scan", "ios": "https://dc.lft.to/lastmile_qr_scan"}, "is_reserved": 0, "is_disabled": 0, "bike_id": "d505f4b726c58024931c37b7d73a0ef0", "lat": 38.946693333333336, "name": "d505f4b726c58024931c37b7d73a0ef0", "fusion_lon": 0.0, "fusion_lat": 0.0, "type": "electric_bike", "lon": -76.98309283333333}, {"rental_uris": {"android": "https://dc.lft.to/lastmile_qr_scan", "ios": "https://dc.lft.to/lastmile_qr_scan"}, "is_reserved": 0, "is_disabled": 0, "bike_id": "d99c1b0b28bc22c440591dbcd3833921", "lat": 38.922372333333335, "name": "d99c1b0b28bc22c440591dbcd3833921", "fusion_lon": 0.0, "fusion_lat": 0.0, "type": "electric_scooter", "lon": -77.04244383333334}, {"rental_uris": {"android": "https://dc.lft.to/lastmile_qr_scan", "ios": "https://dc.lft.to/lastmile_qr_scan"}, "is_reserved": 0, "is_disabled": 0, "bike_id": "b060bc9f13aca1574613e7036188bd8d", "lat": 38.86246166666667, "name": "b060bc9f13aca1574613e7036188bd8d", "fusion_lon": 0.0, "fusion_lat": 0.0, "type": "electric_scooter", "lon": -76.99498916666667}, {"rental_uris": {"android": "https://dc.lft.to/lastmile_qr_scan", "ios": "https://dc.lft.to/lastmile_qr_scan"}, "is_reserved": 0, "is_disabled": 0, "bike_id": "c281c90fb6005e3d986a63924693b2be", "lat": 38.98159066666667, "name": "c281c90fb6005e3d986a63924693b2be", "fusion_lon": 0.0, "fusion_lat": 0.0, "type": "electric_bike", "lon": -77.0263925}, {"rental_uris": {"android": "https://dc.lft.to/lastmile_qr_scan", "ios": "https://dc.lft.to/lastmile_qr_scan"}, "is_reserved": 0, "is_disabled": 0, "bike_id": "57a6bf3f95ea06f0cfb72526d39b99d7", "lat": 38.864921, "name": "57a6bf3f95ea06f0cfb72526d39b99d7", "fusion_lon": 0.0, "fusion_lat": 0.0, "type": "electric_bike", "lon": -76.977398}, {"rental_uris": {"android": "https://dc.lft.to/lastmile_qr_scan", "ios": "https://dc.lft.to/lastmile_qr_scan"}, "is_reserved": 0, "is_disabled": 0, "bike_id": "6d0c32f4ee6f25d5a154853cb9a24f7b", "lat": 38.8946115, "name": "6d0c32f4ee6f25d5a154853cb9a24f7b", "fusion_lon": 0.0, "fusion_lat": 0.0, "type": "electric_bike", "lon": -77.0781185}, {"rental_uris": {"android": "https://dc.lft.to/lastmile_qr_scan", "ios": "https://dc.lft.to/lastmile_qr_scan"}, "is_reserved": 0, "is_disabled": 0, "bike_id": "a285a3d1c16096a84d7ee9655c345334", "lat": 38.896159, "name": "a285a3d1c16096a84d7ee9655c345334", "fusion_lon": 0.0, "fusion_lat": 0.0, "type": "electric_scooter", "lon": -77.012133}, {"rental_uris": {"android": "https://dc.lft.to/lastmile_qr_scan", "ios": "https://dc.lft.to/lastmile_qr_scan"}, "is_reserved": 0, "is_disabled": 0, "bike_id": "693806dd3b564c28189b60aa6258d225", "lat": 38.892282333333334, "name": "693806dd3b564c28189b60aa6258d225", "fusion_lon": 0.0, "fusion_lat": 0.0, "type": "electric_scooter", "lon": -77.00309266666666}, {"rental_uris": {"android": "https://dc.lft.to/lastmile_qr_scan", "ios": "https://dc.lft.to/lastmile_qr_scan"}, "is_reserved": 0, "is_disabled": 0, "bike_id": "a27e12d86650dfbdc33b89be51287085", "lat": 38.89223366666667, "name": "a27e12d86650dfbdc33b89be51287085", "fusion_lon": 0.0, "fusion_lat": 0.0, "type": "electric_scooter", "lon": -77.04330883333333}, {"rental_uris": {"android": "https://dc.lft.to/lastmile_qr_scan", "ios": "https://dc.lft.to/lastmile_qr_scan"}, "is_reserved": 0, "is_disabled": 0, "bike_id": "9c345c2aeeffb803210d68dcfebf3eb5", "lat": 38.89894533333333, "name": "9c345c2aeeffb803210d68dcfebf3eb5", "fusion_lon": 0.0, "fusion_lat": 0.0, "type": "electric_bike", "lon": -77.007369}, {"rental_uris": {"android": "https://dc.lft.to/lastmile_qr_scan", "ios": "https://dc.lft.to/lastmile_qr_scan"}, "is_reserved": 0, "is_disabled": 0, "bike_id": "4c64888038c45346d4e1ad9969893f33", "lat": 38.923610333333336, "name": "4c64888038c45346d4e1ad9969893f33", "fusion_lon": 0.0, "fusion_lat": 0.0, "type": "electric_scooter", "lon": -77.050582}, {"rental_uris": {"android": "https://dc.lft.to/lastmile_qr_scan", "ios": "https://dc.lft.to/lastmile_qr_scan"}, "is_reserved": 0, "is_disabled": 0, "bike_id": "79411bd08259d41c74808d51e970614f", "lat": 38.922001333333334, "name": "79411bd08259d41c74808d51e970614f", "fusion_lon": 0.0, "fusion_lat": 0.0, "type": "electric_scooter", "lon": -77.0183795}, {"rental_uris": {"android": "https://dc.lft.to/lastmile_qr_scan", "ios": "https://dc.lft.to/lastmile_qr_scan"}, "is_reserved": 0, "is_disabled": 0, "bike_id": "8b840f0fc73eccd30158c20ad8c04d9d", "lat": 38.936092333333335, "name": "8b840f0fc73eccd30158c20ad8c04d9d", "fusion_lon": 0.0, "fusion_lat": 0.0, "type": "electric_scooter", "lon": -77.0588315}, {"rental_uris": {"android": "https://dc.lft.to/lastmile_qr_scan", "ios": "https://dc.lft.to/lastmile_qr_scan"}, "is_reserved": 0, "is_disabled": 0, "bike_id": "ef43df3a056e1275d5e9c322d630d4c3", "lat": 38.875038333333336, "name": "ef43df3a056e1275d5e9c322d630d4c3", "fusion_lon": 0.0, "fusion_lat": 0.0, "type": "electric_scooter", "lon": -77.00039283333334}, {"rental_uris": {"android": "https://dc.lft.to/lastmile_qr_scan", "ios": "https://dc.lft.to/lastmile_qr_scan"}, "is_reserved": 0, "is_disabled": 0, "bike_id": "787e64af1e284f9e02a5538aed4528c0", "lat": 38.9054625, "name": "787e64af1e284f9e02a5538aed4528c0", "fusion_lon": 0.0, "fusion_lat": 0.0, "type": "electric_scooter", "lon": -77.00680333333334}, {"rental_uris": {"android": "https://dc.lft.to/lastmile_qr_scan", "ios": "https://dc.lft.to/lastmile_qr_scan"}, "is_reserved": 0, "is_disabled": 0, "bike_id": "ef7c727fbb376a6c8271cc0a0a9bdf9e", "lat": 38.898458, "name": "ef7c727fbb376a6c8271cc0a0a9bdf9e", "fusion_lon": 0.0, "fusion_lat": 0.0, "type": "electric_scooter", "lon": -77.0436335}, {"rental_uris": {"android": "https://dc.lft.to/lastmile_qr_scan", "ios": "https://dc.lft.to/lastmile_qr_scan"}, "is_reserved": 0, "is_disabled": 0, "bike_id": "f8835473279c5005616da222db023518", "lat": 38.923153666666664, "name": "f8835473279c5005616da222db023518", "fusion_lon": 0.0, "fusion_lat": 0.0, "type": "electric_scooter", "lon": -77.03804466666666}, {"rental_uris": {"android": "https://dc.lft.to/lastmile_qr_scan", "ios": "https://dc.lft.to/lastmile_qr_scan"}, "is_reserved": 0, "is_disabled": 0, "bike_id": "567def4a6e5594f2e723c72e08d3d5de", "lat": 38.914764166666664, "name": "567def4a6e5594f2e723c72e08d3d5de", "fusion_lon": 0.0, "fusion_lat": 0.0, "type": "electric_scooter", "lon": -77.02576866666666}, {"rental_uris": {"android": "https://dc.lft.to/lastmile_qr_scan", "ios": "https://dc.lft.to/lastmile_qr_scan"}, "is_reserved": 0, "is_disabled": 0, "bike_id": "6616aa345943ecf73f7b44043a3792a2", "lat": 38.928322333333334, "name": "6616aa345943ecf73f7b44043a3792a2", "fusion_lon": 0.0, "fusion_lat": 0.0, "type": "electric_scooter", "lon": -77.0137695}, {"rental_uris": {"android": "https://dc.lft.to/lastmile_qr_scan", "ios": "https://dc.lft.to/lastmile_qr_scan"}, "is_reserved": 0, "is_disabled": 0, "bike_id": "609db4e2da00aa7ae66b1369a25dcf87", "lat": 38.93982616666667, "name": "609db4e2da00aa7ae66b1369a25dcf87", "fusion_lon": 0.0, "fusion_lat": 0.0, "type": "electric_scooter", "lon": -77.03007483333333}, {"rental_uris": {"android": "https://dc.lft.to/lastmile_qr_scan", "ios": "https://dc.lft.to/lastmile_qr_scan"}, "is_reserved": 0, "is_disabled": 0, "bike_id": "7d5332a8d11fb1fcaf7ccb93b9d77539", "lat": 38.85804016666667, "name": "7d5332a8d11fb1fcaf7ccb93b9d77539", "fusion_lon": 0.0, "fusion_lat": 0.0, "type": "electric_scooter", "lon": -76.991426}, {"rental_uris": {"android": "https://dc.lft.to/lastmile_qr_scan", "ios": "https://dc.lft.to/lastmile_qr_scan"}, "is_reserved": 0, "is_disabled": 0, "bike_id": "5bc9770ae9808a42437640b9f66228fb", "lat": 38.905608666666666, "name": "5bc9770ae9808a42437640b9f66228fb", "fusion_lon": 0.0, "fusion_lat": 0.0, "type": "electric_scooter", "lon": -77.00602316666667}, {"rental_uris": {"android": "https://dc.lft.to/lastmile_qr_scan", "ios": "https://dc.lft.to/lastmile_qr_scan"}, "is_reserved": 0, "is_disabled": 0, "bike_id": "c2da28c5321b14b98f6a3c5421275d74", "lat": 38.93541883333333, "name": "c2da28c5321b14b98f6a3c5421275d74", "fusion_lon": 0.0, "fusion_lat": 0.0, "type": "electric_scooter", "lon": -77.0582695}, {"rental_uris": {"android": "https://dc.lft.to/lastmile_qr_scan", "ios": "https://dc.lft.to/lastmile_qr_scan"}, "is_reserved": 0, "is_disabled": 0, "bike_id": "73cea5b11bced9df429e998f3ddd9e7d", "lat": 38.92603233333333, "name": "73cea5b11bced9df429e998f3ddd9e7d", "fusion_lon": 0.0, "fusion_lat": 0.0, "type": "electric_scooter", "lon": -77.02152683333334}, {"rental_uris": {"android": "https://dc.lft.to/lastmile_qr_scan", "ios": "https://dc.lft.to/lastmile_qr_scan"}, "is_reserved": 0, "is_disabled": 0, "bike_id": "8bf674379bd4fd824482d3512f57b4c6", "lat": 38.904376666666664, "name": "8bf674379bd4fd824482d3512f57b4c6", "fusion_lon": 0.0, "fusion_lat": 0.0, "type": "electric_scooter", "lon": -77.03644783333333}, {"rental_uris": {"android": "https://dc.lft.to/lastmile_qr_scan", "ios": "https://dc.lft.to/lastmile_qr_scan"}, "is_reserved": 0, "is_disabled": 0, "bike_id": "fd24d8af6777ae1e7f3a859f88f5d359", "lat": 38.92573183333333, "name": "fd24d8af6777ae1e7f3a859f88f5d359", "fusion_lon": 0.0, "fusion_lat": 0.0, "type": "electric_scooter", "lon": -77.02840116666667}, {"rental_uris": {"android": "https://dc.lft.to/lastmile_qr_scan", "ios": "https://dc.lft.to/lastmile_qr_scan"}, "is_reserved": 0, "is_disabled": 0, "bike_id": "135da3c893f9f7f1213b2bfb77df8df6", "lat": 38.894981, "name": "135da3c893f9f7f1213b2bfb77df8df6", "fusion_lon": 0.0, "fusion_lat": 0.0, "type": "electric_scooter", "lon": -77.0094655}, {"rental_uris": {"android": "https://dc.lft.to/lastmile_qr_scan", "ios": "https://dc.lft.to/lastmile_qr_scan"}, "is_reserved": 0, "is_disabled": 0, "bike_id": "3da91bd1a3bcd58707c88442834d4ef5", "lat": 38.90941866666667, "name": "3da91bd1a3bcd58707c88442834d4ef5", "fusion_lon": 0.0, "fusion_lat": 0.0, "type": "electric_scooter", "lon": -77.04388416666667}, {"rental_uris": {"android": "https://dc.lft.to/lastmile_qr_scan", "ios": "https://dc.lft.to/lastmile_qr_scan"}, "is_reserved": 0, "is_disabled": 0, "bike_id": "8ac00d22c21ea59fdeffa4903b9535b9", "lat": 38.920028, "name": "8ac00d22c21ea59fdeffa4903b9535b9", "fusion_lon": 0.0, "fusion_lat": 0.0, "type": "electric_scooter", "lon": -77.02136633333333}, {"rental_uris": {"android": "https://dc.lft.to/lastmile_qr_scan", "ios": "https://dc.lft.to/lastmile_qr_scan"}, "is_reserved": 0, "is_disabled": 0, "bike_id": "15187d7e2d7392661580e1a08d273758", "lat": 39.0471895, "name": "15187d7e2d7392661580e1a08d273758", "fusion_lon": 0.0, "fusion_lat": 0.0, "type": "electric_bike", "lon": -77.0438445}, {"rental_uris": {"android": "https://dc.lft.to/lastmile_qr_scan", "ios": "https://dc.lft.to/lastmile_qr_scan"}, "is_reserved": 0, "is_disabled": 0, "bike_id": "6cfdf6edf77ad5db6d36253e5814c59f", "lat": 38.887660333333336, "name": "6cfdf6edf77ad5db6d36253e5814c59f", "fusion_lon": 0.0, "fusion_lat": 0.0, "type": "electric_scooter", "lon": -76.95575033333333}, {"rental_uris": {"android": "https://dc.lft.to/lastmile_qr_scan", "ios": "https://dc.lft.to/lastmile_qr_scan"}, "is_reserved": 0, "is_disabled": 0, "bike_id": "0e164eb47a5bf97341dff9cdedd9e951", "lat": 38.920179166666664, "name": "0e164eb47a5bf97341dff9cdedd9e951", "fusion_lon": 0.0, "fusion_lat": 0.0, "type": "electric_scooter", "lon": -76.98541966666667}, {"rental_uris": {"android": "https://dc.lft.to/lastmile_qr_scan", "ios": "https://dc.lft.to/lastmile_qr_scan"}, "is_reserved": 0, "is_disabled": 0, "bike_id": "23314808f9faa7f8ff095e5f51c5bc90", "lat": 38.91727266666667, "name": "23314808f9faa7f8ff095e5f51c5bc90", "fusion_lon": 0.0, "fusion_lat": 0.0, "type": "electric_scooter", "lon": -77.029707}, {"rental_uris": {"android": "https://dc.lft.to/lastmile_qr_scan", "ios": "https://dc.lft.to/lastmile_qr_scan"}, "is_reserved": 0, "is_disabled": 0, "bike_id": "85e5b26c9d30d888e0bb4a2b5402b82b", "lat": 38.901359166666666, "name": "85e5b26c9d30d888e0bb4a2b5402b82b", "fusion_lon": 0.0, "fusion_lat": 0.0, "type": "electric_scooter", "lon": -77.04331566666667}, {"rental_uris": {"android": "https://dc.lft.to/lastmile_qr_scan", "ios": "https://dc.lft.to/lastmile_qr_scan"}, "is_reserved": 0, "is_disabled": 0, "bike_id": "0e182022d5592d15e48d1396efe89d5a", "lat": 38.921900666666666, "name": "0e182022d5592d15e48d1396efe89d5a", "fusion_lon": 0.0, "fusion_lat": 0.0, "type": "electric_scooter", "lon": -77.04319966666667}, {"rental_uris": {"android": "https://dc.lft.to/lastmile_qr_scan", "ios": "https://dc.lft.to/lastmile_qr_scan"}, "is_reserved": 0, "is_disabled": 0, "bike_id": "cc05c20b472a76bec98bed65525d368f", "lat": 38.919507, "name": "cc05c20b472a76bec98bed65525d368f", "fusion_lon": 0.0, "fusion_lat": 0.0, "type": "electric_scooter", "lon": -77.025017}, {"rental_uris": {"android": "https://dc.lft.to/lastmile_qr_scan", "ios": "https://dc.lft.to/lastmile_qr_scan"}, "is_reserved": 0, "is_disabled": 0, "bike_id": "626c2c610bb4d3b03ccd9b30c3bd3573", "lat": 38.90480733333333, "name": "626c2c610bb4d3b03ccd9b30c3bd3573", "fusion_lon": 0.0, "fusion_lat": 0.0, "type": "electric_bike", "lon": -76.97316683333334}, {"rental_uris": {"android": "https://dc.lft.to/lastmile_qr_scan", "ios": "https://dc.lft.to/lastmile_qr_scan"}, "is_reserved": 0, "is_disabled": 0, "bike_id": "596596aaaf64cecd191243db69f87a41", "lat": 38.919156666666666, "name": "596596aaaf64cecd191243db69f87a41", "fusion_lon": 0.0, "fusion_lat": 0.0, "type": "electric_scooter", "lon": -77.03149733333333}, {"rental_uris": {"android": "https://dc.lft.to/lastmile_qr_scan", "ios": "https://dc.lft.to/lastmile_qr_scan"}, "is_reserved": 0, "is_disabled": 0, "bike_id": "6006c8f6ffdd15de60dcb0528a7d7a75", "lat": 38.9000615, "name": "6006c8f6ffdd15de60dcb0528a7d7a75", "fusion_lon": 0.0, "fusion_lat": 0.0, "type": "electric_scooter", "lon": -77.01259116666667}, {"rental_uris": {"android": "https://dc.lft.to/lastmile_qr_scan", "ios": "https://dc.lft.to/lastmile_qr_scan"}, "is_reserved": 0, "is_disabled": 0, "bike_id": "ddc6ffbbb12d9ca46d411c6a7ca186f1", "lat": 38.92441316666667, "name": "ddc6ffbbb12d9ca46d411c6a7ca186f1", "fusion_lon": 0.0, "fusion_lat": 0.0, "type": "electric_scooter", "lon": -77.0340345}, {"rental_uris": {"android": "https://dc.lft.to/lastmile_qr_scan", "ios": "https://dc.lft.to/lastmile_qr_scan"}, "is_reserved": 0, "is_disabled": 0, "bike_id": "5d9d4e011774812d938ec8bc19436bf7", "lat": 38.90012016666667, "name": "5d9d4e011774812d938ec8bc19436bf7", "fusion_lon": 0.0, "fusion_lat": 0.0, "type": "electric_scooter", "lon": -76.93029683333333}, {"rental_uris": {"android": "https://dc.lft.to/lastmile_qr_scan", "ios": "https://dc.lft.to/lastmile_qr_scan"}, "is_reserved": 0, "is_disabled": 0, "bike_id": "52c846832843ef669ba96dafe6c1d08d", "lat": 38.866532, "name": "52c846832843ef669ba96dafe6c1d08d", "fusion_lon": 0.0, "fusion_lat": 0.0, "type": "electric_scooter", "lon": -76.98520933333333}, {"rental_uris": {"android": "https://dc.lft.to/lastmile_qr_scan", "ios": "https://dc.lft.to/lastmile_qr_scan"}, "is_reserved": 0, "is_disabled": 0, "bike_id": "00bd83793d43d4ea2830e93f7c7fb729", "lat": 38.9236055, "name": "00bd83793d43d4ea2830e93f7c7fb729", "fusion_lon": 0.0, "fusion_lat": 0.0, "type": "electric_scooter", "lon": -77.07303433333334}, {"rental_uris": {"android": "https://dc.lft.to/lastmile_qr_scan", "ios": "https://dc.lft.to/lastmile_qr_scan"}, "is_reserved": 0, "is_disabled": 0, "bike_id": "166fcc46f65c5ab8a7ef37839d2cf4d9", "lat": 38.93102316666667, "name": "166fcc46f65c5ab8a7ef37839d2cf4d9", "fusion_lon": 0.0, "fusion_lat": 0.0, "type": "electric_scooter", "lon": -77.02657616666667}, {"rental_uris": {"android": "https://dc.lft.to/lastmile_qr_scan", "ios": "https://dc.lft.to/lastmile_qr_scan"}, "is_reserved": 0, "is_disabled": 0, "bike_id": "a8e4cd42e841d57d07c94c3a7e1fd401", "lat": 38.899808666666665, "name": "a8e4cd42e841d57d07c94c3a7e1fd401", "fusion_lon": 0.0, "fusion_lat": 0.0, "type": "electric_scooter", "lon": -77.027234}, {"rental_uris": {"android": "https://dc.lft.to/lastmile_qr_scan", "ios": "https://dc.lft.to/lastmile_qr_scan"}, "is_reserved": 0, "is_disabled": 0, "bike_id": "ed12ed1725522fd4c79bfb956be69413", "lat": 38.897132166666665, "name": "ed12ed1725522fd4c79bfb956be69413", "fusion_lon": 0.0, "fusion_lat": 0.0, "type": "electric_scooter", "lon": -77.027048}, {"rental_uris": {"android": "https://dc.lft.to/lastmile_qr_scan", "ios": "https://dc.lft.to/lastmile_qr_scan"}, "is_reserved": 0, "is_disabled": 0, "bike_id": "76db23f3e44cb9dfddef9e9729dc9aba", "lat": 38.8922295, "name": "76db23f3e44cb9dfddef9e9729dc9aba", "fusion_lon": 0.0, "fusion_lat": 0.0, "type": "electric_scooter", "lon": -77.0148755}, {"rental_uris": {"android": "https://dc.lft.to/lastmile_qr_scan", "ios": "https://dc.lft.to/lastmile_qr_scan"}, "is_reserved": 0, "is_disabled": 0, "bike_id": "dd41e5de9b29abf3f5821c86d0dfc6ef", "lat": 38.925391166666664, "name": "dd41e5de9b29abf3f5821c86d0dfc6ef", "fusion_lon": 0.0, "fusion_lat": 0.0, "type": "electric_scooter", "lon": -76.97221816666666}, {"rental_uris": {"android": "https://dc.lft.to/lastmile_qr_scan", "ios": "https://dc.lft.to/lastmile_qr_scan"}, "is_reserved": 0, "is_disabled": 0, "bike_id": "e6b4f59012a134d4eae8871a01fae7e1", "lat": 38.866992333333336, "name": "e6b4f59012a134d4eae8871a01fae7e1", "fusion_lon": 0.0, "fusion_lat": 0.0, "type": "electric_scooter", "lon": -76.98589716666666}, {"rental_uris": {"android": "https://dc.lft.to/lastmile_qr_scan", "ios": "https://dc.lft.to/lastmile_qr_scan"}, "is_reserved": 0, "is_disabled": 0, "bike_id": "08201481fbb1791e319f32fae2b8b501", "lat": 38.91553183333333, "name": "08201481fbb1791e319f32fae2b8b501", "fusion_lon": 0.0, "fusion_lat": 0.0, "type": "electric_scooter", "lon": -77.02423183333333}, {"rental_uris": {"android": "https://dc.lft.to/lastmile_qr_scan", "ios": "https://dc.lft.to/lastmile_qr_scan"}, "is_reserved": 0, "is_disabled": 0, "bike_id": "632421edaec84912a08fbe7c346149aa", "lat": 38.898937333333336, "name": "632421edaec84912a08fbe7c346149aa", "fusion_lon": 0.0, "fusion_lat": 0.0, "type": "electric_scooter", "lon": -77.04031}, {"rental_uris": {"android": "https://dc.lft.to/lastmile_qr_scan", "ios": "https://dc.lft.to/lastmile_qr_scan"}, "is_reserved": 0, "is_disabled": 0, "bike_id": "92e635b19494cc6fe4dc7fcefd377aba", "lat": 38.926240166666666, "name": "92e635b19494cc6fe4dc7fcefd377aba", "fusion_lon": 0.0, "fusion_lat": 0.0, "type": "electric_scooter", "lon": -77.04314016666666}, {"rental_uris": {"android": "https://dc.lft.to/lastmile_qr_scan", "ios": "https://dc.lft.to/lastmile_qr_scan"}, "is_reserved": 0, "is_disabled": 0, "bike_id": "1ff1adb0ed97b9f1383a2277bc26fd66", "lat": 38.92146266666666, "name": "1ff1adb0ed97b9f1383a2277bc26fd66", "fusion_lon": 0.0, "fusion_lat": 0.0, "type": "electric_scooter", "lon": -77.03505166666666}, {"rental_uris": {"android": "https://dc.lft.to/lastmile_qr_scan", "ios": "https://dc.lft.to/lastmile_qr_scan"}, "is_reserved": 0, "is_disabled": 0, "bike_id": "9d2c6036863c3f1144cbe97697f1e468", "lat": 38.907473833333334, "name": "9d2c6036863c3f1144cbe97697f1e468", "fusion_lon": 0.0, "fusion_lat": 0.0, "type": "electric_scooter", "lon": -77.041434}, {"rental_uris": {"android": "https://dc.lft.to/lastmile_qr_scan", "ios": "https://dc.lft.to/lastmile_qr_scan"}, "is_reserved": 0, "is_disabled": 0, "bike_id": "28841013ccc08ee0e11d6a6059ab6279", "lat": 38.892805, "name": "28841013ccc08ee0e11d6a6059ab6279", "fusion_lon": 0.0, "fusion_lat": 0.0, "type": "electric_scooter", "lon": -77.05030233333333}, {"rental_uris": {"android": "https://dc.lft.to/lastmile_qr_scan", "ios": "https://dc.lft.to/lastmile_qr_scan"}, "is_reserved": 0, "is_disabled": 0, "bike_id": "383c0ef1154f64b34812031022c757ab", "lat": 38.90035833333334, "name": "383c0ef1154f64b34812031022c757ab", "fusion_lon": 0.0, "fusion_lat": 0.0, "type": "electric_scooter", "lon": -76.98844233333334}, {"rental_uris": {"android": "https://dc.lft.to/lastmile_qr_scan", "ios": "https://dc.lft.to/lastmile_qr_scan"}, "is_reserved": 0, "is_disabled": 0, "bike_id": "fac93ccd317a83bac5bd32cc817e854c", "lat": 38.917073333333335, "name": "fac93ccd317a83bac5bd32cc817e854c", "fusion_lon": 0.0, "fusion_lat": 0.0, "type": "electric_scooter", "lon": -77.04594566666667}, {"rental_uris": {"android": "https://dc.lft.to/lastmile_qr_scan", "ios": "https://dc.lft.to/lastmile_qr_scan"}, "is_reserved": 0, "is_disabled": 0, "bike_id": "131bb003b5775947165690c4432fcd0c", "lat": 38.897346, "name": "131bb003b5775947165690c4432fcd0c", "fusion_lon": 0.0, "fusion_lat": 0.0, "type": "electric_scooter", "lon": -77.02714266666666}, {"rental_uris": {"android": "https://dc.lft.to/lastmile_qr_scan", "ios": "https://dc.lft.to/lastmile_qr_scan"}, "is_reserved": 0, "is_disabled": 0, "bike_id": "dd599fbb3e1e06b55b0796ce56587269", "lat": 38.89961683333333, "name": "dd599fbb3e1e06b55b0796ce56587269", "fusion_lon": 0.0, "fusion_lat": 0.0, "type": "electric_scooter", "lon": -77.0334475}, {"rental_uris": {"android": "https://dc.lft.to/lastmile_qr_scan", "ios": "https://dc.lft.to/lastmile_qr_scan"}, "is_reserved": 0, "is_disabled": 0, "bike_id": "3ca3fa38c5c912b9f636142c1bc9e830", "lat": 38.89415833333334, "name": "3ca3fa38c5c912b9f636142c1bc9e830", "fusion_lon": 0.0, "fusion_lat": 0.0, "type": "electric_scooter", "lon": -77.02204083333334}, {"rental_uris": {"android": "https://dc.lft.to/lastmile_qr_scan", "ios": "https://dc.lft.to/lastmile_qr_scan"}, "is_reserved": 0, "is_disabled": 0, "bike_id": "b1a47e2c56a50965a2f6a8f3b9f0eb7e", "lat": 38.90343516666667, "name": "b1a47e2c56a50965a2f6a8f3b9f0eb7e", "fusion_lon": 0.0, "fusion_lat": 0.0, "type": "electric_scooter", "lon": -76.98267383333334}, {"rental_uris": {"android": "https://dc.lft.to/lastmile_qr_scan", "ios": "https://dc.lft.to/lastmile_qr_scan"}, "is_reserved": 0, "is_disabled": 0, "bike_id": "5342deeb4c1bfe610fd7162fa7cede5e", "lat": 38.903706166666666, "name": "5342deeb4c1bfe610fd7162fa7cede5e", "fusion_lon": 0.0, "fusion_lat": 0.0, "type": "electric_scooter", "lon": -77.04492816666666}, {"rental_uris": {"android": "https://dc.lft.to/lastmile_qr_scan", "ios": "https://dc.lft.to/lastmile_qr_scan"}, "is_reserved": 0, "is_disabled": 0, "bike_id": "a33d6253ff4b5d6e9de1b4c336beb03c", "lat": 38.8964425, "name": "a33d6253ff4b5d6e9de1b4c336beb03c", "fusion_lon": 0.0, "fusion_lat": 0.0, "type": "electric_scooter", "lon": -76.9993885}, {"rental_uris": {"android": "https://dc.lft.to/lastmile_qr_scan", "ios": "https://dc.lft.to/lastmile_qr_scan"}, "is_reserved": 0, "is_disabled": 0, "bike_id": "4214900ca7cabbfa3afdfc82bbd3f459", "lat": 38.93634183333333, "name": "4214900ca7cabbfa3afdfc82bbd3f459", "fusion_lon": 0.0, "fusion_lat": 0.0, "type": "electric_scooter", "lon": -77.03268833333334}, {"rental_uris": {"android": "https://dc.lft.to/lastmile_qr_scan", "ios": "https://dc.lft.to/lastmile_qr_scan"}, "is_reserved": 0, "is_disabled": 0, "bike_id": "a407fff2337a809b6acf70310b08135b", "lat": 38.9025325, "name": "a407fff2337a809b6acf70310b08135b", "fusion_lon": 0.0, "fusion_lat": 0.0, "type": "electric_scooter", "lon": -77.03437733333334}, {"rental_uris": {"android": "https://dc.lft.to/lastmile_qr_scan", "ios": "https://dc.lft.to/lastmile_qr_scan"}, "is_reserved": 0, "is_disabled": 0, "bike_id": "dee3ed2184702fcd5fb636b95462e615", "lat": 38.87373616666667, "name": "dee3ed2184702fcd5fb636b95462e615", "fusion_lon": 0.0, "fusion_lat": 0.0, "type": "electric_scooter", "lon": -77.001263}, {"rental_uris": {"android": "https://dc.lft.to/lastmile_qr_scan", "ios": "https://dc.lft.to/lastmile_qr_scan"}, "is_reserved": 0, "is_disabled": 0, "bike_id": "a419d0662f250a5d6b61e7857d48b7e0", "lat": 38.91546816666666, "name": "a419d0662f250a5d6b61e7857d48b7e0", "fusion_lon": 0.0, "fusion_lat": 0.0, "type": "electric_scooter", "lon": -76.98363566666667}, {"rental_uris": {"android": "https://dc.lft.to/lastmile_qr_scan", "ios": "https://dc.lft.to/lastmile_qr_scan"}, "is_reserved": 0, "is_disabled": 0, "bike_id": "1a2442bdd82cdb4bfbc3e4d05c477c93", "lat": 38.962551500000004, "name": "1a2442bdd82cdb4bfbc3e4d05c477c93", "fusion_lon": 0.0, "fusion_lat": 0.0, "type": "electric_scooter", "lon": -77.0277605}, {"rental_uris": {"android": "https://dc.lft.to/lastmile_qr_scan", "ios": "https://dc.lft.to/lastmile_qr_scan"}, "is_reserved": 0, "is_disabled": 0, "bike_id": "bdf44eb18cb0b8e3c469e150f97833b4", "lat": 38.928122, "name": "bdf44eb18cb0b8e3c469e150f97833b4", "fusion_lon": 0.0, "fusion_lat": 0.0, "type": "electric_scooter", "lon": -77.0267035}, {"rental_uris": {"android": "https://dc.lft.to/lastmile_qr_scan", "ios": "https://dc.lft.to/lastmile_qr_scan"}, "is_reserved": 0, "is_disabled": 0, "bike_id": "6fa8eb1453a6ee9ca27b9e1535a8f282", "lat": 38.91394233333333, "name": "6fa8eb1453a6ee9ca27b9e1535a8f282", "fusion_lon": 0.0, "fusion_lat": 0.0, "type": "electric_scooter", "lon": -77.01893433333333}, {"rental_uris": {"android": "https://dc.lft.to/lastmile_qr_scan", "ios": "https://dc.lft.to/lastmile_qr_scan"}, "is_reserved": 0, "is_disabled": 0, "bike_id": "d534939e95a51e1a3ce2150deb64f865", "lat": 38.93858433333333, "name": "d534939e95a51e1a3ce2150deb64f865", "fusion_lon": 0.0, "fusion_lat": 0.0, "type": "electric_scooter", "lon": -77.02648516666666}, {"rental_uris": {"android": "https://dc.lft.to/lastmile_qr_scan", "ios": "https://dc.lft.to/lastmile_qr_scan"}, "is_reserved": 0, "is_disabled": 0, "bike_id": "812ae6130f470c2f6ba948746a2d0eff", "lat": 38.919197833333335, "name": "812ae6130f470c2f6ba948746a2d0eff", "fusion_lon": 0.0, "fusion_lat": 0.0, "type": "electric_bike", "lon": -77.0702525}, {"rental_uris": {"android": "https://dc.lft.to/lastmile_qr_scan", "ios": "https://dc.lft.to/lastmile_qr_scan"}, "is_reserved": 0, "is_disabled": 0, "bike_id": "ff3334ef1b7daa2f087ed2552e616132", "lat": 38.90078, "name": "ff3334ef1b7daa2f087ed2552e616132", "fusion_lon": 0.0, "fusion_lat": 0.0, "type": "electric_scooter", "lon": -77.03931733333333}, {"rental_uris": {"android": "https://dc.lft.to/lastmile_qr_scan", "ios": "https://dc.lft.to/lastmile_qr_scan"}, "is_reserved": 0, "is_disabled": 0, "bike_id": "caf8bf9645e136edc2d7509385a2ab39", "lat": 38.93890366666667, "name": "caf8bf9645e136edc2d7509385a2ab39", "fusion_lon": 0.0, "fusion_lat": 0.0, "type": "electric_scooter", "lon": -77.02828433333333}, {"rental_uris": {"android": "https://dc.lft.to/lastmile_qr_scan", "ios": "https://dc.lft.to/lastmile_qr_scan"}, "is_reserved": 0, "is_disabled": 0, "bike_id": "12a060c26b2396986d477e628e01db74", "lat": 38.845075, "name": "12a060c26b2396986d477e628e01db74", "fusion_lon": 0.0, "fusion_lat": 0.0, "type": "electric_bike", "lon": -76.99349533333333}, {"rental_uris": {"android": "https://dc.lft.to/lastmile_qr_scan", "ios": "https://dc.lft.to/lastmile_qr_scan"}, "is_reserved": 0, "is_disabled": 0, "bike_id": "32761d72d2f9c902d25184319d9f0bfb", "lat": 38.960302, "name": "32761d72d2f9c902d25184319d9f0bfb", "fusion_lon": 0.0, "fusion_lat": 0.0, "type": "electric_bike", "lon": -77.03407216666666}, {"rental_uris": {"android": "https://dc.lft.to/lastmile_qr_scan", "ios": "https://dc.lft.to/lastmile_qr_scan"}, "is_reserved": 0, "is_disabled": 0, "bike_id": "d29747cd4da58b2adea1d409c8cdc637", "lat": 38.92237166666666, "name": "d29747cd4da58b2adea1d409c8cdc637", "fusion_lon": 0.0, "fusion_lat": 0.0, "type": "electric_scooter", "lon": -77.02202183333333}, {"rental_uris": {"android": "https://dc.lft.to/lastmile_qr_scan", "ios": "https://dc.lft.to/lastmile_qr_scan"}, "is_reserved": 0, "is_disabled": 0, "bike_id": "9a8c79dbf7c8e946377b1dd54fd58184", "lat": 38.8827025, "name": "9a8c79dbf7c8e946377b1dd54fd58184", "fusion_lon": 0.0, "fusion_lat": 0.0, "type": "electric_scooter", "lon": -76.99012916666666}, {"rental_uris": {"android": "https://dc.lft.to/lastmile_qr_scan", "ios": "https://dc.lft.to/lastmile_qr_scan"}, "is_reserved": 0, "is_disabled": 0, "bike_id": "bb840c81a41e9dc61d46ad55ecf50f95", "lat": 38.8922015, "name": "bb840c81a41e9dc61d46ad55ecf50f95", "fusion_lon": 0.0, "fusion_lat": 0.0, "type": "electric_scooter", "lon": -77.01367033333334}, {"rental_uris": {"android": "https://dc.lft.to/lastmile_qr_scan", "ios": "https://dc.lft.to/lastmile_qr_scan"}, "is_reserved": 0, "is_disabled": 0, "bike_id": "2c4925ed11767b7d196c9e133bfa6859", "lat": 38.913300666666665, "name": "2c4925ed11767b7d196c9e133bfa6859", "fusion_lon": 0.0, "fusion_lat": 0.0, "type": "electric_scooter", "lon": -77.0453095}, {"rental_uris": {"android": "https://dc.lft.to/lastmile_qr_scan", "ios": "https://dc.lft.to/lastmile_qr_scan"}, "is_reserved": 0, "is_disabled": 0, "bike_id": "5a8feed31c072eff47a801a302c6897e", "lat": 38.905931, "name": "5a8feed31c072eff47a801a302c6897e", "fusion_lon": 0.0, "fusion_lat": 0.0, "type": "electric_scooter", "lon": -77.0384615}, {"rental_uris": {"android": "https://dc.lft.to/lastmile_qr_scan", "ios": "https://dc.lft.to/lastmile_qr_scan"}, "is_reserved": 0, "is_disabled": 0, "bike_id": "8e859d371def80d40e58c22c81ddcb6d", "lat": 38.902271, "name": "8e859d371def80d40e58c22c81ddcb6d", "fusion_lon": 0.0, "fusion_lat": 0.0, "type": "electric_scooter", "lon": -77.06039033333333}, {"rental_uris": {"android": "https://dc.lft.to/lastmile_qr_scan", "ios": "https://dc.lft.to/lastmile_qr_scan"}, "is_reserved": 0, "is_disabled": 0, "bike_id": "e19920456801faed4594bfc2297d8f4f", "lat": 38.87925233333333, "name": "e19920456801faed4594bfc2297d8f4f", "fusion_lon": 0.0, "fusion_lat": 0.0, "type": "electric_scooter", "lon": -76.992545}, {"rental_uris": {"android": "https://dc.lft.to/lastmile_qr_scan", "ios": "https://dc.lft.to/lastmile_qr_scan"}, "is_reserved": 0, "is_disabled": 0, "bike_id": "86341bf9acf2c538dba1a38e30ff00bf", "lat": 38.90410216666667, "name": "86341bf9acf2c538dba1a38e30ff00bf", "fusion_lon": 0.0, "fusion_lat": 0.0, "type": "electric_scooter", "lon": -76.98083966666667}, {"rental_uris": {"android": "https://dc.lft.to/lastmile_qr_scan", "ios": "https://dc.lft.to/lastmile_qr_scan"}, "is_reserved": 0, "is_disabled": 0, "bike_id": "bb7305b321451610661c8cc2726e2ccc", "lat": 38.8801785, "name": "bb7305b321451610661c8cc2726e2ccc", "fusion_lon": 0.0, "fusion_lat": 0.0, "type": "electric_scooter", "lon": -77.02475533333333}, {"rental_uris": {"android": "https://dc.lft.to/lastmile_qr_scan", "ios": "https://dc.lft.to/lastmile_qr_scan"}, "is_reserved": 0, "is_disabled": 0, "bike_id": "162df68e9e8049120b97c14382f53afc", "lat": 38.9038265, "name": "162df68e9e8049120b97c14382f53afc", "fusion_lon": 0.0, "fusion_lat": 0.0, "type": "electric_scooter", "lon": -77.04425066666667}, {"rental_uris": {"android": "https://dc.lft.to/lastmile_qr_scan", "ios": "https://dc.lft.to/lastmile_qr_scan"}, "is_reserved": 0, "is_disabled": 0, "bike_id": "b3ab88cbcff5cdb8590521cd0a6ddbec", "lat": 38.923367666666664, "name": "b3ab88cbcff5cdb8590521cd0a6ddbec", "fusion_lon": 0.0, "fusion_lat": 0.0, "type": "electric_scooter", "lon": -77.036113}, {"rental_uris": {"android": "https://dc.lft.to/lastmile_qr_scan", "ios": "https://dc.lft.to/lastmile_qr_scan"}, "is_reserved": 0, "is_disabled": 0, "bike_id": "0264f98a633778064ebd48b2f9928cb6", "lat": 38.85491666666667, "name": "0264f98a633778064ebd48b2f9928cb6", "fusion_lon": 0.0, "fusion_lat": 0.0, "type": "electric_bike", "lon": -77.116131}, {"rental_uris": {"android": "https://dc.lft.to/lastmile_qr_scan", "ios": "https://dc.lft.to/lastmile_qr_scan"}, "is_reserved": 0, "is_disabled": 0, "bike_id": "3e965c46882dd6ab16f4302bbc76c5c2", "lat": 38.9214055, "name": "3e965c46882dd6ab16f4302bbc76c5c2", "fusion_lon": 0.0, "fusion_lat": 0.0, "type": "electric_scooter", "lon": -77.03507066666667}, {"rental_uris": {"android": "https://dc.lft.to/lastmile_qr_scan", "ios": "https://dc.lft.to/lastmile_qr_scan"}, "is_reserved": 0, "is_disabled": 0, "bike_id": "d0295ecefd6ca217205a08163b638c0c", "lat": 38.9038835, "name": "d0295ecefd6ca217205a08163b638c0c", "fusion_lon": 0.0, "fusion_lat": 0.0, "type": "electric_scooter", "lon": -77.0388495}, {"rental_uris": {"android": "https://dc.lft.to/lastmile_qr_scan", "ios": "https://dc.lft.to/lastmile_qr_scan"}, "is_reserved": 0, "is_disabled": 0, "bike_id": "64dbb2700513da3c38324d50b0b3c297", "lat": 38.9111945, "name": "64dbb2700513da3c38324d50b0b3c297", "fusion_lon": 0.0, "fusion_lat": 0.0, "type": "electric_scooter", "lon": -77.0315135}, {"rental_uris": {"android": "https://dc.lft.to/lastmile_qr_scan", "ios": "https://dc.lft.to/lastmile_qr_scan"}, "is_reserved": 0, "is_disabled": 0, "bike_id": "ce5b4a8d23fe5f7c945aeefce9474d4c", "lat": 38.94632033333333, "name": "ce5b4a8d23fe5f7c945aeefce9474d4c", "fusion_lon": 0.0, "fusion_lat": 0.0, "type": "electric_scooter", "lon": -77.01840316666667}, {"rental_uris": {"android": "https://dc.lft.to/lastmile_qr_scan", "ios": "https://dc.lft.to/lastmile_qr_scan"}, "is_reserved": 0, "is_disabled": 0, "bike_id": "b41d9c9282058f5dc6d71b4dcf6484bc", "lat": 38.91870683333333, "name": "b41d9c9282058f5dc6d71b4dcf6484bc", "fusion_lon": 0.0, "fusion_lat": 0.0, "type": "electric_bike", "lon": -77.03633833333333}, {"rental_uris": {"android": "https://dc.lft.to/lastmile_qr_scan", "ios": "https://dc.lft.to/lastmile_qr_scan"}, "is_reserved": 0, "is_disabled": 0, "bike_id": "b336c76fb3c6074fc499027716cf3458", "lat": 38.92968283333333, "name": "b336c76fb3c6074fc499027716cf3458", "fusion_lon": 0.0, "fusion_lat": 0.0, "type": "electric_bike", "lon": -77.18563466666667}, {"rental_uris": {"android": "https://dc.lft.to/lastmile_qr_scan", "ios": "https://dc.lft.to/lastmile_qr_scan"}, "is_reserved": 0, "is_disabled": 0, "bike_id": "b0565d1b206a0280b83ab35c3d3cd821", "lat": 38.95327283333334, "name": "b0565d1b206a0280b83ab35c3d3cd821", "fusion_lon": 0.0, "fusion_lat": 0.0, "type": "electric_bike", "lon": -76.98240916666667}, {"rental_uris": {"android": "https://dc.lft.to/lastmile_qr_scan", "ios": "https://dc.lft.to/lastmile_qr_scan"}, "is_reserved": 0, "is_disabled": 0, "bike_id": "6b6e1a5f47b1f9963ce3324ef86cc703", "lat": 38.95441, "name": "6b6e1a5f47b1f9963ce3324ef86cc703", "fusion_lon": 0.0, "fusion_lat": 0.0, "type": "electric_bike", "lon": -76.98909866666666}, {"rental_uris": {"android": "https://dc.lft.to/lastmile_qr_scan", "ios": "https://dc.lft.to/lastmile_qr_scan"}, "is_reserved": 0, "is_disabled": 0, "bike_id": "4abb6c9829f4dc5ed17d59f77c89766d", "lat": 39.054997666666665, "name": "4abb6c9829f4dc5ed17d59f77c89766d", "fusion_lon": 0.0, "fusion_lat": 0.0, "type": "electric_bike", "lon": -77.0464485}, {"rental_uris": {"android": "https://dc.lft.to/lastmile_qr_scan", "ios": "https://dc.lft.to/lastmile_qr_scan"}, "is_reserved": 0, "is_disabled": 0, "bike_id": "a08f9b46e64a2802c13a46449bbad54b", "lat": 38.931683666666665, "name": "a08f9b46e64a2802c13a46449bbad54b", "fusion_lon": 0.0, "fusion_lat": 0.0, "type": "electric_bike", "lon": -76.88396916666667}, {"rental_uris": {"android": "https://dc.lft.to/lastmile_qr_scan", "ios": "https://dc.lft.to/lastmile_qr_scan"}, "is_reserved": 0, "is_disabled": 0, "bike_id": "773822aef86af75f011f2e0c79965eac", "lat": 38.92733483333333, "name": "773822aef86af75f011f2e0c79965eac", "fusion_lon": 0.0, "fusion_lat": 0.0, "type": "electric_scooter", "lon": -77.052497}, {"rental_uris": {"android": "https://dc.lft.to/lastmile_qr_scan", "ios": "https://dc.lft.to/lastmile_qr_scan"}, "is_reserved": 0, "is_disabled": 0, "bike_id": "4451dea984747fe9db5ca9bca5951b15", "lat": 38.898961, "name": "4451dea984747fe9db5ca9bca5951b15", "fusion_lon": 0.0, "fusion_lat": 0.0, "type": "electric_scooter", "lon": -77.03925116666667}, {"rental_uris": {"android": "https://dc.lft.to/lastmile_qr_scan", "ios": "https://dc.lft.to/lastmile_qr_scan"}, "is_reserved": 0, "is_disabled": 0, "bike_id": "6c6a1768ec2f5941737d4a0ac7ab0d4d", "lat": 38.90037383333333, "name": "6c6a1768ec2f5941737d4a0ac7ab0d4d", "fusion_lon": 0.0, "fusion_lat": 0.0, "type": "electric_scooter", "lon": -77.00539433333333}, {"rental_uris": {"android": "https://dc.lft.to/lastmile_qr_scan", "ios": "https://dc.lft.to/lastmile_qr_scan"}, "is_reserved": 0, "is_disabled": 0, "bike_id": "71d42036c7b88380072a6a6148342382", "lat": 38.9155485, "name": "71d42036c7b88380072a6a6148342382", "fusion_lon": 0.0, "fusion_lat": 0.0, "type": "electric_scooter", "lon": -77.0119545}, {"rental_uris": {"android": "https://dc.lft.to/lastmile_qr_scan", "ios": "https://dc.lft.to/lastmile_qr_scan"}, "is_reserved": 0, "is_disabled": 0, "bike_id": "dbdee58f64af8359aae9080d2064f632", "lat": 38.930877, "name": "dbdee58f64af8359aae9080d2064f632", "fusion_lon": 0.0, "fusion_lat": 0.0, "type": "electric_scooter", "lon": -77.00409466666666}, {"rental_uris": {"android": "https://dc.lft.to/lastmile_qr_scan", "ios": "https://dc.lft.to/lastmile_qr_scan"}, "is_reserved": 0, "is_disabled": 0, "bike_id": "9b8a33deaeadca0d4f19e366cce2fb37", "lat": 38.936517, "name": "9b8a33deaeadca0d4f19e366cce2fb37", "fusion_lon": 0.0, "fusion_lat": 0.0, "type": "electric_scooter", "lon": -77.0326795}, {"rental_uris": {"android": "https://dc.lft.to/lastmile_qr_scan", "ios": "https://dc.lft.to/lastmile_qr_scan"}, "is_reserved": 0, "is_disabled": 0, "bike_id": "4251747d4e34ed229a464a01fced7a64", "lat": 38.890079166666666, "name": "4251747d4e34ed229a464a01fced7a64", "fusion_lon": 0.0, "fusion_lat": 0.0, "type": "electric_scooter", "lon": -76.958921}, {"rental_uris": {"android": "https://dc.lft.to/lastmile_qr_scan", "ios": "https://dc.lft.to/lastmile_qr_scan"}, "is_reserved": 0, "is_disabled": 0, "bike_id": "40845757ab4a1ef806dc193bf7b5262f", "lat": 38.900209833333335, "name": "40845757ab4a1ef806dc193bf7b5262f", "fusion_lon": 0.0, "fusion_lat": 0.0, "type": "electric_scooter", "lon": -77.0448865}, {"rental_uris": {"android": "https://dc.lft.to/lastmile_qr_scan", "ios": "https://dc.lft.to/lastmile_qr_scan"}, "is_reserved": 0, "is_disabled": 0, "bike_id": "19cd33796b7bfafb000b8bb5b08c0053", "lat": 38.92121983333333, "name": "19cd33796b7bfafb000b8bb5b08c0053", "fusion_lon": 0.0, "fusion_lat": 0.0, "type": "electric_scooter", "lon": -77.0463835}, {"rental_uris": {"android": "https://dc.lft.to/lastmile_qr_scan", "ios": "https://dc.lft.to/lastmile_qr_scan"}, "is_reserved": 0, "is_disabled": 0, "bike_id": "14566da8c5e8a670c00ccb14dc4aaa7a", "lat": 38.915426, "name": "14566da8c5e8a670c00ccb14dc4aaa7a", "fusion_lon": 0.0, "fusion_lat": 0.0, "type": "electric_scooter", "lon": -77.0379025}, {"rental_uris": {"android": "https://dc.lft.to/lastmile_qr_scan", "ios": "https://dc.lft.to/lastmile_qr_scan"}, "is_reserved": 0, "is_disabled": 0, "bike_id": "d9c5a5b0779333a89afd8ef59cda928c", "lat": 38.905560333333334, "name": "d9c5a5b0779333a89afd8ef59cda928c", "fusion_lon": 0.0, "fusion_lat": 0.0, "type": "electric_scooter", "lon": -77.0339945}, {"rental_uris": {"android": "https://dc.lft.to/lastmile_qr_scan", "ios": "https://dc.lft.to/lastmile_qr_scan"}, "is_reserved": 0, "is_disabled": 0, "bike_id": "3e0069410b31309fef31e696fe3b3fcc", "lat": 38.937081666666664, "name": "3e0069410b31309fef31e696fe3b3fcc", "fusion_lon": 0.0, "fusion_lat": 0.0, "type": "electric_scooter", "lon": -77.06103333333333}, {"rental_uris": {"android": "https://dc.lft.to/lastmile_qr_scan", "ios": "https://dc.lft.to/lastmile_qr_scan"}, "is_reserved": 0, "is_disabled": 0, "bike_id": "394a5ec35a168cef6f480efa242cddff", "lat": 38.952325, "name": "394a5ec35a168cef6f480efa242cddff", "fusion_lon": 0.0, "fusion_lat": 0.0, "type": "electric_scooter", "lon": -77.01425883333333}, {"rental_uris": {"android": "https://dc.lft.to/lastmile_qr_scan", "ios": "https://dc.lft.to/lastmile_qr_scan"}, "is_reserved": 0, "is_disabled": 0, "bike_id": "26c2ad42d88cc5d3cba209cad547d214", "lat": 38.92152133333333, "name": "26c2ad42d88cc5d3cba209cad547d214", "fusion_lon": 0.0, "fusion_lat": 0.0, "type": "electric_scooter", "lon": -77.0337235}, {"rental_uris": {"android": "https://dc.lft.to/lastmile_qr_scan", "ios": "https://dc.lft.to/lastmile_qr_scan"}, "is_reserved": 0, "is_disabled": 0, "bike_id": "f4cbb5f5739442fbad6b53ff7d533ffd", "lat": 38.89460716666667, "name": "f4cbb5f5739442fbad6b53ff7d533ffd", "fusion_lon": 0.0, "fusion_lat": 0.0, "type": "electric_scooter", "lon": -77.04672116666667}, {"rental_uris": {"android": "https://dc.lft.to/lastmile_qr_scan", "ios": "https://dc.lft.to/lastmile_qr_scan"}, "is_reserved": 0, "is_disabled": 0, "bike_id": "625a2d87a1a3f8fe7efdf4baae888764", "lat": 38.923630333333335, "name": "625a2d87a1a3f8fe7efdf4baae888764", "fusion_lon": 0.0, "fusion_lat": 0.0, "type": "electric_scooter", "lon": -77.0512805}, {"rental_uris": {"android": "https://dc.lft.to/lastmile_qr_scan", "ios": "https://dc.lft.to/lastmile_qr_scan"}, "is_reserved": 0, "is_disabled": 0, "bike_id": "7705ddbad35d21ba9c4720bfe2406f76", "lat": 38.89473266666667, "name": "7705ddbad35d21ba9c4720bfe2406f76", "fusion_lon": 0.0, "fusion_lat": 0.0, "type": "electric_scooter", "lon": -77.0013585}, {"rental_uris": {"android": "https://dc.lft.to/lastmile_qr_scan", "ios": "https://dc.lft.to/lastmile_qr_scan"}, "is_reserved": 0, "is_disabled": 0, "bike_id": "ca8a9dc46365b1bd497b7815682abfca", "lat": 38.91749566666667, "name": "ca8a9dc46365b1bd497b7815682abfca", "fusion_lon": 0.0, "fusion_lat": 0.0, "type": "electric_scooter", "lon": -77.04153583333333}, {"rental_uris": {"android": "https://dc.lft.to/lastmile_qr_scan", "ios": "https://dc.lft.to/lastmile_qr_scan"}, "is_reserved": 0, "is_disabled": 0, "bike_id": "e0ca82ec161e75ce7361355cdf3e4608", "lat": 38.927763166666665, "name": "e0ca82ec161e75ce7361355cdf3e4608", "fusion_lon": 0.0, "fusion_lat": 0.0, "type": "electric_scooter", "lon": -77.02311516666667}, {"rental_uris": {"android": "https://dc.lft.to/lastmile_qr_scan", "ios": "https://dc.lft.to/lastmile_qr_scan"}, "is_reserved": 0, "is_disabled": 0, "bike_id": "5945f8b53f1f5fc347d7794def910fc0", "lat": 38.911834, "name": "5945f8b53f1f5fc347d7794def910fc0", "fusion_lon": 0.0, "fusion_lat": 0.0, "type": "electric_scooter", "lon": -77.04466533333333}, {"rental_uris": {"android": "https://dc.lft.to/lastmile_qr_scan", "ios": "https://dc.lft.to/lastmile_qr_scan"}, "is_reserved": 0, "is_disabled": 0, "bike_id": "8036256425fcdc4e5e2ebdadff9cec1b", "lat": 38.923714, "name": "8036256425fcdc4e5e2ebdadff9cec1b", "fusion_lon": 0.0, "fusion_lat": 0.0, "type": "electric_scooter", "lon": -77.02913883333333}, {"rental_uris": {"android": "https://dc.lft.to/lastmile_qr_scan", "ios": "https://dc.lft.to/lastmile_qr_scan"}, "is_reserved": 0, "is_disabled": 0, "bike_id": "207a3a81b97888fb722b49c0f52c452d", "lat": 38.9266285, "name": "207a3a81b97888fb722b49c0f52c452d", "fusion_lon": 0.0, "fusion_lat": 0.0, "type": "electric_scooter", "lon": -77.0552545}, {"rental_uris": {"android": "https://dc.lft.to/lastmile_qr_scan", "ios": "https://dc.lft.to/lastmile_qr_scan"}, "is_reserved": 0, "is_disabled": 0, "bike_id": "9d383b3a6c916e102c658baaf9942c96", "lat": 38.878867, "name": "9d383b3a6c916e102c658baaf9942c96", "fusion_lon": 0.0, "fusion_lat": 0.0, "type": "electric_scooter", "lon": -77.0230375}, {"rental_uris": {"android": "https://dc.lft.to/lastmile_qr_scan", "ios": "https://dc.lft.to/lastmile_qr_scan"}, "is_reserved": 0, "is_disabled": 0, "bike_id": "0433e006c6d0c0419549122298b9a817", "lat": 38.884055333333336, "name": "0433e006c6d0c0419549122298b9a817", "fusion_lon": 0.0, "fusion_lat": 0.0, "type": "electric_bike", "lon": -76.96053616666667}, {"rental_uris": {"android": "https://dc.lft.to/lastmile_qr_scan", "ios": "https://dc.lft.to/lastmile_qr_scan"}, "is_reserved": 0, "is_disabled": 0, "bike_id": "799b1699bac664d9c1a03130cad450b5", "lat": 38.924225666666665, "name": "799b1699bac664d9c1a03130cad450b5", "fusion_lon": 0.0, "fusion_lat": 0.0, "type": "electric_scooter", "lon": -77.0194395}, {"rental_uris": {"android": "https://dc.lft.to/lastmile_qr_scan", "ios": "https://dc.lft.to/lastmile_qr_scan"}, "is_reserved": 0, "is_disabled": 0, "bike_id": "1231e8c580b71c046764ef6cf6bf364f", "lat": 38.88867166666667, "name": "1231e8c580b71c046764ef6cf6bf364f", "fusion_lon": 0.0, "fusion_lat": 0.0, "type": "electric_scooter", "lon": -76.98234066666667}, {"rental_uris": {"android": "https://dc.lft.to/lastmile_qr_scan", "ios": "https://dc.lft.to/lastmile_qr_scan"}, "is_reserved": 0, "is_disabled": 0, "bike_id": "6d0339136948394988f44ba551d8555b", "lat": 38.92356133333333, "name": "6d0339136948394988f44ba551d8555b", "fusion_lon": 0.0, "fusion_lat": 0.0, "type": "electric_scooter", "lon": -77.0205675}, {"rental_uris": {"android": "https://dc.lft.to/lastmile_qr_scan", "ios": "https://dc.lft.to/lastmile_qr_scan"}, "is_reserved": 0, "is_disabled": 0, "bike_id": "8383eb0c54eba7d4046902a2730a9300", "lat": 38.92374083333333, "name": "8383eb0c54eba7d4046902a2730a9300", "fusion_lon": 0.0, "fusion_lat": 0.0, "type": "electric_scooter", "lon": -77.05054133333333}, {"rental_uris": {"android": "https://dc.lft.to/lastmile_qr_scan", "ios": "https://dc.lft.to/lastmile_qr_scan"}, "is_reserved": 0, "is_disabled": 0, "bike_id": "7ecdc898fe726ffdf656ecd63e698123", "lat": 38.921984, "name": "7ecdc898fe726ffdf656ecd63e698123", "fusion_lon": 0.0, "fusion_lat": 0.0, "type": "electric_scooter", "lon": -77.02980533333333}, {"rental_uris": {"android": "https://dc.lft.to/lastmile_qr_scan", "ios": "https://dc.lft.to/lastmile_qr_scan"}, "is_reserved": 0, "is_disabled": 0, "bike_id": "fca941fac2fe8278673afc2c0c777a89", "lat": 38.892211333333336, "name": "fca941fac2fe8278673afc2c0c777a89", "fusion_lon": 0.0, "fusion_lat": 0.0, "type": "electric_scooter", "lon": -77.0021635}, {"rental_uris": {"android": "https://dc.lft.to/lastmile_qr_scan", "ios": "https://dc.lft.to/lastmile_qr_scan"}, "is_reserved": 0, "is_disabled": 0, "bike_id": "48aacc04c23dbe83b6706b04418d9661", "lat": 38.896567, "name": "48aacc04c23dbe83b6706b04418d9661", "fusion_lon": 0.0, "fusion_lat": 0.0, "type": "electric_scooter", "lon": -77.0273465}, {"rental_uris": {"android": "https://dc.lft.to/lastmile_qr_scan", "ios": "https://dc.lft.to/lastmile_qr_scan"}, "is_reserved": 0, "is_disabled": 0, "bike_id": "06f8634ae8f781aed27efe1ea4b867db", "lat": 38.9180985, "name": "06f8634ae8f781aed27efe1ea4b867db", "fusion_lon": 0.0, "fusion_lat": 0.0, "type": "electric_scooter", "lon": -77.0343565}, {"rental_uris": {"android": "https://dc.lft.to/lastmile_qr_scan", "ios": "https://dc.lft.to/lastmile_qr_scan"}, "is_reserved": 0, "is_disabled": 0, "bike_id": "6874c32292fa73bd5ef3183a227974fd", "lat": 38.9261365, "name": "6874c32292fa73bd5ef3183a227974fd", "fusion_lon": 0.0, "fusion_lat": 0.0, "type": "electric_scooter", "lon": -77.0269075}, {"rental_uris": {"android": "https://dc.lft.to/lastmile_qr_scan", "ios": "https://dc.lft.to/lastmile_qr_scan"}, "is_reserved": 0, "is_disabled": 0, "bike_id": "ef4abfaef21fa5052dc2ce3db9b58ec3", "lat": 38.893690666666664, "name": "ef4abfaef21fa5052dc2ce3db9b58ec3", "fusion_lon": 0.0, "fusion_lat": 0.0, "type": "electric_scooter", "lon": -76.94996416666666}, {"rental_uris": {"android": "https://dc.lft.to/lastmile_qr_scan", "ios": "https://dc.lft.to/lastmile_qr_scan"}, "is_reserved": 0, "is_disabled": 0, "bike_id": "3733228f274bea9c9c2276017978066e", "lat": 38.912261666666666, "name": "3733228f274bea9c9c2276017978066e", "fusion_lon": 0.0, "fusion_lat": 0.0, "type": "electric_scooter", "lon": -77.03193483333334}, {"rental_uris": {"android": "https://dc.lft.to/lastmile_qr_scan", "ios": "https://dc.lft.to/lastmile_qr_scan"}, "is_reserved": 0, "is_disabled": 0, "bike_id": "cc400071f5d300f686a8e1b3dd3e635c", "lat": 38.917769666666665, "name": "cc400071f5d300f686a8e1b3dd3e635c", "fusion_lon": 0.0, "fusion_lat": 0.0, "type": "electric_scooter", "lon": -77.03226083333334}, {"rental_uris": {"android": "https://dc.lft.to/lastmile_qr_scan", "ios": "https://dc.lft.to/lastmile_qr_scan"}, "is_reserved": 0, "is_disabled": 0, "bike_id": "f6cde95f3bb2d51d9c19e1e947e2c382", "lat": 38.91061883333333, "name": "f6cde95f3bb2d51d9c19e1e947e2c382", "fusion_lon": 0.0, "fusion_lat": 0.0, "type": "electric_scooter", "lon": -77.03085783333333}, {"rental_uris": {"android": "https://dc.lft.to/lastmile_qr_scan", "ios": "https://dc.lft.to/lastmile_qr_scan"}, "is_reserved": 0, "is_disabled": 0, "bike_id": "b2807050856d28e8da85a313e14119e4", "lat": 38.9184215, "name": "b2807050856d28e8da85a313e14119e4", "fusion_lon": 0.0, "fusion_lat": 0.0, "type": "electric_scooter", "lon": -77.03526783333334}, {"rental_uris": {"android": "https://dc.lft.to/lastmile_qr_scan", "ios": "https://dc.lft.to/lastmile_qr_scan"}, "is_reserved": 0, "is_disabled": 0, "bike_id": "514420169aa89a6e7921d0338be3e10c", "lat": 38.888658, "name": "514420169aa89a6e7921d0338be3e10c", "fusion_lon": 0.0, "fusion_lat": 0.0, "type": "electric_scooter", "lon": -77.04003283333333}, {"rental_uris": {"android": "https://dc.lft.to/lastmile_qr_scan", "ios": "https://dc.lft.to/lastmile_qr_scan"}, "is_reserved": 0, "is_disabled": 0, "bike_id": "9a9286658dd9b8603e6b795e55ebb715", "lat": 38.8949215, "name": "9a9286658dd9b8603e6b795e55ebb715", "fusion_lon": 0.0, "fusion_lat": 0.0, "type": "electric_scooter", "lon": -77.023198}, {"rental_uris": {"android": "https://dc.lft.to/lastmile_qr_scan", "ios": "https://dc.lft.to/lastmile_qr_scan"}, "is_reserved": 0, "is_disabled": 0, "bike_id": "36a13794fee325e76bdbf5592170aaa6", "lat": 38.92158416666667, "name": "36a13794fee325e76bdbf5592170aaa6", "fusion_lon": 0.0, "fusion_lat": 0.0, "type": "electric_scooter", "lon": -77.02080866666667}, {"rental_uris": {"android": "https://dc.lft.to/lastmile_qr_scan", "ios": "https://dc.lft.to/lastmile_qr_scan"}, "is_reserved": 0, "is_disabled": 0, "bike_id": "e213773c17c24b4a5e75b4b29b905030", "lat": 38.90634033333333, "name": "e213773c17c24b4a5e75b4b29b905030", "fusion_lon": 0.0, "fusion_lat": 0.0, "type": "electric_scooter", "lon": -77.00588016666667}, {"rental_uris": {"android": "https://dc.lft.to/lastmile_qr_scan", "ios": "https://dc.lft.to/lastmile_qr_scan"}, "is_reserved": 0, "is_disabled": 0, "bike_id": "1191bca2ea1b8c6f4f3743ce9c17f6eb", "lat": 38.925309666666664, "name": "1191bca2ea1b8c6f4f3743ce9c17f6eb", "fusion_lon": 0.0, "fusion_lat": 0.0, "type": "electric_scooter", "lon": -77.05134383333333}, {"rental_uris": {"android": "https://dc.lft.to/lastmile_qr_scan", "ios": "https://dc.lft.to/lastmile_qr_scan"}, "is_reserved": 0, "is_disabled": 0, "bike_id": "9ae1500018484cea4d1aec8a0e0f225e", "lat": 38.86747616666667, "name": "9ae1500018484cea4d1aec8a0e0f225e", "fusion_lon": 0.0, "fusion_lat": 0.0, "type": "electric_bike", "lon": -77.11708616666667}, {"rental_uris": {"android": "https://dc.lft.to/lastmile_qr_scan", "ios": "https://dc.lft.to/lastmile_qr_scan"}, "is_reserved": 0, "is_disabled": 0, "bike_id": "4aa30f85844b856d0b8919f23ce16e3d", "lat": 38.829207833333335, "name": "4aa30f85844b856d0b8919f23ce16e3d", "fusion_lon": 0.0, "fusion_lat": 0.0, "type": "electric_bike", "lon": -76.99788933333333}, {"rental_uris": {"android": "https://dc.lft.to/lastmile_qr_scan", "ios": "https://dc.lft.to/lastmile_qr_scan"}, "is_reserved": 0, "is_disabled": 0, "bike_id": "50bdd6920026930106a5fdfa0a179e47", "lat": 38.9154385, "name": "50bdd6920026930106a5fdfa0a179e47", "fusion_lon": 0.0, "fusion_lat": 0.0, "type": "electric_scooter", "lon": -76.983605}, {"rental_uris": {"android": "https://dc.lft.to/lastmile_qr_scan", "ios": "https://dc.lft.to/lastmile_qr_scan"}, "is_reserved": 0, "is_disabled": 0, "bike_id": "31c42fffd4a54f1e7cdd405b183c0855", "lat": 38.899644, "name": "31c42fffd4a54f1e7cdd405b183c0855", "fusion_lon": 0.0, "fusion_lat": 0.0, "type": "electric_scooter", "lon": -77.04499833333334}, {"rental_uris": {"android": "https://dc.lft.to/lastmile_qr_scan", "ios": "https://dc.lft.to/lastmile_qr_scan"}, "is_reserved": 0, "is_disabled": 0, "bike_id": "99a1dc257aacbe85e3f7a1e20b70792e", "lat": 38.91551333333334, "name": "99a1dc257aacbe85e3f7a1e20b70792e", "fusion_lon": 0.0, "fusion_lat": 0.0, "type": "electric_scooter", "lon": -77.01194416666667}, {"rental_uris": {"android": "https://dc.lft.to/lastmile_qr_scan", "ios": "https://dc.lft.to/lastmile_qr_scan"}, "is_reserved": 0, "is_disabled": 0, "bike_id": "14e33a96ae51015fcbbdb42b0a06eba2", "lat": 38.8922035, "name": "14e33a96ae51015fcbbdb42b0a06eba2", "fusion_lon": 0.0, "fusion_lat": 0.0, "type": "electric_scooter", "lon": -77.04470233333333}, {"rental_uris": {"android": "https://dc.lft.to/lastmile_qr_scan", "ios": "https://dc.lft.to/lastmile_qr_scan"}, "is_reserved": 0, "is_disabled": 0, "bike_id": "9af2c34bb59e7e4620d3c3205c42e949", "lat": 38.92898916666667, "name": "9af2c34bb59e7e4620d3c3205c42e949", "fusion_lon": 0.0, "fusion_lat": 0.0, "type": "electric_scooter", "lon": -77.016477}, {"rental_uris": {"android": "https://dc.lft.to/lastmile_qr_scan", "ios": "https://dc.lft.to/lastmile_qr_scan"}, "is_reserved": 0, "is_disabled": 0, "bike_id": "e90133f2a3aaa1827d02439a4be321c6", "lat": 38.91355866666667, "name": "e90133f2a3aaa1827d02439a4be321c6", "fusion_lon": 0.0, "fusion_lat": 0.0, "type": "electric_scooter", "lon": -77.04162333333333}, {"rental_uris": {"android": "https://dc.lft.to/lastmile_qr_scan", "ios": "https://dc.lft.to/lastmile_qr_scan"}, "is_reserved": 0, "is_disabled": 0, "bike_id": "fdad28f764481c9535cd8c32d78dc006", "lat": 38.905136166666665, "name": "fdad28f764481c9535cd8c32d78dc006", "fusion_lon": 0.0, "fusion_lat": 0.0, "type": "electric_scooter", "lon": -77.06891233333333}, {"rental_uris": {"android": "https://dc.lft.to/lastmile_qr_scan", "ios": "https://dc.lft.to/lastmile_qr_scan"}, "is_reserved": 0, "is_disabled": 0, "bike_id": "b991773d062143eba78e88411300d316", "lat": 38.872768, "name": "b991773d062143eba78e88411300d316", "fusion_lon": 0.0, "fusion_lat": 0.0, "type": "electric_bike", "lon": -77.23325516666667}, {"rental_uris": {"android": "https://dc.lft.to/lastmile_qr_scan", "ios": "https://dc.lft.to/lastmile_qr_scan"}, "is_reserved": 0, "is_disabled": 0, "bike_id": "4dffea5364b6aa5483af2f527233546b", "lat": 38.9078435, "name": "4dffea5364b6aa5483af2f527233546b", "fusion_lon": 0.0, "fusion_lat": 0.0, "type": "electric_scooter", "lon": -77.02948383333333}, {"rental_uris": {"android": "https://dc.lft.to/lastmile_qr_scan", "ios": "https://dc.lft.to/lastmile_qr_scan"}, "is_reserved": 0, "is_disabled": 0, "bike_id": "4fb6e8065b58462318857c7f239380ad", "lat": 38.965039, "name": "4fb6e8065b58462318857c7f239380ad", "fusion_lon": 0.0, "fusion_lat": 0.0, "type": "electric_scooter", "lon": -77.02646616666667}, {"rental_uris": {"android": "https://dc.lft.to/lastmile_qr_scan", "ios": "https://dc.lft.to/lastmile_qr_scan"}, "is_reserved": 0, "is_disabled": 0, "bike_id": "e0e045adb11b1ba195336b3723ef5a5d", "lat": 38.89730433333333, "name": "e0e045adb11b1ba195336b3723ef5a5d", "fusion_lon": 0.0, "fusion_lat": 0.0, "type": "electric_scooter", "lon": -77.04380216666667}, {"rental_uris": {"android": "https://dc.lft.to/lastmile_qr_scan", "ios": "https://dc.lft.to/lastmile_qr_scan"},