{"data": {"bikes": [{"bike_id": "429b431bd9aaded0333c054925d8ee7e", "type": "electric_bike", "is_disabled": 0, "lat": 38.9960525, "rental_uris": {"ios": "https://dc.lft.to/lastmile_qr_scan", "android": "https://dc.lft.to/lastmile_qr_scan"}, "is_reserved": 0, "fusion_lon": 0.0, "fusion_lat": 0.0, "lon": -77.026758, "name": "429b431bd9aaded0333c054925d8ee7e"}, {"bike_id": "e3ab6d96c2a35bd012219ea8a8b18b5e", "type": "electric_scooter", "is_disabled": 0, "lat": 38.911843833333336, "rental_uris": {"ios": "https://dc.lft.to/lastmile_qr_scan", "android": "https://dc.lft.to/lastmile_qr_scan"}, "is_reserved": 0, "fusion_lon": 0.0, "fusion_lat": 0.0, "lon": -77.03219666666666, "name": "e3ab6d96c2a35bd012219ea8a8b18b5e"}, {"bike_id": "cd924fc1ed049b8dec44107eb748b3b1", "type": "electric_scooter", "is_disabled": 0, "lat": 38.947969, "rental_uris": {"ios": "https://dc.lft.to/lastmile_qr_scan", "android": "https://dc.lft.to/lastmile_qr_scan"}, "is_reserved": 0, "fusion_lon": 0.0, "fusion_lat": 0.0, "lon": -77.02135233333334, "name": "cd924fc1ed049b8dec44107eb748b3b1"}, {"bike_id": "b92811aab205d02d40e200dd7d955b98", "type": "electric_scooter", "is_disabled": 0, "lat": 38.933115, "rental_uris": {"ios": "https://dc.lft.to/lastmile_qr_scan", "android": "https://dc.lft.to/lastmile_qr_scan"}, "is_reserved": 0, "fusion_lon": 0.0, "fusion_lat": 0.0, "lon": -77.03278333333333, "name": "b92811aab205d02d40e200dd7d955b98"}, {"bike_id": "44bcbb820608f9e951ab42ef01ff6763", "type": "electric_scooter", "is_disabled": 0, "lat": 38.913067833333336, "rental_uris": {"ios": "https://dc.lft.to/lastmile_qr_scan", "android": "https://dc.lft.to/lastmile_qr_scan"}, "is_reserved": 0, "fusion_lon": 0.0, "fusion_lat": 0.0, "lon": -77.045478, "name": "44bcbb820608f9e951ab42ef01ff6763"}, {"bike_id": "c7a8b1e2086550a47571666809e38f50", "type": "electric_scooter", "is_disabled": 0, "lat": 38.910327, "rental_uris": {"ios": "https://dc.lft.to/lastmile_qr_scan", "android": "https://dc.lft.to/lastmile_qr_scan"}, "is_reserved": 0, "fusion_lon": 0.0, "fusion_lat": 0.0, "lon": -77.0076795, "name": "c7a8b1e2086550a47571666809e38f50"}, {"bike_id": "539d863206b47d810a97f807037dfb0a", "type": "electric_scooter", "is_disabled": 0, "lat": 38.89242316666667, "rental_uris": {"ios": "https://dc.lft.to/lastmile_qr_scan", "android": "https://dc.lft.to/lastmile_qr_scan"}, "is_reserved": 0, "fusion_lon": 0.0, "fusion_lat": 0.0, "lon": -77.02204116666667, "name": "539d863206b47d810a97f807037dfb0a"}, {"bike_id": "a42d98ab43a1cb5e3bfd3ea593c8e580", "type": "electric_scooter", "is_disabled": 0, "lat": 38.91422516666667, "rental_uris": {"ios": "https://dc.lft.to/lastmile_qr_scan", "android": "https://dc.lft.to/lastmile_qr_scan"}, "is_reserved": 0, "fusion_lon": 0.0, "fusion_lat": 0.0, "lon": -77.04809, "name": "a42d98ab43a1cb5e3bfd3ea593c8e580"}, {"bike_id": "0e46d75395824a79a4bccc2a58dfdc1c", "type": "electric_scooter", "is_disabled": 0, "lat": 38.86660533333333, "rental_uris": {"ios": "https://dc.lft.to/lastmile_qr_scan", "android": "https://dc.lft.to/lastmile_qr_scan"}, "is_reserved": 0, "fusion_lon": 0.0, "fusion_lat": 0.0, "lon": -76.98888983333333, "name": "0e46d75395824a79a4bccc2a58dfdc1c"}, {"bike_id": "c253aed9080f8386ef332ce7336a058e", "type": "electric_scooter", "is_disabled": 0, "lat": 38.909713333333336, "rental_uris": {"ios": "https://dc.lft.to/lastmile_qr_scan", "android": "https://dc.lft.to/lastmile_qr_scan"}, "is_reserved": 0, "fusion_lon": 0.0, "fusion_lat": 0.0, "lon": -77.03867433333333, "name": "c253aed9080f8386ef332ce7336a058e"}, {"bike_id": "48b7c91cdd5e38eb5716c11e3af328a5", "type": "electric_bike", "is_disabled": 0, "lat": 38.88064816666667, "rental_uris": {"ios": "https://dc.lft.to/lastmile_qr_scan", "android": "https://dc.lft.to/lastmile_qr_scan"}, "is_reserved": 0, "fusion_lon": 0.0, "fusion_lat": 0.0, "lon": -76.96243433333333, "name": "48b7c91cdd5e38eb5716c11e3af328a5"}, {"bike_id": "07c4ef323d0e2cda2ad99b082414e362", "type": "electric_bike", "is_disabled": 0, "lat": 38.91017466666667, "rental_uris": {"ios": "https://dc.lft.to/lastmile_qr_scan", "android": "https://dc.lft.to/lastmile_qr_scan"}, "is_reserved": 0, "fusion_lon": 0.0, "fusion_lat": 0.0, "lon": -77.22803783333333, "name": "07c4ef323d0e2cda2ad99b082414e362"}, {"bike_id": "3030afcbd7d8d000ea52edaa5d529f74", "type": "electric_scooter", "is_disabled": 0, "lat": 38.93405166666667, "rental_uris": {"ios": "https://dc.lft.to/lastmile_qr_scan", "android": "https://dc.lft.to/lastmile_qr_scan"}, "is_reserved": 0, "fusion_lon": 0.0, "fusion_lat": 0.0, "lon": -77.022136, "name": "3030afcbd7d8d000ea52edaa5d529f74"}, {"bike_id": "fc8332399a2878c2137cb8cd0f4e8752", "type": "electric_scooter", "is_disabled": 0, "lat": 38.869762333333334, "rental_uris": {"ios": "https://dc.lft.to/lastmile_qr_scan", "android": "https://dc.lft.to/lastmile_qr_scan"}, "is_reserved": 0, "fusion_lon": 0.0, "fusion_lat": 0.0, "lon": -76.98174466666667, "name": "fc8332399a2878c2137cb8cd0f4e8752"}, {"bike_id": "71a1703379633a107b678ef5fd42c86d", "type": "electric_scooter", "is_disabled": 0, "lat": 38.890374666666666, "rental_uris": {"ios": "https://dc.lft.to/lastmile_qr_scan", "android": "https://dc.lft.to/lastmile_qr_scan"}, "is_reserved": 0, "fusion_lon": 0.0, "fusion_lat": 0.0, "lon": -76.9375315, "name": "71a1703379633a107b678ef5fd42c86d"}, {"bike_id": "4aa830787974d1f1fbe3794c8bde88e9", "type": "electric_scooter", "is_disabled": 0, "lat": 38.92443683333333, "rental_uris": {"ios": "https://dc.lft.to/lastmile_qr_scan", "android": "https://dc.lft.to/lastmile_qr_scan"}, "is_reserved": 0, "fusion_lon": 0.0, "fusion_lat": 0.0, "lon": -77.04030483333334, "name": "4aa830787974d1f1fbe3794c8bde88e9"}, {"bike_id": "979bf88856cdf96be7d3f8fa82845f61", "type": "electric_scooter", "is_disabled": 0, "lat": 38.923759, "rental_uris": {"ios": "https://dc.lft.to/lastmile_qr_scan", "android": "https://dc.lft.to/lastmile_qr_scan"}, "is_reserved": 0, "fusion_lon": 0.0, "fusion_lat": 0.0, "lon": -77.0305485, "name": "979bf88856cdf96be7d3f8fa82845f61"}, {"bike_id": "13bdba9fcfa782df37b9e3be35c71ff8", "type": "electric_bike", "is_disabled": 0, "lat": 38.87279233333334, "rental_uris": {"ios": "https://dc.lft.to/lastmile_qr_scan", "android": "https://dc.lft.to/lastmile_qr_scan"}, "is_reserved": 0, "fusion_lon": 0.0, "fusion_lat": 0.0, "lon": -77.2331555, "name": "13bdba9fcfa782df37b9e3be35c71ff8"}, {"bike_id": "659263fc26df1a126f99a56f2c627426", "type": "electric_scooter", "is_disabled": 0, "lat": 38.90226066666666, "rental_uris": {"ios": "https://dc.lft.to/lastmile_qr_scan", "android": "https://dc.lft.to/lastmile_qr_scan"}, "is_reserved": 0, "fusion_lon": 0.0, "fusion_lat": 0.0, "lon": -77.0404365, "name": "659263fc26df1a126f99a56f2c627426"}, {"bike_id": "17d1d728c48e16e3edf2ecd09895f262", "type": "electric_scooter", "is_disabled": 0, "lat": 38.900349, "rental_uris": {"ios": "https://dc.lft.to/lastmile_qr_scan", "android": "https://dc.lft.to/lastmile_qr_scan"}, "is_reserved": 0, "fusion_lon": 0.0, "fusion_lat": 0.0, "lon": -77.00187983333333, "name": "17d1d728c48e16e3edf2ecd09895f262"}, {"bike_id": "d2e19a2fdd5d7ac18d1d65ba0e5f0d47", "type": "electric_bike", "is_disabled": 0, "lat": 39.014787166666665, "rental_uris": {"ios": "https://dc.lft.to/lastmile_qr_scan", "android": "https://dc.lft.to/lastmile_qr_scan"}, "is_reserved": 0, "fusion_lon": 0.0, "fusion_lat": 0.0, "lon": -77.05495616666667, "name": "d2e19a2fdd5d7ac18d1d65ba0e5f0d47"}, {"bike_id": "fef8f238ee2537a1712bf21a5dde2aba", "type": "electric_scooter", "is_disabled": 0, "lat": 38.919635166666666, "rental_uris": {"ios": "https://dc.lft.to/lastmile_qr_scan", "android": "https://dc.lft.to/lastmile_qr_scan"}, "is_reserved": 0, "fusion_lon": 0.0, "fusion_lat": 0.0, "lon": -77.0144155, "name": "fef8f238ee2537a1712bf21a5dde2aba"}, {"bike_id": "77f94f3f84668a671e49baaec6505656", "type": "electric_scooter", "is_disabled": 0, "lat": 38.916797333333335, "rental_uris": {"ios": "https://dc.lft.to/lastmile_qr_scan", "android": "https://dc.lft.to/lastmile_qr_scan"}, "is_reserved": 0, "fusion_lon": 0.0, "fusion_lat": 0.0, "lon": -77.0288925, "name": "77f94f3f84668a671e49baaec6505656"}, {"bike_id": "0ad6231c2e3be17ef37ffad52fb5ee33", "type": "electric_scooter", "is_disabled": 0, "lat": 38.89846333333333, "rental_uris": {"ios": "https://dc.lft.to/lastmile_qr_scan", "android": "https://dc.lft.to/lastmile_qr_scan"}, "is_reserved": 0, "fusion_lon": 0.0, "fusion_lat": 0.0, "lon": -76.94635266666667, "name": "0ad6231c2e3be17ef37ffad52fb5ee33"}, {"bike_id": "59604e52fa732d4ff6b4bc4f05941595", "type": "electric_scooter", "is_disabled": 0, "lat": 38.894780833333336, "rental_uris": {"ios": "https://dc.lft.to/lastmile_qr_scan", "android": "https://dc.lft.to/lastmile_qr_scan"}, "is_reserved": 0, "fusion_lon": 0.0, "fusion_lat": 0.0, "lon": -76.99486433333334, "name": "59604e52fa732d4ff6b4bc4f05941595"}, {"bike_id": "e6f86d55bb98f027af1af26ca2b62a43", "type": "electric_scooter", "is_disabled": 0, "lat": 38.92049866666667, "rental_uris": {"ios": "https://dc.lft.to/lastmile_qr_scan", "android": "https://dc.lft.to/lastmile_qr_scan"}, "is_reserved": 0, "fusion_lon": 0.0, "fusion_lat": 0.0, "lon": -77.023655, "name": "e6f86d55bb98f027af1af26ca2b62a43"}, {"bike_id": "9ec3774ef4192599abd44f130325ef90", "type": "electric_bike", "is_disabled": 0, "lat": 38.908689833333334, "rental_uris": {"ios": "https://dc.lft.to/lastmile_qr_scan", "android": "https://dc.lft.to/lastmile_qr_scan"}, "is_reserved": 0, "fusion_lon": 0.0, "fusion_lat": 0.0, "lon": -77.07647283333333, "name": "9ec3774ef4192599abd44f130325ef90"}, {"bike_id": "80de4aa820eccebde171ca232586d7eb", "type": "electric_scooter", "is_disabled": 0, "lat": 38.91594116666667, "rental_uris": {"ios": "https://dc.lft.to/lastmile_qr_scan", "android": "https://dc.lft.to/lastmile_qr_scan"}, "is_reserved": 0, "fusion_lon": 0.0, "fusion_lat": 0.0, "lon": -77.00193033333333, "name": "80de4aa820eccebde171ca232586d7eb"}, {"bike_id": "f5f68dbad51bf9e6d1dbf0e9f82a3af6", "type": "electric_scooter", "is_disabled": 0, "lat": 38.89225016666666, "rental_uris": {"ios": "https://dc.lft.to/lastmile_qr_scan", "android": "https://dc.lft.to/lastmile_qr_scan"}, "is_reserved": 0, "fusion_lon": 0.0, "fusion_lat": 0.0, "lon": -77.04191666666667, "name": "f5f68dbad51bf9e6d1dbf0e9f82a3af6"}, {"bike_id": "85ba8b792d5940fd9fe12f654102c58f", "type": "electric_scooter", "is_disabled": 0, "lat": 38.90209466666667, "rental_uris": {"ios": "https://dc.lft.to/lastmile_qr_scan", "android": "https://dc.lft.to/lastmile_qr_scan"}, "is_reserved": 0, "fusion_lon": 0.0, "fusion_lat": 0.0, "lon": -77.02310416666667, "name": "85ba8b792d5940fd9fe12f654102c58f"}, {"bike_id": "e97a814f6ac0118eb36281d5bd082705", "type": "electric_scooter", "is_disabled": 0, "lat": 38.911199, "rental_uris": {"ios": "https://dc.lft.to/lastmile_qr_scan", "android": "https://dc.lft.to/lastmile_qr_scan"}, "is_reserved": 0, "fusion_lon": 0.0, "fusion_lat": 0.0, "lon": -77.02237166666667, "name": "e97a814f6ac0118eb36281d5bd082705"}, {"bike_id": "001106490a27247fc5e45c9263b9493c", "type": "electric_scooter", "is_disabled": 0, "lat": 38.90689366666667, "rental_uris": {"ios": "https://dc.lft.to/lastmile_qr_scan", "android": "https://dc.lft.to/lastmile_qr_scan"}, "is_reserved": 0, "fusion_lon": 0.0, "fusion_lat": 0.0, "lon": -77.02380866666667, "name": "001106490a27247fc5e45c9263b9493c"}, {"bike_id": "07f1740ce6b8b9a54a1a696dd016207d", "type": "electric_scooter", "is_disabled": 0, "lat": 38.90378233333333, "rental_uris": {"ios": "https://dc.lft.to/lastmile_qr_scan", "android": "https://dc.lft.to/lastmile_qr_scan"}, "is_reserved": 0, "fusion_lon": 0.0, "fusion_lat": 0.0, "lon": -77.029281, "name": "07f1740ce6b8b9a54a1a696dd016207d"}, {"bike_id": "c9465ac3efc0d8882772b6348d5c7288", "type": "electric_scooter", "is_disabled": 0, "lat": 38.91461666666667, "rental_uris": {"ios": "https://dc.lft.to/lastmile_qr_scan", "android": "https://dc.lft.to/lastmile_qr_scan"}, "is_reserved": 0, "fusion_lon": 0.0, "fusion_lat": 0.0, "lon": -77.02287066666666, "name": "c9465ac3efc0d8882772b6348d5c7288"}, {"bike_id": "cea3815539898f787203de291e2b6b53", "type": "electric_bike", "is_disabled": 0, "lat": 38.924700333333334, "rental_uris": {"ios": "https://dc.lft.to/lastmile_qr_scan", "android": "https://dc.lft.to/lastmile_qr_scan"}, "is_reserved": 0, "fusion_lon": 0.0, "fusion_lat": 0.0, "lon": -77.22586083333333, "name": "cea3815539898f787203de291e2b6b53"}, {"bike_id": "54164146a9f32f434b4ac6bd6d029203", "type": "electric_scooter", "is_disabled": 0, "lat": 38.898455166666665, "rental_uris": {"ios": "https://dc.lft.to/lastmile_qr_scan", "android": "https://dc.lft.to/lastmile_qr_scan"}, "is_reserved": 0, "fusion_lon": 0.0, "fusion_lat": 0.0, "lon": -76.94633566666667, "name": "54164146a9f32f434b4ac6bd6d029203"}, {"bike_id": "501fc0ca314384b161029c0cc90affb2", "type": "electric_scooter", "is_disabled": 0, "lat": 38.90657683333333, "rental_uris": {"ios": "https://dc.lft.to/lastmile_qr_scan", "android": "https://dc.lft.to/lastmile_qr_scan"}, "is_reserved": 0, "fusion_lon": 0.0, "fusion_lat": 0.0, "lon": -77.009819, "name": "501fc0ca314384b161029c0cc90affb2"}, {"bike_id": "2dfa846cb2d1e069273efc0109a728bb", "type": "electric_scooter", "is_disabled": 0, "lat": 38.942004833333336, "rental_uris": {"ios": "https://dc.lft.to/lastmile_qr_scan", "android": "https://dc.lft.to/lastmile_qr_scan"}, "is_reserved": 0, "fusion_lon": 0.0, "fusion_lat": 0.0, "lon": -77.02434216666667, "name": "2dfa846cb2d1e069273efc0109a728bb"}, {"bike_id": "153ae63901c9f984c22da8a32af0f4e8", "type": "electric_bike", "is_disabled": 0, "lat": 38.94667483333333, "rental_uris": {"ios": "https://dc.lft.to/lastmile_qr_scan", "android": "https://dc.lft.to/lastmile_qr_scan"}, "is_reserved": 0, "fusion_lon": 0.0, "fusion_lat": 0.0, "lon": -76.956697, "name": "153ae63901c9f984c22da8a32af0f4e8"}, {"bike_id": "afb21071272547388e7c44cd84b1fe76", "type": "electric_scooter", "is_disabled": 0, "lat": 38.93377733333333, "rental_uris": {"ios": "https://dc.lft.to/lastmile_qr_scan", "android": "https://dc.lft.to/lastmile_qr_scan"}, "is_reserved": 0, "fusion_lon": 0.0, "fusion_lat": 0.0, "lon": -77.05733616666667, "name": "afb21071272547388e7c44cd84b1fe76"}, {"bike_id": "13bb16e32152a1f594cc82789f280d81", "type": "electric_scooter", "is_disabled": 0, "lat": 38.90983833333333, "rental_uris": {"ios": "https://dc.lft.to/lastmile_qr_scan", "android": "https://dc.lft.to/lastmile_qr_scan"}, "is_reserved": 0, "fusion_lon": 0.0, "fusion_lat": 0.0, "lon": -77.033475, "name": "13bb16e32152a1f594cc82789f280d81"}, {"bike_id": "813cc30430499c7e3a71df5d571d1231", "type": "electric_scooter", "is_disabled": 0, "lat": 38.905881666666666, "rental_uris": {"ios": "https://dc.lft.to/lastmile_qr_scan", "android": "https://dc.lft.to/lastmile_qr_scan"}, "is_reserved": 0, "fusion_lon": 0.0, "fusion_lat": 0.0, "lon": -77.02381783333334, "name": "813cc30430499c7e3a71df5d571d1231"}, {"bike_id": "c327bd087eac75b134cd94321e4e6632", "type": "electric_bike", "is_disabled": 0, "lat": 38.809030666666665, "rental_uris": {"ios": "https://dc.lft.to/lastmile_qr_scan", "android": "https://dc.lft.to/lastmile_qr_scan"}, "is_reserved": 0, "fusion_lon": 0.0, "fusion_lat": 0.0, "lon": -77.086639, "name": "c327bd087eac75b134cd94321e4e6632"}, {"bike_id": "b0d06fce46858b2021f97e454ec21b03", "type": "electric_scooter", "is_disabled": 0, "lat": 38.90265633333333, "rental_uris": {"ios": "https://dc.lft.to/lastmile_qr_scan", "android": "https://dc.lft.to/lastmile_qr_scan"}, "is_reserved": 0, "fusion_lon": 0.0, "fusion_lat": 0.0, "lon": -77.04352433333334, "name": "b0d06fce46858b2021f97e454ec21b03"}, {"bike_id": "83a8aadadb04cbbf6dd4c8235827f022", "type": "electric_scooter", "is_disabled": 0, "lat": 38.91137533333333, "rental_uris": {"ios": "https://dc.lft.to/lastmile_qr_scan", "android": "https://dc.lft.to/lastmile_qr_scan"}, "is_reserved": 0, "fusion_lon": 0.0, "fusion_lat": 0.0, "lon": -77.02187583333334, "name": "83a8aadadb04cbbf6dd4c8235827f022"}, {"bike_id": "cbf2ca57c50b40b14b052e74fa1d46e2", "type": "electric_scooter", "is_disabled": 0, "lat": 38.926373, "rental_uris": {"ios": "https://dc.lft.to/lastmile_qr_scan", "android": "https://dc.lft.to/lastmile_qr_scan"}, "is_reserved": 0, "fusion_lon": 0.0, "fusion_lat": 0.0, "lon": -77.01384333333333, "name": "cbf2ca57c50b40b14b052e74fa1d46e2"}, {"bike_id": "18d643d1c1e599640915a7b5432ec8ae", "type": "electric_scooter", "is_disabled": 0, "lat": 38.89219416666667, "rental_uris": {"ios": "https://dc.lft.to/lastmile_qr_scan", "android": "https://dc.lft.to/lastmile_qr_scan"}, "is_reserved": 0, "fusion_lon": 0.0, "fusion_lat": 0.0, "lon": -77.04310866666667, "name": "18d643d1c1e599640915a7b5432ec8ae"}, {"bike_id": "8f55667d90ba263e68da1a5dfb84b12c", "type": "electric_scooter", "is_disabled": 0, "lat": 38.885321, "rental_uris": {"ios": "https://dc.lft.to/lastmile_qr_scan", "android": "https://dc.lft.to/lastmile_qr_scan"}, "is_reserved": 0, "fusion_lon": 0.0, "fusion_lat": 0.0, "lon": -76.99829216666667, "name": "8f55667d90ba263e68da1a5dfb84b12c"}, {"bike_id": "53d63061667ccab2659a531d9696ac4e", "type": "electric_scooter", "is_disabled": 0, "lat": 38.922265833333334, "rental_uris": {"ios": "https://dc.lft.to/lastmile_qr_scan", "android": "https://dc.lft.to/lastmile_qr_scan"}, "is_reserved": 0, "fusion_lon": 0.0, "fusion_lat": 0.0, "lon": -77.02216866666667, "name": "53d63061667ccab2659a531d9696ac4e"}, {"bike_id": "194725516a6167470f896e725447c254", "type": "electric_scooter", "is_disabled": 0, "lat": 38.9115945, "rental_uris": {"ios": "https://dc.lft.to/lastmile_qr_scan", "android": "https://dc.lft.to/lastmile_qr_scan"}, "is_reserved": 0, "fusion_lon": 0.0, "fusion_lat": 0.0, "lon": -77.02955083333333, "name": "194725516a6167470f896e725447c254"}, {"bike_id": "767c42fe52327f5ad30abee600402a9a", "type": "electric_scooter", "is_disabled": 0, "lat": 38.892408, "rental_uris": {"ios": "https://dc.lft.to/lastmile_qr_scan", "android": "https://dc.lft.to/lastmile_qr_scan"}, "is_reserved": 0, "fusion_lon": 0.0, "fusion_lat": 0.0, "lon": -76.95328316666667, "name": "767c42fe52327f5ad30abee600402a9a"}, {"bike_id": "83b0db02541e2fa33075d1883466ee23", "type": "electric_scooter", "is_disabled": 0, "lat": 38.865037, "rental_uris": {"ios": "https://dc.lft.to/lastmile_qr_scan", "android": "https://dc.lft.to/lastmile_qr_scan"}, "is_reserved": 0, "fusion_lon": 0.0, "fusion_lat": 0.0, "lon": -76.990036, "name": "83b0db02541e2fa33075d1883466ee23"}, {"bike_id": "b9bd80416a8673fcb7e996750d1e48c6", "type": "electric_scooter", "is_disabled": 0, "lat": 38.92690316666667, "rental_uris": {"ios": "https://dc.lft.to/lastmile_qr_scan", "android": "https://dc.lft.to/lastmile_qr_scan"}, "is_reserved": 0, "fusion_lon": 0.0, "fusion_lat": 0.0, "lon": -77.0732635, "name": "b9bd80416a8673fcb7e996750d1e48c6"}, {"bike_id": "46eec919aee742481ac99e7054fdbb1a", "type": "electric_scooter", "is_disabled": 0, "lat": 38.913276833333335, "rental_uris": {"ios": "https://dc.lft.to/lastmile_qr_scan", "android": "https://dc.lft.to/lastmile_qr_scan"}, "is_reserved": 0, "fusion_lon": 0.0, "fusion_lat": 0.0, "lon": -77.04534933333333, "name": "46eec919aee742481ac99e7054fdbb1a"}, {"bike_id": "59e11a1b5b3f40d734cbcd0d4fa87a22", "type": "electric_bike", "is_disabled": 0, "lat": 38.82372483333333, "rental_uris": {"ios": "https://dc.lft.to/lastmile_qr_scan", "android": "https://dc.lft.to/lastmile_qr_scan"}, "is_reserved": 0, "fusion_lon": 0.0, "fusion_lat": 0.0, "lon": -77.00222516666666, "name": "59e11a1b5b3f40d734cbcd0d4fa87a22"}, {"bike_id": "8291a3ade54cfc29ec16d2fe30381840", "type": "electric_bike", "is_disabled": 0, "lat": 38.85938, "rental_uris": {"ios": "https://dc.lft.to/lastmile_qr_scan", "android": "https://dc.lft.to/lastmile_qr_scan"}, "is_reserved": 0, "fusion_lon": 0.0, "fusion_lat": 0.0, "lon": -77.11828083333333, "name": "8291a3ade54cfc29ec16d2fe30381840"}, {"bike_id": "485140bda5933eb2575d9186c9ff9769", "type": "electric_scooter", "is_disabled": 0, "lat": 38.89243733333333, "rental_uris": {"ios": "https://dc.lft.to/lastmile_qr_scan", "android": "https://dc.lft.to/lastmile_qr_scan"}, "is_reserved": 0, "fusion_lon": 0.0, "fusion_lat": 0.0, "lon": -77.0261135, "name": "485140bda5933eb2575d9186c9ff9769"}, {"bike_id": "c8f5cc327a71048a36f58557a4eba817", "type": "electric_scooter", "is_disabled": 0, "lat": 38.893407, "rental_uris": {"ios": "https://dc.lft.to/lastmile_qr_scan", "android": "https://dc.lft.to/lastmile_qr_scan"}, "is_reserved": 0, "fusion_lon": 0.0, "fusion_lat": 0.0, "lon": -76.950557, "name": "c8f5cc327a71048a36f58557a4eba817"}, {"bike_id": "e96645c14725c3fc2bf22b48388e5273", "type": "electric_scooter", "is_disabled": 0, "lat": 38.87817066666667, "rental_uris": {"ios": "https://dc.lft.to/lastmile_qr_scan", "android": "https://dc.lft.to/lastmile_qr_scan"}, "is_reserved": 0, "fusion_lon": 0.0, "fusion_lat": 0.0, "lon": -77.02238266666667, "name": "e96645c14725c3fc2bf22b48388e5273"}, {"bike_id": "c74935419b0e7593ab3a68201ca64272", "type": "electric_scooter", "is_disabled": 0, "lat": 38.91266516666666, "rental_uris": {"ios": "https://dc.lft.to/lastmile_qr_scan", "android": "https://dc.lft.to/lastmile_qr_scan"}, "is_reserved": 0, "fusion_lon": 0.0, "fusion_lat": 0.0, "lon": -77.01219816666666, "name": "c74935419b0e7593ab3a68201ca64272"}, {"bike_id": "19173198e9852e741d63b7aac9b0dc76", "type": "electric_scooter", "is_disabled": 0, "lat": 38.936889, "rental_uris": {"ios": "https://dc.lft.to/lastmile_qr_scan", "android": "https://dc.lft.to/lastmile_qr_scan"}, "is_reserved": 0, "fusion_lon": 0.0, "fusion_lat": 0.0, "lon": -77.02411766666667, "name": "19173198e9852e741d63b7aac9b0dc76"}, {"bike_id": "66c5305626dc321f7695cff7814a16fa", "type": "electric_scooter", "is_disabled": 0, "lat": 38.892261166666664, "rental_uris": {"ios": "https://dc.lft.to/lastmile_qr_scan", "android": "https://dc.lft.to/lastmile_qr_scan"}, "is_reserved": 0, "fusion_lon": 0.0, "fusion_lat": 0.0, "lon": -77.04514583333334, "name": "66c5305626dc321f7695cff7814a16fa"}, {"bike_id": "2a5f62a8190f957842c9562b0bfe35b8", "type": "electric_scooter", "is_disabled": 0, "lat": 38.9055295, "rental_uris": {"ios": "https://dc.lft.to/lastmile_qr_scan", "android": "https://dc.lft.to/lastmile_qr_scan"}, "is_reserved": 0, "fusion_lon": 0.0, "fusion_lat": 0.0, "lon": -77.05707766666667, "name": "2a5f62a8190f957842c9562b0bfe35b8"}, {"bike_id": "6c7d019852c54ecf74dfd0dfd19f4c2f", "type": "electric_scooter", "is_disabled": 0, "lat": 38.914012666666665, "rental_uris": {"ios": "https://dc.lft.to/lastmile_qr_scan", "android": "https://dc.lft.to/lastmile_qr_scan"}, "is_reserved": 0, "fusion_lon": 0.0, "fusion_lat": 0.0, "lon": -77.03223533333333, "name": "6c7d019852c54ecf74dfd0dfd19f4c2f"}, {"bike_id": "62f18ee5cc62c46a28fc7fed3c9d264f", "type": "electric_scooter", "is_disabled": 0, "lat": 38.873899, "rental_uris": {"ios": "https://dc.lft.to/lastmile_qr_scan", "android": "https://dc.lft.to/lastmile_qr_scan"}, "is_reserved": 0, "fusion_lon": 0.0, "fusion_lat": 0.0, "lon": -77.0434085, "name": "62f18ee5cc62c46a28fc7fed3c9d264f"}, {"bike_id": "0e7020ded729bc321ad75fc86989d287", "type": "electric_scooter", "is_disabled": 0, "lat": 38.9351975, "rental_uris": {"ios": "https://dc.lft.to/lastmile_qr_scan", "android": "https://dc.lft.to/lastmile_qr_scan"}, "is_reserved": 0, "fusion_lon": 0.0, "fusion_lat": 0.0, "lon": -77.033566, "name": "0e7020ded729bc321ad75fc86989d287"}, {"bike_id": "b1d5c142cb0fdb61ae341fb64edf2c3a", "type": "electric_scooter", "is_disabled": 0, "lat": 38.90083533333333, "rental_uris": {"ios": "https://dc.lft.to/lastmile_qr_scan", "android": "https://dc.lft.to/lastmile_qr_scan"}, "is_reserved": 0, "fusion_lon": 0.0, "fusion_lat": 0.0, "lon": -76.98338183333334, "name": "b1d5c142cb0fdb61ae341fb64edf2c3a"}, {"bike_id": "ef7267538c64bfdbe5106ac7f93b1339", "type": "electric_scooter", "is_disabled": 0, "lat": 38.9224575, "rental_uris": {"ios": "https://dc.lft.to/lastmile_qr_scan", "android": "https://dc.lft.to/lastmile_qr_scan"}, "is_reserved": 0, "fusion_lon": 0.0, "fusion_lat": 0.0, "lon": -77.04249883333334, "name": "ef7267538c64bfdbe5106ac7f93b1339"}, {"bike_id": "8ea7053a3d7f135bb9e09dd321a85101", "type": "electric_scooter", "is_disabled": 0, "lat": 38.90816983333333, "rental_uris": {"ios": "https://dc.lft.to/lastmile_qr_scan", "android": "https://dc.lft.to/lastmile_qr_scan"}, "is_reserved": 0, "fusion_lon": 0.0, "fusion_lat": 0.0, "lon": -77.030686, "name": "8ea7053a3d7f135bb9e09dd321a85101"}, {"bike_id": "fc918bc9de1f462f04e2ea38fa1d2f21", "type": "electric_scooter", "is_disabled": 0, "lat": 38.91228066666667, "rental_uris": {"ios": "https://dc.lft.to/lastmile_qr_scan", "android": "https://dc.lft.to/lastmile_qr_scan"}, "is_reserved": 0, "fusion_lon": 0.0, "fusion_lat": 0.0, "lon": -76.9878785, "name": "fc918bc9de1f462f04e2ea38fa1d2f21"}, {"bike_id": "f8da84dae086aee80cc325612ff69d03", "type": "electric_scooter", "is_disabled": 0, "lat": 38.91511916666666, "rental_uris": {"ios": "https://dc.lft.to/lastmile_qr_scan", "android": "https://dc.lft.to/lastmile_qr_scan"}, "is_reserved": 0, "fusion_lon": 0.0, "fusion_lat": 0.0, "lon": -77.0177605, "name": "f8da84dae086aee80cc325612ff69d03"}, {"bike_id": "0e2263b666f13d268c78e6561eab2ead", "type": "electric_bike", "is_disabled": 0, "lat": 38.944802833333334, "rental_uris": {"ios": "https://dc.lft.to/lastmile_qr_scan", "android": "https://dc.lft.to/lastmile_qr_scan"}, "is_reserved": 0, "fusion_lon": 0.0, "fusion_lat": 0.0, "lon": -76.9868915, "name": "0e2263b666f13d268c78e6561eab2ead"}, {"bike_id": "b38370e0c0241a5a3eb31230b631f7d9", "type": "electric_bike", "is_disabled": 0, "lat": 38.849692, "rental_uris": {"ios": "https://dc.lft.to/lastmile_qr_scan", "android": "https://dc.lft.to/lastmile_qr_scan"}, "is_reserved": 0, "fusion_lon": 0.0, "fusion_lat": 0.0, "lon": -77.0776, "name": "b38370e0c0241a5a3eb31230b631f7d9"}, {"bike_id": "5a38a46b85cb4bb49c74dc30ce8262c6", "type": "electric_scooter", "is_disabled": 0, "lat": 38.92234783333333, "rental_uris": {"ios": "https://dc.lft.to/lastmile_qr_scan", "android": "https://dc.lft.to/lastmile_qr_scan"}, "is_reserved": 0, "fusion_lon": 0.0, "fusion_lat": 0.0, "lon": -77.037091, "name": "5a38a46b85cb4bb49c74dc30ce8262c6"}, {"bike_id": "c8a28700389723990fbf81d02ff6f2ca", "type": "electric_scooter", "is_disabled": 0, "lat": 38.904139666666666, "rental_uris": {"ios": "https://dc.lft.to/lastmile_qr_scan", "android": "https://dc.lft.to/lastmile_qr_scan"}, "is_reserved": 0, "fusion_lon": 0.0, "fusion_lat": 0.0, "lon": -76.97332233333333, "name": "c8a28700389723990fbf81d02ff6f2ca"}, {"bike_id": "f4ee51820f49be7bb8c454ad1aef93ec", "type": "electric_scooter", "is_disabled": 0, "lat": 38.86657266666667, "rental_uris": {"ios": "https://dc.lft.to/lastmile_qr_scan", "android": "https://dc.lft.to/lastmile_qr_scan"}, "is_reserved": 0, "fusion_lon": 0.0, "fusion_lat": 0.0, "lon": -76.98885366666667, "name": "f4ee51820f49be7bb8c454ad1aef93ec"}, {"bike_id": "82138ea2e5cf6c7b2182a3c2afbf3ff1", "type": "electric_scooter", "is_disabled": 0, "lat": 38.904348666666664, "rental_uris": {"ios": "https://dc.lft.to/lastmile_qr_scan", "android": "https://dc.lft.to/lastmile_qr_scan"}, "is_reserved": 0, "fusion_lon": 0.0, "fusion_lat": 0.0, "lon": -77.0688665, "name": "82138ea2e5cf6c7b2182a3c2afbf3ff1"}, {"bike_id": "30776a460f3ffd51a3aef758f6e787c6", "type": "electric_scooter", "is_disabled": 0, "lat": 38.92164266666666, "rental_uris": {"ios": "https://dc.lft.to/lastmile_qr_scan", "android": "https://dc.lft.to/lastmile_qr_scan"}, "is_reserved": 0, "fusion_lon": 0.0, "fusion_lat": 0.0, "lon": -77.03338116666667, "name": "30776a460f3ffd51a3aef758f6e787c6"}, {"bike_id": "c63ea21b337caf85be736832b436ee07", "type": "electric_scooter", "is_disabled": 0, "lat": 38.91716233333333, "rental_uris": {"ios": "https://dc.lft.to/lastmile_qr_scan", "android": "https://dc.lft.to/lastmile_qr_scan"}, "is_reserved": 0, "fusion_lon": 0.0, "fusion_lat": 0.0, "lon": -77.012165, "name": "c63ea21b337caf85be736832b436ee07"}, {"bike_id": "188c1f76f8746c884cea19884a050059", "type": "electric_scooter", "is_disabled": 0, "lat": 38.90580633333333, "rental_uris": {"ios": "https://dc.lft.to/lastmile_qr_scan", "android": "https://dc.lft.to/lastmile_qr_scan"}, "is_reserved": 0, "fusion_lon": 0.0, "fusion_lat": 0.0, "lon": -77.05703966666667, "name": "188c1f76f8746c884cea19884a050059"}, {"bike_id": "b9227648d1c3a9c251546d5d117673be", "type": "electric_scooter", "is_disabled": 0, "lat": 38.906014, "rental_uris": {"ios": "https://dc.lft.to/lastmile_qr_scan", "android": "https://dc.lft.to/lastmile_qr_scan"}, "is_reserved": 0, "fusion_lon": 0.0, "fusion_lat": 0.0, "lon": -77.0271535, "name": "b9227648d1c3a9c251546d5d117673be"}, {"bike_id": "4975c89f3744f1f87153f9f0b34e28c2", "type": "electric_scooter", "is_disabled": 0, "lat": 38.897339333333335, "rental_uris": {"ios": "https://dc.lft.to/lastmile_qr_scan", "android": "https://dc.lft.to/lastmile_qr_scan"}, "is_reserved": 0, "fusion_lon": 0.0, "fusion_lat": 0.0, "lon": -77.05474816666667, "name": "4975c89f3744f1f87153f9f0b34e28c2"}, {"bike_id": "ef0b63956728322a0fe631ca6b9a9d64", "type": "electric_scooter", "is_disabled": 0, "lat": 38.92592483333333, "rental_uris": {"ios": "https://dc.lft.to/lastmile_qr_scan", "android": "https://dc.lft.to/lastmile_qr_scan"}, "is_reserved": 0, "fusion_lon": 0.0, "fusion_lat": 0.0, "lon": -77.0238175, "name": "ef0b63956728322a0fe631ca6b9a9d64"}, {"bike_id": "9b3f00fe056860b56548472f9e0d24be", "type": "electric_scooter", "is_disabled": 0, "lat": 38.909481166666666, "rental_uris": {"ios": "https://dc.lft.to/lastmile_qr_scan", "android": "https://dc.lft.to/lastmile_qr_scan"}, "is_reserved": 0, "fusion_lon": 0.0, "fusion_lat": 0.0, "lon": -77.0556425, "name": "9b3f00fe056860b56548472f9e0d24be"}, {"bike_id": "efcf71851d506f2d362a18ab3891042b", "type": "electric_scooter", "is_disabled": 0, "lat": 38.9141535, "rental_uris": {"ios": "https://dc.lft.to/lastmile_qr_scan", "android": "https://dc.lft.to/lastmile_qr_scan"}, "is_reserved": 0, "fusion_lon": 0.0, "fusion_lat": 0.0, "lon": -77.02215183333334, "name": "efcf71851d506f2d362a18ab3891042b"}, {"bike_id": "6aac4d2d4e44d7e2ccb67264d16ae0a6", "type": "electric_scooter", "is_disabled": 0, "lat": 38.90101933333333, "rental_uris": {"ios": "https://dc.lft.to/lastmile_qr_scan", "android": "https://dc.lft.to/lastmile_qr_scan"}, "is_reserved": 0, "fusion_lon": 0.0, "fusion_lat": 0.0, "lon": -77.0252375, "name": "6aac4d2d4e44d7e2ccb67264d16ae0a6"}, {"bike_id": "99fcf8416846aeff1c4fa4027294505b", "type": "electric_scooter", "is_disabled": 0, "lat": 38.927667666666665, "rental_uris": {"ios": "https://dc.lft.to/lastmile_qr_scan", "android": "https://dc.lft.to/lastmile_qr_scan"}, "is_reserved": 0, "fusion_lon": 0.0, "fusion_lat": 0.0, "lon": -76.96103083333334, "name": "99fcf8416846aeff1c4fa4027294505b"}, {"bike_id": "4199ef9ec2f685f6a287d95a214a1dc7", "type": "electric_scooter", "is_disabled": 0, "lat": 38.962170666666665, "rental_uris": {"ios": "https://dc.lft.to/lastmile_qr_scan", "android": "https://dc.lft.to/lastmile_qr_scan"}, "is_reserved": 0, "fusion_lon": 0.0, "fusion_lat": 0.0, "lon": -77.02781666666667, "name": "4199ef9ec2f685f6a287d95a214a1dc7"}, {"bike_id": "854d5adb1997b58237a34f70e15aba2b", "type": "electric_scooter", "is_disabled": 0, "lat": 38.8733585, "rental_uris": {"ios": "https://dc.lft.to/lastmile_qr_scan", "android": "https://dc.lft.to/lastmile_qr_scan"}, "is_reserved": 0, "fusion_lon": 0.0, "fusion_lat": 0.0, "lon": -77.08953983333333, "name": "854d5adb1997b58237a34f70e15aba2b"}, {"bike_id": "c8978362c772d71eac8289210e1ad5e2", "type": "electric_scooter", "is_disabled": 0, "lat": 38.86733316666667, "rental_uris": {"ios": "https://dc.lft.to/lastmile_qr_scan", "android": "https://dc.lft.to/lastmile_qr_scan"}, "is_reserved": 0, "fusion_lon": 0.0, "fusion_lat": 0.0, "lon": -76.97862616666667, "name": "c8978362c772d71eac8289210e1ad5e2"}, {"bike_id": "3488407877f3e7548a71ffdfb3bb2a8b", "type": "electric_scooter", "is_disabled": 0, "lat": 38.92319216666667, "rental_uris": {"ios": "https://dc.lft.to/lastmile_qr_scan", "android": "https://dc.lft.to/lastmile_qr_scan"}, "is_reserved": 0, "fusion_lon": 0.0, "fusion_lat": 0.0, "lon": -77.0381305, "name": "3488407877f3e7548a71ffdfb3bb2a8b"}, {"bike_id": "6bc9d94ae94d308fea0a62dc7fb96691", "type": "electric_scooter", "is_disabled": 0, "lat": 38.88182483333333, "rental_uris": {"ios": "https://dc.lft.to/lastmile_qr_scan", "android": "https://dc.lft.to/lastmile_qr_scan"}, "is_reserved": 0, "fusion_lon": 0.0, "fusion_lat": 0.0, "lon": -77.0281215, "name": "6bc9d94ae94d308fea0a62dc7fb96691"}, {"bike_id": "b64a04d1532e3b7227461554d37bada3", "type": "electric_scooter", "is_disabled": 0, "lat": 38.875787, "rental_uris": {"ios": "https://dc.lft.to/lastmile_qr_scan", "android": "https://dc.lft.to/lastmile_qr_scan"}, "is_reserved": 0, "fusion_lon": 0.0, "fusion_lat": 0.0, "lon": -77.0127645, "name": "b64a04d1532e3b7227461554d37bada3"}, {"bike_id": "df42b0e352a2044736d6c597ad864a0d", "type": "electric_scooter", "is_disabled": 0, "lat": 38.92887833333333, "rental_uris": {"ios": "https://dc.lft.to/lastmile_qr_scan", "android": "https://dc.lft.to/lastmile_qr_scan"}, "is_reserved": 0, "fusion_lon": 0.0, "fusion_lat": 0.0, "lon": -77.032761, "name": "df42b0e352a2044736d6c597ad864a0d"}, {"bike_id": "f3d2e239fa3ce284c254c4cc798cf12c", "type": "electric_bike", "is_disabled": 0, "lat": 39.03412466666666, "rental_uris": {"ios": "https://dc.lft.to/lastmile_qr_scan", "android": "https://dc.lft.to/lastmile_qr_scan"}, "is_reserved": 0, "fusion_lon": 0.0, "fusion_lat": 0.0, "lon": -77.04178033333334, "name": "f3d2e239fa3ce284c254c4cc798cf12c"}, {"bike_id": "07cbc30e418db431b257a1d0ba798cbe", "type": "electric_scooter", "is_disabled": 0, "lat": 38.89221083333333, "rental_uris": {"ios": "https://dc.lft.to/lastmile_qr_scan", "android": "https://dc.lft.to/lastmile_qr_scan"}, "is_reserved": 0, "fusion_lon": 0.0, "fusion_lat": 0.0, "lon": -77.04515333333333, "name": "07cbc30e418db431b257a1d0ba798cbe"}, {"bike_id": "22be85eabcf0466b3aeb5d84041196a8", "type": "electric_scooter", "is_disabled": 0, "lat": 38.8960765, "rental_uris": {"ios": "https://dc.lft.to/lastmile_qr_scan", "android": "https://dc.lft.to/lastmile_qr_scan"}, "is_reserved": 0, "fusion_lon": 0.0, "fusion_lat": 0.0, "lon": -77.00928083333334, "name": "22be85eabcf0466b3aeb5d84041196a8"}, {"bike_id": "8a96ba31e108287f61bacc8fdff60073", "type": "electric_scooter", "is_disabled": 0, "lat": 38.92388533333333, "rental_uris": {"ios": "https://dc.lft.to/lastmile_qr_scan", "android": "https://dc.lft.to/lastmile_qr_scan"}, "is_reserved": 0, "fusion_lon": 0.0, "fusion_lat": 0.0, "lon": -77.02819916666667, "name": "8a96ba31e108287f61bacc8fdff60073"}, {"bike_id": "a05936b3fbf742f87b48ddecd17fc738", "type": "electric_scooter", "is_disabled": 0, "lat": 38.89741516666667, "rental_uris": {"ios": "https://dc.lft.to/lastmile_qr_scan", "android": "https://dc.lft.to/lastmile_qr_scan"}, "is_reserved": 0, "fusion_lon": 0.0, "fusion_lat": 0.0, "lon": -76.947235, "name": "a05936b3fbf742f87b48ddecd17fc738"}, {"bike_id": "d7126ace815f85154b76beae09c7af32", "type": "electric_scooter", "is_disabled": 0, "lat": 38.905476166666666, "rental_uris": {"ios": "https://dc.lft.to/lastmile_qr_scan", "android": "https://dc.lft.to/lastmile_qr_scan"}, "is_reserved": 0, "fusion_lon": 0.0, "fusion_lat": 0.0, "lon": -77.05002516666667, "name": "d7126ace815f85154b76beae09c7af32"}, {"bike_id": "c20208a370f1f47c3800648064fb43f1", "type": "electric_scooter", "is_disabled": 0, "lat": 38.914060666666664, "rental_uris": {"ios": "https://dc.lft.to/lastmile_qr_scan", "android": "https://dc.lft.to/lastmile_qr_scan"}, "is_reserved": 0, "fusion_lon": 0.0, "fusion_lat": 0.0, "lon": -77.0317235, "name": "c20208a370f1f47c3800648064fb43f1"}, {"bike_id": "ff656268f147f4c77f0a46eb6d266167", "type": "electric_scooter", "is_disabled": 0, "lat": 38.91971, "rental_uris": {"ios": "https://dc.lft.to/lastmile_qr_scan", "android": "https://dc.lft.to/lastmile_qr_scan"}, "is_reserved": 0, "fusion_lon": 0.0, "fusion_lat": 0.0, "lon": -77.03952133333334, "name": "ff656268f147f4c77f0a46eb6d266167"}, {"bike_id": "c429b5e45456cbdc6f9f6b05a37eb6b2", "type": "electric_scooter", "is_disabled": 0, "lat": 38.92754433333333, "rental_uris": {"ios": "https://dc.lft.to/lastmile_qr_scan", "android": "https://dc.lft.to/lastmile_qr_scan"}, "is_reserved": 0, "fusion_lon": 0.0, "fusion_lat": 0.0, "lon": -77.024254, "name": "c429b5e45456cbdc6f9f6b05a37eb6b2"}, {"bike_id": "4d9513119f5700bbcdc6494c6d063b4d", "type": "electric_scooter", "is_disabled": 0, "lat": 38.91555483333333, "rental_uris": {"ios": "https://dc.lft.to/lastmile_qr_scan", "android": "https://dc.lft.to/lastmile_qr_scan"}, "is_reserved": 0, "fusion_lon": 0.0, "fusion_lat": 0.0, "lon": -77.02559866666667, "name": "4d9513119f5700bbcdc6494c6d063b4d"}, {"bike_id": "42998c516e57530e2654ee3b8654c7ef", "type": "electric_scooter", "is_disabled": 0, "lat": 38.8921615, "rental_uris": {"ios": "https://dc.lft.to/lastmile_qr_scan", "android": "https://dc.lft.to/lastmile_qr_scan"}, "is_reserved": 0, "fusion_lon": 0.0, "fusion_lat": 0.0, "lon": -77.03167233333333, "name": "42998c516e57530e2654ee3b8654c7ef"}, {"bike_id": "04bdd4882fbff042b257fb9cef00c8cd", "type": "electric_scooter", "is_disabled": 0, "lat": 38.9030655, "rental_uris": {"ios": "https://dc.lft.to/lastmile_qr_scan", "android": "https://dc.lft.to/lastmile_qr_scan"}, "is_reserved": 0, "fusion_lon": 0.0, "fusion_lat": 0.0, "lon": -77.05051816666666, "name": "04bdd4882fbff042b257fb9cef00c8cd"}, {"bike_id": "6e088bb402fbd458286a44d85b60dfb9", "type": "electric_scooter", "is_disabled": 0, "lat": 38.900529, "rental_uris": {"ios": "https://dc.lft.to/lastmile_qr_scan", "android": "https://dc.lft.to/lastmile_qr_scan"}, "is_reserved": 0, "fusion_lon": 0.0, "fusion_lat": 0.0, "lon": -76.997543, "name": "6e088bb402fbd458286a44d85b60dfb9"}, {"bike_id": "905be3e4cb0289a948d2fdd57e6c8624", "type": "electric_bike", "is_disabled": 0, "lat": 38.87883216666667, "rental_uris": {"ios": "https://dc.lft.to/lastmile_qr_scan", "android": "https://dc.lft.to/lastmile_qr_scan"}, "is_reserved": 0, "fusion_lon": 0.0, "fusion_lat": 0.0, "lon": -77.09618383333333, "name": "905be3e4cb0289a948d2fdd57e6c8624"}, {"bike_id": "817cde97cb6397afd003c23748f34fc1", "type": "electric_scooter", "is_disabled": 0, "lat": 38.874756166666664, "rental_uris": {"ios": "https://dc.lft.to/lastmile_qr_scan", "android": "https://dc.lft.to/lastmile_qr_scan"}, "is_reserved": 0, "fusion_lon": 0.0, "fusion_lat": 0.0, "lon": -77.0106985, "name": "817cde97cb6397afd003c23748f34fc1"}, {"bike_id": "9181d36a7b8e0b62d85ee92ce2dbcfdd", "type": "electric_scooter", "is_disabled": 0, "lat": 38.91266683333333, "rental_uris": {"ios": "https://dc.lft.to/lastmile_qr_scan", "android": "https://dc.lft.to/lastmile_qr_scan"}, "is_reserved": 0, "fusion_lon": 0.0, "fusion_lat": 0.0, "lon": -77.04707883333333, "name": "9181d36a7b8e0b62d85ee92ce2dbcfdd"}, {"bike_id": "95d3a63583b69d13f0158fff5e258ec7", "type": "electric_scooter", "is_disabled": 0, "lat": 38.90760616666667, "rental_uris": {"ios": "https://dc.lft.to/lastmile_qr_scan", "android": "https://dc.lft.to/lastmile_qr_scan"}, "is_reserved": 0, "fusion_lon": 0.0, "fusion_lat": 0.0, "lon": -77.04175016666667, "name": "95d3a63583b69d13f0158fff5e258ec7"}, {"bike_id": "435629803ac441984d537d0255ef8a85", "type": "electric_scooter", "is_disabled": 0, "lat": 38.928374166666664, "rental_uris": {"ios": "https://dc.lft.to/lastmile_qr_scan", "android": "https://dc.lft.to/lastmile_qr_scan"}, "is_reserved": 0, "fusion_lon": 0.0, "fusion_lat": 0.0, "lon": -77.02979016666667, "name": "435629803ac441984d537d0255ef8a85"}, {"bike_id": "816dc3a30c3eed6e2e961123346f7fd5", "type": "electric_scooter", "is_disabled": 0, "lat": 38.90579683333333, "rental_uris": {"ios": "https://dc.lft.to/lastmile_qr_scan", "android": "https://dc.lft.to/lastmile_qr_scan"}, "is_reserved": 0, "fusion_lon": 0.0, "fusion_lat": 0.0, "lon": -77.02202133333333, "name": "816dc3a30c3eed6e2e961123346f7fd5"}, {"bike_id": "3993f92db93dd837e063a10bbd66b69b", "type": "electric_scooter", "is_disabled": 0, "lat": 38.919435666666665, "rental_uris": {"ios": "https://dc.lft.to/lastmile_qr_scan", "android": "https://dc.lft.to/lastmile_qr_scan"}, "is_reserved": 0, "fusion_lon": 0.0, "fusion_lat": 0.0, "lon": -77.04500516666667, "name": "3993f92db93dd837e063a10bbd66b69b"}, {"bike_id": "c35f7b24575ffcb405dc0a86efbecf62", "type": "electric_scooter", "is_disabled": 0, "lat": 38.8709425, "rental_uris": {"ios": "https://dc.lft.to/lastmile_qr_scan", "android": "https://dc.lft.to/lastmile_qr_scan"}, "is_reserved": 0, "fusion_lon": 0.0, "fusion_lat": 0.0, "lon": -77.01206133333334, "name": "c35f7b24575ffcb405dc0a86efbecf62"}, {"bike_id": "b57e62c968a63a6a58d64193ac20261b", "type": "electric_scooter", "is_disabled": 0, "lat": 38.9160065, "rental_uris": {"ios": "https://dc.lft.to/lastmile_qr_scan", "android": "https://dc.lft.to/lastmile_qr_scan"}, "is_reserved": 0, "fusion_lon": 0.0, "fusion_lat": 0.0, "lon": -77.06805666666666, "name": "b57e62c968a63a6a58d64193ac20261b"}, {"bike_id": "2a18340612bf5c91d9066565725bd974", "type": "electric_scooter", "is_disabled": 0, "lat": 38.90679033333333, "rental_uris": {"ios": "https://dc.lft.to/lastmile_qr_scan", "android": "https://dc.lft.to/lastmile_qr_scan"}, "is_reserved": 0, "fusion_lon": 0.0, "fusion_lat": 0.0, "lon": -77.0269485, "name": "2a18340612bf5c91d9066565725bd974"}, {"bike_id": "c22ef055d1bcd688c447fc6440e405be", "type": "electric_scooter", "is_disabled": 0, "lat": 38.90580033333333, "rental_uris": {"ios": "https://dc.lft.to/lastmile_qr_scan", "android": "https://dc.lft.to/lastmile_qr_scan"}, "is_reserved": 0, "fusion_lon": 0.0, "fusion_lat": 0.0, "lon": -76.97624616666667, "name": "c22ef055d1bcd688c447fc6440e405be"}, {"bike_id": "a1b413223eb1e4780ff4e794a43ce761", "type": "electric_scooter", "is_disabled": 0, "lat": 38.922587666666665, "rental_uris": {"ios": "https://dc.lft.to/lastmile_qr_scan", "android": "https://dc.lft.to/lastmile_qr_scan"}, "is_reserved": 0, "fusion_lon": 0.0, "fusion_lat": 0.0, "lon": -77.04301866666667, "name": "a1b413223eb1e4780ff4e794a43ce761"}, {"bike_id": "94dd628794c98b010558a19056924f92", "type": "electric_scooter", "is_disabled": 0, "lat": 38.882796166666665, "rental_uris": {"ios": "https://dc.lft.to/lastmile_qr_scan", "android": "https://dc.lft.to/lastmile_qr_scan"}, "is_reserved": 0, "fusion_lon": 0.0, "fusion_lat": 0.0, "lon": -76.929244, "name": "94dd628794c98b010558a19056924f92"}, {"bike_id": "1157315060766435e7635d3773530768", "type": "electric_scooter", "is_disabled": 0, "lat": 38.884001, "rental_uris": {"ios": "https://dc.lft.to/lastmile_qr_scan", "android": "https://dc.lft.to/lastmile_qr_scan"}, "is_reserved": 0, "fusion_lon": 0.0, "fusion_lat": 0.0, "lon": -76.95399483333334, "name": "1157315060766435e7635d3773530768"}, {"bike_id": "f9922a20767d60361aea0996a4390d6c", "type": "electric_scooter", "is_disabled": 0, "lat": 38.91889316666666, "rental_uris": {"ios": "https://dc.lft.to/lastmile_qr_scan", "android": "https://dc.lft.to/lastmile_qr_scan"}, "is_reserved": 0, "fusion_lon": 0.0, "fusion_lat": 0.0, "lon": -77.03559083333333, "name": "f9922a20767d60361aea0996a4390d6c"}, {"bike_id": "e102424e5d7752626624131a55f358f1", "type": "electric_scooter", "is_disabled": 0, "lat": 38.9183245, "rental_uris": {"ios": "https://dc.lft.to/lastmile_qr_scan", "android": "https://dc.lft.to/lastmile_qr_scan"}, "is_reserved": 0, "fusion_lon": 0.0, "fusion_lat": 0.0, "lon": -77.03193716666667, "name": "e102424e5d7752626624131a55f358f1"}, {"bike_id": "81857526f04b8c1810ab788b0ca3003d", "type": "electric_bike", "is_disabled": 0, "lat": 38.919139666666666, "rental_uris": {"ios": "https://dc.lft.to/lastmile_qr_scan", "android": "https://dc.lft.to/lastmile_qr_scan"}, "is_reserved": 0, "fusion_lon": 0.0, "fusion_lat": 0.0, "lon": -77.07027266666667, "name": "81857526f04b8c1810ab788b0ca3003d"}, {"bike_id": "464f2d0586b547f4ff19bd3ad3078ad0", "type": "electric_scooter", "is_disabled": 0, "lat": 38.90982733333333, "rental_uris": {"ios": "https://dc.lft.to/lastmile_qr_scan", "android": "https://dc.lft.to/lastmile_qr_scan"}, "is_reserved": 0, "fusion_lon": 0.0, "fusion_lat": 0.0, "lon": -77.0339775, "name": "464f2d0586b547f4ff19bd3ad3078ad0"}, {"bike_id": "b73fb69e2d1ddb0ac2e1ded4faeb24df", "type": "electric_scooter", "is_disabled": 0, "lat": 38.89836616666667, "rental_uris": {"ios": "https://dc.lft.to/lastmile_qr_scan", "android": "https://dc.lft.to/lastmile_qr_scan"}, "is_reserved": 0, "fusion_lon": 0.0, "fusion_lat": 0.0, "lon": -77.0261285, "name": "b73fb69e2d1ddb0ac2e1ded4faeb24df"}, {"bike_id": "786c5f8022f50b753da0205f4bdb86d6", "type": "electric_scooter", "is_disabled": 0, "lat": 38.888508333333334, "rental_uris": {"ios": "https://dc.lft.to/lastmile_qr_scan", "android": "https://dc.lft.to/lastmile_qr_scan"}, "is_reserved": 0, "fusion_lon": 0.0, "fusion_lat": 0.0, "lon": -76.9267795, "name": "786c5f8022f50b753da0205f4bdb86d6"}, {"bike_id": "6ff355db21a4c6ac28eabbf91c9aaf81", "type": "electric_scooter", "is_disabled": 0, "lat": 38.942704666666664, "rental_uris": {"ios": "https://dc.lft.to/lastmile_qr_scan", "android": "https://dc.lft.to/lastmile_qr_scan"}, "is_reserved": 0, "fusion_lon": 0.0, "fusion_lat": 0.0, "lon": -77.0325915, "name": "6ff355db21a4c6ac28eabbf91c9aaf81"}, {"bike_id": "3ae742d2fa0075842613e62e1b682fe5", "type": "electric_scooter", "is_disabled": 0, "lat": 38.878667666666665, "rental_uris": {"ios": "https://dc.lft.to/lastmile_qr_scan", "android": "https://dc.lft.to/lastmile_qr_scan"}, "is_reserved": 0, "fusion_lon": 0.0, "fusion_lat": 0.0, "lon": -76.96981833333334, "name": "3ae742d2fa0075842613e62e1b682fe5"}, {"bike_id": "9a0718b1218184c05bec39f3b028373e", "type": "electric_scooter", "is_disabled": 0, "lat": 38.91115083333333, "rental_uris": {"ios": "https://dc.lft.to/lastmile_qr_scan", "android": "https://dc.lft.to/lastmile_qr_scan"}, "is_reserved": 0, "fusion_lon": 0.0, "fusion_lat": 0.0, "lon": -77.03835033333333, "name": "9a0718b1218184c05bec39f3b028373e"}, {"bike_id": "19221377e0e86ea115651140352351e3", "type": "electric_scooter", "is_disabled": 0, "lat": 38.929164, "rental_uris": {"ios": "https://dc.lft.to/lastmile_qr_scan", "android": "https://dc.lft.to/lastmile_qr_scan"}, "is_reserved": 0, "fusion_lon": 0.0, "fusion_lat": 0.0, "lon": -77.020874, "name": "19221377e0e86ea115651140352351e3"}, {"bike_id": "8ea691acd6de6f56396c19667f9c2d2f", "type": "electric_scooter", "is_disabled": 0, "lat": 38.902584166666664, "rental_uris": {"ios": "https://dc.lft.to/lastmile_qr_scan", "android": "https://dc.lft.to/lastmile_qr_scan"}, "is_reserved": 0, "fusion_lon": 0.0, "fusion_lat": 0.0, "lon": -77.04337166666667, "name": "8ea691acd6de6f56396c19667f9c2d2f"}, {"bike_id": "14a71118cef6603472cabb338451b3e1", "type": "electric_scooter", "is_disabled": 0, "lat": 38.924713, "rental_uris": {"ios": "https://dc.lft.to/lastmile_qr_scan", "android": "https://dc.lft.to/lastmile_qr_scan"}, "is_reserved": 0, "fusion_lon": 0.0, "fusion_lat": 0.0, "lon": -77.0283375, "name": "14a71118cef6603472cabb338451b3e1"}, {"bike_id": "3f9e4b30a588e7dbf5e11dab0e6673a4", "type": "electric_scooter", "is_disabled": 0, "lat": 38.914373166666664, "rental_uris": {"ios": "https://dc.lft.to/lastmile_qr_scan", "android": "https://dc.lft.to/lastmile_qr_scan"}, "is_reserved": 0, "fusion_lon": 0.0, "fusion_lat": 0.0, "lon": -77.02288633333333, "name": "3f9e4b30a588e7dbf5e11dab0e6673a4"}, {"bike_id": "a61dc47439abfa0a93573a38faf2d0c2", "type": "electric_scooter", "is_disabled": 0, "lat": 38.87418683333333, "rental_uris": {"ios": "https://dc.lft.to/lastmile_qr_scan", "android": "https://dc.lft.to/lastmile_qr_scan"}, "is_reserved": 0, "fusion_lon": 0.0, "fusion_lat": 0.0, "lon": -76.96907783333333, "name": "a61dc47439abfa0a93573a38faf2d0c2"}, {"bike_id": "92ef8a31720379db25a6695d71c65e3a", "type": "electric_scooter", "is_disabled": 0, "lat": 38.853191, "rental_uris": {"ios": "https://dc.lft.to/lastmile_qr_scan", "android": "https://dc.lft.to/lastmile_qr_scan"}, "is_reserved": 0, "fusion_lon": 0.0, "fusion_lat": 0.0, "lon": -76.98025633333333, "name": "92ef8a31720379db25a6695d71c65e3a"}, {"bike_id": "1cb5153e35fe436d5155435a8330990c", "type": "electric_scooter", "is_disabled": 0, "lat": 38.9060775, "rental_uris": {"ios": "https://dc.lft.to/lastmile_qr_scan", "android": "https://dc.lft.to/lastmile_qr_scan"}, "is_reserved": 0, "fusion_lon": 0.0, "fusion_lat": 0.0, "lon": -77.04706483333334, "name": "1cb5153e35fe436d5155435a8330990c"}, {"bike_id": "9e849eeefa78d45055e9c14a115ca881", "type": "electric_scooter", "is_disabled": 0, "lat": 38.866850666666664, "rental_uris": {"ios": "https://dc.lft.to/lastmile_qr_scan", "android": "https://dc.lft.to/lastmile_qr_scan"}, "is_reserved": 0, "fusion_lon": 0.0, "fusion_lat": 0.0, "lon": -76.98579416666666, "name": "9e849eeefa78d45055e9c14a115ca881"}, {"bike_id": "a167d9d494482ccc04fd50232cbc0972", "type": "electric_scooter", "is_disabled": 0, "lat": 38.91643783333333, "rental_uris": {"ios": "https://dc.lft.to/lastmile_qr_scan", "android": "https://dc.lft.to/lastmile_qr_scan"}, "is_reserved": 0, "fusion_lon": 0.0, "fusion_lat": 0.0, "lon": -77.02283333333334, "name": "a167d9d494482ccc04fd50232cbc0972"}, {"bike_id": "a861f6de321fcd77745cc23a040aeedb", "type": "electric_scooter", "is_disabled": 0, "lat": 38.9298075, "rental_uris": {"ios": "https://dc.lft.to/lastmile_qr_scan", "android": "https://dc.lft.to/lastmile_qr_scan"}, "is_reserved": 0, "fusion_lon": 0.0, "fusion_lat": 0.0, "lon": -77.03656166666667, "name": "a861f6de321fcd77745cc23a040aeedb"}, {"bike_id": "598302998989f998bb997b0cd93dd277", "type": "electric_scooter", "is_disabled": 0, "lat": 38.90275283333333, "rental_uris": {"ios": "https://dc.lft.to/lastmile_qr_scan", "android": "https://dc.lft.to/lastmile_qr_scan"}, "is_reserved": 0, "fusion_lon": 0.0, "fusion_lat": 0.0, "lon": -77.05807016666667, "name": "598302998989f998bb997b0cd93dd277"}, {"bike_id": "fef5d5e64c949e560dc44e03e7a904ad", "type": "electric_scooter", "is_disabled": 0, "lat": 38.916102, "rental_uris": {"ios": "https://dc.lft.to/lastmile_qr_scan", "android": "https://dc.lft.to/lastmile_qr_scan"}, "is_reserved": 0, "fusion_lon": 0.0, "fusion_lat": 0.0, "lon": -77.03188833333333, "name": "fef5d5e64c949e560dc44e03e7a904ad"}, {"bike_id": "d11f22a6f1418255ac3cae31dee3ddab", "type": "electric_bike", "is_disabled": 0, "lat": 38.8553885, "rental_uris": {"ios": "https://dc.lft.to/lastmile_qr_scan", "android": "https://dc.lft.to/lastmile_qr_scan"}, "is_reserved": 0, "fusion_lon": 0.0, "fusion_lat": 0.0, "lon": -77.12038666666666, "name": "d11f22a6f1418255ac3cae31dee3ddab"}, {"bike_id": "20acb5ad14e5c183d1ca03fab1017c9f", "type": "electric_scooter", "is_disabled": 0, "lat": 38.905725, "rental_uris": {"ios": "https://dc.lft.to/lastmile_qr_scan", "android": "https://dc.lft.to/lastmile_qr_scan"}, "is_reserved": 0, "fusion_lon": 0.0, "fusion_lat": 0.0, "lon": -77.02199166666666, "name": "20acb5ad14e5c183d1ca03fab1017c9f"}, {"bike_id": "4797b251751333c6c1f61affc90d0887", "type": "electric_scooter", "is_disabled": 0, "lat": 38.9192805, "rental_uris": {"ios": "https://dc.lft.to/lastmile_qr_scan", "android": "https://dc.lft.to/lastmile_qr_scan"}, "is_reserved": 0, "fusion_lon": 0.0, "fusion_lat": 0.0, "lon": -77.03181766666667, "name": "4797b251751333c6c1f61affc90d0887"}, {"bike_id": "db159fd2dfafd5fe146f3702ec2230b3", "type": "electric_scooter", "is_disabled": 0, "lat": 38.933558833333336, "rental_uris": {"ios": "https://dc.lft.to/lastmile_qr_scan", "android": "https://dc.lft.to/lastmile_qr_scan"}, "is_reserved": 0, "fusion_lon": 0.0, "fusion_lat": 0.0, "lon": -77.07360016666667, "name": "db159fd2dfafd5fe146f3702ec2230b3"}, {"bike_id": "0216bea3955a76dca0f6c62fd2f890ab", "type": "electric_bike", "is_disabled": 0, "lat": 38.93724516666666, "rental_uris": {"ios": "https://dc.lft.to/lastmile_qr_scan", "android": "https://dc.lft.to/lastmile_qr_scan"}, "is_reserved": 0, "fusion_lon": 0.0, "fusion_lat": 0.0, "lon": -76.99144933333334, "name": "0216bea3955a76dca0f6c62fd2f890ab"}, {"bike_id": "2dacd92a6055f04d545db0e534339c09", "type": "electric_scooter", "is_disabled": 0, "lat": 38.95254, "rental_uris": {"ios": "https://dc.lft.to/lastmile_qr_scan", "android": "https://dc.lft.to/lastmile_qr_scan"}, "is_reserved": 0, "fusion_lon": 0.0, "fusion_lat": 0.0, "lon": -77.0196885, "name": "2dacd92a6055f04d545db0e534339c09"}, {"bike_id": "1f53ed713128fee01129848dce6e606d", "type": "electric_scooter", "is_disabled": 0, "lat": 38.866829833333334, "rental_uris": {"ios": "https://dc.lft.to/lastmile_qr_scan", "android": "https://dc.lft.to/lastmile_qr_scan"}, "is_reserved": 0, "fusion_lon": 0.0, "fusion_lat": 0.0, "lon": -76.98575366666667, "name": "1f53ed713128fee01129848dce6e606d"}, {"bike_id": "f909c36ed97e447958d15cd9d6bbfc1a", "type": "electric_scooter", "is_disabled": 0, "lat": 38.866477833333335, "rental_uris": {"ios": "https://dc.lft.to/lastmile_qr_scan", "android": "https://dc.lft.to/lastmile_qr_scan"}, "is_reserved": 0, "fusion_lon": 0.0, "fusion_lat": 0.0, "lon": -76.98822316666667, "name": "f909c36ed97e447958d15cd9d6bbfc1a"}, {"bike_id": "b6708ea1a215f98092771ea783a9938e", "type": "electric_scooter", "is_disabled": 0, "lat": 38.92748683333333, "rental_uris": {"ios": "https://dc.lft.to/lastmile_qr_scan", "android": "https://dc.lft.to/lastmile_qr_scan"}, "is_reserved": 0, "fusion_lon": 0.0, "fusion_lat": 0.0, "lon": -77.02536733333334, "name": "b6708ea1a215f98092771ea783a9938e"}, {"bike_id": "fcb3556f8cc165827486d2e182272e64", "type": "electric_bike", "is_disabled": 0, "lat": 38.983844, "rental_uris": {"ios": "https://dc.lft.to/lastmile_qr_scan", "android": "https://dc.lft.to/lastmile_qr_scan"}, "is_reserved": 0, "fusion_lon": 0.0, "fusion_lat": 0.0, "lon": -76.9722905, "name": "fcb3556f8cc165827486d2e182272e64"}, {"bike_id": "b97cc16836f87686d4b68eca5b638305", "type": "electric_scooter", "is_disabled": 0, "lat": 38.90715483333334, "rental_uris": {"ios": "https://dc.lft.to/lastmile_qr_scan", "android": "https://dc.lft.to/lastmile_qr_scan"}, "is_reserved": 0, "fusion_lon": 0.0, "fusion_lat": 0.0, "lon": -77.02397783333333, "name": "b97cc16836f87686d4b68eca5b638305"}, {"bike_id": "0098ae91df353b84f2bcdce4700affb1", "type": "electric_scooter", "is_disabled": 0, "lat": 38.9077855, "rental_uris": {"ios": "https://dc.lft.to/lastmile_qr_scan", "android": "https://dc.lft.to/lastmile_qr_scan"}, "is_reserved": 0, "fusion_lon": 0.0, "fusion_lat": 0.0, "lon": -77.03197033333333, "name": "0098ae91df353b84f2bcdce4700affb1"}, {"bike_id": "0d1dc4bf024e43957822c52fe4fd1d7a", "type": "electric_scooter", "is_disabled": 0, "lat": 38.873378, "rental_uris": {"ios": "https://dc.lft.to/lastmile_qr_scan", "android": "https://dc.lft.to/lastmile_qr_scan"}, "is_reserved": 0, "fusion_lon": 0.0, "fusion_lat": 0.0, "lon": -77.08955566666667, "name": "0d1dc4bf024e43957822c52fe4fd1d7a"}, {"bike_id": "a3840021ba825672e7752c0ffdf23819", "type": "electric_scooter", "is_disabled": 0, "lat": 38.8973445, "rental_uris": {"ios": "https://dc.lft.to/lastmile_qr_scan", "android": "https://dc.lft.to/lastmile_qr_scan"}, "is_reserved": 0, "fusion_lon": 0.0, "fusion_lat": 0.0, "lon": -77.04609016666667, "name": "a3840021ba825672e7752c0ffdf23819"}, {"bike_id": "f16051010c7d73c6f068660a6ead15eb", "type": "electric_scooter", "is_disabled": 0, "lat": 38.9346175, "rental_uris": {"ios": "https://dc.lft.to/lastmile_qr_scan", "android": "https://dc.lft.to/lastmile_qr_scan"}, "is_reserved": 0, "fusion_lon": 0.0, "fusion_lat": 0.0, "lon": -77.027666, "name": "f16051010c7d73c6f068660a6ead15eb"}, {"bike_id": "0fb47681e98e8c7cf787debbc5e6e909", "type": "electric_scooter", "is_disabled": 0, "lat": 38.863761833333335, "rental_uris": {"ios": "https://dc.lft.to/lastmile_qr_scan", "android": "https://dc.lft.to/lastmile_qr_scan"}, "is_reserved": 0, "fusion_lon": 0.0, "fusion_lat": 0.0, "lon": -76.990618, "name": "0fb47681e98e8c7cf787debbc5e6e909"}, {"bike_id": "553fa674e37aa50c9df6339cc4d5fc7a", "type": "electric_scooter", "is_disabled": 0, "lat": 38.915365333333334, "rental_uris": {"ios": "https://dc.lft.to/lastmile_qr_scan", "android": "https://dc.lft.to/lastmile_qr_scan"}, "is_reserved": 0, "fusion_lon": 0.0, "fusion_lat": 0.0, "lon": -77.0378975, "name": "553fa674e37aa50c9df6339cc4d5fc7a"}, {"bike_id": "0be7e021149f74e6ca49765df127e19d", "type": "electric_scooter", "is_disabled": 0, "lat": 38.92479216666667, "rental_uris": {"ios": "https://dc.lft.to/lastmile_qr_scan", "android": "https://dc.lft.to/lastmile_qr_scan"}, "is_reserved": 0, "fusion_lon": 0.0, "fusion_lat": 0.0, "lon": -77.028368, "name": "0be7e021149f74e6ca49765df127e19d"}, {"bike_id": "40ebddc4afb026fa14869192ff403b69", "type": "electric_scooter", "is_disabled": 0, "lat": 38.91346216666667, "rental_uris": {"ios": "https://dc.lft.to/lastmile_qr_scan", "android": "https://dc.lft.to/lastmile_qr_scan"}, "is_reserved": 0, "fusion_lon": 0.0, "fusion_lat": 0.0, "lon": -77.02590866666667, "name": "40ebddc4afb026fa14869192ff403b69"}, {"bike_id": "ba55fb6e8fc46610388f94ab79644cc7", "type": "electric_scooter", "is_disabled": 0, "lat": 38.912626833333334, "rental_uris": {"ios": "https://dc.lft.to/lastmile_qr_scan", "android": "https://dc.lft.to/lastmile_qr_scan"}, "is_reserved": 0, "fusion_lon": 0.0, "fusion_lat": 0.0, "lon": -77.01145566666666, "name": "ba55fb6e8fc46610388f94ab79644cc7"}, {"bike_id": "4f4f9d855fbf863ad68ae83c6516ef61", "type": "electric_scooter", "is_disabled": 0, "lat": 38.866854833333335, "rental_uris": {"ios": "https://dc.lft.to/lastmile_qr_scan", "android": "https://dc.lft.to/lastmile_qr_scan"}, "is_reserved": 0, "fusion_lon": 0.0, "fusion_lat": 0.0, "lon": -76.9855775, "name": "4f4f9d855fbf863ad68ae83c6516ef61"}, {"bike_id": "40c45874abd1fe4d9ffd091e7c2935bd", "type": "electric_scooter", "is_disabled": 0, "lat": 38.897855, "rental_uris": {"ios": "https://dc.lft.to/lastmile_qr_scan", "android": "https://dc.lft.to/lastmile_qr_scan"}, "is_reserved": 0, "fusion_lon": 0.0, "fusion_lat": 0.0, "lon": -76.94735383333334, "name": "40c45874abd1fe4d9ffd091e7c2935bd"}, {"bike_id": "ac0bc1549c2786c1652e268092995ed3", "type": "electric_scooter", "is_disabled": 0, "lat": 38.893558666666664, "rental_uris": {"ios": "https://dc.lft.to/lastmile_qr_scan", "android": "https://dc.lft.to/lastmile_qr_scan"}, "is_reserved": 0, "fusion_lon": 0.0, "fusion_lat": 0.0, "lon": -77.02213616666667, "name": "ac0bc1549c2786c1652e268092995ed3"}, {"bike_id": "4b4b5ffe31e7153c8356104002907800", "type": "electric_scooter", "is_disabled": 0, "lat": 38.906796166666666, "rental_uris": {"ios": "https://dc.lft.to/lastmile_qr_scan", "android": "https://dc.lft.to/lastmile_qr_scan"}, "is_reserved": 0, "fusion_lon": 0.0, "fusion_lat": 0.0, "lon": -77.0269195, "name": "4b4b5ffe31e7153c8356104002907800"}, {"bike_id": "1f2cf11edc7a2d813206758fe4c0f8b1", "type": "electric_scooter", "is_disabled": 0, "lat": 38.93135633333333, "rental_uris": {"ios": "https://dc.lft.to/lastmile_qr_scan", "android": "https://dc.lft.to/lastmile_qr_scan"}, "is_reserved": 0, "fusion_lon": 0.0, "fusion_lat": 0.0, "lon": -77.0434815, "name": "1f2cf11edc7a2d813206758fe4c0f8b1"}, {"bike_id": "617dfd9369df7812dc2e69fa6442c4ee", "type": "electric_scooter", "is_disabled": 0, "lat": 38.913297666666665, "rental_uris": {"ios": "https://dc.lft.to/lastmile_qr_scan", "android": "https://dc.lft.to/lastmile_qr_scan"}, "is_reserved": 0, "fusion_lon": 0.0, "fusion_lat": 0.0, "lon": -77.02686616666666, "name": "617dfd9369df7812dc2e69fa6442c4ee"}, {"bike_id": "11bf93f235db64011f6d7e1a5f81be4d", "type": "electric_scooter", "is_disabled": 0, "lat": 38.923913166666665, "rental_uris": {"ios": "https://dc.lft.to/lastmile_qr_scan", "android": "https://dc.lft.to/lastmile_qr_scan"}, "is_reserved": 0, "fusion_lon": 0.0, "fusion_lat": 0.0, "lon": -77.0297985, "name": "11bf93f235db64011f6d7e1a5f81be4d"}, {"bike_id": "f254cbeff67f177949aff6daf697914a", "type": "electric_scooter", "is_disabled": 0, "lat": 38.89726866666667, "rental_uris": {"ios": "https://dc.lft.to/lastmile_qr_scan", "android": "https://dc.lft.to/lastmile_qr_scan"}, "is_reserved": 0, "fusion_lon": 0.0, "fusion_lat": 0.0, "lon": -77.04531566666667, "name": "f254cbeff67f177949aff6daf697914a"}, {"bike_id": "b5e0fb352e070d2d05ddfd0ddb9b6773", "type": "electric_scooter", "is_disabled": 0, "lat": 38.93641783333333, "rental_uris": {"ios": "https://dc.lft.to/lastmile_qr_scan", "android": "https://dc.lft.to/lastmile_qr_scan"}, "is_reserved": 0, "fusion_lon": 0.0, "fusion_lat": 0.0, "lon": -77.0588615, "name": "b5e0fb352e070d2d05ddfd0ddb9b6773"}, {"bike_id": "f495ac38a455fcf40901d5c6e7a3b9eb", "type": "electric_scooter", "is_disabled": 0, "lat": 38.92020383333333, "rental_uris": {"ios": "https://dc.lft.to/lastmile_qr_scan", "android": "https://dc.lft.to/lastmile_qr_scan"}, "is_reserved": 0, "fusion_lon": 0.0, "fusion_lat": 0.0, "lon": -77.01321366666667, "name": "f495ac38a455fcf40901d5c6e7a3b9eb"}, {"bike_id": "d110d0866c726c811f6d60784e405709", "type": "electric_scooter", "is_disabled": 0, "lat": 38.94216266666667, "rental_uris": {"ios": "https://dc.lft.to/lastmile_qr_scan", "android": "https://dc.lft.to/lastmile_qr_scan"}, "is_reserved": 0, "fusion_lon": 0.0, "fusion_lat": 0.0, "lon": -77.02584, "name": "d110d0866c726c811f6d60784e405709"}, {"bike_id": "7b2f18f57b71dae9a4ba8f13efa612af", "type": "electric_scooter", "is_disabled": 0, "lat": 38.909604333333334, "rental_uris": {"ios": "https://dc.lft.to/lastmile_qr_scan", "android": "https://dc.lft.to/lastmile_qr_scan"}, "is_reserved": 0, "fusion_lon": 0.0, "fusion_lat": 0.0, "lon": -77.03227333333334, "name": "7b2f18f57b71dae9a4ba8f13efa612af"}, {"bike_id": "b8846cebeee06a9d7796ed83da992460", "type": "electric_scooter", "is_disabled": 0, "lat": 38.916214833333335, "rental_uris": {"ios": "https://dc.lft.to/lastmile_qr_scan", "android": "https://dc.lft.to/lastmile_qr_scan"}, "is_reserved": 0, "fusion_lon": 0.0, "fusion_lat": 0.0, "lon": -77.03045133333333, "name": "b8846cebeee06a9d7796ed83da992460"}, {"bike_id": "b67e249a4a125f49d530ff7cd55d9f3f", "type": "electric_scooter", "is_disabled": 0, "lat": 38.92014833333333, "rental_uris": {"ios": "https://dc.lft.to/lastmile_qr_scan", "android": "https://dc.lft.to/lastmile_qr_scan"}, "is_reserved": 0, "fusion_lon": 0.0, "fusion_lat": 0.0, "lon": -77.02458883333334, "name": "b67e249a4a125f49d530ff7cd55d9f3f"}, {"bike_id": "9712c9b50e4a1406030a1bb69c38a041", "type": "electric_scooter", "is_disabled": 0, "lat": 38.9338835, "rental_uris": {"ios": "https://dc.lft.to/lastmile_qr_scan", "android": "https://dc.lft.to/lastmile_qr_scan"}, "is_reserved": 0, "fusion_lon": 0.0, "fusion_lat": 0.0, "lon": -77.032203, "name": "9712c9b50e4a1406030a1bb69c38a041"}, {"bike_id": "7b369584560bc3bd4647439018c369f0", "type": "electric_scooter", "is_disabled": 0, "lat": 38.919839833333334, "rental_uris": {"ios": "https://dc.lft.to/lastmile_qr_scan", "android": "https://dc.lft.to/lastmile_qr_scan"}, "is_reserved": 0, "fusion_lon": 0.0, "fusion_lat": 0.0, "lon": -77.012174, "name": "7b369584560bc3bd4647439018c369f0"}, {"bike_id": "c1c045b68d4f9b583eb08a3c8ca2186f", "type": "electric_scooter", "is_disabled": 0, "lat": 38.899254, "rental_uris": {"ios": "https://dc.lft.to/lastmile_qr_scan", "android": "https://dc.lft.to/lastmile_qr_scan"}, "is_reserved": 0, "fusion_lon": 0.0, "fusion_lat": 0.0, "lon": -77.0449325, "name": "c1c045b68d4f9b583eb08a3c8ca2186f"}, {"bike_id": "0cde7eb7080c35b152aa3e3637cc9a58", "type": "electric_scooter", "is_disabled": 0, "lat": 38.919712, "rental_uris": {"ios": "https://dc.lft.to/lastmile_qr_scan", "android": "https://dc.lft.to/lastmile_qr_scan"}, "is_reserved": 0, "fusion_lon": 0.0, "fusion_lat": 0.0, "lon": -77.04224066666667, "name": "0cde7eb7080c35b152aa3e3637cc9a58"}, {"bike_id": "d90aeecca06af578f65ff5e9da82f879", "type": "electric_bike", "is_disabled": 0, "lat": 38.8116615, "rental_uris": {"ios": "https://dc.lft.to/lastmile_qr_scan", "android": "https://dc.lft.to/lastmile_qr_scan"}, "is_reserved": 0, "fusion_lon": 0.0, "fusion_lat": 0.0, "lon": -77.069684, "name": "d90aeecca06af578f65ff5e9da82f879"}, {"bike_id": "a368d2d5486200900238b5dc87bc6ab3", "type": "electric_scooter", "is_disabled": 0, "lat": 38.905540333333335, "rental_uris": {"ios": "https://dc.lft.to/lastmile_qr_scan", "android": "https://dc.lft.to/lastmile_qr_scan"}, "is_reserved": 0, "fusion_lon": 0.0, "fusion_lat": 0.0, "lon": -76.99621433333333, "name": "a368d2d5486200900238b5dc87bc6ab3"}, {"bike_id": "350b26d87ea981656d8a647e38a72665", "type": "electric_scooter", "is_disabled": 0, "lat": 38.92279116666667, "rental_uris": {"ios": "https://dc.lft.to/lastmile_qr_scan", "android": "https://dc.lft.to/lastmile_qr_scan"}, "is_reserved": 0, "fusion_lon": 0.0, "fusion_lat": 0.0, "lon": -76.99462533333333, "name": "350b26d87ea981656d8a647e38a72665"}, {"bike_id": "fe61c3203a044f0beff333bdb2568464", "type": "electric_scooter", "is_disabled": 0, "lat": 38.88426716666667, "rental_uris": {"ios": "https://dc.lft.to/lastmile_qr_scan", "android": "https://dc.lft.to/lastmile_qr_scan"}, "is_reserved": 0, "fusion_lon": 0.0, "fusion_lat": 0.0, "lon": -76.95753066666667, "name": "fe61c3203a044f0beff333bdb2568464"}, {"bike_id": "37f5ccc4e9f35932c85e4559de69686f", "type": "electric_bike", "is_disabled": 0, "lat": 38.90008133333333, "rental_uris": {"ios": "https://dc.lft.to/lastmile_qr_scan", "android": "https://dc.lft.to/lastmile_qr_scan"}, "is_reserved": 0, "fusion_lon": 0.0, "fusion_lat": 0.0, "lon": -77.075448, "name": "37f5ccc4e9f35932c85e4559de69686f"}, {"bike_id": "7129db31d85ec9fa9573d1f5643fc2be", "type": "electric_scooter", "is_disabled": 0, "lat": 38.90572516666667, "rental_uris": {"ios": "https://dc.lft.to/lastmile_qr_scan", "android": "https://dc.lft.to/lastmile_qr_scan"}, "is_reserved": 0, "fusion_lon": 0.0, "fusion_lat": 0.0, "lon": -77.00596166666666, "name": "7129db31d85ec9fa9573d1f5643fc2be"}, {"bike_id": "83341ffd07774bda642a0bbe83a28966", "type": "electric_scooter", "is_disabled": 0, "lat": 38.894658166666666, "rental_uris": {"ios": "https://dc.lft.to/lastmile_qr_scan", "android": "https://dc.lft.to/lastmile_qr_scan"}, "is_reserved": 0, "fusion_lon": 0.0, "fusion_lat": 0.0, "lon": -77.02801266666667, "name": "83341ffd07774bda642a0bbe83a28966"}, {"bike_id": "cf79e47362968a7f8353bfdbc9a6f9f3", "type": "electric_bike", "is_disabled": 0, "lat": 38.804177333333335, "rental_uris": {"ios": "https://dc.lft.to/lastmile_qr_scan", "android": "https://dc.lft.to/lastmile_qr_scan"}, "is_reserved": 0, "fusion_lon": 0.0, "fusion_lat": 0.0, "lon": -77.0555525, "name": "cf79e47362968a7f8353bfdbc9a6f9f3"}, {"bike_id": "985c6cf4189e80a972bb8ace2e965727", "type": "electric_scooter", "is_disabled": 0, "lat": 38.905546333333334, "rental_uris": {"ios": "https://dc.lft.to/lastmile_qr_scan", "android": "https://dc.lft.to/lastmile_qr_scan"}, "is_reserved": 0, "fusion_lon": 0.0, "fusion_lat": 0.0, "lon": -77.04230966666667, "name": "985c6cf4189e80a972bb8ace2e965727"}, {"bike_id": "fdb8ab9f33dcc74ed8ce0aafa1c121fb", "type": "electric_scooter", "is_disabled": 0, "lat": 38.91844583333334, "rental_uris": {"ios": "https://dc.lft.to/lastmile_qr_scan", "android": "https://dc.lft.to/lastmile_qr_scan"}, "is_reserved": 0, "fusion_lon": 0.0, "fusion_lat": 0.0, "lon": -76.96554633333334, "name": "fdb8ab9f33dcc74ed8ce0aafa1c121fb"}, {"bike_id": "3e8c2faf8d236c568f9675c974147864", "type": "electric_scooter", "is_disabled": 0, "lat": 38.90963566666667, "rental_uris": {"ios": "https://dc.lft.to/lastmile_qr_scan", "android": "https://dc.lft.to/lastmile_qr_scan"}, "is_reserved": 0, "fusion_lon": 0.0, "fusion_lat": 0.0, "lon": -77.0323985, "name": "3e8c2faf8d236c568f9675c974147864"}, {"bike_id": "337b15d14f1cf5accd2da8a2de5ab794", "type": "electric_scooter", "is_disabled": 0, "lat": 38.90419933333333, "rental_uris": {"ios": "https://dc.lft.to/lastmile_qr_scan", "android": "https://dc.lft.to/lastmile_qr_scan"}, "is_reserved": 0, "fusion_lon": 0.0, "fusion_lat": 0.0, "lon": -76.99068866666667, "name": "337b15d14f1cf5accd2da8a2de5ab794"}, {"bike_id": "c7d81c5673a3b14108642e5311ca3384", "type": "electric_scooter", "is_disabled": 0, "lat": 38.89799816666667, "rental_uris": {"ios": "https://dc.lft.to/lastmile_qr_scan", "android": "https://dc.lft.to/lastmile_qr_scan"}, "is_reserved": 0, "fusion_lon": 0.0, "fusion_lat": 0.0, "lon": -77.024734, "name": "c7d81c5673a3b14108642e5311ca3384"}, {"bike_id": "8711f9889f9aef2ef8f587dcc009bd34", "type": "electric_scooter", "is_disabled": 0, "lat": 38.89195683333333, "rental_uris": {"ios": "https://dc.lft.to/lastmile_qr_scan", "android": "https://dc.lft.to/lastmile_qr_scan"}, "is_reserved": 0, "fusion_lon": 0.0, "fusion_lat": 0.0, "lon": -76.99938633333333, "name": "8711f9889f9aef2ef8f587dcc009bd34"}, {"bike_id": "2360a81674ffff993f818f0740d74dca", "type": "electric_scooter", "is_disabled": 0, "lat": 38.8903995, "rental_uris": {"ios": "https://dc.lft.to/lastmile_qr_scan", "android": "https://dc.lft.to/lastmile_qr_scan"}, "is_reserved": 0, "fusion_lon": 0.0, "fusion_lat": 0.0, "lon": -76.937526, "name": "2360a81674ffff993f818f0740d74dca"}, {"bike_id": "39de47bad296d812a4ffd4c4d250ff86", "type": "electric_scooter", "is_disabled": 0, "lat": 38.9201315, "rental_uris": {"ios": "https://dc.lft.to/lastmile_qr_scan", "android": "https://dc.lft.to/lastmile_qr_scan"}, "is_reserved": 0, "fusion_lon": 0.0, "fusion_lat": 0.0, "lon": -77.023914, "name": "39de47bad296d812a4ffd4c4d250ff86"}, {"bike_id": "f3d551c5d43f30b2bcf2f1287b044376", "type": "electric_scooter", "is_disabled": 0, "lat": 38.9565665, "rental_uris": {"ios": "https://dc.lft.to/lastmile_qr_scan", "android": "https://dc.lft.to/lastmile_qr_scan"}, "is_reserved": 0, "fusion_lon": 0.0, "fusion_lat": 0.0, "lon": -77.01966066666667, "name": "f3d551c5d43f30b2bcf2f1287b044376"}, {"bike_id": "3046796e2b6675ca3b2eaf6297e5d651", "type": "electric_scooter", "is_disabled": 0, "lat": 38.90405666666667, "rental_uris": {"ios": "https://dc.lft.to/lastmile_qr_scan", "android": "https://dc.lft.to/lastmile_qr_scan"}, "is_reserved": 0, "fusion_lon": 0.0, "fusion_lat": 0.0, "lon": -77.06767116666667, "name": "3046796e2b6675ca3b2eaf6297e5d651"}, {"bike_id": "e01b90d537e9f97be5a9745bf96e6dc1", "type": "electric_scooter", "is_disabled": 0, "lat": 38.919209333333335, "rental_uris": {"ios": "https://dc.lft.to/lastmile_qr_scan", "android": "https://dc.lft.to/lastmile_qr_scan"}, "is_reserved": 0, "fusion_lon": 0.0, "fusion_lat": 0.0, "lon": -77.03200966666667, "name": "e01b90d537e9f97be5a9745bf96e6dc1"}, {"bike_id": "e8fee801f92f0d05a53f2a845afeb147", "type": "electric_scooter", "is_disabled": 0, "lat": 38.90896983333333, "rental_uris": {"ios": "https://dc.lft.to/lastmile_qr_scan", "android": "https://dc.lft.to/lastmile_qr_scan"}, "is_reserved": 0, "fusion_lon": 0.0, "fusion_lat": 0.0, "lon": -77.0434035, "name": "e8fee801f92f0d05a53f2a845afeb147"}, {"bike_id": "a05c6f24aa4dab12d1c0843888d48414", "type": "electric_scooter", "is_disabled": 0, "lat": 38.90142783333334, "rental_uris": {"ios": "https://dc.lft.to/lastmile_qr_scan", "android": "https://dc.lft.to/lastmile_qr_scan"}, "is_reserved": 0, "fusion_lon": 0.0, "fusion_lat": 0.0, "lon": -77.03875683333334, "name": "a05c6f24aa4dab12d1c0843888d48414"}, {"bike_id": "23250c780ed2d2eee2e2a416ca6ee590", "type": "electric_scooter", "is_disabled": 0, "lat": 38.916397, "rental_uris": {"ios": "https://dc.lft.to/lastmile_qr_scan", "android": "https://dc.lft.to/lastmile_qr_scan"}, "is_reserved": 0, "fusion_lon": 0.0, "fusion_lat": 0.0, "lon": -77.0004715, "name": "23250c780ed2d2eee2e2a416ca6ee590"}, {"bike_id": "8afc0388af4d6ed9310fa511af4caff0", "type": "electric_scooter", "is_disabled": 0, "lat": 38.9082735, "rental_uris": {"ios": "https://dc.lft.to/lastmile_qr_scan", "android": "https://dc.lft.to/lastmile_qr_scan"}, "is_reserved": 0, "fusion_lon": 0.0, "fusion_lat": 0.0, "lon": -77.02699166666666, "name": "8afc0388af4d6ed9310fa511af4caff0"}, {"bike_id": "4f6ee0aba89a864c0e7d3aa4c122cb94", "type": "electric_scooter", "is_disabled": 0, "lat": 38.86213433333333, "rental_uris": {"ios": "https://dc.lft.to/lastmile_qr_scan", "android": "https://dc.lft.to/lastmile_qr_scan"}, "is_reserved": 0, "fusion_lon": 0.0, "fusion_lat": 0.0, "lon": -76.99468466666667, "name": "4f6ee0aba89a864c0e7d3aa4c122cb94"}, {"bike_id": "331e338d225149bbc7af7667081198cc", "type": "electric_scooter", "is_disabled": 0, "lat": 38.9113045, "rental_uris": {"ios": "https://dc.lft.to/lastmile_qr_scan", "android": "https://dc.lft.to/lastmile_qr_scan"}, "is_reserved": 0, "fusion_lon": 0.0, "fusion_lat": 0.0, "lon": -77.02815933333333, "name": "331e338d225149bbc7af7667081198cc"}, {"bike_id": "6e6dd9651cb051ad3c4f90b1089d50a2", "type": "electric_scooter", "is_disabled": 0, "lat": 38.91469383333333, "rental_uris": {"ios": "https://dc.lft.to/lastmile_qr_scan", "android": "https://dc.lft.to/lastmile_qr_scan"}, "is_reserved": 0, "fusion_lon": 0.0, "fusion_lat": 0.0, "lon": -77.03214916666667, "name": "6e6dd9651cb051ad3c4f90b1089d50a2"}, {"bike_id": "d533d429534bc1b7ae83f6e6c97fe650", "type": "electric_scooter", "is_disabled": 0, "lat": 38.923164, "rental_uris": {"ios": "https://dc.lft.to/lastmile_qr_scan", "android": "https://dc.lft.to/lastmile_qr_scan"}, "is_reserved": 0, "fusion_lon": 0.0, "fusion_lat": 0.0, "lon": -77.0417865, "name": "d533d429534bc1b7ae83f6e6c97fe650"}, {"bike_id": "2d4d88ee8d402b122da64ec3f88aefe3", "type": "electric_scooter", "is_disabled": 0, "lat": 38.901821166666664, "rental_uris": {"ios": "https://dc.lft.to/lastmile_qr_scan", "android": "https://dc.lft.to/lastmile_qr_scan"}, "is_reserved": 0, "fusion_lon": 0.0, "fusion_lat": 0.0, "lon": -77.02304866666667, "name": "2d4d88ee8d402b122da64ec3f88aefe3"}, {"bike_id": "579e87f70a058cabc7bbd7597688ac84", "type": "electric_scooter", "is_disabled": 0, "lat": 38.94141916666667, "rental_uris": {"ios": "https://dc.lft.to/lastmile_qr_scan", "android": "https://dc.lft.to/lastmile_qr_scan"}, "is_reserved": 0, "fusion_lon": 0.0, "fusion_lat": 0.0, "lon": -77.02327666666666, "name": "579e87f70a058cabc7bbd7597688ac84"}, {"bike_id": "df064e784fbdb571132d9c03c4f6ac52", "type": "electric_scooter", "is_disabled": 0, "lat": 38.906810666666665, "rental_uris": {"ios": "https://dc.lft.to/lastmile_qr_scan", "android": "https://dc.lft.to/lastmile_qr_scan"}, "is_reserved": 0, "fusion_lon": 0.0, "fusion_lat": 0.0, "lon": -77.026984, "name": "df064e784fbdb571132d9c03c4f6ac52"}, {"bike_id": "9112188998e06d6276fa10b2ae91d034", "type": "electric_scooter", "is_disabled": 0, "lat": 38.89527133333333, "rental_uris": {"ios": "https://dc.lft.to/lastmile_qr_scan", "android": "https://dc.lft.to/lastmile_qr_scan"}, "is_reserved": 0, "fusion_lon": 0.0, "fusion_lat": 0.0, "lon": -76.948912, "name": "9112188998e06d6276fa10b2ae91d034"}, {"bike_id": "2bbdf9a5d0c4891193319fa128dc7474", "type": "electric_scooter", "is_disabled": 0, "lat": 38.90652033333333, "rental_uris": {"ios": "https://dc.lft.to/lastmile_qr_scan", "android": "https://dc.lft.to/lastmile_qr_scan"}, "is_reserved": 0, "fusion_lon": 0.0, "fusion_lat": 0.0, "lon": -77.03902016666666, "name": "2bbdf9a5d0c4891193319fa128dc7474"}, {"bike_id": "6253b3dfe83cdba0ea91db94fb2cfada", "type": "electric_scooter", "is_disabled": 0, "lat": 38.929726, "rental_uris": {"ios": "https://dc.lft.to/lastmile_qr_scan", "android": "https://dc.lft.to/lastmile_qr_scan"}, "is_reserved": 0, "fusion_lon": 0.0, "fusion_lat": 0.0, "lon": -77.0130395, "name": "6253b3dfe83cdba0ea91db94fb2cfada"}, {"bike_id": "ef1d20dea11f057448c3005e327b01e5", "type": "electric_scooter", "is_disabled": 0, "lat": 38.89742533333333, "rental_uris": {"ios": "https://dc.lft.to/lastmile_qr_scan", "android": "https://dc.lft.to/lastmile_qr_scan"}, "is_reserved": 0, "fusion_lon": 0.0, "fusion_lat": 0.0, "lon": -76.9472385, "name": "ef1d20dea11f057448c3005e327b01e5"}, {"bike_id": "b6035b0b6e8c25245e3e6b32b2984f25", "type": "electric_scooter", "is_disabled": 0, "lat": 38.900304, "rental_uris": {"ios": "https://dc.lft.to/lastmile_qr_scan", "android": "https://dc.lft.to/lastmile_qr_scan"}, "is_reserved": 0, "fusion_lon": 0.0, "fusion_lat": 0.0, "lon": -77.00208933333333, "name": "b6035b0b6e8c25245e3e6b32b2984f25"}, {"bike_id": "f68eb79f4f5e22bc2b91d22e5547f271", "type": "electric_scooter", "is_disabled": 0, "lat": 38.9049005, "rental_uris": {"ios": "https://dc.lft.to/lastmile_qr_scan", "android": "https://dc.lft.to/lastmile_qr_scan"}, "is_reserved": 0, "fusion_lon": 0.0, "fusion_lat": 0.0, "lon": -77.0294195, "name": "f68eb79f4f5e22bc2b91d22e5547f271"}, {"bike_id": "5f3db1cbf523453bae309beb9f432743", "type": "electric_scooter", "is_disabled": 0, "lat": 38.914296, "rental_uris": {"ios": "https://dc.lft.to/lastmile_qr_scan", "android": "https://dc.lft.to/lastmile_qr_scan"}, "is_reserved": 0, "fusion_lon": 0.0, "fusion_lat": 0.0, "lon": -77.03181716666667, "name": "5f3db1cbf523453bae309beb9f432743"}, {"bike_id": "979bf0a7ca883035bc98cb449c4e3365", "type": "electric_scooter", "is_disabled": 0, "lat": 38.915342333333335, "rental_uris": {"ios": "https://dc.lft.to/lastmile_qr_scan", "android": "https://dc.lft.to/lastmile_qr_scan"}, "is_reserved": 0, "fusion_lon": 0.0, "fusion_lat": 0.0, "lon": -77.02184716666666, "name": "979bf0a7ca883035bc98cb449c4e3365"}, {"bike_id": "6ddf1d617124b55c2915ca5484faf978", "type": "electric_scooter", "is_disabled": 0, "lat": 38.908041833333336, "rental_uris": {"ios": "https://dc.lft.to/lastmile_qr_scan", "android": "https://dc.lft.to/lastmile_qr_scan"}, "is_reserved": 0, "fusion_lon": 0.0, "fusion_lat": 0.0, "lon": -77.00204666666667, "name": "6ddf1d617124b55c2915ca5484faf978"}, {"bike_id": "2d7d0a336b27f4bfeddb8cccb85882a4", "type": "electric_scooter", "is_disabled": 0, "lat": 38.9127375, "rental_uris": {"ios": "https://dc.lft.to/lastmile_qr_scan", "android": "https://dc.lft.to/lastmile_qr_scan"}, "is_reserved": 0, "fusion_lon": 0.0, "fusion_lat": 0.0, "lon": -77.02265683333333, "name": "2d7d0a336b27f4bfeddb8cccb85882a4"}, {"bike_id": "d285c4a2902fa8ffe0bd578b01cb878a", "type": "electric_scooter", "is_disabled": 0, "lat": 38.89649433333334, "rental_uris": {"ios": "https://dc.lft.to/lastmile_qr_scan", "android": "https://dc.lft.to/lastmile_qr_scan"}, "is_reserved": 0, "fusion_lon": 0.0, "fusion_lat": 0.0, "lon": -77.00924166666667, "name": "d285c4a2902fa8ffe0bd578b01cb878a"}, {"bike_id": "13ea8f62ce4a306c860847cd38713c9a", "type": "electric_scooter", "is_disabled": 0, "lat": 38.91847166666667, "rental_uris": {"ios": "https://dc.lft.to/lastmile_qr_scan", "android": "https://dc.lft.to/lastmile_qr_scan"}, "is_reserved": 0, "fusion_lon": 0.0, "fusion_lat": 0.0, "lon": -76.96557716666666, "name": "13ea8f62ce4a306c860847cd38713c9a"}, {"bike_id": "e29de3e704f107ee587ad0b389a73c4b", "type": "electric_scooter", "is_disabled": 0, "lat": 38.911904666666665, "rental_uris": {"ios": "https://dc.lft.to/lastmile_qr_scan", "android": "https://dc.lft.to/lastmile_qr_scan"}, "is_reserved": 0, "fusion_lon": 0.0, "fusion_lat": 0.0, "lon": -77.03834033333334, "name": "e29de3e704f107ee587ad0b389a73c4b"}, {"bike_id": "3e74960e6b60a95e3794dbd422226662", "type": "electric_bike", "is_disabled": 0, "lat": 39.05057733333334, "rental_uris": {"ios": "https://dc.lft.to/lastmile_qr_scan", "android": "https://dc.lft.to/lastmile_qr_scan"}, "is_reserved": 0, "fusion_lon": 0.0, "fusion_lat": 0.0, "lon": -77.05147416666667, "name": "3e74960e6b60a95e3794dbd422226662"}, {"bike_id": "e2dcfb0470c103f30727cc66afac43b7", "type": "electric_scooter", "is_disabled": 0, "lat": 38.939956333333335, "rental_uris": {"ios": "https://dc.lft.to/lastmile_qr_scan", "android": "https://dc.lft.to/lastmile_qr_scan"}, "is_reserved": 0, "fusion_lon": 0.0, "fusion_lat": 0.0, "lon": -77.016937, "name": "e2dcfb0470c103f30727cc66afac43b7"}, {"bike_id": "5941371a21c6edbf2c164d44bcbd02ea", "type": "electric_scooter", "is_disabled": 0, "lat": 38.916061666666664, "rental_uris": {"ios": "https://dc.lft.to/lastmile_qr_scan", "android": "https://dc.lft.to/lastmile_qr_scan"}, "is_reserved": 0, "fusion_lon": 0.0, "fusion_lat": 0.0, "lon": -77.0240765, "name": "5941371a21c6edbf2c164d44bcbd02ea"}, {"bike_id": "17adee5d3a7ab60def8c0e45368e065e", "type": "electric_scooter", "is_disabled": 0, "lat": 38.911061833333335, "rental_uris": {"ios": "https://dc.lft.to/lastmile_qr_scan", "android": "https://dc.lft.to/lastmile_qr_scan"}, "is_reserved": 0, "fusion_lon": 0.0, "fusion_lat": 0.0, "lon": -77.03249783333334, "name": "17adee5d3a7ab60def8c0e45368e065e"}, {"bike_id": "a131aabcf999e99891870b0355f85479", "type": "electric_scooter", "is_disabled": 0, "lat": 38.87756233333333, "rental_uris": {"ios": "https://dc.lft.to/lastmile_qr_scan", "android": "https://dc.lft.to/lastmile_qr_scan"}, "is_reserved": 0, "fusion_lon": 0.0, "fusion_lat": 0.0, "lon": -76.98684433333334, "name": "a131aabcf999e99891870b0355f85479"}, {"bike_id": "80f41ae542f15c15c06a3fedf52af1da", "type": "electric_scooter", "is_disabled": 0, "lat": 38.9057225, "rental_uris": {"ios": "https://dc.lft.to/lastmile_qr_scan", "android": "https://dc.lft.to/lastmile_qr_scan"}, "is_reserved": 0, "fusion_lon": 0.0, "fusion_lat": 0.0, "lon": -76.97782433333333, "name": "80f41ae542f15c15c06a3fedf52af1da"}, {"bike_id": "3f4ac6650b7fd3d5767bbab479285e19", "type": "electric_scooter", "is_disabled": 0, "lat": 38.9027605, "rental_uris": {"ios": "https://dc.lft.to/lastmile_qr_scan", "android": "https://dc.lft.to/lastmile_qr_scan"}, "is_reserved": 0, "fusion_lon": 0.0, "fusion_lat": 0.0, "lon": -76.97032133333333, "name": "3f4ac6650b7fd3d5767bbab479285e19"}, {"bike_id": "dadb210b607a059f1634202bdcc726a7", "type": "electric_scooter", "is_disabled": 0, "lat": 38.91927033333333, "rental_uris": {"ios": "https://dc.lft.to/lastmile_qr_scan", "android": "https://dc.lft.to/lastmile_qr_scan"}, "is_reserved": 0, "fusion_lon": 0.0, "fusion_lat": 0.0, "lon": -77.0320725, "name": "dadb210b607a059f1634202bdcc726a7"}, {"bike_id": "d1d37cd97fe34d421eda743c582201dd", "type": "electric_bike", "is_disabled": 0, "lat": 38.83248233333333, "rental_uris": {"ios": "https://dc.lft.to/lastmile_qr_scan", "android": "https://dc.lft.to/lastmile_qr_scan"}, "is_reserved": 0, "fusion_lon": 0.0, "fusion_lat": 0.0, "lon": -76.94633116666667, "name": "d1d37cd97fe34d421eda743c582201dd"}, {"bike_id": "ee4f3963f8f93a4a4c19ba2e8b590e43", "type": "electric_scooter", "is_disabled": 0, "lat": 38.90716166666667, "rental_uris": {"ios": "https://dc.lft.to/lastmile_qr_scan", "android": "https://dc.lft.to/lastmile_qr_scan"}, "is_reserved": 0, "fusion_lon": 0.0, "fusion_lat": 0.0, "lon": -77.04139816666667, "name": "ee4f3963f8f93a4a4c19ba2e8b590e43"}, {"bike_id": "a52f85ebd0e77cf329b9943d3c03e71a", "type": "electric_scooter", "is_disabled": 0, "lat": 38.89572716666667, "rental_uris": {"ios": "https://dc.lft.to/lastmile_qr_scan", "android": "https://dc.lft.to/lastmile_qr_scan"}, "is_reserved": 0, "fusion_lon": 0.0, "fusion_lat": 0.0, "lon": -76.93026833333333, "name": "a52f85ebd0e77cf329b9943d3c03e71a"}, {"bike_id": "1bd58ce1ee563618e1eb5aa2391b987a", "type": "electric_scooter", "is_disabled": 0, "lat": 38.9233415, "rental_uris": {"ios": "https://dc.lft.to/lastmile_qr_scan", "android": "https://dc.lft.to/lastmile_qr_scan"}, "is_reserved": 0, "fusion_lon": 0.0, "fusion_lat": 0.0, "lon": -77.02300016666666, "name": "1bd58ce1ee563618e1eb5aa2391b987a"}, {"bike_id": "561c899f324bd68026ba3f387b729186", "type": "electric_scooter", "is_disabled": 0, "lat": 38.923274, "rental_uris": {"ios": "https://dc.lft.to/lastmile_qr_scan", "android": "https://dc.lft.to/lastmile_qr_scan"}, "is_reserved": 0, "fusion_lon": 0.0, "fusion_lat": 0.0, "lon": -77.04612666666667, "name": "561c899f324bd68026ba3f387b729186"}, {"bike_id": "c0f36baace0b3f5aba4b1272d7535002", "type": "electric_scooter", "is_disabled": 0, "lat": 38.87949916666667, "rental_uris": {"ios": "https://dc.lft.to/lastmile_qr_scan", "android": "https://dc.lft.to/lastmile_qr_scan"}, "is_reserved": 0, "fusion_lon": 0.0, "fusion_lat": 0.0, "lon": -77.00381783333333, "name": "c0f36baace0b3f5aba4b1272d7535002"}, {"bike_id": "bed93631e2a979044c20bc44a908c21d", "type": "electric_scooter", "is_disabled": 0, "lat": 38.938923833333334, "rental_uris": {"ios": "https://dc.lft.to/lastmile_qr_scan", "android": "https://dc.lft.to/lastmile_qr_scan"}, "is_reserved": 0, "fusion_lon": 0.0, "fusion_lat": 0.0, "lon": -77.02824516666666, "name": "bed93631e2a979044c20bc44a908c21d"}, {"bike_id": "a5bd500fff9afec9bf622415f601c393", "type": "electric_scooter", "is_disabled": 0, "lat": 38.90753516666667, "rental_uris": {"ios": "https://dc.lft.to/lastmile_qr_scan", "android": "https://dc.lft.to/lastmile_qr_scan"}, "is_reserved": 0, "fusion_lon": 0.0, "fusion_lat": 0.0, "lon": -77.03082, "name": "a5bd500fff9afec9bf622415f601c393"}, {"bike_id": "922030ac030c1f5fb45c2561e2319dcf", "type": "electric_scooter", "is_disabled": 0, "lat": 38.909826, "rental_uris": {"ios": "https://dc.lft.to/lastmile_qr_scan", "android": "https://dc.lft.to/lastmile_qr_scan"}, "is_reserved": 0, "fusion_lon": 0.0, "fusion_lat": 0.0, "lon": -77.03342416666666, "name": "922030ac030c1f5fb45c2561e2319dcf"}, {"bike_id": "981e0baa909a9235d5f55a8ebdc41e4b", "type": "electric_scooter", "is_disabled": 0, "lat": 38.91565333333333, "rental_uris": {"ios": "https://dc.lft.to/lastmile_qr_scan", "android": "https://dc.lft.to/lastmile_qr_scan"}, "is_reserved": 0, "fusion_lon": 0.0, "fusion_lat": 0.0, "lon": -77.020185, "name": "981e0baa909a9235d5f55a8ebdc41e4b"}, {"bike_id": "2d18520de1d30b020782c87c76700526", "type": "electric_scooter", "is_disabled": 0, "lat": 38.885352166666664, "rental_uris": {"ios": "https://dc.lft.to/lastmile_qr_scan", "android": "https://dc.lft.to/lastmile_qr_scan"}, "is_reserved": 0, "fusion_lon": 0.0, "fusion_lat": 0.0, "lon": -76.99825116666666, "name": "2d18520de1d30b020782c87c76700526"}, {"bike_id": "314a72d2b6b48f380b0dfea579f1ab30", "type": "electric_bike", "is_disabled": 0, "lat": 39.01370633333333, "rental_uris": {"ios": "https://dc.lft.to/lastmile_qr_scan", "android": "https://dc.lft.to/lastmile_qr_scan"}, "is_reserved": 0, "fusion_lon": 0.0, "fusion_lat": 0.0, "lon": -76.92135983333333, "name": "314a72d2b6b48f380b0dfea579f1ab30"}, {"bike_id": "aff5848542a6efac360be8b696fc51a0", "type": "electric_scooter", "is_disabled": 0, "lat": 38.957359333333336, "rental_uris": {"ios": "https://dc.lft.to/lastmile_qr_scan", "android": "https://dc.lft.to/lastmile_qr_scan"}, "is_reserved": 0, "fusion_lon": 0.0, "fusion_lat": 0.0, "lon": -77.02798566666667, "name": "aff5848542a6efac360be8b696fc51a0"}, {"bike_id": "33350cd340f022e55accf20ea31bc952", "type": "electric_bike", "is_disabled": 0, "lat": 38.853513666666665, "rental_uris": {"ios": "https://dc.lft.to/lastmile_qr_scan", "android": "https://dc.lft.to/lastmile_qr_scan"}, "is_reserved": 0, "fusion_lon": 0.0, "fusion_lat": 0.0, "lon": -77.08686583333333, "name": "33350cd340f022e55accf20ea31bc952"}, {"bike_id": "ccd2bcab86714f1cbf96251a83b6b846", "type": "electric_scooter", "is_disabled": 0, "lat": 38.921784833333334, "rental_uris": {"ios": "https://dc.lft.to/lastmile_qr_scan", "android": "https://dc.lft.to/lastmile_qr_scan"}, "is_reserved": 0, "fusion_lon": 0.0, "fusion_lat": 0.0, "lon": -76.99786383333333, "name": "ccd2bcab86714f1cbf96251a83b6b846"}, {"bike_id": "264ff91bd212ced83523da64ac4bbc51", "type": "electric_scooter", "is_disabled": 0, "lat": 38.87503516666666, "rental_uris": {"ios": "https://dc.lft.to/lastmile_qr_scan", "android": "https://dc.lft.to/lastmile_qr_scan"}, "is_reserved": 0, "fusion_lon": 0.0, "fusion_lat": 0.0, "lon": -77.00108066666667, "name": "264ff91bd212ced83523da64ac4bbc51"}, {"bike_id": "8dce2c397331613332fa3c4021910e8f", "type": "electric_scooter", "is_disabled": 0, "lat": 38.914800666666665, "rental_uris": {"ios": "https://dc.lft.to/lastmile_qr_scan", "android": "https://dc.lft.to/lastmile_qr_scan"}, "is_reserved": 0, "fusion_lon": 0.0, "fusion_lat": 0.0, "lon": -77.00279683333333, "name": "8dce2c397331613332fa3c4021910e8f"}, {"bike_id": "1ea8e289bf690fcfeb4c2775f2fc321b", "type": "electric_scooter", "is_disabled": 0, "lat": 38.865022333333336, "rental_uris": {"ios": "https://dc.lft.to/lastmile_qr_scan", "android": "https://dc.lft.to/lastmile_qr_scan"}, "is_reserved": 0, "fusion_lon": 0.0, "fusion_lat": 0.0, "lon": -76.99003533333334, "name": "1ea8e289bf690fcfeb4c2775f2fc321b"}, {"bike_id": "f657bd017affff305fc143e74698325c", "type": "electric_scooter", "is_disabled": 0, "lat": 38.917171833333335, "rental_uris": {"ios": "https://dc.lft.to/lastmile_qr_scan", "android": "https://dc.lft.to/lastmile_qr_scan"}, "is_reserved": 0, "fusion_lon": 0.0, "fusion_lat": 0.0, "lon": -77.02603283333333, "name": "f657bd017affff305fc143e74698325c"}, {"bike_id": "3a656fce9d170a2976547e4448249a32", "type": "electric_scooter", "is_disabled": 0, "lat": 38.9155385, "rental_uris": {"ios": "https://dc.lft.to/lastmile_qr_scan", "android": "https://dc.lft.to/lastmile_qr_scan"}, "is_reserved": 0, "fusion_lon": 0.0, "fusion_lat": 0.0, "lon": -77.0256785, "name": "3a656fce9d170a2976547e4448249a32"}, {"bike_id": "547aafd69089d0738e40ef8e231d92cc", "type": "electric_scooter", "is_disabled": 0, "lat": 38.916363, "rental_uris": {"ios": "https://dc.lft.to/lastmile_qr_scan", "android": "https://dc.lft.to/lastmile_qr_scan"}, "is_reserved": 0, "fusion_lon": 0.0, "fusion_lat": 0.0, "lon": -77.02549166666667, "name": "547aafd69089d0738e40ef8e231d92cc"}, {"bike_id": "cf179bb5b7907916c2a28b5dca47fb9d", "type": "electric_scooter", "is_disabled": 0, "lat": 38.898196666666664, "rental_uris": {"ios": "https://dc.lft.to/lastmile_qr_scan", "android": "https://dc.lft.to/lastmile_qr_scan"}, "is_reserved": 0, "fusion_lon": 0.0, "fusion_lat": 0.0, "lon": -77.021936, "name": "cf179bb5b7907916c2a28b5dca47fb9d"}, {"bike_id": "28617358525bd1947047536b0e313d12", "type": "electric_scooter", "is_disabled": 0, "lat": 38.952260833333334, "rental_uris": {"ios": "https://dc.lft.to/lastmile_qr_scan", "android": "https://dc.lft.to/lastmile_qr_scan"}, "is_reserved": 0, "fusion_lon": 0.0, "fusion_lat": 0.0, "lon": -77.07068383333333, "name": "28617358525bd1947047536b0e313d12"}, {"bike_id": "4669ceb786c120900c6aaab56f2a611a", "type": "electric_scooter", "is_disabled": 0, "lat": 38.89736416666667, "rental_uris": {"ios": "https://dc.lft.to/lastmile_qr_scan", "android": "https://dc.lft.to/lastmile_qr_scan"}, "is_reserved": 0, "fusion_lon": 0.0, "fusion_lat": 0.0, "lon": -76.94722883333333, "name": "4669ceb786c120900c6aaab56f2a611a"}, {"bike_id": "942dd88d80e40ff699832e62c59b5072", "type": "electric_scooter", "is_disabled": 0, "lat": 38.90143416666667, "rental_uris": {"ios": "https://dc.lft.to/lastmile_qr_scan", "android": "https://dc.lft.to/lastmile_qr_scan"}, "is_reserved": 0, "fusion_lon": 0.0, "fusion_lat": 0.0, "lon": -77.02024133333333, "name": "942dd88d80e40ff699832e62c59b5072"}, {"bike_id": "b97ef3c757f719d1f09083ca990066fa", "type": "electric_scooter", "is_disabled": 0, "lat": 38.9644315, "rental_uris": {"ios": "https://dc.lft.to/lastmile_qr_scan", "android": "https://dc.lft.to/lastmile_qr_scan"}, "is_reserved": 0, "fusion_lon": 0.0, "fusion_lat": 0.0, "lon": -77.02064733333333, "name": "b97ef3c757f719d1f09083ca990066fa"}, {"bike_id": "b33949d595c7113349d31eb05cc2781c", "type": "electric_scooter", "is_disabled": 0, "lat": 38.921814833333336, "rental_uris": {"ios": "https://dc.lft.to/lastmile_qr_scan", "android": "https://dc.lft.to/lastmile_qr_scan"}, "is_reserved": 0, "fusion_lon": 0.0, "fusion_lat": 0.0, "lon": -77.04229966666666, "name": "b33949d595c7113349d31eb05cc2781c"}, {"bike_id": "60e5123aa01e8c26ca74c47a5e435405", "type": "electric_scooter", "is_disabled": 0, "lat": 38.916983, "rental_uris": {"ios": "https://dc.lft.to/lastmile_qr_scan", "android": "https://dc.lft.to/lastmile_qr_scan"}, "is_reserved": 0, "fusion_lon": 0.0, "fusion_lat": 0.0, "lon": -77.02926066666667, "name": "60e5123aa01e8c26ca74c47a5e435405"}, {"bike_id": "49957d5fa04e5fc860bcd3da91e6fa89", "type": "electric_scooter", "is_disabled": 0, "lat": 38.9174515, "rental_uris": {"ios": "https://dc.lft.to/lastmile_qr_scan", "android": "https://dc.lft.to/lastmile_qr_scan"}, "is_reserved": 0, "fusion_lon": 0.0, "fusion_lat": 0.0, "lon": -77.0318525, "name": "49957d5fa04e5fc860bcd3da91e6fa89"}, {"bike_id": "28c474be76fc928996385b2fd6481e61", "type": "electric_scooter", "is_disabled": 0, "lat": 38.9181885, "rental_uris": {"ios": "https://dc.lft.to/lastmile_qr_scan", "android": "https://dc.lft.to/lastmile_qr_scan"}, "is_reserved": 0, "fusion_lon": 0.0, "fusion_lat": 0.0, "lon": -77.03170216666666, "name": "28c474be76fc928996385b2fd6481e61"}, {"bike_id": "0e54808d015f93fcda51f65278bbe281", "type": "electric_scooter", "is_disabled": 0, "lat": 38.905170166666664, "rental_uris": {"ios": "https://dc.lft.to/lastmile_qr_scan", "android": "https://dc.lft.to/lastmile_qr_scan"}, "is_reserved": 0, "fusion_lon": 0.0, "fusion_lat": 0.0, "lon": -77.06768966666667, "name": "0e54808d015f93fcda51f65278bbe281"}, {"bike_id": "eb75128cbe2083638fb1b08b30e855d0", "type": "electric_scooter", "is_disabled": 0, "lat": 38.9407175, "rental_uris": {"ios": "https://dc.lft.to/lastmile_qr_scan", "android": "https://dc.lft.to/lastmile_qr_scan"}, "is_reserved": 0, "fusion_lon": 0.0, "fusion_lat": 0.0, "lon": -77.06110316666667, "name": "eb75128cbe2083638fb1b08b30e855d0"}, {"bike_id": "cda7bcfffd30ec023af8cf76efc7e202", "type": "electric_scooter", "is_disabled": 0, "lat": 38.90717866666667, "rental_uris": {"ios": "https://dc.lft.to/lastmile_qr_scan", "android": "https://dc.lft.to/lastmile_qr_scan"}, "is_reserved": 0, "fusion_lon": 0.0, "fusion_lat": 0.0, "lon": -77.0262595, "name": "cda7bcfffd30ec023af8cf76efc7e202"}, {"bike_id": "fec4b4df16b91d09e6a65dc53abd7fd2", "type": "electric_scooter", "is_disabled": 0, "lat": 38.916714166666665, "rental_uris": {"ios": "https://dc.lft.to/lastmile_qr_scan", "android": "https://dc.lft.to/lastmile_qr_scan"}, "is_reserved": 0, "fusion_lon": 0.0, "fusion_lat": 0.0, "lon": -77.02404366666667, "name": "fec4b4df16b91d09e6a65dc53abd7fd2"}, {"bike_id": "66a48778aaf12c1020403fd914bb40c7", "type": "electric_scooter", "is_disabled": 0, "lat": 38.909419166666666, "rental_uris": {"ios": "https://dc.lft.to/lastmile_qr_scan", "android": "https://dc.lft.to/lastmile_qr_scan"}, "is_reserved": 0, "fusion_lon": 0.0, "fusion_lat": 0.0, "lon": -77.046718, "name": "66a48778aaf12c1020403fd914bb40c7"}, {"bike_id": "32898e6da708e413192176babb20b4c4", "type": "electric_scooter", "is_disabled": 0, "lat": 38.91034666666667, "rental_uris": {"ios": "https://dc.lft.to/lastmile_qr_scan", "android": "https://dc.lft.to/lastmile_qr_scan"}, "is_reserved": 0, "fusion_lon": 0.0, "fusion_lat": 0.0, "lon": -77.03807, "name": "32898e6da708e413192176babb20b4c4"}, {"bike_id": "9a97f759fac8f395dca499c7c6f7ca0d", "type": "electric_scooter", "is_disabled": 0, "lat": 38.9086365, "rental_uris": {"ios": "https://dc.lft.to/lastmile_qr_scan", "android": "https://dc.lft.to/lastmile_qr_scan"}, "is_reserved": 0, "fusion_lon": 0.0, "fusion_lat": 0.0, "lon": -77.02675433333333, "name": "9a97f759fac8f395dca499c7c6f7ca0d"}, {"bike_id": "5e1e7c2bf5e69a1e861e88fc43382dc5", "type": "electric_scooter", "is_disabled": 0, "lat": 38.91236166666667, "rental_uris": {"ios": "https://dc.lft.to/lastmile_qr_scan", "android": "https://dc.lft.to/lastmile_qr_scan"}, "is_reserved": 0, "fusion_lon": 0.0, "fusion_lat": 0.0, "lon": -77.02219233333334, "name": "5e1e7c2bf5e69a1e861e88fc43382dc5"}, {"bike_id": "7fdb2dc464e2c6fd6268a21484545999", "type": "electric_scooter", "is_disabled": 0, "lat": 38.9429485, "rental_uris": {"ios": "https://dc.lft.to/lastmile_qr_scan", "android": "https://dc.lft.to/lastmile_qr_scan"}, "is_reserved": 0, "fusion_lon": 0.0, "fusion_lat": 0.0, "lon": -77.02174016666666, "name": "7fdb2dc464e2c6fd6268a21484545999"}, {"bike_id": "6397713263d025fb33d652acb9c899c3", "type": "electric_scooter", "is_disabled": 0, "lat": 38.90264616666666, "rental_uris": {"ios": "https://dc.lft.to/lastmile_qr_scan", "android": "https://dc.lft.to/lastmile_qr_scan"}, "is_reserved": 0, "fusion_lon": 0.0, "fusion_lat": 0.0, "lon": -77.02934333333333, "name": "6397713263d025fb33d652acb9c899c3"}, {"bike_id": "2aeb4ee0e0c4bff00b7bdef61abfcec6", "type": "electric_scooter", "is_disabled": 0, "lat": 38.909707833333336, "rental_uris": {"ios": "https://dc.lft.to/lastmile_qr_scan", "android": "https://dc.lft.to/lastmile_qr_scan"}, "is_reserved": 0, "fusion_lon": 0.0, "fusion_lat": 0.0, "lon": -77.036332, "name": "2aeb4ee0e0c4bff00b7bdef61abfcec6"}, {"bike_id": "79ee387164d5c8ed5f95e25487e41a5f", "type": "electric_scooter", "is_disabled": 0, "lat": 38.8950905, "rental_uris": {"ios": "https://dc.lft.to/lastmile_qr_scan", "android": "https://dc.lft.to/lastmile_qr_scan"}, "is_reserved": 0, "fusion_lon": 0.0, "fusion_lat": 0.0, "lon": -77.01098466666667, "name": "79ee387164d5c8ed5f95e25487e41a5f"}, {"bike_id": "3398c7eb910dce3140d3d5a087d63bc5", "type": "electric_scooter", "is_disabled": 0, "lat": 38.907112833333336, "rental_uris": {"ios": "https://dc.lft.to/lastmile_qr_scan", "android": "https://dc.lft.to/lastmile_qr_scan"}, "is_reserved": 0, "fusion_lon": 0.0, "fusion_lat": 0.0, "lon": -77.02391966666667, "name": "3398c7eb910dce3140d3d5a087d63bc5"}, {"bike_id": "2c422955b512c4d52ef0e5b49b8382de", "type": "electric_scooter", "is_disabled": 0, "lat": 38.92718416666666, "rental_uris": {"ios": "https://dc.lft.to/lastmile_qr_scan", "android": "https://dc.lft.to/lastmile_qr_scan"}, "is_reserved": 0, "fusion_lon": 0.0, "fusion_lat": 0.0, "lon": -77.02086666666666, "name": "2c422955b512c4d52ef0e5b49b8382de"}, {"bike_id": "dd27707aec5a3e57bc35d0e0a83bafa8", "type": "electric_scooter", "is_disabled": 0, "lat": 38.919144, "rental_uris": {"ios": "https://dc.lft.to/lastmile_qr_scan", "android": "https://dc.lft.to/lastmile_qr_scan"}, "is_reserved": 0, "fusion_lon": 0.0, "fusion_lat": 0.0, "lon": -77.030236, "name": "dd27707aec5a3e57bc35d0e0a83bafa8"}, {"bike_id": "e55ca5182ef3430531ac7af1ca7ba219", "type": "electric_bike", "is_disabled": 0, "lat": 38.969566, "rental_uris": {"ios": "https://dc.lft.to/lastmile_qr_scan", "android": "https://dc.lft.to/lastmile_qr_scan"}, "is_reserved": 0, "fusion_lon": 0.0, "fusion_lat": 0.0, "lon": -76.95748483333334, "name": "e55ca5182ef3430531ac7af1ca7ba219"}, {"bike_id": "4f429e6b6aae28c848c8c436fc03d082", "type": "electric_scooter", "is_disabled": 0, "lat": 38.9287185, "rental_uris": {"ios": "https://dc.lft.to/lastmile_qr_scan", "android": "https://dc.lft.to/lastmile_qr_scan"}, "is_reserved": 0, "fusion_lon": 0.0, "fusion_lat": 0.0, "lon": -77.03309566666667, "name": "4f429e6b6aae28c848c8c436fc03d082"}, {"bike_id": "a274d7d9a5f2ecea1ec995c7309526dd", "type": "electric_scooter", "is_disabled": 0, "lat": 38.92357833333333, "rental_uris": {"ios": "https://dc.lft.to/lastmile_qr_scan", "android": "https://dc.lft.to/lastmile_qr_scan"}, "is_reserved": 0, "fusion_lon": 0.0, "fusion_lat": 0.0, "lon": -77.0764545, "name": "a274d7d9a5f2ecea1ec995c7309526dd"}, {"bike_id": "4aa3442bfaf010f80c66ff1e82cf545d", "type": "electric_scooter", "is_disabled": 0, "lat": 38.90058716666667, "rental_uris": {"ios": "https://dc.lft.to/lastmile_qr_scan", "android": "https://dc.lft.to/lastmile_qr_scan"}, "is_reserved": 0, "fusion_lon": 0.0, "fusion_lat": 0.0, "lon": -77.01224066666667, "name": "4aa3442bfaf010f80c66ff1e82cf545d"}, {"bike_id": "4d305cc9734294e125e1a59be025ff2d", "type": "electric_scooter", "is_disabled": 0, "lat": 38.91980566666667, "rental_uris": {"ios": "https://dc.lft.to/lastmile_qr_scan", "android": "https://dc.lft.to/lastmile_qr_scan"}, "is_reserved": 0, "fusion_lon": 0.0, "fusion_lat": 0.0, "lon": -77.03970433333333, "name": "4d305cc9734294e125e1a59be025ff2d"}, {"bike_id": "05c932decb35654d5396972bf8f5acb5", "type": "electric_scooter", "is_disabled": 0, "lat": 38.914539166666664, "rental_uris": {"ios": "https://dc.lft.to/lastmile_qr_scan", "android": "https://dc.lft.to/lastmile_qr_scan"}, "is_reserved": 0, "fusion_lon": 0.0, "fusion_lat": 0.0, "lon": -77.029546, "name": "05c932decb35654d5396972bf8f5acb5"},