{"data": {"bikes": [{"bike_id": "6f10275ef25027c32d2c111665027bd2", "type": "electric_scooter", "is_disabled": 0, "lat": 38.86473, "rental_uris": {"ios": "https://dc.lft.to/lastmile_qr_scan", "android": "https://dc.lft.to/lastmile_qr_scan"}, "is_reserved": 0, "fusion_lon": 0.0, "fusion_lat": 0.0, "lon": -77.00012, "name": "6f10275ef25027c32d2c111665027bd2"}, {"bike_id": "c2c4ac14eb17242fc4632610516b9c42", "type": "electric_bike", "is_disabled": 0, "lat": 38.836084166666666, "rental_uris": {"ios": "https://dc.lft.to/lastmile_qr_scan", "android": "https://dc.lft.to/lastmile_qr_scan"}, "is_reserved": 0, "fusion_lon": 0.0, "fusion_lat": 0.0, "lon": -77.0038045, "name": "c2c4ac14eb17242fc4632610516b9c42"}, {"bike_id": "f4c22266a7c7ce31cbdb35d47b909b41", "type": "electric_scooter", "is_disabled": 0, "lat": 38.93951783333333, "rental_uris": {"ios": "https://dc.lft.to/lastmile_qr_scan", "android": "https://dc.lft.to/lastmile_qr_scan"}, "is_reserved": 0, "fusion_lon": 0.0, "fusion_lat": 0.0, "lon": -77.07242516666666, "name": "f4c22266a7c7ce31cbdb35d47b909b41"}, {"bike_id": "611b57dc6264407111be72a5049911da", "type": "electric_scooter", "is_disabled": 0, "lat": 38.922762166666665, "rental_uris": {"ios": "https://dc.lft.to/lastmile_qr_scan", "android": "https://dc.lft.to/lastmile_qr_scan"}, "is_reserved": 0, "fusion_lon": 0.0, "fusion_lat": 0.0, "lon": -77.0366535, "name": "611b57dc6264407111be72a5049911da"}, {"bike_id": "cc825db89e2b0163fa35bc933bf18bd4", "type": "electric_scooter", "is_disabled": 0, "lat": 38.91136133333333, "rental_uris": {"ios": "https://dc.lft.to/lastmile_qr_scan", "android": "https://dc.lft.to/lastmile_qr_scan"}, "is_reserved": 0, "fusion_lon": 0.0, "fusion_lat": 0.0, "lon": -77.0654795, "name": "cc825db89e2b0163fa35bc933bf18bd4"}, {"bike_id": "da1f70c9f78aae319b770615d2e534d0", "type": "electric_scooter", "is_disabled": 0, "lat": 38.901007666666665, "rental_uris": {"ios": "https://dc.lft.to/lastmile_qr_scan", "android": "https://dc.lft.to/lastmile_qr_scan"}, "is_reserved": 0, "fusion_lon": 0.0, "fusion_lat": 0.0, "lon": -77.0382715, "name": "da1f70c9f78aae319b770615d2e534d0"}, {"bike_id": "f7d3083aadc1a41e6a5055e2cf1377fa", "type": "electric_scooter", "is_disabled": 0, "lat": 38.911053333333335, "rental_uris": {"ios": "https://dc.lft.to/lastmile_qr_scan", "android": "https://dc.lft.to/lastmile_qr_scan"}, "is_reserved": 0, "fusion_lon": 0.0, "fusion_lat": 0.0, "lon": -77.045275, "name": "f7d3083aadc1a41e6a5055e2cf1377fa"}, {"bike_id": "24c099b0e824d5f7ea2d0d51da78e52d", "type": "electric_scooter", "is_disabled": 0, "lat": 38.91333266666667, "rental_uris": {"ios": "https://dc.lft.to/lastmile_qr_scan", "android": "https://dc.lft.to/lastmile_qr_scan"}, "is_reserved": 0, "fusion_lon": 0.0, "fusion_lat": 0.0, "lon": -77.03991983333333, "name": "24c099b0e824d5f7ea2d0d51da78e52d"}, {"bike_id": "251eea90508058bbe35a0a0212d653ad", "type": "electric_scooter", "is_disabled": 0, "lat": 38.843129166666664, "rental_uris": {"ios": "https://dc.lft.to/lastmile_qr_scan", "android": "https://dc.lft.to/lastmile_qr_scan"}, "is_reserved": 0, "fusion_lon": 0.0, "fusion_lat": 0.0, "lon": -76.99928116666666, "name": "251eea90508058bbe35a0a0212d653ad"}, {"bike_id": "84421ba290d0c74fbce865d2da631b31", "type": "electric_scooter", "is_disabled": 0, "lat": 38.91981416666667, "rental_uris": {"ios": "https://dc.lft.to/lastmile_qr_scan", "android": "https://dc.lft.to/lastmile_qr_scan"}, "is_reserved": 0, "fusion_lon": 0.0, "fusion_lat": 0.0, "lon": -77.01803366666667, "name": "84421ba290d0c74fbce865d2da631b31"}, {"bike_id": "af1ebe3104818cad1acfddf766ad2345", "type": "electric_scooter", "is_disabled": 0, "lat": 38.914643, "rental_uris": {"ios": "https://dc.lft.to/lastmile_qr_scan", "android": "https://dc.lft.to/lastmile_qr_scan"}, "is_reserved": 0, "fusion_lon": 0.0, "fusion_lat": 0.0, "lon": -77.00212066666667, "name": "af1ebe3104818cad1acfddf766ad2345"}, {"bike_id": "123c0f1095bb6069b5e4dbcebe96a334", "type": "electric_scooter", "is_disabled": 0, "lat": 38.92365383333333, "rental_uris": {"ios": "https://dc.lft.to/lastmile_qr_scan", "android": "https://dc.lft.to/lastmile_qr_scan"}, "is_reserved": 0, "fusion_lon": 0.0, "fusion_lat": 0.0, "lon": -77.05132183333333, "name": "123c0f1095bb6069b5e4dbcebe96a334"}, {"bike_id": "5e6bbf498041b2d630b7ff5030be1336", "type": "electric_bike", "is_disabled": 0, "lat": 38.895659333333334, "rental_uris": {"ios": "https://dc.lft.to/lastmile_qr_scan", "android": "https://dc.lft.to/lastmile_qr_scan"}, "is_reserved": 0, "fusion_lon": 0.0, "fusion_lat": 0.0, "lon": -77.12736483333333, "name": "5e6bbf498041b2d630b7ff5030be1336"}, {"bike_id": "0890803b704b7a09ca5b59f60063ff17", "type": "electric_scooter", "is_disabled": 0, "lat": 38.920487666666666, "rental_uris": {"ios": "https://dc.lft.to/lastmile_qr_scan", "android": "https://dc.lft.to/lastmile_qr_scan"}, "is_reserved": 0, "fusion_lon": 0.0, "fusion_lat": 0.0, "lon": -77.03391483333333, "name": "0890803b704b7a09ca5b59f60063ff17"}, {"bike_id": "7930b8b52cd432b9347e49aeb42e7bea", "type": "electric_scooter", "is_disabled": 0, "lat": 38.900342, "rental_uris": {"ios": "https://dc.lft.to/lastmile_qr_scan", "android": "https://dc.lft.to/lastmile_qr_scan"}, "is_reserved": 0, "fusion_lon": 0.0, "fusion_lat": 0.0, "lon": -77.0018325, "name": "7930b8b52cd432b9347e49aeb42e7bea"}, {"bike_id": "b9f86c5f61a24f8300f3abd81c37c40b", "type": "electric_scooter", "is_disabled": 0, "lat": 38.942894333333335, "rental_uris": {"ios": "https://dc.lft.to/lastmile_qr_scan", "android": "https://dc.lft.to/lastmile_qr_scan"}, "is_reserved": 0, "fusion_lon": 0.0, "fusion_lat": 0.0, "lon": -77.02174666666667, "name": "b9f86c5f61a24f8300f3abd81c37c40b"}, {"bike_id": "40fdb7322900f111532fd05a8e4a0b3b", "type": "electric_scooter", "is_disabled": 0, "lat": 38.92227583333333, "rental_uris": {"ios": "https://dc.lft.to/lastmile_qr_scan", "android": "https://dc.lft.to/lastmile_qr_scan"}, "is_reserved": 0, "fusion_lon": 0.0, "fusion_lat": 0.0, "lon": -77.042657, "name": "40fdb7322900f111532fd05a8e4a0b3b"}, {"bike_id": "0cbfba792e1bde3540e667703d7e2d29", "type": "electric_scooter", "is_disabled": 0, "lat": 38.93180366666667, "rental_uris": {"ios": "https://dc.lft.to/lastmile_qr_scan", "android": "https://dc.lft.to/lastmile_qr_scan"}, "is_reserved": 0, "fusion_lon": 0.0, "fusion_lat": 0.0, "lon": -77.02375033333334, "name": "0cbfba792e1bde3540e667703d7e2d29"}, {"bike_id": "c5e4ac29fc41ae93a97dd467da78ce9a", "type": "electric_scooter", "is_disabled": 0, "lat": 38.91414416666667, "rental_uris": {"ios": "https://dc.lft.to/lastmile_qr_scan", "android": "https://dc.lft.to/lastmile_qr_scan"}, "is_reserved": 0, "fusion_lon": 0.0, "fusion_lat": 0.0, "lon": -77.02249683333334, "name": "c5e4ac29fc41ae93a97dd467da78ce9a"}, {"bike_id": "71ad90b4049c22563443709bcefc06de", "type": "electric_scooter", "is_disabled": 0, "lat": 38.933349166666666, "rental_uris": {"ios": "https://dc.lft.to/lastmile_qr_scan", "android": "https://dc.lft.to/lastmile_qr_scan"}, "is_reserved": 0, "fusion_lon": 0.0, "fusion_lat": 0.0, "lon": -77.039903, "name": "71ad90b4049c22563443709bcefc06de"}, {"bike_id": "443f4db2dbedecfc4f93a6bb1decb56c", "type": "electric_scooter", "is_disabled": 0, "lat": 38.89256483333333, "rental_uris": {"ios": "https://dc.lft.to/lastmile_qr_scan", "android": "https://dc.lft.to/lastmile_qr_scan"}, "is_reserved": 0, "fusion_lon": 0.0, "fusion_lat": 0.0, "lon": -76.92576583333333, "name": "443f4db2dbedecfc4f93a6bb1decb56c"}, {"bike_id": "96163bca1fb0b1dd1d748cbd440d6513", "type": "electric_bike", "is_disabled": 0, "lat": 38.993050333333336, "rental_uris": {"ios": "https://dc.lft.to/lastmile_qr_scan", "android": "https://dc.lft.to/lastmile_qr_scan"}, "is_reserved": 0, "fusion_lon": 0.0, "fusion_lat": 0.0, "lon": -77.02510866666667, "name": "96163bca1fb0b1dd1d748cbd440d6513"}, {"bike_id": "401ac45557e03e2c6893e419908cf254", "type": "electric_scooter", "is_disabled": 0, "lat": 38.907239, "rental_uris": {"ios": "https://dc.lft.to/lastmile_qr_scan", "android": "https://dc.lft.to/lastmile_qr_scan"}, "is_reserved": 0, "fusion_lon": 0.0, "fusion_lat": 0.0, "lon": -77.03438016666666, "name": "401ac45557e03e2c6893e419908cf254"}, {"bike_id": "c8d4dd44e2a42e8d89efe605ae965326", "type": "electric_scooter", "is_disabled": 0, "lat": 38.923228, "rental_uris": {"ios": "https://dc.lft.to/lastmile_qr_scan", "android": "https://dc.lft.to/lastmile_qr_scan"}, "is_reserved": 0, "fusion_lon": 0.0, "fusion_lat": 0.0, "lon": -77.03899416666667, "name": "c8d4dd44e2a42e8d89efe605ae965326"}, {"bike_id": "ad55cc10e850da534b4c2b12b75ea458", "type": "electric_scooter", "is_disabled": 0, "lat": 38.92156266666667, "rental_uris": {"ios": "https://dc.lft.to/lastmile_qr_scan", "android": "https://dc.lft.to/lastmile_qr_scan"}, "is_reserved": 0, "fusion_lon": 0.0, "fusion_lat": 0.0, "lon": -77.03377883333333, "name": "ad55cc10e850da534b4c2b12b75ea458"}, {"bike_id": "39fadbab46a1cd76e03257461d952a96", "type": "electric_scooter", "is_disabled": 0, "lat": 38.956597, "rental_uris": {"ios": "https://dc.lft.to/lastmile_qr_scan", "android": "https://dc.lft.to/lastmile_qr_scan"}, "is_reserved": 0, "fusion_lon": 0.0, "fusion_lat": 0.0, "lon": -77.0239895, "name": "39fadbab46a1cd76e03257461d952a96"}, {"bike_id": "1515ea887f89a2c6e69b12a70cdee4ae", "type": "electric_scooter", "is_disabled": 0, "lat": 38.864385, "rental_uris": {"ios": "https://dc.lft.to/lastmile_qr_scan", "android": "https://dc.lft.to/lastmile_qr_scan"}, "is_reserved": 0, "fusion_lon": 0.0, "fusion_lat": 0.0, "lon": -76.98015383333333, "name": "1515ea887f89a2c6e69b12a70cdee4ae"}, {"bike_id": "99342a5f8dcbcc0b8d8cae1536bbd28d", "type": "electric_scooter", "is_disabled": 0, "lat": 38.924272, "rental_uris": {"ios": "https://dc.lft.to/lastmile_qr_scan", "android": "https://dc.lft.to/lastmile_qr_scan"}, "is_reserved": 0, "fusion_lon": 0.0, "fusion_lat": 0.0, "lon": -77.02242433333333, "name": "99342a5f8dcbcc0b8d8cae1536bbd28d"}, {"bike_id": "358f8548e5754f049b27b4836a3bde1a", "type": "electric_scooter", "is_disabled": 0, "lat": 38.917335, "rental_uris": {"ios": "https://dc.lft.to/lastmile_qr_scan", "android": "https://dc.lft.to/lastmile_qr_scan"}, "is_reserved": 0, "fusion_lon": 0.0, "fusion_lat": 0.0, "lon": -77.02605616666666, "name": "358f8548e5754f049b27b4836a3bde1a"}, {"bike_id": "2a0453de5fddf264a6abb1bbdaf8dd77", "type": "electric_scooter", "is_disabled": 0, "lat": 38.91924, "rental_uris": {"ios": "https://dc.lft.to/lastmile_qr_scan", "android": "https://dc.lft.to/lastmile_qr_scan"}, "is_reserved": 0, "fusion_lon": 0.0, "fusion_lat": 0.0, "lon": -77.02571916666666, "name": "2a0453de5fddf264a6abb1bbdaf8dd77"}, {"bike_id": "5b4fd4d14f615dc67cd8f0d1ee19618e", "type": "electric_scooter", "is_disabled": 0, "lat": 38.9209735, "rental_uris": {"ios": "https://dc.lft.to/lastmile_qr_scan", "android": "https://dc.lft.to/lastmile_qr_scan"}, "is_reserved": 0, "fusion_lon": 0.0, "fusion_lat": 0.0, "lon": -77.03177083333334, "name": "5b4fd4d14f615dc67cd8f0d1ee19618e"}, {"bike_id": "3382cae077bb4db9944732fb4cbb6a04", "type": "electric_scooter", "is_disabled": 0, "lat": 38.88041483333333, "rental_uris": {"ios": "https://dc.lft.to/lastmile_qr_scan", "android": "https://dc.lft.to/lastmile_qr_scan"}, "is_reserved": 0, "fusion_lon": 0.0, "fusion_lat": 0.0, "lon": -77.0054845, "name": "3382cae077bb4db9944732fb4cbb6a04"}, {"bike_id": "83f8baeeca82f7fc7f541c778103f079", "type": "electric_scooter", "is_disabled": 0, "lat": 38.90229183333334, "rental_uris": {"ios": "https://dc.lft.to/lastmile_qr_scan", "android": "https://dc.lft.to/lastmile_qr_scan"}, "is_reserved": 0, "fusion_lon": 0.0, "fusion_lat": 0.0, "lon": -77.04128666666666, "name": "83f8baeeca82f7fc7f541c778103f079"}, {"bike_id": "6658bbf9f54b212a3a3851f2476173c8", "type": "electric_scooter", "is_disabled": 0, "lat": 38.88702816666667, "rental_uris": {"ios": "https://dc.lft.to/lastmile_qr_scan", "android": "https://dc.lft.to/lastmile_qr_scan"}, "is_reserved": 0, "fusion_lon": 0.0, "fusion_lat": 0.0, "lon": -77.01371933333333, "name": "6658bbf9f54b212a3a3851f2476173c8"}, {"bike_id": "0b5fa32ceb04fa4fc17e7e1667634cbc", "type": "electric_scooter", "is_disabled": 0, "lat": 38.92054266666667, "rental_uris": {"ios": "https://dc.lft.to/lastmile_qr_scan", "android": "https://dc.lft.to/lastmile_qr_scan"}, "is_reserved": 0, "fusion_lon": 0.0, "fusion_lat": 0.0, "lon": -77.02432133333333, "name": "0b5fa32ceb04fa4fc17e7e1667634cbc"}, {"bike_id": "dd3d87492be76db15bf6a33244f293e1", "type": "electric_scooter", "is_disabled": 0, "lat": 38.905151333333336, "rental_uris": {"ios": "https://dc.lft.to/lastmile_qr_scan", "android": "https://dc.lft.to/lastmile_qr_scan"}, "is_reserved": 0, "fusion_lon": 0.0, "fusion_lat": 0.0, "lon": -77.06393816666667, "name": "dd3d87492be76db15bf6a33244f293e1"}, {"bike_id": "f3edf4747c5b54afb9871ae09a7f1754", "type": "electric_scooter", "is_disabled": 0, "lat": 38.92772733333334, "rental_uris": {"ios": "https://dc.lft.to/lastmile_qr_scan", "android": "https://dc.lft.to/lastmile_qr_scan"}, "is_reserved": 0, "fusion_lon": 0.0, "fusion_lat": 0.0, "lon": -77.02919866666667, "name": "f3edf4747c5b54afb9871ae09a7f1754"}, {"bike_id": "aa2f7898f6dfe0b77f6efb34fb850add", "type": "electric_scooter", "is_disabled": 0, "lat": 38.90533966666667, "rental_uris": {"ios": "https://dc.lft.to/lastmile_qr_scan", "android": "https://dc.lft.to/lastmile_qr_scan"}, "is_reserved": 0, "fusion_lon": 0.0, "fusion_lat": 0.0, "lon": -77.05903616666667, "name": "aa2f7898f6dfe0b77f6efb34fb850add"}, {"bike_id": "6c89c34dc6ffd1f8442422671b0aa595", "type": "electric_scooter", "is_disabled": 0, "lat": 38.909543, "rental_uris": {"ios": "https://dc.lft.to/lastmile_qr_scan", "android": "https://dc.lft.to/lastmile_qr_scan"}, "is_reserved": 0, "fusion_lon": 0.0, "fusion_lat": 0.0, "lon": -77.02601633333333, "name": "6c89c34dc6ffd1f8442422671b0aa595"}, {"bike_id": "44b7e93c25e4fbb102e0c4ce206f7dcc", "type": "electric_scooter", "is_disabled": 0, "lat": 38.90771933333333, "rental_uris": {"ios": "https://dc.lft.to/lastmile_qr_scan", "android": "https://dc.lft.to/lastmile_qr_scan"}, "is_reserved": 0, "fusion_lon": 0.0, "fusion_lat": 0.0, "lon": -77.07167566666666, "name": "44b7e93c25e4fbb102e0c4ce206f7dcc"}, {"bike_id": "1c27a73f6fbdc0470cdb9d6a753741d6", "type": "electric_scooter", "is_disabled": 0, "lat": 38.90818083333333, "rental_uris": {"ios": "https://dc.lft.to/lastmile_qr_scan", "android": "https://dc.lft.to/lastmile_qr_scan"}, "is_reserved": 0, "fusion_lon": 0.0, "fusion_lat": 0.0, "lon": -77.029658, "name": "1c27a73f6fbdc0470cdb9d6a753741d6"}, {"bike_id": "3c964981b295472cfebe4d8f1f503c33", "type": "electric_scooter", "is_disabled": 0, "lat": 38.912755833333335, "rental_uris": {"ios": "https://dc.lft.to/lastmile_qr_scan", "android": "https://dc.lft.to/lastmile_qr_scan"}, "is_reserved": 0, "fusion_lon": 0.0, "fusion_lat": 0.0, "lon": -77.01880866666667, "name": "3c964981b295472cfebe4d8f1f503c33"}, {"bike_id": "2c8147f6f21234a841c2834a6cc17dcc", "type": "electric_scooter", "is_disabled": 0, "lat": 38.89884516666667, "rental_uris": {"ios": "https://dc.lft.to/lastmile_qr_scan", "android": "https://dc.lft.to/lastmile_qr_scan"}, "is_reserved": 0, "fusion_lon": 0.0, "fusion_lat": 0.0, "lon": -76.93175316666667, "name": "2c8147f6f21234a841c2834a6cc17dcc"}, {"bike_id": "f9387d587c0f5c211aaf9b46f7df9da7", "type": "electric_bike", "is_disabled": 0, "lat": 38.86620583333333, "rental_uris": {"ios": "https://dc.lft.to/lastmile_qr_scan", "android": "https://dc.lft.to/lastmile_qr_scan"}, "is_reserved": 0, "fusion_lon": 0.0, "fusion_lat": 0.0, "lon": -76.9456915, "name": "f9387d587c0f5c211aaf9b46f7df9da7"}, {"bike_id": "fc6d282f038fcc87d386f22956ced0e3", "type": "electric_scooter", "is_disabled": 0, "lat": 38.927534666666666, "rental_uris": {"ios": "https://dc.lft.to/lastmile_qr_scan", "android": "https://dc.lft.to/lastmile_qr_scan"}, "is_reserved": 0, "fusion_lon": 0.0, "fusion_lat": 0.0, "lon": -77.0284585, "name": "fc6d282f038fcc87d386f22956ced0e3"}, {"bike_id": "93881b6e11efea454670aa98587169e6", "type": "electric_scooter", "is_disabled": 0, "lat": 38.89795633333333, "rental_uris": {"ios": "https://dc.lft.to/lastmile_qr_scan", "android": "https://dc.lft.to/lastmile_qr_scan"}, "is_reserved": 0, "fusion_lon": 0.0, "fusion_lat": 0.0, "lon": -77.02203883333334, "name": "93881b6e11efea454670aa98587169e6"}, {"bike_id": "638e167ddf1c80cb83b4d0ff91dbb21f", "type": "electric_scooter", "is_disabled": 0, "lat": 38.89849816666667, "rental_uris": {"ios": "https://dc.lft.to/lastmile_qr_scan", "android": "https://dc.lft.to/lastmile_qr_scan"}, "is_reserved": 0, "fusion_lon": 0.0, "fusion_lat": 0.0, "lon": -76.990327, "name": "638e167ddf1c80cb83b4d0ff91dbb21f"}, {"bike_id": "2cdaa9f29e5a83e7bc2acbb05a35e8d8", "type": "electric_scooter", "is_disabled": 0, "lat": 38.9291335, "rental_uris": {"ios": "https://dc.lft.to/lastmile_qr_scan", "android": "https://dc.lft.to/lastmile_qr_scan"}, "is_reserved": 0, "fusion_lon": 0.0, "fusion_lat": 0.0, "lon": -77.02094266666667, "name": "2cdaa9f29e5a83e7bc2acbb05a35e8d8"}, {"bike_id": "e970ebd9ce6e9e7b24b343caa12a580c", "type": "electric_scooter", "is_disabled": 0, "lat": 38.90302716666667, "rental_uris": {"ios": "https://dc.lft.to/lastmile_qr_scan", "android": "https://dc.lft.to/lastmile_qr_scan"}, "is_reserved": 0, "fusion_lon": 0.0, "fusion_lat": 0.0, "lon": -77.0495345, "name": "e970ebd9ce6e9e7b24b343caa12a580c"}, {"bike_id": "4a4e4f739c38dfbd0a8bcecf4f3f0974", "type": "electric_scooter", "is_disabled": 0, "lat": 38.935979833333334, "rental_uris": {"ios": "https://dc.lft.to/lastmile_qr_scan", "android": "https://dc.lft.to/lastmile_qr_scan"}, "is_reserved": 0, "fusion_lon": 0.0, "fusion_lat": 0.0, "lon": -77.03661233333334, "name": "4a4e4f739c38dfbd0a8bcecf4f3f0974"}, {"bike_id": "11b2b5185aa270e36f0ca2747f74b65e", "type": "electric_scooter", "is_disabled": 0, "lat": 38.902416833333334, "rental_uris": {"ios": "https://dc.lft.to/lastmile_qr_scan", "android": "https://dc.lft.to/lastmile_qr_scan"}, "is_reserved": 0, "fusion_lon": 0.0, "fusion_lat": 0.0, "lon": -77.040411, "name": "11b2b5185aa270e36f0ca2747f74b65e"}, {"bike_id": "37f75fdf672dd04cdd3ffa2c7cde5ab9", "type": "electric_scooter", "is_disabled": 0, "lat": 38.9159865, "rental_uris": {"ios": "https://dc.lft.to/lastmile_qr_scan", "android": "https://dc.lft.to/lastmile_qr_scan"}, "is_reserved": 0, "fusion_lon": 0.0, "fusion_lat": 0.0, "lon": -77.03205283333334, "name": "37f75fdf672dd04cdd3ffa2c7cde5ab9"}, {"bike_id": "3ad8ce9be0360de40a13da9d382ce2d0", "type": "electric_scooter", "is_disabled": 0, "lat": 38.922133333333335, "rental_uris": {"ios": "https://dc.lft.to/lastmile_qr_scan", "android": "https://dc.lft.to/lastmile_qr_scan"}, "is_reserved": 0, "fusion_lon": 0.0, "fusion_lat": 0.0, "lon": -77.03661816666667, "name": "3ad8ce9be0360de40a13da9d382ce2d0"}, {"bike_id": "49f87374403d2d80734c34aac993d574", "type": "electric_scooter", "is_disabled": 0, "lat": 38.9139995, "rental_uris": {"ios": "https://dc.lft.to/lastmile_qr_scan", "android": "https://dc.lft.to/lastmile_qr_scan"}, "is_reserved": 0, "fusion_lon": 0.0, "fusion_lat": 0.0, "lon": -76.98190583333333, "name": "49f87374403d2d80734c34aac993d574"}, {"bike_id": "f3028b6d273c2df9eefb8625c357057e", "type": "electric_scooter", "is_disabled": 0, "lat": 38.919261, "rental_uris": {"ios": "https://dc.lft.to/lastmile_qr_scan", "android": "https://dc.lft.to/lastmile_qr_scan"}, "is_reserved": 0, "fusion_lon": 0.0, "fusion_lat": 0.0, "lon": -77.03181916666666, "name": "f3028b6d273c2df9eefb8625c357057e"}, {"bike_id": "1cfba6eed2670565361e6700cd091ede", "type": "electric_bike", "is_disabled": 0, "lat": 38.993274166666666, "rental_uris": {"ios": "https://dc.lft.to/lastmile_qr_scan", "android": "https://dc.lft.to/lastmile_qr_scan"}, "is_reserved": 0, "fusion_lon": 0.0, "fusion_lat": 0.0, "lon": -76.94614083333333, "name": "1cfba6eed2670565361e6700cd091ede"}, {"bike_id": "3110eeb0fd80c45d72323b1e025a0aed", "type": "electric_scooter", "is_disabled": 0, "lat": 38.933527, "rental_uris": {"ios": "https://dc.lft.to/lastmile_qr_scan", "android": "https://dc.lft.to/lastmile_qr_scan"}, "is_reserved": 0, "fusion_lon": 0.0, "fusion_lat": 0.0, "lon": -77.07357266666666, "name": "3110eeb0fd80c45d72323b1e025a0aed"}, {"bike_id": "d543c658148a91f679108908dd42b8f7", "type": "electric_bike", "is_disabled": 0, "lat": 38.85530683333333, "rental_uris": {"ios": "https://dc.lft.to/lastmile_qr_scan", "android": "https://dc.lft.to/lastmile_qr_scan"}, "is_reserved": 0, "fusion_lon": 0.0, "fusion_lat": 0.0, "lon": -77.12037583333333, "name": "d543c658148a91f679108908dd42b8f7"}, {"bike_id": "c5f4166002068f1a71fb0cd686aee9e4", "type": "electric_scooter", "is_disabled": 0, "lat": 38.907945166666664, "rental_uris": {"ios": "https://dc.lft.to/lastmile_qr_scan", "android": "https://dc.lft.to/lastmile_qr_scan"}, "is_reserved": 0, "fusion_lon": 0.0, "fusion_lat": 0.0, "lon": -77.00189, "name": "c5f4166002068f1a71fb0cd686aee9e4"}, {"bike_id": "e6b907a82a3d63482c76b53f514de9c8", "type": "electric_scooter", "is_disabled": 0, "lat": 38.9205255, "rental_uris": {"ios": "https://dc.lft.to/lastmile_qr_scan", "android": "https://dc.lft.to/lastmile_qr_scan"}, "is_reserved": 0, "fusion_lon": 0.0, "fusion_lat": 0.0, "lon": -76.99869566666666, "name": "e6b907a82a3d63482c76b53f514de9c8"}, {"bike_id": "870294322a30c2ed7ce167bb428132f2", "type": "electric_scooter", "is_disabled": 0, "lat": 38.87624666666667, "rental_uris": {"ios": "https://dc.lft.to/lastmile_qr_scan", "android": "https://dc.lft.to/lastmile_qr_scan"}, "is_reserved": 0, "fusion_lon": 0.0, "fusion_lat": 0.0, "lon": -76.965261, "name": "870294322a30c2ed7ce167bb428132f2"}, {"bike_id": "cfba0440ed288cfcd151dba764828f57", "type": "electric_scooter", "is_disabled": 0, "lat": 38.906113500000004, "rental_uris": {"ios": "https://dc.lft.to/lastmile_qr_scan", "android": "https://dc.lft.to/lastmile_qr_scan"}, "is_reserved": 0, "fusion_lon": 0.0, "fusion_lat": 0.0, "lon": -77.04716033333334, "name": "cfba0440ed288cfcd151dba764828f57"}, {"bike_id": "312843e53eeae582e6b7c9734cd82229", "type": "electric_scooter", "is_disabled": 0, "lat": 38.95613983333333, "rental_uris": {"ios": "https://dc.lft.to/lastmile_qr_scan", "android": "https://dc.lft.to/lastmile_qr_scan"}, "is_reserved": 0, "fusion_lon": 0.0, "fusion_lat": 0.0, "lon": -77.01018283333333, "name": "312843e53eeae582e6b7c9734cd82229"}, {"bike_id": "7e6e305d1cc3b91c692bae1e73212657", "type": "electric_scooter", "is_disabled": 0, "lat": 38.9023505, "rental_uris": {"ios": "https://dc.lft.to/lastmile_qr_scan", "android": "https://dc.lft.to/lastmile_qr_scan"}, "is_reserved": 0, "fusion_lon": 0.0, "fusion_lat": 0.0, "lon": -77.04330516666667, "name": "7e6e305d1cc3b91c692bae1e73212657"}, {"bike_id": "b2c226a15334b15a96bb9cd79ac2b665", "type": "electric_scooter", "is_disabled": 0, "lat": 38.90244833333333, "rental_uris": {"ios": "https://dc.lft.to/lastmile_qr_scan", "android": "https://dc.lft.to/lastmile_qr_scan"}, "is_reserved": 0, "fusion_lon": 0.0, "fusion_lat": 0.0, "lon": -77.02825866666667, "name": "b2c226a15334b15a96bb9cd79ac2b665"}, {"bike_id": "681050ca9869f9bd6bd5476a2308e3e2", "type": "electric_scooter", "is_disabled": 0, "lat": 38.939360666666666, "rental_uris": {"ios": "https://dc.lft.to/lastmile_qr_scan", "android": "https://dc.lft.to/lastmile_qr_scan"}, "is_reserved": 0, "fusion_lon": 0.0, "fusion_lat": 0.0, "lon": -77.02000566666666, "name": "681050ca9869f9bd6bd5476a2308e3e2"}, {"bike_id": "0fc234848289b1b64fc6e68d34aa36b2", "type": "electric_scooter", "is_disabled": 0, "lat": 38.91678916666667, "rental_uris": {"ios": "https://dc.lft.to/lastmile_qr_scan", "android": "https://dc.lft.to/lastmile_qr_scan"}, "is_reserved": 0, "fusion_lon": 0.0, "fusion_lat": 0.0, "lon": -77.01578166666667, "name": "0fc234848289b1b64fc6e68d34aa36b2"}, {"bike_id": "12f0aeb58dedb9b03c29b6f40a85d69e", "type": "electric_scooter", "is_disabled": 0, "lat": 38.917555666666665, "rental_uris": {"ios": "https://dc.lft.to/lastmile_qr_scan", "android": "https://dc.lft.to/lastmile_qr_scan"}, "is_reserved": 0, "fusion_lon": 0.0, "fusion_lat": 0.0, "lon": -77.01472316666667, "name": "12f0aeb58dedb9b03c29b6f40a85d69e"}, {"bike_id": "fe085b6246e90a0007add02cc806819d", "type": "electric_scooter", "is_disabled": 0, "lat": 38.9395315, "rental_uris": {"ios": "https://dc.lft.to/lastmile_qr_scan", "android": "https://dc.lft.to/lastmile_qr_scan"}, "is_reserved": 0, "fusion_lon": 0.0, "fusion_lat": 0.0, "lon": -77.06070683333333, "name": "fe085b6246e90a0007add02cc806819d"}, {"bike_id": "60a67f910270e7f1d2ab30f031f3f439", "type": "electric_scooter", "is_disabled": 0, "lat": 38.89779766666667, "rental_uris": {"ios": "https://dc.lft.to/lastmile_qr_scan", "android": "https://dc.lft.to/lastmile_qr_scan"}, "is_reserved": 0, "fusion_lon": 0.0, "fusion_lat": 0.0, "lon": -77.02693183333334, "name": "60a67f910270e7f1d2ab30f031f3f439"}, {"bike_id": "3eaeba4e99d6ed30a58df066f6a190e2", "type": "electric_scooter", "is_disabled": 0, "lat": 38.87084433333333, "rental_uris": {"ios": "https://dc.lft.to/lastmile_qr_scan", "android": "https://dc.lft.to/lastmile_qr_scan"}, "is_reserved": 0, "fusion_lon": 0.0, "fusion_lat": 0.0, "lon": -77.01201216666666, "name": "3eaeba4e99d6ed30a58df066f6a190e2"}, {"bike_id": "61597dd384e748de18535db00f451d62", "type": "electric_scooter", "is_disabled": 0, "lat": 38.91701283333333, "rental_uris": {"ios": "https://dc.lft.to/lastmile_qr_scan", "android": "https://dc.lft.to/lastmile_qr_scan"}, "is_reserved": 0, "fusion_lon": 0.0, "fusion_lat": 0.0, "lon": -77.03072016666667, "name": "61597dd384e748de18535db00f451d62"}, {"bike_id": "2cd83784ba4ab9939d1c4474573c415d", "type": "electric_bike", "is_disabled": 0, "lat": 38.81509333333333, "rental_uris": {"ios": "https://dc.lft.to/lastmile_qr_scan", "android": "https://dc.lft.to/lastmile_qr_scan"}, "is_reserved": 0, "fusion_lon": 0.0, "fusion_lat": 0.0, "lon": -77.126533, "name": "2cd83784ba4ab9939d1c4474573c415d"}, {"bike_id": "9cebe988953fc873946286aa5af1a729", "type": "electric_scooter", "is_disabled": 0, "lat": 38.92450383333333, "rental_uris": {"ios": "https://dc.lft.to/lastmile_qr_scan", "android": "https://dc.lft.to/lastmile_qr_scan"}, "is_reserved": 0, "fusion_lon": 0.0, "fusion_lat": 0.0, "lon": -77.03342983333333, "name": "9cebe988953fc873946286aa5af1a729"}, {"bike_id": "5b2bd0cd86bcdfaa72a64400fb6838d0", "type": "electric_scooter", "is_disabled": 0, "lat": 38.92232933333333, "rental_uris": {"ios": "https://dc.lft.to/lastmile_qr_scan", "android": "https://dc.lft.to/lastmile_qr_scan"}, "is_reserved": 0, "fusion_lon": 0.0, "fusion_lat": 0.0, "lon": -76.9734275, "name": "5b2bd0cd86bcdfaa72a64400fb6838d0"}, {"bike_id": "b4ffd630dc089e27c98c728c0a64913c", "type": "electric_bike", "is_disabled": 0, "lat": 38.79602366666667, "rental_uris": {"ios": "https://dc.lft.to/lastmile_qr_scan", "android": "https://dc.lft.to/lastmile_qr_scan"}, "is_reserved": 0, "fusion_lon": 0.0, "fusion_lat": 0.0, "lon": -76.99746716666667, "name": "b4ffd630dc089e27c98c728c0a64913c"}, {"bike_id": "6b16ac57b6ed79f65751fba1617485ab", "type": "electric_scooter", "is_disabled": 0, "lat": 38.92328533333333, "rental_uris": {"ios": "https://dc.lft.to/lastmile_qr_scan", "android": "https://dc.lft.to/lastmile_qr_scan"}, "is_reserved": 0, "fusion_lon": 0.0, "fusion_lat": 0.0, "lon": -77.05420433333333, "name": "6b16ac57b6ed79f65751fba1617485ab"}, {"bike_id": "edcde586089b4f53e84576a59a87c451", "type": "electric_scooter", "is_disabled": 0, "lat": 38.90481533333333, "rental_uris": {"ios": "https://dc.lft.to/lastmile_qr_scan", "android": "https://dc.lft.to/lastmile_qr_scan"}, "is_reserved": 0, "fusion_lon": 0.0, "fusion_lat": 0.0, "lon": -77.06103933333333, "name": "edcde586089b4f53e84576a59a87c451"}, {"bike_id": "8e6c1517698283098a971d0203abe472", "type": "electric_scooter", "is_disabled": 0, "lat": 38.8974655, "rental_uris": {"ios": "https://dc.lft.to/lastmile_qr_scan", "android": "https://dc.lft.to/lastmile_qr_scan"}, "is_reserved": 0, "fusion_lon": 0.0, "fusion_lat": 0.0, "lon": -76.993868, "name": "8e6c1517698283098a971d0203abe472"}, {"bike_id": "3ea06eec4cd097ef1f73e0e8d0d55f9b", "type": "electric_scooter", "is_disabled": 0, "lat": 38.898422833333335, "rental_uris": {"ios": "https://dc.lft.to/lastmile_qr_scan", "android": "https://dc.lft.to/lastmile_qr_scan"}, "is_reserved": 0, "fusion_lon": 0.0, "fusion_lat": 0.0, "lon": -76.946345, "name": "3ea06eec4cd097ef1f73e0e8d0d55f9b"}, {"bike_id": "7954c61b6767aed6cc63ddfee6d56331", "type": "electric_scooter", "is_disabled": 0, "lat": 38.90235216666667, "rental_uris": {"ios": "https://dc.lft.to/lastmile_qr_scan", "android": "https://dc.lft.to/lastmile_qr_scan"}, "is_reserved": 0, "fusion_lon": 0.0, "fusion_lat": 0.0, "lon": -77.01638233333334, "name": "7954c61b6767aed6cc63ddfee6d56331"}, {"bike_id": "907ff24b8344c241e153ff22948020d8", "type": "electric_scooter", "is_disabled": 0, "lat": 38.93184516666667, "rental_uris": {"ios": "https://dc.lft.to/lastmile_qr_scan", "android": "https://dc.lft.to/lastmile_qr_scan"}, "is_reserved": 0, "fusion_lon": 0.0, "fusion_lat": 0.0, "lon": -77.0254145, "name": "907ff24b8344c241e153ff22948020d8"}, {"bike_id": "9405f0cec59abbb411078f3c97c24046", "type": "electric_scooter", "is_disabled": 0, "lat": 38.89477483333334, "rental_uris": {"ios": "https://dc.lft.to/lastmile_qr_scan", "android": "https://dc.lft.to/lastmile_qr_scan"}, "is_reserved": 0, "fusion_lon": 0.0, "fusion_lat": 0.0, "lon": -76.94857583333334, "name": "9405f0cec59abbb411078f3c97c24046"}, {"bike_id": "55f2dd90e9a73d2d80958db3adf21d79", "type": "electric_scooter", "is_disabled": 0, "lat": 38.909526, "rental_uris": {"ios": "https://dc.lft.to/lastmile_qr_scan", "android": "https://dc.lft.to/lastmile_qr_scan"}, "is_reserved": 0, "fusion_lon": 0.0, "fusion_lat": 0.0, "lon": -77.027159, "name": "55f2dd90e9a73d2d80958db3adf21d79"}, {"bike_id": "f5256a51c888e2a56c6df192ce40ab77", "type": "electric_scooter", "is_disabled": 0, "lat": 38.907335333333336, "rental_uris": {"ios": "https://dc.lft.to/lastmile_qr_scan", "android": "https://dc.lft.to/lastmile_qr_scan"}, "is_reserved": 0, "fusion_lon": 0.0, "fusion_lat": 0.0, "lon": -77.00927883333334, "name": "f5256a51c888e2a56c6df192ce40ab77"}, {"bike_id": "a479565b1facce899a7c0624b126b40e", "type": "electric_scooter", "is_disabled": 0, "lat": 38.90772466666667, "rental_uris": {"ios": "https://dc.lft.to/lastmile_qr_scan", "android": "https://dc.lft.to/lastmile_qr_scan"}, "is_reserved": 0, "fusion_lon": 0.0, "fusion_lat": 0.0, "lon": -77.07145466666667, "name": "a479565b1facce899a7c0624b126b40e"}, {"bike_id": "7f59e11a151893fc94eda6e6e33583f5", "type": "electric_scooter", "is_disabled": 0, "lat": 38.909124166666665, "rental_uris": {"ios": "https://dc.lft.to/lastmile_qr_scan", "android": "https://dc.lft.to/lastmile_qr_scan"}, "is_reserved": 0, "fusion_lon": 0.0, "fusion_lat": 0.0, "lon": -77.01524866666666, "name": "7f59e11a151893fc94eda6e6e33583f5"}, {"bike_id": "e4d8122e2246a471ea99c84206a6e633", "type": "electric_scooter", "is_disabled": 0, "lat": 38.911843166666664, "rental_uris": {"ios": "https://dc.lft.to/lastmile_qr_scan", "android": "https://dc.lft.to/lastmile_qr_scan"}, "is_reserved": 0, "fusion_lon": 0.0, "fusion_lat": 0.0, "lon": -77.04036933333333, "name": "e4d8122e2246a471ea99c84206a6e633"}, {"bike_id": "fc2ee4998ae285cce365631bab0fc3f5", "type": "electric_bike", "is_disabled": 0, "lat": 38.875519, "rental_uris": {"ios": "https://dc.lft.to/lastmile_qr_scan", "android": "https://dc.lft.to/lastmile_qr_scan"}, "is_reserved": 0, "fusion_lon": 0.0, "fusion_lat": 0.0, "lon": -76.96504833333333, "name": "fc2ee4998ae285cce365631bab0fc3f5"}, {"bike_id": "17f5e770c9ebd9ab7032d87fea2643ff", "type": "electric_scooter", "is_disabled": 0, "lat": 38.925346833333336, "rental_uris": {"ios": "https://dc.lft.to/lastmile_qr_scan", "android": "https://dc.lft.to/lastmile_qr_scan"}, "is_reserved": 0, "fusion_lon": 0.0, "fusion_lat": 0.0, "lon": -77.0427235, "name": "17f5e770c9ebd9ab7032d87fea2643ff"}, {"bike_id": "a8b49a39d37432bb15b7977360827395", "type": "electric_scooter", "is_disabled": 0, "lat": 38.89616516666667, "rental_uris": {"ios": "https://dc.lft.to/lastmile_qr_scan", "android": "https://dc.lft.to/lastmile_qr_scan"}, "is_reserved": 0, "fusion_lon": 0.0, "fusion_lat": 0.0, "lon": -76.9856725, "name": "a8b49a39d37432bb15b7977360827395"}, {"bike_id": "0f48310160834bf3515cbf3204e890f8", "type": "electric_scooter", "is_disabled": 0, "lat": 38.91913483333333, "rental_uris": {"ios": "https://dc.lft.to/lastmile_qr_scan", "android": "https://dc.lft.to/lastmile_qr_scan"}, "is_reserved": 0, "fusion_lon": 0.0, "fusion_lat": 0.0, "lon": -77.044984, "name": "0f48310160834bf3515cbf3204e890f8"}, {"bike_id": "8bb8271c11bb512631ba8d2c2cfbe290", "type": "electric_scooter", "is_disabled": 0, "lat": 38.898402, "rental_uris": {"ios": "https://dc.lft.to/lastmile_qr_scan", "android": "https://dc.lft.to/lastmile_qr_scan"}, "is_reserved": 0, "fusion_lon": 0.0, "fusion_lat": 0.0, "lon": -76.94632016666667, "name": "8bb8271c11bb512631ba8d2c2cfbe290"}, {"bike_id": "f43e022ec8c185ec161ae5d1c02374e3", "type": "electric_scooter", "is_disabled": 0, "lat": 38.90266966666667, "rental_uris": {"ios": "https://dc.lft.to/lastmile_qr_scan", "android": "https://dc.lft.to/lastmile_qr_scan"}, "is_reserved": 0, "fusion_lon": 0.0, "fusion_lat": 0.0, "lon": -77.05477116666667, "name": "f43e022ec8c185ec161ae5d1c02374e3"}, {"bike_id": "fee243252bb5da4b0b132ede1f5bdc3f", "type": "electric_scooter", "is_disabled": 0, "lat": 38.923413333333336, "rental_uris": {"ios": "https://dc.lft.to/lastmile_qr_scan", "android": "https://dc.lft.to/lastmile_qr_scan"}, "is_reserved": 0, "fusion_lon": 0.0, "fusion_lat": 0.0, "lon": -77.03351683333334, "name": "fee243252bb5da4b0b132ede1f5bdc3f"}, {"bike_id": "193b5be109a07762a0f5290acc4e8d7a", "type": "electric_scooter", "is_disabled": 0, "lat": 38.881747, "rental_uris": {"ios": "https://dc.lft.to/lastmile_qr_scan", "android": "https://dc.lft.to/lastmile_qr_scan"}, "is_reserved": 0, "fusion_lon": 0.0, "fusion_lat": 0.0, "lon": -77.02813433333333, "name": "193b5be109a07762a0f5290acc4e8d7a"}, {"bike_id": "d60c4b2418dc581e1b5a2a0abfa77299", "type": "electric_scooter", "is_disabled": 0, "lat": 38.9030205, "rental_uris": {"ios": "https://dc.lft.to/lastmile_qr_scan", "android": "https://dc.lft.to/lastmile_qr_scan"}, "is_reserved": 0, "fusion_lon": 0.0, "fusion_lat": 0.0, "lon": -77.05053733333334, "name": "d60c4b2418dc581e1b5a2a0abfa77299"}, {"bike_id": "35261fdc1b4822bde750364ad5eecf9d", "type": "electric_scooter", "is_disabled": 0, "lat": 38.9287425, "rental_uris": {"ios": "https://dc.lft.to/lastmile_qr_scan", "android": "https://dc.lft.to/lastmile_qr_scan"}, "is_reserved": 0, "fusion_lon": 0.0, "fusion_lat": 0.0, "lon": -77.03291633333333, "name": "35261fdc1b4822bde750364ad5eecf9d"}, {"bike_id": "4e794ba77d120a58b8e728194bed72dd", "type": "electric_scooter", "is_disabled": 0, "lat": 38.9018675, "rental_uris": {"ios": "https://dc.lft.to/lastmile_qr_scan", "android": "https://dc.lft.to/lastmile_qr_scan"}, "is_reserved": 0, "fusion_lon": 0.0, "fusion_lat": 0.0, "lon": -76.98847783333333, "name": "4e794ba77d120a58b8e728194bed72dd"}, {"bike_id": "e09e5be969af75689b3392322b05e170", "type": "electric_bike", "is_disabled": 0, "lat": 38.889268666666666, "rental_uris": {"ios": "https://dc.lft.to/lastmile_qr_scan", "android": "https://dc.lft.to/lastmile_qr_scan"}, "is_reserved": 0, "fusion_lon": 0.0, "fusion_lat": 0.0, "lon": -76.99172483333334, "name": "e09e5be969af75689b3392322b05e170"}, {"bike_id": "399dee0803a15a55d9645b8a51c8f695", "type": "electric_scooter", "is_disabled": 0, "lat": 38.9054185, "rental_uris": {"ios": "https://dc.lft.to/lastmile_qr_scan", "android": "https://dc.lft.to/lastmile_qr_scan"}, "is_reserved": 0, "fusion_lon": 0.0, "fusion_lat": 0.0, "lon": -77.05004783333334, "name": "399dee0803a15a55d9645b8a51c8f695"}, {"bike_id": "5f5c199cb1f4598f5418f49edea18087", "type": "electric_scooter", "is_disabled": 0, "lat": 38.9253475, "rental_uris": {"ios": "https://dc.lft.to/lastmile_qr_scan", "android": "https://dc.lft.to/lastmile_qr_scan"}, "is_reserved": 0, "fusion_lon": 0.0, "fusion_lat": 0.0, "lon": -77.03240766666667, "name": "5f5c199cb1f4598f5418f49edea18087"}, {"bike_id": "5e7e379c4fe6f959b3f41923feee1b33", "type": "electric_bike", "is_disabled": 0, "lat": 39.034056, "rental_uris": {"ios": "https://dc.lft.to/lastmile_qr_scan", "android": "https://dc.lft.to/lastmile_qr_scan"}, "is_reserved": 0, "fusion_lon": 0.0, "fusion_lat": 0.0, "lon": -77.041531, "name": "5e7e379c4fe6f959b3f41923feee1b33"}, {"bike_id": "65965f63e706dc5e56f890c5ebf38a2f", "type": "electric_scooter", "is_disabled": 0, "lat": 38.918293, "rental_uris": {"ios": "https://dc.lft.to/lastmile_qr_scan", "android": "https://dc.lft.to/lastmile_qr_scan"}, "is_reserved": 0, "fusion_lon": 0.0, "fusion_lat": 0.0, "lon": -77.023088, "name": "65965f63e706dc5e56f890c5ebf38a2f"}, {"bike_id": "83019bb7e9c657ad6b74492733e526dd", "type": "electric_scooter", "is_disabled": 0, "lat": 38.897342, "rental_uris": {"ios": "https://dc.lft.to/lastmile_qr_scan", "android": "https://dc.lft.to/lastmile_qr_scan"}, "is_reserved": 0, "fusion_lon": 0.0, "fusion_lat": 0.0, "lon": -76.94728516666666, "name": "83019bb7e9c657ad6b74492733e526dd"}, {"bike_id": "e39d9f3f3f410e65e611170e50f4285d", "type": "electric_scooter", "is_disabled": 0, "lat": 38.91551916666667, "rental_uris": {"ios": "https://dc.lft.to/lastmile_qr_scan", "android": "https://dc.lft.to/lastmile_qr_scan"}, "is_reserved": 0, "fusion_lon": 0.0, "fusion_lat": 0.0, "lon": -77.02553116666667, "name": "e39d9f3f3f410e65e611170e50f4285d"}, {"bike_id": "cb8b1abcd15f30e4b1a45a6ee809995f", "type": "electric_scooter", "is_disabled": 0, "lat": 38.919669, "rental_uris": {"ios": "https://dc.lft.to/lastmile_qr_scan", "android": "https://dc.lft.to/lastmile_qr_scan"}, "is_reserved": 0, "fusion_lon": 0.0, "fusion_lat": 0.0, "lon": -77.03945783333333, "name": "cb8b1abcd15f30e4b1a45a6ee809995f"}, {"bike_id": "5ea76fa9e4e84cab7b407a517f697f27", "type": "electric_scooter", "is_disabled": 0, "lat": 38.87569633333333, "rental_uris": {"ios": "https://dc.lft.to/lastmile_qr_scan", "android": "https://dc.lft.to/lastmile_qr_scan"}, "is_reserved": 0, "fusion_lon": 0.0, "fusion_lat": 0.0, "lon": -77.01273483333334, "name": "5ea76fa9e4e84cab7b407a517f697f27"}, {"bike_id": "d7f471cd3758ebcd690447d094d08a9c", "type": "electric_scooter", "is_disabled": 0, "lat": 38.93009333333333, "rental_uris": {"ios": "https://dc.lft.to/lastmile_qr_scan", "android": "https://dc.lft.to/lastmile_qr_scan"}, "is_reserved": 0, "fusion_lon": 0.0, "fusion_lat": 0.0, "lon": -77.02083266666666, "name": "d7f471cd3758ebcd690447d094d08a9c"}, {"bike_id": "159ec937c98539a7b7f48ab851c4bdc3", "type": "electric_scooter", "is_disabled": 0, "lat": 38.9157435, "rental_uris": {"ios": "https://dc.lft.to/lastmile_qr_scan", "android": "https://dc.lft.to/lastmile_qr_scan"}, "is_reserved": 0, "fusion_lon": 0.0, "fusion_lat": 0.0, "lon": -77.0205375, "name": "159ec937c98539a7b7f48ab851c4bdc3"}, {"bike_id": "a794c0294f9a5ae3f6eb077365e485b6", "type": "electric_scooter", "is_disabled": 0, "lat": 38.87418483333333, "rental_uris": {"ios": "https://dc.lft.to/lastmile_qr_scan", "android": "https://dc.lft.to/lastmile_qr_scan"}, "is_reserved": 0, "fusion_lon": 0.0, "fusion_lat": 0.0, "lon": -76.96907833333333, "name": "a794c0294f9a5ae3f6eb077365e485b6"}, {"bike_id": "8ad90531d25371727e104c921a2ab924", "type": "electric_scooter", "is_disabled": 0, "lat": 38.902372, "rental_uris": {"ios": "https://dc.lft.to/lastmile_qr_scan", "android": "https://dc.lft.to/lastmile_qr_scan"}, "is_reserved": 0, "fusion_lon": 0.0, "fusion_lat": 0.0, "lon": -77.0432955, "name": "8ad90531d25371727e104c921a2ab924"}, {"bike_id": "46b5268487caa2d368649bc18de20ba3", "type": "electric_scooter", "is_disabled": 0, "lat": 38.91647783333333, "rental_uris": {"ios": "https://dc.lft.to/lastmile_qr_scan", "android": "https://dc.lft.to/lastmile_qr_scan"}, "is_reserved": 0, "fusion_lon": 0.0, "fusion_lat": 0.0, "lon": -77.02278383333334, "name": "46b5268487caa2d368649bc18de20ba3"}, {"bike_id": "65963235fd6c0d49bcc3d5d9446adffa", "type": "electric_scooter", "is_disabled": 0, "lat": 38.929103, "rental_uris": {"ios": "https://dc.lft.to/lastmile_qr_scan", "android": "https://dc.lft.to/lastmile_qr_scan"}, "is_reserved": 0, "fusion_lon": 0.0, "fusion_lat": 0.0, "lon": -77.0208995, "name": "65963235fd6c0d49bcc3d5d9446adffa"}, {"bike_id": "e31d9928c38309f97a7f06d19a0484ce", "type": "electric_scooter", "is_disabled": 0, "lat": 38.92472566666667, "rental_uris": {"ios": "https://dc.lft.to/lastmile_qr_scan", "android": "https://dc.lft.to/lastmile_qr_scan"}, "is_reserved": 0, "fusion_lon": 0.0, "fusion_lat": 0.0, "lon": -77.0283895, "name": "e31d9928c38309f97a7f06d19a0484ce"}, {"bike_id": "fef583b616f93dd936cdf120d8f2e08c", "type": "electric_scooter", "is_disabled": 0, "lat": 38.942703333333334, "rental_uris": {"ios": "https://dc.lft.to/lastmile_qr_scan", "android": "https://dc.lft.to/lastmile_qr_scan"}, "is_reserved": 0, "fusion_lon": 0.0, "fusion_lat": 0.0, "lon": -77.032567, "name": "fef583b616f93dd936cdf120d8f2e08c"}, {"bike_id": "86b614bf8d9515bf9690f18dbc9c9cd4", "type": "electric_scooter", "is_disabled": 0, "lat": 38.914373499999996, "rental_uris": {"ios": "https://dc.lft.to/lastmile_qr_scan", "android": "https://dc.lft.to/lastmile_qr_scan"}, "is_reserved": 0, "fusion_lon": 0.0, "fusion_lat": 0.0, "lon": -77.02288233333333, "name": "86b614bf8d9515bf9690f18dbc9c9cd4"}, {"bike_id": "8ec5d9f5414546de5f5aaff165958196", "type": "electric_scooter", "is_disabled": 0, "lat": 38.8786825, "rental_uris": {"ios": "https://dc.lft.to/lastmile_qr_scan", "android": "https://dc.lft.to/lastmile_qr_scan"}, "is_reserved": 0, "fusion_lon": 0.0, "fusion_lat": 0.0, "lon": -76.9698095, "name": "8ec5d9f5414546de5f5aaff165958196"}, {"bike_id": "0628afa0fdcc9ee22acae22fbdb05813", "type": "electric_scooter", "is_disabled": 0, "lat": 38.85319483333333, "rental_uris": {"ios": "https://dc.lft.to/lastmile_qr_scan", "android": "https://dc.lft.to/lastmile_qr_scan"}, "is_reserved": 0, "fusion_lon": 0.0, "fusion_lat": 0.0, "lon": -76.98006116666667, "name": "0628afa0fdcc9ee22acae22fbdb05813"}, {"bike_id": "c5ea95c261b9361a8d5a856e990eff3e", "type": "electric_scooter", "is_disabled": 0, "lat": 38.888475, "rental_uris": {"ios": "https://dc.lft.to/lastmile_qr_scan", "android": "https://dc.lft.to/lastmile_qr_scan"}, "is_reserved": 0, "fusion_lon": 0.0, "fusion_lat": 0.0, "lon": -76.92680983333334, "name": "c5ea95c261b9361a8d5a856e990eff3e"}, {"bike_id": "88e3b2fc74e28c64b573c0fe49616ba5", "type": "electric_scooter", "is_disabled": 0, "lat": 38.915023, "rental_uris": {"ios": "https://dc.lft.to/lastmile_qr_scan", "android": "https://dc.lft.to/lastmile_qr_scan"}, "is_reserved": 0, "fusion_lon": 0.0, "fusion_lat": 0.0, "lon": -77.009256, "name": "88e3b2fc74e28c64b573c0fe49616ba5"}, {"bike_id": "b4f9b2a4dbfb2d06abc674564848cc86", "type": "electric_scooter", "is_disabled": 0, "lat": 38.912658, "rental_uris": {"ios": "https://dc.lft.to/lastmile_qr_scan", "android": "https://dc.lft.to/lastmile_qr_scan"}, "is_reserved": 0, "fusion_lon": 0.0, "fusion_lat": 0.0, "lon": -77.03761416666667, "name": "b4f9b2a4dbfb2d06abc674564848cc86"}, {"bike_id": "f5cef4e1f18764543be9424912ff54ea", "type": "electric_scooter", "is_disabled": 0, "lat": 38.86684066666667, "rental_uris": {"ios": "https://dc.lft.to/lastmile_qr_scan", "android": "https://dc.lft.to/lastmile_qr_scan"}, "is_reserved": 0, "fusion_lon": 0.0, "fusion_lat": 0.0, "lon": -76.98586416666667, "name": "f5cef4e1f18764543be9424912ff54ea"}, {"bike_id": "aad58a37bb1e719ecdcc401948a00f8c", "type": "electric_scooter", "is_disabled": 0, "lat": 38.914213333333336, "rental_uris": {"ios": "https://dc.lft.to/lastmile_qr_scan", "android": "https://dc.lft.to/lastmile_qr_scan"}, "is_reserved": 0, "fusion_lon": 0.0, "fusion_lat": 0.0, "lon": -77.04808166666666, "name": "aad58a37bb1e719ecdcc401948a00f8c"}, {"bike_id": "bf95bad13a2abebf6120dfb132072bfe", "type": "electric_bike", "is_disabled": 0, "lat": 38.910131166666666, "rental_uris": {"ios": "https://dc.lft.to/lastmile_qr_scan", "android": "https://dc.lft.to/lastmile_qr_scan"}, "is_reserved": 0, "fusion_lon": 0.0, "fusion_lat": 0.0, "lon": -77.22800616666666, "name": "bf95bad13a2abebf6120dfb132072bfe"}, {"bike_id": "c610bca9818e57b55c0b4296b0733e83", "type": "electric_scooter", "is_disabled": 0, "lat": 38.9129855, "rental_uris": {"ios": "https://dc.lft.to/lastmile_qr_scan", "android": "https://dc.lft.to/lastmile_qr_scan"}, "is_reserved": 0, "fusion_lon": 0.0, "fusion_lat": 0.0, "lon": -77.045499, "name": "c610bca9818e57b55c0b4296b0733e83"}, {"bike_id": "b59821f9ae702a163a051b55e924b8c5", "type": "electric_scooter", "is_disabled": 0, "lat": 38.933057, "rental_uris": {"ios": "https://dc.lft.to/lastmile_qr_scan", "android": "https://dc.lft.to/lastmile_qr_scan"}, "is_reserved": 0, "fusion_lon": 0.0, "fusion_lat": 0.0, "lon": -77.03261666666667, "name": "b59821f9ae702a163a051b55e924b8c5"}, {"bike_id": "7d58e7b00b0949f551269dd544d81db4", "type": "electric_scooter", "is_disabled": 0, "lat": 38.9102725, "rental_uris": {"ios": "https://dc.lft.to/lastmile_qr_scan", "android": "https://dc.lft.to/lastmile_qr_scan"}, "is_reserved": 0, "fusion_lon": 0.0, "fusion_lat": 0.0, "lon": -77.0075635, "name": "7d58e7b00b0949f551269dd544d81db4"}, {"bike_id": "d5a1b84195bd456493f4f7f01282193e", "type": "electric_scooter", "is_disabled": 0, "lat": 38.902600166666666, "rental_uris": {"ios": "https://dc.lft.to/lastmile_qr_scan", "android": "https://dc.lft.to/lastmile_qr_scan"}, "is_reserved": 0, "fusion_lon": 0.0, "fusion_lat": 0.0, "lon": -77.0404565, "name": "d5a1b84195bd456493f4f7f01282193e"}, {"bike_id": "3b130fae91d378174d158372c6048793", "type": "electric_scooter", "is_disabled": 0, "lat": 38.918432, "rental_uris": {"ios": "https://dc.lft.to/lastmile_qr_scan", "android": "https://dc.lft.to/lastmile_qr_scan"}, "is_reserved": 0, "fusion_lon": 0.0, "fusion_lat": 0.0, "lon": -77.02464333333333, "name": "3b130fae91d378174d158372c6048793"}, {"bike_id": "bddba26e44b31c9fdf508b359ef0bc76", "type": "electric_scooter", "is_disabled": 0, "lat": 38.96604583333333, "rental_uris": {"ios": "https://dc.lft.to/lastmile_qr_scan", "android": "https://dc.lft.to/lastmile_qr_scan"}, "is_reserved": 0, "fusion_lon": 0.0, "fusion_lat": 0.0, "lon": -77.01975233333333, "name": "bddba26e44b31c9fdf508b359ef0bc76"}, {"bike_id": "0aa9b6f3d3b79020fb96201bde72de07", "type": "electric_scooter", "is_disabled": 0, "lat": 38.917816, "rental_uris": {"ios": "https://dc.lft.to/lastmile_qr_scan", "android": "https://dc.lft.to/lastmile_qr_scan"}, "is_reserved": 0, "fusion_lon": 0.0, "fusion_lat": 0.0, "lon": -77.02319166666666, "name": "0aa9b6f3d3b79020fb96201bde72de07"}, {"bike_id": "037f4d5895a0618010f2bdb97f3e512d", "type": "electric_scooter", "is_disabled": 0, "lat": 38.9095155, "rental_uris": {"ios": "https://dc.lft.to/lastmile_qr_scan", "android": "https://dc.lft.to/lastmile_qr_scan"}, "is_reserved": 0, "fusion_lon": 0.0, "fusion_lat": 0.0, "lon": -77.02715183333333, "name": "037f4d5895a0618010f2bdb97f3e512d"}, {"bike_id": "e7d8bda0eff33e91a9153629a29e1625", "type": "electric_scooter", "is_disabled": 0, "lat": 38.86973966666667, "rental_uris": {"ios": "https://dc.lft.to/lastmile_qr_scan", "android": "https://dc.lft.to/lastmile_qr_scan"}, "is_reserved": 0, "fusion_lon": 0.0, "fusion_lat": 0.0, "lon": -76.98174333333333, "name": "e7d8bda0eff33e91a9153629a29e1625"}, {"bike_id": "55a190bfdc9747528177dd0e538da7be", "type": "electric_scooter", "is_disabled": 0, "lat": 38.9003175, "rental_uris": {"ios": "https://dc.lft.to/lastmile_qr_scan", "android": "https://dc.lft.to/lastmile_qr_scan"}, "is_reserved": 0, "fusion_lon": 0.0, "fusion_lat": 0.0, "lon": -77.00185066666667, "name": "55a190bfdc9747528177dd0e538da7be"}, {"bike_id": "2ee9d81cb66e0ae2fce7382a950c8677", "type": "electric_scooter", "is_disabled": 0, "lat": 38.88219733333333, "rental_uris": {"ios": "https://dc.lft.to/lastmile_qr_scan", "android": "https://dc.lft.to/lastmile_qr_scan"}, "is_reserved": 0, "fusion_lon": 0.0, "fusion_lat": 0.0, "lon": -76.92663683333333, "name": "2ee9d81cb66e0ae2fce7382a950c8677"}, {"bike_id": "60709f68c6e1d4ea3a7e3aa030c6048d", "type": "electric_scooter", "is_disabled": 0, "lat": 38.9478555, "rental_uris": {"ios": "https://dc.lft.to/lastmile_qr_scan", "android": "https://dc.lft.to/lastmile_qr_scan"}, "is_reserved": 0, "fusion_lon": 0.0, "fusion_lat": 0.0, "lon": -77.02132383333333, "name": "60709f68c6e1d4ea3a7e3aa030c6048d"}, {"bike_id": "3dddcf06b836997b4dd89d0b9bb5c5e4", "type": "electric_scooter", "is_disabled": 0, "lat": 38.9237035, "rental_uris": {"ios": "https://dc.lft.to/lastmile_qr_scan", "android": "https://dc.lft.to/lastmile_qr_scan"}, "is_reserved": 0, "fusion_lon": 0.0, "fusion_lat": 0.0, "lon": -77.03049616666667, "name": "3dddcf06b836997b4dd89d0b9bb5c5e4"}, {"bike_id": "7126c0c0a9b31b8ba7793779d5e1c2ec", "type": "electric_bike", "is_disabled": 0, "lat": 38.872766166666665, "rental_uris": {"ios": "https://dc.lft.to/lastmile_qr_scan", "android": "https://dc.lft.to/lastmile_qr_scan"}, "is_reserved": 0, "fusion_lon": 0.0, "fusion_lat": 0.0, "lon": -77.23318533333334, "name": "7126c0c0a9b31b8ba7793779d5e1c2ec"}, {"bike_id": "08c6fe37e43166b7f55df5427c7a9589", "type": "electric_bike", "is_disabled": 0, "lat": 38.88059783333333, "rental_uris": {"ios": "https://dc.lft.to/lastmile_qr_scan", "android": "https://dc.lft.to/lastmile_qr_scan"}, "is_reserved": 0, "fusion_lon": 0.0, "fusion_lat": 0.0, "lon": -76.9623865, "name": "08c6fe37e43166b7f55df5427c7a9589"}, {"bike_id": "98e2bac76a5289391ec428e2d63049d7", "type": "electric_scooter", "is_disabled": 0, "lat": 38.93402283333333, "rental_uris": {"ios": "https://dc.lft.to/lastmile_qr_scan", "android": "https://dc.lft.to/lastmile_qr_scan"}, "is_reserved": 0, "fusion_lon": 0.0, "fusion_lat": 0.0, "lon": -77.02212383333334, "name": "98e2bac76a5289391ec428e2d63049d7"}, {"bike_id": "1584dabe232dfcc6c4513291bb7e6cc3", "type": "electric_scooter", "is_disabled": 0, "lat": 38.910699, "rental_uris": {"ios": "https://dc.lft.to/lastmile_qr_scan", "android": "https://dc.lft.to/lastmile_qr_scan"}, "is_reserved": 0, "fusion_lon": 0.0, "fusion_lat": 0.0, "lon": -77.02719916666666, "name": "1584dabe232dfcc6c4513291bb7e6cc3"}, {"bike_id": "634e4729d2b6519c5b6262846615273e", "type": "electric_scooter", "is_disabled": 0, "lat": 38.86372733333333, "rental_uris": {"ios": "https://dc.lft.to/lastmile_qr_scan", "android": "https://dc.lft.to/lastmile_qr_scan"}, "is_reserved": 0, "fusion_lon": 0.0, "fusion_lat": 0.0, "lon": -76.990599, "name": "634e4729d2b6519c5b6262846615273e"}, {"bike_id": "c03bc9c49a8151882058ef38b46128c9", "type": "electric_scooter", "is_disabled": 0, "lat": 38.86683683333333, "rental_uris": {"ios": "https://dc.lft.to/lastmile_qr_scan", "android": "https://dc.lft.to/lastmile_qr_scan"}, "is_reserved": 0, "fusion_lon": 0.0, "fusion_lat": 0.0, "lon": -76.98553383333333, "name": "c03bc9c49a8151882058ef38b46128c9"}, {"bike_id": "ea85b5b6713dadbe5793378d830adeb8", "type": "electric_scooter", "is_disabled": 0, "lat": 38.921931, "rental_uris": {"ios": "https://dc.lft.to/lastmile_qr_scan", "android": "https://dc.lft.to/lastmile_qr_scan"}, "is_reserved": 0, "fusion_lon": 0.0, "fusion_lat": 0.0, "lon": -77.04690016666666, "name": "ea85b5b6713dadbe5793378d830adeb8"}, {"bike_id": "2a5d0dce5e264e66d10b788dc1520677", "type": "electric_scooter", "is_disabled": 0, "lat": 38.9233595, "rental_uris": {"ios": "https://dc.lft.to/lastmile_qr_scan", "android": "https://dc.lft.to/lastmile_qr_scan"}, "is_reserved": 0, "fusion_lon": 0.0, "fusion_lat": 0.0, "lon": -77.03610216666667, "name": "2a5d0dce5e264e66d10b788dc1520677"}, {"bike_id": "efcfdfdf7ddbd9b193b19f2df974ac5f", "type": "electric_scooter", "is_disabled": 0, "lat": 38.905956333333336, "rental_uris": {"ios": "https://dc.lft.to/lastmile_qr_scan", "android": "https://dc.lft.to/lastmile_qr_scan"}, "is_reserved": 0, "fusion_lon": 0.0, "fusion_lat": 0.0, "lon": -77.07355533333333, "name": "efcfdfdf7ddbd9b193b19f2df974ac5f"}, {"bike_id": "c6c427f3da6c37308b0c8bb964110823", "type": "electric_scooter", "is_disabled": 0, "lat": 38.924739833333334, "rental_uris": {"ios": "https://dc.lft.to/lastmile_qr_scan", "android": "https://dc.lft.to/lastmile_qr_scan"}, "is_reserved": 0, "fusion_lon": 0.0, "fusion_lat": 0.0, "lon": -77.02837016666666, "name": "c6c427f3da6c37308b0c8bb964110823"}, {"bike_id": "e6c9aa3c4e1a41370417c7784637d288", "type": "electric_scooter", "is_disabled": 0, "lat": 38.904898, "rental_uris": {"ios": "https://dc.lft.to/lastmile_qr_scan", "android": "https://dc.lft.to/lastmile_qr_scan"}, "is_reserved": 0, "fusion_lon": 0.0, "fusion_lat": 0.0, "lon": -76.94960683333333, "name": "e6c9aa3c4e1a41370417c7784637d288"}, {"bike_id": "4c6a8421b78c55966a7938649c4d7d00", "type": "electric_scooter", "is_disabled": 0, "lat": 38.922085, "rental_uris": {"ios": "https://dc.lft.to/lastmile_qr_scan", "android": "https://dc.lft.to/lastmile_qr_scan"}, "is_reserved": 0, "fusion_lon": 0.0, "fusion_lat": 0.0, "lon": -77.03659283333333, "name": "4c6a8421b78c55966a7938649c4d7d00"}, {"bike_id": "211fbe6e57c2e155773c23259a9b8cc8", "type": "electric_bike", "is_disabled": 0, "lat": 38.8651765, "rental_uris": {"ios": "https://dc.lft.to/lastmile_qr_scan", "android": "https://dc.lft.to/lastmile_qr_scan"}, "is_reserved": 0, "fusion_lon": 0.0, "fusion_lat": 0.0, "lon": -77.12935716666667, "name": "211fbe6e57c2e155773c23259a9b8cc8"}, {"bike_id": "a0a829ec0f56d6bb19e8023d96183f9b", "type": "electric_scooter", "is_disabled": 0, "lat": 38.931825333333336, "rental_uris": {"ios": "https://dc.lft.to/lastmile_qr_scan", "android": "https://dc.lft.to/lastmile_qr_scan"}, "is_reserved": 0, "fusion_lon": 0.0, "fusion_lat": 0.0, "lon": -77.0254115, "name": "a0a829ec0f56d6bb19e8023d96183f9b"}, {"bike_id": "246ec40e6ae7a28081a311143c136446", "type": "electric_scooter", "is_disabled": 0, "lat": 38.919534666666664, "rental_uris": {"ios": "https://dc.lft.to/lastmile_qr_scan", "android": "https://dc.lft.to/lastmile_qr_scan"}, "is_reserved": 0, "fusion_lon": 0.0, "fusion_lat": 0.0, "lon": -77.04520183333334, "name": "246ec40e6ae7a28081a311143c136446"}, {"bike_id": "3920ec988879660104ecbdc3f83cd877", "type": "electric_scooter", "is_disabled": 0, "lat": 38.89110133333333, "rental_uris": {"ios": "https://dc.lft.to/lastmile_qr_scan", "android": "https://dc.lft.to/lastmile_qr_scan"}, "is_reserved": 0, "fusion_lon": 0.0, "fusion_lat": 0.0, "lon": -77.01504166666666, "name": "3920ec988879660104ecbdc3f83cd877"}, {"bike_id": "a7bbec5452aaea38f901d97e8810dd2a", "type": "electric_bike", "is_disabled": 0, "lat": 38.8039215, "rental_uris": {"ios": "https://dc.lft.to/lastmile_qr_scan", "android": "https://dc.lft.to/lastmile_qr_scan"}, "is_reserved": 0, "fusion_lon": 0.0, "fusion_lat": 0.0, "lon": -77.05562633333334, "name": "a7bbec5452aaea38f901d97e8810dd2a"}, {"bike_id": "ff6c3684f354e26d6296b2b1958b1795", "type": "electric_scooter", "is_disabled": 0, "lat": 38.877209, "rental_uris": {"ios": "https://dc.lft.to/lastmile_qr_scan", "android": "https://dc.lft.to/lastmile_qr_scan"}, "is_reserved": 0, "fusion_lon": 0.0, "fusion_lat": 0.0, "lon": -77.00615933333333, "name": "ff6c3684f354e26d6296b2b1958b1795"}, {"bike_id": "9bbc95a3d1ed0487760a5a33621f5c3f", "type": "electric_scooter", "is_disabled": 0, "lat": 38.908872, "rental_uris": {"ios": "https://dc.lft.to/lastmile_qr_scan", "android": "https://dc.lft.to/lastmile_qr_scan"}, "is_reserved": 0, "fusion_lon": 0.0, "fusion_lat": 0.0, "lon": -77.00269766666666, "name": "9bbc95a3d1ed0487760a5a33621f5c3f"}, {"bike_id": "4a30bc414ce8b6c294b6fabde08a504f", "type": "electric_scooter", "is_disabled": 0, "lat": 38.91662933333333, "rental_uris": {"ios": "https://dc.lft.to/lastmile_qr_scan", "android": "https://dc.lft.to/lastmile_qr_scan"}, "is_reserved": 0, "fusion_lon": 0.0, "fusion_lat": 0.0, "lon": -77.03849533333333, "name": "4a30bc414ce8b6c294b6fabde08a504f"}, {"bike_id": "a448f71f64566ad9e8479a3af9fde62e", "type": "electric_scooter", "is_disabled": 0, "lat": 38.884351833333334, "rental_uris": {"ios": "https://dc.lft.to/lastmile_qr_scan", "android": "https://dc.lft.to/lastmile_qr_scan"}, "is_reserved": 0, "fusion_lon": 0.0, "fusion_lat": 0.0, "lon": -76.9575555, "name": "a448f71f64566ad9e8479a3af9fde62e"}, {"bike_id": "a64b8508a0760d3a40c75e56068c8ada", "type": "electric_scooter", "is_disabled": 0, "lat": 38.9081945, "rental_uris": {"ios": "https://dc.lft.to/lastmile_qr_scan", "android": "https://dc.lft.to/lastmile_qr_scan"}, "is_reserved": 0, "fusion_lon": 0.0, "fusion_lat": 0.0, "lon": -77.03334433333333, "name": "a64b8508a0760d3a40c75e56068c8ada"}, {"bike_id": "9b05f3f5b5087444ab23d828643a983d", "type": "electric_scooter", "is_disabled": 0, "lat": 38.9656205, "rental_uris": {"ios": "https://dc.lft.to/lastmile_qr_scan", "android": "https://dc.lft.to/lastmile_qr_scan"}, "is_reserved": 0, "fusion_lon": 0.0, "fusion_lat": 0.0, "lon": -77.02027483333333, "name": "9b05f3f5b5087444ab23d828643a983d"}, {"bike_id": "8aadc34d0f4f015f5c392201ef55c4c9", "type": "electric_scooter", "is_disabled": 0, "lat": 38.9303715, "rental_uris": {"ios": "https://dc.lft.to/lastmile_qr_scan", "android": "https://dc.lft.to/lastmile_qr_scan"}, "is_reserved": 0, "fusion_lon": 0.0, "fusion_lat": 0.0, "lon": -77.01829366666666, "name": "8aadc34d0f4f015f5c392201ef55c4c9"}, {"bike_id": "8b627f4c6e1ab3acdfeb1f76b6321aaa", "type": "electric_scooter", "is_disabled": 0, "lat": 38.88212716666666, "rental_uris": {"ios": "https://dc.lft.to/lastmile_qr_scan", "android": "https://dc.lft.to/lastmile_qr_scan"}, "is_reserved": 0, "fusion_lon": 0.0, "fusion_lat": 0.0, "lon": -77.02907533333334, "name": "8b627f4c6e1ab3acdfeb1f76b6321aaa"}, {"bike_id": "6820188f28ac0026e3ee5bc6ab45397a", "type": "electric_scooter", "is_disabled": 0, "lat": 38.90148466666667, "rental_uris": {"ios": "https://dc.lft.to/lastmile_qr_scan", "android": "https://dc.lft.to/lastmile_qr_scan"}, "is_reserved": 0, "fusion_lon": 0.0, "fusion_lat": 0.0, "lon": -77.0298125, "name": "6820188f28ac0026e3ee5bc6ab45397a"}, {"bike_id": "f7fca6526d2ede48ec53084d8d007807", "type": "electric_scooter", "is_disabled": 0, "lat": 38.901904, "rental_uris": {"ios": "https://dc.lft.to/lastmile_qr_scan", "android": "https://dc.lft.to/lastmile_qr_scan"}, "is_reserved": 0, "fusion_lon": 0.0, "fusion_lat": 0.0, "lon": -76.99683666666667, "name": "f7fca6526d2ede48ec53084d8d007807"}, {"bike_id": "d65f5f4e99a11d1cbb4db8937d7e7985", "type": "electric_scooter", "is_disabled": 0, "lat": 38.897008666666665, "rental_uris": {"ios": "https://dc.lft.to/lastmile_qr_scan", "android": "https://dc.lft.to/lastmile_qr_scan"}, "is_reserved": 0, "fusion_lon": 0.0, "fusion_lat": 0.0, "lon": -76.92999283333333, "name": "d65f5f4e99a11d1cbb4db8937d7e7985"}, {"bike_id": "779184cce24854a51fa6c9e5bc980b4e", "type": "electric_scooter", "is_disabled": 0, "lat": 38.9263955, "rental_uris": {"ios": "https://dc.lft.to/lastmile_qr_scan", "android": "https://dc.lft.to/lastmile_qr_scan"}, "is_reserved": 0, "fusion_lon": 0.0, "fusion_lat": 0.0, "lon": -77.01549366666667, "name": "779184cce24854a51fa6c9e5bc980b4e"}, {"bike_id": "f3d8c951a9677dfbb7e8abdfc31f2661", "type": "electric_scooter", "is_disabled": 0, "lat": 38.902787333333336, "rental_uris": {"ios": "https://dc.lft.to/lastmile_qr_scan", "android": "https://dc.lft.to/lastmile_qr_scan"}, "is_reserved": 0, "fusion_lon": 0.0, "fusion_lat": 0.0, "lon": -77.0227765, "name": "f3d8c951a9677dfbb7e8abdfc31f2661"}, {"bike_id": "70834e05ee9be7ce9430041f4f56814f", "type": "electric_scooter", "is_disabled": 0, "lat": 38.919272666666664, "rental_uris": {"ios": "https://dc.lft.to/lastmile_qr_scan", "android": "https://dc.lft.to/lastmile_qr_scan"}, "is_reserved": 0, "fusion_lon": 0.0, "fusion_lat": 0.0, "lon": -77.034178, "name": "70834e05ee9be7ce9430041f4f56814f"}, {"bike_id": "24a9b7fa13dc49278f5fdc8b382a1e90", "type": "electric_bike", "is_disabled": 0, "lat": 38.84524666666667, "rental_uris": {"ios": "https://dc.lft.to/lastmile_qr_scan", "android": "https://dc.lft.to/lastmile_qr_scan"}, "is_reserved": 0, "fusion_lon": 0.0, "fusion_lat": 0.0, "lon": -76.97396266666667, "name": "24a9b7fa13dc49278f5fdc8b382a1e90"}, {"bike_id": "1538157896f1fa62ad005a8a2c1642f8", "type": "electric_scooter", "is_disabled": 0, "lat": 38.9071615, "rental_uris": {"ios": "https://dc.lft.to/lastmile_qr_scan", "android": "https://dc.lft.to/lastmile_qr_scan"}, "is_reserved": 0, "fusion_lon": 0.0, "fusion_lat": 0.0, "lon": -77.028883, "name": "1538157896f1fa62ad005a8a2c1642f8"}, {"bike_id": "dec69e70e9d062eb50100ebef5b416fc", "type": "electric_scooter", "is_disabled": 0, "lat": 38.926794666666666, "rental_uris": {"ios": "https://dc.lft.to/lastmile_qr_scan", "android": "https://dc.lft.to/lastmile_qr_scan"}, "is_reserved": 0, "fusion_lon": 0.0, "fusion_lat": 0.0, "lon": -77.0297515, "name": "dec69e70e9d062eb50100ebef5b416fc"}, {"bike_id": "1e3096dec8952793479acb3e6e448d43", "type": "electric_scooter", "is_disabled": 0, "lat": 38.9262235, "rental_uris": {"ios": "https://dc.lft.to/lastmile_qr_scan", "android": "https://dc.lft.to/lastmile_qr_scan"}, "is_reserved": 0, "fusion_lon": 0.0, "fusion_lat": 0.0, "lon": -77.041954, "name": "1e3096dec8952793479acb3e6e448d43"}, {"bike_id": "88b3f841fe0cf48aeffaa269f806c0af", "type": "electric_scooter", "is_disabled": 0, "lat": 38.947140833333336, "rental_uris": {"ios": "https://dc.lft.to/lastmile_qr_scan", "android": "https://dc.lft.to/lastmile_qr_scan"}, "is_reserved": 0, "fusion_lon": 0.0, "fusion_lat": 0.0, "lon": -77.0332735, "name": "88b3f841fe0cf48aeffaa269f806c0af"}, {"bike_id": "c19081de7f1c02422d2cfb19f4232d27", "type": "electric_scooter", "is_disabled": 0, "lat": 38.89839216666667, "rental_uris": {"ios": "https://dc.lft.to/lastmile_qr_scan", "android": "https://dc.lft.to/lastmile_qr_scan"}, "is_reserved": 0, "fusion_lon": 0.0, "fusion_lat": 0.0, "lon": -77.040721, "name": "c19081de7f1c02422d2cfb19f4232d27"}, {"bike_id": "d46de997a276cfa4104651fb2d864f13", "type": "electric_scooter", "is_disabled": 0, "lat": 38.90793866666667, "rental_uris": {"ios": "https://dc.lft.to/lastmile_qr_scan", "android": "https://dc.lft.to/lastmile_qr_scan"}, "is_reserved": 0, "fusion_lon": 0.0, "fusion_lat": 0.0, "lon": -77.047958, "name": "d46de997a276cfa4104651fb2d864f13"}, {"bike_id": "64d336c1175e8649bba0143971c72fd3", "type": "electric_scooter", "is_disabled": 0, "lat": 38.920206, "rental_uris": {"ios": "https://dc.lft.to/lastmile_qr_scan", "android": "https://dc.lft.to/lastmile_qr_scan"}, "is_reserved": 0, "fusion_lon": 0.0, "fusion_lat": 0.0, "lon": -77.0230565, "name": "64d336c1175e8649bba0143971c72fd3"}, {"bike_id": "46ab48901bcaf8b218574498dcff89aa", "type": "electric_scooter", "is_disabled": 0, "lat": 38.92838883333334, "rental_uris": {"ios": "https://dc.lft.to/lastmile_qr_scan", "android": "https://dc.lft.to/lastmile_qr_scan"}, "is_reserved": 0, "fusion_lon": 0.0, "fusion_lat": 0.0, "lon": -77.02008966666666, "name": "46ab48901bcaf8b218574498dcff89aa"}, {"bike_id": "e8b3a8700e0919a3b1107622aed48d51", "type": "electric_scooter", "is_disabled": 0, "lat": 38.923187666666664, "rental_uris": {"ios": "https://dc.lft.to/lastmile_qr_scan", "android": "https://dc.lft.to/lastmile_qr_scan"}, "is_reserved": 0, "fusion_lon": 0.0, "fusion_lat": 0.0, "lon": -77.02140966666667, "name": "e8b3a8700e0919a3b1107622aed48d51"}, {"bike_id": "3b098dda3e29574d6edda3511a2957e3", "type": "electric_scooter", "is_disabled": 0, "lat": 38.91615266666667, "rental_uris": {"ios": "https://dc.lft.to/lastmile_qr_scan", "android": "https://dc.lft.to/lastmile_qr_scan"}, "is_reserved": 0, "fusion_lon": 0.0, "fusion_lat": 0.0, "lon": -77.036411, "name": "3b098dda3e29574d6edda3511a2957e3"}, {"bike_id": "5f23e699558d45a32dd48b5b5525d494", "type": "electric_scooter", "is_disabled": 0, "lat": 38.88999233333333, "rental_uris": {"ios": "https://dc.lft.to/lastmile_qr_scan", "android": "https://dc.lft.to/lastmile_qr_scan"}, "is_reserved": 0, "fusion_lon": 0.0, "fusion_lat": 0.0, "lon": -77.04905133333334, "name": "5f23e699558d45a32dd48b5b5525d494"}, {"bike_id": "8c55f556337acab197d6f14984e1ff6f", "type": "electric_scooter", "is_disabled": 0, "lat": 38.949034, "rental_uris": {"ios": "https://dc.lft.to/lastmile_qr_scan", "android": "https://dc.lft.to/lastmile_qr_scan"}, "is_reserved": 0, "fusion_lon": 0.0, "fusion_lat": 0.0, "lon": -77.02074416666666, "name": "8c55f556337acab197d6f14984e1ff6f"}, {"bike_id": "f89aa58f26e7fad16357a036f64400cd", "type": "electric_scooter", "is_disabled": 0, "lat": 38.922353666666666, "rental_uris": {"ios": "https://dc.lft.to/lastmile_qr_scan", "android": "https://dc.lft.to/lastmile_qr_scan"}, "is_reserved": 0, "fusion_lon": 0.0, "fusion_lat": 0.0, "lon": -77.03517433333333, "name": "f89aa58f26e7fad16357a036f64400cd"}, {"bike_id": "22f61881171515c7c1ec47149291b488", "type": "electric_scooter", "is_disabled": 0, "lat": 38.844332333333334, "rental_uris": {"ios": "https://dc.lft.to/lastmile_qr_scan", "android": "https://dc.lft.to/lastmile_qr_scan"}, "is_reserved": 0, "fusion_lon": 0.0, "fusion_lat": 0.0, "lon": -76.99869516666666, "name": "22f61881171515c7c1ec47149291b488"}, {"bike_id": "56a144b72ac5b822e581d6d6fe2033a3", "type": "electric_scooter", "is_disabled": 0, "lat": 38.9155325, "rental_uris": {"ios": "https://dc.lft.to/lastmile_qr_scan", "android": "https://dc.lft.to/lastmile_qr_scan"}, "is_reserved": 0, "fusion_lon": 0.0, "fusion_lat": 0.0, "lon": -77.0264375, "name": "56a144b72ac5b822e581d6d6fe2033a3"}, {"bike_id": "4ae9ec2fac13e0b35101a7a1b282f644", "type": "electric_scooter", "is_disabled": 0, "lat": 38.912652333333334, "rental_uris": {"ios": "https://dc.lft.to/lastmile_qr_scan", "android": "https://dc.lft.to/lastmile_qr_scan"}, "is_reserved": 0, "fusion_lon": 0.0, "fusion_lat": 0.0, "lon": -77.03015866666667, "name": "4ae9ec2fac13e0b35101a7a1b282f644"}, {"bike_id": "36609144c15a3c365bf2ed2e8a92a38c", "type": "electric_scooter", "is_disabled": 0, "lat": 38.9178195, "rental_uris": {"ios": "https://dc.lft.to/lastmile_qr_scan", "android": "https://dc.lft.to/lastmile_qr_scan"}, "is_reserved": 0, "fusion_lon": 0.0, "fusion_lat": 0.0, "lon": -77.0363885, "name": "36609144c15a3c365bf2ed2e8a92a38c"}, {"bike_id": "b5408f9383f9a7691ec095fad9bbbfe6", "type": "electric_bike", "is_disabled": 0, "lat": 38.987661833333334, "rental_uris": {"ios": "https://dc.lft.to/lastmile_qr_scan", "android": "https://dc.lft.to/lastmile_qr_scan"}, "is_reserved": 0, "fusion_lon": 0.0, "fusion_lat": 0.0, "lon": -77.14058133333333, "name": "b5408f9383f9a7691ec095fad9bbbfe6"}, {"bike_id": "afeea0ce8ca613196b71c82c0e836c6e", "type": "electric_scooter", "is_disabled": 0, "lat": 38.9004385, "rental_uris": {"ios": "https://dc.lft.to/lastmile_qr_scan", "android": "https://dc.lft.to/lastmile_qr_scan"}, "is_reserved": 0, "fusion_lon": 0.0, "fusion_lat": 0.0, "lon": -77.0172505, "name": "afeea0ce8ca613196b71c82c0e836c6e"}, {"bike_id": "8fdd65dfe35badc38d41c7b63bdda6e8", "type": "electric_scooter", "is_disabled": 0, "lat": 38.916575333333334, "rental_uris": {"ios": "https://dc.lft.to/lastmile_qr_scan", "android": "https://dc.lft.to/lastmile_qr_scan"}, "is_reserved": 0, "fusion_lon": 0.0, "fusion_lat": 0.0, "lon": -76.97909183333333, "name": "8fdd65dfe35badc38d41c7b63bdda6e8"}, {"bike_id": "631379a803dff14af63013604e13ceb8", "type": "electric_bike", "is_disabled": 0, "lat": 38.908956333333336, "rental_uris": {"ios": "https://dc.lft.to/lastmile_qr_scan", "android": "https://dc.lft.to/lastmile_qr_scan"}, "is_reserved": 0, "fusion_lon": 0.0, "fusion_lat": 0.0, "lon": -77.05714883333333, "name": "631379a803dff14af63013604e13ceb8"}, {"bike_id": "f165e21a28bd92fce4f1ef979905ec30", "type": "electric_scooter", "is_disabled": 0, "lat": 38.9248915, "rental_uris": {"ios": "https://dc.lft.to/lastmile_qr_scan", "android": "https://dc.lft.to/lastmile_qr_scan"}, "is_reserved": 0, "fusion_lon": 0.0, "fusion_lat": 0.0, "lon": -77.03180416666666, "name": "f165e21a28bd92fce4f1ef979905ec30"}, {"bike_id": "9f7223086d7d2bb140ed4c0bd9f0ffb1", "type": "electric_bike", "is_disabled": 0, "lat": 38.95170733333333, "rental_uris": {"ios": "https://dc.lft.to/lastmile_qr_scan", "android": "https://dc.lft.to/lastmile_qr_scan"}, "is_reserved": 0, "fusion_lon": 0.0, "fusion_lat": 0.0, "lon": -76.97727533333334, "name": "9f7223086d7d2bb140ed4c0bd9f0ffb1"}, {"bike_id": "df14cf97d00fb406cc5833f26002a89a", "type": "electric_scooter", "is_disabled": 0, "lat": 38.923726, "rental_uris": {"ios": "https://dc.lft.to/lastmile_qr_scan", "android": "https://dc.lft.to/lastmile_qr_scan"}, "is_reserved": 0, "fusion_lon": 0.0, "fusion_lat": 0.0, "lon": -77.01215433333333, "name": "df14cf97d00fb406cc5833f26002a89a"}, {"bike_id": "9303d3602b23fceb9b68fc16057c12cb", "type": "electric_scooter", "is_disabled": 0, "lat": 38.9232915, "rental_uris": {"ios": "https://dc.lft.to/lastmile_qr_scan", "android": "https://dc.lft.to/lastmile_qr_scan"}, "is_reserved": 0, "fusion_lon": 0.0, "fusion_lat": 0.0, "lon": -77.00888583333334, "name": "9303d3602b23fceb9b68fc16057c12cb"}, {"bike_id": "fca3cbada1236f8072bbd923a523cfbc", "type": "electric_scooter", "is_disabled": 0, "lat": 38.905210833333335, "rental_uris": {"ios": "https://dc.lft.to/lastmile_qr_scan", "android": "https://dc.lft.to/lastmile_qr_scan"}, "is_reserved": 0, "fusion_lon": 0.0, "fusion_lat": 0.0, "lon": -77.04353616666667, "name": "fca3cbada1236f8072bbd923a523cfbc"}, {"bike_id": "8e572264e58b3dd28f1401ea1e57f0e4", "type": "electric_scooter", "is_disabled": 0, "lat": 38.948993333333334, "rental_uris": {"ios": "https://dc.lft.to/lastmile_qr_scan", "android": "https://dc.lft.to/lastmile_qr_scan"}, "is_reserved": 0, "fusion_lon": 0.0, "fusion_lat": 0.0, "lon": -77.02073283333333, "name": "8e572264e58b3dd28f1401ea1e57f0e4"}, {"bike_id": "add8dc55a762a8d9ee872e4e4e36405f", "type": "electric_scooter", "is_disabled": 0, "lat": 38.936076666666665, "rental_uris": {"ios": "https://dc.lft.to/lastmile_qr_scan", "android": "https://dc.lft.to/lastmile_qr_scan"}, "is_reserved": 0, "fusion_lon": 0.0, "fusion_lat": 0.0, "lon": -77.0379205, "name": "add8dc55a762a8d9ee872e4e4e36405f"}, {"bike_id": "334da8a4f317c1fa4c6317431efb03e7", "type": "electric_scooter", "is_disabled": 0, "lat": 38.8762635, "rental_uris": {"ios": "https://dc.lft.to/lastmile_qr_scan", "android": "https://dc.lft.to/lastmile_qr_scan"}, "is_reserved": 0, "fusion_lon": 0.0, "fusion_lat": 0.0, "lon": -76.965254, "name": "334da8a4f317c1fa4c6317431efb03e7"}, {"bike_id": "749c5202331cc150ba09672695e1c588", "type": "electric_scooter", "is_disabled": 0, "lat": 38.916939, "rental_uris": {"ios": "https://dc.lft.to/lastmile_qr_scan", "android": "https://dc.lft.to/lastmile_qr_scan"}, "is_reserved": 0, "fusion_lon": 0.0, "fusion_lat": 0.0, "lon": -77.028756, "name": "749c5202331cc150ba09672695e1c588"}, {"bike_id": "14479077b0780db1066e173ad3d5afad", "type": "electric_scooter", "is_disabled": 0, "lat": 38.90631783333333, "rental_uris": {"ios": "https://dc.lft.to/lastmile_qr_scan", "android": "https://dc.lft.to/lastmile_qr_scan"}, "is_reserved": 0, "fusion_lon": 0.0, "fusion_lat": 0.0, "lon": -77.03132616666667, "name": "14479077b0780db1066e173ad3d5afad"}, {"bike_id": "326c50855a2b3217874aeb0e6395c6a4", "type": "electric_scooter", "is_disabled": 0, "lat": 38.9005075, "rental_uris": {"ios": "https://dc.lft.to/lastmile_qr_scan", "android": "https://dc.lft.to/lastmile_qr_scan"}, "is_reserved": 0, "fusion_lon": 0.0, "fusion_lat": 0.0, "lon": -77.012943, "name": "326c50855a2b3217874aeb0e6395c6a4"}, {"bike_id": "2fba38c3ea6502a406216e898e5fea80", "type": "electric_scooter", "is_disabled": 0, "lat": 38.90062666666667, "rental_uris": {"ios": "https://dc.lft.to/lastmile_qr_scan", "android": "https://dc.lft.to/lastmile_qr_scan"}, "is_reserved": 0, "fusion_lon": 0.0, "fusion_lat": 0.0, "lon": -76.9274105, "name": "2fba38c3ea6502a406216e898e5fea80"}, {"bike_id": "5e47508260cbdee24cf0a89e243d7c9b", "type": "electric_scooter", "is_disabled": 0, "lat": 38.90610216666666, "rental_uris": {"ios": "https://dc.lft.to/lastmile_qr_scan", "android": "https://dc.lft.to/lastmile_qr_scan"}, "is_reserved": 0, "fusion_lon": 0.0, "fusion_lat": 0.0, "lon": -77.00729983333333, "name": "5e47508260cbdee24cf0a89e243d7c9b"}, {"bike_id": "3b1563cdc7bc8f192aa394e71f33813a", "type": "electric_scooter", "is_disabled": 0, "lat": 38.93914983333333, "rental_uris": {"ios": "https://dc.lft.to/lastmile_qr_scan", "android": "https://dc.lft.to/lastmile_qr_scan"}, "is_reserved": 0, "fusion_lon": 0.0, "fusion_lat": 0.0, "lon": -77.03692716666667, "name": "3b1563cdc7bc8f192aa394e71f33813a"}, {"bike_id": "9b00422d8eccedd098b6ddc11c4c081d", "type": "electric_scooter", "is_disabled": 0, "lat": 38.949927833333334, "rental_uris": {"ios": "https://dc.lft.to/lastmile_qr_scan", "android": "https://dc.lft.to/lastmile_qr_scan"}, "is_reserved": 0, "fusion_lon": 0.0, "fusion_lat": 0.0, "lon": -77.01832466666667, "name": "9b00422d8eccedd098b6ddc11c4c081d"}, {"bike_id": "815fc0df4adcdb550f1f8ef396f0c073", "type": "electric_scooter", "is_disabled": 0, "lat": 38.904976833333336, "rental_uris": {"ios": "https://dc.lft.to/lastmile_qr_scan", "android": "https://dc.lft.to/lastmile_qr_scan"}, "is_reserved": 0, "fusion_lon": 0.0, "fusion_lat": 0.0, "lon": -77.0688315, "name": "815fc0df4adcdb550f1f8ef396f0c073"}, {"bike_id": "f6da4ae341ebdadc0bbe6ecce76ebee6", "type": "electric_scooter", "is_disabled": 0, "lat": 38.917014333333334, "rental_uris": {"ios": "https://dc.lft.to/lastmile_qr_scan", "android": "https://dc.lft.to/lastmile_qr_scan"}, "is_reserved": 0, "fusion_lon": 0.0, "fusion_lat": 0.0, "lon": -77.03151483333333, "name": "f6da4ae341ebdadc0bbe6ecce76ebee6"}, {"bike_id": "378384530312c537664b63ed18918153", "type": "electric_scooter", "is_disabled": 0, "lat": 38.908436333333334, "rental_uris": {"ios": "https://dc.lft.to/lastmile_qr_scan", "android": "https://dc.lft.to/lastmile_qr_scan"}, "is_reserved": 0, "fusion_lon": 0.0, "fusion_lat": 0.0, "lon": -77.02227116666667, "name": "378384530312c537664b63ed18918153"}, {"bike_id": "61f30a9959d3cf5a85dbc16396938741", "type": "electric_scooter", "is_disabled": 0, "lat": 38.89915383333334, "rental_uris": {"ios": "https://dc.lft.to/lastmile_qr_scan", "android": "https://dc.lft.to/lastmile_qr_scan"}, "is_reserved": 0, "fusion_lon": 0.0, "fusion_lat": 0.0, "lon": -76.93370683333333, "name": "61f30a9959d3cf5a85dbc16396938741"}, {"bike_id": "f0f9e7deb703378e778a0c2e617e928a", "type": "electric_scooter", "is_disabled": 0, "lat": 38.91993433333333, "rental_uris": {"ios": "https://dc.lft.to/lastmile_qr_scan", "android": "https://dc.lft.to/lastmile_qr_scan"}, "is_reserved": 0, "fusion_lon": 0.0, "fusion_lat": 0.0, "lon": -77.01776266666667, "name": "f0f9e7deb703378e778a0c2e617e928a"}, {"bike_id": "769a63591d19e445f8f6bdd635daec3b", "type": "electric_scooter", "is_disabled": 0, "lat": 38.934576, "rental_uris": {"ios": "https://dc.lft.to/lastmile_qr_scan", "android": "https://dc.lft.to/lastmile_qr_scan"}, "is_reserved": 0, "fusion_lon": 0.0, "fusion_lat": 0.0, "lon": -77.04537833333333, "name": "769a63591d19e445f8f6bdd635daec3b"}, {"bike_id": "2658e043e94056d2c8acb73ac692388e", "type": "electric_scooter", "is_disabled": 0, "lat": 38.902365833333334, "rental_uris": {"ios": "https://dc.lft.to/lastmile_qr_scan", "android": "https://dc.lft.to/lastmile_qr_scan"}, "is_reserved": 0, "fusion_lon": 0.0, "fusion_lat": 0.0, "lon": -77.00194983333333, "name": "2658e043e94056d2c8acb73ac692388e"}, {"bike_id": "d8590eb7a9f8fd12383d219fcda7e7db", "type": "electric_scooter", "is_disabled": 0, "lat": 38.906218, "rental_uris": {"ios": "https://dc.lft.to/lastmile_qr_scan", "android": "https://dc.lft.to/lastmile_qr_scan"}, "is_reserved": 0, "fusion_lon": 0.0, "fusion_lat": 0.0, "lon": -77.055577, "name": "d8590eb7a9f8fd12383d219fcda7e7db"}, {"bike_id": "df40c3a2312d4b04d84610f7a15feb8e", "type": "electric_scooter", "is_disabled": 0, "lat": 38.902224, "rental_uris": {"ios": "https://dc.lft.to/lastmile_qr_scan", "android": "https://dc.lft.to/lastmile_qr_scan"}, "is_reserved": 0, "fusion_lon": 0.0, "fusion_lat": 0.0, "lon": -77.04115166666666, "name": "df40c3a2312d4b04d84610f7a15feb8e"}, {"bike_id": "9971ba5c218c719ffd662d9200a9619c", "type": "electric_scooter", "is_disabled": 0, "lat": 38.87602833333333, "rental_uris": {"ios": "https://dc.lft.to/lastmile_qr_scan", "android": "https://dc.lft.to/lastmile_qr_scan"}, "is_reserved": 0, "fusion_lon": 0.0, "fusion_lat": 0.0, "lon": -77.01381783333333, "name": "9971ba5c218c719ffd662d9200a9619c"}, {"bike_id": "c69cb517c38461d2ff548bc641b6d129", "type": "electric_scooter", "is_disabled": 0, "lat": 38.914252833333336, "rental_uris": {"ios": "https://dc.lft.to/lastmile_qr_scan", "android": "https://dc.lft.to/lastmile_qr_scan"}, "is_reserved": 0, "fusion_lon": 0.0, "fusion_lat": 0.0, "lon": -77.06924033333334, "name": "c69cb517c38461d2ff548bc641b6d129"}, {"bike_id": "e56acf575aa5abd0d23b8ed5a485638d", "type": "electric_bike", "is_disabled": 0, "lat": 38.85728833333334, "rental_uris": {"ios": "https://dc.lft.to/lastmile_qr_scan", "android": "https://dc.lft.to/lastmile_qr_scan"}, "is_reserved": 0, "fusion_lon": 0.0, "fusion_lat": 0.0, "lon": -77.07970816666666, "name": "e56acf575aa5abd0d23b8ed5a485638d"}, {"bike_id": "541d58c4e7b6e3b46427a780e79edd43", "type": "electric_scooter", "is_disabled": 0, "lat": 38.87697266666667, "rental_uris": {"ios": "https://dc.lft.to/lastmile_qr_scan", "android": "https://dc.lft.to/lastmile_qr_scan"}, "is_reserved": 0, "fusion_lon": 0.0, "fusion_lat": 0.0, "lon": -77.0166125, "name": "541d58c4e7b6e3b46427a780e79edd43"}, {"bike_id": "433fd2b3314839803edc99b0979bdde5", "type": "electric_scooter", "is_disabled": 0, "lat": 38.928766333333336, "rental_uris": {"ios": "https://dc.lft.to/lastmile_qr_scan", "android": "https://dc.lft.to/lastmile_qr_scan"}, "is_reserved": 0, "fusion_lon": 0.0, "fusion_lat": 0.0, "lon": -77.033587, "name": "433fd2b3314839803edc99b0979bdde5"}, {"bike_id": "f42ed5bbaccc66f1c3bfaf8b52dc26ed", "type": "electric_bike", "is_disabled": 0, "lat": 38.9368685, "rental_uris": {"ios": "https://dc.lft.to/lastmile_qr_scan", "android": "https://dc.lft.to/lastmile_qr_scan"}, "is_reserved": 0, "fusion_lon": 0.0, "fusion_lat": 0.0, "lon": -77.05643166666667, "name": "f42ed5bbaccc66f1c3bfaf8b52dc26ed"}, {"bike_id": "a8cd5791e8f388ad7b250da495b76cba", "type": "electric_scooter", "is_disabled": 0, "lat": 38.9163075, "rental_uris": {"ios": "https://dc.lft.to/lastmile_qr_scan", "android": "https://dc.lft.to/lastmile_qr_scan"}, "is_reserved": 0, "fusion_lon": 0.0, "fusion_lat": 0.0, "lon": -77.0396345, "name": "a8cd5791e8f388ad7b250da495b76cba"}, {"bike_id": "93c7389f8d7431fda28adbf590a70a71", "type": "electric_scooter", "is_disabled": 0, "lat": 38.93192966666667, "rental_uris": {"ios": "https://dc.lft.to/lastmile_qr_scan", "android": "https://dc.lft.to/lastmile_qr_scan"}, "is_reserved": 0, "fusion_lon": 0.0, "fusion_lat": 0.0, "lon": -77.0201795, "name": "93c7389f8d7431fda28adbf590a70a71"}, {"bike_id": "c7e31e19937776aa474057a7cd1b4c8e", "type": "electric_scooter", "is_disabled": 0, "lat": 38.86657566666667, "rental_uris": {"ios": "https://dc.lft.to/lastmile_qr_scan", "android": "https://dc.lft.to/lastmile_qr_scan"}, "is_reserved": 0, "fusion_lon": 0.0, "fusion_lat": 0.0, "lon": -77.01044883333333, "name": "c7e31e19937776aa474057a7cd1b4c8e"}, {"bike_id": "81702675f2b17998052c8470be937ef6", "type": "electric_scooter", "is_disabled": 0, "lat": 38.901526833333335, "rental_uris": {"ios": "https://dc.lft.to/lastmile_qr_scan", "android": "https://dc.lft.to/lastmile_qr_scan"}, "is_reserved": 0, "fusion_lon": 0.0, "fusion_lat": 0.0, "lon": -77.01625416666667, "name": "81702675f2b17998052c8470be937ef6"}, {"bike_id": "e4827da6d1551a93556c20663cdaba81", "type": "electric_scooter", "is_disabled": 0, "lat": 38.923409166666666, "rental_uris": {"ios": "https://dc.lft.to/lastmile_qr_scan", "android": "https://dc.lft.to/lastmile_qr_scan"}, "is_reserved": 0, "fusion_lon": 0.0, "fusion_lat": 0.0, "lon": -77.05094783333334, "name": "e4827da6d1551a93556c20663cdaba81"}, {"bike_id": "fae46c9b71272a46a16cc1759a670bfd", "type": "electric_scooter", "is_disabled": 0, "lat": 38.9235875, "rental_uris": {"ios": "https://dc.lft.to/lastmile_qr_scan", "android": "https://dc.lft.to/lastmile_qr_scan"}, "is_reserved": 0, "fusion_lon": 0.0, "fusion_lat": 0.0, "lon": -77.03906683333334, "name": "fae46c9b71272a46a16cc1759a670bfd"}, {"bike_id": "07bfd17f3dfe89803b2c5d39d9399a55", "type": "electric_scooter", "is_disabled": 0, "lat": 38.897952333333336, "rental_uris": {"ios": "https://dc.lft.to/lastmile_qr_scan", "android": "https://dc.lft.to/lastmile_qr_scan"}, "is_reserved": 0, "fusion_lon": 0.0, "fusion_lat": 0.0, "lon": -77.02199883333333, "name": "07bfd17f3dfe89803b2c5d39d9399a55"}, {"bike_id": "b025d212b3713332c8d5fcff01a67ad7", "type": "electric_scooter", "is_disabled": 0, "lat": 38.901833333333336, "rental_uris": {"ios": "https://dc.lft.to/lastmile_qr_scan", "android": "https://dc.lft.to/lastmile_qr_scan"}, "is_reserved": 0, "fusion_lon": 0.0, "fusion_lat": 0.0, "lon": -77.03964666666667, "name": "b025d212b3713332c8d5fcff01a67ad7"}, {"bike_id": "329e19c1cd5c3a2d266a5aa012a9c90f", "type": "electric_scooter", "is_disabled": 0, "lat": 38.90380716666667, "rental_uris": {"ios": "https://dc.lft.to/lastmile_qr_scan", "android": "https://dc.lft.to/lastmile_qr_scan"}, "is_reserved": 0, "fusion_lon": 0.0, "fusion_lat": 0.0, "lon": -77.05335716666667, "name": "329e19c1cd5c3a2d266a5aa012a9c90f"}, {"bike_id": "985b9a73766b593ff6b36e996c2f1caa", "type": "electric_scooter", "is_disabled": 0, "lat": 38.91746233333333, "rental_uris": {"ios": "https://dc.lft.to/lastmile_qr_scan", "android": "https://dc.lft.to/lastmile_qr_scan"}, "is_reserved": 0, "fusion_lon": 0.0, "fusion_lat": 0.0, "lon": -77.0318435, "name": "985b9a73766b593ff6b36e996c2f1caa"}, {"bike_id": "0cfcd7df4c67c08a93d40eea91a1f5f2", "type": "electric_scooter", "is_disabled": 0, "lat": 38.9118155, "rental_uris": {"ios": "https://dc.lft.to/lastmile_qr_scan", "android": "https://dc.lft.to/lastmile_qr_scan"}, "is_reserved": 0, "fusion_lon": 0.0, "fusion_lat": 0.0, "lon": -77.01013133333333, "name": "0cfcd7df4c67c08a93d40eea91a1f5f2"}, {"bike_id": "eace036243c26e32aa79eb1f10b71b15", "type": "electric_scooter", "is_disabled": 0, "lat": 38.92866716666666, "rental_uris": {"ios": "https://dc.lft.to/lastmile_qr_scan", "android": "https://dc.lft.to/lastmile_qr_scan"}, "is_reserved": 0, "fusion_lon": 0.0, "fusion_lat": 0.0, "lon": -77.02175533333333, "name": "eace036243c26e32aa79eb1f10b71b15"}, {"bike_id": "669b8aa39047272cc5f21d05c8245143", "type": "electric_scooter", "is_disabled": 0, "lat": 38.952144, "rental_uris": {"ios": "https://dc.lft.to/lastmile_qr_scan", "android": "https://dc.lft.to/lastmile_qr_scan"}, "is_reserved": 0, "fusion_lon": 0.0, "fusion_lat": 0.0, "lon": -77.07070033333333, "name": "669b8aa39047272cc5f21d05c8245143"}, {"bike_id": "a522074d9541626c1dff21af778510cb", "type": "electric_scooter", "is_disabled": 0, "lat": 38.964391166666665, "rental_uris": {"ios": "https://dc.lft.to/lastmile_qr_scan", "android": "https://dc.lft.to/lastmile_qr_scan"}, "is_reserved": 0, "fusion_lon": 0.0, "fusion_lat": 0.0, "lon": -77.02063916666667, "name": "a522074d9541626c1dff21af778510cb"}, {"bike_id": "17f106913b632f047b93cea26c80e491", "type": "electric_scooter", "is_disabled": 0, "lat": 38.92575933333333, "rental_uris": {"ios": "https://dc.lft.to/lastmile_qr_scan", "android": "https://dc.lft.to/lastmile_qr_scan"}, "is_reserved": 0, "fusion_lon": 0.0, "fusion_lat": 0.0, "lon": -77.03781583333334, "name": "17f106913b632f047b93cea26c80e491"}, {"bike_id": "b39d95815c510922e946f34bdc851dba", "type": "electric_scooter", "is_disabled": 0, "lat": 38.93250883333333, "rental_uris": {"ios": "https://dc.lft.to/lastmile_qr_scan", "android": "https://dc.lft.to/lastmile_qr_scan"}, "is_reserved": 0, "fusion_lon": 0.0, "fusion_lat": 0.0, "lon": -77.03276433333333, "name": "b39d95815c510922e946f34bdc851dba"}, {"bike_id": "68ff132a42640b580521e74af5b10216", "type": "electric_scooter", "is_disabled": 0, "lat": 38.8840395, "rental_uris": {"ios": "https://dc.lft.to/lastmile_qr_scan", "android": "https://dc.lft.to/lastmile_qr_scan"}, "is_reserved": 0, "fusion_lon": 0.0, "fusion_lat": 0.0, "lon": -76.95395233333333, "name": "68ff132a42640b580521e74af5b10216"}, {"bike_id": "945a265b1f3ae6b6de4ca7447df746c2", "type": "electric_scooter", "is_disabled": 0, "lat": 38.89094016666667, "rental_uris": {"ios": "https://dc.lft.to/lastmile_qr_scan", "android": "https://dc.lft.to/lastmile_qr_scan"}, "is_reserved": 0, "fusion_lon": 0.0, "fusion_lat": 0.0, "lon": -76.9384865, "name": "945a265b1f3ae6b6de4ca7447df746c2"}, {"bike_id": "d24c9906da2ea62ce8461caac734df93", "type": "electric_scooter", "is_disabled": 0, "lat": 38.905282166666666, "rental_uris": {"ios": "https://dc.lft.to/lastmile_qr_scan", "android": "https://dc.lft.to/lastmile_qr_scan"}, "is_reserved": 0, "fusion_lon": 0.0, "fusion_lat": 0.0, "lon": -77.0485185, "name": "d24c9906da2ea62ce8461caac734df93"}, {"bike_id": "16bf3da169d031f3be7fe6df6045a775", "type": "electric_scooter", "is_disabled": 0, "lat": 38.915247666666666, "rental_uris": {"ios": "https://dc.lft.to/lastmile_qr_scan", "android": "https://dc.lft.to/lastmile_qr_scan"}, "is_reserved": 0, "fusion_lon": 0.0, "fusion_lat": 0.0, "lon": -77.04850066666667, "name": "16bf3da169d031f3be7fe6df6045a775"}, {"bike_id": "60981bf64a26df3c6c2a3036df9743a9", "type": "electric_scooter", "is_disabled": 0, "lat": 38.910687, "rental_uris": {"ios": "https://dc.lft.to/lastmile_qr_scan", "android": "https://dc.lft.to/lastmile_qr_scan"}, "is_reserved": 0, "fusion_lon": 0.0, "fusion_lat": 0.0, "lon": -77.03716216666666, "name": "60981bf64a26df3c6c2a3036df9743a9"}, {"bike_id": "0fbf0423a1b1d9dec163cc579d5afcd0", "type": "electric_scooter", "is_disabled": 0, "lat": 38.922562166666665, "rental_uris": {"ios": "https://dc.lft.to/lastmile_qr_scan", "android": "https://dc.lft.to/lastmile_qr_scan"}, "is_reserved": 0, "fusion_lon": 0.0, "fusion_lat": 0.0, "lon": -77.04300683333334, "name": "0fbf0423a1b1d9dec163cc579d5afcd0"}, {"bike_id": "c28d6635ed496b38578d75f44be4d8a0", "type": "electric_bike", "is_disabled": 0, "lat": 38.90816616666667, "rental_uris": {"ios": "https://dc.lft.to/lastmile_qr_scan", "android": "https://dc.lft.to/lastmile_qr_scan"}, "is_reserved": 0, "fusion_lon": 0.0, "fusion_lat": 0.0, "lon": -76.9403605, "name": "c28d6635ed496b38578d75f44be4d8a0"}, {"bike_id": "13e7a017e1e74b5e7d5156ac2e6378f1", "type": "electric_scooter", "is_disabled": 0, "lat": 38.9057075, "rental_uris": {"ios": "https://dc.lft.to/lastmile_qr_scan", "android": "https://dc.lft.to/lastmile_qr_scan"}, "is_reserved": 0, "fusion_lon": 0.0, "fusion_lat": 0.0, "lon": -76.9762445, "name": "13e7a017e1e74b5e7d5156ac2e6378f1"}, {"bike_id": "fc5419fc02d10e4a06f59d5ab072d50f", "type": "electric_scooter", "is_disabled": 0, "lat": 38.870913333333334, "rental_uris": {"ios": "https://dc.lft.to/lastmile_qr_scan", "android": "https://dc.lft.to/lastmile_qr_scan"}, "is_reserved": 0, "fusion_lon": 0.0, "fusion_lat": 0.0, "lon": -77.012212, "name": "fc5419fc02d10e4a06f59d5ab072d50f"}, {"bike_id": "cbe079f2c0506aee66246deb6566eaf7", "type": "electric_scooter", "is_disabled": 0, "lat": 38.90073666666667, "rental_uris": {"ios": "https://dc.lft.to/lastmile_qr_scan", "android": "https://dc.lft.to/lastmile_qr_scan"}, "is_reserved": 0, "fusion_lon": 0.0, "fusion_lat": 0.0, "lon": -77.01845833333333, "name": "cbe079f2c0506aee66246deb6566eaf7"}, {"bike_id": "2b59037f9c68ae109a6f4db32aa18682", "type": "electric_scooter", "is_disabled": 0, "lat": 38.88734633333333, "rental_uris": {"ios": "https://dc.lft.to/lastmile_qr_scan", "android": "https://dc.lft.to/lastmile_qr_scan"}, "is_reserved": 0, "fusion_lon": 0.0, "fusion_lat": 0.0, "lon": -77.01533966666666, "name": "2b59037f9c68ae109a6f4db32aa18682"}, {"bike_id": "40ec332965a62bf242dd30bee4e47e1c", "type": "electric_bike", "is_disabled": 0, "lat": 38.838524, "rental_uris": {"ios": "https://dc.lft.to/lastmile_qr_scan", "android": "https://dc.lft.to/lastmile_qr_scan"}, "is_reserved": 0, "fusion_lon": 0.0, "fusion_lat": 0.0, "lon": -77.0501585, "name": "40ec332965a62bf242dd30bee4e47e1c"}, {"bike_id": "b3faa0f582220c8c107f3094dca82243", "type": "electric_scooter", "is_disabled": 0, "lat": 38.90382833333334, "rental_uris": {"ios": "https://dc.lft.to/lastmile_qr_scan", "android": "https://dc.lft.to/lastmile_qr_scan"}, "is_reserved": 0, "fusion_lon": 0.0, "fusion_lat": 0.0, "lon": -76.98206183333333, "name": "b3faa0f582220c8c107f3094dca82243"}, {"bike_id": "d521071b0c5d33d26dd8dc4b50f4d950", "type": "electric_scooter", "is_disabled": 0, "lat": 38.9376535, "rental_uris": {"ios": "https://dc.lft.to/lastmile_qr_scan", "android": "https://dc.lft.to/lastmile_qr_scan"}, "is_reserved": 0, "fusion_lon": 0.0, "fusion_lat": 0.0, "lon": -77.02472416666667, "name": "d521071b0c5d33d26dd8dc4b50f4d950"}, {"bike_id": "cfc6ddd7be1578384b571e81e136575c", "type": "electric_scooter", "is_disabled": 0, "lat": 38.936523666666666, "rental_uris": {"ios": "https://dc.lft.to/lastmile_qr_scan", "android": "https://dc.lft.to/lastmile_qr_scan"}, "is_reserved": 0, "fusion_lon": 0.0, "fusion_lat": 0.0, "lon": -77.0263605, "name": "cfc6ddd7be1578384b571e81e136575c"}, {"bike_id": "1af4b54ad24ccfdf779320803d92f617", "type": "electric_scooter", "is_disabled": 0, "lat": 38.91929066666667, "rental_uris": {"ios": "https://dc.lft.to/lastmile_qr_scan", "android": "https://dc.lft.to/lastmile_qr_scan"}, "is_reserved": 0, "fusion_lon": 0.0, "fusion_lat": 0.0, "lon": -77.00232316666667, "name": "1af4b54ad24ccfdf779320803d92f617"}, {"bike_id": "5ef9b2bef941b1c97b5adf79a8baa444", "type": "electric_scooter", "is_disabled": 0, "lat": 38.927629333333336, "rental_uris": {"ios": "https://dc.lft.to/lastmile_qr_scan", "android": "https://dc.lft.to/lastmile_qr_scan"}, "is_reserved": 0, "fusion_lon": 0.0, "fusion_lat": 0.0, "lon": -77.05642116666667, "name": "5ef9b2bef941b1c97b5adf79a8baa444"}, {"bike_id": "24e702a369ba214c562ef2607ed144fd", "type": "electric_scooter", "is_disabled": 0, "lat": 38.911017333333334, "rental_uris": {"ios": "https://dc.lft.to/lastmile_qr_scan", "android": "https://dc.lft.to/lastmile_qr_scan"}, "is_reserved": 0, "fusion_lon": 0.0, "fusion_lat": 0.0, "lon": -77.00211066666667, "name": "24e702a369ba214c562ef2607ed144fd"}, {"bike_id": "aa99261ff7bdc5e689a4e39c66c60a9c", "type": "electric_scooter", "is_disabled": 0, "lat": 38.90279366666667, "rental_uris": {"ios": "https://dc.lft.to/lastmile_qr_scan", "android": "https://dc.lft.to/lastmile_qr_scan"}, "is_reserved": 0, "fusion_lon": 0.0, "fusion_lat": 0.0, "lon": -77.0364905, "name": "aa99261ff7bdc5e689a4e39c66c60a9c"}, {"bike_id": "398358c1ba05ea3568d554897df5eff0", "type": "electric_scooter", "is_disabled": 0, "lat": 38.90980183333333, "rental_uris": {"ios": "https://dc.lft.to/lastmile_qr_scan", "android": "https://dc.lft.to/lastmile_qr_scan"}, "is_reserved": 0, "fusion_lon": 0.0, "fusion_lat": 0.0, "lon": -77.02798916666667, "name": "398358c1ba05ea3568d554897df5eff0"}, {"bike_id": "f39a3561ae0a933f5f6fcccd9ab0a7f3", "type": "electric_scooter", "is_disabled": 0, "lat": 38.884321666666665, "rental_uris": {"ios": "https://dc.lft.to/lastmile_qr_scan", "android": "https://dc.lft.to/lastmile_qr_scan"}, "is_reserved": 0, "fusion_lon": 0.0, "fusion_lat": 0.0, "lon": -76.9574765, "name": "f39a3561ae0a933f5f6fcccd9ab0a7f3"}, {"bike_id": "f0b4f160db2ba1b04e8f868ba989b03c", "type": "electric_scooter", "is_disabled": 0, "lat": 38.92861033333333, "rental_uris": {"ios": "https://dc.lft.to/lastmile_qr_scan", "android": "https://dc.lft.to/lastmile_qr_scan"}, "is_reserved": 0, "fusion_lon": 0.0, "fusion_lat": 0.0, "lon": -77.0230605, "name": "f0b4f160db2ba1b04e8f868ba989b03c"}, {"bike_id": "e00cf74616a493572c1e046f12770809", "type": "electric_scooter", "is_disabled": 0, "lat": 38.87473216666667, "rental_uris": {"ios": "https://dc.lft.to/lastmile_qr_scan", "android": "https://dc.lft.to/lastmile_qr_scan"}, "is_reserved": 0, "fusion_lon": 0.0, "fusion_lat": 0.0, "lon": -77.01068633333334, "name": "e00cf74616a493572c1e046f12770809"}, {"bike_id": "9d8cfa2e692244937303f2762409b685", "type": "electric_scooter", "is_disabled": 0, "lat": 38.91767866666667, "rental_uris": {"ios": "https://dc.lft.to/lastmile_qr_scan", "android": "https://dc.lft.to/lastmile_qr_scan"}, "is_reserved": 0, "fusion_lon": 0.0, "fusion_lat": 0.0, "lon": -77.03194616666667, "name": "9d8cfa2e692244937303f2762409b685"}, {"bike_id": "b7ad631889fea6da9c250f0b3f02fb76", "type": "electric_scooter", "is_disabled": 0, "lat": 38.957321, "rental_uris": {"ios": "https://dc.lft.to/lastmile_qr_scan", "android": "https://dc.lft.to/lastmile_qr_scan"}, "is_reserved": 0, "fusion_lon": 0.0, "fusion_lat": 0.0, "lon": -77.02418266666666, "name": "b7ad631889fea6da9c250f0b3f02fb76"}, {"bike_id": "e11a70bb390ec8e01cc0765631cd9375", "type": "electric_scooter", "is_disabled": 0, "lat": 38.90527066666667, "rental_uris": {"ios": "https://dc.lft.to/lastmile_qr_scan", "android": "https://dc.lft.to/lastmile_qr_scan"}, "is_reserved": 0, "fusion_lon": 0.0, "fusion_lat": 0.0, "lon": -77.06242816666666, "name": "e11a70bb390ec8e01cc0765631cd9375"}, {"bike_id": "d0616b21965a28c459aac523f70a306d", "type": "electric_scooter", "is_disabled": 0, "lat": 38.919888, "rental_uris": {"ios": "https://dc.lft.to/lastmile_qr_scan", "android": "https://dc.lft.to/lastmile_qr_scan"}, "is_reserved": 0, "fusion_lon": 0.0, "fusion_lat": 0.0, "lon": -77.01792733333333, "name": "d0616b21965a28c459aac523f70a306d"}, {"bike_id": "559f0c8e14f7953b199744a248b52c3e", "type": "electric_scooter", "is_disabled": 0, "lat": 38.91611266666666, "rental_uris": {"ios": "https://dc.lft.to/lastmile_qr_scan", "android": "https://dc.lft.to/lastmile_qr_scan"}, "is_reserved": 0, "fusion_lon": 0.0, "fusion_lat": 0.0, "lon": -77.03382533333334, "name": "559f0c8e14f7953b199744a248b52c3e"}, {"bike_id": "1aa7851f2450c1a12c4fcd46b78e4d46", "type": "electric_scooter", "is_disabled": 0, "lat": 38.913320666666664, "rental_uris": {"ios": "https://dc.lft.to/lastmile_qr_scan", "android": "https://dc.lft.to/lastmile_qr_scan"}, "is_reserved": 0, "fusion_lon": 0.0, "fusion_lat": 0.0, "lon": -77.0398725, "name": "1aa7851f2450c1a12c4fcd46b78e4d46"}, {"bike_id": "e6d2b45541044ef04363dcdc049c1441", "type": "electric_scooter", "is_disabled": 0, "lat": 38.922555833333334, "rental_uris": {"ios": "https://dc.lft.to/lastmile_qr_scan", "android": "https://dc.lft.to/lastmile_qr_scan"}, "is_reserved": 0, "fusion_lon": 0.0, "fusion_lat": 0.0, "lon": -77.0352185, "name": "e6d2b45541044ef04363dcdc049c1441"}, {"bike_id": "5fbd2ceccd3808d4e9af534298e055bb", "type": "electric_scooter", "is_disabled": 0, "lat": 38.92389816666667, "rental_uris": {"ios": "https://dc.lft.to/lastmile_qr_scan", "android": "https://dc.lft.to/lastmile_qr_scan"}, "is_reserved": 0, "fusion_lon": 0.0, "fusion_lat": 0.0, "lon": -77.04478116666667, "name": "5fbd2ceccd3808d4e9af534298e055bb"}, {"bike_id": "39b7e0b4876d654f1a1ca9a83f92a8de", "type": "electric_scooter", "is_disabled": 0, "lat": 38.86502183333333, "rental_uris": {"ios": "https://dc.lft.to/lastmile_qr_scan", "android": "https://dc.lft.to/lastmile_qr_scan"}, "is_reserved": 0, "fusion_lon": 0.0, "fusion_lat": 0.0, "lon": -76.9900175, "name": "39b7e0b4876d654f1a1ca9a83f92a8de"}, {"bike_id": "9a6d713a51ccd3dec939647e0094e69d", "type": "electric_bike", "is_disabled": 0, "lat": 38.807578166666666, "rental_uris": {"ios": "https://dc.lft.to/lastmile_qr_scan", "android": "https://dc.lft.to/lastmile_qr_scan"}, "is_reserved": 0, "fusion_lon": 0.0, "fusion_lat": 0.0, "lon": -77.09464316666667, "name": "9a6d713a51ccd3dec939647e0094e69d"}, {"bike_id": "9b6f1d94c7c57330b9c708c20cb46719", "type": "electric_bike", "is_disabled": 0, "lat": 38.88950716666667, "rental_uris": {"ios": "https://dc.lft.to/lastmile_qr_scan", "android": "https://dc.lft.to/lastmile_qr_scan"}, "is_reserved": 0, "fusion_lon": 0.0, "fusion_lat": 0.0, "lon": -77.09137016666666, "name": "9b6f1d94c7c57330b9c708c20cb46719"}, {"bike_id": "70f20b92736b0cab42641ab2ceb39239", "type": "electric_scooter", "is_disabled": 0, "lat": 38.911753, "rental_uris": {"ios": "https://dc.lft.to/lastmile_qr_scan", "android": "https://dc.lft.to/lastmile_qr_scan"}, "is_reserved": 0, "fusion_lon": 0.0, "fusion_lat": 0.0, "lon": -77.06854583333333, "name": "70f20b92736b0cab42641ab2ceb39239"}, {"bike_id": "14372d1ed8c8dae4cd1858ca870949f4", "type": "electric_scooter", "is_disabled": 0, "lat": 38.92165, "rental_uris": {"ios": "https://dc.lft.to/lastmile_qr_scan", "android": "https://dc.lft.to/lastmile_qr_scan"}, "is_reserved": 0, "fusion_lon": 0.0, "fusion_lat": 0.0, "lon": -77.038499, "name": "14372d1ed8c8dae4cd1858ca870949f4"}, {"bike_id": "f90949f050e3da69866f03dded863313", "type": "electric_scooter", "is_disabled": 0, "lat": 38.906105333333336, "rental_uris": {"ios": "https://dc.lft.to/lastmile_qr_scan", "android": "https://dc.lft.to/lastmile_qr_scan"}, "is_reserved": 0, "fusion_lon": 0.0, "fusion_lat": 0.0, "lon": -77.06298766666667, "name": "f90949f050e3da69866f03dded863313"}, {"bike_id": "85270fe9d6f8dc51efb3b1410548def8", "type": "electric_scooter", "is_disabled": 0, "lat": 38.89688233333333, "rental_uris": {"ios": "https://dc.lft.to/lastmile_qr_scan", "android": "https://dc.lft.to/lastmile_qr_scan"}, "is_reserved": 0, "fusion_lon": 0.0, "fusion_lat": 0.0, "lon": -76.99968016666666, "name": "85270fe9d6f8dc51efb3b1410548def8"}, {"bike_id": "f39c640bbc9164e6ad8fbd0624cc7226", "type": "electric_scooter", "is_disabled": 0, "lat": 38.9278795, "rental_uris": {"ios": "https://dc.lft.to/lastmile_qr_scan", "android": "https://dc.lft.to/lastmile_qr_scan"}, "is_reserved": 0, "fusion_lon": 0.0, "fusion_lat": 0.0, "lon": -77.0220695, "name": "f39c640bbc9164e6ad8fbd0624cc7226"}, {"bike_id": "9197623bfa35109e171e4f4c4ffb52c7", "type": "electric_scooter", "is_disabled": 0, "lat": 38.91634766666667, "rental_uris": {"ios": "https://dc.lft.to/lastmile_qr_scan", "android": "https://dc.lft.to/lastmile_qr_scan"}, "is_reserved": 0, "fusion_lon": 0.0, "fusion_lat": 0.0, "lon": -77.0254925, "name": "9197623bfa35109e171e4f4c4ffb52c7"}, {"bike_id": "5ee26d1c4c5f3959bb86d2d36f44db0c", "type": "electric_scooter", "is_disabled": 0, "lat": 38.91633816666667, "rental_uris": {"ios": "https://dc.lft.to/lastmile_qr_scan", "android": "https://dc.lft.to/lastmile_qr_scan"}, "is_reserved": 0, "fusion_lon": 0.0, "fusion_lat": 0.0, "lon": -77.04005816666667, "name": "5ee26d1c4c5f3959bb86d2d36f44db0c"}, {"bike_id": "caf830ede87e44a454f8a4df5c10bbab", "type": "electric_scooter", "is_disabled": 0, "lat": 38.920316, "rental_uris": {"ios": "https://dc.lft.to/lastmile_qr_scan", "android": "https://dc.lft.to/lastmile_qr_scan"}, "is_reserved": 0, "fusion_lon": 0.0, "fusion_lat": 0.0, "lon": -77.0130975, "name": "caf830ede87e44a454f8a4df5c10bbab"}, {"bike_id": "e0d79375117e6de325728384203b9ea0", "type": "electric_scooter", "is_disabled": 0, "lat": 38.91569966666667, "rental_uris": {"ios": "https://dc.lft.to/lastmile_qr_scan", "android": "https://dc.lft.to/lastmile_qr_scan"}, "is_reserved": 0, "fusion_lon": 0.0, "fusion_lat": 0.0, "lon": -77.02417766666667, "name": "e0d79375117e6de325728384203b9ea0"}, {"bike_id": "802af76310cffa582e343149df6e99dc", "type": "electric_bike", "is_disabled": 0, "lat": 38.872999, "rental_uris": {"ios": "https://dc.lft.to/lastmile_qr_scan", "android": "https://dc.lft.to/lastmile_qr_scan"}, "is_reserved": 0, "fusion_lon": 0.0, "fusion_lat": 0.0, "lon": -77.13925, "name": "802af76310cffa582e343149df6e99dc"}, {"bike_id": "4c836005be48e55ac91fee9c81ea767e", "type": "electric_scooter", "is_disabled": 0, "lat": 38.9316965, "rental_uris": {"ios": "https://dc.lft.to/lastmile_qr_scan", "android": "https://dc.lft.to/lastmile_qr_scan"}, "is_reserved": 0, "fusion_lon": 0.0, "fusion_lat": 0.0, "lon": -77.03170216666666, "name": "4c836005be48e55ac91fee9c81ea767e"},