{"data": {"bikes": [{"fusion_lon": 0.0, "bike_id": "68c4c24c7a1468eb0c52723719e12e5a", "name": "68c4c24c7a1468eb0c52723719e12e5a", "type": "electric_bike", "lon": -76.8777265, "rental_uris": {"android": "https://dc.lft.to/lastmile_qr_scan", "ios": "https://dc.lft.to/lastmile_qr_scan"}, "lat": 38.99233016666667, "is_reserved": 0, "is_disabled": 0, "fusion_lat": 0.0}, {"fusion_lon": 0.0, "bike_id": "77b6084c6041acfea159164d98e3e1b3", "name": "77b6084c6041acfea159164d98e3e1b3", "type": "electric_bike", "lon": -76.96386833333334, "rental_uris": {"android": "https://dc.lft.to/lastmile_qr_scan", "ios": "https://dc.lft.to/lastmile_qr_scan"}, "lat": 38.97579133333333, "is_reserved": 0, "is_disabled": 0, "fusion_lat": 0.0}, {"fusion_lon": 0.0, "bike_id": "d332a0e2687dcd14b00548ce6695d9b5", "name": "d332a0e2687dcd14b00548ce6695d9b5", "type": "electric_scooter", "lon": -77.03279283333333, "rental_uris": {"android": "https://dc.lft.to/lastmile_qr_scan", "ios": "https://dc.lft.to/lastmile_qr_scan"}, "lat": 38.8988595, "is_reserved": 0, "is_disabled": 0, "fusion_lat": 0.0}, {"fusion_lon": 0.0, "bike_id": "a65be6d838e1122b8c0968184cf2d4c0", "name": "a65be6d838e1122b8c0968184cf2d4c0", "type": "electric_scooter", "lon": -77.02181316666666, "rental_uris": {"android": "https://dc.lft.to/lastmile_qr_scan", "ios": "https://dc.lft.to/lastmile_qr_scan"}, "lat": 38.896123333333335, "is_reserved": 0, "is_disabled": 0, "fusion_lat": 0.0}, {"fusion_lon": 0.0, "bike_id": "ca46adc782612172451405777e655e85", "name": "ca46adc782612172451405777e655e85", "type": "electric_scooter", "lon": -76.9875355, "rental_uris": {"android": "https://dc.lft.to/lastmile_qr_scan", "ios": "https://dc.lft.to/lastmile_qr_scan"}, "lat": 38.84461433333333, "is_reserved": 0, "is_disabled": 0, "fusion_lat": 0.0}, {"fusion_lon": 0.0, "bike_id": "2e955272cf6d9688827b79c9ef0a5d42", "name": "2e955272cf6d9688827b79c9ef0a5d42", "type": "electric_scooter", "lon": -77.0417655, "rental_uris": {"android": "https://dc.lft.to/lastmile_qr_scan", "ios": "https://dc.lft.to/lastmile_qr_scan"}, "lat": 38.914614666666665, "is_reserved": 0, "is_disabled": 0, "fusion_lat": 0.0}, {"fusion_lon": 0.0, "bike_id": "aa636a2a0b357e7b1e7a60d427b0b16a", "name": "aa636a2a0b357e7b1e7a60d427b0b16a", "type": "electric_bike", "lon": -76.94867283333333, "rental_uris": {"android": "https://dc.lft.to/lastmile_qr_scan", "ios": "https://dc.lft.to/lastmile_qr_scan"}, "lat": 38.88966583333333, "is_reserved": 0, "is_disabled": 0, "fusion_lat": 0.0}, {"fusion_lon": 0.0, "bike_id": "02b62df38beddf540e732e173552f5cd", "name": "02b62df38beddf540e732e173552f5cd", "type": "electric_scooter", "lon": -77.03702216666667, "rental_uris": {"android": "https://dc.lft.to/lastmile_qr_scan", "ios": "https://dc.lft.to/lastmile_qr_scan"}, "lat": 38.9264535, "is_reserved": 0, "is_disabled": 0, "fusion_lat": 0.0}, {"fusion_lon": 0.0, "bike_id": "f02e5b5653f3f19b368c1490527588fd", "name": "f02e5b5653f3f19b368c1490527588fd", "type": "electric_bike", "lon": -76.98522316666667, "rental_uris": {"android": "https://dc.lft.to/lastmile_qr_scan", "ios": "https://dc.lft.to/lastmile_qr_scan"}, "lat": 38.91990933333334, "is_reserved": 0, "is_disabled": 0, "fusion_lat": 0.0}, {"fusion_lon": 0.0, "bike_id": "27eccc49527d68e701df89262ea18414", "name": "27eccc49527d68e701df89262ea18414", "type": "electric_scooter", "lon": -77.02391066666667, "rental_uris": {"android": "https://dc.lft.to/lastmile_qr_scan", "ios": "https://dc.lft.to/lastmile_qr_scan"}, "lat": 38.916704833333334, "is_reserved": 0, "is_disabled": 0, "fusion_lat": 0.0}, {"fusion_lon": 0.0, "bike_id": "bd335307bd1a14c999c2ec32bc845570", "name": "bd335307bd1a14c999c2ec32bc845570", "type": "electric_bike", "lon": -77.107332, "rental_uris": {"android": "https://dc.lft.to/lastmile_qr_scan", "ios": "https://dc.lft.to/lastmile_qr_scan"}, "lat": 38.855452666666665, "is_reserved": 0, "is_disabled": 0, "fusion_lat": 0.0}, {"fusion_lon": 0.0, "bike_id": "8c835c68d2b9ea06a8cddaf3d975856e", "name": "8c835c68d2b9ea06a8cddaf3d975856e", "type": "electric_scooter", "lon": -77.0170875, "rental_uris": {"android": "https://dc.lft.to/lastmile_qr_scan", "ios": "https://dc.lft.to/lastmile_qr_scan"}, "lat": 38.905063166666665, "is_reserved": 0, "is_disabled": 0, "fusion_lat": 0.0}, {"fusion_lon": 0.0, "bike_id": "bf790cb2d59210f4b23fd1885bfe2566", "name": "bf790cb2d59210f4b23fd1885bfe2566", "type": "electric_scooter", "lon": -77.04363116666667, "rental_uris": {"android": "https://dc.lft.to/lastmile_qr_scan", "ios": "https://dc.lft.to/lastmile_qr_scan"}, "lat": 38.892367166666666, "is_reserved": 0, "is_disabled": 0, "fusion_lat": 0.0}, {"fusion_lon": 0.0, "bike_id": "5bd1d46286c7c7eed4dee3b351a1b5d3", "name": "5bd1d46286c7c7eed4dee3b351a1b5d3", "type": "electric_scooter", "lon": -77.00438816666667, "rental_uris": {"android": "https://dc.lft.to/lastmile_qr_scan", "ios": "https://dc.lft.to/lastmile_qr_scan"}, "lat": 38.876721, "is_reserved": 0, "is_disabled": 0, "fusion_lat": 0.0}, {"fusion_lon": 0.0, "bike_id": "1bc548a1f49ceeadcaa24c5bd95a7e15", "name": "1bc548a1f49ceeadcaa24c5bd95a7e15", "type": "electric_scooter", "lon": -77.03450783333334, "rental_uris": {"android": "https://dc.lft.to/lastmile_qr_scan", "ios": "https://dc.lft.to/lastmile_qr_scan"}, "lat": 38.9026175, "is_reserved": 0, "is_disabled": 0, "fusion_lat": 0.0}, {"fusion_lon": 0.0, "bike_id": "d605b7b2146bdae0c49aa064d0540e23", "name": "d605b7b2146bdae0c49aa064d0540e23", "type": "electric_scooter", "lon": -76.977379, "rental_uris": {"android": "https://dc.lft.to/lastmile_qr_scan", "ios": "https://dc.lft.to/lastmile_qr_scan"}, "lat": 38.888623833333334, "is_reserved": 0, "is_disabled": 0, "fusion_lat": 0.0}, {"fusion_lon": 0.0, "bike_id": "4850ed598518d5443c51d545db3ae88f", "name": "4850ed598518d5443c51d545db3ae88f", "type": "electric_scooter", "lon": -77.0226815, "rental_uris": {"android": "https://dc.lft.to/lastmile_qr_scan", "ios": "https://dc.lft.to/lastmile_qr_scan"}, "lat": 38.94714, "is_reserved": 0, "is_disabled": 0, "fusion_lat": 0.0}, {"fusion_lon": 0.0, "bike_id": "9e6b4cf60b4aee855fd23286963bf572", "name": "9e6b4cf60b4aee855fd23286963bf572", "type": "electric_scooter", "lon": -77.03995466666667, "rental_uris": {"android": "https://dc.lft.to/lastmile_qr_scan", "ios": "https://dc.lft.to/lastmile_qr_scan"}, "lat": 38.90377633333333, "is_reserved": 0, "is_disabled": 0, "fusion_lat": 0.0}, {"fusion_lon": 0.0, "bike_id": "f392a76676df3cd44cc3ea7589567ff4", "name": "f392a76676df3cd44cc3ea7589567ff4", "type": "electric_scooter", "lon": -77.02206416666667, "rental_uris": {"android": "https://dc.lft.to/lastmile_qr_scan", "ios": "https://dc.lft.to/lastmile_qr_scan"}, "lat": 38.91532016666667, "is_reserved": 0, "is_disabled": 0, "fusion_lat": 0.0}, {"fusion_lon": 0.0, "bike_id": "b0d5100ac0257262be728e0ea16f3cf6", "name": "b0d5100ac0257262be728e0ea16f3cf6", "type": "electric_scooter", "lon": -77.02291, "rental_uris": {"android": "https://dc.lft.to/lastmile_qr_scan", "ios": "https://dc.lft.to/lastmile_qr_scan"}, "lat": 38.9160715, "is_reserved": 0, "is_disabled": 0, "fusion_lat": 0.0}, {"fusion_lon": 0.0, "bike_id": "5aa764e2862d58c8cb178830c62755e7", "name": "5aa764e2862d58c8cb178830c62755e7", "type": "electric_scooter", "lon": -77.0345595, "rental_uris": {"android": "https://dc.lft.to/lastmile_qr_scan", "ios": "https://dc.lft.to/lastmile_qr_scan"}, "lat": 38.90527683333333, "is_reserved": 0, "is_disabled": 0, "fusion_lat": 0.0}, {"fusion_lon": 0.0, "bike_id": "2b795453c91684bb80373c9b640a8cf5", "name": "2b795453c91684bb80373c9b640a8cf5", "type": "electric_scooter", "lon": -77.00138416666667, "rental_uris": {"android": "https://dc.lft.to/lastmile_qr_scan", "ios": "https://dc.lft.to/lastmile_qr_scan"}, "lat": 38.90513216666667, "is_reserved": 0, "is_disabled": 0, "fusion_lat": 0.0}, {"fusion_lon": 0.0, "bike_id": "4c1517e15f8e65e9bce459fa3c0f2dbb", "name": "4c1517e15f8e65e9bce459fa3c0f2dbb", "type": "electric_scooter", "lon": -77.03336816666666, "rental_uris": {"android": "https://dc.lft.to/lastmile_qr_scan", "ios": "https://dc.lft.to/lastmile_qr_scan"}, "lat": 38.898245833333334, "is_reserved": 0, "is_disabled": 0, "fusion_lat": 0.0}, {"fusion_lon": 0.0, "bike_id": "bb05ecaa3aa7ee1898de71af5887da20", "name": "bb05ecaa3aa7ee1898de71af5887da20", "type": "electric_scooter", "lon": -76.99005683333333, "rental_uris": {"android": "https://dc.lft.to/lastmile_qr_scan", "ios": "https://dc.lft.to/lastmile_qr_scan"}, "lat": 38.865064833333335, "is_reserved": 0, "is_disabled": 0, "fusion_lat": 0.0}, {"fusion_lon": 0.0, "bike_id": "fbf75446b83363313a2d54abd11bbbac", "name": "fbf75446b83363313a2d54abd11bbbac", "type": "electric_scooter", "lon": -77.03474666666666, "rental_uris": {"android": "https://dc.lft.to/lastmile_qr_scan", "ios": "https://dc.lft.to/lastmile_qr_scan"}, "lat": 38.91112183333333, "is_reserved": 0, "is_disabled": 0, "fusion_lat": 0.0}, {"fusion_lon": 0.0, "bike_id": "af126b8e80fa1e8977d2f208c682f109", "name": "af126b8e80fa1e8977d2f208c682f109", "type": "electric_scooter", "lon": -76.994899, "rental_uris": {"android": "https://dc.lft.to/lastmile_qr_scan", "ios": "https://dc.lft.to/lastmile_qr_scan"}, "lat": 38.86243733333333, "is_reserved": 0, "is_disabled": 0, "fusion_lat": 0.0}, {"fusion_lon": 0.0, "bike_id": "101113bb057914eb273eb74758e0f6da", "name": "101113bb057914eb273eb74758e0f6da", "type": "electric_scooter", "lon": -77.035163, "rental_uris": {"android": "https://dc.lft.to/lastmile_qr_scan", "ios": "https://dc.lft.to/lastmile_qr_scan"}, "lat": 38.921587, "is_reserved": 0, "is_disabled": 0, "fusion_lat": 0.0}, {"fusion_lon": 0.0, "bike_id": "e03874539596ace2229d313c09108258", "name": "e03874539596ace2229d313c09108258", "type": "electric_scooter", "lon": -77.04335733333333, "rental_uris": {"android": "https://dc.lft.to/lastmile_qr_scan", "ios": "https://dc.lft.to/lastmile_qr_scan"}, "lat": 38.914534, "is_reserved": 0, "is_disabled": 0, "fusion_lat": 0.0}, {"fusion_lon": 0.0, "bike_id": "7a9351bf7467b98f0fd2756c454b570a", "name": "7a9351bf7467b98f0fd2756c454b570a", "type": "electric_scooter", "lon": -77.048185, "rental_uris": {"android": "https://dc.lft.to/lastmile_qr_scan", "ios": "https://dc.lft.to/lastmile_qr_scan"}, "lat": 38.9149175, "is_reserved": 0, "is_disabled": 0, "fusion_lat": 0.0}, {"fusion_lon": 0.0, "bike_id": "6c7d4cbcf677356eb2ec6753dfaf2b64", "name": "6c7d4cbcf677356eb2ec6753dfaf2b64", "type": "electric_scooter", "lon": -77.0447295, "rental_uris": {"android": "https://dc.lft.to/lastmile_qr_scan", "ios": "https://dc.lft.to/lastmile_qr_scan"}, "lat": 38.907189333333335, "is_reserved": 0, "is_disabled": 0, "fusion_lat": 0.0}, {"fusion_lon": 0.0, "bike_id": "51aa2a388a6a35537214c541f8be3fe0", "name": "51aa2a388a6a35537214c541f8be3fe0", "type": "electric_scooter", "lon": -77.02602766666666, "rental_uris": {"android": "https://dc.lft.to/lastmile_qr_scan", "ios": "https://dc.lft.to/lastmile_qr_scan"}, "lat": 38.9000905, "is_reserved": 0, "is_disabled": 0, "fusion_lat": 0.0}, {"fusion_lon": 0.0, "bike_id": "b8a3db73d11deb2e3faa522d5d1013d3", "name": "b8a3db73d11deb2e3faa522d5d1013d3", "type": "electric_bike", "lon": -76.990708, "rental_uris": {"android": "https://dc.lft.to/lastmile_qr_scan", "ios": "https://dc.lft.to/lastmile_qr_scan"}, "lat": 38.8981665, "is_reserved": 0, "is_disabled": 0, "fusion_lat": 0.0}, {"fusion_lon": 0.0, "bike_id": "b571b0821adac9354eaa2d48af926420", "name": "b571b0821adac9354eaa2d48af926420", "type": "electric_scooter", "lon": -77.02960333333333, "rental_uris": {"android": "https://dc.lft.to/lastmile_qr_scan", "ios": "https://dc.lft.to/lastmile_qr_scan"}, "lat": 38.92140783333333, "is_reserved": 0, "is_disabled": 0, "fusion_lat": 0.0}, {"fusion_lon": 0.0, "bike_id": "c8d1a6da874514ba750c8faee5e61eed", "name": "c8d1a6da874514ba750c8faee5e61eed", "type": "electric_scooter", "lon": -77.02644366666667, "rental_uris": {"android": "https://dc.lft.to/lastmile_qr_scan", "ios": "https://dc.lft.to/lastmile_qr_scan"}, "lat": 38.90266366666667, "is_reserved": 0, "is_disabled": 0, "fusion_lat": 0.0}, {"fusion_lon": 0.0, "bike_id": "b8170ea50be88b560fda409db6600b70", "name": "b8170ea50be88b560fda409db6600b70", "type": "electric_scooter", "lon": -77.02489316666667, "rental_uris": {"android": "https://dc.lft.to/lastmile_qr_scan", "ios": "https://dc.lft.to/lastmile_qr_scan"}, "lat": 38.941954833333334, "is_reserved": 0, "is_disabled": 0, "fusion_lat": 0.0}, {"fusion_lon": 0.0, "bike_id": "9c89f41eb523f19d513e26f7049a0f6e", "name": "9c89f41eb523f19d513e26f7049a0f6e", "type": "electric_scooter", "lon": -77.0034735, "rental_uris": {"android": "https://dc.lft.to/lastmile_qr_scan", "ios": "https://dc.lft.to/lastmile_qr_scan"}, "lat": 38.896883833333334, "is_reserved": 0, "is_disabled": 0, "fusion_lat": 0.0}, {"fusion_lon": 0.0, "bike_id": "350f857efc16e1c00068b52d289008c4", "name": "350f857efc16e1c00068b52d289008c4", "type": "electric_bike", "lon": -76.99484166666667, "rental_uris": {"android": "https://dc.lft.to/lastmile_qr_scan", "ios": "https://dc.lft.to/lastmile_qr_scan"}, "lat": 38.877328, "is_reserved": 0, "is_disabled": 0, "fusion_lat": 0.0}, {"fusion_lon": 0.0, "bike_id": "62b4f49168e3a567b46352792f0daad2", "name": "62b4f49168e3a567b46352792f0daad2", "type": "electric_scooter", "lon": -76.99000916666667, "rental_uris": {"android": "https://dc.lft.to/lastmile_qr_scan", "ios": "https://dc.lft.to/lastmile_qr_scan"}, "lat": 38.86506116666666, "is_reserved": 0, "is_disabled": 0, "fusion_lat": 0.0}, {"fusion_lon": 0.0, "bike_id": "941b9a8e7e9a7b172009404ea41005c4", "name": "941b9a8e7e9a7b172009404ea41005c4", "type": "electric_scooter", "lon": -76.93434033333334, "rental_uris": {"android": "https://dc.lft.to/lastmile_qr_scan", "ios": "https://dc.lft.to/lastmile_qr_scan"}, "lat": 38.8995915, "is_reserved": 0, "is_disabled": 0, "fusion_lat": 0.0}, {"fusion_lon": 0.0, "bike_id": "2b79a9a9436697d62ab5df40ac875174", "name": "2b79a9a9436697d62ab5df40ac875174", "type": "electric_bike", "lon": -76.98328366666667, "rental_uris": {"android": "https://dc.lft.to/lastmile_qr_scan", "ios": "https://dc.lft.to/lastmile_qr_scan"}, "lat": 38.96602466666667, "is_reserved": 0, "is_disabled": 0, "fusion_lat": 0.0}, {"fusion_lon": 0.0, "bike_id": "0a9fd435e5ae888ad0e3aa36a0153529", "name": "0a9fd435e5ae888ad0e3aa36a0153529", "type": "electric_scooter", "lon": -77.0370605, "rental_uris": {"android": "https://dc.lft.to/lastmile_qr_scan", "ios": "https://dc.lft.to/lastmile_qr_scan"}, "lat": 38.92642766666667, "is_reserved": 0, "is_disabled": 0, "fusion_lat": 0.0}, {"fusion_lon": 0.0, "bike_id": "ff66a23ee1d11699c5066c7746de06ba", "name": "ff66a23ee1d11699c5066c7746de06ba", "type": "electric_scooter", "lon": -77.02230583333333, "rental_uris": {"android": "https://dc.lft.to/lastmile_qr_scan", "ios": "https://dc.lft.to/lastmile_qr_scan"}, "lat": 38.88770233333334, "is_reserved": 0, "is_disabled": 0, "fusion_lat": 0.0}, {"fusion_lon": 0.0, "bike_id": "7f005688fe9f277174c7d86f8913e403", "name": "7f005688fe9f277174c7d86f8913e403", "type": "electric_scooter", "lon": -77.03211433333334, "rental_uris": {"android": "https://dc.lft.to/lastmile_qr_scan", "ios": "https://dc.lft.to/lastmile_qr_scan"}, "lat": 38.91501683333333, "is_reserved": 0, "is_disabled": 0, "fusion_lat": 0.0}, {"fusion_lon": 0.0, "bike_id": "ed514447c7153e7eeaba1a2e5ec57aa0", "name": "ed514447c7153e7eeaba1a2e5ec57aa0", "type": "electric_scooter", "lon": -76.94875666666667, "rental_uris": {"android": "https://dc.lft.to/lastmile_qr_scan", "ios": "https://dc.lft.to/lastmile_qr_scan"}, "lat": 38.89587733333333, "is_reserved": 0, "is_disabled": 0, "fusion_lat": 0.0}, {"fusion_lon": 0.0, "bike_id": "35ed27ed15087b9e39607c68c76c0251", "name": "35ed27ed15087b9e39607c68c76c0251", "type": "electric_scooter", "lon": -77.02279116666666, "rental_uris": {"android": "https://dc.lft.to/lastmile_qr_scan", "ios": "https://dc.lft.to/lastmile_qr_scan"}, "lat": 38.916911999999996, "is_reserved": 0, "is_disabled": 0, "fusion_lat": 0.0}, {"fusion_lon": 0.0, "bike_id": "c5735de6a0d0f5f661d1d3f9f7945718", "name": "c5735de6a0d0f5f661d1d3f9f7945718", "type": "electric_scooter", "lon": -77.053053, "rental_uris": {"android": "https://dc.lft.to/lastmile_qr_scan", "ios": "https://dc.lft.to/lastmile_qr_scan"}, "lat": 38.927798, "is_reserved": 0, "is_disabled": 0, "fusion_lat": 0.0}, {"fusion_lon": 0.0, "bike_id": "860725025fe5d6fcdfe108854398a5d7", "name": "860725025fe5d6fcdfe108854398a5d7", "type": "electric_scooter", "lon": -77.0319195, "rental_uris": {"android": "https://dc.lft.to/lastmile_qr_scan", "ios": "https://dc.lft.to/lastmile_qr_scan"}, "lat": 38.90769683333333, "is_reserved": 0, "is_disabled": 0, "fusion_lat": 0.0}, {"fusion_lon": 0.0, "bike_id": "dce8ac12d365e3a6fc03e3264cb5730f", "name": "dce8ac12d365e3a6fc03e3264cb5730f", "type": "electric_scooter", "lon": -77.02849716666667, "rental_uris": {"android": "https://dc.lft.to/lastmile_qr_scan", "ios": "https://dc.lft.to/lastmile_qr_scan"}, "lat": 38.92215366666667, "is_reserved": 0, "is_disabled": 0, "fusion_lat": 0.0}, {"fusion_lon": 0.0, "bike_id": "58e78ada0a3736864d2e2064e26acb26", "name": "58e78ada0a3736864d2e2064e26acb26", "type": "electric_scooter", "lon": -77.06345016666667, "rental_uris": {"android": "https://dc.lft.to/lastmile_qr_scan", "ios": "https://dc.lft.to/lastmile_qr_scan"}, "lat": 38.91334883333333, "is_reserved": 0, "is_disabled": 0, "fusion_lat": 0.0}, {"fusion_lon": 0.0, "bike_id": "526e20c30fefb53aab9833066819272a", "name": "526e20c30fefb53aab9833066819272a", "type": "electric_scooter", "lon": -76.94653183333334, "rental_uris": {"android": "https://dc.lft.to/lastmile_qr_scan", "ios": "https://dc.lft.to/lastmile_qr_scan"}, "lat": 38.898238, "is_reserved": 0, "is_disabled": 0, "fusion_lat": 0.0}, {"fusion_lon": 0.0, "bike_id": "bf90c8e1864575f251154b5156c365b6", "name": "bf90c8e1864575f251154b5156c365b6", "type": "electric_scooter", "lon": -77.03195866666667, "rental_uris": {"android": "https://dc.lft.to/lastmile_qr_scan", "ios": "https://dc.lft.to/lastmile_qr_scan"}, "lat": 38.919295, "is_reserved": 0, "is_disabled": 0, "fusion_lat": 0.0}, {"fusion_lon": 0.0, "bike_id": "4b0f244f211ea9b326e59f141c742e8e", "name": "4b0f244f211ea9b326e59f141c742e8e", "type": "electric_scooter", "lon": -77.0483765, "rental_uris": {"android": "https://dc.lft.to/lastmile_qr_scan", "ios": "https://dc.lft.to/lastmile_qr_scan"}, "lat": 38.898362666666664, "is_reserved": 0, "is_disabled": 0, "fusion_lat": 0.0}, {"fusion_lon": 0.0, "bike_id": "cd21638119ea432636b9c90b5ea4b8df", "name": "cd21638119ea432636b9c90b5ea4b8df", "type": "electric_bike", "lon": -77.35311783333333, "rental_uris": {"android": "https://dc.lft.to/lastmile_qr_scan", "ios": "https://dc.lft.to/lastmile_qr_scan"}, "lat": 38.95002916666667, "is_reserved": 0, "is_disabled": 0, "fusion_lat": 0.0}, {"fusion_lon": 0.0, "bike_id": "b60844c3b2ac24fb6d89745347fad2b9", "name": "b60844c3b2ac24fb6d89745347fad2b9", "type": "electric_scooter", "lon": -77.0400145, "rental_uris": {"android": "https://dc.lft.to/lastmile_qr_scan", "ios": "https://dc.lft.to/lastmile_qr_scan"}, "lat": 38.914115333333335, "is_reserved": 0, "is_disabled": 0, "fusion_lat": 0.0}, {"fusion_lon": 0.0, "bike_id": "8f748b3333ad70cb9ce9d07c2fad52e6", "name": "8f748b3333ad70cb9ce9d07c2fad52e6", "type": "electric_scooter", "lon": -76.99717516666666, "rental_uris": {"android": "https://dc.lft.to/lastmile_qr_scan", "ios": "https://dc.lft.to/lastmile_qr_scan"}, "lat": 38.911081, "is_reserved": 0, "is_disabled": 0, "fusion_lat": 0.0}, {"fusion_lon": 0.0, "bike_id": "a10a2f32cdf45b6e96a9ab1566eb3147", "name": "a10a2f32cdf45b6e96a9ab1566eb3147", "type": "electric_scooter", "lon": -77.02383516666667, "rental_uris": {"android": "https://dc.lft.to/lastmile_qr_scan", "ios": "https://dc.lft.to/lastmile_qr_scan"}, "lat": 38.892320166666664, "is_reserved": 0, "is_disabled": 0, "fusion_lat": 0.0}, {"fusion_lon": 0.0, "bike_id": "846f880e81c9c7558c99df4f95691c2d", "name": "846f880e81c9c7558c99df4f95691c2d", "type": "electric_bike", "lon": -77.12740166666667, "rental_uris": {"android": "https://dc.lft.to/lastmile_qr_scan", "ios": "https://dc.lft.to/lastmile_qr_scan"}, "lat": 38.89565233333333, "is_reserved": 0, "is_disabled": 0, "fusion_lat": 0.0}, {"fusion_lon": 0.0, "bike_id": "6cb6179f53efc2dba2fc48c2981c1bac", "name": "6cb6179f53efc2dba2fc48c2981c1bac", "type": "electric_scooter", "lon": -77.04488333333333, "rental_uris": {"android": "https://dc.lft.to/lastmile_qr_scan", "ios": "https://dc.lft.to/lastmile_qr_scan"}, "lat": 38.90534383333333, "is_reserved": 0, "is_disabled": 0, "fusion_lat": 0.0}, {"fusion_lon": 0.0, "bike_id": "4697dc48be3673781454777a166fc169", "name": "4697dc48be3673781454777a166fc169", "type": "electric_scooter", "lon": -77.02023183333333, "rental_uris": {"android": "https://dc.lft.to/lastmile_qr_scan", "ios": "https://dc.lft.to/lastmile_qr_scan"}, "lat": 38.913058666666664, "is_reserved": 0, "is_disabled": 0, "fusion_lat": 0.0}, {"fusion_lon": 0.0, "bike_id": "042c3011744c0d60bc455556680dbe07", "name": "042c3011744c0d60bc455556680dbe07", "type": "electric_scooter", "lon": -77.04997116666667, "rental_uris": {"android": "https://dc.lft.to/lastmile_qr_scan", "ios": "https://dc.lft.to/lastmile_qr_scan"}, "lat": 38.90152466666667, "is_reserved": 0, "is_disabled": 0, "fusion_lat": 0.0}, {"fusion_lon": 0.0, "bike_id": "3a255a9bece1c5ccb46e07e0139b89fe", "name": "3a255a9bece1c5ccb46e07e0139b89fe", "type": "electric_scooter", "lon": -77.01061883333334, "rental_uris": {"android": "https://dc.lft.to/lastmile_qr_scan", "ios": "https://dc.lft.to/lastmile_qr_scan"}, "lat": 38.872454166666664, "is_reserved": 0, "is_disabled": 0, "fusion_lat": 0.0}, {"fusion_lon": 0.0, "bike_id": "835126a49cbc7c8539c785288f1b55f5", "name": "835126a49cbc7c8539c785288f1b55f5", "type": "electric_scooter", "lon": -77.03071066666666, "rental_uris": {"android": "https://dc.lft.to/lastmile_qr_scan", "ios": "https://dc.lft.to/lastmile_qr_scan"}, "lat": 38.902413833333334, "is_reserved": 0, "is_disabled": 0, "fusion_lat": 0.0}, {"fusion_lon": 0.0, "bike_id": "9e406cfb3d046a99802eafd1d5df02d9", "name": "9e406cfb3d046a99802eafd1d5df02d9", "type": "electric_scooter", "lon": -77.03185533333334, "rental_uris": {"android": "https://dc.lft.to/lastmile_qr_scan", "ios": "https://dc.lft.to/lastmile_qr_scan"}, "lat": 38.891810166666666, "is_reserved": 0, "is_disabled": 0, "fusion_lat": 0.0}, {"fusion_lon": 0.0, "bike_id": "a9cde3ffcd8c80a150e6ecfbfd139756", "name": "a9cde3ffcd8c80a150e6ecfbfd139756", "type": "electric_scooter", "lon": -77.01586766666667, "rental_uris": {"android": "https://dc.lft.to/lastmile_qr_scan", "ios": "https://dc.lft.to/lastmile_qr_scan"}, "lat": 38.9284385, "is_reserved": 0, "is_disabled": 0, "fusion_lat": 0.0}, {"fusion_lon": 0.0, "bike_id": "c4685cb6933cf253b3b01fa3be004297", "name": "c4685cb6933cf253b3b01fa3be004297", "type": "electric_scooter", "lon": -77.01767033333333, "rental_uris": {"android": "https://dc.lft.to/lastmile_qr_scan", "ios": "https://dc.lft.to/lastmile_qr_scan"}, "lat": 38.921050666666666, "is_reserved": 0, "is_disabled": 0, "fusion_lat": 0.0}, {"fusion_lon": 0.0, "bike_id": "0c6ed08b16800c463511945eaa1d3ac4", "name": "0c6ed08b16800c463511945eaa1d3ac4", "type": "electric_scooter", "lon": -76.98922516666667, "rental_uris": {"android": "https://dc.lft.to/lastmile_qr_scan", "ios": "https://dc.lft.to/lastmile_qr_scan"}, "lat": 38.8820385, "is_reserved": 0, "is_disabled": 0, "fusion_lat": 0.0}, {"fusion_lon": 0.0, "bike_id": "a949b5610e4a09805ebfa10e93c4dd14", "name": "a949b5610e4a09805ebfa10e93c4dd14", "type": "electric_scooter", "lon": -77.02714633333333, "rental_uris": {"android": "https://dc.lft.to/lastmile_qr_scan", "ios": "https://dc.lft.to/lastmile_qr_scan"}, "lat": 38.919593, "is_reserved": 0, "is_disabled": 0, "fusion_lat": 0.0}, {"fusion_lon": 0.0, "bike_id": "c9aed609bc353d965914dd4bb6c208b0", "name": "c9aed609bc353d965914dd4bb6c208b0", "type": "electric_scooter", "lon": -77.02471716666666, "rental_uris": {"android": "https://dc.lft.to/lastmile_qr_scan", "ios": "https://dc.lft.to/lastmile_qr_scan"}, "lat": 38.8973545, "is_reserved": 0, "is_disabled": 0, "fusion_lat": 0.0}, {"fusion_lon": 0.0, "bike_id": "c17dcefe85ccfe38fff0640fb8ca9123", "name": "c17dcefe85ccfe38fff0640fb8ca9123", "type": "electric_scooter", "lon": -77.04978483333333, "rental_uris": {"android": "https://dc.lft.to/lastmile_qr_scan", "ios": "https://dc.lft.to/lastmile_qr_scan"}, "lat": 38.89607433333333, "is_reserved": 0, "is_disabled": 0, "fusion_lat": 0.0}, {"fusion_lon": 0.0, "bike_id": "a2c6a90788c506dec18cac9a90b0b9c9", "name": "a2c6a90788c506dec18cac9a90b0b9c9", "type": "electric_scooter", "lon": -77.02479766666667, "rental_uris": {"android": "https://dc.lft.to/lastmile_qr_scan", "ios": "https://dc.lft.to/lastmile_qr_scan"}, "lat": 38.93877333333333, "is_reserved": 0, "is_disabled": 0, "fusion_lat": 0.0}, {"fusion_lon": 0.0, "bike_id": "9f62d368e1a2502b5f99e46578bc02ad", "name": "9f62d368e1a2502b5f99e46578bc02ad", "type": "electric_scooter", "lon": -77.03333716666667, "rental_uris": {"android": "https://dc.lft.to/lastmile_qr_scan", "ios": "https://dc.lft.to/lastmile_qr_scan"}, "lat": 38.92887133333333, "is_reserved": 0, "is_disabled": 0, "fusion_lat": 0.0}, {"fusion_lon": 0.0, "bike_id": "7db5bd770e3b318554eab6f4ebfcc1a2", "name": "7db5bd770e3b318554eab6f4ebfcc1a2", "type": "electric_scooter", "lon": -77.04182316666666, "rental_uris": {"android": "https://dc.lft.to/lastmile_qr_scan", "ios": "https://dc.lft.to/lastmile_qr_scan"}, "lat": 38.912645833333336, "is_reserved": 0, "is_disabled": 0, "fusion_lat": 0.0}, {"fusion_lon": 0.0, "bike_id": "cfbca2b6a0b23c1b5a312955329fa29f", "name": "cfbca2b6a0b23c1b5a312955329fa29f", "type": "electric_scooter", "lon": -77.0249695, "rental_uris": {"android": "https://dc.lft.to/lastmile_qr_scan", "ios": "https://dc.lft.to/lastmile_qr_scan"}, "lat": 38.92060216666667, "is_reserved": 0, "is_disabled": 0, "fusion_lat": 0.0}, {"fusion_lon": 0.0, "bike_id": "2b3e396925ef8cd636e0d08176769f67", "name": "2b3e396925ef8cd636e0d08176769f67", "type": "electric_scooter", "lon": -77.02789883333334, "rental_uris": {"android": "https://dc.lft.to/lastmile_qr_scan", "ios": "https://dc.lft.to/lastmile_qr_scan"}, "lat": 38.926793, "is_reserved": 0, "is_disabled": 0, "fusion_lat": 0.0}, {"fusion_lon": 0.0, "bike_id": "95df9f2fe05f52c195dd163d1442424b", "name": "95df9f2fe05f52c195dd163d1442424b", "type": "electric_scooter", "lon": -76.965281, "rental_uris": {"android": "https://dc.lft.to/lastmile_qr_scan", "ios": "https://dc.lft.to/lastmile_qr_scan"}, "lat": 38.87627833333333, "is_reserved": 0, "is_disabled": 0, "fusion_lat": 0.0}, {"fusion_lon": 0.0, "bike_id": "7253fe18fc11ad1c021ee2a692f68dee", "name": "7253fe18fc11ad1c021ee2a692f68dee", "type": "electric_scooter", "lon": -77.026374, "rental_uris": {"android": "https://dc.lft.to/lastmile_qr_scan", "ios": "https://dc.lft.to/lastmile_qr_scan"}, "lat": 38.98053566666667, "is_reserved": 0, "is_disabled": 0, "fusion_lat": 0.0}, {"fusion_lon": 0.0, "bike_id": "017f07fff1c61fa075f873304bc8141b", "name": "017f07fff1c61fa075f873304bc8141b", "type": "electric_scooter", "lon": -77.01562783333334, "rental_uris": {"android": "https://dc.lft.to/lastmile_qr_scan", "ios": "https://dc.lft.to/lastmile_qr_scan"}, "lat": 38.891755, "is_reserved": 0, "is_disabled": 0, "fusion_lat": 0.0}, {"fusion_lon": 0.0, "bike_id": "125c6fc2afbcd74ac657e06709ec9838", "name": "125c6fc2afbcd74ac657e06709ec9838", "type": "electric_scooter", "lon": -77.06884166666667, "rental_uris": {"android": "https://dc.lft.to/lastmile_qr_scan", "ios": "https://dc.lft.to/lastmile_qr_scan"}, "lat": 38.9051265, "is_reserved": 0, "is_disabled": 0, "fusion_lat": 0.0}, {"fusion_lon": 0.0, "bike_id": "5ac5591d7c6a5ae30bd4477a09f54dc7", "name": "5ac5591d7c6a5ae30bd4477a09f54dc7", "type": "electric_bike", "lon": -76.9457205, "rental_uris": {"android": "https://dc.lft.to/lastmile_qr_scan", "ios": "https://dc.lft.to/lastmile_qr_scan"}, "lat": 38.866223833333336, "is_reserved": 0, "is_disabled": 0, "fusion_lat": 0.0}, {"fusion_lon": 0.0, "bike_id": "b698117ddcacd5c52203bec523aa4708", "name": "b698117ddcacd5c52203bec523aa4708", "type": "electric_scooter", "lon": -77.00060466666666, "rental_uris": {"android": "https://dc.lft.to/lastmile_qr_scan", "ios": "https://dc.lft.to/lastmile_qr_scan"}, "lat": 38.888976, "is_reserved": 0, "is_disabled": 0, "fusion_lat": 0.0}, {"fusion_lon": 0.0, "bike_id": "956355e72badfe57045297e4518720a3", "name": "956355e72badfe57045297e4518720a3", "type": "electric_scooter", "lon": -76.99682366666667, "rental_uris": {"android": "https://dc.lft.to/lastmile_qr_scan", "ios": "https://dc.lft.to/lastmile_qr_scan"}, "lat": 38.88698733333333, "is_reserved": 0, "is_disabled": 0, "fusion_lat": 0.0}, {"fusion_lon": 0.0, "bike_id": "6ed61744ec1b0f5f10ac79dd6dff4d42", "name": "6ed61744ec1b0f5f10ac79dd6dff4d42", "type": "electric_scooter", "lon": -77.02605516666667, "rental_uris": {"android": "https://dc.lft.to/lastmile_qr_scan", "ios": "https://dc.lft.to/lastmile_qr_scan"}, "lat": 38.924425166666666, "is_reserved": 0, "is_disabled": 0, "fusion_lat": 0.0}, {"fusion_lon": 0.0, "bike_id": "9ecbe27a3bdb5d62ee9009b01fb1b0f1", "name": "9ecbe27a3bdb5d62ee9009b01fb1b0f1", "type": "electric_scooter", "lon": -77.062149, "rental_uris": {"android": "https://dc.lft.to/lastmile_qr_scan", "ios": "https://dc.lft.to/lastmile_qr_scan"}, "lat": 38.90526533333333, "is_reserved": 0, "is_disabled": 0, "fusion_lat": 0.0}, {"fusion_lon": 0.0, "bike_id": "1696283d70eb7382ae08badcccd96d43", "name": "1696283d70eb7382ae08badcccd96d43", "type": "electric_scooter", "lon": -77.03104666666667, "rental_uris": {"android": "https://dc.lft.to/lastmile_qr_scan", "ios": "https://dc.lft.to/lastmile_qr_scan"}, "lat": 38.92973283333333, "is_reserved": 0, "is_disabled": 0, "fusion_lat": 0.0}, {"fusion_lon": 0.0, "bike_id": "f3131acecc95a964bcbb5067e39d2d8d", "name": "f3131acecc95a964bcbb5067e39d2d8d", "type": "electric_scooter", "lon": -77.03205733333333, "rental_uris": {"android": "https://dc.lft.to/lastmile_qr_scan", "ios": "https://dc.lft.to/lastmile_qr_scan"}, "lat": 38.918505833333334, "is_reserved": 0, "is_disabled": 0, "fusion_lat": 0.0}, {"fusion_lon": 0.0, "bike_id": "5cb52646d840b63e97ec67b5c3103689", "name": "5cb52646d840b63e97ec67b5c3103689", "type": "electric_scooter", "lon": -77.04655783333334, "rental_uris": {"android": "https://dc.lft.to/lastmile_qr_scan", "ios": "https://dc.lft.to/lastmile_qr_scan"}, "lat": 38.90009383333334, "is_reserved": 0, "is_disabled": 0, "fusion_lat": 0.0}, {"fusion_lon": 0.0, "bike_id": "e62647b796848a10be68298b0c204260", "name": "e62647b796848a10be68298b0c204260", "type": "electric_scooter", "lon": -77.01999733333334, "rental_uris": {"android": "https://dc.lft.to/lastmile_qr_scan", "ios": "https://dc.lft.to/lastmile_qr_scan"}, "lat": 38.96638, "is_reserved": 0, "is_disabled": 0, "fusion_lat": 0.0}, {"fusion_lon": 0.0, "bike_id": "8fe9680bd9aae18ee7e19b92cd2d5c83", "name": "8fe9680bd9aae18ee7e19b92cd2d5c83", "type": "electric_scooter", "lon": -76.99361999999999, "rental_uris": {"android": "https://dc.lft.to/lastmile_qr_scan", "ios": "https://dc.lft.to/lastmile_qr_scan"}, "lat": 38.928415666666666, "is_reserved": 0, "is_disabled": 0, "fusion_lat": 0.0}, {"fusion_lon": 0.0, "bike_id": "c8200785fa46553733833ce306babb81", "name": "c8200785fa46553733833ce306babb81", "type": "electric_scooter", "lon": -77.02313983333333, "rental_uris": {"android": "https://dc.lft.to/lastmile_qr_scan", "ios": "https://dc.lft.to/lastmile_qr_scan"}, "lat": 38.917258, "is_reserved": 0, "is_disabled": 0, "fusion_lat": 0.0}, {"fusion_lon": 0.0, "bike_id": "96bacf027eb5b52c1675ede40804a618", "name": "96bacf027eb5b52c1675ede40804a618", "type": "electric_scooter", "lon": -76.99079433333333, "rental_uris": {"android": "https://dc.lft.to/lastmile_qr_scan", "ios": "https://dc.lft.to/lastmile_qr_scan"}, "lat": 38.860509666666665, "is_reserved": 0, "is_disabled": 0, "fusion_lat": 0.0}, {"fusion_lon": 0.0, "bike_id": "2265ffa45d97a1c188cf5dfa6d5927c8", "name": "2265ffa45d97a1c188cf5dfa6d5927c8", "type": "electric_scooter", "lon": -77.0221885, "rental_uris": {"android": "https://dc.lft.to/lastmile_qr_scan", "ios": "https://dc.lft.to/lastmile_qr_scan"}, "lat": 38.8922355, "is_reserved": 0, "is_disabled": 0, "fusion_lat": 0.0}, {"fusion_lon": 0.0, "bike_id": "05b251a8332380dfb59ee22716703093", "name": "05b251a8332380dfb59ee22716703093", "type": "electric_scooter", "lon": -76.990054, "rental_uris": {"android": "https://dc.lft.to/lastmile_qr_scan", "ios": "https://dc.lft.to/lastmile_qr_scan"}, "lat": 38.86506166666667, "is_reserved": 0, "is_disabled": 0, "fusion_lat": 0.0}, {"fusion_lon": 0.0, "bike_id": "541f702b701a47dd63fb2d67de8dc66a", "name": "541f702b701a47dd63fb2d67de8dc66a", "type": "electric_scooter", "lon": -77.01203883333334, "rental_uris": {"android": "https://dc.lft.to/lastmile_qr_scan", "ios": "https://dc.lft.to/lastmile_qr_scan"}, "lat": 38.9258895, "is_reserved": 0, "is_disabled": 0, "fusion_lat": 0.0}, {"fusion_lon": 0.0, "bike_id": "1aebff2d64367f237cdc60e11666eadc", "name": "1aebff2d64367f237cdc60e11666eadc", "type": "electric_bike", "lon": -76.93905316666667, "rental_uris": {"android": "https://dc.lft.to/lastmile_qr_scan", "ios": "https://dc.lft.to/lastmile_qr_scan"}, "lat": 38.95621583333333, "is_reserved": 0, "is_disabled": 0, "fusion_lat": 0.0}, {"fusion_lon": 0.0, "bike_id": "0224e7c008e6ba3ba53d9acb9d6164cd", "name": "0224e7c008e6ba3ba53d9acb9d6164cd", "type": "electric_scooter", "lon": -77.03147383333334, "rental_uris": {"android": "https://dc.lft.to/lastmile_qr_scan", "ios": "https://dc.lft.to/lastmile_qr_scan"}, "lat": 38.931876833333334, "is_reserved": 0, "is_disabled": 0, "fusion_lat": 0.0}, {"fusion_lon": 0.0, "bike_id": "14a4c1c7655072cc43f9bd9aaa81f6c2", "name": "14a4c1c7655072cc43f9bd9aaa81f6c2", "type": "electric_scooter", "lon": -76.93752916666666, "rental_uris": {"android": "https://dc.lft.to/lastmile_qr_scan", "ios": "https://dc.lft.to/lastmile_qr_scan"}, "lat": 38.8903455, "is_reserved": 0, "is_disabled": 0, "fusion_lat": 0.0}, {"fusion_lon": 0.0, "bike_id": "ea9c498e4941b0009b4697514808ee13", "name": "ea9c498e4941b0009b4697514808ee13", "type": "electric_scooter", "lon": -76.99631933333333, "rental_uris": {"android": "https://dc.lft.to/lastmile_qr_scan", "ios": "https://dc.lft.to/lastmile_qr_scan"}, "lat": 38.846201666666666, "is_reserved": 0, "is_disabled": 0, "fusion_lat": 0.0}, {"fusion_lon": 0.0, "bike_id": "05bf62ccd5b9e65fdb1463e49a9cadea", "name": "05bf62ccd5b9e65fdb1463e49a9cadea", "type": "electric_scooter", "lon": -77.046491, "rental_uris": {"android": "https://dc.lft.to/lastmile_qr_scan", "ios": "https://dc.lft.to/lastmile_qr_scan"}, "lat": 38.892317166666665, "is_reserved": 0, "is_disabled": 0, "fusion_lat": 0.0}, {"fusion_lon": 0.0, "bike_id": "00af39aa90e7ccb086a4a78dd1ef91e0", "name": "00af39aa90e7ccb086a4a78dd1ef91e0", "type": "electric_scooter", "lon": -77.01207016666666, "rental_uris": {"android": "https://dc.lft.to/lastmile_qr_scan", "ios": "https://dc.lft.to/lastmile_qr_scan"}, "lat": 38.895361666666666, "is_reserved": 0, "is_disabled": 0, "fusion_lat": 0.0}, {"fusion_lon": 0.0, "bike_id": "b2354839989a5f0c4d2756a24a681782", "name": "b2354839989a5f0c4d2756a24a681782", "type": "electric_scooter", "lon": -77.02319166666666, "rental_uris": {"android": "https://dc.lft.to/lastmile_qr_scan", "ios": "https://dc.lft.to/lastmile_qr_scan"}, "lat": 38.87880583333333, "is_reserved": 0, "is_disabled": 0, "fusion_lat": 0.0}, {"fusion_lon": 0.0, "bike_id": "1b89ccb72d620e9299282e7882708a0b", "name": "1b89ccb72d620e9299282e7882708a0b", "type": "electric_scooter", "lon": -77.01754616666666, "rental_uris": {"android": "https://dc.lft.to/lastmile_qr_scan", "ios": "https://dc.lft.to/lastmile_qr_scan"}, "lat": 38.9135475, "is_reserved": 0, "is_disabled": 0, "fusion_lat": 0.0}, {"fusion_lon": 0.0, "bike_id": "55c9db6f6a61921cc3639b2749fa7a06", "name": "55c9db6f6a61921cc3639b2749fa7a06", "type": "electric_bike", "lon": -77.04618033333334, "rental_uris": {"android": "https://dc.lft.to/lastmile_qr_scan", "ios": "https://dc.lft.to/lastmile_qr_scan"}, "lat": 38.90995866666667, "is_reserved": 0, "is_disabled": 0, "fusion_lat": 0.0}, {"fusion_lon": 0.0, "bike_id": "bc4bd1226eeffc4e20ef276332e65a24", "name": "bc4bd1226eeffc4e20ef276332e65a24", "type": "electric_scooter", "lon": -77.01774766666666, "rental_uris": {"android": "https://dc.lft.to/lastmile_qr_scan", "ios": "https://dc.lft.to/lastmile_qr_scan"}, "lat": 38.920981166666664, "is_reserved": 0, "is_disabled": 0, "fusion_lat": 0.0}, {"fusion_lon": 0.0, "bike_id": "2cf20dc54a31b6927ae9e907d974eefa", "name": "2cf20dc54a31b6927ae9e907d974eefa", "type": "electric_scooter", "lon": -77.0315165, "rental_uris": {"android": "https://dc.lft.to/lastmile_qr_scan", "ios": "https://dc.lft.to/lastmile_qr_scan"}, "lat": 38.9280975, "is_reserved": 0, "is_disabled": 0, "fusion_lat": 0.0}, {"fusion_lon": 0.0, "bike_id": "4bf4e1b9756667dcd960f9c59236359a", "name": "4bf4e1b9756667dcd960f9c59236359a", "type": "electric_scooter", "lon": -77.00518183333334, "rental_uris": {"android": "https://dc.lft.to/lastmile_qr_scan", "ios": "https://dc.lft.to/lastmile_qr_scan"}, "lat": 38.8747235, "is_reserved": 0, "is_disabled": 0, "fusion_lat": 0.0}, {"fusion_lon": 0.0, "bike_id": "13b97d33879d841a783ad3a168f89cbd", "name": "13b97d33879d841a783ad3a168f89cbd", "type": "electric_scooter", "lon": -76.98033783333334, "rental_uris": {"android": "https://dc.lft.to/lastmile_qr_scan", "ios": "https://dc.lft.to/lastmile_qr_scan"}, "lat": 38.9078615, "is_reserved": 0, "is_disabled": 0, "fusion_lat": 0.0}, {"fusion_lon": 0.0, "bike_id": "6f05490640a166f0a46cb05a79e64e32", "name": "6f05490640a166f0a46cb05a79e64e32", "type": "electric_bike", "lon": -76.98751066666667, "rental_uris": {"android": "https://dc.lft.to/lastmile_qr_scan", "ios": "https://dc.lft.to/lastmile_qr_scan"}, "lat": 38.98825033333333, "is_reserved": 0, "is_disabled": 0, "fusion_lat": 0.0}, {"fusion_lon": 0.0, "bike_id": "736047fb7b6b2fddd6a786357fb9a883", "name": "736047fb7b6b2fddd6a786357fb9a883", "type": "electric_scooter", "lon": -76.99861816666666, "rental_uris": {"android": "https://dc.lft.to/lastmile_qr_scan", "ios": "https://dc.lft.to/lastmile_qr_scan"}, "lat": 38.908959833333334, "is_reserved": 0, "is_disabled": 0, "fusion_lat": 0.0}, {"fusion_lon": 0.0, "bike_id": "237df26a74aa03661bd5934194e12c5e", "name": "237df26a74aa03661bd5934194e12c5e", "type": "electric_scooter", "lon": -77.0272305, "rental_uris": {"android": "https://dc.lft.to/lastmile_qr_scan", "ios": "https://dc.lft.to/lastmile_qr_scan"}, "lat": 38.906712, "is_reserved": 0, "is_disabled": 0, "fusion_lat": 0.0}, {"fusion_lon": 0.0, "bike_id": "2d942c778f030ce952b2320a81e59e98", "name": "2d942c778f030ce952b2320a81e59e98", "type": "electric_scooter", "lon": -77.01288566666666, "rental_uris": {"android": "https://dc.lft.to/lastmile_qr_scan", "ios": "https://dc.lft.to/lastmile_qr_scan"}, "lat": 38.89983183333333, "is_reserved": 0, "is_disabled": 0, "fusion_lat": 0.0}, {"fusion_lon": 0.0, "bike_id": "c5b2311fe232d42cf554bb67ccc2e52c", "name": "c5b2311fe232d42cf554bb67ccc2e52c", "type": "electric_scooter", "lon": -77.017569, "rental_uris": {"android": "https://dc.lft.to/lastmile_qr_scan", "ios": "https://dc.lft.to/lastmile_qr_scan"}, "lat": 38.91667183333333, "is_reserved": 0, "is_disabled": 0, "fusion_lat": 0.0}, {"fusion_lon": 0.0, "bike_id": "a8c7718525b0e1bdebfb1475ef4678d3", "name": "a8c7718525b0e1bdebfb1475ef4678d3", "type": "electric_bike", "lon": -77.0430455, "rental_uris": {"android": "https://dc.lft.to/lastmile_qr_scan", "ios": "https://dc.lft.to/lastmile_qr_scan"}, "lat": 39.054459666666666, "is_reserved": 0, "is_disabled": 0, "fusion_lat": 0.0}, {"fusion_lon": 0.0, "bike_id": "4b7fab770179a5eae688aba6244b386b", "name": "4b7fab770179a5eae688aba6244b386b", "type": "electric_scooter", "lon": -77.03650733333333, "rental_uris": {"android": "https://dc.lft.to/lastmile_qr_scan", "ios": "https://dc.lft.to/lastmile_qr_scan"}, "lat": 38.9030125, "is_reserved": 0, "is_disabled": 0, "fusion_lat": 0.0}, {"fusion_lon": 0.0, "bike_id": "f4549895a81859c621005d0c32350cfd", "name": "f4549895a81859c621005d0c32350cfd", "type": "electric_scooter", "lon": -76.98662416666667, "rental_uris": {"android": "https://dc.lft.to/lastmile_qr_scan", "ios": "https://dc.lft.to/lastmile_qr_scan"}, "lat": 38.90140066666667, "is_reserved": 0, "is_disabled": 0, "fusion_lat": 0.0}, {"fusion_lon": 0.0, "bike_id": "d3a4c599b9bb3ec8e24aacb930edd5c0", "name": "d3a4c599b9bb3ec8e24aacb930edd5c0", "type": "electric_scooter", "lon": -77.03845316666667, "rental_uris": {"android": "https://dc.lft.to/lastmile_qr_scan", "ios": "https://dc.lft.to/lastmile_qr_scan"}, "lat": 38.912088833333335, "is_reserved": 0, "is_disabled": 0, "fusion_lat": 0.0}, {"fusion_lon": 0.0, "bike_id": "7cbae9fd7dcb663d267725b98a5c2a0b", "name": "7cbae9fd7dcb663d267725b98a5c2a0b", "type": "electric_bike", "lon": -77.17846116666666, "rental_uris": {"android": "https://dc.lft.to/lastmile_qr_scan", "ios": "https://dc.lft.to/lastmile_qr_scan"}, "lat": 39.08900833333333, "is_reserved": 0, "is_disabled": 0, "fusion_lat": 0.0}, {"fusion_lon": 0.0, "bike_id": "343a8716c238fcab3ccd8532661a246e", "name": "343a8716c238fcab3ccd8532661a246e", "type": "electric_scooter", "lon": -77.0821055, "rental_uris": {"android": "https://dc.lft.to/lastmile_qr_scan", "ios": "https://dc.lft.to/lastmile_qr_scan"}, "lat": 38.935542166666664, "is_reserved": 0, "is_disabled": 0, "fusion_lat": 0.0}, {"fusion_lon": 0.0, "bike_id": "ae842eedd27218bd477f81ca19b6f81d", "name": "ae842eedd27218bd477f81ca19b6f81d", "type": "electric_scooter", "lon": -77.0417605, "rental_uris": {"android": "https://dc.lft.to/lastmile_qr_scan", "ios": "https://dc.lft.to/lastmile_qr_scan"}, "lat": 38.914107, "is_reserved": 0, "is_disabled": 0, "fusion_lat": 0.0}, {"fusion_lon": 0.0, "bike_id": "35908c177037482e275fbc6a99b9ee73", "name": "35908c177037482e275fbc6a99b9ee73", "type": "electric_scooter", "lon": -77.048624, "rental_uris": {"android": "https://dc.lft.to/lastmile_qr_scan", "ios": "https://dc.lft.to/lastmile_qr_scan"}, "lat": 38.89220733333333, "is_reserved": 0, "is_disabled": 0, "fusion_lat": 0.0}, {"fusion_lon": 0.0, "bike_id": "4919742d8824ad742e5765a320a2cf27", "name": "4919742d8824ad742e5765a320a2cf27", "type": "electric_scooter", "lon": -77.01376383333333, "rental_uris": {"android": "https://dc.lft.to/lastmile_qr_scan", "ios": "https://dc.lft.to/lastmile_qr_scan"}, "lat": 38.92850716666667, "is_reserved": 0, "is_disabled": 0, "fusion_lat": 0.0}, {"fusion_lon": 0.0, "bike_id": "1f007dfd74002a57ee2379b20b619da8", "name": "1f007dfd74002a57ee2379b20b619da8", "type": "electric_scooter", "lon": -77.02935383333333, "rental_uris": {"android": "https://dc.lft.to/lastmile_qr_scan", "ios": "https://dc.lft.to/lastmile_qr_scan"}, "lat": 38.90234683333333, "is_reserved": 0, "is_disabled": 0, "fusion_lat": 0.0}, {"fusion_lon": 0.0, "bike_id": "ece741450356cbc9a9bb6e9cb1a5fd86", "name": "ece741450356cbc9a9bb6e9cb1a5fd86", "type": "electric_scooter", "lon": -76.983354, "rental_uris": {"android": "https://dc.lft.to/lastmile_qr_scan", "ios": "https://dc.lft.to/lastmile_qr_scan"}, "lat": 38.9075185, "is_reserved": 0, "is_disabled": 0, "fusion_lat": 0.0}, {"fusion_lon": 0.0, "bike_id": "715ad12d993b8ffc00d358a5eaa6efb9", "name": "715ad12d993b8ffc00d358a5eaa6efb9", "type": "electric_scooter", "lon": -77.009119, "rental_uris": {"android": "https://dc.lft.to/lastmile_qr_scan", "ios": "https://dc.lft.to/lastmile_qr_scan"}, "lat": 38.912868833333334, "is_reserved": 0, "is_disabled": 0, "fusion_lat": 0.0}, {"fusion_lon": 0.0, "bike_id": "92db49edc1adee7c2921b6b186c0e7c0", "name": "92db49edc1adee7c2921b6b186c0e7c0", "type": "electric_scooter", "lon": -77.01972066666667, "rental_uris": {"android": "https://dc.lft.to/lastmile_qr_scan", "ios": "https://dc.lft.to/lastmile_qr_scan"}, "lat": 38.902641833333334, "is_reserved": 0, "is_disabled": 0, "fusion_lat": 0.0}, {"fusion_lon": 0.0, "bike_id": "2910b38dfe2bd810c090b09b69c2bc3e", "name": "2910b38dfe2bd810c090b09b69c2bc3e", "type": "electric_scooter", "lon": -77.035714, "rental_uris": {"android": "https://dc.lft.to/lastmile_qr_scan", "ios": "https://dc.lft.to/lastmile_qr_scan"}, "lat": 38.88178883333333, "is_reserved": 0, "is_disabled": 0, "fusion_lat": 0.0}, {"fusion_lon": 0.0, "bike_id": "f4f5157c481d5801863cd5ae7b5b74d9", "name": "f4f5157c481d5801863cd5ae7b5b74d9", "type": "electric_scooter", "lon": -77.03838616666667, "rental_uris": {"android": "https://dc.lft.to/lastmile_qr_scan", "ios": "https://dc.lft.to/lastmile_qr_scan"}, "lat": 38.917271, "is_reserved": 0, "is_disabled": 0, "fusion_lat": 0.0}, {"fusion_lon": 0.0, "bike_id": "ea12d5ebcab9b9994c98e81e589d3f26", "name": "ea12d5ebcab9b9994c98e81e589d3f26", "type": "electric_scooter", "lon": -77.04194616666666, "rental_uris": {"android": "https://dc.lft.to/lastmile_qr_scan", "ios": "https://dc.lft.to/lastmile_qr_scan"}, "lat": 38.89979983333333, "is_reserved": 0, "is_disabled": 0, "fusion_lat": 0.0}, {"fusion_lon": 0.0, "bike_id": "b673cabfa42cd25be7836b8d7c2ee9a2", "name": "b673cabfa42cd25be7836b8d7c2ee9a2", "type": "electric_scooter", "lon": -77.01052783333333, "rental_uris": {"android": "https://dc.lft.to/lastmile_qr_scan", "ios": "https://dc.lft.to/lastmile_qr_scan"}, "lat": 38.9067785, "is_reserved": 0, "is_disabled": 0, "fusion_lat": 0.0}, {"fusion_lon": 0.0, "bike_id": "347789f7bf37b7a700ec1aa347c9880b", "name": "347789f7bf37b7a700ec1aa347c9880b", "type": "electric_scooter", "lon": -77.02592783333333, "rental_uris": {"android": "https://dc.lft.to/lastmile_qr_scan", "ios": "https://dc.lft.to/lastmile_qr_scan"}, "lat": 38.94203133333333, "is_reserved": 0, "is_disabled": 0, "fusion_lat": 0.0}, {"fusion_lon": 0.0, "bike_id": "f5b21cc9afaab5adb4973d64c4865dc3", "name": "f5b21cc9afaab5adb4973d64c4865dc3", "type": "electric_bike", "lon": -76.96670766666666, "rental_uris": {"android": "https://dc.lft.to/lastmile_qr_scan", "ios": "https://dc.lft.to/lastmile_qr_scan"}, "lat": 38.95864683333333, "is_reserved": 0, "is_disabled": 0, "fusion_lat": 0.0}, {"fusion_lon": 0.0, "bike_id": "109eddafed0ef343150d162bc23a50ba", "name": "109eddafed0ef343150d162bc23a50ba", "type": "electric_scooter", "lon": -76.98880516666667, "rental_uris": {"android": "https://dc.lft.to/lastmile_qr_scan", "ios": "https://dc.lft.to/lastmile_qr_scan"}, "lat": 38.906345333333334, "is_reserved": 0, "is_disabled": 0, "fusion_lat": 0.0}, {"fusion_lon": 0.0, "bike_id": "fd604ec37e780ee0adc63e38c3ca6c66", "name": "fd604ec37e780ee0adc63e38c3ca6c66", "type": "electric_scooter", "lon": -77.04659133333334, "rental_uris": {"android": "https://dc.lft.to/lastmile_qr_scan", "ios": "https://dc.lft.to/lastmile_qr_scan"}, "lat": 38.893409166666665, "is_reserved": 0, "is_disabled": 0, "fusion_lat": 0.0}, {"fusion_lon": 0.0, "bike_id": "a30c334ac86c032ed2c71f71db0049ad", "name": "a30c334ac86c032ed2c71f71db0049ad", "type": "electric_scooter", "lon": -77.01918566666667, "rental_uris": {"android": "https://dc.lft.to/lastmile_qr_scan", "ios": "https://dc.lft.to/lastmile_qr_scan"}, "lat": 38.90268233333333, "is_reserved": 0, "is_disabled": 0, "fusion_lat": 0.0}, {"fusion_lon": 0.0, "bike_id": "fa4bdc840b9ba6ef6f5dac9b666bf76b", "name": "fa4bdc840b9ba6ef6f5dac9b666bf76b", "type": "electric_scooter", "lon": -77.04373316666667, "rental_uris": {"android": "https://dc.lft.to/lastmile_qr_scan", "ios": "https://dc.lft.to/lastmile_qr_scan"}, "lat": 38.925751166666664, "is_reserved": 0, "is_disabled": 0, "fusion_lat": 0.0}, {"fusion_lon": 0.0, "bike_id": "8e82935d2460956e5cde93986b8104c0", "name": "8e82935d2460956e5cde93986b8104c0", "type": "electric_scooter", "lon": -77.0187985, "rental_uris": {"android": "https://dc.lft.to/lastmile_qr_scan", "ios": "https://dc.lft.to/lastmile_qr_scan"}, "lat": 38.902776, "is_reserved": 0, "is_disabled": 0, "fusion_lat": 0.0}, {"fusion_lon": 0.0, "bike_id": "e3ae8ce5586aa7f71e5b65ed6d67aa7e", "name": "e3ae8ce5586aa7f71e5b65ed6d67aa7e", "type": "electric_bike", "lon": -76.98089683333333, "rental_uris": {"android": "https://dc.lft.to/lastmile_qr_scan", "ios": "https://dc.lft.to/lastmile_qr_scan"}, "lat": 38.9535445, "is_reserved": 0, "is_disabled": 0, "fusion_lat": 0.0}, {"fusion_lon": 0.0, "bike_id": "e064e094976ee2df74f203841c346093", "name": "e064e094976ee2df74f203841c346093", "type": "electric_bike", "lon": -77.08046616666667, "rental_uris": {"android": "https://dc.lft.to/lastmile_qr_scan", "ios": "https://dc.lft.to/lastmile_qr_scan"}, "lat": 38.84845116666666, "is_reserved": 0, "is_disabled": 0, "fusion_lat": 0.0}, {"fusion_lon": 0.0, "bike_id": "ee6eeedbd0b9b274973640158c987fbf", "name": "ee6eeedbd0b9b274973640158c987fbf", "type": "electric_scooter", "lon": -77.04664966666667, "rental_uris": {"android": "https://dc.lft.to/lastmile_qr_scan", "ios": "https://dc.lft.to/lastmile_qr_scan"}, "lat": 38.89900866666667, "is_reserved": 0, "is_disabled": 0, "fusion_lat": 0.0}, {"fusion_lon": 0.0, "bike_id": "24499e542eb3cf15d6c0a1c3f1152525", "name": "24499e542eb3cf15d6c0a1c3f1152525", "type": "electric_scooter", "lon": -77.02675733333334, "rental_uris": {"android": "https://dc.lft.to/lastmile_qr_scan", "ios": "https://dc.lft.to/lastmile_qr_scan"}, "lat": 38.898373, "is_reserved": 0, "is_disabled": 0, "fusion_lat": 0.0}, {"fusion_lon": 0.0, "bike_id": "4deba904dc668b18cd47969bc8394bf9", "name": "4deba904dc668b18cd47969bc8394bf9", "type": "electric_scooter", "lon": -77.05128083333334, "rental_uris": {"android": "https://dc.lft.to/lastmile_qr_scan", "ios": "https://dc.lft.to/lastmile_qr_scan"}, "lat": 38.92365083333333, "is_reserved": 0, "is_disabled": 0, "fusion_lat": 0.0}, {"fusion_lon": 0.0, "bike_id": "c8fc6287bb4241d4985717c29013a81d", "name": "c8fc6287bb4241d4985717c29013a81d", "type": "electric_scooter", "lon": -76.9945765, "rental_uris": {"android": "https://dc.lft.to/lastmile_qr_scan", "ios": "https://dc.lft.to/lastmile_qr_scan"}, "lat": 38.851555, "is_reserved": 0, "is_disabled": 0, "fusion_lat": 0.0}, {"fusion_lon": 0.0, "bike_id": "4190ae1edd69bc8f151ef68d368d3da0", "name": "4190ae1edd69bc8f151ef68d368d3da0", "type": "electric_scooter", "lon": -77.01159883333334, "rental_uris": {"android": "https://dc.lft.to/lastmile_qr_scan", "ios": "https://dc.lft.to/lastmile_qr_scan"}, "lat": 38.871975, "is_reserved": 0, "is_disabled": 0, "fusion_lat": 0.0}, {"fusion_lon": 0.0, "bike_id": "ec3253c2448984b913939ff573e580c5", "name": "ec3253c2448984b913939ff573e580c5", "type": "electric_scooter", "lon": -77.03212383333333, "rental_uris": {"android": "https://dc.lft.to/lastmile_qr_scan", "ios": "https://dc.lft.to/lastmile_qr_scan"}, "lat": 38.91349983333333, "is_reserved": 0, "is_disabled": 0, "fusion_lat": 0.0}, {"fusion_lon": 0.0, "bike_id": "d78f9e50a68f64eefc50b1437c358e5e", "name": "d78f9e50a68f64eefc50b1437c358e5e", "type": "electric_scooter", "lon": -77.01387383333334, "rental_uris": {"android": "https://dc.lft.to/lastmile_qr_scan", "ios": "https://dc.lft.to/lastmile_qr_scan"}, "lat": 38.928275, "is_reserved": 0, "is_disabled": 0, "fusion_lat": 0.0}, {"fusion_lon": 0.0, "bike_id": "d4d1494b35567152a6a6ca3c0835f192", "name": "d4d1494b35567152a6a6ca3c0835f192", "type": "electric_scooter", "lon": -76.9374215, "rental_uris": {"android": "https://dc.lft.to/lastmile_qr_scan", "ios": "https://dc.lft.to/lastmile_qr_scan"}, "lat": 38.8901265, "is_reserved": 0, "is_disabled": 0, "fusion_lat": 0.0}, {"fusion_lon": 0.0, "bike_id": "4376c35bf33a7956c847aa5da21fd002", "name": "4376c35bf33a7956c847aa5da21fd002", "type": "electric_scooter", "lon": -77.05195083333334, "rental_uris": {"android": "https://dc.lft.to/lastmile_qr_scan", "ios": "https://dc.lft.to/lastmile_qr_scan"}, "lat": 38.92551016666667, "is_reserved": 0, "is_disabled": 0, "fusion_lat": 0.0}, {"fusion_lon": 0.0, "bike_id": "e0ce8110345b488104e41855aa4b67dd", "name": "e0ce8110345b488104e41855aa4b67dd", "type": "electric_scooter", "lon": -76.95110083333333, "rental_uris": {"android": "https://dc.lft.to/lastmile_qr_scan", "ios": "https://dc.lft.to/lastmile_qr_scan"}, "lat": 38.88793366666667, "is_reserved": 0, "is_disabled": 0, "fusion_lat": 0.0}, {"fusion_lon": 0.0, "bike_id": "95cd0635107ac5ab2f5e87508ebd49bf", "name": "95cd0635107ac5ab2f5e87508ebd49bf", "type": "electric_scooter", "lon": -76.98318033333334, "rental_uris": {"android": "https://dc.lft.to/lastmile_qr_scan", "ios": "https://dc.lft.to/lastmile_qr_scan"}, "lat": 38.8881605, "is_reserved": 0, "is_disabled": 0, "fusion_lat": 0.0}, {"fusion_lon": 0.0, "bike_id": "a7ab0ac043935b1782ef0d741ec2e49e", "name": "a7ab0ac043935b1782ef0d741ec2e49e", "type": "electric_scooter", "lon": -77.02214866666667, "rental_uris": {"android": "https://dc.lft.to/lastmile_qr_scan", "ios": "https://dc.lft.to/lastmile_qr_scan"}, "lat": 38.914131166666664, "is_reserved": 0, "is_disabled": 0, "fusion_lat": 0.0}, {"fusion_lon": 0.0, "bike_id": "32eb9d56ee3b739dda69add3d725bde5", "name": "32eb9d56ee3b739dda69add3d725bde5", "type": "electric_scooter", "lon": -76.98612283333334, "rental_uris": {"android": "https://dc.lft.to/lastmile_qr_scan", "ios": "https://dc.lft.to/lastmile_qr_scan"}, "lat": 38.85460033333333, "is_reserved": 0, "is_disabled": 0, "fusion_lat": 0.0}, {"fusion_lon": 0.0, "bike_id": "d67480f0103bf4412333501cfd38baf3", "name": "d67480f0103bf4412333501cfd38baf3", "type": "electric_scooter", "lon": -77.045665, "rental_uris": {"android": "https://dc.lft.to/lastmile_qr_scan", "ios": "https://dc.lft.to/lastmile_qr_scan"}, "lat": 38.92076433333333, "is_reserved": 0, "is_disabled": 0, "fusion_lat": 0.0}, {"fusion_lon": 0.0, "bike_id": "df858c3c7dfa2baf6f94a027573d4530", "name": "df858c3c7dfa2baf6f94a027573d4530", "type": "electric_scooter", "lon": -77.03915066666667, "rental_uris": {"android": "https://dc.lft.to/lastmile_qr_scan", "ios": "https://dc.lft.to/lastmile_qr_scan"}, "lat": 38.91272416666666, "is_reserved": 0, "is_disabled": 0, "fusion_lat": 0.0}, {"fusion_lon": 0.0, "bike_id": "aef76fb9757b93964d4fb67a60213afa", "name": "aef76fb9757b93964d4fb67a60213afa", "type": "electric_bike", "lon": -77.03985616666667, "rental_uris": {"android": "https://dc.lft.to/lastmile_qr_scan", "ios": "https://dc.lft.to/lastmile_qr_scan"}, "lat": 38.80295483333333, "is_reserved": 0, "is_disabled": 0, "fusion_lat": 0.0}, {"fusion_lon": 0.0, "bike_id": "bd57e8bc14142f75b09345c44237db20", "name": "bd57e8bc14142f75b09345c44237db20", "type": "electric_scooter", "lon": -77.03260366666666, "rental_uris": {"android": "https://dc.lft.to/lastmile_qr_scan", "ios": "https://dc.lft.to/lastmile_qr_scan"}, "lat": 38.930258, "is_reserved": 0, "is_disabled": 0, "fusion_lat": 0.0}, {"fusion_lon": 0.0, "bike_id": "5b1b917b0905e9ea28651ae832abb1b2", "name": "5b1b917b0905e9ea28651ae832abb1b2", "type": "electric_scooter", "lon": -76.97555283333334, "rental_uris": {"android": "https://dc.lft.to/lastmile_qr_scan", "ios": "https://dc.lft.to/lastmile_qr_scan"}, "lat": 38.90259666666667, "is_reserved": 0, "is_disabled": 0, "fusion_lat": 0.0}, {"fusion_lon": 0.0, "bike_id": "c973aae5e5a3d1dad606b8f23f51e684", "name": "c973aae5e5a3d1dad606b8f23f51e684", "type": "electric_scooter", "lon": -77.01747433333334, "rental_uris": {"android": "https://dc.lft.to/lastmile_qr_scan", "ios": "https://dc.lft.to/lastmile_qr_scan"}, "lat": 38.8766485, "is_reserved": 0, "is_disabled": 0, "fusion_lat": 0.0}, {"fusion_lon": 0.0, "bike_id": "b92b03e1344b5336293ba9c08e5984c8", "name": "b92b03e1344b5336293ba9c08e5984c8", "type": "electric_scooter", "lon": -77.01735983333333, "rental_uris": {"android": "https://dc.lft.to/lastmile_qr_scan", "ios": "https://dc.lft.to/lastmile_qr_scan"}, "lat": 38.87704216666667, "is_reserved": 0, "is_disabled": 0, "fusion_lat": 0.0}, {"fusion_lon": 0.0, "bike_id": "17ef809432be4c529f9e7b85a2b9752c", "name": "17ef809432be4c529f9e7b85a2b9752c", "type": "electric_scooter", "lon": -77.052648, "rental_uris": {"android": "https://dc.lft.to/lastmile_qr_scan", "ios": "https://dc.lft.to/lastmile_qr_scan"}, "lat": 38.92562516666667, "is_reserved": 0, "is_disabled": 0, "fusion_lat": 0.0}, {"fusion_lon": 0.0, "bike_id": "99412bb8b9f69a63bd92f35a7f33404a", "name": "99412bb8b9f69a63bd92f35a7f33404a", "type": "electric_scooter", "lon": -77.041762, "rental_uris": {"android": "https://dc.lft.to/lastmile_qr_scan", "ios": "https://dc.lft.to/lastmile_qr_scan"}, "lat": 38.90725966666667, "is_reserved": 0, "is_disabled": 0, "fusion_lat": 0.0}, {"fusion_lon": 0.0, "bike_id": "14a7672608b990a2439a9ffe9a732ccb", "name": "14a7672608b990a2439a9ffe9a732ccb", "type": "electric_scooter", "lon": -77.00795583333333, "rental_uris": {"android": "https://dc.lft.to/lastmile_qr_scan", "ios": "https://dc.lft.to/lastmile_qr_scan"}, "lat": 38.89716083333333, "is_reserved": 0, "is_disabled": 0, "fusion_lat": 0.0}, {"fusion_lon": 0.0, "bike_id": "38725b52f484009aea00f99aa61c48f3", "name": "38725b52f484009aea00f99aa61c48f3", "type": "electric_scooter", "lon": -77.03863716666666, "rental_uris": {"android": "https://dc.lft.to/lastmile_qr_scan", "ios": "https://dc.lft.to/lastmile_qr_scan"}, "lat": 38.9097225, "is_reserved": 0, "is_disabled": 0, "fusion_lat": 0.0}, {"fusion_lon": 0.0, "bike_id": "a3ffabf2933af5aab377aaeefba17b87", "name": "a3ffabf2933af5aab377aaeefba17b87", "type": "electric_scooter", "lon": -77.01566533333333, "rental_uris": {"android": "https://dc.lft.to/lastmile_qr_scan", "ios": "https://dc.lft.to/lastmile_qr_scan"}, "lat": 38.872622666666665, "is_reserved": 0, "is_disabled": 0, "fusion_lat": 0.0}, {"fusion_lon": 0.0, "bike_id": "8db7331456506e9ca7ec09ad90a9567d", "name": "8db7331456506e9ca7ec09ad90a9567d", "type": "electric_scooter", "lon": -77.03289066666666, "rental_uris": {"android": "https://dc.lft.to/lastmile_qr_scan", "ios": "https://dc.lft.to/lastmile_qr_scan"}, "lat": 38.899069, "is_reserved": 0, "is_disabled": 0, "fusion_lat": 0.0}, {"fusion_lon": 0.0, "bike_id": "a6c82e133cf204bc22149dd13235e85f", "name": "a6c82e133cf204bc22149dd13235e85f", "type": "electric_scooter", "lon": -77.03219083333333, "rental_uris": {"android": "https://dc.lft.to/lastmile_qr_scan", "ios": "https://dc.lft.to/lastmile_qr_scan"}, "lat": 38.89222133333333, "is_reserved": 0, "is_disabled": 0, "fusion_lat": 0.0}, {"fusion_lon": 0.0, "bike_id": "556a01b0ae27204a62f0a0084dc1a535", "name": "556a01b0ae27204a62f0a0084dc1a535", "type": "electric_scooter", "lon": -77.0458235, "rental_uris": {"android": "https://dc.lft.to/lastmile_qr_scan", "ios": "https://dc.lft.to/lastmile_qr_scan"}, "lat": 38.909702333333335, "is_reserved": 0, "is_disabled": 0, "fusion_lat": 0.0}, {"fusion_lon": 0.0, "bike_id": "65ea4872a7625a9ad1264824c6b9eb8b", "name": "65ea4872a7625a9ad1264824c6b9eb8b", "type": "electric_scooter", "lon": -76.99140283333334, "rental_uris": {"android": "https://dc.lft.to/lastmile_qr_scan", "ios": "https://dc.lft.to/lastmile_qr_scan"}, "lat": 38.88679716666667, "is_reserved": 0, "is_disabled": 0, "fusion_lat": 0.0}, {"fusion_lon": 0.0, "bike_id": "acc81ce80e2086e49f41c9c3559d40f1", "name": "acc81ce80e2086e49f41c9c3559d40f1", "type": "electric_scooter", "lon": -76.9793125, "rental_uris": {"android": "https://dc.lft.to/lastmile_qr_scan", "ios": "https://dc.lft.to/lastmile_qr_scan"}, "lat": 38.90240933333333, "is_reserved": 0, "is_disabled": 0, "fusion_lat": 0.0}, {"fusion_lon": 0.0, "bike_id": "42ce9df0fab917a7e39a8e6ac242b370", "name": "42ce9df0fab917a7e39a8e6ac242b370", "type": "electric_scooter", "lon": -77.02612233333333, "rental_uris": {"android": "https://dc.lft.to/lastmile_qr_scan", "ios": "https://dc.lft.to/lastmile_qr_scan"}, "lat": 38.9185375, "is_reserved": 0, "is_disabled": 0, "fusion_lat": 0.0}, {"fusion_lon": 0.0, "bike_id": "f9e3a86d96bd9e849dc4863aaf8e98c2", "name": "f9e3a86d96bd9e849dc4863aaf8e98c2", "type": "electric_scooter", "lon": -76.94721366666667, "rental_uris": {"android": "https://dc.lft.to/lastmile_qr_scan", "ios": "https://dc.lft.to/lastmile_qr_scan"}, "lat": 38.8973715, "is_reserved": 0, "is_disabled": 0, "fusion_lat": 0.0}, {"fusion_lon": 0.0, "bike_id": "5a2831fa9545bba4afa14595baa827c1", "name": "5a2831fa9545bba4afa14595baa827c1", "type": "electric_scooter", "lon": -77.031971, "rental_uris": {"android": "https://dc.lft.to/lastmile_qr_scan", "ios": "https://dc.lft.to/lastmile_qr_scan"}, "lat": 38.90364983333333, "is_reserved": 0, "is_disabled": 0, "fusion_lat": 0.0}, {"fusion_lon": 0.0, "bike_id": "59b04ef50ea69ecb2b3617e72411ee8b", "name": "59b04ef50ea69ecb2b3617e72411ee8b", "type": "electric_scooter", "lon": -77.03778916666667, "rental_uris": {"android": "https://dc.lft.to/lastmile_qr_scan", "ios": "https://dc.lft.to/lastmile_qr_scan"}, "lat": 38.9257355, "is_reserved": 0, "is_disabled": 0, "fusion_lat": 0.0}, {"fusion_lon": 0.0, "bike_id": "0cb50a035d6c69e41543d207eac1c746", "name": "0cb50a035d6c69e41543d207eac1c746", "type": "electric_bike", "lon": -77.08434216666667, "rental_uris": {"android": "https://dc.lft.to/lastmile_qr_scan", "ios": "https://dc.lft.to/lastmile_qr_scan"}, "lat": 38.81025966666667, "is_reserved": 0, "is_disabled": 0, "fusion_lat": 0.0}, {"fusion_lon": 0.0, "bike_id": "b310651376c174801bfcae905df8ee61", "name": "b310651376c174801bfcae905df8ee61", "type": "electric_scooter", "lon": -76.98458216666667, "rental_uris": {"android": "https://dc.lft.to/lastmile_qr_scan", "ios": "https://dc.lft.to/lastmile_qr_scan"}, "lat": 38.880048333333335, "is_reserved": 0, "is_disabled": 0, "fusion_lat": 0.0}, {"fusion_lon": 0.0, "bike_id": "0c6807644cd659f313ce030b87461cea", "name": "0c6807644cd659f313ce030b87461cea", "type": "electric_scooter", "lon": -77.02776616666667, "rental_uris": {"android": "https://dc.lft.to/lastmile_qr_scan", "ios": "https://dc.lft.to/lastmile_qr_scan"}, "lat": 38.95656366666667, "is_reserved": 0, "is_disabled": 0, "fusion_lat": 0.0}, {"fusion_lon": 0.0, "bike_id": "ad2e3369561deebdfa51406a2c316318", "name": "ad2e3369561deebdfa51406a2c316318", "type": "electric_bike", "lon": -76.97503933333333, "rental_uris": {"android": "https://dc.lft.to/lastmile_qr_scan", "ios": "https://dc.lft.to/lastmile_qr_scan"}, "lat": 38.919348, "is_reserved": 0, "is_disabled": 0, "fusion_lat": 0.0}, {"fusion_lon": 0.0, "bike_id": "e31a1313303e2c52c16bb6d8c36b8908", "name": "e31a1313303e2c52c16bb6d8c36b8908", "type": "electric_scooter", "lon": -77.03689166666666, "rental_uris": {"android": "https://dc.lft.to/lastmile_qr_scan", "ios": "https://dc.lft.to/lastmile_qr_scan"}, "lat": 38.916813833333336, "is_reserved": 0, "is_disabled": 0, "fusion_lat": 0.0}, {"fusion_lon": 0.0, "bike_id": "2972a6ebea62c92ad555b9368e1308d8", "name": "2972a6ebea62c92ad555b9368e1308d8", "type": "electric_scooter", "lon": -76.94899583333333, "rental_uris": {"android": "https://dc.lft.to/lastmile_qr_scan", "ios": "https://dc.lft.to/lastmile_qr_scan"}, "lat": 38.8953145, "is_reserved": 0, "is_disabled": 0, "fusion_lat": 0.0}, {"fusion_lon": 0.0, "bike_id": "e50959c154f243761b894e1b5f79b386", "name": "e50959c154f243761b894e1b5f79b386", "type": "electric_scooter", "lon": -77.03471416666666, "rental_uris": {"android": "https://dc.lft.to/lastmile_qr_scan", "ios": "https://dc.lft.to/lastmile_qr_scan"}, "lat": 38.90388566666667, "is_reserved": 0, "is_disabled": 0, "fusion_lat": 0.0}, {"fusion_lon": 0.0, "bike_id": "772110e498c857c398b5a18695471d46", "name": "772110e498c857c398b5a18695471d46", "type": "electric_scooter", "lon": -77.0664005, "rental_uris": {"android": "https://dc.lft.to/lastmile_qr_scan", "ios": "https://dc.lft.to/lastmile_qr_scan"}, "lat": 38.9032745, "is_reserved": 0, "is_disabled": 0, "fusion_lat": 0.0}, {"fusion_lon": 0.0, "bike_id": "c260734b69cd2ddf34437cd449ee8a2b", "name": "c260734b69cd2ddf34437cd449ee8a2b", "type": "electric_scooter", "lon": -76.99809533333334, "rental_uris": {"android": "https://dc.lft.to/lastmile_qr_scan", "ios": "https://dc.lft.to/lastmile_qr_scan"}, "lat": 38.87682133333333, "is_reserved": 0, "is_disabled": 0, "fusion_lat": 0.0}, {"fusion_lon": 0.0, "bike_id": "120bce321a9c0a178cac97061ba15a7c", "name": "120bce321a9c0a178cac97061ba15a7c", "type": "electric_scooter", "lon": -77.0371715, "rental_uris": {"android": "https://dc.lft.to/lastmile_qr_scan", "ios": "https://dc.lft.to/lastmile_qr_scan"}, "lat": 38.918093, "is_reserved": 0, "is_disabled": 0, "fusion_lat": 0.0}, {"fusion_lon": 0.0, "bike_id": "d5d4bffa644858f8c8f823afe90ce33e", "name": "d5d4bffa644858f8c8f823afe90ce33e", "type": "electric_bike", "lon": -76.98069666666666, "rental_uris": {"android": "https://dc.lft.to/lastmile_qr_scan", "ios": "https://dc.lft.to/lastmile_qr_scan"}, "lat": 38.887908, "is_reserved": 0, "is_disabled": 0, "fusion_lat": 0.0}, {"fusion_lon": 0.0, "bike_id": "cb137d27f72ee5089dac6ffccfec9bcb", "name": "cb137d27f72ee5089dac6ffccfec9bcb", "type": "electric_scooter", "lon": -77.06351583333333, "rental_uris": {"android": "https://dc.lft.to/lastmile_qr_scan", "ios": "https://dc.lft.to/lastmile_qr_scan"}, "lat": 38.944521333333334, "is_reserved": 0, "is_disabled": 0, "fusion_lat": 0.0}, {"fusion_lon": 0.0, "bike_id": "451e3fc72b98742bce2deaa5227bd8e2", "name": "451e3fc72b98742bce2deaa5227bd8e2", "type": "electric_scooter", "lon": -77.005556, "rental_uris": {"android": "https://dc.lft.to/lastmile_qr_scan", "ios": "https://dc.lft.to/lastmile_qr_scan"}, "lat": 38.90542516666667, "is_reserved": 0, "is_disabled": 0, "fusion_lat": 0.0}, {"fusion_lon": 0.0, "bike_id": "453057f830159fe2f6a79f1ebdcd6f25", "name": "453057f830159fe2f6a79f1ebdcd6f25", "type": "electric_scooter", "lon": -77.042931, "rental_uris": {"android": "https://dc.lft.to/lastmile_qr_scan", "ios": "https://dc.lft.to/lastmile_qr_scan"}, "lat": 38.91803, "is_reserved": 0, "is_disabled": 0, "fusion_lat": 0.0}, {"fusion_lon": 0.0, "bike_id": "df234d74389f8d43ae829aeb20ea2f3f", "name": "df234d74389f8d43ae829aeb20ea2f3f", "type": "electric_bike", "lon": -76.96003166666667, "rental_uris": {"android": "https://dc.lft.to/lastmile_qr_scan", "ios": "https://dc.lft.to/lastmile_qr_scan"}, "lat": 38.869965, "is_reserved": 0, "is_disabled": 0, "fusion_lat": 0.0}, {"fusion_lon": 0.0, "bike_id": "db162820c0d43e491dae6f3b04dd1c8a", "name": "db162820c0d43e491dae6f3b04dd1c8a", "type": "electric_scooter", "lon": -77.03968816666666, "rental_uris": {"android": "https://dc.lft.to/lastmile_qr_scan", "ios": "https://dc.lft.to/lastmile_qr_scan"}, "lat": 38.91185316666667, "is_reserved": 0, "is_disabled": 0, "fusion_lat": 0.0}, {"fusion_lon": 0.0, "bike_id": "6db8610f615845b3dffd6d9f6be1bfc8", "name": "6db8610f615845b3dffd6d9f6be1bfc8", "type": "electric_scooter", "lon": -77.0862255, "rental_uris": {"android": "https://dc.lft.to/lastmile_qr_scan", "ios": "https://dc.lft.to/lastmile_qr_scan"}, "lat": 38.95870016666667, "is_reserved": 0, "is_disabled": 0, "fusion_lat": 0.0}, {"fusion_lon": 0.0, "bike_id": "7e2d74e6a3f2b25a8d954deaa026b5ae", "name": "7e2d74e6a3f2b25a8d954deaa026b5ae", "type": "electric_scooter", "lon": -77.00863866666667, "rental_uris": {"android": "https://dc.lft.to/lastmile_qr_scan", "ios": "https://dc.lft.to/lastmile_qr_scan"}, "lat": 38.87654783333333, "is_reserved": 0, "is_disabled": 0, "fusion_lat": 0.0}, {"fusion_lon": 0.0, "bike_id": "15e3a666bce87eda3be4b9278a0d24a7", "name": "15e3a666bce87eda3be4b9278a0d24a7", "type": "electric_scooter", "lon": -77.01896783333333, "rental_uris": {"android": "https://dc.lft.to/lastmile_qr_scan", "ios": "https://dc.lft.to/lastmile_qr_scan"}, "lat": 38.87843566666667, "is_reserved": 0, "is_disabled": 0, "fusion_lat": 0.0}, {"fusion_lon": 0.0, "bike_id": "bc4356c7a690de0c2d513666c9e92565", "name": "bc4356c7a690de0c2d513666c9e92565", "type": "electric_scooter", "lon": -76.999008, "rental_uris": {"android": "https://dc.lft.to/lastmile_qr_scan", "ios": "https://dc.lft.to/lastmile_qr_scan"}, "lat": 38.9565235, "is_reserved": 0, "is_disabled": 0, "fusion_lat": 0.0}, {"fusion_lon": 0.0, "bike_id": "4363ee247b20fc656cd0f95fe8527780", "name": "4363ee247b20fc656cd0f95fe8527780", "type": "electric_scooter", "lon": -77.00448616666667, "rental_uris": {"android": "https://dc.lft.to/lastmile_qr_scan", "ios": "https://dc.lft.to/lastmile_qr_scan"}, "lat": 38.907230166666665, "is_reserved": 0, "is_disabled": 0, "fusion_lat": 0.0}, {"fusion_lon": 0.0, "bike_id": "9702fbe398d419608120f0b43f3c56ae", "name": "9702fbe398d419608120f0b43f3c56ae", "type": "electric_scooter", "lon": -77.02293583333334, "rental_uris": {"android": "https://dc.lft.to/lastmile_qr_scan", "ios": "https://dc.lft.to/lastmile_qr_scan"}, "lat": 38.9376045, "is_reserved": 0, "is_disabled": 0, "fusion_lat": 0.0}, {"fusion_lon": 0.0, "bike_id": "d9e632934b71c7e19a89a59158940759", "name": "d9e632934b71c7e19a89a59158940759", "type": "electric_bike", "lon": -76.98838933333333, "rental_uris": {"android": "https://dc.lft.to/lastmile_qr_scan", "ios": "https://dc.lft.to/lastmile_qr_scan"}, "lat": 38.842718166666664, "is_reserved": 0, "is_disabled": 0, "fusion_lat": 0.0}, {"fusion_lon": 0.0, "bike_id": "d01e09607cbc4fec0aa07d5a8353bd44", "name": "d01e09607cbc4fec0aa07d5a8353bd44", "type": "electric_scooter", "lon": -76.94941116666666, "rental_uris": {"android": "https://dc.lft.to/lastmile_qr_scan", "ios": "https://dc.lft.to/lastmile_qr_scan"}, "lat": 38.8831835, "is_reserved": 0, "is_disabled": 0, "fusion_lat": 0.0}, {"fusion_lon": 0.0, "bike_id": "ea8ae4fd449f5ba8d29ec1b3ce671e2e", "name": "ea8ae4fd449f5ba8d29ec1b3ce671e2e", "type": "electric_scooter", "lon": -77.02301516666667, "rental_uris": {"android": "https://dc.lft.to/lastmile_qr_scan", "ios": "https://dc.lft.to/lastmile_qr_scan"}, "lat": 38.91569883333333, "is_reserved": 0, "is_disabled": 0, "fusion_lat": 0.0}, {"fusion_lon": 0.0, "bike_id": "1a3dcded1665baf182126c49c7a6edca", "name": "1a3dcded1665baf182126c49c7a6edca", "type": "electric_scooter", "lon": -77.02382633333333, "rental_uris": {"android": "https://dc.lft.to/lastmile_qr_scan", "ios": "https://dc.lft.to/lastmile_qr_scan"}, "lat": 38.9074635, "is_reserved": 0, "is_disabled": 0, "fusion_lat": 0.0}, {"fusion_lon": 0.0, "bike_id": "3585076fc85cef43b950ee0720635c8d", "name": "3585076fc85cef43b950ee0720635c8d", "type": "electric_scooter", "lon": -77.03291316666666, "rental_uris": {"android": "https://dc.lft.to/lastmile_qr_scan", "ios": "https://dc.lft.to/lastmile_qr_scan"}, "lat": 38.956473833333334, "is_reserved": 0, "is_disabled": 0, "fusion_lat": 0.0}, {"fusion_lon": 0.0, "bike_id": "658ea6f052091aea92420cfab61cac3b", "name": "658ea6f052091aea92420cfab61cac3b", "type": "electric_scooter", "lon": -76.94773733333334, "rental_uris": {"android": "https://dc.lft.to/lastmile_qr_scan", "ios": "https://dc.lft.to/lastmile_qr_scan"}, "lat": 38.89626283333333, "is_reserved": 0, "is_disabled": 0, "fusion_lat": 0.0}, {"fusion_lon": 0.0, "bike_id": "e19343c2ba51bf3026fca46f7c833126", "name": "e19343c2ba51bf3026fca46f7c833126", "type": "electric_scooter", "lon": -77.029977, "rental_uris": {"android": "https://dc.lft.to/lastmile_qr_scan", "ios": "https://dc.lft.to/lastmile_qr_scan"}, "lat": 38.92480783333333, "is_reserved": 0, "is_disabled": 0, "fusion_lat": 0.0}, {"fusion_lon": 0.0, "bike_id": "a4e9197b5bda9544c78ae89f7862682b", "name": "a4e9197b5bda9544c78ae89f7862682b", "type": "electric_scooter", "lon": -77.04342466666667, "rental_uris": {"android": "https://dc.lft.to/lastmile_qr_scan", "ios": "https://dc.lft.to/lastmile_qr_scan"}, "lat": 38.907180833333335, "is_reserved": 0, "is_disabled": 0, "fusion_lat": 0.0}, {"fusion_lon": 0.0, "bike_id": "dcc7db22d08856ba7f56f768e275dad9", "name": "dcc7db22d08856ba7f56f768e275dad9", "type": "electric_bike", "lon": -77.089459, "rental_uris": {"android": "https://dc.lft.to/lastmile_qr_scan", "ios": "https://dc.lft.to/lastmile_qr_scan"}, "lat": 38.841099666666665, "is_reserved": 0, "is_disabled": 0, "fusion_lat": 0.0}, {"fusion_lon": 0.0, "bike_id": "012e0658e710cb509e9df8c8cb97a84f", "name": "012e0658e710cb509e9df8c8cb97a84f", "type": "electric_scooter", "lon": -77.03518283333334, "rental_uris": {"android": "https://dc.lft.to/lastmile_qr_scan", "ios": "https://dc.lft.to/lastmile_qr_scan"}, "lat": 38.92163016666667, "is_reserved": 0, "is_disabled": 0, "fusion_lat": 0.0}, {"fusion_lon": 0.0, "bike_id": "0a020c1b91292c6804f22c3663699ec3", "name": "0a020c1b91292c6804f22c3663699ec3", "type": "electric_scooter", "lon": -77.03181516666666, "rental_uris": {"android": "https://dc.lft.to/lastmile_qr_scan", "ios": "https://dc.lft.to/lastmile_qr_scan"}, "lat": 38.89219583333333, "is_reserved": 0, "is_disabled": 0, "fusion_lat": 0.0}, {"fusion_lon": 0.0, "bike_id": "d37f36daddabde92e1fb9da39b6b4b12", "name": "d37f36daddabde92e1fb9da39b6b4b12", "type": "electric_scooter", "lon": -77.04553883333334, "rental_uris": {"android": "https://dc.lft.to/lastmile_qr_scan", "ios": "https://dc.lft.to/lastmile_qr_scan"}, "lat": 38.912697, "is_reserved": 0, "is_disabled": 0, "fusion_lat": 0.0}, {"fusion_lon": 0.0, "bike_id": "37d94b7cfc55a6e7fe706a71d383f622", "name": "37d94b7cfc55a6e7fe706a71d383f622", "type": "electric_scooter", "lon": -77.0600815, "rental_uris": {"android": "https://dc.lft.to/lastmile_qr_scan", "ios": "https://dc.lft.to/lastmile_qr_scan"}, "lat": 38.9051675, "is_reserved": 0, "is_disabled": 0, "fusion_lat": 0.0}, {"fusion_lon": 0.0, "bike_id": "cb06a461f2a8193af866e6b3867da372", "name": "cb06a461f2a8193af866e6b3867da372", "type": "electric_scooter", "lon": -77.02828766666667, "rental_uris": {"android": "https://dc.lft.to/lastmile_qr_scan", "ios": "https://dc.lft.to/lastmile_qr_scan"}, "lat": 38.94831033333333, "is_reserved": 0, "is_disabled": 0, "fusion_lat": 0.0}, {"fusion_lon": 0.0, "bike_id": "e7b1a55838dcf775d861481029d2c367", "name": "e7b1a55838dcf775d861481029d2c367", "type": "electric_scooter", "lon": -77.02984033333334, "rental_uris": {"android": "https://dc.lft.to/lastmile_qr_scan", "ios": "https://dc.lft.to/lastmile_qr_scan"}, "lat": 38.91674783333333, "is_reserved": 0, "is_disabled": 0, "fusion_lat": 0.0}, {"fusion_lon": 0.0, "bike_id": "2aab0f8c4fc9552834a24dcb61a4d311", "name": "2aab0f8c4fc9552834a24dcb61a4d311", "type": "electric_scooter", "lon": -77.03283216666667, "rental_uris": {"android": "https://dc.lft.to/lastmile_qr_scan", "ios": "https://dc.lft.to/lastmile_qr_scan"}, "lat": 38.956560833333334, "is_reserved": 0, "is_disabled": 0, "fusion_lat": 0.0}, {"fusion_lon": 0.0, "bike_id": "7a613cab4c33b44c0d7fbfb0779f5be5", "name": "7a613cab4c33b44c0d7fbfb0779f5be5", "type": "electric_scooter", "lon": -76.98363533333334, "rental_uris": {"android": "https://dc.lft.to/lastmile_qr_scan", "ios": "https://dc.lft.to/lastmile_qr_scan"}, "lat": 38.8647785, "is_reserved": 0, "is_disabled": 0, "fusion_lat": 0.0}, {"fusion_lon": 0.0, "bike_id": "e6208092f15e4a3fcc4f6336e6f61c67", "name": "e6208092f15e4a3fcc4f6336e6f61c67", "type": "electric_scooter", "lon": -77.05922966666667, "rental_uris": {"android": "https://dc.lft.to/lastmile_qr_scan", "ios": "https://dc.lft.to/lastmile_qr_scan"}, "lat": 38.93654383333333, "is_reserved": 0, "is_disabled": 0, "fusion_lat": 0.0}, {"fusion_lon": 0.0, "bike_id": "740976db64a5147fc62fc1d2aaad8561", "name": "740976db64a5147fc62fc1d2aaad8561", "type": "electric_scooter", "lon": -76.93839433333333, "rental_uris": {"android": "https://dc.lft.to/lastmile_qr_scan", "ios": "https://dc.lft.to/lastmile_qr_scan"}, "lat": 38.89013666666666, "is_reserved": 0, "is_disabled": 0, "fusion_lat": 0.0}, {"fusion_lon": 0.0, "bike_id": "48e126bf8a4799bde01d0accc1d31c1e", "name": "48e126bf8a4799bde01d0accc1d31c1e", "type": "electric_scooter", "lon": -77.04670433333334, "rental_uris": {"android": "https://dc.lft.to/lastmile_qr_scan", "ios": "https://dc.lft.to/lastmile_qr_scan"}, "lat": 38.90324783333333, "is_reserved": 0, "is_disabled": 0, "fusion_lat": 0.0}, {"fusion_lon": 0.0, "bike_id": "b0223b32f410f7d1ce05988590ffa8ef", "name": "b0223b32f410f7d1ce05988590ffa8ef", "type": "electric_bike", "lon": -77.12509516666667, "rental_uris": {"android": "https://dc.lft.to/lastmile_qr_scan", "ios": "https://dc.lft.to/lastmile_qr_scan"}, "lat": 39.024273, "is_reserved": 0, "is_disabled": 0, "fusion_lat": 0.0}, {"fusion_lon": 0.0, "bike_id": "630d0a19089311877b8fb190ef0f78fd", "name": "630d0a19089311877b8fb190ef0f78fd", "type": "electric_scooter", "lon": -77.04678783333334, "rental_uris": {"android": "https://dc.lft.to/lastmile_qr_scan", "ios": "https://dc.lft.to/lastmile_qr_scan"}, "lat": 38.903712, "is_reserved": 0, "is_disabled": 0, "fusion_lat": 0.0}, {"fusion_lon": 0.0, "bike_id": "77a04e60a8be7b5cca6e6f0b3c20e57f", "name": "77a04e60a8be7b5cca6e6f0b3c20e57f", "type": "electric_scooter", "lon": -77.0275395, "rental_uris": {"android": "https://dc.lft.to/lastmile_qr_scan", "ios": "https://dc.lft.to/lastmile_qr_scan"}, "lat": 38.95411283333333, "is_reserved": 0, "is_disabled": 0, "fusion_lat": 0.0}, {"fusion_lon": 0.0, "bike_id": "f13c45addcd92449e31d715b96c651fb", "name": "f13c45addcd92449e31d715b96c651fb", "type": "electric_scooter", "lon": -77.038609, "rental_uris": {"android": "https://dc.lft.to/lastmile_qr_scan", "ios": "https://dc.lft.to/lastmile_qr_scan"}, "lat": 38.918340666666666, "is_reserved": 0, "is_disabled": 0, "fusion_lat": 0.0}, {"fusion_lon": 0.0, "bike_id": "ebd05f9fb85bcb306af5ff4a8b18feaf", "name": "ebd05f9fb85bcb306af5ff4a8b18feaf", "type": "electric_scooter", "lon": -77.00548616666667, "rental_uris": {"android": "https://dc.lft.to/lastmile_qr_scan", "ios": "https://dc.lft.to/lastmile_qr_scan"}, "lat": 38.905553, "is_reserved": 0, "is_disabled": 0, "fusion_lat": 0.0}, {"fusion_lon": 0.0, "bike_id": "4549ef774e81f3ac949a8fb6a77f1553", "name": "4549ef774e81f3ac949a8fb6a77f1553", "type": "electric_scooter", "lon": -77.03339083333333, "rental_uris": {"android": "https://dc.lft.to/lastmile_qr_scan", "ios": "https://dc.lft.to/lastmile_qr_scan"}, "lat": 38.90020283333333, "is_reserved": 0, "is_disabled": 0, "fusion_lat": 0.0}, {"fusion_lon": 0.0, "bike_id": "b9de77734fc1da21f6b46f6b139baf50", "name": "b9de77734fc1da21f6b46f6b139baf50", "type": "electric_scooter", "lon": -77.04671566666667, "rental_uris": {"android": "https://dc.lft.to/lastmile_qr_scan", "ios": "https://dc.lft.to/lastmile_qr_scan"}, "lat": 38.9013955, "is_reserved": 0, "is_disabled": 0, "fusion_lat": 0.0}, {"fusion_lon": 0.0, "bike_id": "3ce753e800c09e972183e7c3467c7020", "name": "3ce753e800c09e972183e7c3467c7020", "type": "electric_scooter", "lon": -77.02293483333334, "rental_uris": {"android": "https://dc.lft.to/lastmile_qr_scan", "ios": "https://dc.lft.to/lastmile_qr_scan"}, "lat": 38.9171515, "is_reserved": 0, "is_disabled": 0, "fusion_lat": 0.0}, {"fusion_lon": 0.0, "bike_id": "e28b91933fa7bbca46811ae7c6438c64", "name": "e28b91933fa7bbca46811ae7c6438c64", "type": "electric_bike", "lon": -76.96561666666666, "rental_uris": {"android": "https://dc.lft.to/lastmile_qr_scan", "ios": "https://dc.lft.to/lastmile_qr_scan"}, "lat": 38.950849833333336, "is_reserved": 0, "is_disabled": 0, "fusion_lat": 0.0}, {"fusion_lon": 0.0, "bike_id": "107299fe3bf23fc8fb50ec797305276d", "name": "107299fe3bf23fc8fb50ec797305276d", "type": "electric_scooter", "lon": -77.04894766666666, "rental_uris": {"android": "https://dc.lft.to/lastmile_qr_scan", "ios": "https://dc.lft.to/lastmile_qr_scan"}, "lat": 38.8922835, "is_reserved": 0, "is_disabled": 0, "fusion_lat": 0.0}, {"fusion_lon": 0.0, "bike_id": "49bdf74e3d6d6de15ec0a84bf78fdcaa", "name": "49bdf74e3d6d6de15ec0a84bf78fdcaa", "type": "electric_scooter", "lon": -77.04107616666667, "rental_uris": {"android": "https://dc.lft.to/lastmile_qr_scan", "ios": "https://dc.lft.to/lastmile_qr_scan"}, "lat": 38.907967666666664, "is_reserved": 0, "is_disabled": 0, "fusion_lat": 0.0}, {"fusion_lon": 0.0, "bike_id": "abcb87145684c7e0af20a7c2cb704932", "name": "abcb87145684c7e0af20a7c2cb704932", "type": "electric_scooter", "lon": -77.04615633333333, "rental_uris": {"android": "https://dc.lft.to/lastmile_qr_scan", "ios": "https://dc.lft.to/lastmile_qr_scan"}, "lat": 38.91695583333333, "is_reserved": 0, "is_disabled": 0, "fusion_lat": 0.0}, {"fusion_lon": 0.0, "bike_id": "ca216e45a89b7f4fd3455c5928f086ef", "name": "ca216e45a89b7f4fd3455c5928f086ef", "type": "electric_scooter", "lon": -77.0519835, "rental_uris": {"android": "https://dc.lft.to/lastmile_qr_scan", "ios": "https://dc.lft.to/lastmile_qr_scan"}, "lat": 38.92463216666667, "is_reserved": 0, "is_disabled": 0, "fusion_lat": 0.0}, {"fusion_lon": 0.0, "bike_id": "f7643a372f02c993eda3d5c26ef2992b", "name": "f7643a372f02c993eda3d5c26ef2992b", "type": "electric_scooter", "lon": -77.02484033333333, "rental_uris": {"android": "https://dc.lft.to/lastmile_qr_scan", "ios": "https://dc.lft.to/lastmile_qr_scan"}, "lat": 38.938813833333334, "is_reserved": 0, "is_disabled": 0, "fusion_lat": 0.0}, {"fusion_lon": 0.0, "bike_id": "d7b3fa7635d6c8efecd8d4f7aca9f189", "name": "d7b3fa7635d6c8efecd8d4f7aca9f189", "type": "electric_scooter", "lon": -77.04482716666666, "rental_uris": {"android": "https://dc.lft.to/lastmile_qr_scan", "ios": "https://dc.lft.to/lastmile_qr_scan"}, "lat": 38.909131, "is_reserved": 0, "is_disabled": 0, "fusion_lat": 0.0}, {"fusion_lon": 0.0, "bike_id": "d28f8328e82901015d7fe30fe0f790ef", "name": "d28f8328e82901015d7fe30fe0f790ef", "type": "electric_scooter", "lon": -76.94063066666666, "rental_uris": {"android": "https://dc.lft.to/lastmile_qr_scan", "ios": "https://dc.lft.to/lastmile_qr_scan"}, "lat": 38.890171, "is_reserved": 0, "is_disabled": 0, "fusion_lat": 0.0}, {"fusion_lon": 0.0, "bike_id": "5d65f03dfb170666f35a851b3fa649f5", "name": "5d65f03dfb170666f35a851b3fa649f5", "type": "electric_scooter", "lon": -77.0271625, "rental_uris": {"android": "https://dc.lft.to/lastmile_qr_scan", "ios": "https://dc.lft.to/lastmile_qr_scan"}, "lat": 38.907515833333335, "is_reserved": 0, "is_disabled": 0, "fusion_lat": 0.0}, {"fusion_lon": 0.0, "bike_id": "04e6f6e4eb75054c8a6e4f37542a5284", "name": "04e6f6e4eb75054c8a6e4f37542a5284", "type": "electric_scooter", "lon": -77.02482416666666, "rental_uris": {"android": "https://dc.lft.to/lastmile_qr_scan", "ios": "https://dc.lft.to/lastmile_qr_scan"}, "lat": 38.880158, "is_reserved": 0, "is_disabled": 0, "fusion_lat": 0.0}, {"fusion_lon": 0.0, "bike_id": "14d93db9bb30278d88b9ef9ec89e7785", "name": "14d93db9bb30278d88b9ef9ec89e7785", "type": "electric_scooter", "lon": -76.995669, "rental_uris": {"android": "https://dc.lft.to/lastmile_qr_scan", "ios": "https://dc.lft.to/lastmile_qr_scan"}, "lat": 38.92010166666667, "is_reserved": 0, "is_disabled": 0, "fusion_lat": 0.0}, {"fusion_lon": 0.0, "bike_id": "e74b8459ddfa323807a4869433434b7e", "name": "e74b8459ddfa323807a4869433434b7e", "type": "electric_scooter", "lon": -77.02251933333334, "rental_uris": {"android": "https://dc.lft.to/lastmile_qr_scan", "ios": "https://dc.lft.to/lastmile_qr_scan"}, "lat": 38.965582833333336, "is_reserved": 0, "is_disabled": 0, "fusion_lat": 0.0}, {"fusion_lon": 0.0, "bike_id": "ee6be64d44dd7bb91f31dabe19e57614", "name": "ee6be64d44dd7bb91f31dabe19e57614", "type": "electric_scooter", "lon": -77.0427215, "rental_uris": {"android": "https://dc.lft.to/lastmile_qr_scan", "ios": "https://dc.lft.to/lastmile_qr_scan"}, "lat": 38.908060166666665, "is_reserved": 0, "is_disabled": 0, "fusion_lat": 0.0}, {"fusion_lon": 0.0, "bike_id": "cacd6c99e1e49ca83d3ab8f7f55e3e7b", "name": "cacd6c99e1e49ca83d3ab8f7f55e3e7b", "type": "electric_scooter", "lon": -77.03212966666666, "rental_uris": {"android": "https://dc.lft.to/lastmile_qr_scan", "ios": "https://dc.lft.to/lastmile_qr_scan"}, "lat": 38.89218916666667, "is_reserved": 0, "is_disabled": 0, "fusion_lat": 0.0}, {"fusion_lon": 0.0, "bike_id": "8d3e3780a9c2d1aa4313e2689e18d200", "name": "8d3e3780a9c2d1aa4313e2689e18d200", "type": "electric_scooter", "lon": -77.02595516666666, "rental_uris": {"android": "https://dc.lft.to/lastmile_qr_scan", "ios": "https://dc.lft.to/lastmile_qr_scan"}, "lat": 38.916315833333336, "is_reserved": 0, "is_disabled": 0, "fusion_lat": 0.0}, {"fusion_lon": 0.0, "bike_id": "f76ba66a4fc054e2912eddd3f921eee6", "name": "f76ba66a4fc054e2912eddd3f921eee6", "type": "electric_scooter", "lon": -77.01826033333333, "rental_uris": {"android": "https://dc.lft.to/lastmile_qr_scan", "ios": "https://dc.lft.to/lastmile_qr_scan"}, "lat": 38.92201566666667, "is_reserved": 0, "is_disabled": 0, "fusion_lat": 0.0}, {"fusion_lon": 0.0, "bike_id": "e6fba883b0d5d1522fd43da94753a878", "name": "e6fba883b0d5d1522fd43da94753a878", "type": "electric_scooter", "lon": -77.04731383333333, "rental_uris": {"android": "https://dc.lft.to/lastmile_qr_scan", "ios": "https://dc.lft.to/lastmile_qr_scan"}, "lat": 38.90597616666667, "is_reserved": 0, "is_disabled": 0, "fusion_lat": 0.0}, {"fusion_lon": 0.0, "bike_id": "b0ebd58f9e4c04e89b2ce2af0c3b217c", "name": "b0ebd58f9e4c04e89b2ce2af0c3b217c", "type": "electric_bike", "lon": -76.93229416666667, "rental_uris": {"android": "https://dc.lft.to/lastmile_qr_scan", "ios": "https://dc.lft.to/lastmile_qr_scan"}, "lat": 38.86595716666667, "is_reserved": 0, "is_disabled": 0, "fusion_lat": 0.0}, {"fusion_lon": 0.0, "bike_id": "56e252520e5b6970a716613896fea482", "name": "56e252520e5b6970a716613896fea482", "type": "electric_scooter", "lon": -77.03670783333334, "rental_uris": {"android": "https://dc.lft.to/lastmile_qr_scan", "ios": "https://dc.lft.to/lastmile_qr_scan"}, "lat": 38.908318333333334, "is_reserved": 0, "is_disabled": 0, "fusion_lat": 0.0}, {"fusion_lon": 0.0, "bike_id": "414c82eaa38e6490dae11a825fae0462", "name": "414c82eaa38e6490dae11a825fae0462", "type": "electric_bike", "lon": -77.12580166666666, "rental_uris": {"android": "https://dc.lft.to/lastmile_qr_scan", "ios": "https://dc.lft.to/lastmile_qr_scan"}, "lat": 38.851478, "is_reserved": 0, "is_disabled": 0, "fusion_lat": 0.0}, {"fusion_lon": 0.0, "bike_id": "98ec5c8a847a2ca0156cde15098b1df3", "name": "98ec5c8a847a2ca0156cde15098b1df3", "type": "electric_scooter", "lon": -77.0319975, "rental_uris": {"android": "https://dc.lft.to/lastmile_qr_scan", "ios": "https://dc.lft.to/lastmile_qr_scan"}, "lat": 38.91777716666667, "is_reserved": 0, "is_disabled": 0, "fusion_lat": 0.0}, {"fusion_lon": 0.0, "bike_id": "a13f0526e1248072b40df2bcb4aa43fe", "name": "a13f0526e1248072b40df2bcb4aa43fe", "type": "electric_scooter", "lon": -77.05047866666666, "rental_uris": {"android": "https://dc.lft.to/lastmile_qr_scan", "ios": "https://dc.lft.to/lastmile_qr_scan"}, "lat": 38.92362116666666, "is_reserved": 0, "is_disabled": 0, "fusion_lat": 0.0}, {"fusion_lon": 0.0, "bike_id": "ddac4ebbf74971c33a8caabe1b09185f", "name": "ddac4ebbf74971c33a8caabe1b09185f", "type": "electric_scooter", "lon": -77.00746416666667, "rental_uris": {"android": "https://dc.lft.to/lastmile_qr_scan", "ios": "https://dc.lft.to/lastmile_qr_scan"}, "lat": 38.911851166666665, "is_reserved": 0, "is_disabled": 0, "fusion_lat": 0.0}, {"fusion_lon": 0.0, "bike_id": "66e541e774dc09fc693211af3b9c673f", "name": "66e541e774dc09fc693211af3b9c673f", "type": "electric_scooter", "lon": -76.984588, "rental_uris": {"android": "https://dc.lft.to/lastmile_qr_scan", "ios": "https://dc.lft.to/lastmile_qr_scan"}, "lat": 38.88010633333333, "is_reserved": 0, "is_disabled": 0, "fusion_lat": 0.0}, {"fusion_lon": 0.0, "bike_id": "de405c5e3376a7131cf34528ce02e12a", "name": "de405c5e3376a7131cf34528ce02e12a", "type": "electric_scooter", "lon": -77.02485916666667, "rental_uris": {"android": "https://dc.lft.to/lastmile_qr_scan", "ios": "https://dc.lft.to/lastmile_qr_scan"}, "lat": 38.91750833333333, "is_reserved": 0, "is_disabled": 0, "fusion_lat": 0.0}, {"fusion_lon": 0.0, "bike_id": "9cb30e88a2c40951704f2ea1d98c7d06", "name": "9cb30e88a2c40951704f2ea1d98c7d06", "type": "electric_scooter", "lon": -76.98616366666667, "rental_uris": {"android": "https://dc.lft.to/lastmile_qr_scan", "ios": "https://dc.lft.to/lastmile_qr_scan"}, "lat": 38.90588116666667, "is_reserved": 0, "is_disabled": 0, "fusion_lat": 0.0}, {"fusion_lon": 0.0, "bike_id": "29dbf846cbc56a5a6d6b15676219cf75", "name": "29dbf846cbc56a5a6d6b15676219cf75", "type": "electric_bike", "lon": -77.034377, "rental_uris": {"android": "https://dc.lft.to/lastmile_qr_scan", "ios": "https://dc.lft.to/lastmile_qr_scan"}, "lat": 38.90978483333333, "is_reserved": 0, "is_disabled": 0, "fusion_lat": 0.0}, {"fusion_lon": 0.0, "bike_id": "6557e74cf2022a8511649937f9613c27", "name": "6557e74cf2022a8511649937f9613c27", "type": "electric_bike", "lon": -77.00865466666667, "rental_uris": {"android": "https://dc.lft.to/lastmile_qr_scan", "ios": "https://dc.lft.to/lastmile_qr_scan"}, "lat": 38.8272745, "is_reserved": 0, "is_disabled": 0, "fusion_lat": 0.0}, {"fusion_lon": 0.0, "bike_id": "dec2ef2e289107e0762d9ae60566e771", "name": "dec2ef2e289107e0762d9ae60566e771", "type": "electric_scooter", "lon": -76.993864, "rental_uris": {"android": "https://dc.lft.to/lastmile_qr_scan", "ios": "https://dc.lft.to/lastmile_qr_scan"}, "lat": 38.924034666666664, "is_reserved": 0, "is_disabled": 0, "fusion_lat": 0.0}, {"fusion_lon": 0.0, "bike_id": "1128d68c8c2aff741fe3975ca01dc54b", "name": "1128d68c8c2aff741fe3975ca01dc54b", "type": "electric_scooter", "lon": -77.02535883333333, "rental_uris": {"android": "https://dc.lft.to/lastmile_qr_scan", "ios": "https://dc.lft.to/lastmile_qr_scan"}, "lat": 38.90094933333334, "is_reserved": 0, "is_disabled": 0, "fusion_lat": 0.0}, {"fusion_lon": 0.0, "bike_id": "b2ab9bc7c89679f875825e4b2fa5cf56", "name": "b2ab9bc7c89679f875825e4b2fa5cf56", "type": "electric_scooter", "lon": -76.98571266666667, "rental_uris": {"android": "https://dc.lft.to/lastmile_qr_scan", "ios": "https://dc.lft.to/lastmile_qr_scan"}, "lat": 38.855872, "is_reserved": 0, "is_disabled": 0, "fusion_lat": 0.0}, {"fusion_lon": 0.0, "bike_id": "214f6336d003a2028184eb623dc20d28", "name": "214f6336d003a2028184eb623dc20d28", "type": "electric_scooter", "lon": -77.03476216666667, "rental_uris": {"android": "https://dc.lft.to/lastmile_qr_scan", "ios": "https://dc.lft.to/lastmile_qr_scan"}, "lat": 38.9079605, "is_reserved": 0, "is_disabled": 0, "fusion_lat": 0.0}, {"fusion_lon": 0.0, "bike_id": "63ab0c10299401bed68efcc46038afbf", "name": "63ab0c10299401bed68efcc46038afbf", "type": "electric_scooter", "lon": -77.01761133333333, "rental_uris": {"android": "https://dc.lft.to/lastmile_qr_scan", "ios": "https://dc.lft.to/lastmile_qr_scan"}, "lat": 38.878527166666665, "is_reserved": 0, "is_disabled": 0, "fusion_lat": 0.0}, {"fusion_lon": 0.0, "bike_id": "29ccdab44c2462092d4339e6920acf4f", "name": "29ccdab44c2462092d4339e6920acf4f", "type": "electric_scooter", "lon": -77.0318175, "rental_uris": {"android": "https://dc.lft.to/lastmile_qr_scan", "ios": "https://dc.lft.to/lastmile_qr_scan"}, "lat": 38.9192235, "is_reserved": 0, "is_disabled": 0, "fusion_lat": 0.0}, {"fusion_lon": 0.0, "bike_id": "afe032eea579e84631d4183831630373", "name": "afe032eea579e84631d4183831630373", "type": "electric_scooter", "lon": -77.05404083333333, "rental_uris": {"android": "https://dc.lft.to/lastmile_qr_scan", "ios": "https://dc.lft.to/lastmile_qr_scan"}, "lat": 38.86898383333333, "is_reserved": 0, "is_disabled": 0, "fusion_lat": 0.0}, {"fusion_lon": 0.0, "bike_id": "f32f3e17274afdbd34aa07c455e6d13c", "name": "f32f3e17274afdbd34aa07c455e6d13c", "type": "electric_scooter", "lon": -77.03868216666666, "rental_uris": {"android": "https://dc.lft.to/lastmile_qr_scan", "ios": "https://dc.lft.to/lastmile_qr_scan"}, "lat": 38.91172533333334, "is_reserved": 0, "is_disabled": 0, "fusion_lat": 0.0}, {"fusion_lon": 0.0, "bike_id": "22dbcf5819acebdd0852cc17ffbc9edc", "name": "22dbcf5819acebdd0852cc17ffbc9edc", "type": "electric_scooter", "lon": -76.92215516666667, "rental_uris": {"android": "https://dc.lft.to/lastmile_qr_scan", "ios": "https://dc.lft.to/lastmile_qr_scan"}, "lat": 38.8993345, "is_reserved": 0, "is_disabled": 0, "fusion_lat": 0.0}, {"fusion_lon": 0.0, "bike_id": "759c03721aa7f64d79bb47906d4883a9", "name": "759c03721aa7f64d79bb47906d4883a9", "type": "electric_scooter", "lon": -77.07129133333333, "rental_uris": {"android": "https://dc.lft.to/lastmile_qr_scan", "ios": "https://dc.lft.to/lastmile_qr_scan"}, "lat": 38.9197835, "is_reserved": 0, "is_disabled": 0, "fusion_lat": 0.0}, {"fusion_lon": 0.0, "bike_id": "0a5450b566a93aaa50183bf6e8ce796a", "name": "0a5450b566a93aaa50183bf6e8ce796a", "type": "electric_scooter", "lon": -76.94250983333333, "rental_uris": {"android": "https://dc.lft.to/lastmile_qr_scan", "ios": "https://dc.lft.to/lastmile_qr_scan"}, "lat": 38.896759833333334, "is_reserved": 0, "is_disabled": 0, "fusion_lat": 0.0}, {"fusion_lon": 0.0, "bike_id": "d3807f392bf27279218b425e234893b5", "name": "d3807f392bf27279218b425e234893b5", "type": "electric_scooter", "lon": -77.03333683333334, "rental_uris": {"android": "https://dc.lft.to/lastmile_qr_scan", "ios": "https://dc.lft.to/lastmile_qr_scan"}, "lat": 38.89822816666667, "is_reserved": 0, "is_disabled": 0, "fusion_lat": 0.0}, {"fusion_lon": 0.0, "bike_id": "b263d1d7514a978750f0ac110a6dda91", "name": "b263d1d7514a978750f0ac110a6dda91", "type": "electric_scooter", "lon": -77.0239085, "rental_uris": {"android": "https://dc.lft.to/lastmile_qr_scan", "ios": "https://dc.lft.to/lastmile_qr_scan"}, "lat": 38.9150655, "is_reserved": 0, "is_disabled": 0, "fusion_lat": 0.0}, {"fusion_lon": 0.0, "bike_id": "830fc1f7d7652e8edbd50cccac29b059", "name": "830fc1f7d7652e8edbd50cccac29b059", "type": "electric_scooter", "lon": -77.040163, "rental_uris": {"android": "https://dc.lft.to/lastmile_qr_scan", "ios": "https://dc.lft.to/lastmile_qr_scan"}, "lat": 38.913071333333335, "is_reserved": 0, "is_disabled": 0, "fusion_lat": 0.0}, {"fusion_lon": 0.0, "bike_id": "b9cb70e2654faf9ac4e0ad0d0c8ec978", "name": "b9cb70e2654faf9ac4e0ad0d0c8ec978", "type": "electric_scooter", "lon": -77.04373933333333, "rental_uris": {"android": "https://dc.lft.to/lastmile_qr_scan", "ios": "https://dc.lft.to/lastmile_qr_scan"}, "lat": 38.90633166666667, "is_reserved": 0, "is_disabled": 0, "fusion_lat": 0.0}, {"fusion_lon": 0.0, "bike_id": "e226f9af599a5af3fc0190d15a135ce7", "name": "e226f9af599a5af3fc0190d15a135ce7", "type": "electric_scooter", "lon": -77.02572166666667, "rental_uris": {"android": "https://dc.lft.to/lastmile_qr_scan", "ios": "https://dc.lft.to/lastmile_qr_scan"}, "lat": 38.9250635, "is_reserved": 0, "is_disabled": 0, "fusion_lat": 0.0}, {"fusion_lon": 0.0, "bike_id": "9cbe4b9289f9fe9c5d5cd305e0f6302b", "name": "9cbe4b9289f9fe9c5d5cd305e0f6302b", "type": "electric_scooter", "lon": -77.03842016666667, "rental_uris": {"android": "https://dc.lft.to/lastmile_qr_scan", "ios": "https://dc.lft.to/lastmile_qr_scan"}, "lat": 38.9121195, "is_reserved": 0, "is_disabled": 0, "fusion_lat": 0.0}, {"fusion_lon": 0.0, "bike_id": "0abfca200c0e77da729665b949b313f6", "name": "0abfca200c0e77da729665b949b313f6", "type": "electric_bike", "lon": -77.12267283333334, "rental_uris": {"android": "https://dc.lft.to/lastmile_qr_scan", "ios": "https://dc.lft.to/lastmile_qr_scan"}, "lat": 38.897350333333335, "is_reserved": 0, "is_disabled": 0, "fusion_lat": 0.0}, {"fusion_lon": 0.0, "bike_id": "dfa36cbe4d74505dcf8222d22f55627e", "name": "dfa36cbe4d74505dcf8222d22f55627e", "type": "electric_bike", "lon": -76.91656116666667, "rental_uris": {"android": "https://dc.lft.to/lastmile_qr_scan", "ios": "https://dc.lft.to/lastmile_qr_scan"}, "lat": 38.86859416666667, "is_reserved": 0, "is_disabled": 0, "fusion_lat": 0.0}, {"fusion_lon": 0.0, "bike_id": "8eb7bb1ee49131b9c2df801e470c5feb", "name": "8eb7bb1ee49131b9c2df801e470c5feb", "type": "electric_scooter", "lon": -77.02597266666666, "rental_uris": {"android": "https://dc.lft.to/lastmile_qr_scan", "ios": "https://dc.lft.to/lastmile_qr_scan"}, "lat": 38.895052, "is_reserved": 0, "is_disabled": 0, "fusion_lat": 0.0}, {"fusion_lon": 0.0, "bike_id": "d29a40f9e81efce76dfd66637a04e6a8", "name": "d29a40f9e81efce76dfd66637a04e6a8", "type": "electric_bike", "lon": -77.23384583333333, "rental_uris": {"android": "https://dc.lft.to/lastmile_qr_scan", "ios": "https://dc.lft.to/lastmile_qr_scan"}, "lat": 38.9249825, "is_reserved": 0, "is_disabled": 0, "fusion_lat": 0.0}, {"fusion_lon": 0.0, "bike_id": "49b19a0478b3d79958bd929d4a584526", "name": "49b19a0478b3d79958bd929d4a584526", "type": "electric_scooter", "lon": -77.04194733333334, "rental_uris": {"android": "https://dc.lft.to/lastmile_qr_scan", "ios": "https://dc.lft.to/lastmile_qr_scan"}, "lat": 38.923436, "is_reserved": 0, "is_disabled": 0, "fusion_lat": 0.0}, {"fusion_lon": 0.0, "bike_id": "d8e6e69106c6379ac8f7e0289ef50282", "name": "d8e6e69106c6379ac8f7e0289ef50282", "type": "electric_scooter", "lon": -77.03931316666667, "rental_uris": {"android": "https://dc.lft.to/lastmile_qr_scan", "ios": "https://dc.lft.to/lastmile_qr_scan"}, "lat": 38.92491533333333, "is_reserved": 0, "is_disabled": 0, "fusion_lat": 0.0}, {"fusion_lon": 0.0, "bike_id": "02423013883789e820e37b58ef3ca57e", "name": "02423013883789e820e37b58ef3ca57e", "type": "electric_bike", "lon": -77.05111083333334, "rental_uris": {"android": "https://dc.lft.to/lastmile_qr_scan", "ios": "https://dc.lft.to/lastmile_qr_scan"}, "lat": 38.945517, "is_reserved": 0, "is_disabled": 0, "fusion_lat": 0.0}, {"fusion_lon": 0.0, "bike_id": "10728241ecfc1231333a1854b6288a46", "name": "10728241ecfc1231333a1854b6288a46", "type": "electric_scooter", "lon": -76.96437666666667, "rental_uris": {"android": "https://dc.lft.to/lastmile_qr_scan", "ios": "https://dc.lft.to/lastmile_qr_scan"}, "lat": 38.93463966666667, "is_reserved": 0, "is_disabled": 0, "fusion_lat": 0.0}, {"fusion_lon": 0.0, "bike_id": "7faf8f9d148932c0686a0f6176ea47e5", "name": "7faf8f9d148932c0686a0f6176ea47e5", "type": "electric_scooter", "lon": -77.043928, "rental_uris": {"android": "https://dc.lft.to/lastmile_qr_scan", "ios": "https://dc.lft.to/lastmile_qr_scan"}, "lat": 38.902239333333334, "is_reserved": 0, "is_disabled": 0, "fusion_lat": 0.0}, {"fusion_lon": 0.0, "bike_id": "0e430af5ef8b97f8dc61e83bde74ef7a", "name": "0e430af5ef8b97f8dc61e83bde74ef7a", "type": "electric_bike", "lon": -77.05621266666667, "rental_uris": {"android": "https://dc.lft.to/lastmile_qr_scan", "ios": "https://dc.lft.to/lastmile_qr_scan"}, "lat": 38.857265166666664, "is_reserved": 0, "is_disabled": 0, "fusion_lat": 0.0}, {"fusion_lon": 0.0, "bike_id": "ee22347431b3553e52e067bbc07dbc42", "name": "ee22347431b3553e52e067bbc07dbc42", "type": "electric_bike", "lon": -77.10725933333333, "rental_uris": {"android": "https://dc.lft.to/lastmile_qr_scan", "ios": "https://dc.lft.to/lastmile_qr_scan"}, "lat": 38.855364, "is_reserved": 0, "is_disabled": 0, "fusion_lat": 0.0}, {"fusion_lon": 0.0, "bike_id": "c8c5693ccd56941377894c2cfc632365", "name": "c8c5693ccd56941377894c2cfc632365", "type": "electric_scooter", "lon": -77.03873933333334, "rental_uris": {"android": "https://dc.lft.to/lastmile_qr_scan", "ios": "https://dc.lft.to/lastmile_qr_scan"}, "lat": 38.93430033333333, "is_reserved": 0, "is_disabled": 0, "fusion_lat": 0.0}, {"fusion_lon": 0.0, "bike_id": "c8b12312a5f2067cc99ea5a02354996e", "name": "c8b12312a5f2067cc99ea5a02354996e", "type": "electric_scooter", "lon": -77.0444915, "rental_uris": {"android": "https://dc.lft.to/lastmile_qr_scan", "ios": "https://dc.lft.to/lastmile_qr_scan"}, "lat": 38.909898166666665, "is_reserved": 0, "is_disabled": 0, "fusion_lat": 0.0}, {"fusion_lon": 0.0, "bike_id": "ae8fc0fd14be4dc1bd08b343c31438a4", "name": "ae8fc0fd14be4dc1bd08b343c31438a4", "type": "electric_scooter", "lon": -77.06362666666666, "rental_uris": {"android": "https://dc.lft.to/lastmile_qr_scan", "ios": "https://dc.lft.to/lastmile_qr_scan"}, "lat": 38.944157, "is_reserved": 0, "is_disabled": 0, "fusion_lat": 0.0}, {"fusion_lon": 0.0, "bike_id": "bedefbd9c467db41b158a21e2bde9f79", "name": "bedefbd9c467db41b158a21e2bde9f79", "type": "electric_scooter", "lon": -77.03280233333334, "rental_uris": {"android": "https://dc.lft.to/lastmile_qr_scan", "ios": "https://dc.lft.to/lastmile_qr_scan"}, "lat": 38.929286166666664, "is_reserved": 0, "is_disabled": 0, "fusion_lat": 0.0}, {"fusion_lon": 0.0, "bike_id": "962b53e0399a6ac62c402959af6923d7", "name": "962b53e0399a6ac62c402959af6923d7", "type": "electric_scooter", "lon": -76.9367255, "rental_uris": {"android": "https://dc.lft.to/lastmile_qr_scan", "ios": "https://dc.lft.to/lastmile_qr_scan"}, "lat": 38.887486833333334, "is_reserved": 0, "is_disabled": 0, "fusion_lat": 0.0},