{"data": {"bikes": [{"lon": -77.02693616666667, "bike_id": "3347088bd77a9bb8919a58f5a3805ea2", "lat": 38.89742116666667, "fusion_lon": 0.0, "fusion_lat": 0.0, "type": "electric_scooter", "name": "3347088bd77a9bb8919a58f5a3805ea2", "is_disabled": 0, "rental_uris": {"ios": "https://dc.lft.to/lastmile_qr_scan", "android": "https://dc.lft.to/lastmile_qr_scan"}, "is_reserved": 0}, {"lon": -77.03335, "bike_id": "c9901a97a110d2e450383f79cc8eb46f", "lat": 38.909839166666664, "fusion_lon": 0.0, "fusion_lat": 0.0, "type": "electric_scooter", "name": "c9901a97a110d2e450383f79cc8eb46f", "is_disabled": 0, "rental_uris": {"ios": "https://dc.lft.to/lastmile_qr_scan", "android": "https://dc.lft.to/lastmile_qr_scan"}, "is_reserved": 0}, {"lon": -77.02323583333333, "bike_id": "133bcedeeb6216c47e2b77a9b8ed7bb0", "lat": 38.927640833333335, "fusion_lon": 0.0, "fusion_lat": 0.0, "type": "electric_scooter", "name": "133bcedeeb6216c47e2b77a9b8ed7bb0", "is_disabled": 0, "rental_uris": {"ios": "https://dc.lft.to/lastmile_qr_scan", "android": "https://dc.lft.to/lastmile_qr_scan"}, "is_reserved": 0}, {"lon": -76.98730183333333, "bike_id": "513af4d7a683092b27fc01928136bdbd", "lat": 38.867073500000004, "fusion_lon": 0.0, "fusion_lat": 0.0, "type": "electric_scooter", "name": "513af4d7a683092b27fc01928136bdbd", "is_disabled": 0, "rental_uris": {"ios": "https://dc.lft.to/lastmile_qr_scan", "android": "https://dc.lft.to/lastmile_qr_scan"}, "is_reserved": 0}, {"lon": -76.960578, "bike_id": "fb221c370f13cde83b19b6440a2087e4", "lat": 38.884041, "fusion_lon": 0.0, "fusion_lat": 0.0, "type": "electric_bike", "name": "fb221c370f13cde83b19b6440a2087e4", "is_disabled": 0, "rental_uris": {"ios": "https://dc.lft.to/lastmile_qr_scan", "android": "https://dc.lft.to/lastmile_qr_scan"}, "is_reserved": 0}, {"lon": -77.02435416666667, "bike_id": "33b8ae960abd479a268140d44ae2b0ca", "lat": 38.89976816666667, "fusion_lon": 0.0, "fusion_lat": 0.0, "type": "electric_scooter", "name": "33b8ae960abd479a268140d44ae2b0ca", "is_disabled": 0, "rental_uris": {"ios": "https://dc.lft.to/lastmile_qr_scan", "android": "https://dc.lft.to/lastmile_qr_scan"}, "is_reserved": 0}, {"lon": -77.0334215, "bike_id": "0996bb35ca4e770d2bf66425721a2faa", "lat": 38.936431166666665, "fusion_lon": 0.0, "fusion_lat": 0.0, "type": "electric_scooter", "name": "0996bb35ca4e770d2bf66425721a2faa", "is_disabled": 0, "rental_uris": {"ios": "https://dc.lft.to/lastmile_qr_scan", "android": "https://dc.lft.to/lastmile_qr_scan"}, "is_reserved": 0}, {"lon": -77.0320225, "bike_id": "1d4e0fe001321531f4d4b781bfc2acb9", "lat": 38.915706166666666, "fusion_lon": 0.0, "fusion_lat": 0.0, "type": "electric_bike", "name": "1d4e0fe001321531f4d4b781bfc2acb9", "is_disabled": 0, "rental_uris": {"ios": "https://dc.lft.to/lastmile_qr_scan", "android": "https://dc.lft.to/lastmile_qr_scan"}, "is_reserved": 0}, {"lon": -76.993357, "bike_id": "9f783ab486ae79d933e579d6b5bed44f", "lat": 38.871410833333336, "fusion_lon": 0.0, "fusion_lat": 0.0, "type": "electric_scooter", "name": "9f783ab486ae79d933e579d6b5bed44f", "is_disabled": 0, "rental_uris": {"ios": "https://dc.lft.to/lastmile_qr_scan", "android": "https://dc.lft.to/lastmile_qr_scan"}, "is_reserved": 0}, {"lon": -76.98708283333333, "bike_id": "c7939e522ba9620b13e68f63071e7198", "lat": 38.86539233333333, "fusion_lon": 0.0, "fusion_lat": 0.0, "type": "electric_scooter", "name": "c7939e522ba9620b13e68f63071e7198", "is_disabled": 0, "rental_uris": {"ios": "https://dc.lft.to/lastmile_qr_scan", "android": "https://dc.lft.to/lastmile_qr_scan"}, "is_reserved": 0}, {"lon": -77.00852466666667, "bike_id": "2c46d8610aa181e88bab7ef577c7fc35", "lat": 38.950903833333335, "fusion_lon": 0.0, "fusion_lat": 0.0, "type": "electric_bike", "name": "2c46d8610aa181e88bab7ef577c7fc35", "is_disabled": 0, "rental_uris": {"ios": "https://dc.lft.to/lastmile_qr_scan", "android": "https://dc.lft.to/lastmile_qr_scan"}, "is_reserved": 0}, {"lon": -77.02277866666667, "bike_id": "47dc10e93cb6f747be207502c8d339c9", "lat": 38.87874716666666, "fusion_lon": 0.0, "fusion_lat": 0.0, "type": "electric_scooter", "name": "47dc10e93cb6f747be207502c8d339c9", "is_disabled": 0, "rental_uris": {"ios": "https://dc.lft.to/lastmile_qr_scan", "android": "https://dc.lft.to/lastmile_qr_scan"}, "is_reserved": 0}, {"lon": -76.94891083333333, "bike_id": "c1bab9f40c42a469a0c8f82a0ce77e10", "lat": 38.8951125, "fusion_lon": 0.0, "fusion_lat": 0.0, "type": "electric_scooter", "name": "c1bab9f40c42a469a0c8f82a0ce77e10", "is_disabled": 0, "rental_uris": {"ios": "https://dc.lft.to/lastmile_qr_scan", "android": "https://dc.lft.to/lastmile_qr_scan"}, "is_reserved": 0}, {"lon": -77.02725666666667, "bike_id": "832ea49e3db21f3d1778a877520cd748", "lat": 38.89634933333333, "fusion_lon": 0.0, "fusion_lat": 0.0, "type": "electric_scooter", "name": "832ea49e3db21f3d1778a877520cd748", "is_disabled": 0, "rental_uris": {"ios": "https://dc.lft.to/lastmile_qr_scan", "android": "https://dc.lft.to/lastmile_qr_scan"}, "is_reserved": 0}, {"lon": -77.0438925, "bike_id": "f680f9f4ffe13a27ae621731ee561523", "lat": 38.90881383333333, "fusion_lon": 0.0, "fusion_lat": 0.0, "type": "electric_scooter", "name": "f680f9f4ffe13a27ae621731ee561523", "is_disabled": 0, "rental_uris": {"ios": "https://dc.lft.to/lastmile_qr_scan", "android": "https://dc.lft.to/lastmile_qr_scan"}, "is_reserved": 0}, {"lon": -77.02092316666666, "bike_id": "fc5e89148d71837749ead351a66514f3", "lat": 38.95748233333333, "fusion_lon": 0.0, "fusion_lat": 0.0, "type": "electric_scooter", "name": "fc5e89148d71837749ead351a66514f3", "is_disabled": 0, "rental_uris": {"ios": "https://dc.lft.to/lastmile_qr_scan", "android": "https://dc.lft.to/lastmile_qr_scan"}, "is_reserved": 0}, {"lon": -77.03235333333333, "bike_id": "324842292bd9bea16aa0ed58cfd5e50e", "lat": 38.938806166666666, "fusion_lon": 0.0, "fusion_lat": 0.0, "type": "electric_scooter", "name": "324842292bd9bea16aa0ed58cfd5e50e", "is_disabled": 0, "rental_uris": {"ios": "https://dc.lft.to/lastmile_qr_scan", "android": "https://dc.lft.to/lastmile_qr_scan"}, "is_reserved": 0}, {"lon": -77.03339983333333, "bike_id": "2c3b3c895ac7e727707e982e04712d9d", "lat": 38.91556683333334, "fusion_lon": 0.0, "fusion_lat": 0.0, "type": "electric_scooter", "name": "2c3b3c895ac7e727707e982e04712d9d", "is_disabled": 0, "rental_uris": {"ios": "https://dc.lft.to/lastmile_qr_scan", "android": "https://dc.lft.to/lastmile_qr_scan"}, "is_reserved": 0}, {"lon": -77.05236633333334, "bike_id": "f61fc3edb6887dca14b0797f3b1f5281", "lat": 38.923366333333334, "fusion_lon": 0.0, "fusion_lat": 0.0, "type": "electric_scooter", "name": "f61fc3edb6887dca14b0797f3b1f5281", "is_disabled": 0, "rental_uris": {"ios": "https://dc.lft.to/lastmile_qr_scan", "android": "https://dc.lft.to/lastmile_qr_scan"}, "is_reserved": 0}, {"lon": -76.98766016666667, "bike_id": "938b28c2fe35e15b85a7a1b8f7c21dc2", "lat": 38.85766383333333, "fusion_lon": 0.0, "fusion_lat": 0.0, "type": "electric_bike", "name": "938b28c2fe35e15b85a7a1b8f7c21dc2", "is_disabled": 0, "rental_uris": {"ios": "https://dc.lft.to/lastmile_qr_scan", "android": "https://dc.lft.to/lastmile_qr_scan"}, "is_reserved": 0}, {"lon": -77.03448816666666, "bike_id": "109a203ce3a39aa8cf1c6b6c5b885605", "lat": 38.9168145, "fusion_lon": 0.0, "fusion_lat": 0.0, "type": "electric_scooter", "name": "109a203ce3a39aa8cf1c6b6c5b885605", "is_disabled": 0, "rental_uris": {"ios": "https://dc.lft.to/lastmile_qr_scan", "android": "https://dc.lft.to/lastmile_qr_scan"}, "is_reserved": 0}, {"lon": -77.02769483333333, "bike_id": "b328d2cee5a8c58ed8d43100b9a5b14f", "lat": 38.95423566666667, "fusion_lon": 0.0, "fusion_lat": 0.0, "type": "electric_scooter", "name": "b328d2cee5a8c58ed8d43100b9a5b14f", "is_disabled": 0, "rental_uris": {"ios": "https://dc.lft.to/lastmile_qr_scan", "android": "https://dc.lft.to/lastmile_qr_scan"}, "is_reserved": 0}, {"lon": -77.032667, "bike_id": "df53e72e8ad556c135ce2125a1cdc180", "lat": 38.93723333333333, "fusion_lon": 0.0, "fusion_lat": 0.0, "type": "electric_scooter", "name": "df53e72e8ad556c135ce2125a1cdc180", "is_disabled": 0, "rental_uris": {"ios": "https://dc.lft.to/lastmile_qr_scan", "android": "https://dc.lft.to/lastmile_qr_scan"}, "is_reserved": 0}, {"lon": -77.01023116666667, "bike_id": "8b370aac679b127035a81d3d701f1885", "lat": 38.956005, "fusion_lon": 0.0, "fusion_lat": 0.0, "type": "electric_bike", "name": "8b370aac679b127035a81d3d701f1885", "is_disabled": 0, "rental_uris": {"ios": "https://dc.lft.to/lastmile_qr_scan", "android": "https://dc.lft.to/lastmile_qr_scan"}, "is_reserved": 0}, {"lon": -77.04351516666667, "bike_id": "54d14d4e19f3b4d7d1a214bd52e7fca1", "lat": 38.910556166666666, "fusion_lon": 0.0, "fusion_lat": 0.0, "type": "electric_scooter", "name": "54d14d4e19f3b4d7d1a214bd52e7fca1", "is_disabled": 0, "rental_uris": {"ios": "https://dc.lft.to/lastmile_qr_scan", "android": "https://dc.lft.to/lastmile_qr_scan"}, "is_reserved": 0}, {"lon": -76.980871, "bike_id": "a321e571164c09f7f3cf8781b7556e2c", "lat": 38.90702516666666, "fusion_lon": 0.0, "fusion_lat": 0.0, "type": "electric_scooter", "name": "a321e571164c09f7f3cf8781b7556e2c", "is_disabled": 0, "rental_uris": {"ios": "https://dc.lft.to/lastmile_qr_scan", "android": "https://dc.lft.to/lastmile_qr_scan"}, "is_reserved": 0}, {"lon": -77.0683605, "bike_id": "cd7c64d409cef5e4c5b52071c1e43f96", "lat": 38.80563583333333, "fusion_lon": 0.0, "fusion_lat": 0.0, "type": "electric_bike", "name": "cd7c64d409cef5e4c5b52071c1e43f96", "is_disabled": 0, "rental_uris": {"ios": "https://dc.lft.to/lastmile_qr_scan", "android": "https://dc.lft.to/lastmile_qr_scan"}, "is_reserved": 0}, {"lon": -77.00338166666667, "bike_id": "86a42d30c6cd2a02328482f6e4f6e49d", "lat": 38.8973135, "fusion_lon": 0.0, "fusion_lat": 0.0, "type": "electric_scooter", "name": "86a42d30c6cd2a02328482f6e4f6e49d", "is_disabled": 0, "rental_uris": {"ios": "https://dc.lft.to/lastmile_qr_scan", "android": "https://dc.lft.to/lastmile_qr_scan"}, "is_reserved": 0}, {"lon": -77.01405816666667, "bike_id": "73dcf49393bdc65d1c02bbca44ac606b", "lat": 38.92818033333333, "fusion_lon": 0.0, "fusion_lat": 0.0, "type": "electric_scooter", "name": "73dcf49393bdc65d1c02bbca44ac606b", "is_disabled": 0, "rental_uris": {"ios": "https://dc.lft.to/lastmile_qr_scan", "android": "https://dc.lft.to/lastmile_qr_scan"}, "is_reserved": 0}, {"lon": -77.00500616666666, "bike_id": "34a38c1f5d7251b3839a1b6a85f27b77", "lat": 38.91758316666667, "fusion_lon": 0.0, "fusion_lat": 0.0, "type": "electric_scooter", "name": "34a38c1f5d7251b3839a1b6a85f27b77", "is_disabled": 0, "rental_uris": {"ios": "https://dc.lft.to/lastmile_qr_scan", "android": "https://dc.lft.to/lastmile_qr_scan"}, "is_reserved": 0}, {"lon": -77.03348316666667, "bike_id": "a3fa7f55315da6691fde9c6e30af3665", "lat": 38.9450115, "fusion_lon": 0.0, "fusion_lat": 0.0, "type": "electric_bike", "name": "a3fa7f55315da6691fde9c6e30af3665", "is_disabled": 0, "rental_uris": {"ios": "https://dc.lft.to/lastmile_qr_scan", "android": "https://dc.lft.to/lastmile_qr_scan"}, "is_reserved": 0}, {"lon": -76.96915716666666, "bike_id": "70e1a3825b896f9e5a6a3b55186cf738", "lat": 38.84607316666666, "fusion_lon": 0.0, "fusion_lat": 0.0, "type": "electric_bike", "name": "70e1a3825b896f9e5a6a3b55186cf738", "is_disabled": 0, "rental_uris": {"ios": "https://dc.lft.to/lastmile_qr_scan", "android": "https://dc.lft.to/lastmile_qr_scan"}, "is_reserved": 0}, {"lon": -77.02395516666667, "bike_id": "ff23e6b07829c50cc53469ee7dbf42de", "lat": 38.89966283333333, "fusion_lon": 0.0, "fusion_lat": 0.0, "type": "electric_scooter", "name": "ff23e6b07829c50cc53469ee7dbf42de", "is_disabled": 0, "rental_uris": {"ios": "https://dc.lft.to/lastmile_qr_scan", "android": "https://dc.lft.to/lastmile_qr_scan"}, "is_reserved": 0}, {"lon": -77.03194166666667, "bike_id": "32ed9793c718b2173976634dc5d1cc43", "lat": 38.914253333333335, "fusion_lon": 0.0, "fusion_lat": 0.0, "type": "electric_scooter", "name": "32ed9793c718b2173976634dc5d1cc43", "is_disabled": 0, "rental_uris": {"ios": "https://dc.lft.to/lastmile_qr_scan", "android": "https://dc.lft.to/lastmile_qr_scan"}, "is_reserved": 0}, {"lon": -77.0225855, "bike_id": "76b3f28a550cfc4b3a96d1aa23a8cfe4", "lat": 38.899806, "fusion_lon": 0.0, "fusion_lat": 0.0, "type": "electric_scooter", "name": "76b3f28a550cfc4b3a96d1aa23a8cfe4", "is_disabled": 0, "rental_uris": {"ios": "https://dc.lft.to/lastmile_qr_scan", "android": "https://dc.lft.to/lastmile_qr_scan"}, "is_reserved": 0}, {"lon": -77.11599216666667, "bike_id": "cb2be3dbed85ddaa8d455451494eec8a", "lat": 39.07491816666667, "fusion_lon": 0.0, "fusion_lat": 0.0, "type": "electric_bike", "name": "cb2be3dbed85ddaa8d455451494eec8a", "is_disabled": 0, "rental_uris": {"ios": "https://dc.lft.to/lastmile_qr_scan", "android": "https://dc.lft.to/lastmile_qr_scan"}, "is_reserved": 0}, {"lon": -76.97951683333334, "bike_id": "c4247c33aaef2bbe4bc78a4bbcc7c570", "lat": 38.90010983333333, "fusion_lon": 0.0, "fusion_lat": 0.0, "type": "electric_scooter", "name": "c4247c33aaef2bbe4bc78a4bbcc7c570", "is_disabled": 0, "rental_uris": {"ios": "https://dc.lft.to/lastmile_qr_scan", "android": "https://dc.lft.to/lastmile_qr_scan"}, "is_reserved": 0}, {"lon": -76.9789025, "bike_id": "6f198afc4e6a1a056c1f5ab5e733e284", "lat": 38.885394833333336, "fusion_lon": 0.0, "fusion_lat": 0.0, "type": "electric_scooter", "name": "6f198afc4e6a1a056c1f5ab5e733e284", "is_disabled": 0, "rental_uris": {"ios": "https://dc.lft.to/lastmile_qr_scan", "android": "https://dc.lft.to/lastmile_qr_scan"}, "is_reserved": 0}, {"lon": -76.98568733333333, "bike_id": "84e242a6fb078df60d850566eff1f2dc", "lat": 38.9071275, "fusion_lon": 0.0, "fusion_lat": 0.0, "type": "electric_scooter", "name": "84e242a6fb078df60d850566eff1f2dc", "is_disabled": 0, "rental_uris": {"ios": "https://dc.lft.to/lastmile_qr_scan", "android": "https://dc.lft.to/lastmile_qr_scan"}, "is_reserved": 0}, {"lon": -76.98338516666666, "bike_id": "0c2926235dcf7826e09968b30e5cf361", "lat": 38.89544466666667, "fusion_lon": 0.0, "fusion_lat": 0.0, "type": "electric_scooter", "name": "0c2926235dcf7826e09968b30e5cf361", "is_disabled": 0, "rental_uris": {"ios": "https://dc.lft.to/lastmile_qr_scan", "android": "https://dc.lft.to/lastmile_qr_scan"}, "is_reserved": 0}, {"lon": -77.11912566666666, "bike_id": "b55ea5b7db95d2ec035ec144f0514a22", "lat": 38.880889333333336, "fusion_lon": 0.0, "fusion_lat": 0.0, "type": "electric_bike", "name": "b55ea5b7db95d2ec035ec144f0514a22", "is_disabled": 0, "rental_uris": {"ios": "https://dc.lft.to/lastmile_qr_scan", "android": "https://dc.lft.to/lastmile_qr_scan"}, "is_reserved": 0}, {"lon": -77.04167316666667, "bike_id": "2a62d52282aeacb89e6694bfe1f031af", "lat": 38.916296833333334, "fusion_lon": 0.0, "fusion_lat": 0.0, "type": "electric_scooter", "name": "2a62d52282aeacb89e6694bfe1f031af", "is_disabled": 0, "rental_uris": {"ios": "https://dc.lft.to/lastmile_qr_scan", "android": "https://dc.lft.to/lastmile_qr_scan"}, "is_reserved": 0}, {"lon": -77.02971583333333, "bike_id": "a09853442db4d3cb703e688883e75ba7", "lat": 38.91269283333333, "fusion_lon": 0.0, "fusion_lat": 0.0, "type": "electric_scooter", "name": "a09853442db4d3cb703e688883e75ba7", "is_disabled": 0, "rental_uris": {"ios": "https://dc.lft.to/lastmile_qr_scan", "android": "https://dc.lft.to/lastmile_qr_scan"}, "is_reserved": 0}, {"lon": -77.01278766666667, "bike_id": "199df73733cacf0361f1805b3aa024f4", "lat": 38.8887445, "fusion_lon": 0.0, "fusion_lat": 0.0, "type": "electric_bike", "name": "199df73733cacf0361f1805b3aa024f4", "is_disabled": 0, "rental_uris": {"ios": "https://dc.lft.to/lastmile_qr_scan", "android": "https://dc.lft.to/lastmile_qr_scan"}, "is_reserved": 0}, {"lon": -77.04134716666667, "bike_id": "f8f7a791716b282e5d8d7f331244b2d6", "lat": 38.90596166666667, "fusion_lon": 0.0, "fusion_lat": 0.0, "type": "electric_scooter", "name": "f8f7a791716b282e5d8d7f331244b2d6", "is_disabled": 0, "rental_uris": {"ios": "https://dc.lft.to/lastmile_qr_scan", "android": "https://dc.lft.to/lastmile_qr_scan"}, "is_reserved": 0}, {"lon": -77.06764366666667, "bike_id": "0c6516f70fbba7fd5caf76a73b27572c", "lat": 38.903623, "fusion_lon": 0.0, "fusion_lat": 0.0, "type": "electric_bike", "name": "0c6516f70fbba7fd5caf76a73b27572c", "is_disabled": 0, "rental_uris": {"ios": "https://dc.lft.to/lastmile_qr_scan", "android": "https://dc.lft.to/lastmile_qr_scan"}, "is_reserved": 0}, {"lon": -76.98753066666667, "bike_id": "8695dca54a7eba1b43b690a08ff15f6e", "lat": 38.900261666666665, "fusion_lon": 0.0, "fusion_lat": 0.0, "type": "electric_scooter", "name": "8695dca54a7eba1b43b690a08ff15f6e", "is_disabled": 0, "rental_uris": {"ios": "https://dc.lft.to/lastmile_qr_scan", "android": "https://dc.lft.to/lastmile_qr_scan"}, "is_reserved": 0}, {"lon": -77.06590866666667, "bike_id": "da4aead36bf537bc83540d11162473b3", "lat": 38.90408466666667, "fusion_lon": 0.0, "fusion_lat": 0.0, "type": "electric_bike", "name": "da4aead36bf537bc83540d11162473b3", "is_disabled": 0, "rental_uris": {"ios": "https://dc.lft.to/lastmile_qr_scan", "android": "https://dc.lft.to/lastmile_qr_scan"}, "is_reserved": 0}, {"lon": -77.02768533333334, "bike_id": "db4ed1cb8d56b34a553a2d12b0f3084f", "lat": 38.92374916666667, "fusion_lon": 0.0, "fusion_lat": 0.0, "type": "electric_scooter", "name": "db4ed1cb8d56b34a553a2d12b0f3084f", "is_disabled": 0, "rental_uris": {"ios": "https://dc.lft.to/lastmile_qr_scan", "android": "https://dc.lft.to/lastmile_qr_scan"}, "is_reserved": 0}, {"lon": -76.99703666666667, "bike_id": "df44e9102326078ce06f571a885abbb1", "lat": 38.8442475, "fusion_lon": 0.0, "fusion_lat": 0.0, "type": "electric_scooter", "name": "df44e9102326078ce06f571a885abbb1", "is_disabled": 0, "rental_uris": {"ios": "https://dc.lft.to/lastmile_qr_scan", "android": "https://dc.lft.to/lastmile_qr_scan"}, "is_reserved": 0}, {"lon": -77.017613, "bike_id": "d48cf48ebb8c6e90aae15faba1a63849", "lat": 38.882076833333336, "fusion_lon": 0.0, "fusion_lat": 0.0, "type": "electric_scooter", "name": "d48cf48ebb8c6e90aae15faba1a63849", "is_disabled": 0, "rental_uris": {"ios": "https://dc.lft.to/lastmile_qr_scan", "android": "https://dc.lft.to/lastmile_qr_scan"}, "is_reserved": 0}, {"lon": -77.0184435, "bike_id": "888667a56e637e2654121cbd9f7dfb69", "lat": 38.909296499999996, "fusion_lon": 0.0, "fusion_lat": 0.0, "type": "electric_scooter", "name": "888667a56e637e2654121cbd9f7dfb69", "is_disabled": 0, "rental_uris": {"ios": "https://dc.lft.to/lastmile_qr_scan", "android": "https://dc.lft.to/lastmile_qr_scan"}, "is_reserved": 0}, {"lon": -77.00541266666667, "bike_id": "1adeb793820e1f6bdfad374029bc7bff", "lat": 38.87541733333333, "fusion_lon": 0.0, "fusion_lat": 0.0, "type": "electric_scooter", "name": "1adeb793820e1f6bdfad374029bc7bff", "is_disabled": 0, "rental_uris": {"ios": "https://dc.lft.to/lastmile_qr_scan", "android": "https://dc.lft.to/lastmile_qr_scan"}, "is_reserved": 0}, {"lon": -77.02765816666667, "bike_id": "d97dd385e84ed5cbb14f3d3928f3ebd1", "lat": 38.92767516666667, "fusion_lon": 0.0, "fusion_lat": 0.0, "type": "electric_scooter", "name": "d97dd385e84ed5cbb14f3d3928f3ebd1", "is_disabled": 0, "rental_uris": {"ios": "https://dc.lft.to/lastmile_qr_scan", "android": "https://dc.lft.to/lastmile_qr_scan"}, "is_reserved": 0}, {"lon": -77.02400716666666, "bike_id": "73f779518980883c8a418a668a24c099", "lat": 38.9190665, "fusion_lon": 0.0, "fusion_lat": 0.0, "type": "electric_scooter", "name": "73f779518980883c8a418a668a24c099", "is_disabled": 0, "rental_uris": {"ios": "https://dc.lft.to/lastmile_qr_scan", "android": "https://dc.lft.to/lastmile_qr_scan"}, "is_reserved": 0}, {"lon": -77.0423755, "bike_id": "abec31261f6f369e2f9502ee3d2ea176", "lat": 38.921775, "fusion_lon": 0.0, "fusion_lat": 0.0, "type": "electric_scooter", "name": "abec31261f6f369e2f9502ee3d2ea176", "is_disabled": 0, "rental_uris": {"ios": "https://dc.lft.to/lastmile_qr_scan", "android": "https://dc.lft.to/lastmile_qr_scan"}, "is_reserved": 0}, {"lon": -76.98185783333334, "bike_id": "fbac57c703e846b594b81b9a5ce68f77", "lat": 38.895796833333335, "fusion_lon": 0.0, "fusion_lat": 0.0, "type": "electric_scooter", "name": "fbac57c703e846b594b81b9a5ce68f77", "is_disabled": 0, "rental_uris": {"ios": "https://dc.lft.to/lastmile_qr_scan", "android": "https://dc.lft.to/lastmile_qr_scan"}, "is_reserved": 0}, {"lon": -77.036613, "bike_id": "2c758020783d653c3ebaa175ed805716", "lat": 38.91712033333334, "fusion_lon": 0.0, "fusion_lat": 0.0, "type": "electric_scooter", "name": "2c758020783d653c3ebaa175ed805716", "is_disabled": 0, "rental_uris": {"ios": "https://dc.lft.to/lastmile_qr_scan", "android": "https://dc.lft.to/lastmile_qr_scan"}, "is_reserved": 0}, {"lon": -77.038574, "bike_id": "7337979c096c5c069b3ae9962675f32c", "lat": 38.915761, "fusion_lon": 0.0, "fusion_lat": 0.0, "type": "electric_scooter", "name": "7337979c096c5c069b3ae9962675f32c", "is_disabled": 0, "rental_uris": {"ios": "https://dc.lft.to/lastmile_qr_scan", "android": "https://dc.lft.to/lastmile_qr_scan"}, "is_reserved": 0}, {"lon": -77.02297733333333, "bike_id": "edc326ccefbbcb11f286f4fbf34419f1", "lat": 38.90974516666667, "fusion_lon": 0.0, "fusion_lat": 0.0, "type": "electric_scooter", "name": "edc326ccefbbcb11f286f4fbf34419f1", "is_disabled": 0, "rental_uris": {"ios": "https://dc.lft.to/lastmile_qr_scan", "android": "https://dc.lft.to/lastmile_qr_scan"}, "is_reserved": 0}, {"lon": -76.933648, "bike_id": "66123a70fe21f2b166775b8592321b3f", "lat": 38.89916433333333, "fusion_lon": 0.0, "fusion_lat": 0.0, "type": "electric_scooter", "name": "66123a70fe21f2b166775b8592321b3f", "is_disabled": 0, "rental_uris": {"ios": "https://dc.lft.to/lastmile_qr_scan", "android": "https://dc.lft.to/lastmile_qr_scan"}, "is_reserved": 0}, {"lon": -77.02415916666666, "bike_id": "88a2e9733b4a982665d4860bb0998b2e", "lat": 38.9072765, "fusion_lon": 0.0, "fusion_lat": 0.0, "type": "electric_scooter", "name": "88a2e9733b4a982665d4860bb0998b2e", "is_disabled": 0, "rental_uris": {"ios": "https://dc.lft.to/lastmile_qr_scan", "android": "https://dc.lft.to/lastmile_qr_scan"}, "is_reserved": 0}, {"lon": -77.03332533333334, "bike_id": "9d812e660c1dbcd4f3eed350b8fa4430", "lat": 38.897177, "fusion_lon": 0.0, "fusion_lat": 0.0, "type": "electric_scooter", "name": "9d812e660c1dbcd4f3eed350b8fa4430", "is_disabled": 0, "rental_uris": {"ios": "https://dc.lft.to/lastmile_qr_scan", "android": "https://dc.lft.to/lastmile_qr_scan"}, "is_reserved": 0}, {"lon": -77.032339, "bike_id": "909bef82970abd9134e31a42cdf29096", "lat": 38.89954083333333, "fusion_lon": 0.0, "fusion_lat": 0.0, "type": "electric_scooter", "name": "909bef82970abd9134e31a42cdf29096", "is_disabled": 0, "rental_uris": {"ios": "https://dc.lft.to/lastmile_qr_scan", "android": "https://dc.lft.to/lastmile_qr_scan"}, "is_reserved": 0}, {"lon": -77.0317665, "bike_id": "f5101f8bc0adbce22405700971b34fc0", "lat": 38.90696833333333, "fusion_lon": 0.0, "fusion_lat": 0.0, "type": "electric_scooter", "name": "f5101f8bc0adbce22405700971b34fc0", "is_disabled": 0, "rental_uris": {"ios": "https://dc.lft.to/lastmile_qr_scan", "android": "https://dc.lft.to/lastmile_qr_scan"}, "is_reserved": 0}, {"lon": -77.04344016666667, "bike_id": "77575db43632880f0fddb80aa5e782f8", "lat": 38.92966083333334, "fusion_lon": 0.0, "fusion_lat": 0.0, "type": "electric_scooter", "name": "77575db43632880f0fddb80aa5e782f8", "is_disabled": 0, "rental_uris": {"ios": "https://dc.lft.to/lastmile_qr_scan", "android": "https://dc.lft.to/lastmile_qr_scan"}, "is_reserved": 0}, {"lon": -77.03352183333334, "bike_id": "54a698c9d0c5d55c01c2eebf12366fc6", "lat": 38.89603666666667, "fusion_lon": 0.0, "fusion_lat": 0.0, "type": "electric_scooter", "name": "54a698c9d0c5d55c01c2eebf12366fc6", "is_disabled": 0, "rental_uris": {"ios": "https://dc.lft.to/lastmile_qr_scan", "android": "https://dc.lft.to/lastmile_qr_scan"}, "is_reserved": 0}, {"lon": -77.026199, "bike_id": "722db7700b2554852fda11d85685d5b9", "lat": 38.929771, "fusion_lon": 0.0, "fusion_lat": 0.0, "type": "electric_scooter", "name": "722db7700b2554852fda11d85685d5b9", "is_disabled": 0, "rental_uris": {"ios": "https://dc.lft.to/lastmile_qr_scan", "android": "https://dc.lft.to/lastmile_qr_scan"}, "is_reserved": 0}, {"lon": -76.99679766666667, "bike_id": "a5c3d565525635ed2b523fbc27f3509e", "lat": 38.88685783333333, "fusion_lon": 0.0, "fusion_lat": 0.0, "type": "electric_scooter", "name": "a5c3d565525635ed2b523fbc27f3509e", "is_disabled": 0, "rental_uris": {"ios": "https://dc.lft.to/lastmile_qr_scan", "android": "https://dc.lft.to/lastmile_qr_scan"}, "is_reserved": 0}, {"lon": -77.0279555, "bike_id": "f199c68356b8d74e41275970f6534ee9", "lat": 38.9613995, "fusion_lon": 0.0, "fusion_lat": 0.0, "type": "electric_scooter", "name": "f199c68356b8d74e41275970f6534ee9", "is_disabled": 0, "rental_uris": {"ios": "https://dc.lft.to/lastmile_qr_scan", "android": "https://dc.lft.to/lastmile_qr_scan"}, "is_reserved": 0}, {"lon": -77.0365875, "bike_id": "fde3bd1db95005185b3917c4c7ba5591", "lat": 38.93571566666667, "fusion_lon": 0.0, "fusion_lat": 0.0, "type": "electric_bike", "name": "fde3bd1db95005185b3917c4c7ba5591", "is_disabled": 0, "rental_uris": {"ios": "https://dc.lft.to/lastmile_qr_scan", "android": "https://dc.lft.to/lastmile_qr_scan"}, "is_reserved": 0}, {"lon": -77.024755, "bike_id": "5f7895f10c43c4b60ebd9131a735ba03", "lat": 38.91992233333333, "fusion_lon": 0.0, "fusion_lat": 0.0, "type": "electric_scooter", "name": "5f7895f10c43c4b60ebd9131a735ba03", "is_disabled": 0, "rental_uris": {"ios": "https://dc.lft.to/lastmile_qr_scan", "android": "https://dc.lft.to/lastmile_qr_scan"}, "is_reserved": 0}, {"lon": -77.03209483333333, "bike_id": "8dc0ca883382a7a7ad87455639924042", "lat": 38.9094075, "fusion_lon": 0.0, "fusion_lat": 0.0, "type": "electric_scooter", "name": "8dc0ca883382a7a7ad87455639924042", "is_disabled": 0, "rental_uris": {"ios": "https://dc.lft.to/lastmile_qr_scan", "android": "https://dc.lft.to/lastmile_qr_scan"}, "is_reserved": 0}, {"lon": -77.03523633333333, "bike_id": "40394b6927b98330e73e56f12ff77a0a", "lat": 38.922559, "fusion_lon": 0.0, "fusion_lat": 0.0, "type": "electric_scooter", "name": "40394b6927b98330e73e56f12ff77a0a", "is_disabled": 0, "rental_uris": {"ios": "https://dc.lft.to/lastmile_qr_scan", "android": "https://dc.lft.to/lastmile_qr_scan"}, "is_reserved": 0}, {"lon": -77.04601966666667, "bike_id": "20eb94b4c456e8b8f6d3743d4a830d00", "lat": 38.921795, "fusion_lon": 0.0, "fusion_lat": 0.0, "type": "electric_scooter", "name": "20eb94b4c456e8b8f6d3743d4a830d00", "is_disabled": 0, "rental_uris": {"ios": "https://dc.lft.to/lastmile_qr_scan", "android": "https://dc.lft.to/lastmile_qr_scan"}, "is_reserved": 0}, {"lon": -77.02186833333333, "bike_id": "e830659dbd7e6225abc1af6bf954ac4c", "lat": 38.911289833333335, "fusion_lon": 0.0, "fusion_lat": 0.0, "type": "electric_scooter", "name": "e830659dbd7e6225abc1af6bf954ac4c", "is_disabled": 0, "rental_uris": {"ios": "https://dc.lft.to/lastmile_qr_scan", "android": "https://dc.lft.to/lastmile_qr_scan"}, "is_reserved": 0}, {"lon": -76.96529383333333, "bike_id": "c161495103b8d6f4ef498f3ff7b24ff6", "lat": 38.876281166666665, "fusion_lon": 0.0, "fusion_lat": 0.0, "type": "electric_scooter", "name": "c161495103b8d6f4ef498f3ff7b24ff6", "is_disabled": 0, "rental_uris": {"ios": "https://dc.lft.to/lastmile_qr_scan", "android": "https://dc.lft.to/lastmile_qr_scan"}, "is_reserved": 0}, {"lon": -77.02369216666666, "bike_id": "ed55abe392892efcbaa919bafe878fd2", "lat": 38.90303933333333, "fusion_lon": 0.0, "fusion_lat": 0.0, "type": "electric_scooter", "name": "ed55abe392892efcbaa919bafe878fd2", "is_disabled": 0, "rental_uris": {"ios": "https://dc.lft.to/lastmile_qr_scan", "android": "https://dc.lft.to/lastmile_qr_scan"}, "is_reserved": 0}, {"lon": -77.05483966666667, "bike_id": "4995bbed0a41e4954339a082e3ff7f48", "lat": 38.89794083333334, "fusion_lon": 0.0, "fusion_lat": 0.0, "type": "electric_scooter", "name": "4995bbed0a41e4954339a082e3ff7f48", "is_disabled": 0, "rental_uris": {"ios": "https://dc.lft.to/lastmile_qr_scan", "android": "https://dc.lft.to/lastmile_qr_scan"}, "is_reserved": 0}, {"lon": -77.01224083333334, "bike_id": "73df3b31de266509c14b978a2af6964a", "lat": 38.864067166666665, "fusion_lon": 0.0, "fusion_lat": 0.0, "type": "electric_scooter", "name": "73df3b31de266509c14b978a2af6964a", "is_disabled": 0, "rental_uris": {"ios": "https://dc.lft.to/lastmile_qr_scan", "android": "https://dc.lft.to/lastmile_qr_scan"}, "is_reserved": 0}, {"lon": -77.04113666666667, "bike_id": "7469c0fc4875bbbd1b9c66f896875185", "lat": 38.9346265, "fusion_lon": 0.0, "fusion_lat": 0.0, "type": "electric_scooter", "name": "7469c0fc4875bbbd1b9c66f896875185", "is_disabled": 0, "rental_uris": {"ios": "https://dc.lft.to/lastmile_qr_scan", "android": "https://dc.lft.to/lastmile_qr_scan"}, "is_reserved": 0}, {"lon": -77.03915983333333, "bike_id": "04d48535d1728ad0b4d07fc200ea8bc6", "lat": 38.91406766666667, "fusion_lon": 0.0, "fusion_lat": 0.0, "type": "electric_scooter", "name": "04d48535d1728ad0b4d07fc200ea8bc6", "is_disabled": 0, "rental_uris": {"ios": "https://dc.lft.to/lastmile_qr_scan", "android": "https://dc.lft.to/lastmile_qr_scan"}, "is_reserved": 0}, {"lon": -76.96527883333333, "bike_id": "f9d849466ad00e3882d189498b784a74", "lat": 38.876281, "fusion_lon": 0.0, "fusion_lat": 0.0, "type": "electric_scooter", "name": "f9d849466ad00e3882d189498b784a74", "is_disabled": 0, "rental_uris": {"ios": "https://dc.lft.to/lastmile_qr_scan", "android": "https://dc.lft.to/lastmile_qr_scan"}, "is_reserved": 0}, {"lon": -76.981103, "bike_id": "4a27d05124719eead0ac6ba3fd29152c", "lat": 38.904004, "fusion_lon": 0.0, "fusion_lat": 0.0, "type": "electric_scooter", "name": "4a27d05124719eead0ac6ba3fd29152c", "is_disabled": 0, "rental_uris": {"ios": "https://dc.lft.to/lastmile_qr_scan", "android": "https://dc.lft.to/lastmile_qr_scan"}, "is_reserved": 0}, {"lon": -77.03635633333333, "bike_id": "48becb67b62f6b14150eb9f7a6341e31", "lat": 38.94496683333333, "fusion_lon": 0.0, "fusion_lat": 0.0, "type": "electric_scooter", "name": "48becb67b62f6b14150eb9f7a6341e31", "is_disabled": 0, "rental_uris": {"ios": "https://dc.lft.to/lastmile_qr_scan", "android": "https://dc.lft.to/lastmile_qr_scan"}, "is_reserved": 0}, {"lon": -76.99511233333334, "bike_id": "47fe28a0433556c91602457f995649d2", "lat": 38.8860695, "fusion_lon": 0.0, "fusion_lat": 0.0, "type": "electric_scooter", "name": "47fe28a0433556c91602457f995649d2", "is_disabled": 0, "rental_uris": {"ios": "https://dc.lft.to/lastmile_qr_scan", "android": "https://dc.lft.to/lastmile_qr_scan"}, "is_reserved": 0}, {"lon": -77.022495, "bike_id": "67e9fe53cf9aef437e08d016739a4959", "lat": 38.92269366666667, "fusion_lon": 0.0, "fusion_lat": 0.0, "type": "electric_scooter", "name": "67e9fe53cf9aef437e08d016739a4959", "is_disabled": 0, "rental_uris": {"ios": "https://dc.lft.to/lastmile_qr_scan", "android": "https://dc.lft.to/lastmile_qr_scan"}, "is_reserved": 0}, {"lon": -76.98641733333334, "bike_id": "811d2ec887e10faecc9927e6ef6d170f", "lat": 38.9015805, "fusion_lon": 0.0, "fusion_lat": 0.0, "type": "electric_scooter", "name": "811d2ec887e10faecc9927e6ef6d170f", "is_disabled": 0, "rental_uris": {"ios": "https://dc.lft.to/lastmile_qr_scan", "android": "https://dc.lft.to/lastmile_qr_scan"}, "is_reserved": 0}, {"lon": -77.009068, "bike_id": "f95de37e2129e07c839cd601f8ec4b1e", "lat": 38.897512166666665, "fusion_lon": 0.0, "fusion_lat": 0.0, "type": "electric_scooter", "name": "f95de37e2129e07c839cd601f8ec4b1e", "is_disabled": 0, "rental_uris": {"ios": "https://dc.lft.to/lastmile_qr_scan", "android": "https://dc.lft.to/lastmile_qr_scan"}, "is_reserved": 0}, {"lon": -77.026528, "bike_id": "af9c654186206c643cefb3b436e8d8c5", "lat": 38.97805533333333, "fusion_lon": 0.0, "fusion_lat": 0.0, "type": "electric_scooter", "name": "af9c654186206c643cefb3b436e8d8c5", "is_disabled": 0, "rental_uris": {"ios": "https://dc.lft.to/lastmile_qr_scan", "android": "https://dc.lft.to/lastmile_qr_scan"}, "is_reserved": 0}, {"lon": -77.0336315, "bike_id": "6a97449d87e9fbbd3cc5f7872f1d9190", "lat": 38.93576433333333, "fusion_lon": 0.0, "fusion_lat": 0.0, "type": "electric_scooter", "name": "6a97449d87e9fbbd3cc5f7872f1d9190", "is_disabled": 0, "rental_uris": {"ios": "https://dc.lft.to/lastmile_qr_scan", "android": "https://dc.lft.to/lastmile_qr_scan"}, "is_reserved": 0}, {"lon": -77.02191816666667, "bike_id": "92e9392948df6a50ef9ffc9b1bbb97e1", "lat": 38.911323833333334, "fusion_lon": 0.0, "fusion_lat": 0.0, "type": "electric_scooter", "name": "92e9392948df6a50ef9ffc9b1bbb97e1", "is_disabled": 0, "rental_uris": {"ios": "https://dc.lft.to/lastmile_qr_scan", "android": "https://dc.lft.to/lastmile_qr_scan"}, "is_reserved": 0}, {"lon": -77.03451433333333, "bike_id": "000f77e9b943880ca500a08623ed9d7f", "lat": 38.907313, "fusion_lon": 0.0, "fusion_lat": 0.0, "type": "electric_scooter", "name": "000f77e9b943880ca500a08623ed9d7f", "is_disabled": 0, "rental_uris": {"ios": "https://dc.lft.to/lastmile_qr_scan", "android": "https://dc.lft.to/lastmile_qr_scan"}, "is_reserved": 0}, {"lon": -76.978737, "bike_id": "0e38beba0407729490a950c7aecd93b2", "lat": 38.8829835, "fusion_lon": 0.0, "fusion_lat": 0.0, "type": "electric_scooter", "name": "0e38beba0407729490a950c7aecd93b2", "is_disabled": 0, "rental_uris": {"ios": "https://dc.lft.to/lastmile_qr_scan", "android": "https://dc.lft.to/lastmile_qr_scan"}, "is_reserved": 0}, {"lon": -77.0490305, "bike_id": "71077c10aeba1a7629030db39c49fb5d", "lat": 38.90338783333333, "fusion_lon": 0.0, "fusion_lat": 0.0, "type": "electric_scooter", "name": "71077c10aeba1a7629030db39c49fb5d", "is_disabled": 0, "rental_uris": {"ios": "https://dc.lft.to/lastmile_qr_scan", "android": "https://dc.lft.to/lastmile_qr_scan"}, "is_reserved": 0}, {"lon": -77.05101133333334, "bike_id": "e71b01e0acc8591faed4a8a5c8d00271", "lat": 38.896487, "fusion_lon": 0.0, "fusion_lat": 0.0, "type": "electric_scooter", "name": "e71b01e0acc8591faed4a8a5c8d00271", "is_disabled": 0, "rental_uris": {"ios": "https://dc.lft.to/lastmile_qr_scan", "android": "https://dc.lft.to/lastmile_qr_scan"}, "is_reserved": 0}, {"lon": -77.03205866666667, "bike_id": "6187f8e7d222e93743f6607d6c053a47", "lat": 38.90820333333333, "fusion_lon": 0.0, "fusion_lat": 0.0, "type": "electric_scooter", "name": "6187f8e7d222e93743f6607d6c053a47", "is_disabled": 0, "rental_uris": {"ios": "https://dc.lft.to/lastmile_qr_scan", "android": "https://dc.lft.to/lastmile_qr_scan"}, "is_reserved": 0}, {"lon": -77.03455533333333, "bike_id": "02654c80cb964a7aacc929a6047a2309", "lat": 38.90990933333333, "fusion_lon": 0.0, "fusion_lat": 0.0, "type": "electric_scooter", "name": "02654c80cb964a7aacc929a6047a2309", "is_disabled": 0, "rental_uris": {"ios": "https://dc.lft.to/lastmile_qr_scan", "android": "https://dc.lft.to/lastmile_qr_scan"}, "is_reserved": 0}, {"lon": -76.93358483333333, "bike_id": "69f1c3e0fbdd5639088a37f2b9866836", "lat": 38.887921, "fusion_lon": 0.0, "fusion_lat": 0.0, "type": "electric_scooter", "name": "69f1c3e0fbdd5639088a37f2b9866836", "is_disabled": 0, "rental_uris": {"ios": "https://dc.lft.to/lastmile_qr_scan", "android": "https://dc.lft.to/lastmile_qr_scan"}, "is_reserved": 0}, {"lon": -77.0100845, "bike_id": "6f268781bc4fc866e59b8157d87e8f07", "lat": 38.91918, "fusion_lon": 0.0, "fusion_lat": 0.0, "type": "electric_scooter", "name": "6f268781bc4fc866e59b8157d87e8f07", "is_disabled": 0, "rental_uris": {"ios": "https://dc.lft.to/lastmile_qr_scan", "android": "https://dc.lft.to/lastmile_qr_scan"}, "is_reserved": 0}, {"lon": -77.048713, "bike_id": "31c0ed659c9f2ec815f0517d7dca5d02", "lat": 38.909571666666665, "fusion_lon": 0.0, "fusion_lat": 0.0, "type": "electric_scooter", "name": "31c0ed659c9f2ec815f0517d7dca5d02", "is_disabled": 0, "rental_uris": {"ios": "https://dc.lft.to/lastmile_qr_scan", "android": "https://dc.lft.to/lastmile_qr_scan"}, "is_reserved": 0}, {"lon": -76.948792, "bike_id": "188ae5eaac13a100b68ac6a71dc1008b", "lat": 38.89552033333333, "fusion_lon": 0.0, "fusion_lat": 0.0, "type": "electric_scooter", "name": "188ae5eaac13a100b68ac6a71dc1008b", "is_disabled": 0, "rental_uris": {"ios": "https://dc.lft.to/lastmile_qr_scan", "android": "https://dc.lft.to/lastmile_qr_scan"}, "is_reserved": 0}, {"lon": -77.03633, "bike_id": "a2558598a4748607c9df8ffeaa96729d", "lat": 38.9456785, "fusion_lon": 0.0, "fusion_lat": 0.0, "type": "electric_scooter", "name": "a2558598a4748607c9df8ffeaa96729d", "is_disabled": 0, "rental_uris": {"ios": "https://dc.lft.to/lastmile_qr_scan", "android": "https://dc.lft.to/lastmile_qr_scan"}, "is_reserved": 0}, {"lon": -76.98704833333333, "bike_id": "3394606a968555aceb91197fa6f4ad4e", "lat": 38.90925433333334, "fusion_lon": 0.0, "fusion_lat": 0.0, "type": "electric_scooter", "name": "3394606a968555aceb91197fa6f4ad4e", "is_disabled": 0, "rental_uris": {"ios": "https://dc.lft.to/lastmile_qr_scan", "android": "https://dc.lft.to/lastmile_qr_scan"}, "is_reserved": 0}, {"lon": -77.0059065, "bike_id": "f818ac9503e202403497a4255a398dbb", "lat": 38.884359, "fusion_lon": 0.0, "fusion_lat": 0.0, "type": "electric_scooter", "name": "f818ac9503e202403497a4255a398dbb", "is_disabled": 0, "rental_uris": {"ios": "https://dc.lft.to/lastmile_qr_scan", "android": "https://dc.lft.to/lastmile_qr_scan"}, "is_reserved": 0}, {"lon": -77.038672, "bike_id": "77be754a703553653edabc44fb5160ef", "lat": 38.94499533333333, "fusion_lon": 0.0, "fusion_lat": 0.0, "type": "electric_scooter", "name": "77be754a703553653edabc44fb5160ef", "is_disabled": 0, "rental_uris": {"ios": "https://dc.lft.to/lastmile_qr_scan", "android": "https://dc.lft.to/lastmile_qr_scan"}, "is_reserved": 0}, {"lon": -77.0367845, "bike_id": "c69ed7f3eb927d3b28ffc902bcff63c8", "lat": 38.9190905, "fusion_lon": 0.0, "fusion_lat": 0.0, "type": "electric_scooter", "name": "c69ed7f3eb927d3b28ffc902bcff63c8", "is_disabled": 0, "rental_uris": {"ios": "https://dc.lft.to/lastmile_qr_scan", "android": "https://dc.lft.to/lastmile_qr_scan"}, "is_reserved": 0}, {"lon": -76.99845966666666, "bike_id": "b13de7d0b26717976297ae9bf70c3489", "lat": 38.90204383333333, "fusion_lon": 0.0, "fusion_lat": 0.0, "type": "electric_scooter", "name": "b13de7d0b26717976297ae9bf70c3489", "is_disabled": 0, "rental_uris": {"ios": "https://dc.lft.to/lastmile_qr_scan", "android": "https://dc.lft.to/lastmile_qr_scan"}, "is_reserved": 0}, {"lon": -77.026611, "bike_id": "cdf663ca84119f2b206ea1247adc5896", "lat": 38.91689383333333, "fusion_lon": 0.0, "fusion_lat": 0.0, "type": "electric_scooter", "name": "cdf663ca84119f2b206ea1247adc5896", "is_disabled": 0, "rental_uris": {"ios": "https://dc.lft.to/lastmile_qr_scan", "android": "https://dc.lft.to/lastmile_qr_scan"}, "is_reserved": 0}, {"lon": -77.0389095, "bike_id": "95cf7767e596ba5029b11f4802422cef", "lat": 38.910104, "fusion_lon": 0.0, "fusion_lat": 0.0, "type": "electric_scooter", "name": "95cf7767e596ba5029b11f4802422cef", "is_disabled": 0, "rental_uris": {"ios": "https://dc.lft.to/lastmile_qr_scan", "android": "https://dc.lft.to/lastmile_qr_scan"}, "is_reserved": 0}, {"lon": -76.953723, "bike_id": "b04177932984cfcc4c57767d217762d2", "lat": 38.892008833333335, "fusion_lon": 0.0, "fusion_lat": 0.0, "type": "electric_scooter", "name": "b04177932984cfcc4c57767d217762d2", "is_disabled": 0, "rental_uris": {"ios": "https://dc.lft.to/lastmile_qr_scan", "android": "https://dc.lft.to/lastmile_qr_scan"}, "is_reserved": 0}, {"lon": -77.0193995, "bike_id": "8e1dded5f03779256ba3832c8418d7ae", "lat": 38.93588466666667, "fusion_lon": 0.0, "fusion_lat": 0.0, "type": "electric_bike", "name": "8e1dded5f03779256ba3832c8418d7ae", "is_disabled": 0, "rental_uris": {"ios": "https://dc.lft.to/lastmile_qr_scan", "android": "https://dc.lft.to/lastmile_qr_scan"}, "is_reserved": 0}, {"lon": -77.03852783333333, "bike_id": "e1341690b5c39c406ca0ddaf3be4815b", "lat": 38.91368933333333, "fusion_lon": 0.0, "fusion_lat": 0.0, "type": "electric_scooter", "name": "e1341690b5c39c406ca0ddaf3be4815b", "is_disabled": 0, "rental_uris": {"ios": "https://dc.lft.to/lastmile_qr_scan", "android": "https://dc.lft.to/lastmile_qr_scan"}, "is_reserved": 0}, {"lon": -76.99870966666667, "bike_id": "23f66c33b860e572efa6bbd0cca1c94f", "lat": 38.90019516666667, "fusion_lon": 0.0, "fusion_lat": 0.0, "type": "electric_scooter", "name": "23f66c33b860e572efa6bbd0cca1c94f", "is_disabled": 0, "rental_uris": {"ios": "https://dc.lft.to/lastmile_qr_scan", "android": "https://dc.lft.to/lastmile_qr_scan"}, "is_reserved": 0}, {"lon": -76.98106183333333, "bike_id": "d82abb0acc8c4ed86316791a3363a4b6", "lat": 38.895541333333334, "fusion_lon": 0.0, "fusion_lat": 0.0, "type": "electric_scooter", "name": "d82abb0acc8c4ed86316791a3363a4b6", "is_disabled": 0, "rental_uris": {"ios": "https://dc.lft.to/lastmile_qr_scan", "android": "https://dc.lft.to/lastmile_qr_scan"}, "is_reserved": 0}, {"lon": -76.961583, "bike_id": "62d2c454b6c38e162548a83e603fd1e5", "lat": 38.88353333333333, "fusion_lon": 0.0, "fusion_lat": 0.0, "type": "electric_scooter", "name": "62d2c454b6c38e162548a83e603fd1e5", "is_disabled": 0, "rental_uris": {"ios": "https://dc.lft.to/lastmile_qr_scan", "android": "https://dc.lft.to/lastmile_qr_scan"}, "is_reserved": 0}, {"lon": -76.97498833333333, "bike_id": "b0032ab509c4433a61642141402ee766", "lat": 38.919252, "fusion_lon": 0.0, "fusion_lat": 0.0, "type": "electric_scooter", "name": "b0032ab509c4433a61642141402ee766", "is_disabled": 0, "rental_uris": {"ios": "https://dc.lft.to/lastmile_qr_scan", "android": "https://dc.lft.to/lastmile_qr_scan"}, "is_reserved": 0}, {"lon": -77.0457635, "bike_id": "81006b857da8f0df70ddd057f64bc91b", "lat": 38.92119366666667, "fusion_lon": 0.0, "fusion_lat": 0.0, "type": "electric_scooter", "name": "81006b857da8f0df70ddd057f64bc91b", "is_disabled": 0, "rental_uris": {"ios": "https://dc.lft.to/lastmile_qr_scan", "android": "https://dc.lft.to/lastmile_qr_scan"}, "is_reserved": 0}, {"lon": -76.9935835, "bike_id": "22d4534599b539692b617d6422a40dc3", "lat": 38.845020166666664, "fusion_lon": 0.0, "fusion_lat": 0.0, "type": "electric_bike", "name": "22d4534599b539692b617d6422a40dc3", "is_disabled": 0, "rental_uris": {"ios": "https://dc.lft.to/lastmile_qr_scan", "android": "https://dc.lft.to/lastmile_qr_scan"}, "is_reserved": 0}, {"lon": -76.94404233333333, "bike_id": "08a50632ff0708fe3839d111ab774c5b", "lat": 38.88139433333333, "fusion_lon": 0.0, "fusion_lat": 0.0, "type": "electric_scooter", "name": "08a50632ff0708fe3839d111ab774c5b", "is_disabled": 0, "rental_uris": {"ios": "https://dc.lft.to/lastmile_qr_scan", "android": "https://dc.lft.to/lastmile_qr_scan"}, "is_reserved": 0}, {"lon": -77.0630015, "bike_id": "c13822634f20d39b8cb8e9f59496c087", "lat": 38.903887166666664, "fusion_lon": 0.0, "fusion_lat": 0.0, "type": "electric_scooter", "name": "c13822634f20d39b8cb8e9f59496c087", "is_disabled": 0, "rental_uris": {"ios": "https://dc.lft.to/lastmile_qr_scan", "android": "https://dc.lft.to/lastmile_qr_scan"}, "is_reserved": 0}, {"lon": -77.030787, "bike_id": "b62762831a8489e9eb08bf340583d23a", "lat": 38.907487, "fusion_lon": 0.0, "fusion_lat": 0.0, "type": "electric_scooter", "name": "b62762831a8489e9eb08bf340583d23a", "is_disabled": 0, "rental_uris": {"ios": "https://dc.lft.to/lastmile_qr_scan", "android": "https://dc.lft.to/lastmile_qr_scan"}, "is_reserved": 0}, {"lon": -77.02279, "bike_id": "a68f00933f0669b9cbd563ad4134295a", "lat": 38.92726183333333, "fusion_lon": 0.0, "fusion_lat": 0.0, "type": "electric_scooter", "name": "a68f00933f0669b9cbd563ad4134295a", "is_disabled": 0, "rental_uris": {"ios": "https://dc.lft.to/lastmile_qr_scan", "android": "https://dc.lft.to/lastmile_qr_scan"}, "is_reserved": 0}, {"lon": -77.02206816666667, "bike_id": "4653d337d3b9086844f8f9d49e38517f", "lat": 38.89947433333333, "fusion_lon": 0.0, "fusion_lat": 0.0, "type": "electric_scooter", "name": "4653d337d3b9086844f8f9d49e38517f", "is_disabled": 0, "rental_uris": {"ios": "https://dc.lft.to/lastmile_qr_scan", "android": "https://dc.lft.to/lastmile_qr_scan"}, "is_reserved": 0}, {"lon": -77.02540466666666, "bike_id": "4b8aeea40f4901c8d3c2bb76f57f53d5", "lat": 38.88036533333333, "fusion_lon": 0.0, "fusion_lat": 0.0, "type": "electric_scooter", "name": "4b8aeea40f4901c8d3c2bb76f57f53d5", "is_disabled": 0, "rental_uris": {"ios": "https://dc.lft.to/lastmile_qr_scan", "android": "https://dc.lft.to/lastmile_qr_scan"}, "is_reserved": 0}, {"lon": -76.982028, "bike_id": "db52d3dab783e5c0953c77fe6f22fd4e", "lat": 38.89935716666667, "fusion_lon": 0.0, "fusion_lat": 0.0, "type": "electric_scooter", "name": "db52d3dab783e5c0953c77fe6f22fd4e", "is_disabled": 0, "rental_uris": {"ios": "https://dc.lft.to/lastmile_qr_scan", "android": "https://dc.lft.to/lastmile_qr_scan"}, "is_reserved": 0}, {"lon": -76.98716783333333, "bike_id": "447e34e8341387124bce3960794e40f5", "lat": 38.866113666666664, "fusion_lon": 0.0, "fusion_lat": 0.0, "type": "electric_scooter", "name": "447e34e8341387124bce3960794e40f5", "is_disabled": 0, "rental_uris": {"ios": "https://dc.lft.to/lastmile_qr_scan", "android": "https://dc.lft.to/lastmile_qr_scan"}, "is_reserved": 0}, {"lon": -76.98009933333333, "bike_id": "2bb89fe2033d4d08b663be5f578d9ffe", "lat": 38.906757999999996, "fusion_lon": 0.0, "fusion_lat": 0.0, "type": "electric_scooter", "name": "2bb89fe2033d4d08b663be5f578d9ffe", "is_disabled": 0, "rental_uris": {"ios": "https://dc.lft.to/lastmile_qr_scan", "android": "https://dc.lft.to/lastmile_qr_scan"}, "is_reserved": 0}, {"lon": -77.01270466666666, "bike_id": "857b7b8057e161299e71ed10d523d3a8", "lat": 38.91558666666667, "fusion_lon": 0.0, "fusion_lat": 0.0, "type": "electric_scooter", "name": "857b7b8057e161299e71ed10d523d3a8", "is_disabled": 0, "rental_uris": {"ios": "https://dc.lft.to/lastmile_qr_scan", "android": "https://dc.lft.to/lastmile_qr_scan"}, "is_reserved": 0}, {"lon": -77.00914116666667, "bike_id": "f028d40127334b9372348b7dee15a4e2", "lat": 38.896391666666666, "fusion_lon": 0.0, "fusion_lat": 0.0, "type": "electric_scooter", "name": "f028d40127334b9372348b7dee15a4e2", "is_disabled": 0, "rental_uris": {"ios": "https://dc.lft.to/lastmile_qr_scan", "android": "https://dc.lft.to/lastmile_qr_scan"}, "is_reserved": 0}, {"lon": -77.03445916666666, "bike_id": "fab7c9b6de222cfd35a7c863c2a0d8c5", "lat": 38.91685016666667, "fusion_lon": 0.0, "fusion_lat": 0.0, "type": "electric_scooter", "name": "fab7c9b6de222cfd35a7c863c2a0d8c5", "is_disabled": 0, "rental_uris": {"ios": "https://dc.lft.to/lastmile_qr_scan", "android": "https://dc.lft.to/lastmile_qr_scan"}, "is_reserved": 0}, {"lon": -76.98959483333333, "bike_id": "ff7d7471c5df38428ac98445c0472722", "lat": 38.85688733333333, "fusion_lon": 0.0, "fusion_lat": 0.0, "type": "electric_scooter", "name": "ff7d7471c5df38428ac98445c0472722", "is_disabled": 0, "rental_uris": {"ios": "https://dc.lft.to/lastmile_qr_scan", "android": "https://dc.lft.to/lastmile_qr_scan"}, "is_reserved": 0}, {"lon": -77.02421333333334, "bike_id": "1ef4a609d0453445047a397559baa3a3", "lat": 38.91822416666667, "fusion_lon": 0.0, "fusion_lat": 0.0, "type": "electric_bike", "name": "1ef4a609d0453445047a397559baa3a3", "is_disabled": 0, "rental_uris": {"ios": "https://dc.lft.to/lastmile_qr_scan", "android": "https://dc.lft.to/lastmile_qr_scan"}, "is_reserved": 0}, {"lon": -76.98265933333333, "bike_id": "eb548b8f9e33fa3f50414c24fcf7f875", "lat": 38.9085215, "fusion_lon": 0.0, "fusion_lat": 0.0, "type": "electric_scooter", "name": "eb548b8f9e33fa3f50414c24fcf7f875", "is_disabled": 0, "rental_uris": {"ios": "https://dc.lft.to/lastmile_qr_scan", "android": "https://dc.lft.to/lastmile_qr_scan"}, "is_reserved": 0}, {"lon": -77.021981, "bike_id": "2dbb6b15ba7d7e95960c3fa43aaf507c", "lat": 38.919291, "fusion_lon": 0.0, "fusion_lat": 0.0, "type": "electric_scooter", "name": "2dbb6b15ba7d7e95960c3fa43aaf507c", "is_disabled": 0, "rental_uris": {"ios": "https://dc.lft.to/lastmile_qr_scan", "android": "https://dc.lft.to/lastmile_qr_scan"}, "is_reserved": 0}, {"lon": -76.9519145, "bike_id": "832e7f840488e1a9dbe6a9a6cf41b757", "lat": 38.907348166666665, "fusion_lon": 0.0, "fusion_lat": 0.0, "type": "electric_scooter", "name": "832e7f840488e1a9dbe6a9a6cf41b757", "is_disabled": 0, "rental_uris": {"ios": "https://dc.lft.to/lastmile_qr_scan", "android": "https://dc.lft.to/lastmile_qr_scan"}, "is_reserved": 0}, {"lon": -77.02271983333333, "bike_id": "8b2d504de98d131a97fc54d7c92a11bc", "lat": 38.92734333333333, "fusion_lon": 0.0, "fusion_lat": 0.0, "type": "electric_scooter", "name": "8b2d504de98d131a97fc54d7c92a11bc", "is_disabled": 0, "rental_uris": {"ios": "https://dc.lft.to/lastmile_qr_scan", "android": "https://dc.lft.to/lastmile_qr_scan"}, "is_reserved": 0}, {"lon": -77.00379816666667, "bike_id": "e02cbdfb521ad37f79bcbcf3838d2f0b", "lat": 38.897282, "fusion_lon": 0.0, "fusion_lat": 0.0, "type": "electric_scooter", "name": "e02cbdfb521ad37f79bcbcf3838d2f0b", "is_disabled": 0, "rental_uris": {"ios": "https://dc.lft.to/lastmile_qr_scan", "android": "https://dc.lft.to/lastmile_qr_scan"}, "is_reserved": 0}, {"lon": -77.03153333333333, "bike_id": "176d968f3e157d6cf718bde30678b146", "lat": 38.91825033333333, "fusion_lon": 0.0, "fusion_lat": 0.0, "type": "electric_scooter", "name": "176d968f3e157d6cf718bde30678b146", "is_disabled": 0, "rental_uris": {"ios": "https://dc.lft.to/lastmile_qr_scan", "android": "https://dc.lft.to/lastmile_qr_scan"}, "is_reserved": 0}, {"lon": -76.9900385, "bike_id": "013c216cbddb0011e1bdba42043dcc55", "lat": 38.865042, "fusion_lon": 0.0, "fusion_lat": 0.0, "type": "electric_scooter", "name": "013c216cbddb0011e1bdba42043dcc55", "is_disabled": 0, "rental_uris": {"ios": "https://dc.lft.to/lastmile_qr_scan", "android": "https://dc.lft.to/lastmile_qr_scan"}, "is_reserved": 0}, {"lon": -77.03442533333333, "bike_id": "2af563241c6bfffab8d00bb4711b6da0", "lat": 38.907998666666664, "fusion_lon": 0.0, "fusion_lat": 0.0, "type": "electric_scooter", "name": "2af563241c6bfffab8d00bb4711b6da0", "is_disabled": 0, "rental_uris": {"ios": "https://dc.lft.to/lastmile_qr_scan", "android": "https://dc.lft.to/lastmile_qr_scan"}, "is_reserved": 0}, {"lon": -76.993771, "bike_id": "76fb9ec1017f8c71ed1bea04b209e973", "lat": 38.8796555, "fusion_lon": 0.0, "fusion_lat": 0.0, "type": "electric_scooter", "name": "76fb9ec1017f8c71ed1bea04b209e973", "is_disabled": 0, "rental_uris": {"ios": "https://dc.lft.to/lastmile_qr_scan", "android": "https://dc.lft.to/lastmile_qr_scan"}, "is_reserved": 0}, {"lon": -77.02274833333334, "bike_id": "16b20465a4ff704c1fe6a8394ac2b916", "lat": 38.9248605, "fusion_lon": 0.0, "fusion_lat": 0.0, "type": "electric_scooter", "name": "16b20465a4ff704c1fe6a8394ac2b916", "is_disabled": 0, "rental_uris": {"ios": "https://dc.lft.to/lastmile_qr_scan", "android": "https://dc.lft.to/lastmile_qr_scan"}, "is_reserved": 0}, {"lon": -77.00901183333333, "bike_id": "0d1b83be23f4d1b1edd46a5ee82ad1a6", "lat": 38.9061985, "fusion_lon": 0.0, "fusion_lat": 0.0, "type": "electric_scooter", "name": "0d1b83be23f4d1b1edd46a5ee82ad1a6", "is_disabled": 0, "rental_uris": {"ios": "https://dc.lft.to/lastmile_qr_scan", "android": "https://dc.lft.to/lastmile_qr_scan"}, "is_reserved": 0}, {"lon": -77.00046016666667, "bike_id": "bd496cfa38c475aa2b57c3d6c06a914c", "lat": 38.89655483333333, "fusion_lon": 0.0, "fusion_lat": 0.0, "type": "electric_scooter", "name": "bd496cfa38c475aa2b57c3d6c06a914c", "is_disabled": 0, "rental_uris": {"ios": "https://dc.lft.to/lastmile_qr_scan", "android": "https://dc.lft.to/lastmile_qr_scan"}, "is_reserved": 0}, {"lon": -76.9954625, "bike_id": "8bfcb4101646ea175b651772af98b5ff", "lat": 38.862527666666665, "fusion_lon": 0.0, "fusion_lat": 0.0, "type": "electric_scooter", "name": "8bfcb4101646ea175b651772af98b5ff", "is_disabled": 0, "rental_uris": {"ios": "https://dc.lft.to/lastmile_qr_scan", "android": "https://dc.lft.to/lastmile_qr_scan"}, "is_reserved": 0}, {"lon": -76.99459466666667, "bike_id": "ab45e3f85e59eb05160cddc1673d9919", "lat": 38.9661495, "fusion_lon": 0.0, "fusion_lat": 0.0, "type": "electric_bike", "name": "ab45e3f85e59eb05160cddc1673d9919", "is_disabled": 0, "rental_uris": {"ios": "https://dc.lft.to/lastmile_qr_scan", "android": "https://dc.lft.to/lastmile_qr_scan"}, "is_reserved": 0}, {"lon": -77.00845716666667, "bike_id": "31b4978201a0065449e4d121c5558b00", "lat": 38.913437333333334, "fusion_lon": 0.0, "fusion_lat": 0.0, "type": "electric_scooter", "name": "31b4978201a0065449e4d121c5558b00", "is_disabled": 0, "rental_uris": {"ios": "https://dc.lft.to/lastmile_qr_scan", "android": "https://dc.lft.to/lastmile_qr_scan"}, "is_reserved": 0}, {"lon": -77.0228405, "bike_id": "7b1562d0f72f1ba574b37c745006ab72", "lat": 38.878767833333335, "fusion_lon": 0.0, "fusion_lat": 0.0, "type": "electric_scooter", "name": "7b1562d0f72f1ba574b37c745006ab72", "is_disabled": 0, "rental_uris": {"ios": "https://dc.lft.to/lastmile_qr_scan", "android": "https://dc.lft.to/lastmile_qr_scan"}, "is_reserved": 0}, {"lon": -77.09869616666667, "bike_id": "68cc71d7676bd4e5dd830f1b2246bd28", "lat": 38.949658666666664, "fusion_lon": 0.0, "fusion_lat": 0.0, "type": "electric_scooter", "name": "68cc71d7676bd4e5dd830f1b2246bd28", "is_disabled": 0, "rental_uris": {"ios": "https://dc.lft.to/lastmile_qr_scan", "android": "https://dc.lft.to/lastmile_qr_scan"}, "is_reserved": 0}, {"lon": -77.0132555, "bike_id": "bcbc6ee72f8625aef12e68a8e2dcb0c0", "lat": 38.871506, "fusion_lon": 0.0, "fusion_lat": 0.0, "type": "electric_scooter", "name": "bcbc6ee72f8625aef12e68a8e2dcb0c0", "is_disabled": 0, "rental_uris": {"ios": "https://dc.lft.to/lastmile_qr_scan", "android": "https://dc.lft.to/lastmile_qr_scan"}, "is_reserved": 0}, {"lon": -77.06295733333333, "bike_id": "73f76a4b4bc70242d8661d221575ca7d", "lat": 38.90688033333333, "fusion_lon": 0.0, "fusion_lat": 0.0, "type": "electric_scooter", "name": "73f76a4b4bc70242d8661d221575ca7d", "is_disabled": 0, "rental_uris": {"ios": "https://dc.lft.to/lastmile_qr_scan", "android": "https://dc.lft.to/lastmile_qr_scan"}, "is_reserved": 0}, {"lon": -77.03662266666667, "bike_id": "7a36b69fe0336b33177d6378885ef192", "lat": 38.936332166666666, "fusion_lon": 0.0, "fusion_lat": 0.0, "type": "electric_scooter", "name": "7a36b69fe0336b33177d6378885ef192", "is_disabled": 0, "rental_uris": {"ios": "https://dc.lft.to/lastmile_qr_scan", "android": "https://dc.lft.to/lastmile_qr_scan"}, "is_reserved": 0}, {"lon": -77.02075233333333, "bike_id": "37da3e35e9c67cbd339af93402d48351", "lat": 38.89709783333333, "fusion_lon": 0.0, "fusion_lat": 0.0, "type": "electric_scooter", "name": "37da3e35e9c67cbd339af93402d48351", "is_disabled": 0, "rental_uris": {"ios": "https://dc.lft.to/lastmile_qr_scan", "android": "https://dc.lft.to/lastmile_qr_scan"}, "is_reserved": 0}, {"lon": -77.021261, "bike_id": "ba57f20e9dac5a400ae7e9169d7df188", "lat": 38.90304966666667, "fusion_lon": 0.0, "fusion_lat": 0.0, "type": "electric_scooter", "name": "ba57f20e9dac5a400ae7e9169d7df188", "is_disabled": 0, "rental_uris": {"ios": "https://dc.lft.to/lastmile_qr_scan", "android": "https://dc.lft.to/lastmile_qr_scan"}, "is_reserved": 0}, {"lon": -76.97484033333333, "bike_id": "4b2cc763fd69fda2188d96e9aeed8c2f", "lat": 38.9034685, "fusion_lon": 0.0, "fusion_lat": 0.0, "type": "electric_scooter", "name": "4b2cc763fd69fda2188d96e9aeed8c2f", "is_disabled": 0, "rental_uris": {"ios": "https://dc.lft.to/lastmile_qr_scan", "android": "https://dc.lft.to/lastmile_qr_scan"}, "is_reserved": 0}, {"lon": -77.02093683333334, "bike_id": "53b3f0a68832a2bdf7d3d2bb07d2c563", "lat": 38.92705183333333, "fusion_lon": 0.0, "fusion_lat": 0.0, "type": "electric_scooter", "name": "53b3f0a68832a2bdf7d3d2bb07d2c563", "is_disabled": 0, "rental_uris": {"ios": "https://dc.lft.to/lastmile_qr_scan", "android": "https://dc.lft.to/lastmile_qr_scan"}, "is_reserved": 0}, {"lon": -76.99088, "bike_id": "498d2913ccea3e49c8fe1641a1eb0332", "lat": 38.86227933333333, "fusion_lon": 0.0, "fusion_lat": 0.0, "type": "electric_bike", "name": "498d2913ccea3e49c8fe1641a1eb0332", "is_disabled": 0, "rental_uris": {"ios": "https://dc.lft.to/lastmile_qr_scan", "android": "https://dc.lft.to/lastmile_qr_scan"}, "is_reserved": 0}, {"lon": -77.03657016666666, "bike_id": "509cfe30e7af079a9e6399b3e45142ed", "lat": 38.90413233333334, "fusion_lon": 0.0, "fusion_lat": 0.0, "type": "electric_scooter", "name": "509cfe30e7af079a9e6399b3e45142ed", "is_disabled": 0, "rental_uris": {"ios": "https://dc.lft.to/lastmile_qr_scan", "android": "https://dc.lft.to/lastmile_qr_scan"}, "is_reserved": 0}, {"lon": -76.990257, "bike_id": "bd80640969cb9cfb23e706310ed5751a", "lat": 38.866414666666664, "fusion_lon": 0.0, "fusion_lat": 0.0, "type": "electric_scooter", "name": "bd80640969cb9cfb23e706310ed5751a", "is_disabled": 0, "rental_uris": {"ios": "https://dc.lft.to/lastmile_qr_scan", "android": "https://dc.lft.to/lastmile_qr_scan"}, "is_reserved": 0}, {"lon": -77.08075083333334, "bike_id": "68cef49ad254ae2a0b0fdcb0fcc13f01", "lat": 39.05274416666666, "fusion_lon": 0.0, "fusion_lat": 0.0, "type": "electric_bike", "name": "68cef49ad254ae2a0b0fdcb0fcc13f01", "is_disabled": 0, "rental_uris": {"ios": "https://dc.lft.to/lastmile_qr_scan", "android": "https://dc.lft.to/lastmile_qr_scan"}, "is_reserved": 0}, {"lon": -77.01110583333333, "bike_id": "f801b53d8491d85fea2c421e8acd6038", "lat": 38.907765, "fusion_lon": 0.0, "fusion_lat": 0.0, "type": "electric_scooter", "name": "f801b53d8491d85fea2c421e8acd6038", "is_disabled": 0, "rental_uris": {"ios": "https://dc.lft.to/lastmile_qr_scan", "android": "https://dc.lft.to/lastmile_qr_scan"}, "is_reserved": 0}, {"lon": -77.006838, "bike_id": "0b8907442fd6cf11a6f9b32bcf2210d5", "lat": 38.900169166666664, "fusion_lon": 0.0, "fusion_lat": 0.0, "type": "electric_scooter", "name": "0b8907442fd6cf11a6f9b32bcf2210d5", "is_disabled": 0, "rental_uris": {"ios": "https://dc.lft.to/lastmile_qr_scan", "android": "https://dc.lft.to/lastmile_qr_scan"}, "is_reserved": 0}, {"lon": -77.028509, "bike_id": "0df127108f1f4039126dd063768d0584", "lat": 38.956233833333336, "fusion_lon": 0.0, "fusion_lat": 0.0, "type": "electric_scooter", "name": "0df127108f1f4039126dd063768d0584", "is_disabled": 0, "rental_uris": {"ios": "https://dc.lft.to/lastmile_qr_scan", "android": "https://dc.lft.to/lastmile_qr_scan"}, "is_reserved": 0}, {"lon": -77.04203016666666, "bike_id": "7a6023f6d701a1e8de645ded3fe605dc", "lat": 38.906743666666664, "fusion_lon": 0.0, "fusion_lat": 0.0, "type": "electric_scooter", "name": "7a6023f6d701a1e8de645ded3fe605dc", "is_disabled": 0, "rental_uris": {"ios": "https://dc.lft.to/lastmile_qr_scan", "android": "https://dc.lft.to/lastmile_qr_scan"}, "is_reserved": 0}, {"lon": -77.02639716666667, "bike_id": "fa80285c7b6def654f1391317dc444ae", "lat": 38.916932333333335, "fusion_lon": 0.0, "fusion_lat": 0.0, "type": "electric_scooter", "name": "fa80285c7b6def654f1391317dc444ae", "is_disabled": 0, "rental_uris": {"ios": "https://dc.lft.to/lastmile_qr_scan", "android": "https://dc.lft.to/lastmile_qr_scan"}, "is_reserved": 0}, {"lon": -77.02810216666667, "bike_id": "33d481c366c87477486e2ca4987bb4b6", "lat": 38.9314005, "fusion_lon": 0.0, "fusion_lat": 0.0, "type": "electric_scooter", "name": "33d481c366c87477486e2ca4987bb4b6", "is_disabled": 0, "rental_uris": {"ios": "https://dc.lft.to/lastmile_qr_scan", "android": "https://dc.lft.to/lastmile_qr_scan"}, "is_reserved": 0}, {"lon": -77.06512766666667, "bike_id": "879d1ba5fb990df52570305d204938c8", "lat": 38.90398666666667, "fusion_lon": 0.0, "fusion_lat": 0.0, "type": "electric_scooter", "name": "879d1ba5fb990df52570305d204938c8", "is_disabled": 0, "rental_uris": {"ios": "https://dc.lft.to/lastmile_qr_scan", "android": "https://dc.lft.to/lastmile_qr_scan"}, "is_reserved": 0}, {"lon": -77.07299, "bike_id": "d73ce4fe7427caba4d57efe82682b9a9", "lat": 38.930532666666664, "fusion_lon": 0.0, "fusion_lat": 0.0, "type": "electric_scooter", "name": "d73ce4fe7427caba4d57efe82682b9a9", "is_disabled": 0, "rental_uris": {"ios": "https://dc.lft.to/lastmile_qr_scan", "android": "https://dc.lft.to/lastmile_qr_scan"}, "is_reserved": 0}, {"lon": -76.96524216666667, "bike_id": "d231fed6fc0dff65756c70e53ef1e300", "lat": 38.87473466666667, "fusion_lon": 0.0, "fusion_lat": 0.0, "type": "electric_scooter", "name": "d231fed6fc0dff65756c70e53ef1e300", "is_disabled": 0, "rental_uris": {"ios": "https://dc.lft.to/lastmile_qr_scan", "android": "https://dc.lft.to/lastmile_qr_scan"}, "is_reserved": 0}, {"lon": -76.99211083333333, "bike_id": "7fe0202587e6a95d5a54ce73cb304a97", "lat": 38.8982525, "fusion_lon": 0.0, "fusion_lat": 0.0, "type": "electric_scooter", "name": "7fe0202587e6a95d5a54ce73cb304a97", "is_disabled": 0, "rental_uris": {"ios": "https://dc.lft.to/lastmile_qr_scan", "android": "https://dc.lft.to/lastmile_qr_scan"}, "is_reserved": 0}, {"lon": -77.00093183333334, "bike_id": "70fc11ad305b085e89cacfb46cb94da2", "lat": 38.91201233333334, "fusion_lon": 0.0, "fusion_lat": 0.0, "type": "electric_scooter", "name": "70fc11ad305b085e89cacfb46cb94da2", "is_disabled": 0, "rental_uris": {"ios": "https://dc.lft.to/lastmile_qr_scan", "android": "https://dc.lft.to/lastmile_qr_scan"}, "is_reserved": 0}, {"lon": -77.00925566666666, "bike_id": "1aa682bd97495f416079f943b46401e8", "lat": 38.8964545, "fusion_lon": 0.0, "fusion_lat": 0.0, "type": "electric_scooter", "name": "1aa682bd97495f416079f943b46401e8", "is_disabled": 0, "rental_uris": {"ios": "https://dc.lft.to/lastmile_qr_scan", "android": "https://dc.lft.to/lastmile_qr_scan"}, "is_reserved": 0}, {"lon": -77.01292866666667, "bike_id": "294bf06c6ae5f8d9561c30c744ae3380", "lat": 38.915345333333335, "fusion_lon": 0.0, "fusion_lat": 0.0, "type": "electric_scooter", "name": "294bf06c6ae5f8d9561c30c744ae3380", "is_disabled": 0, "rental_uris": {"ios": "https://dc.lft.to/lastmile_qr_scan", "android": "https://dc.lft.to/lastmile_qr_scan"}, "is_reserved": 0}, {"lon": -77.02516166666666, "bike_id": "7a52ae28e1fc2efeb80d6b162632c703", "lat": 38.916864, "fusion_lon": 0.0, "fusion_lat": 0.0, "type": "electric_scooter", "name": "7a52ae28e1fc2efeb80d6b162632c703", "is_disabled": 0, "rental_uris": {"ios": "https://dc.lft.to/lastmile_qr_scan", "android": "https://dc.lft.to/lastmile_qr_scan"}, "is_reserved": 0}, {"lon": -76.9928615, "bike_id": "43808cfcda6a2f4f2a40bf0e1a8ffd78", "lat": 38.906112666666665, "fusion_lon": 0.0, "fusion_lat": 0.0, "type": "electric_scooter", "name": "43808cfcda6a2f4f2a40bf0e1a8ffd78", "is_disabled": 0, "rental_uris": {"ios": "https://dc.lft.to/lastmile_qr_scan", "android": "https://dc.lft.to/lastmile_qr_scan"}, "is_reserved": 0}, {"lon": -77.0230445, "bike_id": "a6c7a9a8d5a696e4dfe82359c393db00", "lat": 38.926725, "fusion_lon": 0.0, "fusion_lat": 0.0, "type": "electric_scooter", "name": "a6c7a9a8d5a696e4dfe82359c393db00", "is_disabled": 0, "rental_uris": {"ios": "https://dc.lft.to/lastmile_qr_scan", "android": "https://dc.lft.to/lastmile_qr_scan"}, "is_reserved": 0}, {"lon": -77.0402575, "bike_id": "a4c128c9a9e8dd094d1759834e326948", "lat": 38.92377533333333, "fusion_lon": 0.0, "fusion_lat": 0.0, "type": "electric_scooter", "name": "a4c128c9a9e8dd094d1759834e326948", "is_disabled": 0, "rental_uris": {"ios": "https://dc.lft.to/lastmile_qr_scan", "android": "https://dc.lft.to/lastmile_qr_scan"}, "is_reserved": 0}, {"lon": -77.02482216666667, "bike_id": "429cae461d36dcabe4e6a8929eb2314f", "lat": 38.9199865, "fusion_lon": 0.0, "fusion_lat": 0.0, "type": "electric_scooter", "name": "429cae461d36dcabe4e6a8929eb2314f", "is_disabled": 0, "rental_uris": {"ios": "https://dc.lft.to/lastmile_qr_scan", "android": "https://dc.lft.to/lastmile_qr_scan"}, "is_reserved": 0}, {"lon": -77.02123766666666, "bike_id": "8726a7639d25662ac3d63bbf653a625d", "lat": 38.93700283333333, "fusion_lon": 0.0, "fusion_lat": 0.0, "type": "electric_scooter", "name": "8726a7639d25662ac3d63bbf653a625d", "is_disabled": 0, "rental_uris": {"ios": "https://dc.lft.to/lastmile_qr_scan", "android": "https://dc.lft.to/lastmile_qr_scan"}, "is_reserved": 0}, {"lon": -77.03204333333333, "bike_id": "769b0dfecd744a731b5b7e0649a2964d", "lat": 38.9000025, "fusion_lon": 0.0, "fusion_lat": 0.0, "type": "electric_scooter", "name": "769b0dfecd744a731b5b7e0649a2964d", "is_disabled": 0, "rental_uris": {"ios": "https://dc.lft.to/lastmile_qr_scan", "android": "https://dc.lft.to/lastmile_qr_scan"}, "is_reserved": 0}, {"lon": -77.05622166666667, "bike_id": "3d780269c7935946cb75c6e794beebe0", "lat": 38.92339583333333, "fusion_lon": 0.0, "fusion_lat": 0.0, "type": "electric_scooter", "name": "3d780269c7935946cb75c6e794beebe0", "is_disabled": 0, "rental_uris": {"ios": "https://dc.lft.to/lastmile_qr_scan", "android": "https://dc.lft.to/lastmile_qr_scan"}, "is_reserved": 0}, {"lon": -77.046504, "bike_id": "c9d667f65c14b3fbbef91db5b06bd241", "lat": 38.9147105, "fusion_lon": 0.0, "fusion_lat": 0.0, "type": "electric_scooter", "name": "c9d667f65c14b3fbbef91db5b06bd241", "is_disabled": 0, "rental_uris": {"ios": "https://dc.lft.to/lastmile_qr_scan", "android": "https://dc.lft.to/lastmile_qr_scan"}, "is_reserved": 0}, {"lon": -76.94636283333334, "bike_id": "f1f4dff08946393334c11523e0c7b791", "lat": 38.8983165, "fusion_lon": 0.0, "fusion_lat": 0.0, "type": "electric_scooter", "name": "f1f4dff08946393334c11523e0c7b791", "is_disabled": 0, "rental_uris": {"ios": "https://dc.lft.to/lastmile_qr_scan", "android": "https://dc.lft.to/lastmile_qr_scan"}, "is_reserved": 0}, {"lon": -77.06125266666666, "bike_id": "66ec3dd01310b5178e9fea29c8ccc1a2", "lat": 38.905355166666666, "fusion_lon": 0.0, "fusion_lat": 0.0, "type": "electric_scooter", "name": "66ec3dd01310b5178e9fea29c8ccc1a2", "is_disabled": 0, "rental_uris": {"ios": "https://dc.lft.to/lastmile_qr_scan", "android": "https://dc.lft.to/lastmile_qr_scan"}, "is_reserved": 0}, {"lon": -76.976176, "bike_id": "1435d9fc00e0718be761235bbb64ad52", "lat": 38.9265375, "fusion_lon": 0.0, "fusion_lat": 0.0, "type": "electric_scooter", "name": "1435d9fc00e0718be761235bbb64ad52", "is_disabled": 0, "rental_uris": {"ios": "https://dc.lft.to/lastmile_qr_scan", "android": "https://dc.lft.to/lastmile_qr_scan"}, "is_reserved": 0}, {"lon": -77.0217655, "bike_id": "43f82d09a2804acfcc132a37b51ecbbf", "lat": 38.94291483333333, "fusion_lon": 0.0, "fusion_lat": 0.0, "type": "electric_scooter", "name": "43f82d09a2804acfcc132a37b51ecbbf", "is_disabled": 0, "rental_uris": {"ios": "https://dc.lft.to/lastmile_qr_scan", "android": "https://dc.lft.to/lastmile_qr_scan"}, "is_reserved": 0}, {"lon": -77.03192233333333, "bike_id": "2687ade3cd82ded32461ec3b6d8d2e2b", "lat": 38.9359905, "fusion_lon": 0.0, "fusion_lat": 0.0, "type": "electric_scooter", "name": "2687ade3cd82ded32461ec3b6d8d2e2b", "is_disabled": 0, "rental_uris": {"ios": "https://dc.lft.to/lastmile_qr_scan", "android": "https://dc.lft.to/lastmile_qr_scan"}, "is_reserved": 0}, {"lon": -77.04243133333334, "bike_id": "e46020dec3899c368caa5821b2ab6441", "lat": 38.916342, "fusion_lon": 0.0, "fusion_lat": 0.0, "type": "electric_scooter", "name": "e46020dec3899c368caa5821b2ab6441", "is_disabled": 0, "rental_uris": {"ios": "https://dc.lft.to/lastmile_qr_scan", "android": "https://dc.lft.to/lastmile_qr_scan"}, "is_reserved": 0}, {"lon": -77.03381583333334, "bike_id": "e4624167c7a80bc5a31a76e86c7a7e80", "lat": 38.8995325, "fusion_lon": 0.0, "fusion_lat": 0.0, "type": "electric_scooter", "name": "e4624167c7a80bc5a31a76e86c7a7e80", "is_disabled": 0, "rental_uris": {"ios": "https://dc.lft.to/lastmile_qr_scan", "android": "https://dc.lft.to/lastmile_qr_scan"}, "is_reserved": 0}, {"lon": -76.98836066666667, "bike_id": "2b30aa5a1988bab1331655b223862698", "lat": 38.900674, "fusion_lon": 0.0, "fusion_lat": 0.0, "type": "electric_scooter", "name": "2b30aa5a1988bab1331655b223862698", "is_disabled": 0, "rental_uris": {"ios": "https://dc.lft.to/lastmile_qr_scan", "android": "https://dc.lft.to/lastmile_qr_scan"}, "is_reserved": 0}, {"lon": -77.02567883333333, "bike_id": "1bec04757f30870bfe86925ac4d83b5c", "lat": 38.887412833333336, "fusion_lon": 0.0, "fusion_lat": 0.0, "type": "electric_scooter", "name": "1bec04757f30870bfe86925ac4d83b5c", "is_disabled": 0, "rental_uris": {"ios": "https://dc.lft.to/lastmile_qr_scan", "android": "https://dc.lft.to/lastmile_qr_scan"}, "is_reserved": 0}, {"lon": -77.02566066666667, "bike_id": "23e51c7c931379aba88300f0592eab24", "lat": 38.941769666666666, "fusion_lon": 0.0, "fusion_lat": 0.0, "type": "electric_scooter", "name": "23e51c7c931379aba88300f0592eab24", "is_disabled": 0, "rental_uris": {"ios": "https://dc.lft.to/lastmile_qr_scan", "android": "https://dc.lft.to/lastmile_qr_scan"}, "is_reserved": 0}, {"lon": -77.05787416666666, "bike_id": "18b1be899c3f23726cf2e7ef7f341f91", "lat": 38.9348085, "fusion_lon": 0.0, "fusion_lat": 0.0, "type": "electric_scooter", "name": "18b1be899c3f23726cf2e7ef7f341f91", "is_disabled": 0, "rental_uris": {"ios": "https://dc.lft.to/lastmile_qr_scan", "android": "https://dc.lft.to/lastmile_qr_scan"}, "is_reserved": 0}, {"lon": -76.983756, "bike_id": "5bf8eaf73ac50d770674685b86828e2e", "lat": 38.8913905, "fusion_lon": 0.0, "fusion_lat": 0.0, "type": "electric_scooter", "name": "5bf8eaf73ac50d770674685b86828e2e", "is_disabled": 0, "rental_uris": {"ios": "https://dc.lft.to/lastmile_qr_scan", "android": "https://dc.lft.to/lastmile_qr_scan"}, "is_reserved": 0}, {"lon": -77.0246565, "bike_id": "aef1b79d5478d8ad1e3459f606ee8e88", "lat": 38.916839333333336, "fusion_lon": 0.0, "fusion_lat": 0.0, "type": "electric_scooter", "name": "aef1b79d5478d8ad1e3459f606ee8e88", "is_disabled": 0, "rental_uris": {"ios": "https://dc.lft.to/lastmile_qr_scan", "android": "https://dc.lft.to/lastmile_qr_scan"}, "is_reserved": 0}, {"lon": -77.06104283333333, "bike_id": "d85405e2b364400570df0afab333b157", "lat": 38.94370933333333, "fusion_lon": 0.0, "fusion_lat": 0.0, "type": "electric_scooter", "name": "d85405e2b364400570df0afab333b157", "is_disabled": 0, "rental_uris": {"ios": "https://dc.lft.to/lastmile_qr_scan", "android": "https://dc.lft.to/lastmile_qr_scan"}, "is_reserved": 0}, {"lon": -77.01812233333334, "bike_id": "46a776a3ce10db14d1c95efb89919236", "lat": 38.903708333333334, "fusion_lon": 0.0, "fusion_lat": 0.0, "type": "electric_scooter", "name": "46a776a3ce10db14d1c95efb89919236", "is_disabled": 0, "rental_uris": {"ios": "https://dc.lft.to/lastmile_qr_scan", "android": "https://dc.lft.to/lastmile_qr_scan"}, "is_reserved": 0}, {"lon": -76.98572333333334, "bike_id": "9365d75f76e92907bf193c85d9d64324", "lat": 38.8961505, "fusion_lon": 0.0, "fusion_lat": 0.0, "type": "electric_scooter", "name": "9365d75f76e92907bf193c85d9d64324", "is_disabled": 0, "rental_uris": {"ios": "https://dc.lft.to/lastmile_qr_scan", "android": "https://dc.lft.to/lastmile_qr_scan"}, "is_reserved": 0}, {"lon": -77.04398766666667, "bike_id": "b9d06d74fd658317331b37ab00bb28b6", "lat": 38.92117016666667, "fusion_lon": 0.0, "fusion_lat": 0.0, "type": "electric_scooter", "name": "b9d06d74fd658317331b37ab00bb28b6", "is_disabled": 0, "rental_uris": {"ios": "https://dc.lft.to/lastmile_qr_scan", "android": "https://dc.lft.to/lastmile_qr_scan"}, "is_reserved": 0}, {"lon": -77.0218785, "bike_id": "8f1f937e5fc5ffd5fb2ecacd5603131b", "lat": 38.914814666666665, "fusion_lon": 0.0, "fusion_lat": 0.0, "type": "electric_scooter", "name": "8f1f937e5fc5ffd5fb2ecacd5603131b", "is_disabled": 0, "rental_uris": {"ios": "https://dc.lft.to/lastmile_qr_scan", "android": "https://dc.lft.to/lastmile_qr_scan"}, "is_reserved": 0}, {"lon": -77.03172133333334, "bike_id": "2dc9ccf0bf825c6ef37adb71b06788dc", "lat": 38.9111435, "fusion_lon": 0.0, "fusion_lat": 0.0, "type": "electric_scooter", "name": "2dc9ccf0bf825c6ef37adb71b06788dc", "is_disabled": 0, "rental_uris": {"ios": "https://dc.lft.to/lastmile_qr_scan", "android": "https://dc.lft.to/lastmile_qr_scan"}, "is_reserved": 0}, {"lon": -77.036808, "bike_id": "eaebe80c0ac2fb691ac414c2b1da11af", "lat": 38.90823133333333, "fusion_lon": 0.0, "fusion_lat": 0.0, "type": "electric_scooter", "name": "eaebe80c0ac2fb691ac414c2b1da11af", "is_disabled": 0, "rental_uris": {"ios": "https://dc.lft.to/lastmile_qr_scan", "android": "https://dc.lft.to/lastmile_qr_scan"}, "is_reserved": 0}, {"lon": -77.01852416666667, "bike_id": "a029d5443adccf3830a3be11b313ce1f", "lat": 38.973700666666666, "fusion_lon": 0.0, "fusion_lat": 0.0, "type": "electric_scooter", "name": "a029d5443adccf3830a3be11b313ce1f", "is_disabled": 0, "rental_uris": {"ios": "https://dc.lft.to/lastmile_qr_scan", "android": "https://dc.lft.to/lastmile_qr_scan"}, "is_reserved": 0}, {"lon": -77.02582916666667, "bike_id": "2dc96444a26a8abfb882a874276a260f", "lat": 38.89728683333333, "fusion_lon": 0.0, "fusion_lat": 0.0, "type": "electric_scooter", "name": "2dc96444a26a8abfb882a874276a260f", "is_disabled": 0, "rental_uris": {"ios": "https://dc.lft.to/lastmile_qr_scan", "android": "https://dc.lft.to/lastmile_qr_scan"}, "is_reserved": 0}, {"lon": -77.03790383333333, "bike_id": "041ca629782174308ca1f9e7f4f7b719", "lat": 38.9360225, "fusion_lon": 0.0, "fusion_lat": 0.0, "type": "electric_scooter", "name": "041ca629782174308ca1f9e7f4f7b719", "is_disabled": 0, "rental_uris": {"ios": "https://dc.lft.to/lastmile_qr_scan", "android": "https://dc.lft.to/lastmile_qr_scan"}, "is_reserved": 0}, {"lon": -77.0675785, "bike_id": "2bd6b8b1064ec1396749ef818e5b889d", "lat": 38.904051333333335, "fusion_lon": 0.0, "fusion_lat": 0.0, "type": "electric_scooter", "name": "2bd6b8b1064ec1396749ef818e5b889d", "is_disabled": 0, "rental_uris": {"ios": "https://dc.lft.to/lastmile_qr_scan", "android": "https://dc.lft.to/lastmile_qr_scan"}, "is_reserved": 0}, {"lon": -77.04158866666667, "bike_id": "738201ecf6c1d7ef2025b29bd7fc2131", "lat": 38.917086833333336, "fusion_lon": 0.0, "fusion_lat": 0.0, "type": "electric_scooter", "name": "738201ecf6c1d7ef2025b29bd7fc2131", "is_disabled": 0, "rental_uris": {"ios": "https://dc.lft.to/lastmile_qr_scan", "android": "https://dc.lft.to/lastmile_qr_scan"}, "is_reserved": 0}, {"lon": -77.03086216666667, "bike_id": "73cf7a82b816b8d4dfcb0707ca7e9157", "lat": 38.905673166666666, "fusion_lon": 0.0, "fusion_lat": 0.0, "type": "electric_scooter", "name": "73cf7a82b816b8d4dfcb0707ca7e9157", "is_disabled": 0, "rental_uris": {"ios": "https://dc.lft.to/lastmile_qr_scan", "android": "https://dc.lft.to/lastmile_qr_scan"}, "is_reserved": 0}, {"lon": -77.04335666666667, "bike_id": "7d77ce4a9401437ba766456be63ec9e2", "lat": 38.90849166666667, "fusion_lon": 0.0, "fusion_lat": 0.0, "type": "electric_scooter", "name": "7d77ce4a9401437ba766456be63ec9e2", "is_disabled": 0, "rental_uris": {"ios": "https://dc.lft.to/lastmile_qr_scan", "android": "https://dc.lft.to/lastmile_qr_scan"}, "is_reserved": 0}, {"lon": -77.0067575, "bike_id": "a26d5bfa1c3831b381b34d026801b8dd", "lat": 38.90006916666667, "fusion_lon": 0.0, "fusion_lat": 0.0, "type": "electric_scooter", "name": "a26d5bfa1c3831b381b34d026801b8dd", "is_disabled": 0, "rental_uris": {"ios": "https://dc.lft.to/lastmile_qr_scan", "android": "https://dc.lft.to/lastmile_qr_scan"}, "is_reserved": 0}, {"lon": -77.04490683333333, "bike_id": "6fe577f88d7f1d5624bb14e32d8d9747", "lat": 38.8981055, "fusion_lon": 0.0, "fusion_lat": 0.0, "type": "electric_scooter", "name": "6fe577f88d7f1d5624bb14e32d8d9747", "is_disabled": 0, "rental_uris": {"ios": "https://dc.lft.to/lastmile_qr_scan", "android": "https://dc.lft.to/lastmile_qr_scan"}, "is_reserved": 0}, {"lon": -77.0203265, "bike_id": "d37d6e159cc6ebd1a8822ea379602e23", "lat": 38.91652933333334, "fusion_lon": 0.0, "fusion_lat": 0.0, "type": "electric_scooter", "name": "d37d6e159cc6ebd1a8822ea379602e23", "is_disabled": 0, "rental_uris": {"ios": "https://dc.lft.to/lastmile_qr_scan", "android": "https://dc.lft.to/lastmile_qr_scan"}, "is_reserved": 0}, {"lon": -77.11918966666667, "bike_id": "a15171223f3149ab0d3caedbe319130a", "lat": 38.8763125, "fusion_lon": 0.0, "fusion_lat": 0.0, "type": "electric_bike", "name": "a15171223f3149ab0d3caedbe319130a", "is_disabled": 0, "rental_uris": {"ios": "https://dc.lft.to/lastmile_qr_scan", "android": "https://dc.lft.to/lastmile_qr_scan"}, "is_reserved": 0}, {"lon": -77.02551666666666, "bike_id": "3e30e57e0f27e5edb3bdb47ddbd014c3", "lat": 38.92477733333333, "fusion_lon": 0.0, "fusion_lat": 0.0, "type": "electric_scooter", "name": "3e30e57e0f27e5edb3bdb47ddbd014c3", "is_disabled": 0, "rental_uris": {"ios": "https://dc.lft.to/lastmile_qr_scan", "android": "https://dc.lft.to/lastmile_qr_scan"}, "is_reserved": 0}, {"lon": -77.02142266666667, "bike_id": "7f155179c28d901a13c587e0330c887b", "lat": 38.91597466666666, "fusion_lon": 0.0, "fusion_lat": 0.0, "type": "electric_scooter", "name": "7f155179c28d901a13c587e0330c887b", "is_disabled": 0, "rental_uris": {"ios": "https://dc.lft.to/lastmile_qr_scan", "android": "https://dc.lft.to/lastmile_qr_scan"}, "is_reserved": 0}, {"lon": -77.01059966666666, "bike_id": "17475b9854559567ee152d07fea85c58", "lat": 38.9634045, "fusion_lon": 0.0, "fusion_lat": 0.0, "type": "electric_scooter", "name": "17475b9854559567ee152d07fea85c58", "is_disabled": 0, "rental_uris": {"ios": "https://dc.lft.to/lastmile_qr_scan", "android": "https://dc.lft.to/lastmile_qr_scan"}, "is_reserved": 0}, {"lon": -77.01896483333333, "bike_id": "1901ce1d200b4778d621289db61779a7", "lat": 38.8747315, "fusion_lon": 0.0, "fusion_lat": 0.0, "type": "electric_scooter", "name": "1901ce1d200b4778d621289db61779a7", "is_disabled": 0, "rental_uris": {"ios": "https://dc.lft.to/lastmile_qr_scan", "android": "https://dc.lft.to/lastmile_qr_scan"}, "is_reserved": 0}, {"lon": -77.04762983333333, "bike_id": "63c39b85095d73f94bff467e50888ec6", "lat": 38.9096825, "fusion_lon": 0.0, "fusion_lat": 0.0, "type": "electric_scooter", "name": "63c39b85095d73f94bff467e50888ec6", "is_disabled": 0, "rental_uris": {"ios": "https://dc.lft.to/lastmile_qr_scan", "android": "https://dc.lft.to/lastmile_qr_scan"}, "is_reserved": 0}, {"lon": -77.05316566666667, "bike_id": "bec802467f0c2248c5e41564b7cf62cb", "lat": 38.90075483333333, "fusion_lon": 0.0, "fusion_lat": 0.0, "type": "electric_scooter", "name": "bec802467f0c2248c5e41564b7cf62cb", "is_disabled": 0, "rental_uris": {"ios": "https://dc.lft.to/lastmile_qr_scan", "android": "https://dc.lft.to/lastmile_qr_scan"}, "is_reserved": 0}, {"lon": -77.03660183333334, "bike_id": "e7ad5aab5c16419bbf852c0bf55aee8f", "lat": 38.9408795, "fusion_lon": 0.0, "fusion_lat": 0.0, "type": "electric_scooter", "name": "e7ad5aab5c16419bbf852c0bf55aee8f", "is_disabled": 0, "rental_uris": {"ios": "https://dc.lft.to/lastmile_qr_scan", "android": "https://dc.lft.to/lastmile_qr_scan"}, "is_reserved": 0}, {"lon": -77.0434135, "bike_id": "ee78e08df44d00b680a9b827985189df", "lat": 38.917843, "fusion_lon": 0.0, "fusion_lat": 0.0, "type": "electric_scooter", "name": "ee78e08df44d00b680a9b827985189df", "is_disabled": 0, "rental_uris": {"ios": "https://dc.lft.to/lastmile_qr_scan", "android": "https://dc.lft.to/lastmile_qr_scan"}, "is_reserved": 0}, {"lon": -76.9969095, "bike_id": "ada7f52efe25dd1522c906a8437096a9", "lat": 38.86024466666667, "fusion_lon": 0.0, "fusion_lat": 0.0, "type": "electric_scooter", "name": "ada7f52efe25dd1522c906a8437096a9", "is_disabled": 0, "rental_uris": {"ios": "https://dc.lft.to/lastmile_qr_scan", "android": "https://dc.lft.to/lastmile_qr_scan"}, "is_reserved": 0}, {"lon": -77.03474783333333, "bike_id": "9ea9dab2162e30fd041fa11ecaee1ae1", "lat": 38.909667, "fusion_lon": 0.0, "fusion_lat": 0.0, "type": "electric_scooter", "name": "9ea9dab2162e30fd041fa11ecaee1ae1", "is_disabled": 0, "rental_uris": {"ios": "https://dc.lft.to/lastmile_qr_scan", "android": "https://dc.lft.to/lastmile_qr_scan"}, "is_reserved": 0}, {"lon": -77.02373716666666, "bike_id": "b768e9dab560a9529885701cf8c9ead7", "lat": 38.89216483333333, "fusion_lon": 0.0, "fusion_lat": 0.0, "type": "electric_scooter", "name": "b768e9dab560a9529885701cf8c9ead7", "is_disabled": 0, "rental_uris": {"ios": "https://dc.lft.to/lastmile_qr_scan", "android": "https://dc.lft.to/lastmile_qr_scan"}, "is_reserved": 0}, {"lon": -77.0366275, "bike_id": "8925e6e2a92ab46e9d320b90f0bd11e3", "lat": 38.912826833333334, "fusion_lon": 0.0, "fusion_lat": 0.0, "type": "electric_scooter", "name": "8925e6e2a92ab46e9d320b90f0bd11e3", "is_disabled": 0, "rental_uris": {"ios": "https://dc.lft.to/lastmile_qr_scan", "android": "https://dc.lft.to/lastmile_qr_scan"}, "is_reserved": 0}, {"lon": -77.03034083333333, "bike_id": "03f2562a811b1bc6682dcdf28ad7fb68", "lat": 38.931169833333335, "fusion_lon": 0.0, "fusion_lat": 0.0, "type": "electric_scooter", "name": "03f2562a811b1bc6682dcdf28ad7fb68", "is_disabled": 0, "rental_uris": {"ios": "https://dc.lft.to/lastmile_qr_scan", "android": "https://dc.lft.to/lastmile_qr_scan"}, "is_reserved": 0}, {"lon": -77.05043966666666, "bike_id": "f796f802206c7fdbd956929c125a2fb0", "lat": 38.9069365, "fusion_lon": 0.0, "fusion_lat": 0.0, "type": "electric_scooter", "name": "f796f802206c7fdbd956929c125a2fb0", "is_disabled": 0, "rental_uris": {"ios": "https://dc.lft.to/lastmile_qr_scan", "android": "https://dc.lft.to/lastmile_qr_scan"}, "is_reserved": 0}, {"lon": -77.04371416666666, "bike_id": "09fb1462ca2d4c5b71e2808d49500337", "lat": 38.90268783333333, "fusion_lon": 0.0, "fusion_lat": 0.0, "type": "electric_scooter", "name": "09fb1462ca2d4c5b71e2808d49500337", "is_disabled": 0, "rental_uris": {"ios": "https://dc.lft.to/lastmile_qr_scan", "android": "https://dc.lft.to/lastmile_qr_scan"}, "is_reserved": 0}, {"lon": -77.04168683333333, "bike_id": "42cfdb74642089b18f3a5e167ad82e4e", "lat": 38.915084, "fusion_lon": 0.0, "fusion_lat": 0.0, "type": "electric_scooter", "name": "42cfdb74642089b18f3a5e167ad82e4e", "is_disabled": 0, "rental_uris": {"ios": "https://dc.lft.to/lastmile_qr_scan", "android": "https://dc.lft.to/lastmile_qr_scan"}, "is_reserved": 0}, {"lon": -77.01211816666667, "bike_id": "9934c79854ff06d93b4e3440b74086b1", "lat": 38.88557633333333, "fusion_lon": 0.0, "fusion_lat": 0.0, "type": "electric_scooter", "name": "9934c79854ff06d93b4e3440b74086b1", "is_disabled": 0, "rental_uris": {"ios": "https://dc.lft.to/lastmile_qr_scan", "android": "https://dc.lft.to/lastmile_qr_scan"}, "is_reserved": 0}, {"lon": -77.020094, "bike_id": "eb4c602d86eb6b3b15fa46eb0f6c55ba", "lat": 38.924146, "fusion_lon": 0.0, "fusion_lat": 0.0, "type": "electric_scooter", "name": "eb4c602d86eb6b3b15fa46eb0f6c55ba", "is_disabled": 0, "rental_uris": {"ios": "https://dc.lft.to/lastmile_qr_scan", "android": "https://dc.lft.to/lastmile_qr_scan"}, "is_reserved": 0}, {"lon": -76.90608966666667, "bike_id": "186c20de87cfc47bc1bbcad17b7fce6e", "lat": 39.00452816666667, "fusion_lon": 0.0, "fusion_lat": 0.0, "type": "electric_bike", "name": "186c20de87cfc47bc1bbcad17b7fce6e", "is_disabled": 0, "rental_uris": {"ios": "https://dc.lft.to/lastmile_qr_scan", "android": "https://dc.lft.to/lastmile_qr_scan"}, "is_reserved": 0}, {"lon": -76.97707733333333, "bike_id": "87f3d76ef60b7e9b63b296884b4ba6b9", "lat": 38.949132166666665, "fusion_lon": 0.0, "fusion_lat": 0.0, "type": "electric_bike", "name": "87f3d76ef60b7e9b63b296884b4ba6b9", "is_disabled": 0, "rental_uris": {"ios": "https://dc.lft.to/lastmile_qr_scan", "android": "https://dc.lft.to/lastmile_qr_scan"}, "is_reserved": 0}, {"lon": -77.03209483333333, "bike_id": "1e2bfe82997bc429f0f5b05aa5725750", "lat": 38.916878833333335, "fusion_lon": 0.0, "fusion_lat": 0.0, "type": "electric_scooter", "name": "1e2bfe82997bc429f0f5b05aa5725750", "is_disabled": 0, "rental_uris": {"ios": "https://dc.lft.to/lastmile_qr_scan", "android": "https://dc.lft.to/lastmile_qr_scan"}, "is_reserved": 0}, {"lon": -77.0077565, "bike_id": "0765e71c03fb3333dca2a8a1fd6ccfd3", "lat": 38.87110283333333, "fusion_lon": 0.0, "fusion_lat": 0.0, "type": "electric_scooter", "name": "0765e71c03fb3333dca2a8a1fd6ccfd3", "is_disabled": 0, "rental_uris": {"ios": "https://dc.lft.to/lastmile_qr_scan", "android": "https://dc.lft.to/lastmile_qr_scan"}, "is_reserved": 0}, {"lon": -77.03265733333333, "bike_id": "d6d268cb9307e2c32885d4e2b526c259", "lat": 38.91407133333333, "fusion_lon": 0.0, "fusion_lat": 0.0, "type": "electric_scooter", "name": "d6d268cb9307e2c32885d4e2b526c259", "is_disabled": 0, "rental_uris": {"ios": "https://dc.lft.to/lastmile_qr_scan", "android": "https://dc.lft.to/lastmile_qr_scan"}, "is_reserved": 0}, {"lon": -77.360914, "bike_id": "523d791a404096af14d4fc79b9d3f427", "lat": 38.93958516666667, "fusion_lon": 0.0, "fusion_lat": 0.0, "type": "electric_bike", "name": "523d791a404096af14d4fc79b9d3f427", "is_disabled": 0, "rental_uris": {"ios": "https://dc.lft.to/lastmile_qr_scan", "android": "https://dc.lft.to/lastmile_qr_scan"}, "is_reserved": 0}, {"lon": -77.02454366666667, "bike_id": "774ccd6db751c65ebaaae4ba11b6a4ba", "lat": 38.896707166666666, "fusion_lon": 0.0, "fusion_lat": 0.0, "type": "electric_scooter", "name": "774ccd6db751c65ebaaae4ba11b6a4ba", "is_disabled": 0, "rental_uris": {"ios": "https://dc.lft.to/lastmile_qr_scan", "android": "https://dc.lft.to/lastmile_qr_scan"}, "is_reserved": 0}, {"lon": -76.9472985, "bike_id": "9a388190f511e8c495ece6989acf9736", "lat": 38.89736466666667, "fusion_lon": 0.0, "fusion_lat": 0.0, "type": "electric_scooter", "name": "9a388190f511e8c495ece6989acf9736", "is_disabled": 0, "rental_uris": {"ios": "https://dc.lft.to/lastmile_qr_scan", "android": "https://dc.lft.to/lastmile_qr_scan"}, "is_reserved": 0}, {"lon": -77.02688616666667, "bike_id": "bec966daa6122e8028c738948fa40848", "lat": 38.912536, "fusion_lon": 0.0, "fusion_lat": 0.0, "type": "electric_scooter", "name": "bec966daa6122e8028c738948fa40848", "is_disabled": 0, "rental_uris": {"ios": "https://dc.lft.to/lastmile_qr_scan", "android": "https://dc.lft.to/lastmile_qr_scan"}, "is_reserved": 0}, {"lon": -77.01626633333333, "bike_id": "154ec7df860e91818076ae1ef637a943", "lat": 38.965727666666666, "fusion_lon": 0.0, "fusion_lat": 0.0, "type": "electric_scooter", "name": "154ec7df860e91818076ae1ef637a943", "is_disabled": 0, "rental_uris": {"ios": "https://dc.lft.to/lastmile_qr_scan", "android": "https://dc.lft.to/lastmile_qr_scan"}, "is_reserved": 0}, {"lon": -77.02485233333333, "bike_id": "30651e0cd24022ee8c897a4a566f0551", "lat": 38.91933866666667, "fusion_lon": 0.0, "fusion_lat": 0.0, "type": "electric_scooter", "name": "30651e0cd24022ee8c897a4a566f0551", "is_disabled": 0, "rental_uris": {"ios": "https://dc.lft.to/lastmile_qr_scan", "android": "https://dc.lft.to/lastmile_qr_scan"}, "is_reserved": 0}, {"lon": -77.04467416666667, "bike_id": "9573fa412412e000d0bb919d8412891b", "lat": 38.919346, "fusion_lon": 0.0, "fusion_lat": 0.0, "type": "electric_scooter", "name": "9573fa412412e000d0bb919d8412891b", "is_disabled": 0, "rental_uris": {"ios": "https://dc.lft.to/lastmile_qr_scan", "android": "https://dc.lft.to/lastmile_qr_scan"}, "is_reserved": 0}, {"lon": -77.02377116666666, "bike_id": "3599aefc713ef81481d2b42069f9c3ab", "lat": 38.90566483333333, "fusion_lon": 0.0, "fusion_lat": 0.0, "type": "electric_scooter", "name": "3599aefc713ef81481d2b42069f9c3ab", "is_disabled": 0, "rental_uris": {"ios": "https://dc.lft.to/lastmile_qr_scan", "android": "https://dc.lft.to/lastmile_qr_scan"}, "is_reserved": 0}, {"lon": -77.03857566666667, "bike_id": "681adb795785f1c782f2acb9ed4c30e7", "lat": 38.931257333333335, "fusion_lon": 0.0, "fusion_lat": 0.0, "type": "electric_scooter", "name": "681adb795785f1c782f2acb9ed4c30e7", "is_disabled": 0, "rental_uris": {"ios": "https://dc.lft.to/lastmile_qr_scan", "android": "https://dc.lft.to/lastmile_qr_scan"}, "is_reserved": 0}, {"lon": -77.03383233333334, "bike_id": "ca7a5d83cc9c9e98e04841ccf2528f4f", "lat": 38.909723666666665, "fusion_lon": 0.0, "fusion_lat": 0.0, "type": "electric_scooter", "name": "ca7a5d83cc9c9e98e04841ccf2528f4f", "is_disabled": 0, "rental_uris": {"ios": "https://dc.lft.to/lastmile_qr_scan", "android": "https://dc.lft.to/lastmile_qr_scan"}, "is_reserved": 0}, {"lon": -76.93177233333333, "bike_id": "7734fa1f1d23b546ff036ce62d34d9c1", "lat": 38.89882766666667, "fusion_lon": 0.0, "fusion_lat": 0.0, "type": "electric_scooter", "name": "7734fa1f1d23b546ff036ce62d34d9c1", "is_disabled": 0, "rental_uris": {"ios": "https://dc.lft.to/lastmile_qr_scan", "android": "https://dc.lft.to/lastmile_qr_scan"}, "is_reserved": 0}, {"lon": -76.93371916666666, "bike_id": "b518a35eb54e9b31f70049cac7f67765", "lat": 38.899164999999996, "fusion_lon": 0.0, "fusion_lat": 0.0, "type": "electric_scooter", "name": "b518a35eb54e9b31f70049cac7f67765", "is_disabled": 0, "rental_uris": {"ios": "https://dc.lft.to/lastmile_qr_scan", "android": "https://dc.lft.to/lastmile_qr_scan"}, "is_reserved": 0}, {"lon": -76.99608483333333, "bike_id": "3fdeff71ccb40b54f941b952758ed055", "lat": 38.88313766666667, "fusion_lon": 0.0, "fusion_lat": 0.0, "type": "electric_scooter", "name": "3fdeff71ccb40b54f941b952758ed055", "is_disabled": 0, "rental_uris": {"ios": "https://dc.lft.to/lastmile_qr_scan", "android": "https://dc.lft.to/lastmile_qr_scan"}, "is_reserved": 0}, {"lon": -77.018762, "bike_id": "22d6f68277db8fcb8f2e19e20f2469e7", "lat": 38.903643833333334, "fusion_lon": 0.0, "fusion_lat": 0.0, "type": "electric_scooter", "name": "22d6f68277db8fcb8f2e19e20f2469e7", "is_disabled": 0, "rental_uris": {"ios": "https://dc.lft.to/lastmile_qr_scan", "android": "https://dc.lft.to/lastmile_qr_scan"}, "is_reserved": 0}, {"lon": -77.03862433333333, "bike_id": "6b58237462baf3d1650e329827d4a227", "lat": 38.91034033333333, "fusion_lon": 0.0, "fusion_lat": 0.0, "type": "electric_scooter", "name": "6b58237462baf3d1650e329827d4a227", "is_disabled": 0, "rental_uris": {"ios": "https://dc.lft.to/lastmile_qr_scan", "android": "https://dc.lft.to/lastmile_qr_scan"}, "is_reserved": 0}, {"lon": -76.9988555, "bike_id": "b248d693b1830e196a259d12ab42e3e2", "lat": 38.907521833333334, "fusion_lon": 0.0, "fusion_lat": 0.0, "type": "electric_scooter", "name": "b248d693b1830e196a259d12ab42e3e2", "is_disabled": 0, "rental_uris": {"ios": "https://dc.lft.to/lastmile_qr_scan", "android": "https://dc.lft.to/lastmile_qr_scan"}, "is_reserved": 0}, {"lon": -77.01142433333334, "bike_id": "75f0a31265e2063fdf90c29137f30798", "lat": 38.906366, "fusion_lon": 0.0, "fusion_lat": 0.0, "type": "electric_scooter", "name": "75f0a31265e2063fdf90c29137f30798", "is_disabled": 0, "rental_uris": {"ios": "https://dc.lft.to/lastmile_qr_scan", "android": "https://dc.lft.to/lastmile_qr_scan"}, "is_reserved": 0}, {"lon": -76.99571366666666, "bike_id": "0655a6e3c12219c4aa911d47eaba978d", "lat": 38.851801, "fusion_lon": 0.0, "fusion_lat": 0.0, "type": "electric_bike", "name": "0655a6e3c12219c4aa911d47eaba978d", "is_disabled": 0, "rental_uris": {"ios": "https://dc.lft.to/lastmile_qr_scan", "android": "https://dc.lft.to/lastmile_qr_scan"}, "is_reserved": 0}, {"lon": -77.04359966666667, "bike_id": "19aa240d73c6791a9af371c9b29f6136", "lat": 38.921628166666665, "fusion_lon": 0.0, "fusion_lat": 0.0, "type": "electric_scooter", "name": "19aa240d73c6791a9af371c9b29f6136", "is_disabled": 0, "rental_uris": {"ios": "https://dc.lft.to/lastmile_qr_scan", "android": "https://dc.lft.to/lastmile_qr_scan"}, "is_reserved": 0}, {"lon": -77.02385016666666, "bike_id": "340f2e4b4f5f0968fc8d7094cd538292", "lat": 38.907089666666664, "fusion_lon": 0.0, "fusion_lat": 0.0, "type": "electric_scooter", "name": "340f2e4b4f5f0968fc8d7094cd538292", "is_disabled": 0, "rental_uris": {"ios": "https://dc.lft.to/lastmile_qr_scan", "android": "https://dc.lft.to/lastmile_qr_scan"}, "is_reserved": 0}, {"lon": -76.94966233333334, "bike_id": "0483577e6501b095835a03c61147b2c6", "lat": 38.894376666666666, "fusion_lon": 0.0, "fusion_lat": 0.0, "type": "electric_scooter", "name": "0483577e6501b095835a03c61147b2c6", "is_disabled": 0, "rental_uris": {"ios": "https://dc.lft.to/lastmile_qr_scan", "android": "https://dc.lft.to/lastmile_qr_scan"}, "is_reserved": 0}, {"lon": -76.96090283333334, "bike_id": "b189bee24178bfe08713d27a5c0c1a39", "lat": 38.91850483333333, "fusion_lon": 0.0, "fusion_lat": 0.0, "type": "electric_bike", "name": "b189bee24178bfe08713d27a5c0c1a39", "is_disabled": 0, "rental_uris": {"ios": "https://dc.lft.to/lastmile_qr_scan", "android": "https://dc.lft.to/lastmile_qr_scan"}, "is_reserved": 0}, {"lon": -77.0355845, "bike_id": "ec99cb2838d213548197ea68a3f32812", "lat": 38.93377733333333, "fusion_lon": 0.0, "fusion_lat": 0.0, "type": "electric_scooter", "name": "ec99cb2838d213548197ea68a3f32812", "is_disabled": 0, "rental_uris": {"ios": "https://dc.lft.to/lastmile_qr_scan", "android": "https://dc.lft.to/lastmile_qr_scan"}, "is_reserved": 0}, {"lon": -76.988158, "bike_id": "5b08967640501f8beefe2d27d9c5b238", "lat": 38.85829583333334, "fusion_lon": 0.0, "fusion_lat": 0.0, "type": "electric_scooter", "name": "5b08967640501f8beefe2d27d9c5b238", "is_disabled": 0, "rental_uris": {"ios": "https://dc.lft.to/lastmile_qr_scan", "android": "https://dc.lft.to/lastmile_qr_scan"}, "is_reserved": 0}, {"lon": -76.95197383333333, "bike_id": "46d092d9f7141627e941479a0756a7e2", "lat": 38.900013, "fusion_lon": 0.0, "fusion_lat": 0.0, "type": "electric_scooter", "name": "46d092d9f7141627e941479a0756a7e2", "is_disabled": 0, "rental_uris": {"ios": "https://dc.lft.to/lastmile_qr_scan", "android": "https://dc.lft.to/lastmile_qr_scan"}, "is_reserved": 0}, {"lon": -77.01608666666667, "bike_id": "6faabcfe7fdff20d949b75748dccf731", "lat": 38.9105755, "fusion_lon": 0.0, "fusion_lat": 0.0, "type": "electric_scooter", "name": "6faabcfe7fdff20d949b75748dccf731", "is_disabled": 0, "rental_uris": {"ios": "https://dc.lft.to/lastmile_qr_scan", "android": "https://dc.lft.to/lastmile_qr_scan"}, "is_reserved": 0}, {"lon": -77.04271233333333, "bike_id": "65cad1064e5811d94b70e57d44f64d42", "lat": 38.91041583333333, "fusion_lon": 0.0, "fusion_lat": 0.0, "type": "electric_scooter", "name": "65cad1064e5811d94b70e57d44f64d42", "is_disabled": 0, "rental_uris": {"ios": "https://dc.lft.to/lastmile_qr_scan", "android": "https://dc.lft.to/lastmile_qr_scan"}, "is_reserved": 0}, {"lon": -77.02283683333333, "bike_id": "0c7616bc4b8e1d2663c5b70ee4af6207", "lat": 38.90962566666666, "fusion_lon": 0.0, "fusion_lat": 0.0, "type": "electric_scooter", "name": "0c7616bc4b8e1d2663c5b70ee4af6207", "is_disabled": 0, "rental_uris": {"ios": "https://dc.lft.to/lastmile_qr_scan", "android": "https://dc.lft.to/lastmile_qr_scan"}, "is_reserved": 0}, {"lon": -76.955297, "bike_id": "66b899ed44375f212fdbaa7843abd9b8", "lat": 38.8876735, "fusion_lon": 0.0, "fusion_lat": 0.0, "type": "electric_scooter", "name": "66b899ed44375f212fdbaa7843abd9b8", "is_disabled": 0, "rental_uris": {"ios": "https://dc.lft.to/lastmile_qr_scan", "android": "https://dc.lft.to/lastmile_qr_scan"}, "is_reserved": 0}, {"lon": -77.057396, "bike_id": "9d32775a31cf894f8b3678b4f53510c5", "lat": 38.933558833333336, "fusion_lon": 0.0, "fusion_lat": 0.0, "type": "electric_scooter", "name": "9d32775a31cf894f8b3678b4f53510c5", "is_disabled": 0, "rental_uris": {"ios": "https://dc.lft.to/lastmile_qr_scan", "android": "https://dc.lft.to/lastmile_qr_scan"}, "is_reserved": 0}, {"lon": -77.02895183333334, "bike_id": "ff6d4a1a8bf959316dd6bfecd02096e3", "lat": 38.90716116666667, "fusion_lon": 0.0, "fusion_lat": 0.0, "type": "electric_scooter", "name": "ff6d4a1a8bf959316dd6bfecd02096e3", "is_disabled": 0, "rental_uris": {"ios": "https://dc.lft.to/lastmile_qr_scan", "android": "https://dc.lft.to/lastmile_qr_scan"}, "is_reserved": 0}, {"lon": -77.03830633333334, "bike_id": "aa6c102f8023c20a0f7b111e9a7c2b1a", "lat": 38.90672033333333, "fusion_lon": 0.0, "fusion_lat": 0.0, "type": "electric_scooter", "name": "aa6c102f8023c20a0f7b111e9a7c2b1a", "is_disabled": 0, "rental_uris": {"ios": "https://dc.lft.to/lastmile_qr_scan", "android": "https://dc.lft.to/lastmile_qr_scan"}, "is_reserved": 0}, {"lon": -76.979127, "bike_id": "eaca1a439be0d390fa71041b1cc4a427", "lat": 38.9245785, "fusion_lon": 0.0, "fusion_lat": 0.0, "type": "electric_bike", "name": "eaca1a439be0d390fa71041b1cc4a427", "is_disabled": 0, "rental_uris": {"ios": "https://dc.lft.to/lastmile_qr_scan", "android": "https://dc.lft.to/lastmile_qr_scan"}, "is_reserved": 0}, {"lon": -77.02936733333334, "bike_id": "423afea941290ef01228f3f69708d463", "lat": 38.8984565, "fusion_lon": 0.0, "fusion_lat": 0.0, "type": "electric_bike", "name": "423afea941290ef01228f3f69708d463", "is_disabled": 0, "rental_uris": {"ios": "https://dc.lft.to/lastmile_qr_scan", "android": "https://dc.lft.to/lastmile_qr_scan"}, "is_reserved": 0}, {"lon": -76.98842233333333, "bike_id": "e16631c04de4d77bea0a5814aaba75ed", "lat": 38.8966575, "fusion_lon": 0.0, "fusion_lat": 0.0, "type": "electric_scooter", "name": "e16631c04de4d77bea0a5814aaba75ed", "is_disabled": 0, "rental_uris": {"ios": "https://dc.lft.to/lastmile_qr_scan", "android": "https://dc.lft.to/lastmile_qr_scan"}, "is_reserved": 0}, {"lon": -77.00764666666667, "bike_id": "9bb5a54198c12106d85018ca5389b214", "lat": 38.870878, "fusion_lon": 0.0, "fusion_lat": 0.0, "type": "electric_scooter", "name": "9bb5a54198c12106d85018ca5389b214", "is_disabled": 0, "rental_uris": {"ios": "https://dc.lft.to/lastmile_qr_scan", "android": "https://dc.lft.to/lastmile_qr_scan"}, "is_reserved": 0}, {"lon": -77.0322615, "bike_id": "5c1ae0d2a7f6eaa1ab65044175a58140", "lat": 38.896643, "fusion_lon": 0.0, "fusion_lat": 0.0, "type": "electric_scooter", "name": "5c1ae0d2a7f6eaa1ab65044175a58140", "is_disabled": 0, "rental_uris": {"ios": "https://dc.lft.to/lastmile_qr_scan", "android": "https://dc.lft.to/lastmile_qr_scan"}, "is_reserved": 0}, {"lon": -77.02142033333334, "bike_id": "c6f0323abaa16c5852d2faa435df5d4d", "lat": 38.91594716666667, "fusion_lon": 0.0, "fusion_lat": 0.0, "type": "electric_scooter", "name": "c6f0323abaa16c5852d2faa435df5d4d", "is_disabled": 0, "rental_uris": {"ios": "https://dc.lft.to/lastmile_qr_scan", "android": "https://dc.lft.to/lastmile_qr_scan"}, "is_reserved": 0}, {"lon": -76.985039, "bike_id": "dc064918ecbdca1471f679eabbab6505", "lat": 38.8935045, "fusion_lon": 0.0, "fusion_lat": 0.0, "type": "electric_scooter", "name": "dc064918ecbdca1471f679eabbab6505", "is_disabled": 0, "rental_uris": {"ios": "https://dc.lft.to/lastmile_qr_scan", "android": "https://dc.lft.to/lastmile_qr_scan"}, "is_reserved": 0}, {"lon": -77.065229, "bike_id": "934afb0798c6b9f7a9adb24a20fef4c9", "lat": 38.908892333333334, "fusion_lon": 0.0, "fusion_lat": 0.0, "type": "electric_scooter", "name": "934afb0798c6b9f7a9adb24a20fef4c9", "is_disabled": 0, "rental_uris": {"ios": "https://dc.lft.to/lastmile_qr_scan", "android": "https://dc.lft.to/lastmile_qr_scan"}, "is_reserved": 0}, {"lon": -77.02382183333333, "bike_id": "f5198ebfe82ba936a43aa5fd88e92de1", "lat": 38.920522166666665, "fusion_lon": 0.0, "fusion_lat": 0.0, "type": "electric_scooter", "name": "f5198ebfe82ba936a43aa5fd88e92de1", "is_disabled": 0, "rental_uris": {"ios": "https://dc.lft.to/lastmile_qr_scan", "android": "https://dc.lft.to/lastmile_qr_scan"}, "is_reserved": 0}, {"lon": -76.97325766666667, "bike_id": "c3cbfbd082b713fccedd82746b6fc858", "lat": 38.904782, "fusion_lon": 0.0, "fusion_lat": 0.0, "type": "electric_bike", "name": "c3cbfbd082b713fccedd82746b6fc858", "is_disabled": 0, "rental_uris": {"ios": "https://dc.lft.to/lastmile_qr_scan", "android": "https://dc.lft.to/lastmile_qr_scan"}, "is_reserved": 0}, {"lon": -76.9979835, "bike_id": "1d28525239ed8f1d56082cc424baa609", "lat": 38.956365, "fusion_lon": 0.0, "fusion_lat": 0.0, "type": "electric_bike", "name": "1d28525239ed8f1d56082cc424baa609", "is_disabled": 0, "rental_uris": {"ios": "https://dc.lft.to/lastmile_qr_scan", "android": "https://dc.lft.to/lastmile_qr_scan"}, "is_reserved": 0}, {"lon": -77.02682316666667, "bike_id": "335f36a939b68dfaeb5b8a750eeba939", "lat": 38.91253183333333, "fusion_lon": 0.0, "fusion_lat": 0.0, "type": "electric_scooter", "name": "335f36a939b68dfaeb5b8a750eeba939", "is_disabled": 0, "rental_uris": {"ios": "https://dc.lft.to/lastmile_qr_scan", "android": "https://dc.lft.to/lastmile_qr_scan"}, "is_reserved": 0}, {"lon": -77.04105, "bike_id": "9b4aeebeaf2809ced9580577151f24d3", "lat": 38.925223, "fusion_lon": 0.0, "fusion_lat": 0.0, "type": "electric_scooter", "name": "9b4aeebeaf2809ced9580577151f24d3", "is_disabled": 0, "rental_uris": {"ios": "https://dc.lft.to/lastmile_qr_scan", "android": "https://dc.lft.to/lastmile_qr_scan"}, "is_reserved": 0},