{"data": {"bikes": [{"fusion_lat": 0.0, "name": "a5868202969a031276d8099aff9826f6", "is_disabled": 0, "rental_uris": {"android": "https://dc.lft.to/lastmile_qr_scan", "ios": "https://dc.lft.to/lastmile_qr_scan"}, "fusion_lon": 0.0, "lat": 38.9096075, "bike_id": "a5868202969a031276d8099aff9826f6", "type": "electric_scooter", "is_reserved": 0, "lon": -77.02168283333333}, {"fusion_lat": 0.0, "name": "a85ab6e0b3bab28f158e982a60aec3c4", "is_disabled": 0, "rental_uris": {"android": "https://dc.lft.to/lastmile_qr_scan", "ios": "https://dc.lft.to/lastmile_qr_scan"}, "fusion_lon": 0.0, "lat": 38.866314833333334, "bike_id": "a85ab6e0b3bab28f158e982a60aec3c4", "type": "electric_scooter", "is_reserved": 0, "lon": -76.98719633333333}, {"fusion_lat": 0.0, "name": "a6a9ff55acfacb6380865d98de71c035", "is_disabled": 0, "rental_uris": {"android": "https://dc.lft.to/lastmile_qr_scan", "ios": "https://dc.lft.to/lastmile_qr_scan"}, "fusion_lon": 0.0, "lat": 38.91993333333333, "bike_id": "a6a9ff55acfacb6380865d98de71c035", "type": "electric_scooter", "is_reserved": 0, "lon": -77.02369433333334}, {"fusion_lat": 0.0, "name": "0b7da34c6799100a8432d06f75846c10", "is_disabled": 0, "rental_uris": {"android": "https://dc.lft.to/lastmile_qr_scan", "ios": "https://dc.lft.to/lastmile_qr_scan"}, "fusion_lon": 0.0, "lat": 38.9001035, "bike_id": "0b7da34c6799100a8432d06f75846c10", "type": "electric_scooter", "is_reserved": 0, "lon": -77.0294425}, {"fusion_lat": 0.0, "name": "8604f3d3a13b100e7824eff880cba0f3", "is_disabled": 0, "rental_uris": {"android": "https://dc.lft.to/lastmile_qr_scan", "ios": "https://dc.lft.to/lastmile_qr_scan"}, "fusion_lon": 0.0, "lat": 38.90285633333333, "bike_id": "8604f3d3a13b100e7824eff880cba0f3", "type": "electric_scooter", "is_reserved": 0, "lon": -77.043743}, {"fusion_lat": 0.0, "name": "d931a18906e0b1610d576024cf062eb3", "is_disabled": 0, "rental_uris": {"android": "https://dc.lft.to/lastmile_qr_scan", "ios": "https://dc.lft.to/lastmile_qr_scan"}, "fusion_lon": 0.0, "lat": 38.944476333333334, "bike_id": "d931a18906e0b1610d576024cf062eb3", "type": "electric_scooter", "is_reserved": 0, "lon": -77.023435}, {"fusion_lat": 0.0, "name": "1572151964f77c2f9aea9297cd0a726e", "is_disabled": 0, "rental_uris": {"android": "https://dc.lft.to/lastmile_qr_scan", "ios": "https://dc.lft.to/lastmile_qr_scan"}, "fusion_lon": 0.0, "lat": 38.900866666666666, "bike_id": "1572151964f77c2f9aea9297cd0a726e", "type": "electric_scooter", "is_reserved": 0, "lon": -77.05832583333333}, {"fusion_lat": 0.0, "name": "64533ab2472a414b537d176089c02631", "is_disabled": 0, "rental_uris": {"android": "https://dc.lft.to/lastmile_qr_scan", "ios": "https://dc.lft.to/lastmile_qr_scan"}, "fusion_lon": 0.0, "lat": 38.93141633333333, "bike_id": "64533ab2472a414b537d176089c02631", "type": "electric_scooter", "is_reserved": 0, "lon": -77.07845266666666}, {"fusion_lat": 0.0, "name": "5d0799fdb7ea07060bd7c2e7af32ad5d", "is_disabled": 0, "rental_uris": {"android": "https://dc.lft.to/lastmile_qr_scan", "ios": "https://dc.lft.to/lastmile_qr_scan"}, "fusion_lon": 0.0, "lat": 38.919247166666665, "bike_id": "5d0799fdb7ea07060bd7c2e7af32ad5d", "type": "electric_scooter", "is_reserved": 0, "lon": -77.02518633333334}, {"fusion_lat": 0.0, "name": "aed7f824ab9b542e0d6b5866c76d99b3", "is_disabled": 0, "rental_uris": {"android": "https://dc.lft.to/lastmile_qr_scan", "ios": "https://dc.lft.to/lastmile_qr_scan"}, "fusion_lon": 0.0, "lat": 38.91038366666667, "bike_id": "aed7f824ab9b542e0d6b5866c76d99b3", "type": "electric_scooter", "is_reserved": 0, "lon": -77.06421883333333}, {"fusion_lat": 0.0, "name": "8cb21948cb62b138c198cd45d87e7e4a", "is_disabled": 0, "rental_uris": {"android": "https://dc.lft.to/lastmile_qr_scan", "ios": "https://dc.lft.to/lastmile_qr_scan"}, "fusion_lon": 0.0, "lat": 38.904082333333335, "bike_id": "8cb21948cb62b138c198cd45d87e7e4a", "type": "electric_scooter", "is_reserved": 0, "lon": -76.97329433333333}, {"fusion_lat": 0.0, "name": "4db5fb37037a7ec6ed79938bb9d5ad69", "is_disabled": 0, "rental_uris": {"android": "https://dc.lft.to/lastmile_qr_scan", "ios": "https://dc.lft.to/lastmile_qr_scan"}, "fusion_lon": 0.0, "lat": 38.872477, "bike_id": "4db5fb37037a7ec6ed79938bb9d5ad69", "type": "electric_scooter", "is_reserved": 0, "lon": -76.977303}, {"fusion_lat": 0.0, "name": "ddd8f56f58e04cc9af61a33efc76bbae", "is_disabled": 0, "rental_uris": {"android": "https://dc.lft.to/lastmile_qr_scan", "ios": "https://dc.lft.to/lastmile_qr_scan"}, "fusion_lon": 0.0, "lat": 38.94152183333333, "bike_id": "ddd8f56f58e04cc9af61a33efc76bbae", "type": "electric_bike", "is_reserved": 0, "lon": -77.002005}, {"fusion_lat": 0.0, "name": "9e308e33b7218a96d3d8cda0116bfda2", "is_disabled": 0, "rental_uris": {"android": "https://dc.lft.to/lastmile_qr_scan", "ios": "https://dc.lft.to/lastmile_qr_scan"}, "fusion_lon": 0.0, "lat": 38.9141285, "bike_id": "9e308e33b7218a96d3d8cda0116bfda2", "type": "electric_scooter", "is_reserved": 0, "lon": -77.02213066666667}, {"fusion_lat": 0.0, "name": "b10f8fc5a0d819603410bc1a63e124b8", "is_disabled": 0, "rental_uris": {"android": "https://dc.lft.to/lastmile_qr_scan", "ios": "https://dc.lft.to/lastmile_qr_scan"}, "fusion_lon": 0.0, "lat": 38.955915166666664, "bike_id": "b10f8fc5a0d819603410bc1a63e124b8", "type": "electric_bike", "is_reserved": 0, "lon": -77.01009366666666}, {"fusion_lat": 0.0, "name": "c93d122ea5ff7c972a3ce7ab65457aa7", "is_disabled": 0, "rental_uris": {"android": "https://dc.lft.to/lastmile_qr_scan", "ios": "https://dc.lft.to/lastmile_qr_scan"}, "fusion_lon": 0.0, "lat": 38.907023833333334, "bike_id": "c93d122ea5ff7c972a3ce7ab65457aa7", "type": "electric_scooter", "is_reserved": 0, "lon": -77.02385966666667}, {"fusion_lat": 0.0, "name": "ee09f24e671bf4c11cb4660a9af2f2ad", "is_disabled": 0, "rental_uris": {"android": "https://dc.lft.to/lastmile_qr_scan", "ios": "https://dc.lft.to/lastmile_qr_scan"}, "fusion_lon": 0.0, "lat": 38.91692166666667, "bike_id": "ee09f24e671bf4c11cb4660a9af2f2ad", "type": "electric_scooter", "is_reserved": 0, "lon": -77.03586}, {"fusion_lat": 0.0, "name": "9c208d59d55b43ebf3fdea93fad0e7e8", "is_disabled": 0, "rental_uris": {"android": "https://dc.lft.to/lastmile_qr_scan", "ios": "https://dc.lft.to/lastmile_qr_scan"}, "fusion_lon": 0.0, "lat": 38.8972915, "bike_id": "9c208d59d55b43ebf3fdea93fad0e7e8", "type": "electric_scooter", "is_reserved": 0, "lon": -77.04399566666666}, {"fusion_lat": 0.0, "name": "2ba2789856d0855fbba36be7000b72a3", "is_disabled": 0, "rental_uris": {"android": "https://dc.lft.to/lastmile_qr_scan", "ios": "https://dc.lft.to/lastmile_qr_scan"}, "fusion_lon": 0.0, "lat": 38.98768183333333, "bike_id": "2ba2789856d0855fbba36be7000b72a3", "type": "electric_bike", "is_reserved": 0, "lon": -77.14055366666666}, {"fusion_lat": 0.0, "name": "b034e856bb8c456d02292b2d09b8c9b0", "is_disabled": 0, "rental_uris": {"android": "https://dc.lft.to/lastmile_qr_scan", "ios": "https://dc.lft.to/lastmile_qr_scan"}, "fusion_lon": 0.0, "lat": 38.8989645, "bike_id": "b034e856bb8c456d02292b2d09b8c9b0", "type": "electric_scooter", "is_reserved": 0, "lon": -77.00333733333333}, {"fusion_lat": 0.0, "name": "7cfe5a1ff171b6e3ced7979aafbb5aa0", "is_disabled": 0, "rental_uris": {"android": "https://dc.lft.to/lastmile_qr_scan", "ios": "https://dc.lft.to/lastmile_qr_scan"}, "fusion_lon": 0.0, "lat": 38.88731166666667, "bike_id": "7cfe5a1ff171b6e3ced7979aafbb5aa0", "type": "electric_scooter", "is_reserved": 0, "lon": -77.0153035}, {"fusion_lat": 0.0, "name": "d055c5b49a53d3123547acafb73282c1", "is_disabled": 0, "rental_uris": {"android": "https://dc.lft.to/lastmile_qr_scan", "ios": "https://dc.lft.to/lastmile_qr_scan"}, "fusion_lon": 0.0, "lat": 38.83231816666667, "bike_id": "d055c5b49a53d3123547acafb73282c1", "type": "electric_bike", "is_reserved": 0, "lon": -76.94612616666667}, {"fusion_lat": 0.0, "name": "06dd7a960c20076a4b08a2850d9dd880", "is_disabled": 0, "rental_uris": {"android": "https://dc.lft.to/lastmile_qr_scan", "ios": "https://dc.lft.to/lastmile_qr_scan"}, "fusion_lon": 0.0, "lat": 38.913861833333335, "bike_id": "06dd7a960c20076a4b08a2850d9dd880", "type": "electric_scooter", "is_reserved": 0, "lon": -77.04467316666667}, {"fusion_lat": 0.0, "name": "c12155916e1c11ee10801171370c8608", "is_disabled": 0, "rental_uris": {"android": "https://dc.lft.to/lastmile_qr_scan", "ios": "https://dc.lft.to/lastmile_qr_scan"}, "fusion_lon": 0.0, "lat": 38.90453866666667, "bike_id": "c12155916e1c11ee10801171370c8608", "type": "electric_scooter", "is_reserved": 0, "lon": -77.02897983333334}, {"fusion_lat": 0.0, "name": "9634974e512d51774d271e5eab38405e", "is_disabled": 0, "rental_uris": {"android": "https://dc.lft.to/lastmile_qr_scan", "ios": "https://dc.lft.to/lastmile_qr_scan"}, "fusion_lon": 0.0, "lat": 38.9214425, "bike_id": "9634974e512d51774d271e5eab38405e", "type": "electric_scooter", "is_reserved": 0, "lon": -77.034368}, {"fusion_lat": 0.0, "name": "0dcf6a5b86832a191e045bbcd00865f7", "is_disabled": 0, "rental_uris": {"android": "https://dc.lft.to/lastmile_qr_scan", "ios": "https://dc.lft.to/lastmile_qr_scan"}, "fusion_lon": 0.0, "lat": 38.88743616666667, "bike_id": "0dcf6a5b86832a191e045bbcd00865f7", "type": "electric_scooter", "is_reserved": 0, "lon": -77.0256995}, {"fusion_lat": 0.0, "name": "9622341b08ae0fb2b752c1bad030068a", "is_disabled": 0, "rental_uris": {"android": "https://dc.lft.to/lastmile_qr_scan", "ios": "https://dc.lft.to/lastmile_qr_scan"}, "fusion_lon": 0.0, "lat": 38.885942166666666, "bike_id": "9622341b08ae0fb2b752c1bad030068a", "type": "electric_scooter", "is_reserved": 0, "lon": -77.01962633333333}, {"fusion_lat": 0.0, "name": "808676447a6a79113aac70c6fa911184", "is_disabled": 0, "rental_uris": {"android": "https://dc.lft.to/lastmile_qr_scan", "ios": "https://dc.lft.to/lastmile_qr_scan"}, "fusion_lon": 0.0, "lat": 38.93260333333333, "bike_id": "808676447a6a79113aac70c6fa911184", "type": "electric_scooter", "is_reserved": 0, "lon": -77.03262966666667}, {"fusion_lat": 0.0, "name": "0ce73c9e8f718552046b41b48b191532", "is_disabled": 0, "rental_uris": {"android": "https://dc.lft.to/lastmile_qr_scan", "ios": "https://dc.lft.to/lastmile_qr_scan"}, "fusion_lon": 0.0, "lat": 38.8737065, "bike_id": "0ce73c9e8f718552046b41b48b191532", "type": "electric_scooter", "is_reserved": 0, "lon": -77.00062783333334}, {"fusion_lat": 0.0, "name": "ab3ce392376fa45d34ac43bec0ac80a5", "is_disabled": 0, "rental_uris": {"android": "https://dc.lft.to/lastmile_qr_scan", "ios": "https://dc.lft.to/lastmile_qr_scan"}, "fusion_lon": 0.0, "lat": 38.873681166666664, "bike_id": "ab3ce392376fa45d34ac43bec0ac80a5", "type": "electric_scooter", "is_reserved": 0, "lon": -77.0006105}, {"fusion_lat": 0.0, "name": "5698cd77f5becb33bbd18945cabbdaf6", "is_disabled": 0, "rental_uris": {"android": "https://dc.lft.to/lastmile_qr_scan", "ios": "https://dc.lft.to/lastmile_qr_scan"}, "fusion_lon": 0.0, "lat": 38.91881216666667, "bike_id": "5698cd77f5becb33bbd18945cabbdaf6", "type": "electric_scooter", "is_reserved": 0, "lon": -77.0447195}, {"fusion_lat": 0.0, "name": "23d8e320e3e1e1ff76d1fbb90ddf9f0c", "is_disabled": 0, "rental_uris": {"android": "https://dc.lft.to/lastmile_qr_scan", "ios": "https://dc.lft.to/lastmile_qr_scan"}, "fusion_lon": 0.0, "lat": 38.9314245, "bike_id": "23d8e320e3e1e1ff76d1fbb90ddf9f0c", "type": "electric_scooter", "is_reserved": 0, "lon": -77.029831}, {"fusion_lat": 0.0, "name": "106664c01e43d19bff33975897713463", "is_disabled": 0, "rental_uris": {"android": "https://dc.lft.to/lastmile_qr_scan", "ios": "https://dc.lft.to/lastmile_qr_scan"}, "fusion_lon": 0.0, "lat": 38.839350833333334, "bike_id": "106664c01e43d19bff33975897713463", "type": "electric_bike", "is_reserved": 0, "lon": -77.0791645}, {"fusion_lat": 0.0, "name": "1456e55baa734d93537c9fc768d17fb8", "is_disabled": 0, "rental_uris": {"android": "https://dc.lft.to/lastmile_qr_scan", "ios": "https://dc.lft.to/lastmile_qr_scan"}, "fusion_lon": 0.0, "lat": 38.978829833333336, "bike_id": "1456e55baa734d93537c9fc768d17fb8", "type": "electric_bike", "is_reserved": 0, "lon": -77.06023666666667}, {"fusion_lat": 0.0, "name": "c1bebfead00a85088aa946fd040b4c39", "is_disabled": 0, "rental_uris": {"android": "https://dc.lft.to/lastmile_qr_scan", "ios": "https://dc.lft.to/lastmile_qr_scan"}, "fusion_lon": 0.0, "lat": 38.87412066666667, "bike_id": "c1bebfead00a85088aa946fd040b4c39", "type": "electric_scooter", "is_reserved": 0, "lon": -77.01856466666666}, {"fusion_lat": 0.0, "name": "2e8510495ccf368e3dcc88d833959322", "is_disabled": 0, "rental_uris": {"android": "https://dc.lft.to/lastmile_qr_scan", "ios": "https://dc.lft.to/lastmile_qr_scan"}, "fusion_lon": 0.0, "lat": 38.91777616666667, "bike_id": "2e8510495ccf368e3dcc88d833959322", "type": "electric_scooter", "is_reserved": 0, "lon": -77.04766833333333}, {"fusion_lat": 0.0, "name": "5fe4f5e5e439778ae7fc0ca7aa267156", "is_disabled": 0, "rental_uris": {"android": "https://dc.lft.to/lastmile_qr_scan", "ios": "https://dc.lft.to/lastmile_qr_scan"}, "fusion_lon": 0.0, "lat": 38.892219833333336, "bike_id": "5fe4f5e5e439778ae7fc0ca7aa267156", "type": "electric_scooter", "is_reserved": 0, "lon": -77.03982683333334}, {"fusion_lat": 0.0, "name": "8a6b5b399d27c6bf8b4819a18c45bc24", "is_disabled": 0, "rental_uris": {"android": "https://dc.lft.to/lastmile_qr_scan", "ios": "https://dc.lft.to/lastmile_qr_scan"}, "fusion_lon": 0.0, "lat": 38.901386, "bike_id": "8a6b5b399d27c6bf8b4819a18c45bc24", "type": "electric_scooter", "is_reserved": 0, "lon": -76.98659583333334}, {"fusion_lat": 0.0, "name": "1b24e56c1cd0a237428b7f0c26167cb1", "is_disabled": 0, "rental_uris": {"android": "https://dc.lft.to/lastmile_qr_scan", "ios": "https://dc.lft.to/lastmile_qr_scan"}, "fusion_lon": 0.0, "lat": 38.92409716666667, "bike_id": "1b24e56c1cd0a237428b7f0c26167cb1", "type": "electric_bike", "is_reserved": 0, "lon": -77.03529516666667}, {"fusion_lat": 0.0, "name": "57daff315b05823989a6a260d41b3610", "is_disabled": 0, "rental_uris": {"android": "https://dc.lft.to/lastmile_qr_scan", "ios": "https://dc.lft.to/lastmile_qr_scan"}, "fusion_lon": 0.0, "lat": 38.921155, "bike_id": "57daff315b05823989a6a260d41b3610", "type": "electric_scooter", "is_reserved": 0, "lon": -77.01208133333333}, {"fusion_lat": 0.0, "name": "28e139d832ece8388ae6d5734801255c", "is_disabled": 0, "rental_uris": {"android": "https://dc.lft.to/lastmile_qr_scan", "ios": "https://dc.lft.to/lastmile_qr_scan"}, "fusion_lon": 0.0, "lat": 38.887323, "bike_id": "28e139d832ece8388ae6d5734801255c", "type": "electric_scooter", "is_reserved": 0, "lon": -77.0257725}, {"fusion_lat": 0.0, "name": "0bf577c600080e1b718a2bf1f00df41a", "is_disabled": 0, "rental_uris": {"android": "https://dc.lft.to/lastmile_qr_scan", "ios": "https://dc.lft.to/lastmile_qr_scan"}, "fusion_lon": 0.0, "lat": 38.897269, "bike_id": "0bf577c600080e1b718a2bf1f00df41a", "type": "electric_scooter", "is_reserved": 0, "lon": -77.02730766666667}, {"fusion_lat": 0.0, "name": "8873abaf3dce98c2389d24189a7cad2d", "is_disabled": 0, "rental_uris": {"android": "https://dc.lft.to/lastmile_qr_scan", "ios": "https://dc.lft.to/lastmile_qr_scan"}, "fusion_lon": 0.0, "lat": 38.926845666666665, "bike_id": "8873abaf3dce98c2389d24189a7cad2d", "type": "electric_scooter", "is_reserved": 0, "lon": -77.0230315}, {"fusion_lat": 0.0, "name": "7dd2e02929b40ce5220b394f29bd6ac6", "is_disabled": 0, "rental_uris": {"android": "https://dc.lft.to/lastmile_qr_scan", "ios": "https://dc.lft.to/lastmile_qr_scan"}, "fusion_lon": 0.0, "lat": 38.980708166666666, "bike_id": "7dd2e02929b40ce5220b394f29bd6ac6", "type": "electric_bike", "is_reserved": 0, "lon": -77.09617616666667}, {"fusion_lat": 0.0, "name": "0a9a440c0fede9e241511ae896c863f2", "is_disabled": 0, "rental_uris": {"android": "https://dc.lft.to/lastmile_qr_scan", "ios": "https://dc.lft.to/lastmile_qr_scan"}, "fusion_lon": 0.0, "lat": 38.91539616666667, "bike_id": "0a9a440c0fede9e241511ae896c863f2", "type": "electric_scooter", "is_reserved": 0, "lon": -77.00547333333333}, {"fusion_lat": 0.0, "name": "1a013d9b0fc0edc0b7f510f896728b87", "is_disabled": 0, "rental_uris": {"android": "https://dc.lft.to/lastmile_qr_scan", "ios": "https://dc.lft.to/lastmile_qr_scan"}, "fusion_lon": 0.0, "lat": 38.920928833333335, "bike_id": "1a013d9b0fc0edc0b7f510f896728b87", "type": "electric_scooter", "is_reserved": 0, "lon": -76.994646}, {"fusion_lat": 0.0, "name": "d7d3d4f9f733067b583aae736bf1d80e", "is_disabled": 0, "rental_uris": {"android": "https://dc.lft.to/lastmile_qr_scan", "ios": "https://dc.lft.to/lastmile_qr_scan"}, "fusion_lon": 0.0, "lat": 38.903435, "bike_id": "d7d3d4f9f733067b583aae736bf1d80e", "type": "electric_scooter", "is_reserved": 0, "lon": -77.04486616666667}, {"fusion_lat": 0.0, "name": "982c2f21b1b92085136b79498af128ef", "is_disabled": 0, "rental_uris": {"android": "https://dc.lft.to/lastmile_qr_scan", "ios": "https://dc.lft.to/lastmile_qr_scan"}, "fusion_lon": 0.0, "lat": 38.927624, "bike_id": "982c2f21b1b92085136b79498af128ef", "type": "electric_scooter", "is_reserved": 0, "lon": -77.01616866666667}, {"fusion_lat": 0.0, "name": "4169de80de94f729c2c83f41028d6545", "is_disabled": 0, "rental_uris": {"android": "https://dc.lft.to/lastmile_qr_scan", "ios": "https://dc.lft.to/lastmile_qr_scan"}, "fusion_lon": 0.0, "lat": 38.91324566666667, "bike_id": "4169de80de94f729c2c83f41028d6545", "type": "electric_scooter", "is_reserved": 0, "lon": -77.03180516666667}, {"fusion_lat": 0.0, "name": "4ddc232def709e01e69429c3b87c49a0", "is_disabled": 0, "rental_uris": {"android": "https://dc.lft.to/lastmile_qr_scan", "ios": "https://dc.lft.to/lastmile_qr_scan"}, "fusion_lon": 0.0, "lat": 38.9166085, "bike_id": "4ddc232def709e01e69429c3b87c49a0", "type": "electric_scooter", "is_reserved": 0, "lon": -77.03854233333334}, {"fusion_lat": 0.0, "name": "8244e8cdac606b44f397ea0709da4454", "is_disabled": 0, "rental_uris": {"android": "https://dc.lft.to/lastmile_qr_scan", "ios": "https://dc.lft.to/lastmile_qr_scan"}, "fusion_lon": 0.0, "lat": 38.92597583333333, "bike_id": "8244e8cdac606b44f397ea0709da4454", "type": "electric_scooter", "is_reserved": 0, "lon": -77.021522}, {"fusion_lat": 0.0, "name": "d84b822b110a59821b1f176094921bce", "is_disabled": 0, "rental_uris": {"android": "https://dc.lft.to/lastmile_qr_scan", "ios": "https://dc.lft.to/lastmile_qr_scan"}, "fusion_lon": 0.0, "lat": 38.89828766666667, "bike_id": "d84b822b110a59821b1f176094921bce", "type": "electric_scooter", "is_reserved": 0, "lon": -76.94653466666666}, {"fusion_lat": 0.0, "name": "b6aa157b0144f1c3c71a50c713165bc0", "is_disabled": 0, "rental_uris": {"android": "https://dc.lft.to/lastmile_qr_scan", "ios": "https://dc.lft.to/lastmile_qr_scan"}, "fusion_lon": 0.0, "lat": 38.90668733333333, "bike_id": "b6aa157b0144f1c3c71a50c713165bc0", "type": "electric_scooter", "is_reserved": 0, "lon": -77.04714516666667}, {"fusion_lat": 0.0, "name": "5ef857d945651c1df84f12bf7fa06341", "is_disabled": 0, "rental_uris": {"android": "https://dc.lft.to/lastmile_qr_scan", "ios": "https://dc.lft.to/lastmile_qr_scan"}, "fusion_lon": 0.0, "lat": 38.87899816666667, "bike_id": "5ef857d945651c1df84f12bf7fa06341", "type": "electric_scooter", "is_reserved": 0, "lon": -77.01361033333333}, {"fusion_lat": 0.0, "name": "d7300befcc2e4bacb7ce04eb4a202130", "is_disabled": 0, "rental_uris": {"android": "https://dc.lft.to/lastmile_qr_scan", "ios": "https://dc.lft.to/lastmile_qr_scan"}, "fusion_lon": 0.0, "lat": 38.904962833333336, "bike_id": "d7300befcc2e4bacb7ce04eb4a202130", "type": "electric_scooter", "is_reserved": 0, "lon": -77.010154}, {"fusion_lat": 0.0, "name": "dbea59acbd4fbdcb71726438e1945e51", "is_disabled": 0, "rental_uris": {"android": "https://dc.lft.to/lastmile_qr_scan", "ios": "https://dc.lft.to/lastmile_qr_scan"}, "fusion_lon": 0.0, "lat": 38.917663833333336, "bike_id": "dbea59acbd4fbdcb71726438e1945e51", "type": "electric_scooter", "is_reserved": 0, "lon": -77.01493416666666}, {"fusion_lat": 0.0, "name": "1f34e670a27ccb88ef3d4b91c213e468", "is_disabled": 0, "rental_uris": {"android": "https://dc.lft.to/lastmile_qr_scan", "ios": "https://dc.lft.to/lastmile_qr_scan"}, "fusion_lon": 0.0, "lat": 38.90245383333333, "bike_id": "1f34e670a27ccb88ef3d4b91c213e468", "type": "electric_scooter", "is_reserved": 0, "lon": -77.0177535}, {"fusion_lat": 0.0, "name": "d471ed0f072d2fb9f96a66ba8726661f", "is_disabled": 0, "rental_uris": {"android": "https://dc.lft.to/lastmile_qr_scan", "ios": "https://dc.lft.to/lastmile_qr_scan"}, "fusion_lon": 0.0, "lat": 38.944092, "bike_id": "d471ed0f072d2fb9f96a66ba8726661f", "type": "electric_scooter", "is_reserved": 0, "lon": -77.032046}, {"fusion_lat": 0.0, "name": "ee6690fdfb7a32372746a3d5eac633d6", "is_disabled": 0, "rental_uris": {"android": "https://dc.lft.to/lastmile_qr_scan", "ios": "https://dc.lft.to/lastmile_qr_scan"}, "fusion_lon": 0.0, "lat": 38.88503933333333, "bike_id": "ee6690fdfb7a32372746a3d5eac633d6", "type": "electric_scooter", "is_reserved": 0, "lon": -76.92939033333333}, {"fusion_lat": 0.0, "name": "c204b365b4d316aea3521dc89032f9df", "is_disabled": 0, "rental_uris": {"android": "https://dc.lft.to/lastmile_qr_scan", "ios": "https://dc.lft.to/lastmile_qr_scan"}, "fusion_lon": 0.0, "lat": 38.96117866666667, "bike_id": "c204b365b4d316aea3521dc89032f9df", "type": "electric_bike", "is_reserved": 0, "lon": -77.032645}, {"fusion_lat": 0.0, "name": "c0ff1f2e3d23f01fbf3fccc7f71b1cce", "is_disabled": 0, "rental_uris": {"android": "https://dc.lft.to/lastmile_qr_scan", "ios": "https://dc.lft.to/lastmile_qr_scan"}, "fusion_lon": 0.0, "lat": 38.91549533333333, "bike_id": "c0ff1f2e3d23f01fbf3fccc7f71b1cce", "type": "electric_scooter", "is_reserved": 0, "lon": -77.02207566666667}, {"fusion_lat": 0.0, "name": "c269056b76febd0846a7b469a7889da0", "is_disabled": 0, "rental_uris": {"android": "https://dc.lft.to/lastmile_qr_scan", "ios": "https://dc.lft.to/lastmile_qr_scan"}, "fusion_lon": 0.0, "lat": 38.944387, "bike_id": "c269056b76febd0846a7b469a7889da0", "type": "electric_scooter", "is_reserved": 0, "lon": -77.061634}, {"fusion_lat": 0.0, "name": "6abf0f5d7954604707ca21a50544b844", "is_disabled": 0, "rental_uris": {"android": "https://dc.lft.to/lastmile_qr_scan", "ios": "https://dc.lft.to/lastmile_qr_scan"}, "fusion_lon": 0.0, "lat": 38.873752833333334, "bike_id": "6abf0f5d7954604707ca21a50544b844", "type": "electric_scooter", "is_reserved": 0, "lon": -77.0010095}, {"fusion_lat": 0.0, "name": "e45a463ad44d39960521f0fdfd12cd7a", "is_disabled": 0, "rental_uris": {"android": "https://dc.lft.to/lastmile_qr_scan", "ios": "https://dc.lft.to/lastmile_qr_scan"}, "fusion_lon": 0.0, "lat": 38.8987225, "bike_id": "e45a463ad44d39960521f0fdfd12cd7a", "type": "electric_scooter", "is_reserved": 0, "lon": -77.03290033333333}, {"fusion_lat": 0.0, "name": "7470b4accceb550f8d3b7e7bfa4e3bf8", "is_disabled": 0, "rental_uris": {"android": "https://dc.lft.to/lastmile_qr_scan", "ios": "https://dc.lft.to/lastmile_qr_scan"}, "fusion_lon": 0.0, "lat": 38.916353666666666, "bike_id": "7470b4accceb550f8d3b7e7bfa4e3bf8", "type": "electric_scooter", "is_reserved": 0, "lon": -77.04787116666667}, {"fusion_lat": 0.0, "name": "8dea31bcac596305b7e338d90d0608af", "is_disabled": 0, "rental_uris": {"android": "https://dc.lft.to/lastmile_qr_scan", "ios": "https://dc.lft.to/lastmile_qr_scan"}, "fusion_lon": 0.0, "lat": 38.93977183333333, "bike_id": "8dea31bcac596305b7e338d90d0608af", "type": "electric_scooter", "is_reserved": 0, "lon": -77.03565466666667}, {"fusion_lat": 0.0, "name": "9cc1642bf13ea2fd8094e5a7565b5c57", "is_disabled": 0, "rental_uris": {"android": "https://dc.lft.to/lastmile_qr_scan", "ios": "https://dc.lft.to/lastmile_qr_scan"}, "fusion_lon": 0.0, "lat": 38.884601833333335, "bike_id": "9cc1642bf13ea2fd8094e5a7565b5c57", "type": "electric_scooter", "is_reserved": 0, "lon": -76.949811}, {"fusion_lat": 0.0, "name": "d6296cb03613177d0006f88fe5d1317d", "is_disabled": 0, "rental_uris": {"android": "https://dc.lft.to/lastmile_qr_scan", "ios": "https://dc.lft.to/lastmile_qr_scan"}, "fusion_lon": 0.0, "lat": 38.878838, "bike_id": "d6296cb03613177d0006f88fe5d1317d", "type": "electric_scooter", "is_reserved": 0, "lon": -77.005768}, {"fusion_lat": 0.0, "name": "7a0c98e7d88f1f7f91bb738c87e17be7", "is_disabled": 0, "rental_uris": {"android": "https://dc.lft.to/lastmile_qr_scan", "ios": "https://dc.lft.to/lastmile_qr_scan"}, "fusion_lon": 0.0, "lat": 38.87613266666666, "bike_id": "7a0c98e7d88f1f7f91bb738c87e17be7", "type": "electric_scooter", "is_reserved": 0, "lon": -77.0011375}, {"fusion_lat": 0.0, "name": "f2a5b530ec14a5d9c4f191ee7c678719", "is_disabled": 0, "rental_uris": {"android": "https://dc.lft.to/lastmile_qr_scan", "ios": "https://dc.lft.to/lastmile_qr_scan"}, "fusion_lon": 0.0, "lat": 38.927006166666665, "bike_id": "f2a5b530ec14a5d9c4f191ee7c678719", "type": "electric_scooter", "is_reserved": 0, "lon": -77.02071083333334}, {"fusion_lat": 0.0, "name": "91ef38d379bc306e4c5142305049403f", "is_disabled": 0, "rental_uris": {"android": "https://dc.lft.to/lastmile_qr_scan", "ios": "https://dc.lft.to/lastmile_qr_scan"}, "fusion_lon": 0.0, "lat": 38.9084645, "bike_id": "91ef38d379bc306e4c5142305049403f", "type": "electric_scooter", "is_reserved": 0, "lon": -77.04537383333333}, {"fusion_lat": 0.0, "name": "d655f9538d6f5f91c15614dbb6a765c2", "is_disabled": 0, "rental_uris": {"android": "https://dc.lft.to/lastmile_qr_scan", "ios": "https://dc.lft.to/lastmile_qr_scan"}, "fusion_lon": 0.0, "lat": 38.915584333333335, "bike_id": "d655f9538d6f5f91c15614dbb6a765c2", "type": "electric_scooter", "is_reserved": 0, "lon": -77.0221935}, {"fusion_lat": 0.0, "name": "a39ea832a5831afecae10467fc760b63", "is_disabled": 0, "rental_uris": {"android": "https://dc.lft.to/lastmile_qr_scan", "ios": "https://dc.lft.to/lastmile_qr_scan"}, "fusion_lon": 0.0, "lat": 38.901422333333336, "bike_id": "a39ea832a5831afecae10467fc760b63", "type": "electric_scooter", "is_reserved": 0, "lon": -77.00918933333334}, {"fusion_lat": 0.0, "name": "95a5e24e9a3428f88609210ecd7b0bbe", "is_disabled": 0, "rental_uris": {"android": "https://dc.lft.to/lastmile_qr_scan", "ios": "https://dc.lft.to/lastmile_qr_scan"}, "fusion_lon": 0.0, "lat": 38.9339355, "bike_id": "95a5e24e9a3428f88609210ecd7b0bbe", "type": "electric_scooter", "is_reserved": 0, "lon": -77.05771516666667}, {"fusion_lat": 0.0, "name": "2477a98e61d43d0025f367e9b41fe20b", "is_disabled": 0, "rental_uris": {"android": "https://dc.lft.to/lastmile_qr_scan", "ios": "https://dc.lft.to/lastmile_qr_scan"}, "fusion_lon": 0.0, "lat": 38.92862566666667, "bike_id": "2477a98e61d43d0025f367e9b41fe20b", "type": "electric_scooter", "is_reserved": 0, "lon": -77.03223866666667}, {"fusion_lat": 0.0, "name": "6a2bb9f679ed98170fc0d46dbea45d70", "is_disabled": 0, "rental_uris": {"android": "https://dc.lft.to/lastmile_qr_scan", "ios": "https://dc.lft.to/lastmile_qr_scan"}, "fusion_lon": 0.0, "lat": 38.924954, "bike_id": "6a2bb9f679ed98170fc0d46dbea45d70", "type": "electric_scooter", "is_reserved": 0, "lon": -77.05106216666667}, {"fusion_lat": 0.0, "name": "5d8d33c7b205d07fa1ec1c4fb7d99402", "is_disabled": 0, "rental_uris": {"android": "https://dc.lft.to/lastmile_qr_scan", "ios": "https://dc.lft.to/lastmile_qr_scan"}, "fusion_lon": 0.0, "lat": 38.93812666666667, "bike_id": "5d8d33c7b205d07fa1ec1c4fb7d99402", "type": "electric_scooter", "is_reserved": 0, "lon": -77.06017716666666}, {"fusion_lat": 0.0, "name": "e5f4bd75dd7ad6da30171df9e714847c", "is_disabled": 0, "rental_uris": {"android": "https://dc.lft.to/lastmile_qr_scan", "ios": "https://dc.lft.to/lastmile_qr_scan"}, "fusion_lon": 0.0, "lat": 38.919162166666666, "bike_id": "e5f4bd75dd7ad6da30171df9e714847c", "type": "electric_scooter", "is_reserved": 0, "lon": -77.02517916666666}, {"fusion_lat": 0.0, "name": "4e031b014607f09446aee313191b0286", "is_disabled": 0, "rental_uris": {"android": "https://dc.lft.to/lastmile_qr_scan", "ios": "https://dc.lft.to/lastmile_qr_scan"}, "fusion_lon": 0.0, "lat": 38.904393666666664, "bike_id": "4e031b014607f09446aee313191b0286", "type": "electric_scooter", "is_reserved": 0, "lon": -76.9742055}, {"fusion_lat": 0.0, "name": "100fd2c71da4889836718b807843a366", "is_disabled": 0, "rental_uris": {"android": "https://dc.lft.to/lastmile_qr_scan", "ios": "https://dc.lft.to/lastmile_qr_scan"}, "fusion_lon": 0.0, "lat": 38.90217466666667, "bike_id": "100fd2c71da4889836718b807843a366", "type": "electric_scooter", "is_reserved": 0, "lon": -76.99500266666666}, {"fusion_lat": 0.0, "name": "48306a9ace6404153d7c4d6aa3996bec", "is_disabled": 0, "rental_uris": {"android": "https://dc.lft.to/lastmile_qr_scan", "ios": "https://dc.lft.to/lastmile_qr_scan"}, "fusion_lon": 0.0, "lat": 38.902679666666664, "bike_id": "48306a9ace6404153d7c4d6aa3996bec", "type": "electric_scooter", "is_reserved": 0, "lon": -77.03372133333333}, {"fusion_lat": 0.0, "name": "6e08f02ac6b1f0eb061c5d4ed80989c0", "is_disabled": 0, "rental_uris": {"android": "https://dc.lft.to/lastmile_qr_scan", "ios": "https://dc.lft.to/lastmile_qr_scan"}, "fusion_lon": 0.0, "lat": 38.90785483333333, "bike_id": "6e08f02ac6b1f0eb061c5d4ed80989c0", "type": "electric_scooter", "is_reserved": 0, "lon": -77.03855933333334}, {"fusion_lat": 0.0, "name": "e167ecf9d8b28573fbc3670e965093c7", "is_disabled": 0, "rental_uris": {"android": "https://dc.lft.to/lastmile_qr_scan", "ios": "https://dc.lft.to/lastmile_qr_scan"}, "fusion_lon": 0.0, "lat": 38.900319333333336, "bike_id": "e167ecf9d8b28573fbc3670e965093c7", "type": "electric_scooter", "is_reserved": 0, "lon": -77.00025666666667}, {"fusion_lat": 0.0, "name": "6dcea4b83dc5998be55b51ad6b659c28", "is_disabled": 0, "rental_uris": {"android": "https://dc.lft.to/lastmile_qr_scan", "ios": "https://dc.lft.to/lastmile_qr_scan"}, "fusion_lon": 0.0, "lat": 38.916207, "bike_id": "6dcea4b83dc5998be55b51ad6b659c28", "type": "electric_scooter", "is_reserved": 0, "lon": -77.03986933333333}, {"fusion_lat": 0.0, "name": "3f28508082488e7f299e4f188cab4ec2", "is_disabled": 0, "rental_uris": {"android": "https://dc.lft.to/lastmile_qr_scan", "ios": "https://dc.lft.to/lastmile_qr_scan"}, "fusion_lon": 0.0, "lat": 38.9203105, "bike_id": "3f28508082488e7f299e4f188cab4ec2", "type": "electric_scooter", "is_reserved": 0, "lon": -77.071344}, {"fusion_lat": 0.0, "name": "118e1944626907de33c76f9b970d7143", "is_disabled": 0, "rental_uris": {"android": "https://dc.lft.to/lastmile_qr_scan", "ios": "https://dc.lft.to/lastmile_qr_scan"}, "fusion_lon": 0.0, "lat": 38.930898666666664, "bike_id": "118e1944626907de33c76f9b970d7143", "type": "electric_scooter", "is_reserved": 0, "lon": -77.02549066666667}, {"fusion_lat": 0.0, "name": "1c9362409d878df3561ed120bccfe477", "is_disabled": 0, "rental_uris": {"android": "https://dc.lft.to/lastmile_qr_scan", "ios": "https://dc.lft.to/lastmile_qr_scan"}, "fusion_lon": 0.0, "lat": 38.91400433333333, "bike_id": "1c9362409d878df3561ed120bccfe477", "type": "electric_scooter", "is_reserved": 0, "lon": -77.03333283333333}, {"fusion_lat": 0.0, "name": "799d4ad7e0018665677eb9ee317c60c2", "is_disabled": 0, "rental_uris": {"android": "https://dc.lft.to/lastmile_qr_scan", "ios": "https://dc.lft.to/lastmile_qr_scan"}, "fusion_lon": 0.0, "lat": 38.90604583333333, "bike_id": "799d4ad7e0018665677eb9ee317c60c2", "type": "electric_scooter", "is_reserved": 0, "lon": -77.05689916666667}, {"fusion_lat": 0.0, "name": "50c3fe15444ddf31f5f96b84bd1cbef5", "is_disabled": 0, "rental_uris": {"android": "https://dc.lft.to/lastmile_qr_scan", "ios": "https://dc.lft.to/lastmile_qr_scan"}, "fusion_lon": 0.0, "lat": 38.92510133333333, "bike_id": "50c3fe15444ddf31f5f96b84bd1cbef5", "type": "electric_scooter", "is_reserved": 0, "lon": -77.00214433333333}, {"fusion_lat": 0.0, "name": "1d5af73a72eda9284c82f03e091bf9cf", "is_disabled": 0, "rental_uris": {"android": "https://dc.lft.to/lastmile_qr_scan", "ios": "https://dc.lft.to/lastmile_qr_scan"}, "fusion_lon": 0.0, "lat": 38.930601833333334, "bike_id": "1d5af73a72eda9284c82f03e091bf9cf", "type": "electric_scooter", "is_reserved": 0, "lon": -77.023232}, {"fusion_lat": 0.0, "name": "d2ff5869836aac6f07c8e6572352cfef", "is_disabled": 0, "rental_uris": {"android": "https://dc.lft.to/lastmile_qr_scan", "ios": "https://dc.lft.to/lastmile_qr_scan"}, "fusion_lon": 0.0, "lat": 38.90646366666667, "bike_id": "d2ff5869836aac6f07c8e6572352cfef", "type": "electric_scooter", "is_reserved": 0, "lon": -77.01141466666667}, {"fusion_lat": 0.0, "name": "891272487012d641b274c252e1716b7c", "is_disabled": 0, "rental_uris": {"android": "https://dc.lft.to/lastmile_qr_scan", "ios": "https://dc.lft.to/lastmile_qr_scan"}, "fusion_lon": 0.0, "lat": 38.92032716666667, "bike_id": "891272487012d641b274c252e1716b7c", "type": "electric_scooter", "is_reserved": 0, "lon": -77.01778216666666}, {"fusion_lat": 0.0, "name": "a73e6a96a4f1f66577d71f35f4fb7472", "is_disabled": 0, "rental_uris": {"android": "https://dc.lft.to/lastmile_qr_scan", "ios": "https://dc.lft.to/lastmile_qr_scan"}, "fusion_lon": 0.0, "lat": 38.840816833333335, "bike_id": "a73e6a96a4f1f66577d71f35f4fb7472", "type": "electric_bike", "is_reserved": 0, "lon": -76.97025633333334}, {"fusion_lat": 0.0, "name": "88989e8402f6dbdfa6f72334e4f8046c", "is_disabled": 0, "rental_uris": {"android": "https://dc.lft.to/lastmile_qr_scan", "ios": "https://dc.lft.to/lastmile_qr_scan"}, "fusion_lon": 0.0, "lat": 38.90552516666666, "bike_id": "88989e8402f6dbdfa6f72334e4f8046c", "type": "electric_scooter", "is_reserved": 0, "lon": -77.00584033333334}, {"fusion_lat": 0.0, "name": "bbf52d8da9028ff900b4e264f09a1601", "is_disabled": 0, "rental_uris": {"android": "https://dc.lft.to/lastmile_qr_scan", "ios": "https://dc.lft.to/lastmile_qr_scan"}, "fusion_lon": 0.0, "lat": 38.923179833333336, "bike_id": "bbf52d8da9028ff900b4e264f09a1601", "type": "electric_scooter", "is_reserved": 0, "lon": -77.021367}, {"fusion_lat": 0.0, "name": "a834b5b7baf81653b06653cfc0120208", "is_disabled": 0, "rental_uris": {"android": "https://dc.lft.to/lastmile_qr_scan", "ios": "https://dc.lft.to/lastmile_qr_scan"}, "fusion_lon": 0.0, "lat": 38.92065516666667, "bike_id": "a834b5b7baf81653b06653cfc0120208", "type": "electric_bike", "is_reserved": 0, "lon": -77.0480605}, {"fusion_lat": 0.0, "name": "91ca6034919eaf2c458b82f4a983fc12", "is_disabled": 0, "rental_uris": {"android": "https://dc.lft.to/lastmile_qr_scan", "ios": "https://dc.lft.to/lastmile_qr_scan"}, "fusion_lon": 0.0, "lat": 38.9197005, "bike_id": "91ca6034919eaf2c458b82f4a983fc12", "type": "electric_scooter", "is_reserved": 0, "lon": -77.04494416666667}, {"fusion_lat": 0.0, "name": "5319b855723812192f78b230a31db91e", "is_disabled": 0, "rental_uris": {"android": "https://dc.lft.to/lastmile_qr_scan", "ios": "https://dc.lft.to/lastmile_qr_scan"}, "fusion_lon": 0.0, "lat": 38.953323166666664, "bike_id": "5319b855723812192f78b230a31db91e", "type": "electric_bike", "is_reserved": 0, "lon": -76.98251933333333}, {"fusion_lat": 0.0, "name": "63014eb7ded6ee990d4f50a790ef443a", "is_disabled": 0, "rental_uris": {"android": "https://dc.lft.to/lastmile_qr_scan", "ios": "https://dc.lft.to/lastmile_qr_scan"}, "fusion_lon": 0.0, "lat": 38.92413666666667, "bike_id": "63014eb7ded6ee990d4f50a790ef443a", "type": "electric_scooter", "is_reserved": 0, "lon": -77.0364075}, {"fusion_lat": 0.0, "name": "c9a69207427671759cbcb44bfae4f91d", "is_disabled": 0, "rental_uris": {"android": "https://dc.lft.to/lastmile_qr_scan", "ios": "https://dc.lft.to/lastmile_qr_scan"}, "fusion_lon": 0.0, "lat": 38.85549066666667, "bike_id": "c9a69207427671759cbcb44bfae4f91d", "type": "electric_scooter", "is_reserved": 0, "lon": -76.9875945}, {"fusion_lat": 0.0, "name": "4d50f0d426a17c7707de3eb7b66170c4", "is_disabled": 0, "rental_uris": {"android": "https://dc.lft.to/lastmile_qr_scan", "ios": "https://dc.lft.to/lastmile_qr_scan"}, "fusion_lon": 0.0, "lat": 38.92051883333333, "bike_id": "4d50f0d426a17c7707de3eb7b66170c4", "type": "electric_scooter", "is_reserved": 0, "lon": -77.02188366666667}, {"fusion_lat": 0.0, "name": "5f372cfbeb933ebf6f08ea3cc2112067", "is_disabled": 0, "rental_uris": {"android": "https://dc.lft.to/lastmile_qr_scan", "ios": "https://dc.lft.to/lastmile_qr_scan"}, "fusion_lon": 0.0, "lat": 38.877869, "bike_id": "5f372cfbeb933ebf6f08ea3cc2112067", "type": "electric_scooter", "is_reserved": 0, "lon": -77.00114683333334}, {"fusion_lat": 0.0, "name": "848fa70ac2d2802e793b718b195782a7", "is_disabled": 0, "rental_uris": {"android": "https://dc.lft.to/lastmile_qr_scan", "ios": "https://dc.lft.to/lastmile_qr_scan"}, "fusion_lon": 0.0, "lat": 38.907788833333335, "bike_id": "848fa70ac2d2802e793b718b195782a7", "type": "electric_scooter", "is_reserved": 0, "lon": -77.03865866666666}, {"fusion_lat": 0.0, "name": "6f7a69847ac7e511c1628fbc1de2c17b", "is_disabled": 0, "rental_uris": {"android": "https://dc.lft.to/lastmile_qr_scan", "ios": "https://dc.lft.to/lastmile_qr_scan"}, "fusion_lon": 0.0, "lat": 38.87944233333333, "bike_id": "6f7a69847ac7e511c1628fbc1de2c17b", "type": "electric_scooter", "is_reserved": 0, "lon": -77.008887}, {"fusion_lat": 0.0, "name": "50e6b7a1856aa79b815b8f6911815d6d", "is_disabled": 0, "rental_uris": {"android": "https://dc.lft.to/lastmile_qr_scan", "ios": "https://dc.lft.to/lastmile_qr_scan"}, "fusion_lon": 0.0, "lat": 38.88389133333333, "bike_id": "50e6b7a1856aa79b815b8f6911815d6d", "type": "electric_bike", "is_reserved": 0, "lon": -76.95417816666667}, {"fusion_lat": 0.0, "name": "978978ec55a27e17a498812eacb8ee46", "is_disabled": 0, "rental_uris": {"android": "https://dc.lft.to/lastmile_qr_scan", "ios": "https://dc.lft.to/lastmile_qr_scan"}, "fusion_lon": 0.0, "lat": 38.89735133333333, "bike_id": "978978ec55a27e17a498812eacb8ee46", "type": "electric_scooter", "is_reserved": 0, "lon": -77.04431316666667}, {"fusion_lat": 0.0, "name": "43ba2852e17853971ed2c5d703e4f080", "is_disabled": 0, "rental_uris": {"android": "https://dc.lft.to/lastmile_qr_scan", "ios": "https://dc.lft.to/lastmile_qr_scan"}, "fusion_lon": 0.0, "lat": 38.95185133333333, "bike_id": "43ba2852e17853971ed2c5d703e4f080", "type": "electric_scooter", "is_reserved": 0, "lon": -77.02726366666667}, {"fusion_lat": 0.0, "name": "d6335643df222f7acc0ebc6b6fb6f6d6", "is_disabled": 0, "rental_uris": {"android": "https://dc.lft.to/lastmile_qr_scan", "ios": "https://dc.lft.to/lastmile_qr_scan"}, "fusion_lon": 0.0, "lat": 38.929801499999996, "bike_id": "d6335643df222f7acc0ebc6b6fb6f6d6", "type": "electric_scooter", "is_reserved": 0, "lon": -77.01973033333333}, {"fusion_lat": 0.0, "name": "00e5b5d376ad24fed0f5901073d95d0d", "is_disabled": 0, "rental_uris": {"android": "https://dc.lft.to/lastmile_qr_scan", "ios": "https://dc.lft.to/lastmile_qr_scan"}, "fusion_lon": 0.0, "lat": 38.892067833333336, "bike_id": "00e5b5d376ad24fed0f5901073d95d0d", "type": "electric_scooter", "is_reserved": 0, "lon": -76.99714683333333}, {"fusion_lat": 0.0, "name": "9780c9d3d5cd87ef7a64cae301ccb663", "is_disabled": 0, "rental_uris": {"android": "https://dc.lft.to/lastmile_qr_scan", "ios": "https://dc.lft.to/lastmile_qr_scan"}, "fusion_lon": 0.0, "lat": 38.915978833333334, "bike_id": "9780c9d3d5cd87ef7a64cae301ccb663", "type": "electric_scooter", "is_reserved": 0, "lon": -77.0220535}, {"fusion_lat": 0.0, "name": "32a72d51c84532a6a4238a6ea8697680", "is_disabled": 0, "rental_uris": {"android": "https://dc.lft.to/lastmile_qr_scan", "ios": "https://dc.lft.to/lastmile_qr_scan"}, "fusion_lon": 0.0, "lat": 38.931289166666666, "bike_id": "32a72d51c84532a6a4238a6ea8697680", "type": "electric_scooter", "is_reserved": 0, "lon": -77.03854183333333}, {"fusion_lat": 0.0, "name": "0b01881aa2f802d5d18d1d2a7de8cc6d", "is_disabled": 0, "rental_uris": {"android": "https://dc.lft.to/lastmile_qr_scan", "ios": "https://dc.lft.to/lastmile_qr_scan"}, "fusion_lon": 0.0, "lat": 38.93970016666667, "bike_id": "0b01881aa2f802d5d18d1d2a7de8cc6d", "type": "electric_scooter", "is_reserved": 0, "lon": -77.03257416666666}, {"fusion_lat": 0.0, "name": "487fec1dc4d6fce560f81c09bfabb49f", "is_disabled": 0, "rental_uris": {"android": "https://dc.lft.to/lastmile_qr_scan", "ios": "https://dc.lft.to/lastmile_qr_scan"}, "fusion_lon": 0.0, "lat": 38.906534666666666, "bike_id": "487fec1dc4d6fce560f81c09bfabb49f", "type": "electric_scooter", "is_reserved": 0, "lon": -77.01416716666667}, {"fusion_lat": 0.0, "name": "74be37ecb8294dc9a916b71404ec3a72", "is_disabled": 0, "rental_uris": {"android": "https://dc.lft.to/lastmile_qr_scan", "ios": "https://dc.lft.to/lastmile_qr_scan"}, "fusion_lon": 0.0, "lat": 38.87617433333333, "bike_id": "74be37ecb8294dc9a916b71404ec3a72", "type": "electric_scooter", "is_reserved": 0, "lon": -77.00116283333334}, {"fusion_lat": 0.0, "name": "d7bfb6062db1f75e656758776fe6f43c", "is_disabled": 0, "rental_uris": {"android": "https://dc.lft.to/lastmile_qr_scan", "ios": "https://dc.lft.to/lastmile_qr_scan"}, "fusion_lon": 0.0, "lat": 38.906151333333334, "bike_id": "d7bfb6062db1f75e656758776fe6f43c", "type": "electric_scooter", "is_reserved": 0, "lon": -77.05024916666666}, {"fusion_lat": 0.0, "name": "dd3b9b9896f2e1ef25b228d6c1b923f9", "is_disabled": 0, "rental_uris": {"android": "https://dc.lft.to/lastmile_qr_scan", "ios": "https://dc.lft.to/lastmile_qr_scan"}, "fusion_lon": 0.0, "lat": 38.92219583333333, "bike_id": "dd3b9b9896f2e1ef25b228d6c1b923f9", "type": "electric_scooter", "is_reserved": 0, "lon": -76.9837995}, {"fusion_lat": 0.0, "name": "5d58f18448cdeeadc3b83f7d1e32bd0e", "is_disabled": 0, "rental_uris": {"android": "https://dc.lft.to/lastmile_qr_scan", "ios": "https://dc.lft.to/lastmile_qr_scan"}, "fusion_lon": 0.0, "lat": 38.91326883333333, "bike_id": "5d58f18448cdeeadc3b83f7d1e32bd0e", "type": "electric_scooter", "is_reserved": 0, "lon": -77.0423155}, {"fusion_lat": 0.0, "name": "e0f5250988e9162e36de5475d11340c2", "is_disabled": 0, "rental_uris": {"android": "https://dc.lft.to/lastmile_qr_scan", "ios": "https://dc.lft.to/lastmile_qr_scan"}, "fusion_lon": 0.0, "lat": 38.928508666666666, "bike_id": "e0f5250988e9162e36de5475d11340c2", "type": "electric_scooter", "is_reserved": 0, "lon": -76.99771533333333}, {"fusion_lat": 0.0, "name": "9b8f4def6e5e1741b8c6592a53a0803a", "is_disabled": 0, "rental_uris": {"android": "https://dc.lft.to/lastmile_qr_scan", "ios": "https://dc.lft.to/lastmile_qr_scan"}, "fusion_lon": 0.0, "lat": 38.9222455, "bike_id": "9b8f4def6e5e1741b8c6592a53a0803a", "type": "electric_scooter", "is_reserved": 0, "lon": -77.04133866666666}, {"fusion_lat": 0.0, "name": "43084fa3883392d622bfe53a83667fd7", "is_disabled": 0, "rental_uris": {"android": "https://dc.lft.to/lastmile_qr_scan", "ios": "https://dc.lft.to/lastmile_qr_scan"}, "fusion_lon": 0.0, "lat": 38.873097333333334, "bike_id": "43084fa3883392d622bfe53a83667fd7", "type": "electric_bike", "is_reserved": 0, "lon": -77.0109515}, {"fusion_lat": 0.0, "name": "c0f64dac31cf06c105c740e97ccdf1db", "is_disabled": 0, "rental_uris": {"android": "https://dc.lft.to/lastmile_qr_scan", "ios": "https://dc.lft.to/lastmile_qr_scan"}, "fusion_lon": 0.0, "lat": 38.92396816666667, "bike_id": "c0f64dac31cf06c105c740e97ccdf1db", "type": "electric_scooter", "is_reserved": 0, "lon": -77.036389}, {"fusion_lat": 0.0, "name": "e55580950f74f191201c66066495bd51", "is_disabled": 0, "rental_uris": {"android": "https://dc.lft.to/lastmile_qr_scan", "ios": "https://dc.lft.to/lastmile_qr_scan"}, "fusion_lon": 0.0, "lat": 38.9447075, "bike_id": "e55580950f74f191201c66066495bd51", "type": "electric_scooter", "is_reserved": 0, "lon": -77.02356266666666}, {"fusion_lat": 0.0, "name": "25c5204bef1ad566837e70302adc7d7d", "is_disabled": 0, "rental_uris": {"android": "https://dc.lft.to/lastmile_qr_scan", "ios": "https://dc.lft.to/lastmile_qr_scan"}, "fusion_lon": 0.0, "lat": 38.937998, "bike_id": "25c5204bef1ad566837e70302adc7d7d", "type": "electric_scooter", "is_reserved": 0, "lon": -77.068575}, {"fusion_lat": 0.0, "name": "6efac2b89e7a88981a87e86fc2989a6d", "is_disabled": 0, "rental_uris": {"android": "https://dc.lft.to/lastmile_qr_scan", "ios": "https://dc.lft.to/lastmile_qr_scan"}, "fusion_lon": 0.0, "lat": 38.94838983333333, "bike_id": "6efac2b89e7a88981a87e86fc2989a6d", "type": "electric_scooter", "is_reserved": 0, "lon": -77.025664}, {"fusion_lat": 0.0, "name": "e06c22939949a9a129bb642040f5a998", "is_disabled": 0, "rental_uris": {"android": "https://dc.lft.to/lastmile_qr_scan", "ios": "https://dc.lft.to/lastmile_qr_scan"}, "fusion_lon": 0.0, "lat": 38.92026716666667, "bike_id": "e06c22939949a9a129bb642040f5a998", "type": "electric_scooter", "is_reserved": 0, "lon": -77.02811633333333}, {"fusion_lat": 0.0, "name": "9d5b7e5b57109632b96cc5a126e65784", "is_disabled": 0, "rental_uris": {"android": "https://dc.lft.to/lastmile_qr_scan", "ios": "https://dc.lft.to/lastmile_qr_scan"}, "fusion_lon": 0.0, "lat": 38.92096316666667, "bike_id": "9d5b7e5b57109632b96cc5a126e65784", "type": "electric_scooter", "is_reserved": 0, "lon": -77.0468735}, {"fusion_lat": 0.0, "name": "3e4a1292e0a8a84353086d28fe5af7c7", "is_disabled": 0, "rental_uris": {"android": "https://dc.lft.to/lastmile_qr_scan", "ios": "https://dc.lft.to/lastmile_qr_scan"}, "fusion_lon": 0.0, "lat": 39.00280883333333, "bike_id": "3e4a1292e0a8a84353086d28fe5af7c7", "type": "electric_bike", "is_reserved": 0, "lon": -76.902929}, {"fusion_lat": 0.0, "name": "f1c63308dbb246ae1d8f8393cce27fa9", "is_disabled": 0, "rental_uris": {"android": "https://dc.lft.to/lastmile_qr_scan", "ios": "https://dc.lft.to/lastmile_qr_scan"}, "fusion_lon": 0.0, "lat": 38.933883333333334, "bike_id": "f1c63308dbb246ae1d8f8393cce27fa9", "type": "electric_scooter", "is_reserved": 0, "lon": -77.02639416666666}, {"fusion_lat": 0.0, "name": "c8f2bfc2728e736c524eb79415297df6", "is_disabled": 0, "rental_uris": {"android": "https://dc.lft.to/lastmile_qr_scan", "ios": "https://dc.lft.to/lastmile_qr_scan"}, "fusion_lon": 0.0, "lat": 38.904129833333336, "bike_id": "c8f2bfc2728e736c524eb79415297df6", "type": "electric_scooter", "is_reserved": 0, "lon": -77.03429466666667}, {"fusion_lat": 0.0, "name": "9e3d71a1e46bef7ac9a22c7aeabec783", "is_disabled": 0, "rental_uris": {"android": "https://dc.lft.to/lastmile_qr_scan", "ios": "https://dc.lft.to/lastmile_qr_scan"}, "fusion_lon": 0.0, "lat": 38.9234725, "bike_id": "9e3d71a1e46bef7ac9a22c7aeabec783", "type": "electric_scooter", "is_reserved": 0, "lon": -77.02017316666667}, {"fusion_lat": 0.0, "name": "33b865e4e1e22281f0fa6b80aeb9f3f7", "is_disabled": 0, "rental_uris": {"android": "https://dc.lft.to/lastmile_qr_scan", "ios": "https://dc.lft.to/lastmile_qr_scan"}, "fusion_lon": 0.0, "lat": 38.93323733333333, "bike_id": "33b865e4e1e22281f0fa6b80aeb9f3f7", "type": "electric_scooter", "is_reserved": 0, "lon": -77.03435866666666}, {"fusion_lat": 0.0, "name": "5b24a399188c7dd41981b07f14891c07", "is_disabled": 0, "rental_uris": {"android": "https://dc.lft.to/lastmile_qr_scan", "ios": "https://dc.lft.to/lastmile_qr_scan"}, "fusion_lon": 0.0, "lat": 38.8973295, "bike_id": "5b24a399188c7dd41981b07f14891c07", "type": "electric_scooter", "is_reserved": 0, "lon": -77.02196583333334}, {"fusion_lat": 0.0, "name": "376ebf8dc69bbf1a59951b94bd9dd07a", "is_disabled": 0, "rental_uris": {"android": "https://dc.lft.to/lastmile_qr_scan", "ios": "https://dc.lft.to/lastmile_qr_scan"}, "fusion_lon": 0.0, "lat": 38.923536, "bike_id": "376ebf8dc69bbf1a59951b94bd9dd07a", "type": "electric_scooter", "is_reserved": 0, "lon": -77.01947333333334}, {"fusion_lat": 0.0, "name": "c626e906c2a7dcee31cfcae77a8b60f6", "is_disabled": 0, "rental_uris": {"android": "https://dc.lft.to/lastmile_qr_scan", "ios": "https://dc.lft.to/lastmile_qr_scan"}, "fusion_lon": 0.0, "lat": 38.92246216666667, "bike_id": "c626e906c2a7dcee31cfcae77a8b60f6", "type": "electric_scooter", "is_reserved": 0, "lon": -77.0808225}, {"fusion_lat": 0.0, "name": "cfe5a43bbdd4378f185e8953537f0fa3", "is_disabled": 0, "rental_uris": {"android": "https://dc.lft.to/lastmile_qr_scan", "ios": "https://dc.lft.to/lastmile_qr_scan"}, "fusion_lon": 0.0, "lat": 38.90378283333333, "bike_id": "cfe5a43bbdd4378f185e8953537f0fa3", "type": "electric_scooter", "is_reserved": 0, "lon": -77.06715}, {"fusion_lat": 0.0, "name": "ce3e461fce16eab343148779cd940e14", "is_disabled": 0, "rental_uris": {"android": "https://dc.lft.to/lastmile_qr_scan", "ios": "https://dc.lft.to/lastmile_qr_scan"}, "fusion_lon": 0.0, "lat": 38.8967295, "bike_id": "ce3e461fce16eab343148779cd940e14", "type": "electric_scooter", "is_reserved": 0, "lon": -77.00511266666666}, {"fusion_lat": 0.0, "name": "3b01aace58b4532c805379696b68f907", "is_disabled": 0, "rental_uris": {"android": "https://dc.lft.to/lastmile_qr_scan", "ios": "https://dc.lft.to/lastmile_qr_scan"}, "fusion_lon": 0.0, "lat": 38.91551, "bike_id": "3b01aace58b4532c805379696b68f907", "type": "electric_scooter", "is_reserved": 0, "lon": -77.04114583333333}, {"fusion_lat": 0.0, "name": "bcd4b103422c70ec48284b82abab4b35", "is_disabled": 0, "rental_uris": {"android": "https://dc.lft.to/lastmile_qr_scan", "ios": "https://dc.lft.to/lastmile_qr_scan"}, "fusion_lon": 0.0, "lat": 38.89646666666667, "bike_id": "bcd4b103422c70ec48284b82abab4b35", "type": "electric_scooter", "is_reserved": 0, "lon": -77.04999466666666}, {"fusion_lat": 0.0, "name": "89779720bcc566c9722de5ae5e9490fd", "is_disabled": 0, "rental_uris": {"android": "https://dc.lft.to/lastmile_qr_scan", "ios": "https://dc.lft.to/lastmile_qr_scan"}, "fusion_lon": 0.0, "lat": 38.90916333333333, "bike_id": "89779720bcc566c9722de5ae5e9490fd", "type": "electric_scooter", "is_reserved": 0, "lon": -77.0448005}, {"fusion_lat": 0.0, "name": "eac48aff8059cf703cfd0ff44277bb0d", "is_disabled": 0, "rental_uris": {"android": "https://dc.lft.to/lastmile_qr_scan", "ios": "https://dc.lft.to/lastmile_qr_scan"}, "fusion_lon": 0.0, "lat": 38.9588835, "bike_id": "eac48aff8059cf703cfd0ff44277bb0d", "type": "electric_scooter", "is_reserved": 0, "lon": -77.0276775}, {"fusion_lat": 0.0, "name": "9f4fd596d018bf2007e990c6bbb0dac9", "is_disabled": 0, "rental_uris": {"android": "https://dc.lft.to/lastmile_qr_scan", "ios": "https://dc.lft.to/lastmile_qr_scan"}, "fusion_lon": 0.0, "lat": 38.8132885, "bike_id": "9f4fd596d018bf2007e990c6bbb0dac9", "type": "electric_bike", "is_reserved": 0, "lon": -77.05085216666667}, {"fusion_lat": 0.0, "name": "d76ce1e45c43245b175a0d2e9233bc9d", "is_disabled": 0, "rental_uris": {"android": "https://dc.lft.to/lastmile_qr_scan", "ios": "https://dc.lft.to/lastmile_qr_scan"}, "fusion_lon": 0.0, "lat": 38.9052485, "bike_id": "d76ce1e45c43245b175a0d2e9233bc9d", "type": "electric_scooter", "is_reserved": 0, "lon": -77.03472833333333}, {"fusion_lat": 0.0, "name": "7d0c3a1c50583d3e85c243ed35faf166", "is_disabled": 0, "rental_uris": {"android": "https://dc.lft.to/lastmile_qr_scan", "ios": "https://dc.lft.to/lastmile_qr_scan"}, "fusion_lon": 0.0, "lat": 38.883914833333336, "bike_id": "7d0c3a1c50583d3e85c243ed35faf166", "type": "electric_scooter", "is_reserved": 0, "lon": -76.930572}, {"fusion_lat": 0.0, "name": "d74be505a4ccd92bca14ee2ddc805e25", "is_disabled": 0, "rental_uris": {"android": "https://dc.lft.to/lastmile_qr_scan", "ios": "https://dc.lft.to/lastmile_qr_scan"}, "fusion_lon": 0.0, "lat": 38.9132495, "bike_id": "d74be505a4ccd92bca14ee2ddc805e25", "type": "electric_scooter", "is_reserved": 0, "lon": -77.031851}, {"fusion_lat": 0.0, "name": "2f990305764b6d799d85bd832968117e", "is_disabled": 0, "rental_uris": {"android": "https://dc.lft.to/lastmile_qr_scan", "ios": "https://dc.lft.to/lastmile_qr_scan"}, "fusion_lon": 0.0, "lat": 38.8851395, "bike_id": "2f990305764b6d799d85bd832968117e", "type": "electric_scooter", "is_reserved": 0, "lon": -77.01522483333333}, {"fusion_lat": 0.0, "name": "035ab1c70e6cfacdbc3dba7411bd964b", "is_disabled": 0, "rental_uris": {"android": "https://dc.lft.to/lastmile_qr_scan", "ios": "https://dc.lft.to/lastmile_qr_scan"}, "fusion_lon": 0.0, "lat": 38.902348833333335, "bike_id": "035ab1c70e6cfacdbc3dba7411bd964b", "type": "electric_scooter", "is_reserved": 0, "lon": -77.059422}, {"fusion_lat": 0.0, "name": "ca880bc1a5693433d390ebeca6f02709", "is_disabled": 0, "rental_uris": {"android": "https://dc.lft.to/lastmile_qr_scan", "ios": "https://dc.lft.to/lastmile_qr_scan"}, "fusion_lon": 0.0, "lat": 38.92333516666667, "bike_id": "ca880bc1a5693433d390ebeca6f02709", "type": "electric_scooter", "is_reserved": 0, "lon": -77.0351315}, {"fusion_lat": 0.0, "name": "977e648f3b624b8a35bfb4277030bd65", "is_disabled": 0, "rental_uris": {"android": "https://dc.lft.to/lastmile_qr_scan", "ios": "https://dc.lft.to/lastmile_qr_scan"}, "fusion_lon": 0.0, "lat": 38.91730916666667, "bike_id": "977e648f3b624b8a35bfb4277030bd65", "type": "electric_scooter", "is_reserved": 0, "lon": -77.02504316666666}, {"fusion_lat": 0.0, "name": "07752191eaf8bff85ffd092e3d546ea3", "is_disabled": 0, "rental_uris": {"android": "https://dc.lft.to/lastmile_qr_scan", "ios": "https://dc.lft.to/lastmile_qr_scan"}, "fusion_lon": 0.0, "lat": 38.894960833333336, "bike_id": "07752191eaf8bff85ffd092e3d546ea3", "type": "electric_scooter", "is_reserved": 0, "lon": -77.02176666666666}, {"fusion_lat": 0.0, "name": "22c13dd96c4e601383feb630a081c68f", "is_disabled": 0, "rental_uris": {"android": "https://dc.lft.to/lastmile_qr_scan", "ios": "https://dc.lft.to/lastmile_qr_scan"}, "fusion_lon": 0.0, "lat": 38.9208115, "bike_id": "22c13dd96c4e601383feb630a081c68f", "type": "electric_bike", "is_reserved": 0, "lon": -76.98946716666667}, {"fusion_lat": 0.0, "name": "ec8efca07ce6021c7d62e69ff793daea", "is_disabled": 0, "rental_uris": {"android": "https://dc.lft.to/lastmile_qr_scan", "ios": "https://dc.lft.to/lastmile_qr_scan"}, "fusion_lon": 0.0, "lat": 38.93720783333333, "bike_id": "ec8efca07ce6021c7d62e69ff793daea", "type": "electric_scooter", "is_reserved": 0, "lon": -77.02448933333334}, {"fusion_lat": 0.0, "name": "a78b23bf78423979e0d2c93cac2093ce", "is_disabled": 0, "rental_uris": {"android": "https://dc.lft.to/lastmile_qr_scan", "ios": "https://dc.lft.to/lastmile_qr_scan"}, "fusion_lon": 0.0, "lat": 38.901116333333334, "bike_id": "a78b23bf78423979e0d2c93cac2093ce", "type": "electric_scooter", "is_reserved": 0, "lon": -77.05004416666667}, {"fusion_lat": 0.0, "name": "b8e1a3c16283557ac3e36251c250cc89", "is_disabled": 0, "rental_uris": {"android": "https://dc.lft.to/lastmile_qr_scan", "ios": "https://dc.lft.to/lastmile_qr_scan"}, "fusion_lon": 0.0, "lat": 38.898262333333335, "bike_id": "b8e1a3c16283557ac3e36251c250cc89", "type": "electric_scooter", "is_reserved": 0, "lon": -77.046735}, {"fusion_lat": 0.0, "name": "cc1d93f7c8a170bb9d8b2c471cbfa85e", "is_disabled": 0, "rental_uris": {"android": "https://dc.lft.to/lastmile_qr_scan", "ios": "https://dc.lft.to/lastmile_qr_scan"}, "fusion_lon": 0.0, "lat": 38.942308, "bike_id": "cc1d93f7c8a170bb9d8b2c471cbfa85e", "type": "electric_scooter", "is_reserved": 0, "lon": -77.01387166666666}, {"fusion_lat": 0.0, "name": "5dade8029ece013e0d5d53e0d3ff2d5e", "is_disabled": 0, "rental_uris": {"android": "https://dc.lft.to/lastmile_qr_scan", "ios": "https://dc.lft.to/lastmile_qr_scan"}, "fusion_lon": 0.0, "lat": 38.93648483333333, "bike_id": "5dade8029ece013e0d5d53e0d3ff2d5e", "type": "electric_scooter", "is_reserved": 0, "lon": -77.03051083333334}, {"fusion_lat": 0.0, "name": "af526be1130c1a582cb67953938460b2", "is_disabled": 0, "rental_uris": {"android": "https://dc.lft.to/lastmile_qr_scan", "ios": "https://dc.lft.to/lastmile_qr_scan"}, "fusion_lon": 0.0, "lat": 38.935464333333336, "bike_id": "af526be1130c1a582cb67953938460b2", "type": "electric_scooter", "is_reserved": 0, "lon": -77.03262416666666}, {"fusion_lat": 0.0, "name": "569ca42d9a18acb833bf36a45f392587", "is_disabled": 0, "rental_uris": {"android": "https://dc.lft.to/lastmile_qr_scan", "ios": "https://dc.lft.to/lastmile_qr_scan"}, "fusion_lon": 0.0, "lat": 38.919132166666664, "bike_id": "569ca42d9a18acb833bf36a45f392587", "type": "electric_scooter", "is_reserved": 0, "lon": -77.03576783333334}, {"fusion_lat": 0.0, "name": "779fd12873b0b652d012dbecf0ac8da2", "is_disabled": 0, "rental_uris": {"android": "https://dc.lft.to/lastmile_qr_scan", "ios": "https://dc.lft.to/lastmile_qr_scan"}, "fusion_lon": 0.0, "lat": 38.93905483333333, "bike_id": "779fd12873b0b652d012dbecf0ac8da2", "type": "electric_scooter", "is_reserved": 0, "lon": -77.02479666666666}, {"fusion_lat": 0.0, "name": "8879267b5da5e9521d9d685e55451715", "is_disabled": 0, "rental_uris": {"android": "https://dc.lft.to/lastmile_qr_scan", "ios": "https://dc.lft.to/lastmile_qr_scan"}, "fusion_lon": 0.0, "lat": 38.84506916666667, "bike_id": "8879267b5da5e9521d9d685e55451715", "type": "electric_bike", "is_reserved": 0, "lon": -76.99350666666666}, {"fusion_lat": 0.0, "name": "61a206ecb30e451f3a0b9614d059b110", "is_disabled": 0, "rental_uris": {"android": "https://dc.lft.to/lastmile_qr_scan", "ios": "https://dc.lft.to/lastmile_qr_scan"}, "fusion_lon": 0.0, "lat": 38.896124666666665, "bike_id": "61a206ecb30e451f3a0b9614d059b110", "type": "electric_scooter", "is_reserved": 0, "lon": -77.04484266666667}, {"fusion_lat": 0.0, "name": "3f9832c7b72ed92b848ea5632ff966dd", "is_disabled": 0, "rental_uris": {"android": "https://dc.lft.to/lastmile_qr_scan", "ios": "https://dc.lft.to/lastmile_qr_scan"}, "fusion_lon": 0.0, "lat": 38.912855, "bike_id": "3f9832c7b72ed92b848ea5632ff966dd", "type": "electric_scooter", "is_reserved": 0, "lon": -77.04728983333334}, {"fusion_lat": 0.0, "name": "9d64174d504408367fc4e03c77d2295e", "is_disabled": 0, "rental_uris": {"android": "https://dc.lft.to/lastmile_qr_scan", "ios": "https://dc.lft.to/lastmile_qr_scan"}, "fusion_lon": 0.0, "lat": 38.902660166666664, "bike_id": "9d64174d504408367fc4e03c77d2295e", "type": "electric_scooter", "is_reserved": 0, "lon": -77.03362783333333}, {"fusion_lat": 0.0, "name": "f5a82e0cbc81e53a04aa246d870292b6", "is_disabled": 0, "rental_uris": {"android": "https://dc.lft.to/lastmile_qr_scan", "ios": "https://dc.lft.to/lastmile_qr_scan"}, "fusion_lon": 0.0, "lat": 38.91774916666667, "bike_id": "f5a82e0cbc81e53a04aa246d870292b6", "type": "electric_scooter", "is_reserved": 0, "lon": -77.0231075}, {"fusion_lat": 0.0, "name": "c6fef615d26c49f9f5f70bea6a0a6b84", "is_disabled": 0, "rental_uris": {"android": "https://dc.lft.to/lastmile_qr_scan", "ios": "https://dc.lft.to/lastmile_qr_scan"}, "fusion_lon": 0.0, "lat": 38.85778366666667, "bike_id": "c6fef615d26c49f9f5f70bea6a0a6b84", "type": "electric_scooter", "is_reserved": 0, "lon": -76.97301333333333}, {"fusion_lat": 0.0, "name": "5951cfd87d992b70de561c1c3a814910", "is_disabled": 0, "rental_uris": {"android": "https://dc.lft.to/lastmile_qr_scan", "ios": "https://dc.lft.to/lastmile_qr_scan"}, "fusion_lon": 0.0, "lat": 38.90380966666667, "bike_id": "5951cfd87d992b70de561c1c3a814910", "type": "electric_scooter", "is_reserved": 0, "lon": -77.06135166666667}, {"fusion_lat": 0.0, "name": "a3815c7baa007bed280255da0ae06c97", "is_disabled": 0, "rental_uris": {"android": "https://dc.lft.to/lastmile_qr_scan", "ios": "https://dc.lft.to/lastmile_qr_scan"}, "fusion_lon": 0.0, "lat": 38.95791883333333, "bike_id": "a3815c7baa007bed280255da0ae06c97", "type": "electric_bike", "is_reserved": 0, "lon": -76.999677}, {"fusion_lat": 0.0, "name": "87e6ae72f15b0f7e42f406cc7521a5e2", "is_disabled": 0, "rental_uris": {"android": "https://dc.lft.to/lastmile_qr_scan", "ios": "https://dc.lft.to/lastmile_qr_scan"}, "fusion_lon": 0.0, "lat": 38.9206065, "bike_id": "87e6ae72f15b0f7e42f406cc7521a5e2", "type": "electric_scooter", "is_reserved": 0, "lon": -77.02537666666667}, {"fusion_lat": 0.0, "name": "530aa262dab24715f106e9b4b80504c1", "is_disabled": 0, "rental_uris": {"android": "https://dc.lft.to/lastmile_qr_scan", "ios": "https://dc.lft.to/lastmile_qr_scan"}, "fusion_lon": 0.0, "lat": 38.92973416666667, "bike_id": "530aa262dab24715f106e9b4b80504c1", "type": "electric_scooter", "is_reserved": 0, "lon": -77.02821883333333}, {"fusion_lat": 0.0, "name": "bfc101b0d40d3828cdd80e7027031b93", "is_disabled": 0, "rental_uris": {"android": "https://dc.lft.to/lastmile_qr_scan", "ios": "https://dc.lft.to/lastmile_qr_scan"}, "fusion_lon": 0.0, "lat": 38.900631, "bike_id": "bfc101b0d40d3828cdd80e7027031b93", "type": "electric_scooter", "is_reserved": 0, "lon": -76.9338365}, {"fusion_lat": 0.0, "name": "6d41898772f63c37fd3432c008919d07", "is_disabled": 0, "rental_uris": {"android": "https://dc.lft.to/lastmile_qr_scan", "ios": "https://dc.lft.to/lastmile_qr_scan"}, "fusion_lon": 0.0, "lat": 38.9252755, "bike_id": "6d41898772f63c37fd3432c008919d07", "type": "electric_scooter", "is_reserved": 0, "lon": -77.05554016666666}, {"fusion_lat": 0.0, "name": "cc972dc19081a361d22ad77fbb553892", "is_disabled": 0, "rental_uris": {"android": "https://dc.lft.to/lastmile_qr_scan", "ios": "https://dc.lft.to/lastmile_qr_scan"}, "fusion_lon": 0.0, "lat": 38.900091333333336, "bike_id": "cc972dc19081a361d22ad77fbb553892", "type": "electric_scooter", "is_reserved": 0, "lon": -77.03961916666667}, {"fusion_lat": 0.0, "name": "85c4753673fc4e2fa5780465d7e247af", "is_disabled": 0, "rental_uris": {"android": "https://dc.lft.to/lastmile_qr_scan", "ios": "https://dc.lft.to/lastmile_qr_scan"}, "fusion_lon": 0.0, "lat": 38.917969166666666, "bike_id": "85c4753673fc4e2fa5780465d7e247af", "type": "electric_scooter", "is_reserved": 0, "lon": -77.0343915}, {"fusion_lat": 0.0, "name": "6314b08629a6bd7063577c43742e6172", "is_disabled": 0, "rental_uris": {"android": "https://dc.lft.to/lastmile_qr_scan", "ios": "https://dc.lft.to/lastmile_qr_scan"}, "fusion_lon": 0.0, "lat": 38.931776666666664, "bike_id": "6314b08629a6bd7063577c43742e6172", "type": "electric_scooter", "is_reserved": 0, "lon": -77.0429455}, {"fusion_lat": 0.0, "name": "628e05233a1cd9fe4dd6e7c98243be65", "is_disabled": 0, "rental_uris": {"android": "https://dc.lft.to/lastmile_qr_scan", "ios": "https://dc.lft.to/lastmile_qr_scan"}, "fusion_lon": 0.0, "lat": 38.91710116666667, "bike_id": "628e05233a1cd9fe4dd6e7c98243be65", "type": "electric_scooter", "is_reserved": 0, "lon": -77.04128166666666}, {"fusion_lat": 0.0, "name": "bfd7f8193bf464f77a43583fefe5fec5", "is_disabled": 0, "rental_uris": {"android": "https://dc.lft.to/lastmile_qr_scan", "ios": "https://dc.lft.to/lastmile_qr_scan"}, "fusion_lon": 0.0, "lat": 38.9032185, "bike_id": "bfd7f8193bf464f77a43583fefe5fec5", "type": "electric_scooter", "is_reserved": 0, "lon": -77.06505283333334}, {"fusion_lat": 0.0, "name": "4dda980fd0d9ddb3a65a4464fe2e09d1", "is_disabled": 0, "rental_uris": {"android": "https://dc.lft.to/lastmile_qr_scan", "ios": "https://dc.lft.to/lastmile_qr_scan"}, "fusion_lon": 0.0, "lat": 38.85796966666667, "bike_id": "4dda980fd0d9ddb3a65a4464fe2e09d1", "type": "electric_bike", "is_reserved": 0, "lon": -77.12012533333333}, {"fusion_lat": 0.0, "name": "6e24252dfa33ce5e74bec079c1a69ea8", "is_disabled": 0, "rental_uris": {"android": "https://dc.lft.to/lastmile_qr_scan", "ios": "https://dc.lft.to/lastmile_qr_scan"}, "fusion_lon": 0.0, "lat": 38.911009166666666, "bike_id": "6e24252dfa33ce5e74bec079c1a69ea8", "type": "electric_scooter", "is_reserved": 0, "lon": -77.02165483333333}, {"fusion_lat": 0.0, "name": "a352d8a398cdcce09b4d0981eb82f432", "is_disabled": 0, "rental_uris": {"android": "https://dc.lft.to/lastmile_qr_scan", "ios": "https://dc.lft.to/lastmile_qr_scan"}, "fusion_lon": 0.0, "lat": 38.91664166666666, "bike_id": "a352d8a398cdcce09b4d0981eb82f432", "type": "electric_scooter", "is_reserved": 0, "lon": -77.0296855}, {"fusion_lat": 0.0, "name": "fec304ab2c390ed9533a94e0f6d758ee", "is_disabled": 0, "rental_uris": {"android": "https://dc.lft.to/lastmile_qr_scan", "ios": "https://dc.lft.to/lastmile_qr_scan"}, "fusion_lon": 0.0, "lat": 38.9314035, "bike_id": "fec304ab2c390ed9533a94e0f6d758ee", "type": "electric_scooter", "is_reserved": 0, "lon": -77.03834966666666}, {"fusion_lat": 0.0, "name": "a03781f2324de9d88115c064784c9e60", "is_disabled": 0, "rental_uris": {"android": "https://dc.lft.to/lastmile_qr_scan", "ios": "https://dc.lft.to/lastmile_qr_scan"}, "fusion_lon": 0.0, "lat": 38.905623, "bike_id": "a03781f2324de9d88115c064784c9e60", "type": "electric_scooter", "is_reserved": 0, "lon": -77.01314216666667}, {"fusion_lat": 0.0, "name": "a19f0420bed03332da9c55eba33c7bf5", "is_disabled": 0, "rental_uris": {"android": "https://dc.lft.to/lastmile_qr_scan", "ios": "https://dc.lft.to/lastmile_qr_scan"}, "fusion_lon": 0.0, "lat": 38.87178816666667, "bike_id": "a19f0420bed03332da9c55eba33c7bf5", "type": "electric_scooter", "is_reserved": 0, "lon": -77.00616133333334}, {"fusion_lat": 0.0, "name": "cb26c5539944640edea6c41013dce361", "is_disabled": 0, "rental_uris": {"android": "https://dc.lft.to/lastmile_qr_scan", "ios": "https://dc.lft.to/lastmile_qr_scan"}, "fusion_lon": 0.0, "lat": 38.9306295, "bike_id": "cb26c5539944640edea6c41013dce361", "type": "electric_scooter", "is_reserved": 0, "lon": -77.029759}, {"fusion_lat": 0.0, "name": "9e4963671ce92633542f46b1b5c8ddd9", "is_disabled": 0, "rental_uris": {"android": "https://dc.lft.to/lastmile_qr_scan", "ios": "https://dc.lft.to/lastmile_qr_scan"}, "fusion_lon": 0.0, "lat": 38.904951, "bike_id": "9e4963671ce92633542f46b1b5c8ddd9", "type": "electric_scooter", "is_reserved": 0, "lon": -77.02686983333334}, {"fusion_lat": 0.0, "name": "1d7d6544518e3a37d2023d8e4365d993", "is_disabled": 0, "rental_uris": {"android": "https://dc.lft.to/lastmile_qr_scan", "ios": "https://dc.lft.to/lastmile_qr_scan"}, "fusion_lon": 0.0, "lat": 38.81596066666667, "bike_id": "1d7d6544518e3a37d2023d8e4365d993", "type": "electric_bike", "is_reserved": 0, "lon": -77.05050083333333}, {"fusion_lat": 0.0, "name": "c1e971cf74fef94294134a5f7f1b495e", "is_disabled": 0, "rental_uris": {"android": "https://dc.lft.to/lastmile_qr_scan", "ios": "https://dc.lft.to/lastmile_qr_scan"}, "fusion_lon": 0.0, "lat": 38.90507266666667, "bike_id": "c1e971cf74fef94294134a5f7f1b495e", "type": "electric_scooter", "is_reserved": 0, "lon": -77.02959616666666}, {"fusion_lat": 0.0, "name": "d016a93a48ba4743b77f3a7e1823c8ba", "is_disabled": 0, "rental_uris": {"android": "https://dc.lft.to/lastmile_qr_scan", "ios": "https://dc.lft.to/lastmile_qr_scan"}, "fusion_lon": 0.0, "lat": 38.96626416666667, "bike_id": "d016a93a48ba4743b77f3a7e1823c8ba", "type": "electric_bike", "is_reserved": 0, "lon": -77.03434233333333}, {"fusion_lat": 0.0, "name": "cb22e1557bb58114b9dce856959c727b", "is_disabled": 0, "rental_uris": {"android": "https://dc.lft.to/lastmile_qr_scan", "ios": "https://dc.lft.to/lastmile_qr_scan"}, "fusion_lon": 0.0, "lat": 38.91615516666667, "bike_id": "cb22e1557bb58114b9dce856959c727b", "type": "electric_scooter", "is_reserved": 0, "lon": -77.011278}, {"fusion_lat": 0.0, "name": "26b58a4108aeb07901d5938352799d55", "is_disabled": 0, "rental_uris": {"android": "https://dc.lft.to/lastmile_qr_scan", "ios": "https://dc.lft.to/lastmile_qr_scan"}, "fusion_lon": 0.0, "lat": 38.903946833333336, "bike_id": "26b58a4108aeb07901d5938352799d55", "type": "electric_scooter", "is_reserved": 0, "lon": -77.06784883333333}, {"fusion_lat": 0.0, "name": "9bf861b13e83d30b91f5c755b2fa3fb7", "is_disabled": 0, "rental_uris": {"android": "https://dc.lft.to/lastmile_qr_scan", "ios": "https://dc.lft.to/lastmile_qr_scan"}, "fusion_lon": 0.0, "lat": 38.90264366666667, "bike_id": "9bf861b13e83d30b91f5c755b2fa3fb7", "type": "electric_scooter", "is_reserved": 0, "lon": -77.01788583333334}, {"fusion_lat": 0.0, "name": "e1e3eff6389f8e372226fd732bcb896e", "is_disabled": 0, "rental_uris": {"android": "https://dc.lft.to/lastmile_qr_scan", "ios": "https://dc.lft.to/lastmile_qr_scan"}, "fusion_lon": 0.0, "lat": 38.90920416666667, "bike_id": "e1e3eff6389f8e372226fd732bcb896e", "type": "electric_scooter", "is_reserved": 0, "lon": -77.045795}, {"fusion_lat": 0.0, "name": "f18ca6f82ea0ec6c1910a43bc1491e4c", "is_disabled": 0, "rental_uris": {"android": "https://dc.lft.to/lastmile_qr_scan", "ios": "https://dc.lft.to/lastmile_qr_scan"}, "fusion_lon": 0.0, "lat": 38.908397666666666, "bike_id": "f18ca6f82ea0ec6c1910a43bc1491e4c", "type": "electric_scooter", "is_reserved": 0, "lon": -77.02697283333333}, {"fusion_lat": 0.0, "name": "89512f4ee78cf650d92b6cba3283ed9f", "is_disabled": 0, "rental_uris": {"android": "https://dc.lft.to/lastmile_qr_scan", "ios": "https://dc.lft.to/lastmile_qr_scan"}, "fusion_lon": 0.0, "lat": 38.923808, "bike_id": "89512f4ee78cf650d92b6cba3283ed9f", "type": "electric_scooter", "is_reserved": 0, "lon": -77.07536233333333}, {"fusion_lat": 0.0, "name": "03d7af8c6ecd66ff92e1d0f53fba51aa", "is_disabled": 0, "rental_uris": {"android": "https://dc.lft.to/lastmile_qr_scan", "ios": "https://dc.lft.to/lastmile_qr_scan"}, "fusion_lon": 0.0, "lat": 38.897141833333336, "bike_id": "03d7af8c6ecd66ff92e1d0f53fba51aa", "type": "electric_scooter", "is_reserved": 0, "lon": -77.03170933333334}, {"fusion_lat": 0.0, "name": "b44d40bd07073afb777635047b89e66f", "is_disabled": 0, "rental_uris": {"android": "https://dc.lft.to/lastmile_qr_scan", "ios": "https://dc.lft.to/lastmile_qr_scan"}, "fusion_lon": 0.0, "lat": 38.9205875, "bike_id": "b44d40bd07073afb777635047b89e66f", "type": "electric_scooter", "is_reserved": 0, "lon": -77.02535333333333}, {"fusion_lat": 0.0, "name": "4b72d0354519754279bdf0b4cb6c72e9", "is_disabled": 0, "rental_uris": {"android": "https://dc.lft.to/lastmile_qr_scan", "ios": "https://dc.lft.to/lastmile_qr_scan"}, "fusion_lon": 0.0, "lat": 38.916912333333336, "bike_id": "4b72d0354519754279bdf0b4cb6c72e9", "type": "electric_scooter", "is_reserved": 0, "lon": -77.01168383333334}, {"fusion_lat": 0.0, "name": "040dbcadb5ed86e28a22026343f8d2dc", "is_disabled": 0, "rental_uris": {"android": "https://dc.lft.to/lastmile_qr_scan", "ios": "https://dc.lft.to/lastmile_qr_scan"}, "fusion_lon": 0.0, "lat": 38.91100616666667, "bike_id": "040dbcadb5ed86e28a22026343f8d2dc", "type": "electric_scooter", "is_reserved": 0, "lon": -77.01531733333333}, {"fusion_lat": 0.0, "name": "513f98d35f2b184b29ce0fc8c5b894a0", "is_disabled": 0, "rental_uris": {"android": "https://dc.lft.to/lastmile_qr_scan", "ios": "https://dc.lft.to/lastmile_qr_scan"}, "fusion_lon": 0.0, "lat": 38.90366383333333, "bike_id": "513f98d35f2b184b29ce0fc8c5b894a0", "type": "electric_scooter", "is_reserved": 0, "lon": -77.0320095}, {"fusion_lat": 0.0, "name": "b708f6c151867e5ed23b933ac8d8a2f0", "is_disabled": 0, "rental_uris": {"android": "https://dc.lft.to/lastmile_qr_scan", "ios": "https://dc.lft.to/lastmile_qr_scan"}, "fusion_lon": 0.0, "lat": 38.90409316666667, "bike_id": "b708f6c151867e5ed23b933ac8d8a2f0", "type": "electric_scooter", "is_reserved": 0, "lon": -76.97326733333334}, {"fusion_lat": 0.0, "name": "c1a891ca57bade15a4ef5467f18b3790", "is_disabled": 0, "rental_uris": {"android": "https://dc.lft.to/lastmile_qr_scan", "ios": "https://dc.lft.to/lastmile_qr_scan"}, "fusion_lon": 0.0, "lat": 38.84505266666667, "bike_id": "c1a891ca57bade15a4ef5467f18b3790", "type": "electric_bike", "is_reserved": 0, "lon": -76.99353183333334}, {"fusion_lat": 0.0, "name": "4413eb6f295135f3bc2727b786203c94", "is_disabled": 0, "rental_uris": {"android": "https://dc.lft.to/lastmile_qr_scan", "ios": "https://dc.lft.to/lastmile_qr_scan"}, "fusion_lon": 0.0, "lat": 38.90715216666667, "bike_id": "4413eb6f295135f3bc2727b786203c94", "type": "electric_scooter", "is_reserved": 0, "lon": -77.04352383333334}, {"fusion_lat": 0.0, "name": "5432ae31c523cc04dff9a880f3112a9f", "is_disabled": 0, "rental_uris": {"android": "https://dc.lft.to/lastmile_qr_scan", "ios": "https://dc.lft.to/lastmile_qr_scan"}, "fusion_lon": 0.0, "lat": 38.83203683333333, "bike_id": "5432ae31c523cc04dff9a880f3112a9f", "type": "electric_bike", "is_reserved": 0, "lon": -76.9967435}, {"fusion_lat": 0.0, "name": "090b243c15ff69a217c023a74d5949e2", "is_disabled": 0, "rental_uris": {"android": "https://dc.lft.to/lastmile_qr_scan", "ios": "https://dc.lft.to/lastmile_qr_scan"}, "fusion_lon": 0.0, "lat": 38.91435516666667, "bike_id": "090b243c15ff69a217c023a74d5949e2", "type": "electric_scooter", "is_reserved": 0, "lon": -76.993531}, {"fusion_lat": 0.0, "name": "d7ffaa186580cdc6f9d8c6e646ffae1f", "is_disabled": 0, "rental_uris": {"android": "https://dc.lft.to/lastmile_qr_scan", "ios": "https://dc.lft.to/lastmile_qr_scan"}, "fusion_lon": 0.0, "lat": 38.92335583333333, "bike_id": "d7ffaa186580cdc6f9d8c6e646ffae1f", "type": "electric_scooter", "is_reserved": 0, "lon": -77.03515683333333}, {"fusion_lat": 0.0, "name": "9d60bdb669a4384d22641ea1270ab762", "is_disabled": 0, "rental_uris": {"android": "https://dc.lft.to/lastmile_qr_scan", "ios": "https://dc.lft.to/lastmile_qr_scan"}, "fusion_lon": 0.0, "lat": 38.90737166666667, "bike_id": "9d60bdb669a4384d22641ea1270ab762", "type": "electric_scooter", "is_reserved": 0, "lon": -77.03452216666666}, {"fusion_lat": 0.0, "name": "1ee6b92dbf27065af50dedfe376786ad", "is_disabled": 0, "rental_uris": {"android": "https://dc.lft.to/lastmile_qr_scan", "ios": "https://dc.lft.to/lastmile_qr_scan"}, "fusion_lon": 0.0, "lat": 38.90232866666667, "bike_id": "1ee6b92dbf27065af50dedfe376786ad", "type": "electric_scooter", "is_reserved": 0, "lon": -77.0269125}, {"fusion_lat": 0.0, "name": "83185a0a5bd097ba0b90881806be8938", "is_disabled": 0, "rental_uris": {"android": "https://dc.lft.to/lastmile_qr_scan", "ios": "https://dc.lft.to/lastmile_qr_scan"}, "fusion_lon": 0.0, "lat": 38.91122583333333, "bike_id": "83185a0a5bd097ba0b90881806be8938", "type": "electric_scooter", "is_reserved": 0, "lon": -77.038302}, {"fusion_lat": 0.0, "name": "5fc8608a515437f3eebe9a2ca5927fc7", "is_disabled": 0, "rental_uris": {"android": "https://dc.lft.to/lastmile_qr_scan", "ios": "https://dc.lft.to/lastmile_qr_scan"}, "fusion_lon": 0.0, "lat": 38.9296105, "bike_id": "5fc8608a515437f3eebe9a2ca5927fc7", "type": "electric_scooter", "is_reserved": 0, "lon": -76.99171133333333}, {"fusion_lat": 0.0, "name": "b382edf76c14283a5d249242e235cbc4", "is_disabled": 0, "rental_uris": {"android": "https://dc.lft.to/lastmile_qr_scan", "ios": "https://dc.lft.to/lastmile_qr_scan"}, "fusion_lon": 0.0, "lat": 38.922549333333336, "bike_id": "b382edf76c14283a5d249242e235cbc4", "type": "electric_scooter", "is_reserved": 0, "lon": -77.00915}, {"fusion_lat": 0.0, "name": "183d25658ec10d4185c321efe8f814c4", "is_disabled": 0, "rental_uris": {"android": "https://dc.lft.to/lastmile_qr_scan", "ios": "https://dc.lft.to/lastmile_qr_scan"}, "fusion_lon": 0.0, "lat": 38.90758533333333, "bike_id": "183d25658ec10d4185c321efe8f814c4", "type": "electric_scooter", "is_reserved": 0, "lon": -77.0382475}, {"fusion_lat": 0.0, "name": "9c5452c66a9e5bb0ee471e739b63a37a", "is_disabled": 0, "rental_uris": {"android": "https://dc.lft.to/lastmile_qr_scan", "ios": "https://dc.lft.to/lastmile_qr_scan"}, "fusion_lon": 0.0, "lat": 38.905030333333336, "bike_id": "9c5452c66a9e5bb0ee471e739b63a37a", "type": "electric_scooter", "is_reserved": 0, "lon": -77.02948366666666}, {"fusion_lat": 0.0, "name": "85a67f2346adc8670d4c8025ae1d68ca", "is_disabled": 0, "rental_uris": {"android": "https://dc.lft.to/lastmile_qr_scan", "ios": "https://dc.lft.to/lastmile_qr_scan"}, "fusion_lon": 0.0, "lat": 38.90765316666667, "bike_id": "85a67f2346adc8670d4c8025ae1d68ca", "type": "electric_scooter", "is_reserved": 0, "lon": -77.03839033333334}, {"fusion_lat": 0.0, "name": "748025637b1c7b09a1c1743aeabd1eec", "is_disabled": 0, "rental_uris": {"android": "https://dc.lft.to/lastmile_qr_scan", "ios": "https://dc.lft.to/lastmile_qr_scan"}, "fusion_lon": 0.0, "lat": 38.91138216666667, "bike_id": "748025637b1c7b09a1c1743aeabd1eec", "type": "electric_scooter", "is_reserved": 0, "lon": -76.996915}, {"fusion_lat": 0.0, "name": "6a843ae73e6711454b8a6b91978c4f9e", "is_disabled": 0, "rental_uris": {"android": "https://dc.lft.to/lastmile_qr_scan", "ios": "https://dc.lft.to/lastmile_qr_scan"}, "fusion_lon": 0.0, "lat": 38.900288333333336, "bike_id": "6a843ae73e6711454b8a6b91978c4f9e", "type": "electric_bike", "is_reserved": 0, "lon": -76.9721885}, {"fusion_lat": 0.0, "name": "62d64971765dab5005f83680488f5722", "is_disabled": 0, "rental_uris": {"android": "https://dc.lft.to/lastmile_qr_scan", "ios": "https://dc.lft.to/lastmile_qr_scan"}, "fusion_lon": 0.0, "lat": 38.905637, "bike_id": "62d64971765dab5005f83680488f5722", "type": "electric_scooter", "is_reserved": 0, "lon": -77.03479116666666}, {"fusion_lat": 0.0, "name": "1315c5a85253e6d3c6ce73a9f8c73ec9", "is_disabled": 0, "rental_uris": {"android": "https://dc.lft.to/lastmile_qr_scan", "ios": "https://dc.lft.to/lastmile_qr_scan"}, "fusion_lon": 0.0, "lat": 38.9247335, "bike_id": "1315c5a85253e6d3c6ce73a9f8c73ec9", "type": "electric_scooter", "is_reserved": 0, "lon": -77.022143}, {"fusion_lat": 0.0, "name": "43d1ba3a6e0fc5d1137110263e630583", "is_disabled": 0, "rental_uris": {"android": "https://dc.lft.to/lastmile_qr_scan", "ios": "https://dc.lft.to/lastmile_qr_scan"}, "fusion_lon": 0.0, "lat": 38.89220816666667, "bike_id": "43d1ba3a6e0fc5d1137110263e630583", "type": "electric_scooter", "is_reserved": 0, "lon": -77.02014133333333}, {"fusion_lat": 0.0, "name": "950f8c9418b120cb03c59231b22ffb0c", "is_disabled": 0, "rental_uris": {"android": "https://dc.lft.to/lastmile_qr_scan", "ios": "https://dc.lft.to/lastmile_qr_scan"}, "fusion_lon": 0.0, "lat": 38.897329, "bike_id": "950f8c9418b120cb03c59231b22ffb0c", "type": "electric_scooter", "is_reserved": 0, "lon": -77.046346}, {"fusion_lat": 0.0, "name": "4ef1e00443c0e9335589699c7c088c61", "is_disabled": 0, "rental_uris": {"android": "https://dc.lft.to/lastmile_qr_scan", "ios": "https://dc.lft.to/lastmile_qr_scan"}, "fusion_lon": 0.0, "lat": 38.93175983333333, "bike_id": "4ef1e00443c0e9335589699c7c088c61", "type": "electric_scooter", "is_reserved": 0, "lon": -77.03794483333333}, {"fusion_lat": 0.0, "name": "4179b6aa9833d1b88c0565c920f7cd69", "is_disabled": 0, "rental_uris": {"android": "https://dc.lft.to/lastmile_qr_scan", "ios": "https://dc.lft.to/lastmile_qr_scan"}, "fusion_lon": 0.0, "lat": 38.96676166666666, "bike_id": "4179b6aa9833d1b88c0565c920f7cd69", "type": "electric_bike", "is_reserved": 0, "lon": -77.02302466666667}, {"fusion_lat": 0.0, "name": "4563371f382fc68a2977b4ae8f6dac09", "is_disabled": 0, "rental_uris": {"android": "https://dc.lft.to/lastmile_qr_scan", "ios": "https://dc.lft.to/lastmile_qr_scan"}, "fusion_lon": 0.0, "lat": 38.909541, "bike_id": "4563371f382fc68a2977b4ae8f6dac09", "type": "electric_scooter", "is_reserved": 0, "lon": -77.04778916666666}, {"fusion_lat": 0.0, "name": "f7fc98659ca8af392cc75075c8dbf65a", "is_disabled": 0, "rental_uris": {"android": "https://dc.lft.to/lastmile_qr_scan", "ios": "https://dc.lft.to/lastmile_qr_scan"}, "fusion_lon": 0.0, "lat": 38.876955333333335, "bike_id": "f7fc98659ca8af392cc75075c8dbf65a", "type": "electric_scooter", "is_reserved": 0, "lon": -77.00407733333333}, {"fusion_lat": 0.0, "name": "895cf7e0d3dfcd025a9447328a7facea", "is_disabled": 0, "rental_uris": {"android": "https://dc.lft.to/lastmile_qr_scan", "ios": "https://dc.lft.to/lastmile_qr_scan"}, "fusion_lon": 0.0, "lat": 38.93863, "bike_id": "895cf7e0d3dfcd025a9447328a7facea", "type": "electric_scooter", "is_reserved": 0, "lon": -77.02646766666666}, {"fusion_lat": 0.0, "name": "c62ea18539c8553011ba8368c1527d7d", "is_disabled": 0, "rental_uris": {"android": "https://dc.lft.to/lastmile_qr_scan", "ios": "https://dc.lft.to/lastmile_qr_scan"}, "fusion_lon": 0.0, "lat": 38.91322233333333, "bike_id": "c62ea18539c8553011ba8368c1527d7d", "type": "electric_scooter", "is_reserved": 0, "lon": -77.03181783333333}, {"fusion_lat": 0.0, "name": "7b911e4d02a9601ee3c7fefcb5a2a582", "is_disabled": 0, "rental_uris": {"android": "https://dc.lft.to/lastmile_qr_scan", "ios": "https://dc.lft.to/lastmile_qr_scan"}, "fusion_lon": 0.0, "lat": 38.89612666666667, "bike_id": "7b911e4d02a9601ee3c7fefcb5a2a582", "type": "electric_scooter", "is_reserved": 0, "lon": -77.0266415}, {"fusion_lat": 0.0, "name": "e2ff4eea7b625c20c2ccd4ac4daa870b", "is_disabled": 0, "rental_uris": {"android": "https://dc.lft.to/lastmile_qr_scan", "ios": "https://dc.lft.to/lastmile_qr_scan"}, "fusion_lon": 0.0, "lat": 38.967285, "bike_id": "e2ff4eea7b625c20c2ccd4ac4daa870b", "type": "electric_scooter", "is_reserved": 0, "lon": -77.00918216666666}, {"fusion_lat": 0.0, "name": "4d4372299dbe1624ee1db23b5ae9d906", "is_disabled": 0, "rental_uris": {"android": "https://dc.lft.to/lastmile_qr_scan", "ios": "https://dc.lft.to/lastmile_qr_scan"}, "fusion_lon": 0.0, "lat": 38.91913816666667, "bike_id": "4d4372299dbe1624ee1db23b5ae9d906", "type": "electric_scooter", "is_reserved": 0, "lon": -77.02617116666667}, {"fusion_lat": 0.0, "name": "ac73f63409c4a1a02f21c34fe4d9bf10", "is_disabled": 0, "rental_uris": {"android": "https://dc.lft.to/lastmile_qr_scan", "ios": "https://dc.lft.to/lastmile_qr_scan"}, "fusion_lon": 0.0, "lat": 38.892513666666666, "bike_id": "ac73f63409c4a1a02f21c34fe4d9bf10", "type": "electric_bike", "is_reserved": 0, "lon": -76.951138}, {"fusion_lat": 0.0, "name": "506c247426d3dc2da87af49087b63a14", "is_disabled": 0, "rental_uris": {"android": "https://dc.lft.to/lastmile_qr_scan", "ios": "https://dc.lft.to/lastmile_qr_scan"}, "fusion_lon": 0.0, "lat": 38.952455666666665, "bike_id": "506c247426d3dc2da87af49087b63a14", "type": "electric_scooter", "is_reserved": 0, "lon": -77.02379266666667}, {"fusion_lat": 0.0, "name": "9c6808b7c2075e36516eb96e7ee4d6ea", "is_disabled": 0, "rental_uris": {"android": "https://dc.lft.to/lastmile_qr_scan", "ios": "https://dc.lft.to/lastmile_qr_scan"}, "fusion_lon": 0.0, "lat": 38.8833225, "bike_id": "9c6808b7c2075e36516eb96e7ee4d6ea", "type": "electric_scooter", "is_reserved": 0, "lon": -77.01754383333333}, {"fusion_lat": 0.0, "name": "207456f09f0b26b5b304e0a207df0f64", "is_disabled": 0, "rental_uris": {"android": "https://dc.lft.to/lastmile_qr_scan", "ios": "https://dc.lft.to/lastmile_qr_scan"}, "fusion_lon": 0.0, "lat": 38.875461333333334, "bike_id": "207456f09f0b26b5b304e0a207df0f64", "type": "electric_scooter", "is_reserved": 0, "lon": -77.0053765}, {"fusion_lat": 0.0, "name": "361db87b5d9937e96e7b5f9c03e49ba5", "is_disabled": 0, "rental_uris": {"android": "https://dc.lft.to/lastmile_qr_scan", "ios": "https://dc.lft.to/lastmile_qr_scan"}, "fusion_lon": 0.0, "lat": 38.924527833333336, "bike_id": "361db87b5d9937e96e7b5f9c03e49ba5", "type": "electric_scooter", "is_reserved": 0, "lon": -77.08017533333333}, {"fusion_lat": 0.0, "name": "a077c984b3a7509234a3871c66693164", "is_disabled": 0, "rental_uris": {"android": "https://dc.lft.to/lastmile_qr_scan", "ios": "https://dc.lft.to/lastmile_qr_scan"}, "fusion_lon": 0.0, "lat": 38.898837666666665, "bike_id": "a077c984b3a7509234a3871c66693164", "type": "electric_scooter", "is_reserved": 0, "lon": -77.046562}, {"fusion_lat": 0.0, "name": "c19425feeb83fa5bec3d607700088308", "is_disabled": 0, "rental_uris": {"android": "https://dc.lft.to/lastmile_qr_scan", "ios": "https://dc.lft.to/lastmile_qr_scan"}, "fusion_lon": 0.0, "lat": 38.9056505, "bike_id": "c19425feeb83fa5bec3d607700088308", "type": "electric_scooter", "is_reserved": 0, "lon": -77.02415133333334}, {"fusion_lat": 0.0, "name": "30aec2afc6536f5c37444b229f5ffe20", "is_disabled": 0, "rental_uris": {"android": "https://dc.lft.to/lastmile_qr_scan", "ios": "https://dc.lft.to/lastmile_qr_scan"}, "fusion_lon": 0.0, "lat": 38.89354633333333, "bike_id": "30aec2afc6536f5c37444b229f5ffe20", "type": "electric_scooter", "is_reserved": 0, "lon": -77.00069883333333}, {"fusion_lat": 0.0, "name": "d8c81b4457d01f3621e9371efccf3964", "is_disabled": 0, "rental_uris": {"android": "https://dc.lft.to/lastmile_qr_scan", "ios": "https://dc.lft.to/lastmile_qr_scan"}, "fusion_lon": 0.0, "lat": 38.90567983333333, "bike_id": "d8c81b4457d01f3621e9371efccf3964", "type": "electric_scooter", "is_reserved": 0, "lon": -77.02651716666666}, {"fusion_lat": 0.0, "name": "ffe51249dfc6e649efc764f1404b8726", "is_disabled": 0, "rental_uris": {"android": "https://dc.lft.to/lastmile_qr_scan", "ios": "https://dc.lft.to/lastmile_qr_scan"}, "fusion_lon": 0.0, "lat": 38.905013833333335, "bike_id": "ffe51249dfc6e649efc764f1404b8726", "type": "electric_scooter", "is_reserved": 0, "lon": -77.06110483333333}, {"fusion_lat": 0.0, "name": "aa4e35f8861da81b79a2bfc4bdd99020", "is_disabled": 0, "rental_uris": {"android": "https://dc.lft.to/lastmile_qr_scan", "ios": "https://dc.lft.to/lastmile_qr_scan"}, "fusion_lon": 0.0, "lat": 38.927797166666664, "bike_id": "aa4e35f8861da81b79a2bfc4bdd99020", "type": "electric_scooter", "is_reserved": 0, "lon": -77.027045}, {"fusion_lat": 0.0, "name": "d465c5076cfb5d8d4701199a852bff6b", "is_disabled": 0, "rental_uris": {"android": "https://dc.lft.to/lastmile_qr_scan", "ios": "https://dc.lft.to/lastmile_qr_scan"}, "fusion_lon": 0.0, "lat": 38.9387745, "bike_id": "d465c5076cfb5d8d4701199a852bff6b", "type": "electric_scooter", "is_reserved": 0, "lon": -77.0291915}, {"fusion_lat": 0.0, "name": "8da88b22460bfde1a8185ec706387daf", "is_disabled": 0, "rental_uris": {"android": "https://dc.lft.to/lastmile_qr_scan", "ios": "https://dc.lft.to/lastmile_qr_scan"}, "fusion_lon": 0.0, "lat": 38.94157033333333, "bike_id": "8da88b22460bfde1a8185ec706387daf", "type": "electric_scooter", "is_reserved": 0, "lon": -77.02491883333333}, {"fusion_lat": 0.0, "name": "8b1d5fe43dc7589af075c72f3484779e", "is_disabled": 0, "rental_uris": {"android": "https://dc.lft.to/lastmile_qr_scan", "ios": "https://dc.lft.to/lastmile_qr_scan"}, "fusion_lon": 0.0, "lat": 38.93113, "bike_id": "8b1d5fe43dc7589af075c72f3484779e", "type": "electric_scooter", "is_reserved": 0, "lon": -77.02128483333334}, {"fusion_lat": 0.0, "name": "59e479ef509a8aa76c6f8223290c99a2", "is_disabled": 0, "rental_uris": {"android": "https://dc.lft.to/lastmile_qr_scan", "ios": "https://dc.lft.to/lastmile_qr_scan"}, "fusion_lon": 0.0, "lat": 38.929041833333336, "bike_id": "59e479ef509a8aa76c6f8223290c99a2", "type": "electric_scooter", "is_reserved": 0, "lon": -77.03242383333334}, {"fusion_lat": 0.0, "name": "020bc147149b583a3c04aee0b6d47718", "is_disabled": 0, "rental_uris": {"android": "https://dc.lft.to/lastmile_qr_scan", "ios": "https://dc.lft.to/lastmile_qr_scan"}, "fusion_lon": 0.0, "lat": 38.91768716666667, "bike_id": "020bc147149b583a3c04aee0b6d47718", "type": "electric_scooter", "is_reserved": 0, "lon": -77.02284}, {"fusion_lat": 0.0, "name": "6f2ef6561867670949333c3ea3030acc", "is_disabled": 0, "rental_uris": {"android": "https://dc.lft.to/lastmile_qr_scan", "ios": "https://dc.lft.to/lastmile_qr_scan"}, "fusion_lon": 0.0, "lat": 38.86369583333333, "bike_id": "6f2ef6561867670949333c3ea3030acc", "type": "electric_bike", "is_reserved": 0, "lon": -76.970085}, {"fusion_lat": 0.0, "name": "db4ebac8d8e0a8098f8d0c6d3913e04d", "is_disabled": 0, "rental_uris": {"android": "https://dc.lft.to/lastmile_qr_scan", "ios": "https://dc.lft.to/lastmile_qr_scan"}, "fusion_lon": 0.0, "lat": 38.93297583333333, "bike_id": "db4ebac8d8e0a8098f8d0c6d3913e04d", "type": "electric_scooter", "is_reserved": 0, "lon": -77.03990666666667}, {"fusion_lat": 0.0, "name": "39ce16ec35c6f54561dd5315e930ca33", "is_disabled": 0, "rental_uris": {"android": "https://dc.lft.to/lastmile_qr_scan", "ios": "https://dc.lft.to/lastmile_qr_scan"}, "fusion_lon": 0.0, "lat": 38.92340816666667, "bike_id": "39ce16ec35c6f54561dd5315e930ca33", "type": "electric_scooter", "is_reserved": 0, "lon": -77.03452266666666}, {"fusion_lat": 0.0, "name": "990782293b20f7d799a51df5098aaa86", "is_disabled": 0, "rental_uris": {"android": "https://dc.lft.to/lastmile_qr_scan", "ios": "https://dc.lft.to/lastmile_qr_scan"}, "fusion_lon": 0.0, "lat": 38.92789283333333, "bike_id": "990782293b20f7d799a51df5098aaa86", "type": "electric_scooter", "is_reserved": 0, "lon": -77.03149683333334}, {"fusion_lat": 0.0, "name": "39fce783ef5c23fd68a6c980dbb6902f", "is_disabled": 0, "rental_uris": {"android": "https://dc.lft.to/lastmile_qr_scan", "ios": "https://dc.lft.to/lastmile_qr_scan"}, "fusion_lon": 0.0, "lat": 38.92784283333334, "bike_id": "39fce783ef5c23fd68a6c980dbb6902f", "type": "electric_scooter", "is_reserved": 0, "lon": -77.025862}, {"fusion_lat": 0.0, "name": "b898c8399c6871e162d08ff886b92a8d", "is_disabled": 0, "rental_uris": {"android": "https://dc.lft.to/lastmile_qr_scan", "ios": "https://dc.lft.to/lastmile_qr_scan"}, "fusion_lon": 0.0, "lat": 38.92870666666666, "bike_id": "b898c8399c6871e162d08ff886b92a8d", "type": "electric_scooter", "is_reserved": 0, "lon": -77.05446166666667}, {"fusion_lat": 0.0, "name": "c1163bf6ae95006720c1312638e693e0", "is_disabled": 0, "rental_uris": {"android": "https://dc.lft.to/lastmile_qr_scan", "ios": "https://dc.lft.to/lastmile_qr_scan"}, "fusion_lon": 0.0, "lat": 38.889418, "bike_id": "c1163bf6ae95006720c1312638e693e0", "type": "electric_scooter", "is_reserved": 0, "lon": -76.99156816666667}, {"fusion_lat": 0.0, "name": "4ad091a71d4fae940718dcf7f7061c0a", "is_disabled": 0, "rental_uris": {"android": "https://dc.lft.to/lastmile_qr_scan", "ios": "https://dc.lft.to/lastmile_qr_scan"}, "fusion_lon": 0.0, "lat": 38.942922333333335, "bike_id": "4ad091a71d4fae940718dcf7f7061c0a", "type": "electric_scooter", "is_reserved": 0, "lon": -77.02169916666666}, {"fusion_lat": 0.0, "name": "44f5be1d013ba0c5253cb46274b6a4f2", "is_disabled": 0, "rental_uris": {"android": "https://dc.lft.to/lastmile_qr_scan", "ios": "https://dc.lft.to/lastmile_qr_scan"}, "fusion_lon": 0.0, "lat": 38.90040316666666, "bike_id": "44f5be1d013ba0c5253cb46274b6a4f2", "type": "electric_scooter", "is_reserved": 0, "lon": -76.992522}, {"fusion_lat": 0.0, "name": "9c40f628ddc44ff12d618332df7718eb", "is_disabled": 0, "rental_uris": {"android": "https://dc.lft.to/lastmile_qr_scan", "ios": "https://dc.lft.to/lastmile_qr_scan"}, "fusion_lon": 0.0, "lat": 38.90878683333333, "bike_id": "9c40f628ddc44ff12d618332df7718eb", "type": "electric_scooter", "is_reserved": 0, "lon": -77.04324666666666}, {"fusion_lat": 0.0, "name": "8acee4ccb403f2911bad1d25e2b15fdf", "is_disabled": 0, "rental_uris": {"android": "https://dc.lft.to/lastmile_qr_scan", "ios": "https://dc.lft.to/lastmile_qr_scan"}, "fusion_lon": 0.0, "lat": 38.90498933333333, "bike_id": "8acee4ccb403f2911bad1d25e2b15fdf", "type": "electric_scooter", "is_reserved": 0, "lon": -76.979527}, {"fusion_lat": 0.0, "name": "ebd714c8c2975fb9429395248a71a7a9", "is_disabled": 0, "rental_uris": {"android": "https://dc.lft.to/lastmile_qr_scan", "ios": "https://dc.lft.to/lastmile_qr_scan"}, "fusion_lon": 0.0, "lat": 38.9205645, "bike_id": "ebd714c8c2975fb9429395248a71a7a9", "type": "electric_scooter", "is_reserved": 0, "lon": -77.023927}, {"fusion_lat": 0.0, "name": "46d886238b9f55ac577975f11a8e90a0", "is_disabled": 0, "rental_uris": {"android": "https://dc.lft.to/lastmile_qr_scan", "ios": "https://dc.lft.to/lastmile_qr_scan"}, "fusion_lon": 0.0, "lat": 38.911784833333336, "bike_id": "46d886238b9f55ac577975f11a8e90a0", "type": "electric_scooter", "is_reserved": 0, "lon": -77.06862433333333}, {"fusion_lat": 0.0, "name": "aa44aa69144dc388947243a0475117d7", "is_disabled": 0, "rental_uris": {"android": "https://dc.lft.to/lastmile_qr_scan", "ios": "https://dc.lft.to/lastmile_qr_scan"}, "fusion_lon": 0.0, "lat": 38.92658733333333, "bike_id": "aa44aa69144dc388947243a0475117d7", "type": "electric_scooter", "is_reserved": 0, "lon": -77.02430116666666}, {"fusion_lat": 0.0, "name": "75297f18560a76a47c33b44251691f56", "is_disabled": 0, "rental_uris": {"android": "https://dc.lft.to/lastmile_qr_scan", "ios": "https://dc.lft.to/lastmile_qr_scan"}, "fusion_lon": 0.0, "lat": 38.9418795, "bike_id": "75297f18560a76a47c33b44251691f56", "type": "electric_scooter", "is_reserved": 0, "lon": -77.024047}, {"fusion_lat": 0.0, "name": "11589639c5ebc7491821247f1c68cb74", "is_disabled": 0, "rental_uris": {"android": "https://dc.lft.to/lastmile_qr_scan", "ios": "https://dc.lft.to/lastmile_qr_scan"}, "fusion_lon": 0.0, "lat": 38.8614115, "bike_id": "11589639c5ebc7491821247f1c68cb74", "type": "electric_bike", "is_reserved": 0, "lon": -76.97169366666667}, {"fusion_lat": 0.0, "name": "992590c003c742bf30830aa9f00fe078", "is_disabled": 0, "rental_uris": {"android": "https://dc.lft.to/lastmile_qr_scan", "ios": "https://dc.lft.to/lastmile_qr_scan"}, "fusion_lon": 0.0, "lat": 38.899024, "bike_id": "992590c003c742bf30830aa9f00fe078", "type": "electric_scooter", "is_reserved": 0, "lon": -76.97608716666667}, {"fusion_lat": 0.0, "name": "3946772795db377b642a68846eae64ed", "is_disabled": 0, "rental_uris": {"android": "https://dc.lft.to/lastmile_qr_scan", "ios": "https://dc.lft.to/lastmile_qr_scan"}, "fusion_lon": 0.0, "lat": 38.9659535, "bike_id": "3946772795db377b642a68846eae64ed", "type": "electric_bike", "is_reserved": 0, "lon": -77.0280585}, {"fusion_lat": 0.0, "name": "223d24f6280050e6fbcac0e7f5648452", "is_disabled": 0, "rental_uris": {"android": "https://dc.lft.to/lastmile_qr_scan", "ios": "https://dc.lft.to/lastmile_qr_scan"}, "fusion_lon": 0.0, "lat": 38.86243733333333, "bike_id": "223d24f6280050e6fbcac0e7f5648452", "type": "electric_scooter", "is_reserved": 0, "lon": -76.99498333333334}, {"fusion_lat": 0.0, "name": "5d6cada650301057202659404dac4fd3", "is_disabled": 0, "rental_uris": {"android": "https://dc.lft.to/lastmile_qr_scan", "ios": "https://dc.lft.to/lastmile_qr_scan"}, "fusion_lon": 0.0, "lat": 38.93522866666667, "bike_id": "5d6cada650301057202659404dac4fd3", "type": "electric_scooter", "is_reserved": 0, "lon": -77.07264416666666}, {"fusion_lat": 0.0, "name": "5b21aa1c7d53d8145f0a13767d315f0b", "is_disabled": 0, "rental_uris": {"android": "https://dc.lft.to/lastmile_qr_scan", "ios": "https://dc.lft.to/lastmile_qr_scan"}, "fusion_lon": 0.0, "lat": 39.0525705, "bike_id": "5b21aa1c7d53d8145f0a13767d315f0b", "type": "electric_bike", "is_reserved": 0, "lon": -77.08067266666667}, {"fusion_lat": 0.0, "name": "4516866b0cdb63524649267f93e95651", "is_disabled": 0, "rental_uris": {"android": "https://dc.lft.to/lastmile_qr_scan", "ios": "https://dc.lft.to/lastmile_qr_scan"}, "fusion_lon": 0.0, "lat": 38.939918666666664, "bike_id": "4516866b0cdb63524649267f93e95651", "type": "electric_bike", "is_reserved": 0, "lon": -77.03578433333334}, {"fusion_lat": 0.0, "name": "430ad9613190802eba13c0f6b644c7d2", "is_disabled": 0, "rental_uris": {"android": "https://dc.lft.to/lastmile_qr_scan", "ios": "https://dc.lft.to/lastmile_qr_scan"}, "fusion_lon": 0.0, "lat": 38.89623266666667, "bike_id": "430ad9613190802eba13c0f6b644c7d2", "type": "electric_scooter", "is_reserved": 0, "lon": -77.00927766666666}, {"fusion_lat": 0.0, "name": "90f71365b02eab37adf347c046db6b7a", "is_disabled": 0, "rental_uris": {"android": "https://dc.lft.to/lastmile_qr_scan", "ios": "https://dc.lft.to/lastmile_qr_scan"}, "fusion_lon": 0.0, "lat": 38.89766433333333, "bike_id": "90f71365b02eab37adf347c046db6b7a", "type": "electric_scooter", "is_reserved": 0, "lon": -77.0089315}, {"fusion_lat": 0.0, "name": "22c0da2700d5deb2b23c84294a2eaaf7", "is_disabled": 0, "rental_uris": {"android": "https://dc.lft.to/lastmile_qr_scan", "ios": "https://dc.lft.to/lastmile_qr_scan"}, "fusion_lon": 0.0, "lat": 38.899332, "bike_id": "22c0da2700d5deb2b23c84294a2eaaf7", "type": "electric_scooter", "is_reserved": 0, "lon": -77.00353316666667}, {"fusion_lat": 0.0, "name": "e3835d60f7d2ea286ede280f5018716b", "is_disabled": 0, "rental_uris": {"android": "https://dc.lft.to/lastmile_qr_scan", "ios": "https://dc.lft.to/lastmile_qr_scan"}, "fusion_lon": 0.0, "lat": 38.927408166666666, "bike_id": "e3835d60f7d2ea286ede280f5018716b", "type": "electric_scooter", "is_reserved": 0, "lon": -77.02430633333333}, {"fusion_lat": 0.0, "name": "b88da613d11281099e2cf78336e973f4", "is_disabled": 0, "rental_uris": {"android": "https://dc.lft.to/lastmile_qr_scan", "ios": "https://dc.lft.to/lastmile_qr_scan"}, "fusion_lon": 0.0, "lat": 38.88311433333333, "bike_id": "b88da613d11281099e2cf78336e973f4", "type": "electric_scooter", "is_reserved": 0, "lon": -77.01767016666666}, {"fusion_lat": 0.0, "name": "8c2f607dfb35e6baa71e0c010ff31682", "is_disabled": 0, "rental_uris": {"android": "https://dc.lft.to/lastmile_qr_scan", "ios": "https://dc.lft.to/lastmile_qr_scan"}, "fusion_lon": 0.0, "lat": 38.9124215, "bike_id": "8c2f607dfb35e6baa71e0c010ff31682", "type": "electric_scooter", "is_reserved": 0, "lon": -77.00152}, {"fusion_lat": 0.0, "name": "e745f9b721dd55fcec1fb38aa239f3ac", "is_disabled": 0, "rental_uris": {"android": "https://dc.lft.to/lastmile_qr_scan", "ios": "https://dc.lft.to/lastmile_qr_scan"}, "fusion_lon": 0.0, "lat": 38.871810333333336, "bike_id": "e745f9b721dd55fcec1fb38aa239f3ac", "type": "electric_scooter", "is_reserved": 0, "lon": -77.006168}, {"fusion_lat": 0.0, "name": "d73a926f7bc53e63c10269a1fdc8170a", "is_disabled": 0, "rental_uris": {"android": "https://dc.lft.to/lastmile_qr_scan", "ios": "https://dc.lft.to/lastmile_qr_scan"}, "fusion_lon": 0.0, "lat": 38.898738333333334, "bike_id": "d73a926f7bc53e63c10269a1fdc8170a", "type": "electric_scooter", "is_reserved": 0, "lon": -76.931853}, {"fusion_lat": 0.0, "name": "3f81a2723deec5d5a137b66e0da4f12f", "is_disabled": 0, "rental_uris": {"android": "https://dc.lft.to/lastmile_qr_scan", "ios": "https://dc.lft.to/lastmile_qr_scan"}, "fusion_lon": 0.0, "lat": 38.88737666666667, "bike_id": "3f81a2723deec5d5a137b66e0da4f12f", "type": "electric_scooter", "is_reserved": 0, "lon": -77.01532316666666}, {"fusion_lat": 0.0, "name": "eeca71b6b237bc2b7477dcd4ff57a2d5", "is_disabled": 0, "rental_uris": {"android": "https://dc.lft.to/lastmile_qr_scan", "ios": "https://dc.lft.to/lastmile_qr_scan"}, "fusion_lon": 0.0, "lat": 38.88332, "bike_id": "eeca71b6b237bc2b7477dcd4ff57a2d5", "type": "electric_scooter", "is_reserved": 0, "lon": -77.01749616666666}, {"fusion_lat": 0.0, "name": "198f32bfea585c22ec5c6d370a2893e0", "is_disabled": 0, "rental_uris": {"android": "https://dc.lft.to/lastmile_qr_scan", "ios": "https://dc.lft.to/lastmile_qr_scan"}, "fusion_lon": 0.0, "lat": 38.9165575, "bike_id": "198f32bfea585c22ec5c6d370a2893e0", "type": "electric_scooter", "is_reserved": 0, "lon": -77.02802483333333}, {"fusion_lat": 0.0, "name": "7625df3ca2165fc04ed0b50e70e14897", "is_disabled": 0, "rental_uris": {"android": "https://dc.lft.to/lastmile_qr_scan", "ios": "https://dc.lft.to/lastmile_qr_scan"}, "fusion_lon": 0.0, "lat": 38.984723333333335, "bike_id": "7625df3ca2165fc04ed0b50e70e14897", "type": "electric_scooter", "is_reserved": 0, "lon": -77.0264795}, {"fusion_lat": 0.0, "name": "43c3e8e2a58c640d31428c98506b33f7", "is_disabled": 0, "rental_uris": {"android": "https://dc.lft.to/lastmile_qr_scan", "ios": "https://dc.lft.to/lastmile_qr_scan"}, "fusion_lon": 0.0, "lat": 38.958289666666666, "bike_id": "43c3e8e2a58c640d31428c98506b33f7", "type": "electric_bike", "is_reserved": 0, "lon": -77.01508616666666}, {"fusion_lat": 0.0, "name": "30c08cd35861cc338e3f5ebca3c970b7", "is_disabled": 0, "rental_uris": {"android": "https://dc.lft.to/lastmile_qr_scan", "ios": "https://dc.lft.to/lastmile_qr_scan"}, "fusion_lon": 0.0, "lat": 38.906837, "bike_id": "30c08cd35861cc338e3f5ebca3c970b7", "type": "electric_scooter", "is_reserved": 0, "lon": -77.04862416666667}, {"fusion_lat": 0.0, "name": "154b451a9022058a4380516e0fbb2cec", "is_disabled": 0, "rental_uris": {"android": "https://dc.lft.to/lastmile_qr_scan", "ios": "https://dc.lft.to/lastmile_qr_scan"}, "fusion_lon": 0.0, "lat": 38.91818966666666, "bike_id": "154b451a9022058a4380516e0fbb2cec", "type": "electric_scooter", "is_reserved": 0, "lon": -77.0026205}, {"fusion_lat": 0.0, "name": "ad285fc9349b8ea413de00f690b5dacc", "is_disabled": 0, "rental_uris": {"android": "https://dc.lft.to/lastmile_qr_scan", "ios": "https://dc.lft.to/lastmile_qr_scan"}, "fusion_lon": 0.0, "lat": 38.9259555, "bike_id": "ad285fc9349b8ea413de00f690b5dacc", "type": "electric_scooter", "is_reserved": 0, "lon": -77.025822}, {"fusion_lat": 0.0, "name": "7b86678710f8475ec5ce5db7f31a5f45", "is_disabled": 0, "rental_uris": {"android": "https://dc.lft.to/lastmile_qr_scan", "ios": "https://dc.lft.to/lastmile_qr_scan"}, "fusion_lon": 0.0, "lat": 38.887584833333335, "bike_id": "7b86678710f8475ec5ce5db7f31a5f45", "type": "electric_scooter", "is_reserved": 0, "lon": -76.99464066666667}, {"fusion_lat": 0.0, "name": "404ae3395b055cca1acb9eb14974d9be", "is_disabled": 0, "rental_uris": {"android": "https://dc.lft.to/lastmile_qr_scan", "ios": "https://dc.lft.to/lastmile_qr_scan"}, "fusion_lon": 0.0, "lat": 38.92368533333333, "bike_id": "404ae3395b055cca1acb9eb14974d9be", "type": "electric_scooter", "is_reserved": 0, "lon": -77.03243133333334},