{"data": {"bikes": [{"is_disabled": 0, "fusion_lon": 0.0, "fusion_lat": 0.0, "lat": 38.94074666666667, "type": "electric_scooter", "lon": -77.02875066666667, "bike_id": "b894ee753da86257485d1cc7597b962b", "rental_uris": {"android": "https://dc.lft.to/lastmile_qr_scan", "ios": "https://dc.lft.to/lastmile_qr_scan"}, "name": "b894ee753da86257485d1cc7597b962b", "is_reserved": 0}, {"is_disabled": 0, "fusion_lon": 0.0, "fusion_lat": 0.0, "lat": 38.914674, "type": "electric_scooter", "lon": -76.98445416666667, "bike_id": "a38d3c242cf3bee72ed793a72e3c68a8", "rental_uris": {"android": "https://dc.lft.to/lastmile_qr_scan", "ios": "https://dc.lft.to/lastmile_qr_scan"}, "name": "a38d3c242cf3bee72ed793a72e3c68a8", "is_reserved": 0}, {"is_disabled": 0, "fusion_lon": 0.0, "fusion_lat": 0.0, "lat": 38.895311666666665, "type": "electric_scooter", "lon": -77.04854316666666, "bike_id": "83741edb342cd065df33e5802eb42a43", "rental_uris": {"android": "https://dc.lft.to/lastmile_qr_scan", "ios": "https://dc.lft.to/lastmile_qr_scan"}, "name": "83741edb342cd065df33e5802eb42a43", "is_reserved": 0}, {"is_disabled": 0, "fusion_lon": 0.0, "fusion_lat": 0.0, "lat": 38.87762333333333, "type": "electric_bike", "lon": -76.97989816666667, "bike_id": "cf0cc6efb39adf1c2864b7d843ec7251", "rental_uris": {"android": "https://dc.lft.to/lastmile_qr_scan", "ios": "https://dc.lft.to/lastmile_qr_scan"}, "name": "cf0cc6efb39adf1c2864b7d843ec7251", "is_reserved": 0}, {"is_disabled": 0, "fusion_lon": 0.0, "fusion_lat": 0.0, "lat": 38.9210495, "type": "electric_scooter", "lon": -77.01771283333333, "bike_id": "02ef99538215214b231ad9f697e47d68", "rental_uris": {"android": "https://dc.lft.to/lastmile_qr_scan", "ios": "https://dc.lft.to/lastmile_qr_scan"}, "name": "02ef99538215214b231ad9f697e47d68", "is_reserved": 0}, {"is_disabled": 0, "fusion_lon": 0.0, "fusion_lat": 0.0, "lat": 38.92578233333333, "type": "electric_scooter", "lon": -77.08062816666667, "bike_id": "bc0af2b976a2e440664c81ec2248c10c", "rental_uris": {"android": "https://dc.lft.to/lastmile_qr_scan", "ios": "https://dc.lft.to/lastmile_qr_scan"}, "name": "bc0af2b976a2e440664c81ec2248c10c", "is_reserved": 0}, {"is_disabled": 0, "fusion_lon": 0.0, "fusion_lat": 0.0, "lat": 38.9229265, "type": "electric_scooter", "lon": -77.04465, "bike_id": "25f20710f1bb27c5ba22b25db39aa637", "rental_uris": {"android": "https://dc.lft.to/lastmile_qr_scan", "ios": "https://dc.lft.to/lastmile_qr_scan"}, "name": "25f20710f1bb27c5ba22b25db39aa637", "is_reserved": 0}, {"is_disabled": 0, "fusion_lon": 0.0, "fusion_lat": 0.0, "lat": 38.939639166666666, "type": "electric_bike", "lon": -77.36089316666667, "bike_id": "ac1fda175bb02b9d9791b27e10a25019", "rental_uris": {"android": "https://dc.lft.to/lastmile_qr_scan", "ios": "https://dc.lft.to/lastmile_qr_scan"}, "name": "ac1fda175bb02b9d9791b27e10a25019", "is_reserved": 0}, {"is_disabled": 0, "fusion_lon": 0.0, "fusion_lat": 0.0, "lat": 38.924663333333335, "type": "electric_scooter", "lon": -77.07865983333333, "bike_id": "6afca8b98058c6305f533ba3add57c5c", "rental_uris": {"android": "https://dc.lft.to/lastmile_qr_scan", "ios": "https://dc.lft.to/lastmile_qr_scan"}, "name": "6afca8b98058c6305f533ba3add57c5c", "is_reserved": 0}, {"is_disabled": 0, "fusion_lon": 0.0, "fusion_lat": 0.0, "lat": 38.905792166666664, "type": "electric_scooter", "lon": -77.055955, "bike_id": "c5f767eb5b118da816d6b94632626e9e", "rental_uris": {"android": "https://dc.lft.to/lastmile_qr_scan", "ios": "https://dc.lft.to/lastmile_qr_scan"}, "name": "c5f767eb5b118da816d6b94632626e9e", "is_reserved": 0}, {"is_disabled": 0, "fusion_lon": 0.0, "fusion_lat": 0.0, "lat": 38.853214333333334, "type": "electric_bike", "lon": -77.05330266666667, "bike_id": "b4d083c69a4659854796d7bf839a34a0", "rental_uris": {"android": "https://dc.lft.to/lastmile_qr_scan", "ios": "https://dc.lft.to/lastmile_qr_scan"}, "name": "b4d083c69a4659854796d7bf839a34a0", "is_reserved": 0}, {"is_disabled": 0, "fusion_lon": 0.0, "fusion_lat": 0.0, "lat": 38.90295483333333, "type": "electric_scooter", "lon": -77.048824, "bike_id": "9e4113518d22407523b8fa611635ef9d", "rental_uris": {"android": "https://dc.lft.to/lastmile_qr_scan", "ios": "https://dc.lft.to/lastmile_qr_scan"}, "name": "9e4113518d22407523b8fa611635ef9d", "is_reserved": 0}, {"is_disabled": 0, "fusion_lon": 0.0, "fusion_lat": 0.0, "lat": 38.93100183333333, "type": "electric_scooter", "lon": -77.02539616666667, "bike_id": "039f3fd2d7a2615b694645005e50557c", "rental_uris": {"android": "https://dc.lft.to/lastmile_qr_scan", "ios": "https://dc.lft.to/lastmile_qr_scan"}, "name": "039f3fd2d7a2615b694645005e50557c", "is_reserved": 0}, {"is_disabled": 0, "fusion_lon": 0.0, "fusion_lat": 0.0, "lat": 38.931188, "type": "electric_scooter", "lon": -77.07848083333333, "bike_id": "25cd81e994629707fe9632a45d8f7d08", "rental_uris": {"android": "https://dc.lft.to/lastmile_qr_scan", "ios": "https://dc.lft.to/lastmile_qr_scan"}, "name": "25cd81e994629707fe9632a45d8f7d08", "is_reserved": 0}, {"is_disabled": 0, "fusion_lon": 0.0, "fusion_lat": 0.0, "lat": 38.907288, "type": "electric_scooter", "lon": -77.0320245, "bike_id": "83f84cc0300042c006ee582280a3e8bb", "rental_uris": {"android": "https://dc.lft.to/lastmile_qr_scan", "ios": "https://dc.lft.to/lastmile_qr_scan"}, "name": "83f84cc0300042c006ee582280a3e8bb", "is_reserved": 0}, {"is_disabled": 0, "fusion_lon": 0.0, "fusion_lat": 0.0, "lat": 38.9321515, "type": "electric_scooter", "lon": -77.03658683333333, "bike_id": "4ef41bcab046f9bf4ee510a6a90528a4", "rental_uris": {"android": "https://dc.lft.to/lastmile_qr_scan", "ios": "https://dc.lft.to/lastmile_qr_scan"}, "name": "4ef41bcab046f9bf4ee510a6a90528a4", "is_reserved": 0}, {"is_disabled": 0, "fusion_lon": 0.0, "fusion_lat": 0.0, "lat": 38.905176, "type": "electric_scooter", "lon": -77.04892483333333, "bike_id": "1ab878ee511ec3cf8c75442df38204e8", "rental_uris": {"android": "https://dc.lft.to/lastmile_qr_scan", "ios": "https://dc.lft.to/lastmile_qr_scan"}, "name": "1ab878ee511ec3cf8c75442df38204e8", "is_reserved": 0}, {"is_disabled": 0, "fusion_lon": 0.0, "fusion_lat": 0.0, "lat": 38.87497883333333, "type": "electric_scooter", "lon": -76.99800133333333, "bike_id": "135e4f5148fbc852882403425ce22067", "rental_uris": {"android": "https://dc.lft.to/lastmile_qr_scan", "ios": "https://dc.lft.to/lastmile_qr_scan"}, "name": "135e4f5148fbc852882403425ce22067", "is_reserved": 0}, {"is_disabled": 0, "fusion_lon": 0.0, "fusion_lat": 0.0, "lat": 38.908730166666665, "type": "electric_scooter", "lon": -77.04433183333333, "bike_id": "7479ed8906292ee4cb83c309c24a8e4c", "rental_uris": {"android": "https://dc.lft.to/lastmile_qr_scan", "ios": "https://dc.lft.to/lastmile_qr_scan"}, "name": "7479ed8906292ee4cb83c309c24a8e4c", "is_reserved": 0}, {"is_disabled": 0, "fusion_lon": 0.0, "fusion_lat": 0.0, "lat": 38.92997283333333, "type": "electric_scooter", "lon": -77.02402083333334, "bike_id": "1fcbbad6b0870befb575830e9e0d391f", "rental_uris": {"android": "https://dc.lft.to/lastmile_qr_scan", "ios": "https://dc.lft.to/lastmile_qr_scan"}, "name": "1fcbbad6b0870befb575830e9e0d391f", "is_reserved": 0}, {"is_disabled": 0, "fusion_lon": 0.0, "fusion_lat": 0.0, "lat": 38.93001983333333, "type": "electric_scooter", "lon": -77.037973, "bike_id": "ed9361f4c882f64aa10bebc50e8d90b3", "rental_uris": {"android": "https://dc.lft.to/lastmile_qr_scan", "ios": "https://dc.lft.to/lastmile_qr_scan"}, "name": "ed9361f4c882f64aa10bebc50e8d90b3", "is_reserved": 0}, {"is_disabled": 0, "fusion_lon": 0.0, "fusion_lat": 0.0, "lat": 38.8949635, "type": "electric_scooter", "lon": -77.00949566666667, "bike_id": "c6a9803a3b692ed626154202435cae8d", "rental_uris": {"android": "https://dc.lft.to/lastmile_qr_scan", "ios": "https://dc.lft.to/lastmile_qr_scan"}, "name": "c6a9803a3b692ed626154202435cae8d", "is_reserved": 0}, {"is_disabled": 0, "fusion_lon": 0.0, "fusion_lat": 0.0, "lat": 38.93559616666667, "type": "electric_scooter", "lon": -77.0344285, "bike_id": "16cda82271391831b7969cef01869a34", "rental_uris": {"android": "https://dc.lft.to/lastmile_qr_scan", "ios": "https://dc.lft.to/lastmile_qr_scan"}, "name": "16cda82271391831b7969cef01869a34", "is_reserved": 0}, {"is_disabled": 0, "fusion_lon": 0.0, "fusion_lat": 0.0, "lat": 38.92118933333333, "type": "electric_scooter", "lon": -77.01207516666666, "bike_id": "ffe4fd5f1de26a7a9764c042ee699bed", "rental_uris": {"android": "https://dc.lft.to/lastmile_qr_scan", "ios": "https://dc.lft.to/lastmile_qr_scan"}, "name": "ffe4fd5f1de26a7a9764c042ee699bed", "is_reserved": 0}, {"is_disabled": 0, "fusion_lon": 0.0, "fusion_lat": 0.0, "lat": 38.850660833333336, "type": "electric_bike", "lon": -76.97331266666667, "bike_id": "b2cbd4276b565a9ce7adaeda19e3050c", "rental_uris": {"android": "https://dc.lft.to/lastmile_qr_scan", "ios": "https://dc.lft.to/lastmile_qr_scan"}, "name": "b2cbd4276b565a9ce7adaeda19e3050c", "is_reserved": 0}, {"is_disabled": 0, "fusion_lon": 0.0, "fusion_lat": 0.0, "lat": 38.919042833333336, "type": "electric_scooter", "lon": -77.0275735, "bike_id": "f44403ddd57a87a918d3b7e99fa68de8", "rental_uris": {"android": "https://dc.lft.to/lastmile_qr_scan", "ios": "https://dc.lft.to/lastmile_qr_scan"}, "name": "f44403ddd57a87a918d3b7e99fa68de8", "is_reserved": 0}, {"is_disabled": 0, "fusion_lon": 0.0, "fusion_lat": 0.0, "lat": 38.91799316666667, "type": "electric_scooter", "lon": -77.0354945, "bike_id": "be3fe9ca9cb4c5af64b4e736029f0dc1", "rental_uris": {"android": "https://dc.lft.to/lastmile_qr_scan", "ios": "https://dc.lft.to/lastmile_qr_scan"}, "name": "be3fe9ca9cb4c5af64b4e736029f0dc1", "is_reserved": 0}, {"is_disabled": 0, "fusion_lon": 0.0, "fusion_lat": 0.0, "lat": 38.92796883333333, "type": "electric_scooter", "lon": -77.02297833333333, "bike_id": "752d33ce1216c884a7b1ceee57836cda", "rental_uris": {"android": "https://dc.lft.to/lastmile_qr_scan", "ios": "https://dc.lft.to/lastmile_qr_scan"}, "name": "752d33ce1216c884a7b1ceee57836cda", "is_reserved": 0}, {"is_disabled": 0, "fusion_lon": 0.0, "fusion_lat": 0.0, "lat": 38.9050385, "type": "electric_scooter", "lon": -77.02947483333334, "bike_id": "a833a57dee7926e5c0d88b2ac9e9f657", "rental_uris": {"android": "https://dc.lft.to/lastmile_qr_scan", "ios": "https://dc.lft.to/lastmile_qr_scan"}, "name": "a833a57dee7926e5c0d88b2ac9e9f657", "is_reserved": 0}, {"is_disabled": 0, "fusion_lon": 0.0, "fusion_lat": 0.0, "lat": 38.90512016666667, "type": "electric_scooter", "lon": -77.0516105, "bike_id": "a7556ce79cfb05789f8c7655bcd3e5f1", "rental_uris": {"android": "https://dc.lft.to/lastmile_qr_scan", "ios": "https://dc.lft.to/lastmile_qr_scan"}, "name": "a7556ce79cfb05789f8c7655bcd3e5f1", "is_reserved": 0}, {"is_disabled": 0, "fusion_lon": 0.0, "fusion_lat": 0.0, "lat": 38.95628683333333, "type": "electric_scooter", "lon": -77.0297625, "bike_id": "70e175528c4ef173b547efba7c584c67", "rental_uris": {"android": "https://dc.lft.to/lastmile_qr_scan", "ios": "https://dc.lft.to/lastmile_qr_scan"}, "name": "70e175528c4ef173b547efba7c584c67", "is_reserved": 0}, {"is_disabled": 0, "fusion_lon": 0.0, "fusion_lat": 0.0, "lat": 38.8815565, "type": "electric_scooter", "lon": -77.008925, "bike_id": "06ccfe1d8fe1ee6ef6084cf8b5ef289e", "rental_uris": {"android": "https://dc.lft.to/lastmile_qr_scan", "ios": "https://dc.lft.to/lastmile_qr_scan"}, "name": "06ccfe1d8fe1ee6ef6084cf8b5ef289e", "is_reserved": 0}, {"is_disabled": 0, "fusion_lon": 0.0, "fusion_lat": 0.0, "lat": 38.85976766666667, "type": "electric_scooter", "lon": -76.98412966666666, "bike_id": "ab032b6f5bfde066c1958f0851580ec8", "rental_uris": {"android": "https://dc.lft.to/lastmile_qr_scan", "ios": "https://dc.lft.to/lastmile_qr_scan"}, "name": "ab032b6f5bfde066c1958f0851580ec8", "is_reserved": 0}, {"is_disabled": 0, "fusion_lon": 0.0, "fusion_lat": 0.0, "lat": 38.92736033333333, "type": "electric_bike", "lon": -76.9936765, "bike_id": "9d61904f197c1f7a48720aaff8c6ff36", "rental_uris": {"android": "https://dc.lft.to/lastmile_qr_scan", "ios": "https://dc.lft.to/lastmile_qr_scan"}, "name": "9d61904f197c1f7a48720aaff8c6ff36", "is_reserved": 0}, {"is_disabled": 0, "fusion_lon": 0.0, "fusion_lat": 0.0, "lat": 38.89007766666667, "type": "electric_scooter", "lon": -77.048962, "bike_id": "125a15869ded72f5ccb28f9a0f134e1f", "rental_uris": {"android": "https://dc.lft.to/lastmile_qr_scan", "ios": "https://dc.lft.to/lastmile_qr_scan"}, "name": "125a15869ded72f5ccb28f9a0f134e1f", "is_reserved": 0}, {"is_disabled": 0, "fusion_lon": 0.0, "fusion_lat": 0.0, "lat": 38.945767833333335, "type": "electric_bike", "lon": -76.98775316666666, "bike_id": "ae3b5b7345448067b078df8276f58dcf", "rental_uris": {"android": "https://dc.lft.to/lastmile_qr_scan", "ios": "https://dc.lft.to/lastmile_qr_scan"}, "name": "ae3b5b7345448067b078df8276f58dcf", "is_reserved": 0}, {"is_disabled": 0, "fusion_lon": 0.0, "fusion_lat": 0.0, "lat": 38.897564, "type": "electric_scooter", "lon": -77.0300465, "bike_id": "b026de0cf3baa80b2787e12f45ffe909", "rental_uris": {"android": "https://dc.lft.to/lastmile_qr_scan", "ios": "https://dc.lft.to/lastmile_qr_scan"}, "name": "b026de0cf3baa80b2787e12f45ffe909", "is_reserved": 0}, {"is_disabled": 0, "fusion_lon": 0.0, "fusion_lat": 0.0, "lat": 38.9363905, "type": "electric_bike", "lon": -76.954529, "bike_id": "6b3384f08de091cc48c410ef9252dfa6", "rental_uris": {"android": "https://dc.lft.to/lastmile_qr_scan", "ios": "https://dc.lft.to/lastmile_qr_scan"}, "name": "6b3384f08de091cc48c410ef9252dfa6", "is_reserved": 0}, {"is_disabled": 0, "fusion_lon": 0.0, "fusion_lat": 0.0, "lat": 38.91053383333333, "type": "electric_scooter", "lon": -77.05445533333334, "bike_id": "7cbbea6c91a52599a81556661173ff60", "rental_uris": {"android": "https://dc.lft.to/lastmile_qr_scan", "ios": "https://dc.lft.to/lastmile_qr_scan"}, "name": "7cbbea6c91a52599a81556661173ff60", "is_reserved": 0}, {"is_disabled": 0, "fusion_lon": 0.0, "fusion_lat": 0.0, "lat": 38.90470466666667, "type": "electric_scooter", "lon": -77.0357165, "bike_id": "c62dc864cc37c54a97669f0e6c372739", "rental_uris": {"android": "https://dc.lft.to/lastmile_qr_scan", "ios": "https://dc.lft.to/lastmile_qr_scan"}, "name": "c62dc864cc37c54a97669f0e6c372739", "is_reserved": 0}, {"is_disabled": 0, "fusion_lon": 0.0, "fusion_lat": 0.0, "lat": 38.962848666666666, "type": "electric_bike", "lon": -77.02873383333333, "bike_id": "0ff66e210188623651e1861ad6b5fbb8", "rental_uris": {"android": "https://dc.lft.to/lastmile_qr_scan", "ios": "https://dc.lft.to/lastmile_qr_scan"}, "name": "0ff66e210188623651e1861ad6b5fbb8", "is_reserved": 0}, {"is_disabled": 0, "fusion_lon": 0.0, "fusion_lat": 0.0, "lat": 38.934642833333335, "type": "electric_scooter", "lon": -77.03012633333333, "bike_id": "eeab07689baf35da77460d83e3450dd1", "rental_uris": {"android": "https://dc.lft.to/lastmile_qr_scan", "ios": "https://dc.lft.to/lastmile_qr_scan"}, "name": "eeab07689baf35da77460d83e3450dd1", "is_reserved": 0}, {"is_disabled": 0, "fusion_lon": 0.0, "fusion_lat": 0.0, "lat": 38.9016755, "type": "electric_scooter", "lon": -77.02503316666666, "bike_id": "70852f06b28130669950c56828784a5d", "rental_uris": {"android": "https://dc.lft.to/lastmile_qr_scan", "ios": "https://dc.lft.to/lastmile_qr_scan"}, "name": "70852f06b28130669950c56828784a5d", "is_reserved": 0}, {"is_disabled": 0, "fusion_lon": 0.0, "fusion_lat": 0.0, "lat": 38.82395666666667, "type": "electric_scooter", "lon": -77.00697783333334, "bike_id": "4cfa1e14ae3a37f13f428410ea657dfd", "rental_uris": {"android": "https://dc.lft.to/lastmile_qr_scan", "ios": "https://dc.lft.to/lastmile_qr_scan"}, "name": "4cfa1e14ae3a37f13f428410ea657dfd", "is_reserved": 0}, {"is_disabled": 0, "fusion_lon": 0.0, "fusion_lat": 0.0, "lat": 38.905739833333335, "type": "electric_scooter", "lon": -77.0220095, "bike_id": "867b3f558590766de72f8624a2f56f41", "rental_uris": {"android": "https://dc.lft.to/lastmile_qr_scan", "ios": "https://dc.lft.to/lastmile_qr_scan"}, "name": "867b3f558590766de72f8624a2f56f41", "is_reserved": 0}, {"is_disabled": 0, "fusion_lon": 0.0, "fusion_lat": 0.0, "lat": 38.921519333333336, "type": "electric_scooter", "lon": -77.03357516666667, "bike_id": "d735a4a96ad0eac9508134de1fd58cd6", "rental_uris": {"android": "https://dc.lft.to/lastmile_qr_scan", "ios": "https://dc.lft.to/lastmile_qr_scan"}, "name": "d735a4a96ad0eac9508134de1fd58cd6", "is_reserved": 0}, {"is_disabled": 0, "fusion_lon": 0.0, "fusion_lat": 0.0, "lat": 38.90034083333333, "type": "electric_scooter", "lon": -77.0020095, "bike_id": "8ce4fd6c3ad5b5256de4c445fcbe3da3", "rental_uris": {"android": "https://dc.lft.to/lastmile_qr_scan", "ios": "https://dc.lft.to/lastmile_qr_scan"}, "name": "8ce4fd6c3ad5b5256de4c445fcbe3da3", "is_reserved": 0}, {"is_disabled": 0, "fusion_lon": 0.0, "fusion_lat": 0.0, "lat": 38.884308, "type": "electric_scooter", "lon": -76.95416683333333, "bike_id": "ae3ed0360b8b937b18d8a05cb8740320", "rental_uris": {"android": "https://dc.lft.to/lastmile_qr_scan", "ios": "https://dc.lft.to/lastmile_qr_scan"}, "name": "ae3ed0360b8b937b18d8a05cb8740320", "is_reserved": 0}, {"is_disabled": 0, "fusion_lon": 0.0, "fusion_lat": 0.0, "lat": 38.89210283333333, "type": "electric_scooter", "lon": -76.98804783333334, "bike_id": "1474ce63385fa5718c0e0e6adbf14c31", "rental_uris": {"android": "https://dc.lft.to/lastmile_qr_scan", "ios": "https://dc.lft.to/lastmile_qr_scan"}, "name": "1474ce63385fa5718c0e0e6adbf14c31", "is_reserved": 0}, {"is_disabled": 0, "fusion_lon": 0.0, "fusion_lat": 0.0, "lat": 38.914782, "type": "electric_scooter", "lon": -77.03472816666667, "bike_id": "b845ce718fab6a253b2fe3030b98774b", "rental_uris": {"android": "https://dc.lft.to/lastmile_qr_scan", "ios": "https://dc.lft.to/lastmile_qr_scan"}, "name": "b845ce718fab6a253b2fe3030b98774b", "is_reserved": 0}, {"is_disabled": 0, "fusion_lon": 0.0, "fusion_lat": 0.0, "lat": 39.08843733333333, "type": "electric_bike", "lon": -77.178029, "bike_id": "993dc4024b21f28aa49f418a826e9bfc", "rental_uris": {"android": "https://dc.lft.to/lastmile_qr_scan", "ios": "https://dc.lft.to/lastmile_qr_scan"}, "name": "993dc4024b21f28aa49f418a826e9bfc", "is_reserved": 0}, {"is_disabled": 0, "fusion_lon": 0.0, "fusion_lat": 0.0, "lat": 38.9109815, "type": "electric_scooter", "lon": -77.06602433333333, "bike_id": "61644d411617af4da7f2dac4b686452f", "rental_uris": {"android": "https://dc.lft.to/lastmile_qr_scan", "ios": "https://dc.lft.to/lastmile_qr_scan"}, "name": "61644d411617af4da7f2dac4b686452f", "is_reserved": 0}, {"is_disabled": 0, "fusion_lon": 0.0, "fusion_lat": 0.0, "lat": 38.923678, "type": "electric_scooter", "lon": -77.0279925, "bike_id": "398d6d7bcc2434ab7d0fecd915140d41", "rental_uris": {"android": "https://dc.lft.to/lastmile_qr_scan", "ios": "https://dc.lft.to/lastmile_qr_scan"}, "name": "398d6d7bcc2434ab7d0fecd915140d41", "is_reserved": 0}, {"is_disabled": 0, "fusion_lon": 0.0, "fusion_lat": 0.0, "lat": 38.923844833333334, "type": "electric_scooter", "lon": -77.0313315, "bike_id": "330a6bff17e10430a8091d3129256435", "rental_uris": {"android": "https://dc.lft.to/lastmile_qr_scan", "ios": "https://dc.lft.to/lastmile_qr_scan"}, "name": "330a6bff17e10430a8091d3129256435", "is_reserved": 0}, {"is_disabled": 0, "fusion_lon": 0.0, "fusion_lat": 0.0, "lat": 38.91695933333333, "type": "electric_scooter", "lon": -77.03112466666667, "bike_id": "e98fc00ffb3ae25cc226b88bf2b5cbe1", "rental_uris": {"android": "https://dc.lft.to/lastmile_qr_scan", "ios": "https://dc.lft.to/lastmile_qr_scan"}, "name": "e98fc00ffb3ae25cc226b88bf2b5cbe1", "is_reserved": 0}, {"is_disabled": 0, "fusion_lon": 0.0, "fusion_lat": 0.0, "lat": 38.93209733333333, "type": "electric_scooter", "lon": -77.0366975, "bike_id": "c5c155dbef577e591c90a25a6b1a361e", "rental_uris": {"android": "https://dc.lft.to/lastmile_qr_scan", "ios": "https://dc.lft.to/lastmile_qr_scan"}, "name": "c5c155dbef577e591c90a25a6b1a361e", "is_reserved": 0}, {"is_disabled": 0, "fusion_lon": 0.0, "fusion_lat": 0.0, "lat": 38.9187555, "type": "electric_bike", "lon": -76.96128183333333, "bike_id": "8921492f9d570f2e821f1d27f023b7ac", "rental_uris": {"android": "https://dc.lft.to/lastmile_qr_scan", "ios": "https://dc.lft.to/lastmile_qr_scan"}, "name": "8921492f9d570f2e821f1d27f023b7ac", "is_reserved": 0}, {"is_disabled": 0, "fusion_lon": 0.0, "fusion_lat": 0.0, "lat": 38.89614616666667, "type": "electric_scooter", "lon": -76.9963845, "bike_id": "82ad6e1043bd666de0fa1d18f7a5be2b", "rental_uris": {"android": "https://dc.lft.to/lastmile_qr_scan", "ios": "https://dc.lft.to/lastmile_qr_scan"}, "name": "82ad6e1043bd666de0fa1d18f7a5be2b", "is_reserved": 0}, {"is_disabled": 0, "fusion_lon": 0.0, "fusion_lat": 0.0, "lat": 38.91279333333333, "type": "electric_scooter", "lon": -77.01399816666667, "bike_id": "411e5af6c1f307d6d7949085a022257b", "rental_uris": {"android": "https://dc.lft.to/lastmile_qr_scan", "ios": "https://dc.lft.to/lastmile_qr_scan"}, "name": "411e5af6c1f307d6d7949085a022257b", "is_reserved": 0}, {"is_disabled": 0, "fusion_lon": 0.0, "fusion_lat": 0.0, "lat": 38.918736333333335, "type": "electric_scooter", "lon": -77.04423116666666, "bike_id": "7ad612ac56928215300feca86748f334", "rental_uris": {"android": "https://dc.lft.to/lastmile_qr_scan", "ios": "https://dc.lft.to/lastmile_qr_scan"}, "name": "7ad612ac56928215300feca86748f334", "is_reserved": 0}, {"is_disabled": 0, "fusion_lon": 0.0, "fusion_lat": 0.0, "lat": 38.90805733333333, "type": "electric_scooter", "lon": -77.0339505, "bike_id": "61821e2ae1635306c4bd910ebeea74a0", "rental_uris": {"android": "https://dc.lft.to/lastmile_qr_scan", "ios": "https://dc.lft.to/lastmile_qr_scan"}, "name": "61821e2ae1635306c4bd910ebeea74a0", "is_reserved": 0}, {"is_disabled": 0, "fusion_lon": 0.0, "fusion_lat": 0.0, "lat": 38.94784966666667, "type": "electric_scooter", "lon": -77.0928, "bike_id": "531f217f890639de322f5432f3e6d8c0", "rental_uris": {"android": "https://dc.lft.to/lastmile_qr_scan", "ios": "https://dc.lft.to/lastmile_qr_scan"}, "name": "531f217f890639de322f5432f3e6d8c0", "is_reserved": 0}, {"is_disabled": 0, "fusion_lon": 0.0, "fusion_lat": 0.0, "lat": 38.90549766666667, "type": "electric_scooter", "lon": -77.04676866666667, "bike_id": "ea89e3ed511a6f7a113980c52a84eabb", "rental_uris": {"android": "https://dc.lft.to/lastmile_qr_scan", "ios": "https://dc.lft.to/lastmile_qr_scan"}, "name": "ea89e3ed511a6f7a113980c52a84eabb", "is_reserved": 0}, {"is_disabled": 0, "fusion_lon": 0.0, "fusion_lat": 0.0, "lat": 38.865768333333335, "type": "electric_scooter", "lon": -76.99039316666666, "bike_id": "4ea5e0dbe3e5a7c2c082ce0d8b1762a8", "rental_uris": {"android": "https://dc.lft.to/lastmile_qr_scan", "ios": "https://dc.lft.to/lastmile_qr_scan"}, "name": "4ea5e0dbe3e5a7c2c082ce0d8b1762a8", "is_reserved": 0}, {"is_disabled": 0, "fusion_lon": 0.0, "fusion_lat": 0.0, "lat": 38.920789166666665, "type": "electric_scooter", "lon": -77.01810783333333, "bike_id": "094f28c36eb991722652e1caf5f33ef8", "rental_uris": {"android": "https://dc.lft.to/lastmile_qr_scan", "ios": "https://dc.lft.to/lastmile_qr_scan"}, "name": "094f28c36eb991722652e1caf5f33ef8", "is_reserved": 0}, {"is_disabled": 0, "fusion_lon": 0.0, "fusion_lat": 0.0, "lat": 38.901792, "type": "electric_scooter", "lon": -76.9282535, "bike_id": "4b36c5fad81dd25299add40d8776ee13", "rental_uris": {"android": "https://dc.lft.to/lastmile_qr_scan", "ios": "https://dc.lft.to/lastmile_qr_scan"}, "name": "4b36c5fad81dd25299add40d8776ee13", "is_reserved": 0}, {"is_disabled": 0, "fusion_lon": 0.0, "fusion_lat": 0.0, "lat": 38.93110866666667, "type": "electric_scooter", "lon": -77.0348275, "bike_id": "6fa0f472666437fec0b7f83d37ee7940", "rental_uris": {"android": "https://dc.lft.to/lastmile_qr_scan", "ios": "https://dc.lft.to/lastmile_qr_scan"}, "name": "6fa0f472666437fec0b7f83d37ee7940", "is_reserved": 0}, {"is_disabled": 0, "fusion_lon": 0.0, "fusion_lat": 0.0, "lat": 38.88714133333333, "type": "electric_scooter", "lon": -77.0281905, "bike_id": "afc709b7ce8adb274559a8c6192eb52e", "rental_uris": {"android": "https://dc.lft.to/lastmile_qr_scan", "ios": "https://dc.lft.to/lastmile_qr_scan"}, "name": "afc709b7ce8adb274559a8c6192eb52e", "is_reserved": 0}, {"is_disabled": 0, "fusion_lon": 0.0, "fusion_lat": 0.0, "lat": 38.8804175, "type": "electric_scooter", "lon": -77.00373433333333, "bike_id": "bc456513ae03368f82cac21c9c36f772", "rental_uris": {"android": "https://dc.lft.to/lastmile_qr_scan", "ios": "https://dc.lft.to/lastmile_qr_scan"}, "name": "bc456513ae03368f82cac21c9c36f772", "is_reserved": 0}, {"is_disabled": 0, "fusion_lon": 0.0, "fusion_lat": 0.0, "lat": 38.949264666666664, "type": "electric_scooter", "lon": -77.02299216666667, "bike_id": "4136fc1359ca93bd9a5f7b93863e3385", "rental_uris": {"android": "https://dc.lft.to/lastmile_qr_scan", "ios": "https://dc.lft.to/lastmile_qr_scan"}, "name": "4136fc1359ca93bd9a5f7b93863e3385", "is_reserved": 0}, {"is_disabled": 0, "fusion_lon": 0.0, "fusion_lat": 0.0, "lat": 38.93073733333333, "type": "electric_scooter", "lon": -77.05820916666667, "bike_id": "0c06a0f707b12a9d09da36fabf792649", "rental_uris": {"android": "https://dc.lft.to/lastmile_qr_scan", "ios": "https://dc.lft.to/lastmile_qr_scan"}, "name": "0c06a0f707b12a9d09da36fabf792649", "is_reserved": 0}, {"is_disabled": 0, "fusion_lon": 0.0, "fusion_lat": 0.0, "lat": 38.899964, "type": "electric_scooter", "lon": -77.03979383333333, "bike_id": "15bc111c29c69a123359c479633972c8", "rental_uris": {"android": "https://dc.lft.to/lastmile_qr_scan", "ios": "https://dc.lft.to/lastmile_qr_scan"}, "name": "15bc111c29c69a123359c479633972c8", "is_reserved": 0}, {"is_disabled": 0, "fusion_lon": 0.0, "fusion_lat": 0.0, "lat": 38.90570433333333, "type": "electric_scooter", "lon": -77.04665166666666, "bike_id": "4ac199eea4298dbfffce94292431e044", "rental_uris": {"android": "https://dc.lft.to/lastmile_qr_scan", "ios": "https://dc.lft.to/lastmile_qr_scan"}, "name": "4ac199eea4298dbfffce94292431e044", "is_reserved": 0}, {"is_disabled": 0, "fusion_lon": 0.0, "fusion_lat": 0.0, "lat": 38.90666816666667, "type": "electric_scooter", "lon": -77.02711733333334, "bike_id": "ba6327d27962872e8d2ee2e0e197261d", "rental_uris": {"android": "https://dc.lft.to/lastmile_qr_scan", "ios": "https://dc.lft.to/lastmile_qr_scan"}, "name": "ba6327d27962872e8d2ee2e0e197261d", "is_reserved": 0}, {"is_disabled": 0, "fusion_lon": 0.0, "fusion_lat": 0.0, "lat": 38.920936833333336, "type": "electric_scooter", "lon": -77.02600266666667, "bike_id": "977ea47dc6bbb8b4862195fff0b07bed", "rental_uris": {"android": "https://dc.lft.to/lastmile_qr_scan", "ios": "https://dc.lft.to/lastmile_qr_scan"}, "name": "977ea47dc6bbb8b4862195fff0b07bed", "is_reserved": 0}, {"is_disabled": 0, "fusion_lon": 0.0, "fusion_lat": 0.0, "lat": 38.88449083333333, "type": "electric_scooter", "lon": -76.95094833333333, "bike_id": "ac0d1a21c1604c113fb1f73b542ee852", "rental_uris": {"android": "https://dc.lft.to/lastmile_qr_scan", "ios": "https://dc.lft.to/lastmile_qr_scan"}, "name": "ac0d1a21c1604c113fb1f73b542ee852", "is_reserved": 0}, {"is_disabled": 0, "fusion_lon": 0.0, "fusion_lat": 0.0, "lat": 38.89784066666667, "type": "electric_scooter", "lon": -77.0475075, "bike_id": "40adee0f29ab269abe2d0fe20861a835", "rental_uris": {"android": "https://dc.lft.to/lastmile_qr_scan", "ios": "https://dc.lft.to/lastmile_qr_scan"}, "name": "40adee0f29ab269abe2d0fe20861a835", "is_reserved": 0}, {"is_disabled": 0, "fusion_lon": 0.0, "fusion_lat": 0.0, "lat": 38.910305666666666, "type": "electric_scooter", "lon": -77.0425315, "bike_id": "c113658cd61ccac106b46741cb9632c2", "rental_uris": {"android": "https://dc.lft.to/lastmile_qr_scan", "ios": "https://dc.lft.to/lastmile_qr_scan"}, "name": "c113658cd61ccac106b46741cb9632c2", "is_reserved": 0}, {"is_disabled": 0, "fusion_lon": 0.0, "fusion_lat": 0.0, "lat": 38.923470333333334, "type": "electric_scooter", "lon": -77.03901416666666, "bike_id": "ca105b04ae83c510db6888f48f7d6f01", "rental_uris": {"android": "https://dc.lft.to/lastmile_qr_scan", "ios": "https://dc.lft.to/lastmile_qr_scan"}, "name": "ca105b04ae83c510db6888f48f7d6f01", "is_reserved": 0}, {"is_disabled": 0, "fusion_lon": 0.0, "fusion_lat": 0.0, "lat": 38.9341145, "type": "electric_scooter", "lon": -77.04271283333334, "bike_id": "f9a66d2eb9e3fdcbe4d03e217b584c50", "rental_uris": {"android": "https://dc.lft.to/lastmile_qr_scan", "ios": "https://dc.lft.to/lastmile_qr_scan"}, "name": "f9a66d2eb9e3fdcbe4d03e217b584c50", "is_reserved": 0}, {"is_disabled": 0, "fusion_lon": 0.0, "fusion_lat": 0.0, "lat": 38.920493666666665, "type": "electric_scooter", "lon": -77.0343985, "bike_id": "929836aee8cc418055239a9fc96ca996", "rental_uris": {"android": "https://dc.lft.to/lastmile_qr_scan", "ios": "https://dc.lft.to/lastmile_qr_scan"}, "name": "929836aee8cc418055239a9fc96ca996", "is_reserved": 0}, {"is_disabled": 0, "fusion_lon": 0.0, "fusion_lat": 0.0, "lat": 38.89579033333333, "type": "electric_bike", "lon": -76.97617083333333, "bike_id": "5cb4185ad8f331b87e21bde237168a72", "rental_uris": {"android": "https://dc.lft.to/lastmile_qr_scan", "ios": "https://dc.lft.to/lastmile_qr_scan"}, "name": "5cb4185ad8f331b87e21bde237168a72", "is_reserved": 0}, {"is_disabled": 0, "fusion_lon": 0.0, "fusion_lat": 0.0, "lat": 38.910053833333336, "type": "electric_scooter", "lon": -77.02094716666667, "bike_id": "def9459e1e0966dfd3927e17ff593b1f", "rental_uris": {"android": "https://dc.lft.to/lastmile_qr_scan", "ios": "https://dc.lft.to/lastmile_qr_scan"}, "name": "def9459e1e0966dfd3927e17ff593b1f", "is_reserved": 0}, {"is_disabled": 0, "fusion_lon": 0.0, "fusion_lat": 0.0, "lat": 38.9012865, "type": "electric_scooter", "lon": -77.01966116666667, "bike_id": "386d3e6d29ef30429df42e884d637903", "rental_uris": {"android": "https://dc.lft.to/lastmile_qr_scan", "ios": "https://dc.lft.to/lastmile_qr_scan"}, "name": "386d3e6d29ef30429df42e884d637903", "is_reserved": 0}, {"is_disabled": 0, "fusion_lon": 0.0, "fusion_lat": 0.0, "lat": 38.9355185, "type": "electric_scooter", "lon": -77.0220165, "bike_id": "ff2aaaa6d166b2bc36704fc0ced9e39c", "rental_uris": {"android": "https://dc.lft.to/lastmile_qr_scan", "ios": "https://dc.lft.to/lastmile_qr_scan"}, "name": "ff2aaaa6d166b2bc36704fc0ced9e39c", "is_reserved": 0}, {"is_disabled": 0, "fusion_lon": 0.0, "fusion_lat": 0.0, "lat": 38.93498816666666, "type": "electric_scooter", "lon": -77.0343605, "bike_id": "7355754273691ed4c1ba765aa3f273ca", "rental_uris": {"android": "https://dc.lft.to/lastmile_qr_scan", "ios": "https://dc.lft.to/lastmile_qr_scan"}, "name": "7355754273691ed4c1ba765aa3f273ca", "is_reserved": 0}, {"is_disabled": 0, "fusion_lon": 0.0, "fusion_lat": 0.0, "lat": 38.92461866666667, "type": "electric_scooter", "lon": -77.02964233333333, "bike_id": "10f6fe0eda585a4f14a01a172b929c26", "rental_uris": {"android": "https://dc.lft.to/lastmile_qr_scan", "ios": "https://dc.lft.to/lastmile_qr_scan"}, "name": "10f6fe0eda585a4f14a01a172b929c26", "is_reserved": 0}, {"is_disabled": 0, "fusion_lon": 0.0, "fusion_lat": 0.0, "lat": 38.9198665, "type": "electric_bike", "lon": -76.97313283333334, "bike_id": "f0a97ab10b053bb05f47da6d15cd1106", "rental_uris": {"android": "https://dc.lft.to/lastmile_qr_scan", "ios": "https://dc.lft.to/lastmile_qr_scan"}, "name": "f0a97ab10b053bb05f47da6d15cd1106", "is_reserved": 0}, {"is_disabled": 0, "fusion_lon": 0.0, "fusion_lat": 0.0, "lat": 38.9784245, "type": "electric_bike", "lon": -77.091209, "bike_id": "1259e4eda3f2248eda4de3d5b98c18e1", "rental_uris": {"android": "https://dc.lft.to/lastmile_qr_scan", "ios": "https://dc.lft.to/lastmile_qr_scan"}, "name": "1259e4eda3f2248eda4de3d5b98c18e1", "is_reserved": 0}, {"is_disabled": 0, "fusion_lon": 0.0, "fusion_lat": 0.0, "lat": 38.90409233333333, "type": "electric_scooter", "lon": -77.03252933333333, "bike_id": "a88620dbdb3049e293cea8ccdd7c6aa7", "rental_uris": {"android": "https://dc.lft.to/lastmile_qr_scan", "ios": "https://dc.lft.to/lastmile_qr_scan"}, "name": "a88620dbdb3049e293cea8ccdd7c6aa7", "is_reserved": 0}, {"is_disabled": 0, "fusion_lon": 0.0, "fusion_lat": 0.0, "lat": 38.897368, "type": "electric_scooter", "lon": -77.02157666666666, "bike_id": "e1a0973acd164ed844e6c19c3b92ad3d", "rental_uris": {"android": "https://dc.lft.to/lastmile_qr_scan", "ios": "https://dc.lft.to/lastmile_qr_scan"}, "name": "e1a0973acd164ed844e6c19c3b92ad3d", "is_reserved": 0}, {"is_disabled": 0, "fusion_lon": 0.0, "fusion_lat": 0.0, "lat": 38.89636566666667, "type": "electric_scooter", "lon": -77.00889166666667, "bike_id": "8eba700e31d3328ef8fd02941061feae", "rental_uris": {"android": "https://dc.lft.to/lastmile_qr_scan", "ios": "https://dc.lft.to/lastmile_qr_scan"}, "name": "8eba700e31d3328ef8fd02941061feae", "is_reserved": 0}, {"is_disabled": 0, "fusion_lon": 0.0, "fusion_lat": 0.0, "lat": 38.915957, "type": "electric_bike", "lon": -76.97151283333334, "bike_id": "3d74905941f66fe87eae3e436d1a0781", "rental_uris": {"android": "https://dc.lft.to/lastmile_qr_scan", "ios": "https://dc.lft.to/lastmile_qr_scan"}, "name": "3d74905941f66fe87eae3e436d1a0781", "is_reserved": 0}, {"is_disabled": 0, "fusion_lon": 0.0, "fusion_lat": 0.0, "lat": 38.933798833333334, "type": "electric_scooter", "lon": -77.07251583333333, "bike_id": "86d421a33af71922b1e0cb062f64b064", "rental_uris": {"android": "https://dc.lft.to/lastmile_qr_scan", "ios": "https://dc.lft.to/lastmile_qr_scan"}, "name": "86d421a33af71922b1e0cb062f64b064", "is_reserved": 0}, {"is_disabled": 0, "fusion_lon": 0.0, "fusion_lat": 0.0, "lat": 38.92294066666667, "type": "electric_bike", "lon": -76.9976685, "bike_id": "e26d2faeb4001152ce1e0386dc286509", "rental_uris": {"android": "https://dc.lft.to/lastmile_qr_scan", "ios": "https://dc.lft.to/lastmile_qr_scan"}, "name": "e26d2faeb4001152ce1e0386dc286509", "is_reserved": 0}, {"is_disabled": 0, "fusion_lon": 0.0, "fusion_lat": 0.0, "lat": 38.91760416666666, "type": "electric_scooter", "lon": -77.03588633333334, "bike_id": "100de0dfb7cdd3e561978e889b567c38", "rental_uris": {"android": "https://dc.lft.to/lastmile_qr_scan", "ios": "https://dc.lft.to/lastmile_qr_scan"}, "name": "100de0dfb7cdd3e561978e889b567c38", "is_reserved": 0}, {"is_disabled": 0, "fusion_lon": 0.0, "fusion_lat": 0.0, "lat": 38.9185845, "type": "electric_scooter", "lon": -77.0321765, "bike_id": "420486fddb62f529303ef80e8ba6e6b7", "rental_uris": {"android": "https://dc.lft.to/lastmile_qr_scan", "ios": "https://dc.lft.to/lastmile_qr_scan"}, "name": "420486fddb62f529303ef80e8ba6e6b7", "is_reserved": 0}, {"is_disabled": 0, "fusion_lon": 0.0, "fusion_lat": 0.0, "lat": 38.93585, "type": "electric_bike", "lon": -77.08252216666666, "bike_id": "110d8a06b2b7955f5155dcd839becaa4", "rental_uris": {"android": "https://dc.lft.to/lastmile_qr_scan", "ios": "https://dc.lft.to/lastmile_qr_scan"}, "name": "110d8a06b2b7955f5155dcd839becaa4", "is_reserved": 0}, {"is_disabled": 0, "fusion_lon": 0.0, "fusion_lat": 0.0, "lat": 38.975394, "type": "electric_bike", "lon": -76.99531516666667, "bike_id": "f29d00813281b98280713f5b6b9b25d0", "rental_uris": {"android": "https://dc.lft.to/lastmile_qr_scan", "ios": "https://dc.lft.to/lastmile_qr_scan"}, "name": "f29d00813281b98280713f5b6b9b25d0", "is_reserved": 0}, {"is_disabled": 0, "fusion_lon": 0.0, "fusion_lat": 0.0, "lat": 38.869014, "type": "electric_bike", "lon": -77.13179483333333, "bike_id": "7e31cf727b377a8f003022e4efca7e46", "rental_uris": {"android": "https://dc.lft.to/lastmile_qr_scan", "ios": "https://dc.lft.to/lastmile_qr_scan"}, "name": "7e31cf727b377a8f003022e4efca7e46", "is_reserved": 0}, {"is_disabled": 0, "fusion_lon": 0.0, "fusion_lat": 0.0, "lat": 38.90840433333334, "type": "electric_scooter", "lon": -77.02696416666667, "bike_id": "69c6ca8a3550d28c3d5d8f20cb0e2c80", "rental_uris": {"android": "https://dc.lft.to/lastmile_qr_scan", "ios": "https://dc.lft.to/lastmile_qr_scan"}, "name": "69c6ca8a3550d28c3d5d8f20cb0e2c80", "is_reserved": 0}, {"is_disabled": 0, "fusion_lon": 0.0, "fusion_lat": 0.0, "lat": 38.922876333333335, "type": "electric_scooter", "lon": -77.042314, "bike_id": "8e7b627082cb70472ce8721fc547bc3d", "rental_uris": {"android": "https://dc.lft.to/lastmile_qr_scan", "ios": "https://dc.lft.to/lastmile_qr_scan"}, "name": "8e7b627082cb70472ce8721fc547bc3d", "is_reserved": 0}, {"is_disabled": 0, "fusion_lon": 0.0, "fusion_lat": 0.0, "lat": 38.91108116666667, "type": "electric_scooter", "lon": -77.003385, "bike_id": "5e007791d56ad78e9b0af917b406c50d", "rental_uris": {"android": "https://dc.lft.to/lastmile_qr_scan", "ios": "https://dc.lft.to/lastmile_qr_scan"}, "name": "5e007791d56ad78e9b0af917b406c50d", "is_reserved": 0}, {"is_disabled": 0, "fusion_lon": 0.0, "fusion_lat": 0.0, "lat": 38.91270983333333, "type": "electric_scooter", "lon": -77.02219333333333, "bike_id": "6e05ce9ec4a5ce0a1148395b930ab7b9", "rental_uris": {"android": "https://dc.lft.to/lastmile_qr_scan", "ios": "https://dc.lft.to/lastmile_qr_scan"}, "name": "6e05ce9ec4a5ce0a1148395b930ab7b9", "is_reserved": 0}, {"is_disabled": 0, "fusion_lon": 0.0, "fusion_lat": 0.0, "lat": 38.90032383333333, "type": "electric_scooter", "lon": -77.00200066666666, "bike_id": "14f5791f8eba325fb983c778c6d7cf41", "rental_uris": {"android": "https://dc.lft.to/lastmile_qr_scan", "ios": "https://dc.lft.to/lastmile_qr_scan"}, "name": "14f5791f8eba325fb983c778c6d7cf41", "is_reserved": 0}, {"is_disabled": 0, "fusion_lon": 0.0, "fusion_lat": 0.0, "lat": 38.92998716666666, "type": "electric_scooter", "lon": -77.02207733333333, "bike_id": "ec6cebcd42b70ae2897d90f831df9ae1", "rental_uris": {"android": "https://dc.lft.to/lastmile_qr_scan", "ios": "https://dc.lft.to/lastmile_qr_scan"}, "name": "ec6cebcd42b70ae2897d90f831df9ae1", "is_reserved": 0}, {"is_disabled": 0, "fusion_lon": 0.0, "fusion_lat": 0.0, "lat": 38.921599666666665, "type": "electric_scooter", "lon": -77.03391016666667, "bike_id": "9a87e85448a0435d972f89c29f8b8cf1", "rental_uris": {"android": "https://dc.lft.to/lastmile_qr_scan", "ios": "https://dc.lft.to/lastmile_qr_scan"}, "name": "9a87e85448a0435d972f89c29f8b8cf1", "is_reserved": 0}, {"is_disabled": 0, "fusion_lon": 0.0, "fusion_lat": 0.0, "lat": 39.02686283333333, "type": "electric_bike", "lon": -77.12596983333333, "bike_id": "2403607b39415d41254bedafa0fe3483", "rental_uris": {"android": "https://dc.lft.to/lastmile_qr_scan", "ios": "https://dc.lft.to/lastmile_qr_scan"}, "name": "2403607b39415d41254bedafa0fe3483", "is_reserved": 0}, {"is_disabled": 0, "fusion_lon": 0.0, "fusion_lat": 0.0, "lat": 38.903971166666665, "type": "electric_scooter", "lon": -77.04866733333333, "bike_id": "8a2510dafbf67042aa1aadf1019197e1", "rental_uris": {"android": "https://dc.lft.to/lastmile_qr_scan", "ios": "https://dc.lft.to/lastmile_qr_scan"}, "name": "8a2510dafbf67042aa1aadf1019197e1", "is_reserved": 0}, {"is_disabled": 0, "fusion_lon": 0.0, "fusion_lat": 0.0, "lat": 38.8898055, "type": "electric_scooter", "lon": -77.00252766666667, "bike_id": "6a9addf323a3628a366316aed5d1e163", "rental_uris": {"android": "https://dc.lft.to/lastmile_qr_scan", "ios": "https://dc.lft.to/lastmile_qr_scan"}, "name": "6a9addf323a3628a366316aed5d1e163", "is_reserved": 0}, {"is_disabled": 0, "fusion_lon": 0.0, "fusion_lat": 0.0, "lat": 38.906363666666664, "type": "electric_scooter", "lon": -76.98570383333333, "bike_id": "4806e6eb7f63632a0e34d97bacaacabe", "rental_uris": {"android": "https://dc.lft.to/lastmile_qr_scan", "ios": "https://dc.lft.to/lastmile_qr_scan"}, "name": "4806e6eb7f63632a0e34d97bacaacabe", "is_reserved": 0}, {"is_disabled": 0, "fusion_lon": 0.0, "fusion_lat": 0.0, "lat": 38.90139933333333, "type": "electric_scooter", "lon": -76.98965533333333, "bike_id": "9d137bbeb956091e66dbdfbf9a9e1013", "rental_uris": {"android": "https://dc.lft.to/lastmile_qr_scan", "ios": "https://dc.lft.to/lastmile_qr_scan"}, "name": "9d137bbeb956091e66dbdfbf9a9e1013", "is_reserved": 0}, {"is_disabled": 0, "fusion_lon": 0.0, "fusion_lat": 0.0, "lat": 38.92346466666667, "type": "electric_scooter", "lon": -77.035111, "bike_id": "3809810d545901dc412a7579b9e891ff", "rental_uris": {"android": "https://dc.lft.to/lastmile_qr_scan", "ios": "https://dc.lft.to/lastmile_qr_scan"}, "name": "3809810d545901dc412a7579b9e891ff", "is_reserved": 0}, {"is_disabled": 0, "fusion_lon": 0.0, "fusion_lat": 0.0, "lat": 38.917193833333336, "type": "electric_scooter", "lon": -77.09805966666667, "bike_id": "b42d48a3d89c2d182d442fa5f883ef12", "rental_uris": {"android": "https://dc.lft.to/lastmile_qr_scan", "ios": "https://dc.lft.to/lastmile_qr_scan"}, "name": "b42d48a3d89c2d182d442fa5f883ef12", "is_reserved": 0}, {"is_disabled": 0, "fusion_lon": 0.0, "fusion_lat": 0.0, "lat": 38.914137, "type": "electric_scooter", "lon": -77.04285833333333, "bike_id": "1accc8fc92dc33a399449348b9547eb2", "rental_uris": {"android": "https://dc.lft.to/lastmile_qr_scan", "ios": "https://dc.lft.to/lastmile_qr_scan"}, "name": "1accc8fc92dc33a399449348b9547eb2", "is_reserved": 0}, {"is_disabled": 0, "fusion_lon": 0.0, "fusion_lat": 0.0, "lat": 38.90871516666667, "type": "electric_scooter", "lon": -77.0355245, "bike_id": "867d23a798730eee2efe2457205e3a57", "rental_uris": {"android": "https://dc.lft.to/lastmile_qr_scan", "ios": "https://dc.lft.to/lastmile_qr_scan"}, "name": "867d23a798730eee2efe2457205e3a57", "is_reserved": 0}, {"is_disabled": 0, "fusion_lon": 0.0, "fusion_lat": 0.0, "lat": 38.876221, "type": "electric_scooter", "lon": -76.9652885, "bike_id": "6b28286fded63d8d058b90ff0987ec63", "rental_uris": {"android": "https://dc.lft.to/lastmile_qr_scan", "ios": "https://dc.lft.to/lastmile_qr_scan"}, "name": "6b28286fded63d8d058b90ff0987ec63", "is_reserved": 0}, {"is_disabled": 0, "fusion_lon": 0.0, "fusion_lat": 0.0, "lat": 38.85209433333333, "type": "electric_bike", "lon": -77.1013125, "bike_id": "a959e19d435988d076e3af8dbe860820", "rental_uris": {"android": "https://dc.lft.to/lastmile_qr_scan", "ios": "https://dc.lft.to/lastmile_qr_scan"}, "name": "a959e19d435988d076e3af8dbe860820", "is_reserved": 0}, {"is_disabled": 0, "fusion_lon": 0.0, "fusion_lat": 0.0, "lat": 38.920046666666664, "type": "electric_scooter", "lon": -76.98492716666667, "bike_id": "3707ebc32fb994a26e0eb1ab791d3b1b", "rental_uris": {"android": "https://dc.lft.to/lastmile_qr_scan", "ios": "https://dc.lft.to/lastmile_qr_scan"}, "name": "3707ebc32fb994a26e0eb1ab791d3b1b", "is_reserved": 0}, {"is_disabled": 0, "fusion_lon": 0.0, "fusion_lat": 0.0, "lat": 38.9169665, "type": "electric_scooter", "lon": -77.02990016666666, "bike_id": "8888e715be7e926cd0ee96176a5e56e6", "rental_uris": {"android": "https://dc.lft.to/lastmile_qr_scan", "ios": "https://dc.lft.to/lastmile_qr_scan"}, "name": "8888e715be7e926cd0ee96176a5e56e6", "is_reserved": 0}, {"is_disabled": 0, "fusion_lon": 0.0, "fusion_lat": 0.0, "lat": 38.91917133333333, "type": "electric_scooter", "lon": -77.04814366666666, "bike_id": "c7d17c028e8a608edba460f591548ebb", "rental_uris": {"android": "https://dc.lft.to/lastmile_qr_scan", "ios": "https://dc.lft.to/lastmile_qr_scan"}, "name": "c7d17c028e8a608edba460f591548ebb", "is_reserved": 0}, {"is_disabled": 0, "fusion_lon": 0.0, "fusion_lat": 0.0, "lat": 38.9182595, "type": "electric_scooter", "lon": -77.04533583333334, "bike_id": "a3a5739f82c80f6f01dd11ab7b3ca0d3", "rental_uris": {"android": "https://dc.lft.to/lastmile_qr_scan", "ios": "https://dc.lft.to/lastmile_qr_scan"}, "name": "a3a5739f82c80f6f01dd11ab7b3ca0d3", "is_reserved": 0}, {"is_disabled": 0, "fusion_lon": 0.0, "fusion_lat": 0.0, "lat": 38.906043833333335, "type": "electric_scooter", "lon": -77.04691533333333, "bike_id": "57f67e1e4b293f9c082eda6185852ff5", "rental_uris": {"android": "https://dc.lft.to/lastmile_qr_scan", "ios": "https://dc.lft.to/lastmile_qr_scan"}, "name": "57f67e1e4b293f9c082eda6185852ff5", "is_reserved": 0}, {"is_disabled": 0, "fusion_lon": 0.0, "fusion_lat": 0.0, "lat": 38.899651166666665, "type": "electric_scooter", "lon": -77.016076, "bike_id": "4d70cf333e102a3cbf43bec6172dc53b", "rental_uris": {"android": "https://dc.lft.to/lastmile_qr_scan", "ios": "https://dc.lft.to/lastmile_qr_scan"}, "name": "4d70cf333e102a3cbf43bec6172dc53b", "is_reserved": 0}, {"is_disabled": 0, "fusion_lon": 0.0, "fusion_lat": 0.0, "lat": 38.936636, "type": "electric_scooter", "lon": -77.036347, "bike_id": "a8706ad16deb926d28c1277c52060041", "rental_uris": {"android": "https://dc.lft.to/lastmile_qr_scan", "ios": "https://dc.lft.to/lastmile_qr_scan"}, "name": "a8706ad16deb926d28c1277c52060041", "is_reserved": 0}, {"is_disabled": 0, "fusion_lon": 0.0, "fusion_lat": 0.0, "lat": 38.916963833333334, "type": "electric_scooter", "lon": -77.034724, "bike_id": "dccd62350c86731dce4e3f84304c7aad", "rental_uris": {"android": "https://dc.lft.to/lastmile_qr_scan", "ios": "https://dc.lft.to/lastmile_qr_scan"}, "name": "dccd62350c86731dce4e3f84304c7aad", "is_reserved": 0}, {"is_disabled": 0, "fusion_lon": 0.0, "fusion_lat": 0.0, "lat": 38.89736716666667, "type": "electric_scooter", "lon": -77.046776, "bike_id": "1bda13d4c98157fb1f8d283265846740", "rental_uris": {"android": "https://dc.lft.to/lastmile_qr_scan", "ios": "https://dc.lft.to/lastmile_qr_scan"}, "name": "1bda13d4c98157fb1f8d283265846740", "is_reserved": 0}, {"is_disabled": 0, "fusion_lon": 0.0, "fusion_lat": 0.0, "lat": 38.831221166666666, "type": "electric_bike", "lon": -77.04328183333334, "bike_id": "43767099debec86b85cce50851d8d9e7", "rental_uris": {"android": "https://dc.lft.to/lastmile_qr_scan", "ios": "https://dc.lft.to/lastmile_qr_scan"}, "name": "43767099debec86b85cce50851d8d9e7", "is_reserved": 0}, {"is_disabled": 0, "fusion_lon": 0.0, "fusion_lat": 0.0, "lat": 38.917875333333335, "type": "electric_scooter", "lon": -77.04359016666666, "bike_id": "abe5bc388de9689b790e078f9ed47bfc", "rental_uris": {"android": "https://dc.lft.to/lastmile_qr_scan", "ios": "https://dc.lft.to/lastmile_qr_scan"}, "name": "abe5bc388de9689b790e078f9ed47bfc", "is_reserved": 0}, {"is_disabled": 0, "fusion_lon": 0.0, "fusion_lat": 0.0, "lat": 38.9489355, "type": "electric_bike", "lon": -76.96379016666667, "bike_id": "a04dc3aa52cc4ff40f4491f17bf0b5bd", "rental_uris": {"android": "https://dc.lft.to/lastmile_qr_scan", "ios": "https://dc.lft.to/lastmile_qr_scan"}, "name": "a04dc3aa52cc4ff40f4491f17bf0b5bd", "is_reserved": 0}, {"is_disabled": 0, "fusion_lon": 0.0, "fusion_lat": 0.0, "lat": 38.888402, "type": "electric_scooter", "lon": -76.91776716666666, "bike_id": "82639a90fdd91cd35f3b9530a5549376", "rental_uris": {"android": "https://dc.lft.to/lastmile_qr_scan", "ios": "https://dc.lft.to/lastmile_qr_scan"}, "name": "82639a90fdd91cd35f3b9530a5549376", "is_reserved": 0}, {"is_disabled": 0, "fusion_lon": 0.0, "fusion_lat": 0.0, "lat": 38.9392965, "type": "electric_bike", "lon": -76.99516983333334, "bike_id": "a8d05ad36cca68edde2ecb0fdca13292", "rental_uris": {"android": "https://dc.lft.to/lastmile_qr_scan", "ios": "https://dc.lft.to/lastmile_qr_scan"}, "name": "a8d05ad36cca68edde2ecb0fdca13292", "is_reserved": 0}, {"is_disabled": 0, "fusion_lon": 0.0, "fusion_lat": 0.0, "lat": 38.918219666666666, "type": "electric_scooter", "lon": -77.01211366666666, "bike_id": "85de1e02baabd914a59e037ea5c90ac4", "rental_uris": {"android": "https://dc.lft.to/lastmile_qr_scan", "ios": "https://dc.lft.to/lastmile_qr_scan"}, "name": "85de1e02baabd914a59e037ea5c90ac4", "is_reserved": 0}, {"is_disabled": 0, "fusion_lon": 0.0, "fusion_lat": 0.0, "lat": 38.93232483333333, "type": "electric_scooter", "lon": -76.99934783333333, "bike_id": "d2fb751c266a0f9a1579178f2d19f9c2", "rental_uris": {"android": "https://dc.lft.to/lastmile_qr_scan", "ios": "https://dc.lft.to/lastmile_qr_scan"}, "name": "d2fb751c266a0f9a1579178f2d19f9c2", "is_reserved": 0}, {"is_disabled": 0, "fusion_lon": 0.0, "fusion_lat": 0.0, "lat": 38.94496633333333, "type": "electric_bike", "lon": -76.9866365, "bike_id": "8ffb95df5914331a1982ac2da49aa6b0", "rental_uris": {"android": "https://dc.lft.to/lastmile_qr_scan", "ios": "https://dc.lft.to/lastmile_qr_scan"}, "name": "8ffb95df5914331a1982ac2da49aa6b0", "is_reserved": 0}, {"is_disabled": 0, "fusion_lon": 0.0, "fusion_lat": 0.0, "lat": 38.930539333333336, "type": "electric_scooter", "lon": -77.028027, "bike_id": "c364abdc9546f82007752ab0628bfbd7", "rental_uris": {"android": "https://dc.lft.to/lastmile_qr_scan", "ios": "https://dc.lft.to/lastmile_qr_scan"}, "name": "c364abdc9546f82007752ab0628bfbd7", "is_reserved": 0}, {"is_disabled": 0, "fusion_lon": 0.0, "fusion_lat": 0.0, "lat": 38.93547366666667, "type": "electric_scooter", "lon": -77.05806766666667, "bike_id": "2cbdf40528b30286b00d329531fcb61a", "rental_uris": {"android": "https://dc.lft.to/lastmile_qr_scan", "ios": "https://dc.lft.to/lastmile_qr_scan"}, "name": "2cbdf40528b30286b00d329531fcb61a", "is_reserved": 0}, {"is_disabled": 0, "fusion_lon": 0.0, "fusion_lat": 0.0, "lat": 38.88579283333333, "type": "electric_scooter", "lon": -76.91910633333333, "bike_id": "bf9214a9196dfe437868f5fdea9b8d25", "rental_uris": {"android": "https://dc.lft.to/lastmile_qr_scan", "ios": "https://dc.lft.to/lastmile_qr_scan"}, "name": "bf9214a9196dfe437868f5fdea9b8d25", "is_reserved": 0}, {"is_disabled": 0, "fusion_lon": 0.0, "fusion_lat": 0.0, "lat": 38.9178145, "type": "electric_scooter", "lon": -77.04300366666666, "bike_id": "abc91b81d37261f37f286eba1256ec0c", "rental_uris": {"android": "https://dc.lft.to/lastmile_qr_scan", "ios": "https://dc.lft.to/lastmile_qr_scan"}, "name": "abc91b81d37261f37f286eba1256ec0c", "is_reserved": 0}, {"is_disabled": 0, "fusion_lon": 0.0, "fusion_lat": 0.0, "lat": 38.914028, "type": "electric_scooter", "lon": -77.00337566666667, "bike_id": "ba0bb9d0ece3356e19f835470430656f", "rental_uris": {"android": "https://dc.lft.to/lastmile_qr_scan", "ios": "https://dc.lft.to/lastmile_qr_scan"}, "name": "ba0bb9d0ece3356e19f835470430656f", "is_reserved": 0}, {"is_disabled": 0, "fusion_lon": 0.0, "fusion_lat": 0.0, "lat": 38.9084205, "type": "electric_scooter", "lon": -77.02690633333333, "bike_id": "59dd5e8a7fc9b5280c60bac2418065f3", "rental_uris": {"android": "https://dc.lft.to/lastmile_qr_scan", "ios": "https://dc.lft.to/lastmile_qr_scan"}, "name": "59dd5e8a7fc9b5280c60bac2418065f3", "is_reserved": 0}, {"is_disabled": 0, "fusion_lon": 0.0, "fusion_lat": 0.0, "lat": 38.889674, "type": "electric_bike", "lon": -76.94864533333333, "bike_id": "3b0a48eff565b6d1def71cac0a3dc2b9", "rental_uris": {"android": "https://dc.lft.to/lastmile_qr_scan", "ios": "https://dc.lft.to/lastmile_qr_scan"}, "name": "3b0a48eff565b6d1def71cac0a3dc2b9", "is_reserved": 0}, {"is_disabled": 0, "fusion_lon": 0.0, "fusion_lat": 0.0, "lat": 38.907362166666665, "type": "electric_scooter", "lon": -77.03448983333334, "bike_id": "1c1edad36046cfd88bf0c1f620aeb665", "rental_uris": {"android": "https://dc.lft.to/lastmile_qr_scan", "ios": "https://dc.lft.to/lastmile_qr_scan"}, "name": "1c1edad36046cfd88bf0c1f620aeb665", "is_reserved": 0}, {"is_disabled": 0, "fusion_lon": 0.0, "fusion_lat": 0.0, "lat": 38.908339833333336, "type": "electric_bike", "lon": -76.9415985, "bike_id": "e9acbdb037196d693bef9305162f41db", "rental_uris": {"android": "https://dc.lft.to/lastmile_qr_scan", "ios": "https://dc.lft.to/lastmile_qr_scan"}, "name": "e9acbdb037196d693bef9305162f41db", "is_reserved": 0}, {"is_disabled": 0, "fusion_lon": 0.0, "fusion_lat": 0.0, "lat": 38.88825466666667, "type": "electric_bike", "lon": -77.12736233333334, "bike_id": "9918b8f19d55c1128c8585d4156fe2a4", "rental_uris": {"android": "https://dc.lft.to/lastmile_qr_scan", "ios": "https://dc.lft.to/lastmile_qr_scan"}, "name": "9918b8f19d55c1128c8585d4156fe2a4", "is_reserved": 0}, {"is_disabled": 0, "fusion_lon": 0.0, "fusion_lat": 0.0, "lat": 38.93438716666667, "type": "electric_scooter", "lon": -77.03266366666666, "bike_id": "09a907fbf1e688635326a68151604346", "rental_uris": {"android": "https://dc.lft.to/lastmile_qr_scan", "ios": "https://dc.lft.to/lastmile_qr_scan"}, "name": "09a907fbf1e688635326a68151604346", "is_reserved": 0}, {"is_disabled": 0, "fusion_lon": 0.0, "fusion_lat": 0.0, "lat": 38.90063583333333, "type": "electric_scooter", "lon": -77.04909483333333, "bike_id": "caa011a30edc322166857292172795a7", "rental_uris": {"android": "https://dc.lft.to/lastmile_qr_scan", "ios": "https://dc.lft.to/lastmile_qr_scan"}, "name": "caa011a30edc322166857292172795a7", "is_reserved": 0}, {"is_disabled": 0, "fusion_lon": 0.0, "fusion_lat": 0.0, "lat": 38.97572683333333, "type": "electric_bike", "lon": -76.96410516666667, "bike_id": "31853bfaa2c0411db67a612362c25cbe", "rental_uris": {"android": "https://dc.lft.to/lastmile_qr_scan", "ios": "https://dc.lft.to/lastmile_qr_scan"}, "name": "31853bfaa2c0411db67a612362c25cbe", "is_reserved": 0}, {"is_disabled": 0, "fusion_lon": 0.0, "fusion_lat": 0.0, "lat": 38.990896166666666, "type": "electric_bike", "lon": -76.87497716666667, "bike_id": "e110a0192bf97eb170a1e32e62031030", "rental_uris": {"android": "https://dc.lft.to/lastmile_qr_scan", "ios": "https://dc.lft.to/lastmile_qr_scan"}, "name": "e110a0192bf97eb170a1e32e62031030", "is_reserved": 0}, {"is_disabled": 0, "fusion_lon": 0.0, "fusion_lat": 0.0, "lat": 38.90770766666667, "type": "electric_scooter", "lon": -77.03268916666667, "bike_id": "68c487185b8fd4c83308c9dc6b8d7a45", "rental_uris": {"android": "https://dc.lft.to/lastmile_qr_scan", "ios": "https://dc.lft.to/lastmile_qr_scan"}, "name": "68c487185b8fd4c83308c9dc6b8d7a45", "is_reserved": 0}, {"is_disabled": 0, "fusion_lon": 0.0, "fusion_lat": 0.0, "lat": 38.93355583333334, "type": "electric_scooter", "lon": -77.073814, "bike_id": "2928866aa75d0d2a84924a9171daa90a", "rental_uris": {"android": "https://dc.lft.to/lastmile_qr_scan", "ios": "https://dc.lft.to/lastmile_qr_scan"}, "name": "2928866aa75d0d2a84924a9171daa90a", "is_reserved": 0}, {"is_disabled": 0, "fusion_lon": 0.0, "fusion_lat": 0.0, "lat": 38.905391, "type": "electric_scooter", "lon": -77.02698216666667, "bike_id": "0cbfc965ab39ea9ea236cd94e83206d0", "rental_uris": {"android": "https://dc.lft.to/lastmile_qr_scan", "ios": "https://dc.lft.to/lastmile_qr_scan"}, "name": "0cbfc965ab39ea9ea236cd94e83206d0", "is_reserved": 0}, {"is_disabled": 0, "fusion_lon": 0.0, "fusion_lat": 0.0, "lat": 38.8966335, "type": "electric_scooter", "lon": -77.04336716666667, "bike_id": "c04cffbd5091836b3d18e77b6fe46f2b", "rental_uris": {"android": "https://dc.lft.to/lastmile_qr_scan", "ios": "https://dc.lft.to/lastmile_qr_scan"}, "name": "c04cffbd5091836b3d18e77b6fe46f2b", "is_reserved": 0}, {"is_disabled": 0, "fusion_lon": 0.0, "fusion_lat": 0.0, "lat": 38.87538266666667, "type": "electric_scooter", "lon": -77.01377733333334, "bike_id": "d0aee57f2b1a2e739f59b57fed201249", "rental_uris": {"android": "https://dc.lft.to/lastmile_qr_scan", "ios": "https://dc.lft.to/lastmile_qr_scan"}, "name": "d0aee57f2b1a2e739f59b57fed201249", "is_reserved": 0}, {"is_disabled": 0, "fusion_lon": 0.0, "fusion_lat": 0.0, "lat": 38.996716166666666, "type": "electric_bike", "lon": -76.9914195, "bike_id": "e2fcaf178ee03068929fa0eddfffdf07", "rental_uris": {"android": "https://dc.lft.to/lastmile_qr_scan", "ios": "https://dc.lft.to/lastmile_qr_scan"}, "name": "e2fcaf178ee03068929fa0eddfffdf07", "is_reserved": 0}, {"is_disabled": 0, "fusion_lon": 0.0, "fusion_lat": 0.0, "lat": 38.9262505, "type": "electric_scooter", "lon": -77.041929, "bike_id": "e285a37c0f7e76b28ad26479aad5c640", "rental_uris": {"android": "https://dc.lft.to/lastmile_qr_scan", "ios": "https://dc.lft.to/lastmile_qr_scan"}, "name": "e285a37c0f7e76b28ad26479aad5c640", "is_reserved": 0}, {"is_disabled": 0, "fusion_lon": 0.0, "fusion_lat": 0.0, "lat": 38.9445445, "type": "electric_scooter", "lon": -77.06023716666667, "bike_id": "6718affd95e226d38b50801c8864a1f9", "rental_uris": {"android": "https://dc.lft.to/lastmile_qr_scan", "ios": "https://dc.lft.to/lastmile_qr_scan"}, "name": "6718affd95e226d38b50801c8864a1f9", "is_reserved": 0}, {"is_disabled": 0, "fusion_lon": 0.0, "fusion_lat": 0.0, "lat": 38.869573833333334, "type": "electric_scooter", "lon": -76.97935816666667, "bike_id": "4e7b4cfcc4f2297f48fc491c2936f97d", "rental_uris": {"android": "https://dc.lft.to/lastmile_qr_scan", "ios": "https://dc.lft.to/lastmile_qr_scan"}, "name": "4e7b4cfcc4f2297f48fc491c2936f97d", "is_reserved": 0}, {"is_disabled": 0, "fusion_lon": 0.0, "fusion_lat": 0.0, "lat": 38.92556583333333, "type": "electric_scooter", "lon": -77.025634, "bike_id": "93c39b9b13c8f1f4d61095b08d3cb83c", "rental_uris": {"android": "https://dc.lft.to/lastmile_qr_scan", "ios": "https://dc.lft.to/lastmile_qr_scan"}, "name": "93c39b9b13c8f1f4d61095b08d3cb83c", "is_reserved": 0}, {"is_disabled": 0, "fusion_lon": 0.0, "fusion_lat": 0.0, "lat": 38.918155666666664, "type": "electric_scooter", "lon": -77.02396266666666, "bike_id": "b0238216a91973a74142d9ffe4bb19c2", "rental_uris": {"android": "https://dc.lft.to/lastmile_qr_scan", "ios": "https://dc.lft.to/lastmile_qr_scan"}, "name": "b0238216a91973a74142d9ffe4bb19c2", "is_reserved": 0}, {"is_disabled": 0, "fusion_lon": 0.0, "fusion_lat": 0.0, "lat": 38.92823933333333, "type": "electric_scooter", "lon": -77.0225695, "bike_id": "cb9ffbf1328dd93ecf87047d8cf06298", "rental_uris": {"android": "https://dc.lft.to/lastmile_qr_scan", "ios": "https://dc.lft.to/lastmile_qr_scan"}, "name": "cb9ffbf1328dd93ecf87047d8cf06298", "is_reserved": 0}, {"is_disabled": 0, "fusion_lon": 0.0, "fusion_lat": 0.0, "lat": 38.906654333333336, "type": "electric_scooter", "lon": -77.027157, "bike_id": "89bcedcf259555d96ef197316fca1e01", "rental_uris": {"android": "https://dc.lft.to/lastmile_qr_scan", "ios": "https://dc.lft.to/lastmile_qr_scan"}, "name": "89bcedcf259555d96ef197316fca1e01", "is_reserved": 0}, {"is_disabled": 0, "fusion_lon": 0.0, "fusion_lat": 0.0, "lat": 38.91813666666667, "type": "electric_scooter", "lon": -77.03808533333333, "bike_id": "a80d0748d0b6049a14608e6f63e336ae", "rental_uris": {"android": "https://dc.lft.to/lastmile_qr_scan", "ios": "https://dc.lft.to/lastmile_qr_scan"}, "name": "a80d0748d0b6049a14608e6f63e336ae", "is_reserved": 0}, {"is_disabled": 0, "fusion_lon": 0.0, "fusion_lat": 0.0, "lat": 38.94180633333333, "type": "electric_scooter", "lon": -77.03653766666666, "bike_id": "8c497b6f2a42af1ad526a4b95a48be13", "rental_uris": {"android": "https://dc.lft.to/lastmile_qr_scan", "ios": "https://dc.lft.to/lastmile_qr_scan"}, "name": "8c497b6f2a42af1ad526a4b95a48be13", "is_reserved": 0}, {"is_disabled": 0, "fusion_lon": 0.0, "fusion_lat": 0.0, "lat": 38.90762466666666, "type": "electric_scooter", "lon": -77.007657, "bike_id": "5856bad00d309e1195674dc4bf236b33", "rental_uris": {"android": "https://dc.lft.to/lastmile_qr_scan", "ios": "https://dc.lft.to/lastmile_qr_scan"}, "name": "5856bad00d309e1195674dc4bf236b33", "is_reserved": 0}, {"is_disabled": 0, "fusion_lon": 0.0, "fusion_lat": 0.0, "lat": 38.92915433333334, "type": "electric_scooter", "lon": -77.03180683333333, "bike_id": "856e4739782a37ae12626219165d14e8", "rental_uris": {"android": "https://dc.lft.to/lastmile_qr_scan", "ios": "https://dc.lft.to/lastmile_qr_scan"}, "name": "856e4739782a37ae12626219165d14e8", "is_reserved": 0}, {"is_disabled": 0, "fusion_lon": 0.0, "fusion_lat": 0.0, "lat": 38.9564955, "type": "electric_scooter", "lon": -77.01496216666666, "bike_id": "6ba1640a2a412657b4c3c3e30fc4d7ef", "rental_uris": {"android": "https://dc.lft.to/lastmile_qr_scan", "ios": "https://dc.lft.to/lastmile_qr_scan"}, "name": "6ba1640a2a412657b4c3c3e30fc4d7ef", "is_reserved": 0}, {"is_disabled": 0, "fusion_lon": 0.0, "fusion_lat": 0.0, "lat": 38.876658, "type": "electric_bike", "lon": -77.0145705, "bike_id": "1876c28d8ef3f00912e678071d030e02", "rental_uris": {"android": "https://dc.lft.to/lastmile_qr_scan", "ios": "https://dc.lft.to/lastmile_qr_scan"}, "name": "1876c28d8ef3f00912e678071d030e02", "is_reserved": 0}, {"is_disabled": 0, "fusion_lon": 0.0, "fusion_lat": 0.0, "lat": 38.928996, "type": "electric_scooter", "lon": -77.02405466666667, "bike_id": "764d5492b93585f3891b762c3ebf4d7a", "rental_uris": {"android": "https://dc.lft.to/lastmile_qr_scan", "ios": "https://dc.lft.to/lastmile_qr_scan"}, "name": "764d5492b93585f3891b762c3ebf4d7a", "is_reserved": 0}, {"is_disabled": 0, "fusion_lon": 0.0, "fusion_lat": 0.0, "lat": 38.896648, "type": "electric_scooter", "lon": -77.04335683333333, "bike_id": "4978937e0c1f726f1051faaf18f05bdc", "rental_uris": {"android": "https://dc.lft.to/lastmile_qr_scan", "ios": "https://dc.lft.to/lastmile_qr_scan"}, "name": "4978937e0c1f726f1051faaf18f05bdc", "is_reserved": 0}, {"is_disabled": 0, "fusion_lon": 0.0, "fusion_lat": 0.0, "lat": 38.9252915, "type": "electric_scooter", "lon": -77.073317, "bike_id": "082cf9be80022b088c3812826830a0a4", "rental_uris": {"android": "https://dc.lft.to/lastmile_qr_scan", "ios": "https://dc.lft.to/lastmile_qr_scan"}, "name": "082cf9be80022b088c3812826830a0a4", "is_reserved": 0}, {"is_disabled": 0, "fusion_lon": 0.0, "fusion_lat": 0.0, "lat": 38.89774216666667, "type": "electric_scooter", "lon": -77.02481783333333, "bike_id": "54ced2c89aea1dfd6545c4f0dc7b6c15", "rental_uris": {"android": "https://dc.lft.to/lastmile_qr_scan", "ios": "https://dc.lft.to/lastmile_qr_scan"}, "name": "54ced2c89aea1dfd6545c4f0dc7b6c15", "is_reserved": 0}, {"is_disabled": 0, "fusion_lon": 0.0, "fusion_lat": 0.0, "lat": 38.905270333333334, "type": "electric_scooter", "lon": -77.0433295, "bike_id": "46ea5a4628dcdd73404a25a1475de82b", "rental_uris": {"android": "https://dc.lft.to/lastmile_qr_scan", "ios": "https://dc.lft.to/lastmile_qr_scan"}, "name": "46ea5a4628dcdd73404a25a1475de82b", "is_reserved": 0}, {"is_disabled": 0, "fusion_lon": 0.0, "fusion_lat": 0.0, "lat": 38.9569085, "type": "electric_scooter", "lon": -77.02402033333334, "bike_id": "ecb0d8dae2cfb4d6c1b63e83c1962629", "rental_uris": {"android": "https://dc.lft.to/lastmile_qr_scan", "ios": "https://dc.lft.to/lastmile_qr_scan"}, "name": "ecb0d8dae2cfb4d6c1b63e83c1962629", "is_reserved": 0}, {"is_disabled": 0, "fusion_lon": 0.0, "fusion_lat": 0.0, "lat": 38.90243433333333, "type": "electric_bike", "lon": -76.97016233333333, "bike_id": "5b3aff19f36bd9b2d878c20b79f42c12", "rental_uris": {"android": "https://dc.lft.to/lastmile_qr_scan", "ios": "https://dc.lft.to/lastmile_qr_scan"}, "name": "5b3aff19f36bd9b2d878c20b79f42c12", "is_reserved": 0}, {"is_disabled": 0, "fusion_lon": 0.0, "fusion_lat": 0.0, "lat": 38.9006955, "type": "electric_scooter", "lon": -77.03466466666667, "bike_id": "d361e542b935d4438174de59051462fc", "rental_uris": {"android": "https://dc.lft.to/lastmile_qr_scan", "ios": "https://dc.lft.to/lastmile_qr_scan"}, "name": "d361e542b935d4438174de59051462fc", "is_reserved": 0}, {"is_disabled": 0, "fusion_lon": 0.0, "fusion_lat": 0.0, "lat": 38.88486966666667, "type": "electric_scooter", "lon": -77.02208533333334, "bike_id": "79d7cd9270d1d272191aef5f00a07c5b", "rental_uris": {"android": "https://dc.lft.to/lastmile_qr_scan", "ios": "https://dc.lft.to/lastmile_qr_scan"}, "name": "79d7cd9270d1d272191aef5f00a07c5b", "is_reserved": 0}, {"is_disabled": 0, "fusion_lon": 0.0, "fusion_lat": 0.0, "lat": 38.89670316666667, "type": "electric_scooter", "lon": -76.94718666666667, "bike_id": "6fb28636b08028c76c348dec885f704e", "rental_uris": {"android": "https://dc.lft.to/lastmile_qr_scan", "ios": "https://dc.lft.to/lastmile_qr_scan"}, "name": "6fb28636b08028c76c348dec885f704e", "is_reserved": 0}, {"is_disabled": 0, "fusion_lon": 0.0, "fusion_lat": 0.0, "lat": 38.8952335, "type": "electric_scooter", "lon": -77.02813733333333, "bike_id": "ab9b60444034f5d75ed8e96881c0e040", "rental_uris": {"android": "https://dc.lft.to/lastmile_qr_scan", "ios": "https://dc.lft.to/lastmile_qr_scan"}, "name": "ab9b60444034f5d75ed8e96881c0e040", "is_reserved": 0}, {"is_disabled": 0, "fusion_lon": 0.0, "fusion_lat": 0.0, "lat": 38.97052083333333, "type": "electric_bike", "lon": -77.03085833333333, "bike_id": "f9ab43db4634e5ae352420f6189fcffa", "rental_uris": {"android": "https://dc.lft.to/lastmile_qr_scan", "ios": "https://dc.lft.to/lastmile_qr_scan"}, "name": "f9ab43db4634e5ae352420f6189fcffa", "is_reserved": 0}, {"is_disabled": 0, "fusion_lon": 0.0, "fusion_lat": 0.0, "lat": 38.905515333333334, "type": "electric_scooter", "lon": -77.02716683333334, "bike_id": "8c1bd6203a2df14f4e7650ac81fa0c82", "rental_uris": {"android": "https://dc.lft.to/lastmile_qr_scan", "ios": "https://dc.lft.to/lastmile_qr_scan"}, "name": "8c1bd6203a2df14f4e7650ac81fa0c82", "is_reserved": 0}, {"is_disabled": 0, "fusion_lon": 0.0, "fusion_lat": 0.0, "lat": 38.848472666666666, "type": "electric_bike", "lon": -77.08044216666667, "bike_id": "66101b3e9026628945970ad8b15d6c38", "rental_uris": {"android": "https://dc.lft.to/lastmile_qr_scan", "ios": "https://dc.lft.to/lastmile_qr_scan"}, "name": "66101b3e9026628945970ad8b15d6c38", "is_reserved": 0}, {"is_disabled": 0, "fusion_lon": 0.0, "fusion_lat": 0.0, "lat": 38.930651, "type": "electric_scooter", "lon": -77.0266285, "bike_id": "db8d536a71c15a790f73db63b971b903", "rental_uris": {"android": "https://dc.lft.to/lastmile_qr_scan", "ios": "https://dc.lft.to/lastmile_qr_scan"}, "name": "db8d536a71c15a790f73db63b971b903", "is_reserved": 0}, {"is_disabled": 0, "fusion_lon": 0.0, "fusion_lat": 0.0, "lat": 38.929948833333334, "type": "electric_scooter", "lon": -77.02179766666667, "bike_id": "b60bd125767f27d103958f8e6edb76f0", "rental_uris": {"android": "https://dc.lft.to/lastmile_qr_scan", "ios": "https://dc.lft.to/lastmile_qr_scan"}, "name": "b60bd125767f27d103958f8e6edb76f0", "is_reserved": 0}, {"is_disabled": 0, "fusion_lon": 0.0, "fusion_lat": 0.0, "lat": 38.923373166666664, "type": "electric_scooter", "lon": -77.036113, "bike_id": "19965d95e2f6ab776a6cc914b0020826", "rental_uris": {"android": "https://dc.lft.to/lastmile_qr_scan", "ios": "https://dc.lft.to/lastmile_qr_scan"}, "name": "19965d95e2f6ab776a6cc914b0020826", "is_reserved": 0}, {"is_disabled": 0, "fusion_lon": 0.0, "fusion_lat": 0.0, "lat": 38.90703383333334, "type": "electric_scooter", "lon": -77.02693883333333, "bike_id": "c7c07870cfa0faec2fab53e69bb6fb68", "rental_uris": {"android": "https://dc.lft.to/lastmile_qr_scan", "ios": "https://dc.lft.to/lastmile_qr_scan"}, "name": "c7c07870cfa0faec2fab53e69bb6fb68", "is_reserved": 0}, {"is_disabled": 0, "fusion_lon": 0.0, "fusion_lat": 0.0, "lat": 38.91773233333333, "type": "electric_scooter", "lon": -77.02344616666667, "bike_id": "f82cc26d1a03b75eef881e9e60aefd4f", "rental_uris": {"android": "https://dc.lft.to/lastmile_qr_scan", "ios": "https://dc.lft.to/lastmile_qr_scan"}, "name": "f82cc26d1a03b75eef881e9e60aefd4f", "is_reserved": 0}, {"is_disabled": 0, "fusion_lon": 0.0, "fusion_lat": 0.0, "lat": 38.91463533333334, "type": "electric_scooter", "lon": -77.02812916666667, "bike_id": "96e5b69d3d6a1268e26b2a0cf3e49aca", "rental_uris": {"android": "https://dc.lft.to/lastmile_qr_scan", "ios": "https://dc.lft.to/lastmile_qr_scan"}, "name": "96e5b69d3d6a1268e26b2a0cf3e49aca", "is_reserved": 0}, {"is_disabled": 0, "fusion_lon": 0.0, "fusion_lat": 0.0, "lat": 38.93397083333333, "type": "electric_scooter", "lon": -77.02728783333333, "bike_id": "1fc61b1e13faf1d7e98ac90d5d331730", "rental_uris": {"android": "https://dc.lft.to/lastmile_qr_scan", "ios": "https://dc.lft.to/lastmile_qr_scan"}, "name": "1fc61b1e13faf1d7e98ac90d5d331730", "is_reserved": 0}, {"is_disabled": 0, "fusion_lon": 0.0, "fusion_lat": 0.0, "lat": 38.901411, "type": "electric_scooter", "lon": -77.0397715, "bike_id": "6be23dc9aedb59b4684a04311f98bcf8", "rental_uris": {"android": "https://dc.lft.to/lastmile_qr_scan", "ios": "https://dc.lft.to/lastmile_qr_scan"}, "name": "6be23dc9aedb59b4684a04311f98bcf8", "is_reserved": 0}, {"is_disabled": 0, "fusion_lon": 0.0, "fusion_lat": 0.0, "lat": 38.881319833333336, "type": "electric_scooter", "lon": -77.02076116666667, "bike_id": "d0eee6376d5667f4856a64ed50529255", "rental_uris": {"android": "https://dc.lft.to/lastmile_qr_scan", "ios": "https://dc.lft.to/lastmile_qr_scan"}, "name": "d0eee6376d5667f4856a64ed50529255", "is_reserved": 0}, {"is_disabled": 0, "fusion_lon": 0.0, "fusion_lat": 0.0, "lat": 38.90729066666667, "type": "electric_scooter", "lon": -77.02245333333333, "bike_id": "269e4c7716dce1d0b1efacaa4bc573af", "rental_uris": {"android": "https://dc.lft.to/lastmile_qr_scan", "ios": "https://dc.lft.to/lastmile_qr_scan"}, "name": "269e4c7716dce1d0b1efacaa4bc573af", "is_reserved": 0}, {"is_disabled": 0, "fusion_lon": 0.0, "fusion_lat": 0.0, "lat": 38.92343733333333, "type": "electric_bike", "lon": -76.992549, "bike_id": "f3766ca12ebf1778f121b8f9a8e2e9b0", "rental_uris": {"android": "https://dc.lft.to/lastmile_qr_scan", "ios": "https://dc.lft.to/lastmile_qr_scan"}, "name": "f3766ca12ebf1778f121b8f9a8e2e9b0", "is_reserved": 0}, {"is_disabled": 0, "fusion_lon": 0.0, "fusion_lat": 0.0, "lat": 38.9907695, "type": "electric_bike", "lon": -77.023812, "bike_id": "d4a542452b2370382f2d93fc0974773d", "rental_uris": {"android": "https://dc.lft.to/lastmile_qr_scan", "ios": "https://dc.lft.to/lastmile_qr_scan"}, "name": "d4a542452b2370382f2d93fc0974773d", "is_reserved": 0}, {"is_disabled": 0, "fusion_lon": 0.0, "fusion_lat": 0.0, "lat": 38.917836666666666, "type": "electric_scooter", "lon": -77.04356066666666, "bike_id": "bebc0949fc80747190ea5d3198ba5d71", "rental_uris": {"android": "https://dc.lft.to/lastmile_qr_scan", "ios": "https://dc.lft.to/lastmile_qr_scan"}, "name": "bebc0949fc80747190ea5d3198ba5d71", "is_reserved": 0}, {"is_disabled": 0, "fusion_lon": 0.0, "fusion_lat": 0.0, "lat": 38.91113983333334, "type": "electric_scooter", "lon": -77.045041, "bike_id": "6190f422ca49609adfbe06c4df8c5b1e", "rental_uris": {"android": "https://dc.lft.to/lastmile_qr_scan", "ios": "https://dc.lft.to/lastmile_qr_scan"}, "name": "6190f422ca49609adfbe06c4df8c5b1e", "is_reserved": 0}, {"is_disabled": 0, "fusion_lon": 0.0, "fusion_lat": 0.0, "lat": 38.9085545, "type": "electric_scooter", "lon": -77.06351016666666, "bike_id": "228ad9010744427a2d7887089dc77784", "rental_uris": {"android": "https://dc.lft.to/lastmile_qr_scan", "ios": "https://dc.lft.to/lastmile_qr_scan"}, "name": "228ad9010744427a2d7887089dc77784", "is_reserved": 0}, {"is_disabled": 0, "fusion_lon": 0.0, "fusion_lat": 0.0, "lat": 38.90946366666667, "type": "electric_scooter", "lon": -77.03447516666667, "bike_id": "a97cbd360d992e9cf46bd25fbdc7a601", "rental_uris": {"android": "https://dc.lft.to/lastmile_qr_scan", "ios": "https://dc.lft.to/lastmile_qr_scan"}, "name": "a97cbd360d992e9cf46bd25fbdc7a601", "is_reserved": 0}, {"is_disabled": 0, "fusion_lon": 0.0, "fusion_lat": 0.0, "lat": 38.8968665, "type": "electric_scooter", "lon": -77.0114605, "bike_id": "e26ae514aa81b4b9b568d4c56df5195f", "rental_uris": {"android": "https://dc.lft.to/lastmile_qr_scan", "ios": "https://dc.lft.to/lastmile_qr_scan"}, "name": "e26ae514aa81b4b9b568d4c56df5195f", "is_reserved": 0}, {"is_disabled": 0, "fusion_lon": 0.0, "fusion_lat": 0.0, "lat": 38.9430345, "type": "electric_scooter", "lon": -77.0275745, "bike_id": "fb188f3011149d35185b412c3b83ed3c", "rental_uris": {"android": "https://dc.lft.to/lastmile_qr_scan", "ios": "https://dc.lft.to/lastmile_qr_scan"}, "name": "fb188f3011149d35185b412c3b83ed3c", "is_reserved": 0}, {"is_disabled": 0, "fusion_lon": 0.0, "fusion_lat": 0.0, "lat": 38.919379666666664, "type": "electric_bike", "lon": -76.97502533333333, "bike_id": "59c78e1d76b8cb14a67cf4663ce52319", "rental_uris": {"android": "https://dc.lft.to/lastmile_qr_scan", "ios": "https://dc.lft.to/lastmile_qr_scan"}, "name": "59c78e1d76b8cb14a67cf4663ce52319", "is_reserved": 0}, {"is_disabled": 0, "fusion_lon": 0.0, "fusion_lat": 0.0, "lat": 38.905173166666664, "type": "electric_scooter", "lon": -77.0532505, "bike_id": "672b6f59fc89b2811a31181e895449b1", "rental_uris": {"android": "https://dc.lft.to/lastmile_qr_scan", "ios": "https://dc.lft.to/lastmile_qr_scan"}, "name": "672b6f59fc89b2811a31181e895449b1", "is_reserved": 0}, {"is_disabled": 0, "fusion_lon": 0.0, "fusion_lat": 0.0, "lat": 38.91008516666667, "type": "electric_scooter", "lon": -77.0809075, "bike_id": "4b7648b60a8f4cef9a9969be001b7132", "rental_uris": {"android": "https://dc.lft.to/lastmile_qr_scan", "ios": "https://dc.lft.to/lastmile_qr_scan"}, "name": "4b7648b60a8f4cef9a9969be001b7132", "is_reserved": 0}, {"is_disabled": 0, "fusion_lon": 0.0, "fusion_lat": 0.0, "lat": 38.9207195, "type": "electric_scooter", "lon": -77.04380616666667, "bike_id": "67b0c183619ac7e57abfc3ce53176e38", "rental_uris": {"android": "https://dc.lft.to/lastmile_qr_scan", "ios": "https://dc.lft.to/lastmile_qr_scan"}, "name": "67b0c183619ac7e57abfc3ce53176e38", "is_reserved": 0}, {"is_disabled": 0, "fusion_lon": 0.0, "fusion_lat": 0.0, "lat": 38.8941165, "type": "electric_scooter", "lon": -77.01089266666666, "bike_id": "01ba2e7091ea28437946c4e3f2e91247", "rental_uris": {"android": "https://dc.lft.to/lastmile_qr_scan", "ios": "https://dc.lft.to/lastmile_qr_scan"}, "name": "01ba2e7091ea28437946c4e3f2e91247", "is_reserved": 0}, {"is_disabled": 0, "fusion_lon": 0.0, "fusion_lat": 0.0, "lat": 38.9233305, "type": "electric_scooter", "lon": -77.04184283333333, "bike_id": "893f9d21033f1ac06424d474ea6fcac1", "rental_uris": {"android": "https://dc.lft.to/lastmile_qr_scan", "ios": "https://dc.lft.to/lastmile_qr_scan"}, "name": "893f9d21033f1ac06424d474ea6fcac1", "is_reserved": 0}, {"is_disabled": 0, "fusion_lon": 0.0, "fusion_lat": 0.0, "lat": 38.869601833333334, "type": "electric_scooter", "lon": -76.960336, "bike_id": "7e5a36ee9dc7c179dd705d4531fbd588", "rental_uris": {"android": "https://dc.lft.to/lastmile_qr_scan", "ios": "https://dc.lft.to/lastmile_qr_scan"}, "name": "7e5a36ee9dc7c179dd705d4531fbd588", "is_reserved": 0}, {"is_disabled": 0, "fusion_lon": 0.0, "fusion_lat": 0.0, "lat": 38.9000175, "type": "electric_scooter", "lon": -77.03337716666667, "bike_id": "a371a149afc4ec85096b106168bbcd12", "rental_uris": {"android": "https://dc.lft.to/lastmile_qr_scan", "ios": "https://dc.lft.to/lastmile_qr_scan"}, "name": "a371a149afc4ec85096b106168bbcd12", "is_reserved": 0}, {"is_disabled": 0, "fusion_lon": 0.0, "fusion_lat": 0.0, "lat": 38.9096055, "type": "electric_scooter", "lon": -77.0237485, "bike_id": "265497674da2f5336cc79db01079c8e4", "rental_uris": {"android": "https://dc.lft.to/lastmile_qr_scan", "ios": "https://dc.lft.to/lastmile_qr_scan"}, "name": "265497674da2f5336cc79db01079c8e4", "is_reserved": 0}, {"is_disabled": 0, "fusion_lon": 0.0, "fusion_lat": 0.0, "lat": 38.810285666666665, "type": "electric_bike", "lon": -77.0843475, "bike_id": "c6870b5020d873c4bb363d7a5aa9917a", "rental_uris": {"android": "https://dc.lft.to/lastmile_qr_scan", "ios": "https://dc.lft.to/lastmile_qr_scan"}, "name": "c6870b5020d873c4bb363d7a5aa9917a", "is_reserved": 0}, {"is_disabled": 0, "fusion_lon": 0.0, "fusion_lat": 0.0, "lat": 38.919018, "type": "electric_scooter", "lon": -77.07112133333334, "bike_id": "cae32e91ef255fca80cf4cde6a912554", "rental_uris": {"android": "https://dc.lft.to/lastmile_qr_scan", "ios": "https://dc.lft.to/lastmile_qr_scan"}, "name": "cae32e91ef255fca80cf4cde6a912554", "is_reserved": 0}, {"is_disabled": 0, "fusion_lon": 0.0, "fusion_lat": 0.0, "lat": 38.9245655, "type": "electric_bike", "lon": -76.99953016666667, "bike_id": "070f37f33b8ca3e5eab4dd6411078c6f", "rental_uris": {"android": "https://dc.lft.to/lastmile_qr_scan", "ios": "https://dc.lft.to/lastmile_qr_scan"}, "name": "070f37f33b8ca3e5eab4dd6411078c6f", "is_reserved": 0}, {"is_disabled": 0, "fusion_lon": 0.0, "fusion_lat": 0.0, "lat": 38.91906566666667, "type": "electric_scooter", "lon": -77.0275865, "bike_id": "812ff1851312ac74ef31dd428057b8b3", "rental_uris": {"android": "https://dc.lft.to/lastmile_qr_scan", "ios": "https://dc.lft.to/lastmile_qr_scan"}, "name": "812ff1851312ac74ef31dd428057b8b3", "is_reserved": 0}, {"is_disabled": 0, "fusion_lon": 0.0, "fusion_lat": 0.0, "lat": 38.89750266666667, "type": "electric_scooter", "lon": -77.027572, "bike_id": "1ccf16f6adb303ed3ab6884531468543", "rental_uris": {"android": "https://dc.lft.to/lastmile_qr_scan", "ios": "https://dc.lft.to/lastmile_qr_scan"}, "name": "1ccf16f6adb303ed3ab6884531468543", "is_reserved": 0}, {"is_disabled": 0, "fusion_lon": 0.0, "fusion_lat": 0.0, "lat": 38.87344366666667, "type": "electric_scooter", "lon": -77.01738733333333, "bike_id": "a5457f7e559ba74e75cc7e4789911600", "rental_uris": {"android": "https://dc.lft.to/lastmile_qr_scan", "ios": "https://dc.lft.to/lastmile_qr_scan"}, "name": "a5457f7e559ba74e75cc7e4789911600", "is_reserved": 0}, {"is_disabled": 0, "fusion_lon": 0.0, "fusion_lat": 0.0, "lat": 38.9084815, "type": "electric_scooter", "lon": -77.060802, "bike_id": "41c80c01db20b9be881bab411d12156b", "rental_uris": {"android": "https://dc.lft.to/lastmile_qr_scan", "ios": "https://dc.lft.to/lastmile_qr_scan"}, "name": "41c80c01db20b9be881bab411d12156b", "is_reserved": 0}, {"is_disabled": 0, "fusion_lon": 0.0, "fusion_lat": 0.0, "lat": 38.897419, "type": "electric_scooter", "lon": -77.0515465, "bike_id": "182ba54e469a76fd9aa13979e670c940", "rental_uris": {"android": "https://dc.lft.to/lastmile_qr_scan", "ios": "https://dc.lft.to/lastmile_qr_scan"}, "name": "182ba54e469a76fd9aa13979e670c940", "is_reserved": 0}, {"is_disabled": 0, "fusion_lon": 0.0, "fusion_lat": 0.0, "lat": 38.94518516666667, "type": "electric_bike", "lon": -77.02647566666667, "bike_id": "65f059b5e594c46473d91955cf857288", "rental_uris": {"android": "https://dc.lft.to/lastmile_qr_scan", "ios": "https://dc.lft.to/lastmile_qr_scan"}, "name": "65f059b5e594c46473d91955cf857288", "is_reserved": 0}, {"is_disabled": 0, "fusion_lon": 0.0, "fusion_lat": 0.0, "lat": 38.93637583333334, "type": "electric_scooter", "lon": -77.026931, "bike_id": "dc6b3d673b90b0696414457155c36fe6", "rental_uris": {"android": "https://dc.lft.to/lastmile_qr_scan", "ios": "https://dc.lft.to/lastmile_qr_scan"}, "name": "dc6b3d673b90b0696414457155c36fe6", "is_reserved": 0}, {"is_disabled": 0, "fusion_lon": 0.0, "fusion_lat": 0.0, "lat": 38.9352875, "type": "electric_scooter", "lon": -77.06631783333333, "bike_id": "f6e38be2b9f0f72631b771cb2aa113b4", "rental_uris": {"android": "https://dc.lft.to/lastmile_qr_scan", "ios": "https://dc.lft.to/lastmile_qr_scan"}, "name": "f6e38be2b9f0f72631b771cb2aa113b4", "is_reserved": 0}, {"is_disabled": 0, "fusion_lon": 0.0, "fusion_lat": 0.0, "lat": 38.910408333333336, "type": "electric_scooter", "lon": -77.04285183333333, "bike_id": "3472e8372c2fd33dbd845cb7b91467d5", "rental_uris": {"android": "https://dc.lft.to/lastmile_qr_scan", "ios": "https://dc.lft.to/lastmile_qr_scan"}, "name": "3472e8372c2fd33dbd845cb7b91467d5", "is_reserved": 0}, {"is_disabled": 0, "fusion_lon": 0.0, "fusion_lat": 0.0, "lat": 38.916077666666666, "type": "electric_scooter", "lon": -77.046028, "bike_id": "c23ca2de32e2dee7d1c03ed84b10402f", "rental_uris": {"android": "https://dc.lft.to/lastmile_qr_scan", "ios": "https://dc.lft.to/lastmile_qr_scan"}, "name": "c23ca2de32e2dee7d1c03ed84b10402f", "is_reserved": 0}, {"is_disabled": 0, "fusion_lon": 0.0, "fusion_lat": 0.0, "lat": 38.91789133333333, "type": "electric_scooter", "lon": -77.042987, "bike_id": "bad42dcda379c2c85631ec89079101c2", "rental_uris": {"android": "https://dc.lft.to/lastmile_qr_scan", "ios": "https://dc.lft.to/lastmile_qr_scan"}, "name": "bad42dcda379c2c85631ec89079101c2", "is_reserved": 0}, {"is_disabled": 0, "fusion_lon": 0.0, "fusion_lat": 0.0, "lat": 38.907026333333334, "type": "electric_scooter", "lon": -76.98692116666666, "bike_id": "e8b389d6701c4843cccb5847184a2a2c", "rental_uris": {"android": "https://dc.lft.to/lastmile_qr_scan", "ios": "https://dc.lft.to/lastmile_qr_scan"}, "name": "e8b389d6701c4843cccb5847184a2a2c", "is_reserved": 0}, {"is_disabled": 0, "fusion_lon": 0.0, "fusion_lat": 0.0, "lat": 38.90066866666667, "type": "electric_scooter", "lon": -77.01293566666666, "bike_id": "aa7b546a8a6ef672de7b01819f891369", "rental_uris": {"android": "https://dc.lft.to/lastmile_qr_scan", "ios": "https://dc.lft.to/lastmile_qr_scan"}, "name": "aa7b546a8a6ef672de7b01819f891369", "is_reserved": 0}, {"is_disabled": 0, "fusion_lon": 0.0, "fusion_lat": 0.0, "lat": 38.894770666666666, "type": "electric_scooter", "lon": -76.93303966666667, "bike_id": "5dc302ad7b9edea1f5f7317f425907f1", "rental_uris": {"android": "https://dc.lft.to/lastmile_qr_scan", "ios": "https://dc.lft.to/lastmile_qr_scan"}, "name": "5dc302ad7b9edea1f5f7317f425907f1", "is_reserved": 0}, {"is_disabled": 0, "fusion_lon": 0.0, "fusion_lat": 0.0, "lat": 38.93124616666667, "type": "electric_scooter", "lon": -77.01990266666667, "bike_id": "e4cb15c8d115a35e8e076c5f1d78b46f", "rental_uris": {"android": "https://dc.lft.to/lastmile_qr_scan", "ios": "https://dc.lft.to/lastmile_qr_scan"}, "name": "e4cb15c8d115a35e8e076c5f1d78b46f", "is_reserved": 0}, {"is_disabled": 0, "fusion_lon": 0.0, "fusion_lat": 0.0, "lat": 38.90836433333333, "type": "electric_scooter", "lon": -77.04174433333333, "bike_id": "8a97258cb4b24f8f5e71699b5f0656be", "rental_uris": {"android": "https://dc.lft.to/lastmile_qr_scan", "ios": "https://dc.lft.to/lastmile_qr_scan"}, "name": "8a97258cb4b24f8f5e71699b5f0656be", "is_reserved": 0}, {"is_disabled": 0, "fusion_lon": 0.0, "fusion_lat": 0.0, "lat": 38.8961725, "type": "electric_scooter", "lon": -77.02915416666667, "bike_id": "24813a33f972da9cef6baeb0aefd26fd", "rental_uris": {"android": "https://dc.lft.to/lastmile_qr_scan", "ios": "https://dc.lft.to/lastmile_qr_scan"}, "name": "24813a33f972da9cef6baeb0aefd26fd", "is_reserved": 0}, {"is_disabled": 0, "fusion_lon": 0.0, "fusion_lat": 0.0, "lat": 38.9050105, "type": "electric_scooter", "lon": -77.0295085, "bike_id": "037f1b18790a965a59ae5772be6da36a", "rental_uris": {"android": "https://dc.lft.to/lastmile_qr_scan", "ios": "https://dc.lft.to/lastmile_qr_scan"}, "name": "037f1b18790a965a59ae5772be6da36a", "is_reserved": 0}, {"is_disabled": 0, "fusion_lon": 0.0, "fusion_lat": 0.0, "lat": 38.92098083333333, "type": "electric_scooter", "lon": -77.03051883333333, "bike_id": "52cf9d1d2b8e274a9a5fc777b9a79645", "rental_uris": {"android": "https://dc.lft.to/lastmile_qr_scan", "ios": "https://dc.lft.to/lastmile_qr_scan"}, "name": "52cf9d1d2b8e274a9a5fc777b9a79645", "is_reserved": 0}, {"is_disabled": 0, "fusion_lon": 0.0, "fusion_lat": 0.0, "lat": 38.928787666666665, "type": "electric_scooter", "lon": -77.04131266666667, "bike_id": "e8fd0c867660abf14c6d129854802b5c", "rental_uris": {"android": "https://dc.lft.to/lastmile_qr_scan", "ios": "https://dc.lft.to/lastmile_qr_scan"}, "name": "e8fd0c867660abf14c6d129854802b5c", "is_reserved": 0}, {"is_disabled": 0, "fusion_lon": 0.0, "fusion_lat": 0.0, "lat": 38.897240333333336, "type": "electric_scooter", "lon": -77.00930766666667, "bike_id": "b3f8322acd23e0ced95ba1c91685a872", "rental_uris": {"android": "https://dc.lft.to/lastmile_qr_scan", "ios": "https://dc.lft.to/lastmile_qr_scan"}, "name": "b3f8322acd23e0ced95ba1c91685a872", "is_reserved": 0}, {"is_disabled": 0, "fusion_lon": 0.0, "fusion_lat": 0.0, "lat": 38.94127833333334, "type": "electric_scooter", "lon": -77.0182305, "bike_id": "82ddd96aab86d2e0d31117908df70b4e", "rental_uris": {"android": "https://dc.lft.to/lastmile_qr_scan", "ios": "https://dc.lft.to/lastmile_qr_scan"}, "name": "82ddd96aab86d2e0d31117908df70b4e", "is_reserved": 0}, {"is_disabled": 0, "fusion_lon": 0.0, "fusion_lat": 0.0, "lat": 38.93142133333333, "type": "electric_scooter", "lon": -77.03459666666667, "bike_id": "3f331ee897acb41a2868e187d9dcbe25", "rental_uris": {"android": "https://dc.lft.to/lastmile_qr_scan", "ios": "https://dc.lft.to/lastmile_qr_scan"}, "name": "3f331ee897acb41a2868e187d9dcbe25", "is_reserved": 0}, {"is_disabled": 0, "fusion_lon": 0.0, "fusion_lat": 0.0, "lat": 38.890037666666665, "type": "electric_scooter", "lon": -77.04899383333333, "bike_id": "5833eff912cde497bf7152ab5a3da0c3", "rental_uris": {"android": "https://dc.lft.to/lastmile_qr_scan", "ios": "https://dc.lft.to/lastmile_qr_scan"}, "name": "5833eff912cde497bf7152ab5a3da0c3", "is_reserved": 0}, {"is_disabled": 0, "fusion_lon": 0.0, "fusion_lat": 0.0, "lat": 38.860532166666665, "type": "electric_scooter", "lon": -76.985111, "bike_id": "3b33391f8940e6b9e36afa410fffe8ae", "rental_uris": {"android": "https://dc.lft.to/lastmile_qr_scan", "ios": "https://dc.lft.to/lastmile_qr_scan"}, "name": "3b33391f8940e6b9e36afa410fffe8ae", "is_reserved": 0}, {"is_disabled": 0, "fusion_lon": 0.0, "fusion_lat": 0.0, "lat": 38.9683105, "type": "electric_scooter", "lon": -77.01514383333334, "bike_id": "ecac1d4623e23cbdc7bbb293c39e06a2", "rental_uris": {"android": "https://dc.lft.to/lastmile_qr_scan", "ios": "https://dc.lft.to/lastmile_qr_scan"}, "name": "ecac1d4623e23cbdc7bbb293c39e06a2", "is_reserved": 0}, {"is_disabled": 0, "fusion_lon": 0.0, "fusion_lat": 0.0, "lat": 38.9240765, "type": "electric_scooter", "lon": -77.05163516666667, "bike_id": "6b7892f5ecb934ba75780bf6c44c7b24", "rental_uris": {"android": "https://dc.lft.to/lastmile_qr_scan", "ios": "https://dc.lft.to/lastmile_qr_scan"}, "name": "6b7892f5ecb934ba75780bf6c44c7b24", "is_reserved": 0}, {"is_disabled": 0, "fusion_lon": 0.0, "fusion_lat": 0.0, "lat": 38.935294166666665, "type": "electric_scooter", "lon": -77.02072283333334, "bike_id": "f392a439c2923bbb34e73b2deac9710a", "rental_uris": {"android": "https://dc.lft.to/lastmile_qr_scan", "ios": "https://dc.lft.to/lastmile_qr_scan"}, "name": "f392a439c2923bbb34e73b2deac9710a", "is_reserved": 0}, {"is_disabled": 0, "fusion_lon": 0.0, "fusion_lat": 0.0, "lat": 38.919196, "type": "electric_scooter", "lon": -77.02404066666666, "bike_id": "e2fbf5931c61656f3cd97edf0b6bcc84", "rental_uris": {"android": "https://dc.lft.to/lastmile_qr_scan", "ios": "https://dc.lft.to/lastmile_qr_scan"}, "name": "e2fbf5931c61656f3cd97edf0b6bcc84", "is_reserved": 0}, {"is_disabled": 0, "fusion_lon": 0.0, "fusion_lat": 0.0, "lat": 39.000029, "type": "electric_bike", "lon": -76.918029, "bike_id": "fe8ef79b55e35a999b169f02b059d3c2", "rental_uris": {"android": "https://dc.lft.to/lastmile_qr_scan", "ios": "https://dc.lft.to/lastmile_qr_scan"}, "name": "fe8ef79b55e35a999b169f02b059d3c2", "is_reserved": 0}, {"is_disabled": 0, "fusion_lon": 0.0, "fusion_lat": 0.0, "lat": 38.92454883333333, "type": "electric_scooter", "lon": -76.9990005, "bike_id": "1f21abafb9c31456703b794df076c15a", "rental_uris": {"android": "https://dc.lft.to/lastmile_qr_scan", "ios": "https://dc.lft.to/lastmile_qr_scan"}, "name": "1f21abafb9c31456703b794df076c15a", "is_reserved": 0}, {"is_disabled": 0, "fusion_lon": 0.0, "fusion_lat": 0.0, "lat": 38.942001833333336, "type": "electric_scooter", "lon": -77.02577916666667, "bike_id": "c3767b086093dbfda66f2179631051a2", "rental_uris": {"android": "https://dc.lft.to/lastmile_qr_scan", "ios": "https://dc.lft.to/lastmile_qr_scan"}, "name": "c3767b086093dbfda66f2179631051a2", "is_reserved": 0}, {"is_disabled": 0, "fusion_lon": 0.0, "fusion_lat": 0.0, "lat": 38.914187, "type": "electric_scooter", "lon": -77.04326966666666, "bike_id": "59b66740a7d2d3a3f0b14c30e6eed4e8", "rental_uris": {"android": "https://dc.lft.to/lastmile_qr_scan", "ios": "https://dc.lft.to/lastmile_qr_scan"}, "name": "59b66740a7d2d3a3f0b14c30e6eed4e8", "is_reserved": 0}, {"is_disabled": 0, "fusion_lon": 0.0, "fusion_lat": 0.0, "lat": 38.94978183333333, "type": "electric_scooter", "lon": -77.06761433333334, "bike_id": "6b2e525f2bcf44883cb8f57488e13d0e", "rental_uris": {"android": "https://dc.lft.to/lastmile_qr_scan", "ios": "https://dc.lft.to/lastmile_qr_scan"}, "name": "6b2e525f2bcf44883cb8f57488e13d0e", "is_reserved": 0}, {"is_disabled": 0, "fusion_lon": 0.0, "fusion_lat": 0.0, "lat": 38.933219666666666, "type": "electric_scooter", "lon": -77.0293295, "bike_id": "733dc87dcf7507d05d4e9958545eaf82", "rental_uris": {"android": "https://dc.lft.to/lastmile_qr_scan", "ios": "https://dc.lft.to/lastmile_qr_scan"}, "name": "733dc87dcf7507d05d4e9958545eaf82", "is_reserved": 0}, {"is_disabled": 0, "fusion_lon": 0.0, "fusion_lat": 0.0, "lat": 38.916053, "type": "electric_scooter", "lon": -77.046001, "bike_id": "ca2bf01ae47873a860b8bfa9ede19bea", "rental_uris": {"android": "https://dc.lft.to/lastmile_qr_scan", "ios": "https://dc.lft.to/lastmile_qr_scan"}, "name": "ca2bf01ae47873a860b8bfa9ede19bea", "is_reserved": 0}, {"is_disabled": 0, "fusion_lon": 0.0, "fusion_lat": 0.0, "lat": 38.905265166666666, "type": "electric_scooter", "lon": -77.05039216666667, "bike_id": "7d72c016f5e23b4ba46ade88090d2c25", "rental_uris": {"android": "https://dc.lft.to/lastmile_qr_scan", "ios": "https://dc.lft.to/lastmile_qr_scan"}, "name": "7d72c016f5e23b4ba46ade88090d2c25", "is_reserved": 0}, {"is_disabled": 0, "fusion_lon": 0.0, "fusion_lat": 0.0, "lat": 38.886281833333335, "type": "electric_scooter", "lon": -76.955104, "bike_id": "b5c23189871d1704dcde18663565bc8c", "rental_uris": {"android": "https://dc.lft.to/lastmile_qr_scan", "ios": "https://dc.lft.to/lastmile_qr_scan"}, "name": "b5c23189871d1704dcde18663565bc8c", "is_reserved": 0}, {"is_disabled": 0, "fusion_lon": 0.0, "fusion_lat": 0.0, "lat": 38.915914, "type": "electric_scooter", "lon": -77.02127716666666, "bike_id": "4206593c8577dbbf503d6a8ae57ff1a2", "rental_uris": {"android": "https://dc.lft.to/lastmile_qr_scan", "ios": "https://dc.lft.to/lastmile_qr_scan"}, "name": "4206593c8577dbbf503d6a8ae57ff1a2", "is_reserved": 0}, {"is_disabled": 0, "fusion_lon": 0.0, "fusion_lat": 0.0, "lat": 38.90004666666667, "type": "electric_scooter", "lon": -77.03967583333333, "bike_id": "996920731c9b1ce304298f7a3334981b", "rental_uris": {"android": "https://dc.lft.to/lastmile_qr_scan", "ios": "https://dc.lft.to/lastmile_qr_scan"}, "name": "996920731c9b1ce304298f7a3334981b", "is_reserved": 0}, {"is_disabled": 0, "fusion_lon": 0.0, "fusion_lat": 0.0, "lat": 38.924840333333336, "type": "electric_scooter", "lon": -77.037556, "bike_id": "f0c28cd4cddb29332a750e3e5c7f0395", "rental_uris": {"android": "https://dc.lft.to/lastmile_qr_scan", "ios": "https://dc.lft.to/lastmile_qr_scan"}, "name": "f0c28cd4cddb29332a750e3e5c7f0395", "is_reserved": 0}, {"is_disabled": 0, "fusion_lon": 0.0, "fusion_lat": 0.0, "lat": 38.876772333333335, "type": "electric_bike", "lon": -77.01443666666667, "bike_id": "6c9f856cd9ce233df2c8d080cc7ca0f9", "rental_uris": {"android": "https://dc.lft.to/lastmile_qr_scan", "ios": "https://dc.lft.to/lastmile_qr_scan"}, "name": "6c9f856cd9ce233df2c8d080cc7ca0f9", "is_reserved": 0}, {"is_disabled": 0, "fusion_lon": 0.0, "fusion_lat": 0.0, "lat": 39.05813933333334, "type": "electric_bike", "lon": -77.12628583333333, "bike_id": "cc0e9608a90fb0428ab398a2288d5b1c", "rental_uris": {"android": "https://dc.lft.to/lastmile_qr_scan", "ios": "https://dc.lft.to/lastmile_qr_scan"}, "name": "cc0e9608a90fb0428ab398a2288d5b1c", "is_reserved": 0}, {"is_disabled": 0, "fusion_lon": 0.0, "fusion_lat": 0.0, "lat": 38.9265685, "type": "electric_scooter", "lon": -77.02436766666666, "bike_id": "7b8b099546666c34bc80dadc0406db52", "rental_uris": {"android": "https://dc.lft.to/lastmile_qr_scan", "ios": "https://dc.lft.to/lastmile_qr_scan"}, "name": "7b8b099546666c34bc80dadc0406db52", "is_reserved": 0}, {"is_disabled": 0, "fusion_lon": 0.0, "fusion_lat": 0.0, "lat": 38.9415035, "type": "electric_bike", "lon": -77.0019795, "bike_id": "871f9269432ee492ea065181802de35e", "rental_uris": {"android": "https://dc.lft.to/lastmile_qr_scan", "ios": "https://dc.lft.to/lastmile_qr_scan"}, "name": "871f9269432ee492ea065181802de35e", "is_reserved": 0}, {"is_disabled": 0, "fusion_lon": 0.0, "fusion_lat": 0.0, "lat": 38.90519883333333, "type": "electric_scooter", "lon": -77.026128, "bike_id": "caf1460f010e76d92750dfabea260de2", "rental_uris": {"android": "https://dc.lft.to/lastmile_qr_scan", "ios": "https://dc.lft.to/lastmile_qr_scan"}, "name": "caf1460f010e76d92750dfabea260de2", "is_reserved": 0}, {"is_disabled": 0, "fusion_lon": 0.0, "fusion_lat": 0.0, "lat": 38.90346266666667, "type": "electric_scooter", "lon": -77.025441, "bike_id": "2635723a61a7af64b95e65fd00780a9b", "rental_uris": {"android": "https://dc.lft.to/lastmile_qr_scan", "ios": "https://dc.lft.to/lastmile_qr_scan"}, "name": "2635723a61a7af64b95e65fd00780a9b", "is_reserved": 0}, {"is_disabled": 0, "fusion_lon": 0.0, "fusion_lat": 0.0, "lat": 38.92292166666667, "type": "electric_scooter", "lon": -77.0403275, "bike_id": "3281b8b770c4adb299db526f466f379b", "rental_uris": {"android": "https://dc.lft.to/lastmile_qr_scan", "ios": "https://dc.lft.to/lastmile_qr_scan"}, "name": "3281b8b770c4adb299db526f466f379b", "is_reserved": 0}, {"is_disabled": 0, "fusion_lon": 0.0, "fusion_lat": 0.0, "lat": 38.8876535, "type": "electric_scooter", "lon": -77.03383233333334, "bike_id": "00fb1b6d53c9e4c541c8cc910044253a", "rental_uris": {"android": "https://dc.lft.to/lastmile_qr_scan", "ios": "https://dc.lft.to/lastmile_qr_scan"}, "name": "00fb1b6d53c9e4c541c8cc910044253a", "is_reserved": 0}, {"is_disabled": 0, "fusion_lon": 0.0, "fusion_lat": 0.0, "lat": 38.9186095, "type": "electric_scooter", "lon": -77.035147, "bike_id": "ff64ce8a8a6fa67de6469ae2ef3f9b95", "rental_uris": {"android": "https://dc.lft.to/lastmile_qr_scan", "ios": "https://dc.lft.to/lastmile_qr_scan"}, "name": "ff64ce8a8a6fa67de6469ae2ef3f9b95", "is_reserved": 0}, {"is_disabled": 0, "fusion_lon": 0.0, "fusion_lat": 0.0, "lat": 38.98827466666667, "type": "electric_bike", "lon": -76.987484, "bike_id": "29a2136192b9dc0dcf58e497ce6b7798", "rental_uris": {"android": "https://dc.lft.to/lastmile_qr_scan", "ios": "https://dc.lft.to/lastmile_qr_scan"}, "name": "29a2136192b9dc0dcf58e497ce6b7798", "is_reserved": 0}, {"is_disabled": 0, "fusion_lon": 0.0, "fusion_lat": 0.0, "lat": 38.90958116666667, "type": "electric_scooter", "lon": -77.02281516666666, "bike_id": "82809664e6ffde1e1263e3ea0e164a4d", "rental_uris": {"android": "https://dc.lft.to/lastmile_qr_scan", "ios": "https://dc.lft.to/lastmile_qr_scan"}, "name": "82809664e6ffde1e1263e3ea0e164a4d", "is_reserved": 0}, {"is_disabled": 0, "fusion_lon": 0.0, "fusion_lat": 0.0, "lat": 38.92027683333333, "type": "electric_scooter", "lon": -77.038802, "bike_id": "f6fe3f9a3fe4c0e9d95204a6f4c9db74", "rental_uris": {"android": "https://dc.lft.to/lastmile_qr_scan", "ios": "https://dc.lft.to/lastmile_qr_scan"}, "name": "f6fe3f9a3fe4c0e9d95204a6f4c9db74", "is_reserved": 0}, {"is_disabled": 0, "fusion_lon": 0.0, "fusion_lat": 0.0, "lat": 38.907035, "type": "electric_scooter", "lon": -77.02694983333333, "bike_id": "747dde854e6c65cb8863a74e802e1d83", "rental_uris": {"android": "https://dc.lft.to/lastmile_qr_scan", "ios": "https://dc.lft.to/lastmile_qr_scan"}, "name": "747dde854e6c65cb8863a74e802e1d83", "is_reserved": 0}, {"is_disabled": 0, "fusion_lon": 0.0, "fusion_lat": 0.0, "lat": 38.930992333333336, "type": "electric_scooter", "lon": -77.02455, "bike_id": "b68c0d49dace9f5e69ac5e809eef57c3", "rental_uris": {"android": "https://dc.lft.to/lastmile_qr_scan", "ios": "https://dc.lft.to/lastmile_qr_scan"}, "name": "b68c0d49dace9f5e69ac5e809eef57c3", "is_reserved": 0}, {"is_disabled": 0, "fusion_lon": 0.0, "fusion_lat": 0.0, "lat": 38.92033583333333, "type": "electric_scooter", "lon": -77.02585433333333, "bike_id": "98444b8e70bc9c6fd08d95c1f1dba480", "rental_uris": {"android": "https://dc.lft.to/lastmile_qr_scan", "ios": "https://dc.lft.to/lastmile_qr_scan"}, "name": "98444b8e70bc9c6fd08d95c1f1dba480", "is_reserved": 0}, {"is_disabled": 0, "fusion_lon": 0.0, "fusion_lat": 0.0, "lat": 38.8792585, "type": "electric_scooter", "lon": -77.0134345, "bike_id": "b2112e2a0de2fc06e29f8f6a98a989ae", "rental_uris": {"android": "https://dc.lft.to/lastmile_qr_scan", "ios": "https://dc.lft.to/lastmile_qr_scan"}, "name": "b2112e2a0de2fc06e29f8f6a98a989ae", "is_reserved": 0}, {"is_disabled": 0, "fusion_lon": 0.0, "fusion_lat": 0.0, "lat": 38.885117, "type": "electric_scooter", "lon": -76.9985245, "bike_id": "07abf39c589718d914a2263a0695d740", "rental_uris": {"android": "https://dc.lft.to/lastmile_qr_scan", "ios": "https://dc.lft.to/lastmile_qr_scan"}, "name": "07abf39c589718d914a2263a0695d740", "is_reserved": 0}, {"is_disabled": 0, "fusion_lon": 0.0, "fusion_lat": 0.0, "lat": 38.892307333333335, "type": "electric_scooter", "lon": -77.04368033333333, "bike_id": "753ed6cba613df12b0045c82a118ad34", "rental_uris": {"android": "https://dc.lft.to/lastmile_qr_scan", "ios": "https://dc.lft.to/lastmile_qr_scan"}, "name": "753ed6cba613df12b0045c82a118ad34", "is_reserved": 0}, {"is_disabled": 0, "fusion_lon": 0.0, "fusion_lat": 0.0, "lat": 38.85772516666667, "type": "electric_bike", "lon": -76.98758566666666, "bike_id": "400c1d97c22cd9e95825418d270103ee", "rental_uris": {"android": "https://dc.lft.to/lastmile_qr_scan", "ios": "https://dc.lft.to/lastmile_qr_scan"}, "name": "400c1d97c22cd9e95825418d270103ee", "is_reserved": 0}, {"is_disabled": 0, "fusion_lon": 0.0, "fusion_lat": 0.0, "lat": 38.904736166666666, "type": "electric_bike", "lon": -76.92951566666666, "bike_id": "665951d3903189ab87b0226e31792268", "rental_uris": {"android": "https://dc.lft.to/lastmile_qr_scan", "ios": "https://dc.lft.to/lastmile_qr_scan"}, "name": "665951d3903189ab87b0226e31792268", "is_reserved": 0}, {"is_disabled": 0, "fusion_lon": 0.0, "fusion_lat": 0.0, "lat": 38.852845333333335, "type": "electric_bike", "lon": -76.98155733333333, "bike_id": "8e6534eca79cf2fde47071394554d5cf", "rental_uris": {"android": "https://dc.lft.to/lastmile_qr_scan", "ios": "https://dc.lft.to/lastmile_qr_scan"}, "name": "8e6534eca79cf2fde47071394554d5cf", "is_reserved": 0}, {"is_disabled": 0, "fusion_lon": 0.0, "fusion_lat": 0.0, "lat": 38.9057985, "type": "electric_scooter", "lon": -77.05597533333334, "bike_id": "6a8df9219aee96200c13c51f685c4275", "rental_uris": {"android": "https://dc.lft.to/lastmile_qr_scan", "ios": "https://dc.lft.to/lastmile_qr_scan"}, "name": "6a8df9219aee96200c13c51f685c4275", "is_reserved": 0}, {"is_disabled": 0, "fusion_lon": 0.0, "fusion_lat": 0.0, "lat": 38.90460566666667, "type": "electric_scooter", "lon": -77.024004, "bike_id": "53df6539615b7d8832e001a6c318da6d", "rental_uris": {"android": "https://dc.lft.to/lastmile_qr_scan", "ios": "https://dc.lft.to/lastmile_qr_scan"}, "name": "53df6539615b7d8832e001a6c318da6d", "is_reserved": 0}, {"is_disabled": 0, "fusion_lon": 0.0, "fusion_lat": 0.0, "lat": 38.943297, "type": "electric_bike", "lon": -77.01476333333333, "bike_id": "638de3977e24df6d1bd9931e59e02a53", "rental_uris": {"android": "https://dc.lft.to/lastmile_qr_scan", "ios": "https://dc.lft.to/lastmile_qr_scan"}, "name": "638de3977e24df6d1bd9931e59e02a53", "is_reserved": 0}, {"is_disabled": 0, "fusion_lon": 0.0, "fusion_lat": 0.0, "lat": 38.91418183333333, "type": "electric_scooter", "lon": -77.02972183333333, "bike_id": "88a3f03fc8090305eb13931dfe95bb7d", "rental_uris": {"android": "https://dc.lft.to/lastmile_qr_scan", "ios": "https://dc.lft.to/lastmile_qr_scan"}, "name": "88a3f03fc8090305eb13931dfe95bb7d", "is_reserved": 0}, {"is_disabled": 0, "fusion_lon": 0.0, "fusion_lat": 0.0, "lat": 38.9177725, "type": "electric_scooter", "lon": -77.04151916666666, "bike_id": "510bc40681d875f59af8b9bfe5baf66a", "rental_uris": {"android": "https://dc.lft.to/lastmile_qr_scan", "ios": "https://dc.lft.to/lastmile_qr_scan"}, "name": "510bc40681d875f59af8b9bfe5baf66a", "is_reserved": 0}, {"is_disabled": 0, "fusion_lon": 0.0, "fusion_lat": 0.0, "lat": 38.90001183333333, "type": "electric_scooter", "lon": -77.03365466666666, "bike_id": "37080adf4e063dbeab2ca88b1ce8bf39", "rental_uris": {"android": "https://dc.lft.to/lastmile_qr_scan", "ios": "https://dc.lft.to/lastmile_qr_scan"}, "name": "37080adf4e063dbeab2ca88b1ce8bf39", "is_reserved": 0}, {"is_disabled": 0, "fusion_lon": 0.0, "fusion_lat": 0.0, "lat": 38.9213515, "type": "electric_scooter", "lon": -77.04448566666667, "bike_id": "c11ad7b544b8258745b7c66418616a9a", "rental_uris": {"android": "https://dc.lft.to/lastmile_qr_scan", "ios": "https://dc.lft.to/lastmile_qr_scan"}, "name": "c11ad7b544b8258745b7c66418616a9a", "is_reserved": 0}, {"is_disabled": 0, "fusion_lon": 0.0, "fusion_lat": 0.0, "lat": 38.9211395, "type": "electric_scooter", "lon": -77.0438355, "bike_id": "94b06cb5dc067d87cbc8e3d5c5cc6539", "rental_uris": {"android": "https://dc.lft.to/lastmile_qr_scan", "ios": "https://dc.lft.to/lastmile_qr_scan"}, "name": "94b06cb5dc067d87cbc8e3d5c5cc6539", "is_reserved": 0},