{"data": {"bikes": [{"bike_id": "09b70cd6d92453116206d28b124a5619", "is_reserved": 0, "fusion_lon": 0.0, "lat": 38.8721135, "is_disabled": 0, "name": "09b70cd6d92453116206d28b124a5619", "fusion_lat": 0.0, "rental_uris": {"ios": "https://dc.lft.to/lastmile_qr_scan", "android": "https://dc.lft.to/lastmile_qr_scan"}, "lon": -77.0057065, "type": "electric_scooter"}, {"bike_id": "7ec59b51a3a198eac900e889b15d024f", "is_reserved": 0, "fusion_lon": 0.0, "lat": 38.91582416666667, "is_disabled": 0, "name": "7ec59b51a3a198eac900e889b15d024f", "fusion_lat": 0.0, "rental_uris": {"ios": "https://dc.lft.to/lastmile_qr_scan", "android": "https://dc.lft.to/lastmile_qr_scan"}, "lon": -76.98396966666667, "type": "electric_scooter"}, {"bike_id": "700dca8ae20ba1644ecc0b21f98a741d", "is_reserved": 0, "fusion_lon": 0.0, "lat": 38.90403833333333, "is_disabled": 0, "name": "700dca8ae20ba1644ecc0b21f98a741d", "fusion_lat": 0.0, "rental_uris": {"ios": "https://dc.lft.to/lastmile_qr_scan", "android": "https://dc.lft.to/lastmile_qr_scan"}, "lon": -77.0363235, "type": "electric_scooter"}, {"bike_id": "60283fe27d19f74459f38a2d81e86cb7", "is_reserved": 0, "fusion_lon": 0.0, "lat": 38.9155025, "is_disabled": 0, "name": "60283fe27d19f74459f38a2d81e86cb7", "fusion_lat": 0.0, "rental_uris": {"ios": "https://dc.lft.to/lastmile_qr_scan", "android": "https://dc.lft.to/lastmile_qr_scan"}, "lon": -77.01412166666667, "type": "electric_scooter"}, {"bike_id": "dc0914d9acdffd9f86b974249412532d", "is_reserved": 0, "fusion_lon": 0.0, "lat": 38.89296016666667, "is_disabled": 0, "name": "dc0914d9acdffd9f86b974249412532d", "fusion_lat": 0.0, "rental_uris": {"ios": "https://dc.lft.to/lastmile_qr_scan", "android": "https://dc.lft.to/lastmile_qr_scan"}, "lon": -77.0122775, "type": "electric_scooter"}, {"bike_id": "dc39da27a4095601a0bc27a00165085f", "is_reserved": 0, "fusion_lon": 0.0, "lat": 38.869263833333335, "is_disabled": 0, "name": "dc39da27a4095601a0bc27a00165085f", "fusion_lat": 0.0, "rental_uris": {"ios": "https://dc.lft.to/lastmile_qr_scan", "android": "https://dc.lft.to/lastmile_qr_scan"}, "lon": -76.98311116666666, "type": "electric_scooter"}, {"bike_id": "3bd5f38f405850d393ab8ce44eda7327", "is_reserved": 0, "fusion_lon": 0.0, "lat": 38.844244833333335, "is_disabled": 0, "name": "3bd5f38f405850d393ab8ce44eda7327", "fusion_lat": 0.0, "rental_uris": {"ios": "https://dc.lft.to/lastmile_qr_scan", "android": "https://dc.lft.to/lastmile_qr_scan"}, "lon": -76.9977765, "type": "electric_scooter"}, {"bike_id": "248d50517307d74da898c5318d486ed1", "is_reserved": 0, "fusion_lon": 0.0, "lat": 38.92120833333333, "is_disabled": 0, "name": "248d50517307d74da898c5318d486ed1", "fusion_lat": 0.0, "rental_uris": {"ios": "https://dc.lft.to/lastmile_qr_scan", "android": "https://dc.lft.to/lastmile_qr_scan"}, "lon": -77.04588033333333, "type": "electric_scooter"}, {"bike_id": "8bed894c8b3dbf8abe357145174fe5b7", "is_reserved": 0, "fusion_lon": 0.0, "lat": 38.888776166666666, "is_disabled": 0, "name": "8bed894c8b3dbf8abe357145174fe5b7", "fusion_lat": 0.0, "rental_uris": {"ios": "https://dc.lft.to/lastmile_qr_scan", "android": "https://dc.lft.to/lastmile_qr_scan"}, "lon": -76.99035633333334, "type": "electric_scooter"}, {"bike_id": "0071733f849034710f80710835b37b49", "is_reserved": 0, "fusion_lon": 0.0, "lat": 38.91769516666667, "is_disabled": 0, "name": "0071733f849034710f80710835b37b49", "fusion_lat": 0.0, "rental_uris": {"ios": "https://dc.lft.to/lastmile_qr_scan", "android": "https://dc.lft.to/lastmile_qr_scan"}, "lon": -77.04061783333333, "type": "electric_scooter"}, {"bike_id": "943a2767a2a42cfca25879d7b0cca673", "is_reserved": 0, "fusion_lon": 0.0, "lat": 38.935291, "is_disabled": 0, "name": "943a2767a2a42cfca25879d7b0cca673", "fusion_lat": 0.0, "rental_uris": {"ios": "https://dc.lft.to/lastmile_qr_scan", "android": "https://dc.lft.to/lastmile_qr_scan"}, "lon": -77.02853883333333, "type": "electric_scooter"}, {"bike_id": "12e3a9e7a33f6398a55879476ceaa104", "is_reserved": 0, "fusion_lon": 0.0, "lat": 38.92594666666667, "is_disabled": 0, "name": "12e3a9e7a33f6398a55879476ceaa104", "fusion_lat": 0.0, "rental_uris": {"ios": "https://dc.lft.to/lastmile_qr_scan", "android": "https://dc.lft.to/lastmile_qr_scan"}, "lon": -77.00482116666667, "type": "electric_scooter"}, {"bike_id": "281885cf829500171285f047725e16ae", "is_reserved": 0, "fusion_lon": 0.0, "lat": 38.908481, "is_disabled": 0, "name": "281885cf829500171285f047725e16ae", "fusion_lat": 0.0, "rental_uris": {"ios": "https://dc.lft.to/lastmile_qr_scan", "android": "https://dc.lft.to/lastmile_qr_scan"}, "lon": -77.0853175, "type": "electric_scooter"}, {"bike_id": "c515fdb2ff77d60ad68b823f70cab433", "is_reserved": 0, "fusion_lon": 0.0, "lat": 38.897616666666664, "is_disabled": 0, "name": "c515fdb2ff77d60ad68b823f70cab433", "fusion_lat": 0.0, "rental_uris": {"ios": "https://dc.lft.to/lastmile_qr_scan", "android": "https://dc.lft.to/lastmile_qr_scan"}, "lon": -76.93913633333334, "type": "electric_scooter"}, {"bike_id": "0f5ca2363fabd007580a24009fc08476", "is_reserved": 0, "fusion_lon": 0.0, "lat": 38.89231933333333, "is_disabled": 0, "name": "0f5ca2363fabd007580a24009fc08476", "fusion_lat": 0.0, "rental_uris": {"ios": "https://dc.lft.to/lastmile_qr_scan", "android": "https://dc.lft.to/lastmile_qr_scan"}, "lon": -77.05001, "type": "electric_scooter"}, {"bike_id": "bb4051bd15a2a09f37861b26e25fc5eb", "is_reserved": 0, "fusion_lon": 0.0, "lat": 38.89234483333333, "is_disabled": 0, "name": "bb4051bd15a2a09f37861b26e25fc5eb", "fusion_lat": 0.0, "rental_uris": {"ios": "https://dc.lft.to/lastmile_qr_scan", "android": "https://dc.lft.to/lastmile_qr_scan"}, "lon": -77.02809833333333, "type": "electric_scooter"}, {"bike_id": "d5f6da99e7d7c94d578b1cd77e410ff8", "is_reserved": 0, "fusion_lon": 0.0, "lat": 38.883591, "is_disabled": 0, "name": "d5f6da99e7d7c94d578b1cd77e410ff8", "fusion_lat": 0.0, "rental_uris": {"ios": "https://dc.lft.to/lastmile_qr_scan", "android": "https://dc.lft.to/lastmile_qr_scan"}, "lon": -77.03176166666667, "type": "electric_scooter"}, {"bike_id": "3d5aa6cee9bbcdb326e9ca5e2b9ad524", "is_reserved": 0, "fusion_lon": 0.0, "lat": 38.9215105, "is_disabled": 0, "name": "3d5aa6cee9bbcdb326e9ca5e2b9ad524", "fusion_lat": 0.0, "rental_uris": {"ios": "https://dc.lft.to/lastmile_qr_scan", "android": "https://dc.lft.to/lastmile_qr_scan"}, "lon": -77.03382716666667, "type": "electric_scooter"}, {"bike_id": "f0ad1f86d9576ab59ee0d6353d6eba3a", "is_reserved": 0, "fusion_lon": 0.0, "lat": 38.92602883333333, "is_disabled": 0, "name": "f0ad1f86d9576ab59ee0d6353d6eba3a", "fusion_lat": 0.0, "rental_uris": {"ios": "https://dc.lft.to/lastmile_qr_scan", "android": "https://dc.lft.to/lastmile_qr_scan"}, "lon": -77.04408016666666, "type": "electric_scooter"}, {"bike_id": "b3757220e5f11e18dd42a4f4539efda2", "is_reserved": 0, "fusion_lon": 0.0, "lat": 38.890870666666665, "is_disabled": 0, "name": "b3757220e5f11e18dd42a4f4539efda2", "fusion_lat": 0.0, "rental_uris": {"ios": "https://dc.lft.to/lastmile_qr_scan", "android": "https://dc.lft.to/lastmile_qr_scan"}, "lon": -76.98746916666667, "type": "electric_scooter"}, {"bike_id": "281f5dbf472af727b96051bd2ee72b40", "is_reserved": 0, "fusion_lon": 0.0, "lat": 38.91335683333333, "is_disabled": 0, "name": "281f5dbf472af727b96051bd2ee72b40", "fusion_lat": 0.0, "rental_uris": {"ios": "https://dc.lft.to/lastmile_qr_scan", "android": "https://dc.lft.to/lastmile_qr_scan"}, "lon": -77.04832933333333, "type": "electric_scooter"}, {"bike_id": "633a6bce5497e6a24f8f4629e9a9dcde", "is_reserved": 0, "fusion_lon": 0.0, "lat": 38.915756, "is_disabled": 0, "name": "633a6bce5497e6a24f8f4629e9a9dcde", "fusion_lat": 0.0, "rental_uris": {"ios": "https://dc.lft.to/lastmile_qr_scan", "android": "https://dc.lft.to/lastmile_qr_scan"}, "lon": -77.05026816666667, "type": "electric_bike"}, {"bike_id": "7f0913752f496d8c7eb944c27b09713f", "is_reserved": 0, "fusion_lon": 0.0, "lat": 38.87834766666667, "is_disabled": 0, "name": "7f0913752f496d8c7eb944c27b09713f", "fusion_lat": 0.0, "rental_uris": {"ios": "https://dc.lft.to/lastmile_qr_scan", "android": "https://dc.lft.to/lastmile_qr_scan"}, "lon": -76.98844316666667, "type": "electric_scooter"}, {"bike_id": "7011ce689bc5aa81adf15f6eb40d97ac", "is_reserved": 0, "fusion_lon": 0.0, "lat": 38.909689, "is_disabled": 0, "name": "7011ce689bc5aa81adf15f6eb40d97ac", "fusion_lat": 0.0, "rental_uris": {"ios": "https://dc.lft.to/lastmile_qr_scan", "android": "https://dc.lft.to/lastmile_qr_scan"}, "lon": -77.04875516666667, "type": "electric_scooter"}, {"bike_id": "c9654adfec8db1800d74c36b6b717c71", "is_reserved": 0, "fusion_lon": 0.0, "lat": 38.93283566666667, "is_disabled": 0, "name": "c9654adfec8db1800d74c36b6b717c71", "fusion_lat": 0.0, "rental_uris": {"ios": "https://dc.lft.to/lastmile_qr_scan", "android": "https://dc.lft.to/lastmile_qr_scan"}, "lon": -77.03634216666667, "type": "electric_bike"}, {"bike_id": "de14f08b02ca0fa082292bd590c463b4", "is_reserved": 0, "fusion_lon": 0.0, "lat": 38.91481916666667, "is_disabled": 0, "name": "de14f08b02ca0fa082292bd590c463b4", "fusion_lat": 0.0, "rental_uris": {"ios": "https://dc.lft.to/lastmile_qr_scan", "android": "https://dc.lft.to/lastmile_qr_scan"}, "lon": -77.04093433333334, "type": "electric_scooter"}, {"bike_id": "cd22fa4cef9b5d24f44b5398ec2e58b2", "is_reserved": 0, "fusion_lon": 0.0, "lat": 38.90031366666667, "is_disabled": 0, "name": "cd22fa4cef9b5d24f44b5398ec2e58b2", "fusion_lat": 0.0, "rental_uris": {"ios": "https://dc.lft.to/lastmile_qr_scan", "android": "https://dc.lft.to/lastmile_qr_scan"}, "lon": -76.9906605, "type": "electric_scooter"}, {"bike_id": "4f8dbd0181135ee8d3745c98c06e289d", "is_reserved": 0, "fusion_lon": 0.0, "lat": 38.884064333333335, "is_disabled": 0, "name": "4f8dbd0181135ee8d3745c98c06e289d", "fusion_lat": 0.0, "rental_uris": {"ios": "https://dc.lft.to/lastmile_qr_scan", "android": "https://dc.lft.to/lastmile_qr_scan"}, "lon": -77.0258365, "type": "electric_scooter"}, {"bike_id": "84c9d344bd1cdf363ba2b55033e5d99a", "is_reserved": 0, "fusion_lon": 0.0, "lat": 38.906764, "is_disabled": 0, "name": "84c9d344bd1cdf363ba2b55033e5d99a", "fusion_lat": 0.0, "rental_uris": {"ios": "https://dc.lft.to/lastmile_qr_scan", "android": "https://dc.lft.to/lastmile_qr_scan"}, "lon": -77.035307, "type": "electric_scooter"}, {"bike_id": "54ac74659760652fba55bb49eb359c40", "is_reserved": 0, "fusion_lon": 0.0, "lat": 38.942121, "is_disabled": 0, "name": "54ac74659760652fba55bb49eb359c40", "fusion_lat": 0.0, "rental_uris": {"ios": "https://dc.lft.to/lastmile_qr_scan", "android": "https://dc.lft.to/lastmile_qr_scan"}, "lon": -77.03591016666667, "type": "electric_scooter"}, {"bike_id": "c275613f780445cd5eeba89bb5864413", "is_reserved": 0, "fusion_lon": 0.0, "lat": 38.9212075, "is_disabled": 0, "name": "c275613f780445cd5eeba89bb5864413", "fusion_lat": 0.0, "rental_uris": {"ios": "https://dc.lft.to/lastmile_qr_scan", "android": "https://dc.lft.to/lastmile_qr_scan"}, "lon": -77.03655566666667, "type": "electric_scooter"}, {"bike_id": "968ca8369069837296e15cd9492ae6ea", "is_reserved": 0, "fusion_lon": 0.0, "lat": 38.876916, "is_disabled": 0, "name": "968ca8369069837296e15cd9492ae6ea", "fusion_lat": 0.0, "rental_uris": {"ios": "https://dc.lft.to/lastmile_qr_scan", "android": "https://dc.lft.to/lastmile_qr_scan"}, "lon": -77.0074175, "type": "electric_scooter"}, {"bike_id": "0f76ffaf8303c9ae0f8bd6abf8b93cfd", "is_reserved": 0, "fusion_lon": 0.0, "lat": 38.9378805, "is_disabled": 0, "name": "0f76ffaf8303c9ae0f8bd6abf8b93cfd", "fusion_lat": 0.0, "rental_uris": {"ios": "https://dc.lft.to/lastmile_qr_scan", "android": "https://dc.lft.to/lastmile_qr_scan"}, "lon": -77.0233325, "type": "electric_scooter"}, {"bike_id": "64190dd14ed471d234c352d1708e39c6", "is_reserved": 0, "fusion_lon": 0.0, "lat": 38.900298666666664, "is_disabled": 0, "name": "64190dd14ed471d234c352d1708e39c6", "fusion_lat": 0.0, "rental_uris": {"ios": "https://dc.lft.to/lastmile_qr_scan", "android": "https://dc.lft.to/lastmile_qr_scan"}, "lon": -76.98795083333333, "type": "electric_scooter"}, {"bike_id": "8c986e9db7d6f75e5f55ea8ef87f82ed", "is_reserved": 0, "fusion_lon": 0.0, "lat": 38.901835166666665, "is_disabled": 0, "name": "8c986e9db7d6f75e5f55ea8ef87f82ed", "fusion_lat": 0.0, "rental_uris": {"ios": "https://dc.lft.to/lastmile_qr_scan", "android": "https://dc.lft.to/lastmile_qr_scan"}, "lon": -76.93003283333333, "type": "electric_scooter"}, {"bike_id": "81764bc2e50ce4010693d33348742fc2", "is_reserved": 0, "fusion_lon": 0.0, "lat": 38.90840816666667, "is_disabled": 0, "name": "81764bc2e50ce4010693d33348742fc2", "fusion_lat": 0.0, "rental_uris": {"ios": "https://dc.lft.to/lastmile_qr_scan", "android": "https://dc.lft.to/lastmile_qr_scan"}, "lon": -77.02591766666667, "type": "electric_scooter"}, {"bike_id": "34f2b08345792646db72c12db1b1dd4c", "is_reserved": 0, "fusion_lon": 0.0, "lat": 38.91717883333333, "is_disabled": 0, "name": "34f2b08345792646db72c12db1b1dd4c", "fusion_lat": 0.0, "rental_uris": {"ios": "https://dc.lft.to/lastmile_qr_scan", "android": "https://dc.lft.to/lastmile_qr_scan"}, "lon": -77.03839933333333, "type": "electric_scooter"}, {"bike_id": "29a7b2f1f83fba221661fb030a91d35b", "is_reserved": 0, "fusion_lon": 0.0, "lat": 38.92622466666667, "is_disabled": 0, "name": "29a7b2f1f83fba221661fb030a91d35b", "fusion_lat": 0.0, "rental_uris": {"ios": "https://dc.lft.to/lastmile_qr_scan", "android": "https://dc.lft.to/lastmile_qr_scan"}, "lon": -77.03318016666667, "type": "electric_bike"}, {"bike_id": "5b81fb426691d37e940437eb0cfdc6e2", "is_reserved": 0, "fusion_lon": 0.0, "lat": 38.90967533333333, "is_disabled": 0, "name": "5b81fb426691d37e940437eb0cfdc6e2", "fusion_lat": 0.0, "rental_uris": {"ios": "https://dc.lft.to/lastmile_qr_scan", "android": "https://dc.lft.to/lastmile_qr_scan"}, "lon": -77.027194, "type": "electric_scooter"}, {"bike_id": "305518dae8e082ccdbdabfa9869cfdc6", "is_reserved": 0, "fusion_lon": 0.0, "lat": 38.94398733333333, "is_disabled": 0, "name": "305518dae8e082ccdbdabfa9869cfdc6", "fusion_lat": 0.0, "rental_uris": {"ios": "https://dc.lft.to/lastmile_qr_scan", "android": "https://dc.lft.to/lastmile_qr_scan"}, "lon": -77.038941, "type": "electric_scooter"}, {"bike_id": "c7a4b7c11f5e753fa5a40489e7036be6", "is_reserved": 0, "fusion_lon": 0.0, "lat": 38.8987505, "is_disabled": 0, "name": "c7a4b7c11f5e753fa5a40489e7036be6", "fusion_lat": 0.0, "rental_uris": {"ios": "https://dc.lft.to/lastmile_qr_scan", "android": "https://dc.lft.to/lastmile_qr_scan"}, "lon": -76.9315965, "type": "electric_scooter"}, {"bike_id": "5433ff24d6a288c3791059ff09680d0d", "is_reserved": 0, "fusion_lon": 0.0, "lat": 38.921576333333334, "is_disabled": 0, "name": "5433ff24d6a288c3791059ff09680d0d", "fusion_lat": 0.0, "rental_uris": {"ios": "https://dc.lft.to/lastmile_qr_scan", "android": "https://dc.lft.to/lastmile_qr_scan"}, "lon": -77.0329135, "type": "electric_scooter"}, {"bike_id": "89e21de4e29fdb7fc8c5bcc41e7378a4", "is_reserved": 0, "fusion_lon": 0.0, "lat": 38.90102366666667, "is_disabled": 0, "name": "89e21de4e29fdb7fc8c5bcc41e7378a4", "fusion_lat": 0.0, "rental_uris": {"ios": "https://dc.lft.to/lastmile_qr_scan", "android": "https://dc.lft.to/lastmile_qr_scan"}, "lon": -77.04371716666667, "type": "electric_scooter"}, {"bike_id": "67b2ba31afcd487ebe6285ba27d24cef", "is_reserved": 0, "fusion_lon": 0.0, "lat": 38.91786616666667, "is_disabled": 0, "name": "67b2ba31afcd487ebe6285ba27d24cef", "fusion_lat": 0.0, "rental_uris": {"ios": "https://dc.lft.to/lastmile_qr_scan", "android": "https://dc.lft.to/lastmile_qr_scan"}, "lon": -77.02310783333333, "type": "electric_scooter"}, {"bike_id": "bf5cf42518a105411f7a10ee9e3856ed", "is_reserved": 0, "fusion_lon": 0.0, "lat": 38.9244275, "is_disabled": 0, "name": "bf5cf42518a105411f7a10ee9e3856ed", "fusion_lat": 0.0, "rental_uris": {"ios": "https://dc.lft.to/lastmile_qr_scan", "android": "https://dc.lft.to/lastmile_qr_scan"}, "lon": -76.99332083333333, "type": "electric_scooter"}, {"bike_id": "1d57d9f3013aeb8e30db276e118125fd", "is_reserved": 0, "fusion_lon": 0.0, "lat": 38.91406533333333, "is_disabled": 0, "name": "1d57d9f3013aeb8e30db276e118125fd", "fusion_lat": 0.0, "rental_uris": {"ios": "https://dc.lft.to/lastmile_qr_scan", "android": "https://dc.lft.to/lastmile_qr_scan"}, "lon": -77.00154983333333, "type": "electric_scooter"}, {"bike_id": "1176691b2d759e95581260979597becc", "is_reserved": 0, "fusion_lon": 0.0, "lat": 38.912695166666666, "is_disabled": 0, "name": "1176691b2d759e95581260979597becc", "fusion_lat": 0.0, "rental_uris": {"ios": "https://dc.lft.to/lastmile_qr_scan", "android": "https://dc.lft.to/lastmile_qr_scan"}, "lon": -77.02215366666667, "type": "electric_scooter"}, {"bike_id": "ca0b366c34d309bf3356cb27532174b9", "is_reserved": 0, "fusion_lon": 0.0, "lat": 38.92068666666667, "is_disabled": 0, "name": "ca0b366c34d309bf3356cb27532174b9", "fusion_lat": 0.0, "rental_uris": {"ios": "https://dc.lft.to/lastmile_qr_scan", "android": "https://dc.lft.to/lastmile_qr_scan"}, "lon": -77.0242785, "type": "electric_scooter"}, {"bike_id": "a5226c48f0df5cb752c8e9c172d1c7f7", "is_reserved": 0, "fusion_lon": 0.0, "lat": 38.902560333333334, "is_disabled": 0, "name": "a5226c48f0df5cb752c8e9c172d1c7f7", "fusion_lat": 0.0, "rental_uris": {"ios": "https://dc.lft.to/lastmile_qr_scan", "android": "https://dc.lft.to/lastmile_qr_scan"}, "lon": -77.01789633333334, "type": "electric_scooter"}, {"bike_id": "18c01c31b509330a418dc6b59b3a9e00", "is_reserved": 0, "fusion_lon": 0.0, "lat": 38.92227616666667, "is_disabled": 0, "name": "18c01c31b509330a418dc6b59b3a9e00", "fusion_lat": 0.0, "rental_uris": {"ios": "https://dc.lft.to/lastmile_qr_scan", "android": "https://dc.lft.to/lastmile_qr_scan"}, "lon": -77.04127316666667, "type": "electric_scooter"}, {"bike_id": "11b32dc2f5d3e3c2bea71a3dc2768667", "is_reserved": 0, "fusion_lon": 0.0, "lat": 38.880030833333336, "is_disabled": 0, "name": "11b32dc2f5d3e3c2bea71a3dc2768667", "fusion_lat": 0.0, "rental_uris": {"ios": "https://dc.lft.to/lastmile_qr_scan", "android": "https://dc.lft.to/lastmile_qr_scan"}, "lon": -76.915965, "type": "electric_bike"}, {"bike_id": "f8109d17dc7f13d85114270ad1f3f8d4", "is_reserved": 0, "fusion_lon": 0.0, "lat": 38.82444366666667, "is_disabled": 0, "name": "f8109d17dc7f13d85114270ad1f3f8d4", "fusion_lat": 0.0, "rental_uris": {"ios": "https://dc.lft.to/lastmile_qr_scan", "android": "https://dc.lft.to/lastmile_qr_scan"}, "lon": -77.07043816666666, "type": "electric_bike"}, {"bike_id": "3450e29c32c2a2edcec8572aff725d63", "is_reserved": 0, "fusion_lon": 0.0, "lat": 38.93339533333334, "is_disabled": 0, "name": "3450e29c32c2a2edcec8572aff725d63", "fusion_lat": 0.0, "rental_uris": {"ios": "https://dc.lft.to/lastmile_qr_scan", "android": "https://dc.lft.to/lastmile_qr_scan"}, "lon": -77.0420475, "type": "electric_bike"}, {"bike_id": "29615628128bf66e65a7ff4b7f070df5", "is_reserved": 0, "fusion_lon": 0.0, "lat": 38.93505116666667, "is_disabled": 0, "name": "29615628128bf66e65a7ff4b7f070df5", "fusion_lat": 0.0, "rental_uris": {"ios": "https://dc.lft.to/lastmile_qr_scan", "android": "https://dc.lft.to/lastmile_qr_scan"}, "lon": -77.0334385, "type": "electric_scooter"}, {"bike_id": "9178cbc8554182e57a57481447c26e31", "is_reserved": 0, "fusion_lon": 0.0, "lat": 38.923396, "is_disabled": 0, "name": "9178cbc8554182e57a57481447c26e31", "fusion_lat": 0.0, "rental_uris": {"ios": "https://dc.lft.to/lastmile_qr_scan", "android": "https://dc.lft.to/lastmile_qr_scan"}, "lon": -77.03532683333333, "type": "electric_scooter"}, {"bike_id": "bb63852b6ce784e5644f369f9d167518", "is_reserved": 0, "fusion_lon": 0.0, "lat": 38.9089155, "is_disabled": 0, "name": "bb63852b6ce784e5644f369f9d167518", "fusion_lat": 0.0, "rental_uris": {"ios": "https://dc.lft.to/lastmile_qr_scan", "android": "https://dc.lft.to/lastmile_qr_scan"}, "lon": -77.086144, "type": "electric_scooter"}, {"bike_id": "383da45ffc299e9ec260816abdc2b86e", "is_reserved": 0, "fusion_lon": 0.0, "lat": 38.90360583333333, "is_disabled": 0, "name": "383da45ffc299e9ec260816abdc2b86e", "fusion_lat": 0.0, "rental_uris": {"ios": "https://dc.lft.to/lastmile_qr_scan", "android": "https://dc.lft.to/lastmile_qr_scan"}, "lon": -77.03937116666667, "type": "electric_scooter"}, {"bike_id": "4455743d30f736126889c2bfeee0fba2", "is_reserved": 0, "fusion_lon": 0.0, "lat": 38.91722216666667, "is_disabled": 0, "name": "4455743d30f736126889c2bfeee0fba2", "fusion_lat": 0.0, "rental_uris": {"ios": "https://dc.lft.to/lastmile_qr_scan", "android": "https://dc.lft.to/lastmile_qr_scan"}, "lon": -77.038393, "type": "electric_scooter"}, {"bike_id": "d7e2de8938e70b69c13ee1e0bcaded88", "is_reserved": 0, "fusion_lon": 0.0, "lat": 38.91857733333333, "is_disabled": 0, "name": "d7e2de8938e70b69c13ee1e0bcaded88", "fusion_lat": 0.0, "rental_uris": {"ios": "https://dc.lft.to/lastmile_qr_scan", "android": "https://dc.lft.to/lastmile_qr_scan"}, "lon": -76.9609255, "type": "electric_bike"}, {"bike_id": "99da70787d2c9bdd81216546e5bb357d", "is_reserved": 0, "fusion_lon": 0.0, "lat": 38.902898666666665, "is_disabled": 0, "name": "99da70787d2c9bdd81216546e5bb357d", "fusion_lat": 0.0, "rental_uris": {"ios": "https://dc.lft.to/lastmile_qr_scan", "android": "https://dc.lft.to/lastmile_qr_scan"}, "lon": -77.0366065, "type": "electric_scooter"}, {"bike_id": "ccd9b6769a2413fe4b39b9f298c22220", "is_reserved": 0, "fusion_lon": 0.0, "lat": 38.89246166666667, "is_disabled": 0, "name": "ccd9b6769a2413fe4b39b9f298c22220", "fusion_lat": 0.0, "rental_uris": {"ios": "https://dc.lft.to/lastmile_qr_scan", "android": "https://dc.lft.to/lastmile_qr_scan"}, "lon": -77.03194133333334, "type": "electric_scooter"}, {"bike_id": "796fdee2be2c993776407e5e0c327542", "is_reserved": 0, "fusion_lon": 0.0, "lat": 38.920888833333336, "is_disabled": 0, "name": "796fdee2be2c993776407e5e0c327542", "fusion_lat": 0.0, "rental_uris": {"ios": "https://dc.lft.to/lastmile_qr_scan", "android": "https://dc.lft.to/lastmile_qr_scan"}, "lon": -77.02421283333334, "type": "electric_scooter"}, {"bike_id": "17ab2207fd6c8dfce7264f2552d9f060", "is_reserved": 0, "fusion_lon": 0.0, "lat": 38.955507, "is_disabled": 0, "name": "17ab2207fd6c8dfce7264f2552d9f060", "fusion_lat": 0.0, "rental_uris": {"ios": "https://dc.lft.to/lastmile_qr_scan", "android": "https://dc.lft.to/lastmile_qr_scan"}, "lon": -76.94010566666667, "type": "electric_bike"}, {"bike_id": "4c63072679da8a10e8a1e41a556251f6", "is_reserved": 0, "fusion_lon": 0.0, "lat": 38.925702666666666, "is_disabled": 0, "name": "4c63072679da8a10e8a1e41a556251f6", "fusion_lat": 0.0, "rental_uris": {"ios": "https://dc.lft.to/lastmile_qr_scan", "android": "https://dc.lft.to/lastmile_qr_scan"}, "lon": -77.0378, "type": "electric_scooter"}, {"bike_id": "697fc8ddad7c9183e063e34e519464a8", "is_reserved": 0, "fusion_lon": 0.0, "lat": 38.86567983333333, "is_disabled": 0, "name": "697fc8ddad7c9183e063e34e519464a8", "fusion_lat": 0.0, "rental_uris": {"ios": "https://dc.lft.to/lastmile_qr_scan", "android": "https://dc.lft.to/lastmile_qr_scan"}, "lon": -76.9895015, "type": "electric_scooter"}, {"bike_id": "22fa4ccb794fa905fad010f5e66a757c", "is_reserved": 0, "fusion_lon": 0.0, "lat": 38.903169166666665, "is_disabled": 0, "name": "22fa4ccb794fa905fad010f5e66a757c", "fusion_lat": 0.0, "rental_uris": {"ios": "https://dc.lft.to/lastmile_qr_scan", "android": "https://dc.lft.to/lastmile_qr_scan"}, "lon": -77.03825316666666, "type": "electric_scooter"}, {"bike_id": "87604040ea90f0f505be91096d50505d", "is_reserved": 0, "fusion_lon": 0.0, "lat": 38.957323833333334, "is_disabled": 0, "name": "87604040ea90f0f505be91096d50505d", "fusion_lat": 0.0, "rental_uris": {"ios": "https://dc.lft.to/lastmile_qr_scan", "android": "https://dc.lft.to/lastmile_qr_scan"}, "lon": -77.02404, "type": "electric_scooter"}, {"bike_id": "1539a5b9db0e219fefead85e64d59290", "is_reserved": 0, "fusion_lon": 0.0, "lat": 38.901316, "is_disabled": 0, "name": "1539a5b9db0e219fefead85e64d59290", "fusion_lat": 0.0, "rental_uris": {"ios": "https://dc.lft.to/lastmile_qr_scan", "android": "https://dc.lft.to/lastmile_qr_scan"}, "lon": -77.04465333333333, "type": "electric_scooter"}, {"bike_id": "8e8cba5d187ee861e8fcf3ff341578be", "is_reserved": 0, "fusion_lon": 0.0, "lat": 38.8947345, "is_disabled": 0, "name": "8e8cba5d187ee861e8fcf3ff341578be", "fusion_lat": 0.0, "rental_uris": {"ios": "https://dc.lft.to/lastmile_qr_scan", "android": "https://dc.lft.to/lastmile_qr_scan"}, "lon": -76.98402116666666, "type": "electric_scooter"}, {"bike_id": "505db928a9bd78d45675117304cd6c4d", "is_reserved": 0, "fusion_lon": 0.0, "lat": 38.879331666666666, "is_disabled": 0, "name": "505db928a9bd78d45675117304cd6c4d", "fusion_lat": 0.0, "rental_uris": {"ios": "https://dc.lft.to/lastmile_qr_scan", "android": "https://dc.lft.to/lastmile_qr_scan"}, "lon": -77.00408183333333, "type": "electric_scooter"}, {"bike_id": "35585e5de76c713c2c7fbae330176f45", "is_reserved": 0, "fusion_lon": 0.0, "lat": 38.896123333333335, "is_disabled": 0, "name": "35585e5de76c713c2c7fbae330176f45", "fusion_lat": 0.0, "rental_uris": {"ios": "https://dc.lft.to/lastmile_qr_scan", "android": "https://dc.lft.to/lastmile_qr_scan"}, "lon": -76.98121916666666, "type": "electric_scooter"}, {"bike_id": "2ecccd502de20367074941256836a2d9", "is_reserved": 0, "fusion_lon": 0.0, "lat": 38.85157, "is_disabled": 0, "name": "2ecccd502de20367074941256836a2d9", "fusion_lat": 0.0, "rental_uris": {"ios": "https://dc.lft.to/lastmile_qr_scan", "android": "https://dc.lft.to/lastmile_qr_scan"}, "lon": -77.12882266666666, "type": "electric_bike"}, {"bike_id": "46e33ebebbbefa45fe7c0c7b4852e9e0", "is_reserved": 0, "fusion_lon": 0.0, "lat": 38.897285333333336, "is_disabled": 0, "name": "46e33ebebbbefa45fe7c0c7b4852e9e0", "fusion_lat": 0.0, "rental_uris": {"ios": "https://dc.lft.to/lastmile_qr_scan", "android": "https://dc.lft.to/lastmile_qr_scan"}, "lon": -76.925843, "type": "electric_scooter"}, {"bike_id": "9b945a1c349778368849be76acb90630", "is_reserved": 0, "fusion_lon": 0.0, "lat": 38.917098333333335, "is_disabled": 0, "name": "9b945a1c349778368849be76acb90630", "fusion_lat": 0.0, "rental_uris": {"ios": "https://dc.lft.to/lastmile_qr_scan", "android": "https://dc.lft.to/lastmile_qr_scan"}, "lon": -77.0348175, "type": "electric_scooter"}, {"bike_id": "296d4eb965f41a20ae2cf47245532418", "is_reserved": 0, "fusion_lon": 0.0, "lat": 38.90021333333333, "is_disabled": 0, "name": "296d4eb965f41a20ae2cf47245532418", "fusion_lat": 0.0, "rental_uris": {"ios": "https://dc.lft.to/lastmile_qr_scan", "android": "https://dc.lft.to/lastmile_qr_scan"}, "lon": -76.9830415, "type": "electric_scooter"}, {"bike_id": "36f19544af52bc7cd7894ef663adc628", "is_reserved": 0, "fusion_lon": 0.0, "lat": 38.9066155, "is_disabled": 0, "name": "36f19544af52bc7cd7894ef663adc628", "fusion_lat": 0.0, "rental_uris": {"ios": "https://dc.lft.to/lastmile_qr_scan", "android": "https://dc.lft.to/lastmile_qr_scan"}, "lon": -77.04301366666667, "type": "electric_scooter"}, {"bike_id": "28e2107b4029dc80b09e4a904954001a", "is_reserved": 0, "fusion_lon": 0.0, "lat": 38.919966333333335, "is_disabled": 0, "name": "28e2107b4029dc80b09e4a904954001a", "fusion_lat": 0.0, "rental_uris": {"ios": "https://dc.lft.to/lastmile_qr_scan", "android": "https://dc.lft.to/lastmile_qr_scan"}, "lon": -77.03230533333333, "type": "electric_scooter"}, {"bike_id": "5828d14d2bb023a0b03644ff54e29e61", "is_reserved": 0, "fusion_lon": 0.0, "lat": 38.842921833333335, "is_disabled": 0, "name": "5828d14d2bb023a0b03644ff54e29e61", "fusion_lat": 0.0, "rental_uris": {"ios": "https://dc.lft.to/lastmile_qr_scan", "android": "https://dc.lft.to/lastmile_qr_scan"}, "lon": -76.99949083333334, "type": "electric_scooter"}, {"bike_id": "bbd0e4efe1a58cbf70aac46a100ef737", "is_reserved": 0, "fusion_lon": 0.0, "lat": 38.910509, "is_disabled": 0, "name": "bbd0e4efe1a58cbf70aac46a100ef737", "fusion_lat": 0.0, "rental_uris": {"ios": "https://dc.lft.to/lastmile_qr_scan", "android": "https://dc.lft.to/lastmile_qr_scan"}, "lon": -77.01690233333333, "type": "electric_scooter"}, {"bike_id": "728825eaa3369b5f0bd60efd890f1518", "is_reserved": 0, "fusion_lon": 0.0, "lat": 38.941705166666665, "is_disabled": 0, "name": "728825eaa3369b5f0bd60efd890f1518", "fusion_lat": 0.0, "rental_uris": {"ios": "https://dc.lft.to/lastmile_qr_scan", "android": "https://dc.lft.to/lastmile_qr_scan"}, "lon": -77.02501383333333, "type": "electric_scooter"}, {"bike_id": "65b626a8a9ff2ad69b110e30d91e93b1", "is_reserved": 0, "fusion_lon": 0.0, "lat": 38.93677183333333, "is_disabled": 0, "name": "65b626a8a9ff2ad69b110e30d91e93b1", "fusion_lat": 0.0, "rental_uris": {"ios": "https://dc.lft.to/lastmile_qr_scan", "android": "https://dc.lft.to/lastmile_qr_scan"}, "lon": -77.03595566666667, "type": "electric_scooter"}, {"bike_id": "c6553dc64f79288b0a11043b06ed18b3", "is_reserved": 0, "fusion_lon": 0.0, "lat": 38.86626566666666, "is_disabled": 0, "name": "c6553dc64f79288b0a11043b06ed18b3", "fusion_lat": 0.0, "rental_uris": {"ios": "https://dc.lft.to/lastmile_qr_scan", "android": "https://dc.lft.to/lastmile_qr_scan"}, "lon": -76.98721716666667, "type": "electric_scooter"}, {"bike_id": "3b93cce9ca592dd9db2bfef3aeff36d9", "is_reserved": 0, "fusion_lon": 0.0, "lat": 38.92540016666667, "is_disabled": 0, "name": "3b93cce9ca592dd9db2bfef3aeff36d9", "fusion_lat": 0.0, "rental_uris": {"ios": "https://dc.lft.to/lastmile_qr_scan", "android": "https://dc.lft.to/lastmile_qr_scan"}, "lon": -77.03469683333333, "type": "electric_scooter"}, {"bike_id": "b8cae8ad8abc4de466bb01c82e182af5", "is_reserved": 0, "fusion_lon": 0.0, "lat": 38.92026083333333, "is_disabled": 0, "name": "b8cae8ad8abc4de466bb01c82e182af5", "fusion_lat": 0.0, "rental_uris": {"ios": "https://dc.lft.to/lastmile_qr_scan", "android": "https://dc.lft.to/lastmile_qr_scan"}, "lon": -77.01114566666666, "type": "electric_scooter"}, {"bike_id": "34eb1e8a432becd71e01dfd96ca81407", "is_reserved": 0, "fusion_lon": 0.0, "lat": 38.85802916666667, "is_disabled": 0, "name": "34eb1e8a432becd71e01dfd96ca81407", "fusion_lat": 0.0, "rental_uris": {"ios": "https://dc.lft.to/lastmile_qr_scan", "android": "https://dc.lft.to/lastmile_qr_scan"}, "lon": -76.98754183333334, "type": "electric_bike"}, {"bike_id": "72e069f6291beec833f59dd1f90f1b7c", "is_reserved": 0, "fusion_lon": 0.0, "lat": 38.9442095, "is_disabled": 0, "name": "72e069f6291beec833f59dd1f90f1b7c", "fusion_lat": 0.0, "rental_uris": {"ios": "https://dc.lft.to/lastmile_qr_scan", "android": "https://dc.lft.to/lastmile_qr_scan"}, "lon": -77.01780533333333, "type": "electric_scooter"}, {"bike_id": "7b8fdf75f7c96146ed956093a636cccd", "is_reserved": 0, "fusion_lon": 0.0, "lat": 38.92220316666667, "is_disabled": 0, "name": "7b8fdf75f7c96146ed956093a636cccd", "fusion_lat": 0.0, "rental_uris": {"ios": "https://dc.lft.to/lastmile_qr_scan", "android": "https://dc.lft.to/lastmile_qr_scan"}, "lon": -77.03900883333333, "type": "electric_scooter"}, {"bike_id": "8ddda9d258075e9251f6ee50480ae82b", "is_reserved": 0, "fusion_lon": 0.0, "lat": 38.923413, "is_disabled": 0, "name": "8ddda9d258075e9251f6ee50480ae82b", "fusion_lat": 0.0, "rental_uris": {"ios": "https://dc.lft.to/lastmile_qr_scan", "android": "https://dc.lft.to/lastmile_qr_scan"}, "lon": -77.03497283333333, "type": "electric_scooter"}, {"bike_id": "eb31f860cfbb3193a6d2974812bd08eb", "is_reserved": 0, "fusion_lon": 0.0, "lat": 38.9050085, "is_disabled": 0, "name": "eb31f860cfbb3193a6d2974812bd08eb", "fusion_lat": 0.0, "rental_uris": {"ios": "https://dc.lft.to/lastmile_qr_scan", "android": "https://dc.lft.to/lastmile_qr_scan"}, "lon": -77.02952933333333, "type": "electric_scooter"}, {"bike_id": "291c702a98864e9009c1233260c4f489", "is_reserved": 0, "fusion_lon": 0.0, "lat": 38.96505466666667, "is_disabled": 0, "name": "291c702a98864e9009c1233260c4f489", "fusion_lat": 0.0, "rental_uris": {"ios": "https://dc.lft.to/lastmile_qr_scan", "android": "https://dc.lft.to/lastmile_qr_scan"}, "lon": -77.0282375, "type": "electric_bike"}, {"bike_id": "1ebf46e1552bddfd4a10b56bd1537f18", "is_reserved": 0, "fusion_lon": 0.0, "lat": 38.9228385, "is_disabled": 0, "name": "1ebf46e1552bddfd4a10b56bd1537f18", "fusion_lat": 0.0, "rental_uris": {"ios": "https://dc.lft.to/lastmile_qr_scan", "android": "https://dc.lft.to/lastmile_qr_scan"}, "lon": -77.03663583333334, "type": "electric_scooter"}, {"bike_id": "1bf9f96193b09d7ab70b1632f94da56b", "is_reserved": 0, "fusion_lon": 0.0, "lat": 38.9176665, "is_disabled": 0, "name": "1bf9f96193b09d7ab70b1632f94da56b", "fusion_lat": 0.0, "rental_uris": {"ios": "https://dc.lft.to/lastmile_qr_scan", "android": "https://dc.lft.to/lastmile_qr_scan"}, "lon": -77.04737616666667, "type": "electric_scooter"}, {"bike_id": "de4505fe59780e21c224250b00b7aaf1", "is_reserved": 0, "fusion_lon": 0.0, "lat": 38.87629233333333, "is_disabled": 0, "name": "de4505fe59780e21c224250b00b7aaf1", "fusion_lat": 0.0, "rental_uris": {"ios": "https://dc.lft.to/lastmile_qr_scan", "android": "https://dc.lft.to/lastmile_qr_scan"}, "lon": -76.965288, "type": "electric_scooter"}, {"bike_id": "c5d1c43a6940dd812e8bd483ffea428f", "is_reserved": 0, "fusion_lon": 0.0, "lat": 38.907229, "is_disabled": 0, "name": "c5d1c43a6940dd812e8bd483ffea428f", "fusion_lat": 0.0, "rental_uris": {"ios": "https://dc.lft.to/lastmile_qr_scan", "android": "https://dc.lft.to/lastmile_qr_scan"}, "lon": -77.02949616666666, "type": "electric_scooter"}, {"bike_id": "875001fa3efe334f46d10786f3af3a56", "is_reserved": 0, "fusion_lon": 0.0, "lat": 38.92289, "is_disabled": 0, "name": "875001fa3efe334f46d10786f3af3a56", "fusion_lat": 0.0, "rental_uris": {"ios": "https://dc.lft.to/lastmile_qr_scan", "android": "https://dc.lft.to/lastmile_qr_scan"}, "lon": -77.02960166666666, "type": "electric_scooter"}, {"bike_id": "afa028a351113586d2323c3d7515be1e", "is_reserved": 0, "fusion_lon": 0.0, "lat": 38.901737, "is_disabled": 0, "name": "afa028a351113586d2323c3d7515be1e", "fusion_lat": 0.0, "rental_uris": {"ios": "https://dc.lft.to/lastmile_qr_scan", "android": "https://dc.lft.to/lastmile_qr_scan"}, "lon": -76.98068166666667, "type": "electric_scooter"}, {"bike_id": "83e3b9d7122ceee45073069e8e79434e", "is_reserved": 0, "fusion_lon": 0.0, "lat": 38.89324916666666, "is_disabled": 0, "name": "83e3b9d7122ceee45073069e8e79434e", "fusion_lat": 0.0, "rental_uris": {"ios": "https://dc.lft.to/lastmile_qr_scan", "android": "https://dc.lft.to/lastmile_qr_scan"}, "lon": -76.92997883333334, "type": "electric_scooter"}, {"bike_id": "e948119745157b2c277f8fec1de1daa7", "is_reserved": 0, "fusion_lon": 0.0, "lat": 38.9067275, "is_disabled": 0, "name": "e948119745157b2c277f8fec1de1daa7", "fusion_lat": 0.0, "rental_uris": {"ios": "https://dc.lft.to/lastmile_qr_scan", "android": "https://dc.lft.to/lastmile_qr_scan"}, "lon": -77.03758816666667, "type": "electric_scooter"}, {"bike_id": "297cd9848c172ad094d7b98abf706cfa", "is_reserved": 0, "fusion_lon": 0.0, "lat": 38.89976216666667, "is_disabled": 0, "name": "297cd9848c172ad094d7b98abf706cfa", "fusion_lat": 0.0, "rental_uris": {"ios": "https://dc.lft.to/lastmile_qr_scan", "android": "https://dc.lft.to/lastmile_qr_scan"}, "lon": -76.99148233333334, "type": "electric_scooter"}, {"bike_id": "d8b9b2294fdb99be5c31531f23675ca9", "is_reserved": 0, "fusion_lon": 0.0, "lat": 38.90375133333333, "is_disabled": 0, "name": "d8b9b2294fdb99be5c31531f23675ca9", "fusion_lat": 0.0, "rental_uris": {"ios": "https://dc.lft.to/lastmile_qr_scan", "android": "https://dc.lft.to/lastmile_qr_scan"}, "lon": -77.04359166666667, "type": "electric_scooter"}, {"bike_id": "b910f4d528a437373ed66f91c6cb6789", "is_reserved": 0, "fusion_lon": 0.0, "lat": 38.911137833333335, "is_disabled": 0, "name": "b910f4d528a437373ed66f91c6cb6789", "fusion_lat": 0.0, "rental_uris": {"ios": "https://dc.lft.to/lastmile_qr_scan", "android": "https://dc.lft.to/lastmile_qr_scan"}, "lon": -77.00268716666666, "type": "electric_scooter"}, {"bike_id": "ad687d69553ee9146b2c1302af2cc180", "is_reserved": 0, "fusion_lon": 0.0, "lat": 38.91122433333334, "is_disabled": 0, "name": "ad687d69553ee9146b2c1302af2cc180", "fusion_lat": 0.0, "rental_uris": {"ios": "https://dc.lft.to/lastmile_qr_scan", "android": "https://dc.lft.to/lastmile_qr_scan"}, "lon": -77.02182616666667, "type": "electric_scooter"}, {"bike_id": "21f79551396e14c88900ca39d63ab512", "is_reserved": 0, "fusion_lon": 0.0, "lat": 38.907289, "is_disabled": 0, "name": "21f79551396e14c88900ca39d63ab512", "fusion_lat": 0.0, "rental_uris": {"ios": "https://dc.lft.to/lastmile_qr_scan", "android": "https://dc.lft.to/lastmile_qr_scan"}, "lon": -77.03215883333333, "type": "electric_scooter"}, {"bike_id": "fc1e8d3a0b3a2082ec4abcd0ed6f653a", "is_reserved": 0, "fusion_lon": 0.0, "lat": 38.907144833333334, "is_disabled": 0, "name": "fc1e8d3a0b3a2082ec4abcd0ed6f653a", "fusion_lat": 0.0, "rental_uris": {"ios": "https://dc.lft.to/lastmile_qr_scan", "android": "https://dc.lft.to/lastmile_qr_scan"}, "lon": -77.03204433333333, "type": "electric_scooter"}, {"bike_id": "75a571db5c944023a3e5118eeaa14760", "is_reserved": 0, "fusion_lon": 0.0, "lat": 38.91703116666667, "is_disabled": 0, "name": "75a571db5c944023a3e5118eeaa14760", "fusion_lat": 0.0, "rental_uris": {"ios": "https://dc.lft.to/lastmile_qr_scan", "android": "https://dc.lft.to/lastmile_qr_scan"}, "lon": -77.03127766666667, "type": "electric_scooter"}, {"bike_id": "0babf324584e5ee603b6700738e00486", "is_reserved": 0, "fusion_lon": 0.0, "lat": 38.90192583333334, "is_disabled": 0, "name": "0babf324584e5ee603b6700738e00486", "fusion_lat": 0.0, "rental_uris": {"ios": "https://dc.lft.to/lastmile_qr_scan", "android": "https://dc.lft.to/lastmile_qr_scan"}, "lon": -77.02504616666667, "type": "electric_scooter"}, {"bike_id": "5983a5a695bee095fdef15f945329842", "is_reserved": 0, "fusion_lon": 0.0, "lat": 38.93967883333333, "is_disabled": 0, "name": "5983a5a695bee095fdef15f945329842", "fusion_lat": 0.0, "rental_uris": {"ios": "https://dc.lft.to/lastmile_qr_scan", "android": "https://dc.lft.to/lastmile_qr_scan"}, "lon": -77.03260416666667, "type": "electric_scooter"}, {"bike_id": "5332807b0f768c550791144e49466d1e", "is_reserved": 0, "fusion_lon": 0.0, "lat": 38.9343235, "is_disabled": 0, "name": "5332807b0f768c550791144e49466d1e", "fusion_lat": 0.0, "rental_uris": {"ios": "https://dc.lft.to/lastmile_qr_scan", "android": "https://dc.lft.to/lastmile_qr_scan"}, "lon": -77.04002466666667, "type": "electric_scooter"}, {"bike_id": "46525731dcba4740e7f909145669300d", "is_reserved": 0, "fusion_lon": 0.0, "lat": 38.9047475, "is_disabled": 0, "name": "46525731dcba4740e7f909145669300d", "fusion_lat": 0.0, "rental_uris": {"ios": "https://dc.lft.to/lastmile_qr_scan", "android": "https://dc.lft.to/lastmile_qr_scan"}, "lon": -77.04023883333333, "type": "electric_scooter"}, {"bike_id": "f2fd69a5dd6297d1a58077b87cd713a8", "is_reserved": 0, "fusion_lon": 0.0, "lat": 38.900892666666664, "is_disabled": 0, "name": "f2fd69a5dd6297d1a58077b87cd713a8", "fusion_lat": 0.0, "rental_uris": {"ios": "https://dc.lft.to/lastmile_qr_scan", "android": "https://dc.lft.to/lastmile_qr_scan"}, "lon": -77.0192265, "type": "electric_scooter"}, {"bike_id": "4b2622b0fd698a91e7dbd9fa0234ad6e", "is_reserved": 0, "fusion_lon": 0.0, "lat": 38.8851455, "is_disabled": 0, "name": "4b2622b0fd698a91e7dbd9fa0234ad6e", "fusion_lat": 0.0, "rental_uris": {"ios": "https://dc.lft.to/lastmile_qr_scan", "android": "https://dc.lft.to/lastmile_qr_scan"}, "lon": -77.00570866666666, "type": "electric_scooter"}, {"bike_id": "b9d97caaa53231889ec269af8034b906", "is_reserved": 0, "fusion_lon": 0.0, "lat": 38.9012425, "is_disabled": 0, "name": "b9d97caaa53231889ec269af8034b906", "fusion_lat": 0.0, "rental_uris": {"ios": "https://dc.lft.to/lastmile_qr_scan", "android": "https://dc.lft.to/lastmile_qr_scan"}, "lon": -77.033573, "type": "electric_scooter"}, {"bike_id": "4156e469651d367cd1934f8af598ebfe", "is_reserved": 0, "fusion_lon": 0.0, "lat": 38.9247405, "is_disabled": 0, "name": "4156e469651d367cd1934f8af598ebfe", "fusion_lat": 0.0, "rental_uris": {"ios": "https://dc.lft.to/lastmile_qr_scan", "android": "https://dc.lft.to/lastmile_qr_scan"}, "lon": -77.02648466666666, "type": "electric_scooter"}, {"bike_id": "03c429ecf3ebb0804e448bf19705b871", "is_reserved": 0, "fusion_lon": 0.0, "lat": 38.886065333333335, "is_disabled": 0, "name": "03c429ecf3ebb0804e448bf19705b871", "fusion_lat": 0.0, "rental_uris": {"ios": "https://dc.lft.to/lastmile_qr_scan", "android": "https://dc.lft.to/lastmile_qr_scan"}, "lon": -76.93604033333334, "type": "electric_scooter"}, {"bike_id": "c5fb04a7492fc75faef337f5c7eef1f3", "is_reserved": 0, "fusion_lon": 0.0, "lat": 38.913832166666666, "is_disabled": 0, "name": "c5fb04a7492fc75faef337f5c7eef1f3", "fusion_lat": 0.0, "rental_uris": {"ios": "https://dc.lft.to/lastmile_qr_scan", "android": "https://dc.lft.to/lastmile_qr_scan"}, "lon": -77.01701783333333, "type": "electric_scooter"}, {"bike_id": "a85a6d257f0b92fa23dddfbf133a1440", "is_reserved": 0, "fusion_lon": 0.0, "lat": 38.9285365, "is_disabled": 0, "name": "a85a6d257f0b92fa23dddfbf133a1440", "fusion_lat": 0.0, "rental_uris": {"ios": "https://dc.lft.to/lastmile_qr_scan", "android": "https://dc.lft.to/lastmile_qr_scan"}, "lon": -77.01395983333333, "type": "electric_scooter"}, {"bike_id": "b8685309484a349d982e31db63fd841d", "is_reserved": 0, "fusion_lon": 0.0, "lat": 38.900384333333335, "is_disabled": 0, "name": "b8685309484a349d982e31db63fd841d", "fusion_lat": 0.0, "rental_uris": {"ios": "https://dc.lft.to/lastmile_qr_scan", "android": "https://dc.lft.to/lastmile_qr_scan"}, "lon": -77.00208416666666, "type": "electric_scooter"}, {"bike_id": "ff916682b6c51f9531598fb613ed269e", "is_reserved": 0, "fusion_lon": 0.0, "lat": 38.9371145, "is_disabled": 0, "name": "ff916682b6c51f9531598fb613ed269e", "fusion_lat": 0.0, "rental_uris": {"ios": "https://dc.lft.to/lastmile_qr_scan", "android": "https://dc.lft.to/lastmile_qr_scan"}, "lon": -77.02939083333334, "type": "electric_scooter"}, {"bike_id": "a989cc0be0f5a481810bada86b668d5f", "is_reserved": 0, "fusion_lon": 0.0, "lat": 38.95067783333333, "is_disabled": 0, "name": "a989cc0be0f5a481810bada86b668d5f", "fusion_lat": 0.0, "rental_uris": {"ios": "https://dc.lft.to/lastmile_qr_scan", "android": "https://dc.lft.to/lastmile_qr_scan"}, "lon": -77.0120555, "type": "electric_bike"}, {"bike_id": "410e3af4b817a5c53708907dc40353a1", "is_reserved": 0, "fusion_lon": 0.0, "lat": 38.831422, "is_disabled": 0, "name": "410e3af4b817a5c53708907dc40353a1", "fusion_lat": 0.0, "rental_uris": {"ios": "https://dc.lft.to/lastmile_qr_scan", "android": "https://dc.lft.to/lastmile_qr_scan"}, "lon": -77.1131065, "type": "electric_bike"}, {"bike_id": "857fe7e0b4857354e4d4894ae3de5a7d", "is_reserved": 0, "fusion_lon": 0.0, "lat": 38.837199, "is_disabled": 0, "name": "857fe7e0b4857354e4d4894ae3de5a7d", "fusion_lat": 0.0, "rental_uris": {"ios": "https://dc.lft.to/lastmile_qr_scan", "android": "https://dc.lft.to/lastmile_qr_scan"}, "lon": -76.9978395, "type": "electric_bike"}, {"bike_id": "fa95a5bbf55572ffa4a4ed447bc04984", "is_reserved": 0, "fusion_lon": 0.0, "lat": 38.89837383333333, "is_disabled": 0, "name": "fa95a5bbf55572ffa4a4ed447bc04984", "fusion_lat": 0.0, "rental_uris": {"ios": "https://dc.lft.to/lastmile_qr_scan", "android": "https://dc.lft.to/lastmile_qr_scan"}, "lon": -77.00740133333333, "type": "electric_scooter"}, {"bike_id": "be0f0278ae83bec6472ffd86cc06b5e1", "is_reserved": 0, "fusion_lon": 0.0, "lat": 38.90601683333333, "is_disabled": 0, "name": "be0f0278ae83bec6472ffd86cc06b5e1", "fusion_lat": 0.0, "rental_uris": {"ios": "https://dc.lft.to/lastmile_qr_scan", "android": "https://dc.lft.to/lastmile_qr_scan"}, "lon": -77.05100766666666, "type": "electric_scooter"}, {"bike_id": "617a7001a4823f76ac9f4a7c1cf553fb", "is_reserved": 0, "fusion_lon": 0.0, "lat": 38.90561683333333, "is_disabled": 0, "name": "617a7001a4823f76ac9f4a7c1cf553fb", "fusion_lat": 0.0, "rental_uris": {"ios": "https://dc.lft.to/lastmile_qr_scan", "android": "https://dc.lft.to/lastmile_qr_scan"}, "lon": -77.02972683333333, "type": "electric_scooter"}, {"bike_id": "8a29b7b54a06d254118755b350334f0e", "is_reserved": 0, "fusion_lon": 0.0, "lat": 38.90208633333334, "is_disabled": 0, "name": "8a29b7b54a06d254118755b350334f0e", "fusion_lat": 0.0, "rental_uris": {"ios": "https://dc.lft.to/lastmile_qr_scan", "android": "https://dc.lft.to/lastmile_qr_scan"}, "lon": -77.0478785, "type": "electric_scooter"}, {"bike_id": "e7d2ad028630ffcc000403d2b0514042", "is_reserved": 0, "fusion_lon": 0.0, "lat": 38.86597733333333, "is_disabled": 0, "name": "e7d2ad028630ffcc000403d2b0514042", "fusion_lat": 0.0, "rental_uris": {"ios": "https://dc.lft.to/lastmile_qr_scan", "android": "https://dc.lft.to/lastmile_qr_scan"}, "lon": -76.93229916666667, "type": "electric_bike"}, {"bike_id": "3b9486e451f37f892a62f1809696635c", "is_reserved": 0, "fusion_lon": 0.0, "lat": 38.93949283333333, "is_disabled": 0, "name": "3b9486e451f37f892a62f1809696635c", "fusion_lat": 0.0, "rental_uris": {"ios": "https://dc.lft.to/lastmile_qr_scan", "android": "https://dc.lft.to/lastmile_qr_scan"}, "lon": -77.03263883333334, "type": "electric_scooter"}, {"bike_id": "27256a9e3decdbb30ad8bdea0ea05c93", "is_reserved": 0, "fusion_lon": 0.0, "lat": 38.89219933333333, "is_disabled": 0, "name": "27256a9e3decdbb30ad8bdea0ea05c93", "fusion_lat": 0.0, "rental_uris": {"ios": "https://dc.lft.to/lastmile_qr_scan", "android": "https://dc.lft.to/lastmile_qr_scan"}, "lon": -77.02839916666667, "type": "electric_scooter"}, {"bike_id": "79c418c0394d96cf1b9ca8e0975eaf45", "is_reserved": 0, "fusion_lon": 0.0, "lat": 38.8068765, "is_disabled": 0, "name": "79c418c0394d96cf1b9ca8e0975eaf45", "fusion_lat": 0.0, "rental_uris": {"ios": "https://dc.lft.to/lastmile_qr_scan", "android": "https://dc.lft.to/lastmile_qr_scan"}, "lon": -77.05972683333333, "type": "electric_bike"}, {"bike_id": "dd678f6935e001b1fd08e50a476e1ec0", "is_reserved": 0, "fusion_lon": 0.0, "lat": 38.85223383333334, "is_disabled": 0, "name": "dd678f6935e001b1fd08e50a476e1ec0", "fusion_lat": 0.0, "rental_uris": {"ios": "https://dc.lft.to/lastmile_qr_scan", "android": "https://dc.lft.to/lastmile_qr_scan"}, "lon": -77.12969666666666, "type": "electric_bike"}, {"bike_id": "31005396c0271ab2169426da7e047e27", "is_reserved": 0, "fusion_lon": 0.0, "lat": 38.89985883333333, "is_disabled": 0, "name": "31005396c0271ab2169426da7e047e27", "fusion_lat": 0.0, "rental_uris": {"ios": "https://dc.lft.to/lastmile_qr_scan", "android": "https://dc.lft.to/lastmile_qr_scan"}, "lon": -77.02156983333333, "type": "electric_scooter"}, {"bike_id": "6b151646ad3cf9254847085063a25d93", "is_reserved": 0, "fusion_lon": 0.0, "lat": 38.941817666666665, "is_disabled": 0, "name": "6b151646ad3cf9254847085063a25d93", "fusion_lat": 0.0, "rental_uris": {"ios": "https://dc.lft.to/lastmile_qr_scan", "android": "https://dc.lft.to/lastmile_qr_scan"}, "lon": -77.0252615, "type": "electric_scooter"}, {"bike_id": "d2edb28dd79771d1234db5dd83096091", "is_reserved": 0, "fusion_lon": 0.0, "lat": 38.89229516666666, "is_disabled": 0, "name": "d2edb28dd79771d1234db5dd83096091", "fusion_lat": 0.0, "rental_uris": {"ios": "https://dc.lft.to/lastmile_qr_scan", "android": "https://dc.lft.to/lastmile_qr_scan"}, "lon": -77.02590983333333, "type": "electric_scooter"}, {"bike_id": "510f058cf7b8684c11aecd130ceb3481", "is_reserved": 0, "fusion_lon": 0.0, "lat": 38.91651933333333, "is_disabled": 0, "name": "510f058cf7b8684c11aecd130ceb3481", "fusion_lat": 0.0, "rental_uris": {"ios": "https://dc.lft.to/lastmile_qr_scan", "android": "https://dc.lft.to/lastmile_qr_scan"}, "lon": -77.03646733333333, "type": "electric_scooter"}, {"bike_id": "e2434f86b5b14cc97bcd56cde1ae71c1", "is_reserved": 0, "fusion_lon": 0.0, "lat": 38.9198215, "is_disabled": 0, "name": "e2434f86b5b14cc97bcd56cde1ae71c1", "fusion_lat": 0.0, "rental_uris": {"ios": "https://dc.lft.to/lastmile_qr_scan", "android": "https://dc.lft.to/lastmile_qr_scan"}, "lon": -77.02377366666667, "type": "electric_scooter"}, {"bike_id": "a9bc310a382d6bdac65f562625b56a2b", "is_reserved": 0, "fusion_lon": 0.0, "lat": 38.897315, "is_disabled": 0, "name": "a9bc310a382d6bdac65f562625b56a2b", "fusion_lat": 0.0, "rental_uris": {"ios": "https://dc.lft.to/lastmile_qr_scan", "android": "https://dc.lft.to/lastmile_qr_scan"}, "lon": -77.02730033333333, "type": "electric_scooter"}, {"bike_id": "f7b6e34e1ebe1ece5ebc0d4d1677f3d5", "is_reserved": 0, "fusion_lon": 0.0, "lat": 38.90893333333333, "is_disabled": 0, "name": "f7b6e34e1ebe1ece5ebc0d4d1677f3d5", "fusion_lat": 0.0, "rental_uris": {"ios": "https://dc.lft.to/lastmile_qr_scan", "android": "https://dc.lft.to/lastmile_qr_scan"}, "lon": -77.02299933333333, "type": "electric_scooter"}, {"bike_id": "5775bd4e1b552474dbd1644e45427fe2", "is_reserved": 0, "fusion_lon": 0.0, "lat": 38.90277733333333, "is_disabled": 0, "name": "5775bd4e1b552474dbd1644e45427fe2", "fusion_lat": 0.0, "rental_uris": {"ios": "https://dc.lft.to/lastmile_qr_scan", "android": "https://dc.lft.to/lastmile_qr_scan"}, "lon": -77.04062183333333, "type": "electric_scooter"}, {"bike_id": "38981cd21af731ff13b7efb500ad2ce4", "is_reserved": 0, "fusion_lon": 0.0, "lat": 38.93947466666667, "is_disabled": 0, "name": "38981cd21af731ff13b7efb500ad2ce4", "fusion_lat": 0.0, "rental_uris": {"ios": "https://dc.lft.to/lastmile_qr_scan", "android": "https://dc.lft.to/lastmile_qr_scan"}, "lon": -77.03259216666666, "type": "electric_scooter"}, {"bike_id": "da80501d6cbdc24e40ecb6855430b642", "is_reserved": 0, "fusion_lon": 0.0, "lat": 38.984613, "is_disabled": 0, "name": "da80501d6cbdc24e40ecb6855430b642", "fusion_lat": 0.0, "rental_uris": {"ios": "https://dc.lft.to/lastmile_qr_scan", "android": "https://dc.lft.to/lastmile_qr_scan"}, "lon": -76.95527583333333, "type": "electric_bike"}, {"bike_id": "4a99f15a2a83b1f456aaa48dcf6113b0", "is_reserved": 0, "fusion_lon": 0.0, "lat": 38.92752983333333, "is_disabled": 0, "name": "4a99f15a2a83b1f456aaa48dcf6113b0", "fusion_lat": 0.0, "rental_uris": {"ios": "https://dc.lft.to/lastmile_qr_scan", "android": "https://dc.lft.to/lastmile_qr_scan"}, "lon": -77.05396633333334, "type": "electric_scooter"}, {"bike_id": "7aa15042bc677bb817d8f11ac42caf73", "is_reserved": 0, "fusion_lon": 0.0, "lat": 38.92095233333333, "is_disabled": 0, "name": "7aa15042bc677bb817d8f11ac42caf73", "fusion_lat": 0.0, "rental_uris": {"ios": "https://dc.lft.to/lastmile_qr_scan", "android": "https://dc.lft.to/lastmile_qr_scan"}, "lon": -77.02512716666666, "type": "electric_scooter"}, {"bike_id": "5d2309ab0f3123fbfa422457b121cec5", "is_reserved": 0, "fusion_lon": 0.0, "lat": 38.927901, "is_disabled": 0, "name": "5d2309ab0f3123fbfa422457b121cec5", "fusion_lat": 0.0, "rental_uris": {"ios": "https://dc.lft.to/lastmile_qr_scan", "android": "https://dc.lft.to/lastmile_qr_scan"}, "lon": -77.03149633333334, "type": "electric_scooter"}, {"bike_id": "2b8ab70fcfe0b2f45d45b0573d37c201", "is_reserved": 0, "fusion_lon": 0.0, "lat": 38.90060783333333, "is_disabled": 0, "name": "2b8ab70fcfe0b2f45d45b0573d37c201", "fusion_lat": 0.0, "rental_uris": {"ios": "https://dc.lft.to/lastmile_qr_scan", "android": "https://dc.lft.to/lastmile_qr_scan"}, "lon": -77.00757883333333, "type": "electric_scooter"}, {"bike_id": "9fb0f31ec35e2c6b43109038e0cf08d1", "is_reserved": 0, "fusion_lon": 0.0, "lat": 38.86558383333333, "is_disabled": 0, "name": "9fb0f31ec35e2c6b43109038e0cf08d1", "fusion_lat": 0.0, "rental_uris": {"ios": "https://dc.lft.to/lastmile_qr_scan", "android": "https://dc.lft.to/lastmile_qr_scan"}, "lon": -76.98954033333334, "type": "electric_scooter"}, {"bike_id": "ea1ced18a38de1ebc403a5fd5b24597e", "is_reserved": 0, "fusion_lon": 0.0, "lat": 38.903861666666664, "is_disabled": 0, "name": "ea1ced18a38de1ebc403a5fd5b24597e", "fusion_lat": 0.0, "rental_uris": {"ios": "https://dc.lft.to/lastmile_qr_scan", "android": "https://dc.lft.to/lastmile_qr_scan"}, "lon": -77.04437433333334, "type": "electric_scooter"}, {"bike_id": "58daf9e6ecbab02d862e93019a7d87e6", "is_reserved": 0, "fusion_lon": 0.0, "lat": 38.93700333333334, "is_disabled": 0, "name": "58daf9e6ecbab02d862e93019a7d87e6", "fusion_lat": 0.0, "rental_uris": {"ios": "https://dc.lft.to/lastmile_qr_scan", "android": "https://dc.lft.to/lastmile_qr_scan"}, "lon": -77.02981466666667, "type": "electric_bike"}, {"bike_id": "360bda0b3c0e0704e49801ca864a7477", "is_reserved": 0, "fusion_lon": 0.0, "lat": 38.90238933333333, "is_disabled": 0, "name": "360bda0b3c0e0704e49801ca864a7477", "fusion_lat": 0.0, "rental_uris": {"ios": "https://dc.lft.to/lastmile_qr_scan", "android": "https://dc.lft.to/lastmile_qr_scan"}, "lon": -77.00196983333333, "type": "electric_scooter"}, {"bike_id": "266929756dd05117270cc3e24b7b2248", "is_reserved": 0, "fusion_lon": 0.0, "lat": 38.9417605, "is_disabled": 0, "name": "266929756dd05117270cc3e24b7b2248", "fusion_lat": 0.0, "rental_uris": {"ios": "https://dc.lft.to/lastmile_qr_scan", "android": "https://dc.lft.to/lastmile_qr_scan"}, "lon": -77.0365115, "type": "electric_scooter"}, {"bike_id": "f6546ae7579b11693f339279d7aefb9a", "is_reserved": 0, "fusion_lon": 0.0, "lat": 38.91336033333333, "is_disabled": 0, "name": "f6546ae7579b11693f339279d7aefb9a", "fusion_lat": 0.0, "rental_uris": {"ios": "https://dc.lft.to/lastmile_qr_scan", "android": "https://dc.lft.to/lastmile_qr_scan"}, "lon": -77.0481775, "type": "electric_scooter"}, {"bike_id": "ae57ccba0fc6508ce179659e5ebdae84", "is_reserved": 0, "fusion_lon": 0.0, "lat": 38.90008566666667, "is_disabled": 0, "name": "ae57ccba0fc6508ce179659e5ebdae84", "fusion_lat": 0.0, "rental_uris": {"ios": "https://dc.lft.to/lastmile_qr_scan", "android": "https://dc.lft.to/lastmile_qr_scan"}, "lon": -77.03340466666667, "type": "electric_scooter"}, {"bike_id": "9e1db80d9e8d83e63f1329cec1ad60e0", "is_reserved": 0, "fusion_lon": 0.0, "lat": 38.89848416666667, "is_disabled": 0, "name": "9e1db80d9e8d83e63f1329cec1ad60e0", "fusion_lat": 0.0, "rental_uris": {"ios": "https://dc.lft.to/lastmile_qr_scan", "android": "https://dc.lft.to/lastmile_qr_scan"}, "lon": -77.03212566666667, "type": "electric_scooter"}, {"bike_id": "97099711f09aec0d460816f6ffbafcaa", "is_reserved": 0, "fusion_lon": 0.0, "lat": 38.8828675, "is_disabled": 0, "name": "97099711f09aec0d460816f6ffbafcaa", "fusion_lat": 0.0, "rental_uris": {"ios": "https://dc.lft.to/lastmile_qr_scan", "android": "https://dc.lft.to/lastmile_qr_scan"}, "lon": -76.98618883333333, "type": "electric_scooter"}, {"bike_id": "cf4b52fc878510c35aa633ab55c19d6a", "is_reserved": 0, "fusion_lon": 0.0, "lat": 38.8885805, "is_disabled": 0, "name": "cf4b52fc878510c35aa633ab55c19d6a", "fusion_lat": 0.0, "rental_uris": {"ios": "https://dc.lft.to/lastmile_qr_scan", "android": "https://dc.lft.to/lastmile_qr_scan"}, "lon": -77.03246683333333, "type": "electric_bike"}, {"bike_id": "3f37846fa66d6578545895f8a07d2988", "is_reserved": 0, "fusion_lon": 0.0, "lat": 38.9197465, "is_disabled": 0, "name": "3f37846fa66d6578545895f8a07d2988", "fusion_lat": 0.0, "rental_uris": {"ios": "https://dc.lft.to/lastmile_qr_scan", "android": "https://dc.lft.to/lastmile_qr_scan"}, "lon": -77.04440683333333, "type": "electric_scooter"}, {"bike_id": "eed4d16efda22c284b88ec9d65e28a7e", "is_reserved": 0, "fusion_lon": 0.0, "lat": 38.88747816666667, "is_disabled": 0, "name": "eed4d16efda22c284b88ec9d65e28a7e", "fusion_lat": 0.0, "rental_uris": {"ios": "https://dc.lft.to/lastmile_qr_scan", "android": "https://dc.lft.to/lastmile_qr_scan"}, "lon": -77.02864233333334, "type": "electric_scooter"}, {"bike_id": "d57151d44757b8c570cceb19f47a8fc8", "is_reserved": 0, "fusion_lon": 0.0, "lat": 38.939022333333334, "is_disabled": 0, "name": "d57151d44757b8c570cceb19f47a8fc8", "fusion_lat": 0.0, "rental_uris": {"ios": "https://dc.lft.to/lastmile_qr_scan", "android": "https://dc.lft.to/lastmile_qr_scan"}, "lon": -77.02817066666667, "type": "electric_bike"}, {"bike_id": "c491ae0b5b3eaaea7521a957f85cfe49", "is_reserved": 0, "fusion_lon": 0.0, "lat": 38.90371, "is_disabled": 0, "name": "c491ae0b5b3eaaea7521a957f85cfe49", "fusion_lat": 0.0, "rental_uris": {"ios": "https://dc.lft.to/lastmile_qr_scan", "android": "https://dc.lft.to/lastmile_qr_scan"}, "lon": -76.98508116666666, "type": "electric_scooter"}, {"bike_id": "c6479abbf8ab09779e253b24e5b6d7a1", "is_reserved": 0, "fusion_lon": 0.0, "lat": 38.904101, "is_disabled": 0, "name": "c6479abbf8ab09779e253b24e5b6d7a1", "fusion_lat": 0.0, "rental_uris": {"ios": "https://dc.lft.to/lastmile_qr_scan", "android": "https://dc.lft.to/lastmile_qr_scan"}, "lon": -76.97331416666667, "type": "electric_scooter"}, {"bike_id": "b2338bcd6f337adb28026d2ceb9c000a", "is_reserved": 0, "fusion_lon": 0.0, "lat": 38.940105, "is_disabled": 0, "name": "b2338bcd6f337adb28026d2ceb9c000a", "fusion_lat": 0.0, "rental_uris": {"ios": "https://dc.lft.to/lastmile_qr_scan", "android": "https://dc.lft.to/lastmile_qr_scan"}, "lon": -77.07170183333334, "type": "electric_scooter"}, {"bike_id": "940bf4da0343c6deccba5aee70712a82", "is_reserved": 0, "fusion_lon": 0.0, "lat": 38.9192385, "is_disabled": 0, "name": "940bf4da0343c6deccba5aee70712a82", "fusion_lat": 0.0, "rental_uris": {"ios": "https://dc.lft.to/lastmile_qr_scan", "android": "https://dc.lft.to/lastmile_qr_scan"}, "lon": -77.00977383333333, "type": "electric_scooter"}, {"bike_id": "da875cf932bf00c1525547e294c5534f", "is_reserved": 0, "fusion_lon": 0.0, "lat": 38.90417683333333, "is_disabled": 0, "name": "da875cf932bf00c1525547e294c5534f", "fusion_lat": 0.0, "rental_uris": {"ios": "https://dc.lft.to/lastmile_qr_scan", "android": "https://dc.lft.to/lastmile_qr_scan"}, "lon": -77.02493433333333, "type": "electric_scooter"}, {"bike_id": "a328f12b7d6025d8d94c9ff74cc060a2", "is_reserved": 0, "fusion_lon": 0.0, "lat": 38.903836166666665, "is_disabled": 0, "name": "a328f12b7d6025d8d94c9ff74cc060a2", "fusion_lat": 0.0, "rental_uris": {"ios": "https://dc.lft.to/lastmile_qr_scan", "android": "https://dc.lft.to/lastmile_qr_scan"}, "lon": -77.042007, "type": "electric_scooter"}, {"bike_id": "627815014f0dc3f3815b4be851876813", "is_reserved": 0, "fusion_lon": 0.0, "lat": 38.903733, "is_disabled": 0, "name": "627815014f0dc3f3815b4be851876813", "fusion_lat": 0.0, "rental_uris": {"ios": "https://dc.lft.to/lastmile_qr_scan", "android": "https://dc.lft.to/lastmile_qr_scan"}, "lon": -77.0178715, "type": "electric_scooter"}, {"bike_id": "65e7a880a6a182b6b206e81a5bf34294", "is_reserved": 0, "fusion_lon": 0.0, "lat": 38.920148166666664, "is_disabled": 0, "name": "65e7a880a6a182b6b206e81a5bf34294", "fusion_lat": 0.0, "rental_uris": {"ios": "https://dc.lft.to/lastmile_qr_scan", "android": "https://dc.lft.to/lastmile_qr_scan"}, "lon": -77.03878383333333, "type": "electric_scooter"}, {"bike_id": "3993e2eeba7d8a6091c134f51bdc8d74", "is_reserved": 0, "fusion_lon": 0.0, "lat": 38.90565733333333, "is_disabled": 0, "name": "3993e2eeba7d8a6091c134f51bdc8d74", "fusion_lat": 0.0, "rental_uris": {"ios": "https://dc.lft.to/lastmile_qr_scan", "android": "https://dc.lft.to/lastmile_qr_scan"}, "lon": -76.98145216666667, "type": "electric_scooter"}, {"bike_id": "e91584ad38b9533b4ac222c96aa20566", "is_reserved": 0, "fusion_lon": 0.0, "lat": 38.91405816666666, "is_disabled": 0, "name": "e91584ad38b9533b4ac222c96aa20566", "fusion_lat": 0.0, "rental_uris": {"ios": "https://dc.lft.to/lastmile_qr_scan", "android": "https://dc.lft.to/lastmile_qr_scan"}, "lon": -77.03177683333334, "type": "electric_scooter"}, {"bike_id": "39d7afaed9c6b3c339b2fed5e15d96d1", "is_reserved": 0, "fusion_lon": 0.0, "lat": 38.892197833333334, "is_disabled": 0, "name": "39d7afaed9c6b3c339b2fed5e15d96d1", "fusion_lat": 0.0, "rental_uris": {"ios": "https://dc.lft.to/lastmile_qr_scan", "android": "https://dc.lft.to/lastmile_qr_scan"}, "lon": -77.0262655, "type": "electric_scooter"}, {"bike_id": "a63001fe8638b8b6f67669add4152e0e", "is_reserved": 0, "fusion_lon": 0.0, "lat": 38.904251333333335, "is_disabled": 0, "name": "a63001fe8638b8b6f67669add4152e0e", "fusion_lat": 0.0, "rental_uris": {"ios": "https://dc.lft.to/lastmile_qr_scan", "android": "https://dc.lft.to/lastmile_qr_scan"}, "lon": -77.032624, "type": "electric_scooter"}, {"bike_id": "8d25edb52dd39610e456572a0f18b66a", "is_reserved": 0, "fusion_lon": 0.0, "lat": 38.915669, "is_disabled": 0, "name": "8d25edb52dd39610e456572a0f18b66a", "fusion_lat": 0.0, "rental_uris": {"ios": "https://dc.lft.to/lastmile_qr_scan", "android": "https://dc.lft.to/lastmile_qr_scan"}, "lon": -77.01265133333334, "type": "electric_scooter"}, {"bike_id": "105588025ee3d9c03bcc027c77da7a51", "is_reserved": 0, "fusion_lon": 0.0, "lat": 38.90508283333333, "is_disabled": 0, "name": "105588025ee3d9c03bcc027c77da7a51", "fusion_lat": 0.0, "rental_uris": {"ios": "https://dc.lft.to/lastmile_qr_scan", "android": "https://dc.lft.to/lastmile_qr_scan"}, "lon": -77.06385916666666, "type": "electric_bike"}, {"bike_id": "b15123802b9a291c7ca951579d1a9cbe", "is_reserved": 0, "fusion_lon": 0.0, "lat": 38.9206105, "is_disabled": 0, "name": "b15123802b9a291c7ca951579d1a9cbe", "fusion_lat": 0.0, "rental_uris": {"ios": "https://dc.lft.to/lastmile_qr_scan", "android": "https://dc.lft.to/lastmile_qr_scan"}, "lon": -77.02428583333334, "type": "electric_scooter"}, {"bike_id": "f5b0cb95f5553fb48e28574284a4d5ba", "is_reserved": 0, "fusion_lon": 0.0, "lat": 38.92123016666667, "is_disabled": 0, "name": "f5b0cb95f5553fb48e28574284a4d5ba", "fusion_lat": 0.0, "rental_uris": {"ios": "https://dc.lft.to/lastmile_qr_scan", "android": "https://dc.lft.to/lastmile_qr_scan"}, "lon": -77.01091983333333, "type": "electric_bike"}, {"bike_id": "0e050db4983889bce4e206472a2f47bd", "is_reserved": 0, "fusion_lon": 0.0, "lat": 38.903751, "is_disabled": 0, "name": "0e050db4983889bce4e206472a2f47bd", "fusion_lat": 0.0, "rental_uris": {"ios": "https://dc.lft.to/lastmile_qr_scan", "android": "https://dc.lft.to/lastmile_qr_scan"}, "lon": -77.04479433333333, "type": "electric_scooter"}, {"bike_id": "0638746b2b706c617ce4d14f63277694", "is_reserved": 0, "fusion_lon": 0.0, "lat": 38.9050585, "is_disabled": 0, "name": "0638746b2b706c617ce4d14f63277694", "fusion_lat": 0.0, "rental_uris": {"ios": "https://dc.lft.to/lastmile_qr_scan", "android": "https://dc.lft.to/lastmile_qr_scan"}, "lon": -76.9901485, "type": "electric_scooter"}, {"bike_id": "36bcf4eea573e8329f33801c383d9de8", "is_reserved": 0, "fusion_lon": 0.0, "lat": 38.885008166666665, "is_disabled": 0, "name": "36bcf4eea573e8329f33801c383d9de8", "fusion_lat": 0.0, "rental_uris": {"ios": "https://dc.lft.to/lastmile_qr_scan", "android": "https://dc.lft.to/lastmile_qr_scan"}, "lon": -77.00566266666667, "type": "electric_scooter"}, {"bike_id": "a5020127251a04cdb5f2187bf430a56b", "is_reserved": 0, "fusion_lon": 0.0, "lat": 38.922362, "is_disabled": 0, "name": "a5020127251a04cdb5f2187bf430a56b", "fusion_lat": 0.0, "rental_uris": {"ios": "https://dc.lft.to/lastmile_qr_scan", "android": "https://dc.lft.to/lastmile_qr_scan"}, "lon": -77.03089683333333, "type": "electric_scooter"}, {"bike_id": "436863b934900153ac1ebd0b6f1122f7", "is_reserved": 0, "fusion_lon": 0.0, "lat": 38.9135565, "is_disabled": 0, "name": "436863b934900153ac1ebd0b6f1122f7", "fusion_lat": 0.0, "rental_uris": {"ios": "https://dc.lft.to/lastmile_qr_scan", "android": "https://dc.lft.to/lastmile_qr_scan"}, "lon": -77.01755883333334, "type": "electric_scooter"}, {"bike_id": "64838565eb55131fb87cb62b42c4a45d", "is_reserved": 0, "fusion_lon": 0.0, "lat": 38.91709316666667, "is_disabled": 0, "name": "64838565eb55131fb87cb62b42c4a45d", "fusion_lat": 0.0, "rental_uris": {"ios": "https://dc.lft.to/lastmile_qr_scan", "android": "https://dc.lft.to/lastmile_qr_scan"}, "lon": -77.01215833333333, "type": "electric_scooter"}, {"bike_id": "95d4c38153662b572541a494e4cbffdc", "is_reserved": 0, "fusion_lon": 0.0, "lat": 38.90190616666667, "is_disabled": 0, "name": "95d4c38153662b572541a494e4cbffdc", "fusion_lat": 0.0, "rental_uris": {"ios": "https://dc.lft.to/lastmile_qr_scan", "android": "https://dc.lft.to/lastmile_qr_scan"}, "lon": -77.02502266666667, "type": "electric_scooter"}, {"bike_id": "1954f8a1caaa36359accd5c49306301f", "is_reserved": 0, "fusion_lon": 0.0, "lat": 38.89059133333333, "is_disabled": 0, "name": "1954f8a1caaa36359accd5c49306301f", "fusion_lat": 0.0, "rental_uris": {"ios": "https://dc.lft.to/lastmile_qr_scan", "android": "https://dc.lft.to/lastmile_qr_scan"}, "lon": -77.02303666666667, "type": "electric_scooter"}, {"bike_id": "e6fa672e0c8f4dd7d3e061ce35b308d6", "is_reserved": 0, "fusion_lon": 0.0, "lat": 38.90970983333333, "is_disabled": 0, "name": "e6fa672e0c8f4dd7d3e061ce35b308d6", "fusion_lat": 0.0, "rental_uris": {"ios": "https://dc.lft.to/lastmile_qr_scan", "android": "https://dc.lft.to/lastmile_qr_scan"}, "lon": -77.048758, "type": "electric_scooter"}, {"bike_id": "7d956161a2c8a5ee87d8b8541cb4d5cf", "is_reserved": 0, "fusion_lon": 0.0, "lat": 38.900387, "is_disabled": 0, "name": "7d956161a2c8a5ee87d8b8541cb4d5cf", "fusion_lat": 0.0, "rental_uris": {"ios": "https://dc.lft.to/lastmile_qr_scan", "android": "https://dc.lft.to/lastmile_qr_scan"}, "lon": -77.00538516666667, "type": "electric_scooter"}, {"bike_id": "ef1ea28899135f81dce8667a25200aac", "is_reserved": 0, "fusion_lon": 0.0, "lat": 38.88432866666667, "is_disabled": 0, "name": "ef1ea28899135f81dce8667a25200aac", "fusion_lat": 0.0, "rental_uris": {"ios": "https://dc.lft.to/lastmile_qr_scan", "android": "https://dc.lft.to/lastmile_qr_scan"}, "lon": -76.95757916666666, "type": "electric_scooter"}, {"bike_id": "6b35824efe377233c1c25a24998dab7f", "is_reserved": 0, "fusion_lon": 0.0, "lat": 38.902468166666665, "is_disabled": 0, "name": "6b35824efe377233c1c25a24998dab7f", "fusion_lat": 0.0, "rental_uris": {"ios": "https://dc.lft.to/lastmile_qr_scan", "android": "https://dc.lft.to/lastmile_qr_scan"}, "lon": -77.017702, "type": "electric_scooter"}, {"bike_id": "51881c0bfffe7c9a0fec0a2ad63464ec", "is_reserved": 0, "fusion_lon": 0.0, "lat": 38.91216083333333, "is_disabled": 0, "name": "51881c0bfffe7c9a0fec0a2ad63464ec", "fusion_lat": 0.0, "rental_uris": {"ios": "https://dc.lft.to/lastmile_qr_scan", "android": "https://dc.lft.to/lastmile_qr_scan"}, "lon": -77.027991, "type": "electric_scooter"}, {"bike_id": "9a77dcb6a18bc6e2775244b637b7a42f", "is_reserved": 0, "fusion_lon": 0.0, "lat": 38.91778166666667, "is_disabled": 0, "name": "9a77dcb6a18bc6e2775244b637b7a42f", "fusion_lat": 0.0, "rental_uris": {"ios": "https://dc.lft.to/lastmile_qr_scan", "android": "https://dc.lft.to/lastmile_qr_scan"}, "lon": -77.01496833333333, "type": "electric_scooter"}, {"bike_id": "ae91a4c56214afe22efd5a822cc037eb", "is_reserved": 0, "fusion_lon": 0.0, "lat": 38.86662416666667, "is_disabled": 0, "name": "ae91a4c56214afe22efd5a822cc037eb", "fusion_lat": 0.0, "rental_uris": {"ios": "https://dc.lft.to/lastmile_qr_scan", "android": "https://dc.lft.to/lastmile_qr_scan"}, "lon": -76.98907583333333, "type": "electric_scooter"}, {"bike_id": "15e77fff9ee03f9613ffa61b84272aa2", "is_reserved": 0, "fusion_lon": 0.0, "lat": 38.964904833333335, "is_disabled": 0, "name": "15e77fff9ee03f9613ffa61b84272aa2", "fusion_lat": 0.0, "rental_uris": {"ios": "https://dc.lft.to/lastmile_qr_scan", "android": "https://dc.lft.to/lastmile_qr_scan"}, "lon": -77.06491883333334, "type": "electric_bike"}, {"bike_id": "c2f5b5aa692184e297da3e584d464354", "is_reserved": 0, "fusion_lon": 0.0, "lat": 38.931110833333335, "is_disabled": 0, "name": "c2f5b5aa692184e297da3e584d464354", "fusion_lat": 0.0, "rental_uris": {"ios": "https://dc.lft.to/lastmile_qr_scan", "android": "https://dc.lft.to/lastmile_qr_scan"}, "lon": -77.0214265, "type": "electric_scooter"}, {"bike_id": "2453c3306810255b71512deeaef748da", "is_reserved": 0, "fusion_lon": 0.0, "lat": 38.931457333333334, "is_disabled": 0, "name": "2453c3306810255b71512deeaef748da", "fusion_lat": 0.0, "rental_uris": {"ios": "https://dc.lft.to/lastmile_qr_scan", "android": "https://dc.lft.to/lastmile_qr_scan"}, "lon": -77.0570585, "type": "electric_scooter"}, {"bike_id": "8c31b73bba6ce2d63919066a57521d99", "is_reserved": 0, "fusion_lon": 0.0, "lat": 38.91876283333333, "is_disabled": 0, "name": "8c31b73bba6ce2d63919066a57521d99", "fusion_lat": 0.0, "rental_uris": {"ios": "https://dc.lft.to/lastmile_qr_scan", "android": "https://dc.lft.to/lastmile_qr_scan"}, "lon": -77.04456366666666, "type": "electric_scooter"}, {"bike_id": "c417a8f5d5c09c34a1072d0dfcc25faf", "is_reserved": 0, "fusion_lon": 0.0, "lat": 38.899041833333335, "is_disabled": 0, "name": "c417a8f5d5c09c34a1072d0dfcc25faf", "fusion_lat": 0.0, "rental_uris": {"ios": "https://dc.lft.to/lastmile_qr_scan", "android": "https://dc.lft.to/lastmile_qr_scan"}, "lon": -77.0392355, "type": "electric_scooter"}, {"bike_id": "125b913fe8b633c2ac3f4367c02da774", "is_reserved": 0, "fusion_lon": 0.0, "lat": 38.92315516666667, "is_disabled": 0, "name": "125b913fe8b633c2ac3f4367c02da774", "fusion_lat": 0.0, "rental_uris": {"ios": "https://dc.lft.to/lastmile_qr_scan", "android": "https://dc.lft.to/lastmile_qr_scan"}, "lon": -77.03656733333334, "type": "electric_scooter"}, {"bike_id": "717fd698c0dcb6e0c52ce5f2f737a46b", "is_reserved": 0, "fusion_lon": 0.0, "lat": 38.9167645, "is_disabled": 0, "name": "717fd698c0dcb6e0c52ce5f2f737a46b", "fusion_lat": 0.0, "rental_uris": {"ios": "https://dc.lft.to/lastmile_qr_scan", "android": "https://dc.lft.to/lastmile_qr_scan"}, "lon": -77.03692116666667, "type": "electric_scooter"}, {"bike_id": "6bf4ceabbae42018c6b18a258628f538", "is_reserved": 0, "fusion_lon": 0.0, "lat": 38.9185365, "is_disabled": 0, "name": "6bf4ceabbae42018c6b18a258628f538", "fusion_lat": 0.0, "rental_uris": {"ios": "https://dc.lft.to/lastmile_qr_scan", "android": "https://dc.lft.to/lastmile_qr_scan"}, "lon": -77.02458216666666, "type": "electric_scooter"}, {"bike_id": "21580136f1693520a4eec4ef938a53c3", "is_reserved": 0, "fusion_lon": 0.0, "lat": 38.89826466666667, "is_disabled": 0, "name": "21580136f1693520a4eec4ef938a53c3", "fusion_lat": 0.0, "rental_uris": {"ios": "https://dc.lft.to/lastmile_qr_scan", "android": "https://dc.lft.to/lastmile_qr_scan"}, "lon": -77.050337, "type": "electric_scooter"}, {"bike_id": "49112e0407bb18a5ccfbcf19e6c60710", "is_reserved": 0, "fusion_lon": 0.0, "lat": 38.9021895, "is_disabled": 0, "name": "49112e0407bb18a5ccfbcf19e6c60710", "fusion_lat": 0.0, "rental_uris": {"ios": "https://dc.lft.to/lastmile_qr_scan", "android": "https://dc.lft.to/lastmile_qr_scan"}, "lon": -76.950522, "type": "electric_bike"}, {"bike_id": "c83912cee877a23adc74a4265ba07c49", "is_reserved": 0, "fusion_lon": 0.0, "lat": 38.895606, "is_disabled": 0, "name": "c83912cee877a23adc74a4265ba07c49", "fusion_lat": 0.0, "rental_uris": {"ios": "https://dc.lft.to/lastmile_qr_scan", "android": "https://dc.lft.to/lastmile_qr_scan"}, "lon": -77.12732516666667, "type": "electric_bike"}, {"bike_id": "1677a0216ab5ad6c96c738d16793e49c", "is_reserved": 0, "fusion_lon": 0.0, "lat": 38.901202833333336, "is_disabled": 0, "name": "1677a0216ab5ad6c96c738d16793e49c", "fusion_lat": 0.0, "rental_uris": {"ios": "https://dc.lft.to/lastmile_qr_scan", "android": "https://dc.lft.to/lastmile_qr_scan"}, "lon": -77.04331166666667, "type": "electric_scooter"}, {"bike_id": "42132c239163629cd77e5d0137fb00c7", "is_reserved": 0, "fusion_lon": 0.0, "lat": 38.905817, "is_disabled": 0, "name": "42132c239163629cd77e5d0137fb00c7", "fusion_lat": 0.0, "rental_uris": {"ios": "https://dc.lft.to/lastmile_qr_scan", "android": "https://dc.lft.to/lastmile_qr_scan"}, "lon": -77.036045, "type": "electric_scooter"}, {"bike_id": "077ca6cd8c63241f43e02e3d797c80b0", "is_reserved": 0, "fusion_lon": 0.0, "lat": 38.919357166666664, "is_disabled": 0, "name": "077ca6cd8c63241f43e02e3d797c80b0", "fusion_lat": 0.0, "rental_uris": {"ios": "https://dc.lft.to/lastmile_qr_scan", "android": "https://dc.lft.to/lastmile_qr_scan"}, "lon": -77.04174566666667, "type": "electric_scooter"}, {"bike_id": "576111b19296b6a19cba93468c3b2bd1", "is_reserved": 0, "fusion_lon": 0.0, "lat": 38.90792116666667, "is_disabled": 0, "name": "576111b19296b6a19cba93468c3b2bd1", "fusion_lat": 0.0, "rental_uris": {"ios": "https://dc.lft.to/lastmile_qr_scan", "android": "https://dc.lft.to/lastmile_qr_scan"}, "lon": -77.04825183333334, "type": "electric_scooter"}, {"bike_id": "ef2ed7ae068da15f473fe97e9389723d", "is_reserved": 0, "fusion_lon": 0.0, "lat": 38.89909983333333, "is_disabled": 0, "name": "ef2ed7ae068da15f473fe97e9389723d", "fusion_lat": 0.0, "rental_uris": {"ios": "https://dc.lft.to/lastmile_qr_scan", "android": "https://dc.lft.to/lastmile_qr_scan"}, "lon": -77.04037533333333, "type": "electric_scooter"}, {"bike_id": "eedaa2081a32892954e2039fb3ecfdb7", "is_reserved": 0, "fusion_lon": 0.0, "lat": 38.91058316666667, "is_disabled": 0, "name": "eedaa2081a32892954e2039fb3ecfdb7", "fusion_lat": 0.0, "rental_uris": {"ios": "https://dc.lft.to/lastmile_qr_scan", "android": "https://dc.lft.to/lastmile_qr_scan"}, "lon": -77.02200666666667, "type": "electric_scooter"}, {"bike_id": "abccacff5cc4c6567bf3cd1fd9a441e2", "is_reserved": 0, "fusion_lon": 0.0, "lat": 38.90563233333334, "is_disabled": 0, "name": "abccacff5cc4c6567bf3cd1fd9a441e2", "fusion_lat": 0.0, "rental_uris": {"ios": "https://dc.lft.to/lastmile_qr_scan", "android": "https://dc.lft.to/lastmile_qr_scan"}, "lon": -77.0167705, "type": "electric_scooter"}, {"bike_id": "e7e1e61fd035f7a7cad49145ebe8f690", "is_reserved": 0, "fusion_lon": 0.0, "lat": 38.84295433333333, "is_disabled": 0, "name": "e7e1e61fd035f7a7cad49145ebe8f690", "fusion_lat": 0.0, "rental_uris": {"ios": "https://dc.lft.to/lastmile_qr_scan", "android": "https://dc.lft.to/lastmile_qr_scan"}, "lon": -76.99949083333334, "type": "electric_scooter"}, {"bike_id": "c53f89b6e37b38780cc2903ef1b0a46c", "is_reserved": 0, "fusion_lon": 0.0, "lat": 38.8867395, "is_disabled": 0, "name": "c53f89b6e37b38780cc2903ef1b0a46c", "fusion_lat": 0.0, "rental_uris": {"ios": "https://dc.lft.to/lastmile_qr_scan", "android": "https://dc.lft.to/lastmile_qr_scan"}, "lon": -77.01373033333333, "type": "electric_scooter"}, {"bike_id": "7feb7e5654edb2bb48d774fc2661815b", "is_reserved": 0, "fusion_lon": 0.0, "lat": 38.8524355, "is_disabled": 0, "name": "7feb7e5654edb2bb48d774fc2661815b", "fusion_lat": 0.0, "rental_uris": {"ios": "https://dc.lft.to/lastmile_qr_scan", "android": "https://dc.lft.to/lastmile_qr_scan"}, "lon": -77.1143685, "type": "electric_bike"}, {"bike_id": "ded1327902028e3b4c60b93ed6482b28", "is_reserved": 0, "fusion_lon": 0.0, "lat": 38.927513, "is_disabled": 0, "name": "ded1327902028e3b4c60b93ed6482b28", "fusion_lat": 0.0, "rental_uris": {"ios": "https://dc.lft.to/lastmile_qr_scan", "android": "https://dc.lft.to/lastmile_qr_scan"}, "lon": -77.05397283333333, "type": "electric_scooter"}, {"bike_id": "d133d2680dc6cd1093bb97104831b4b9", "is_reserved": 0, "fusion_lon": 0.0, "lat": 38.902531333333336, "is_disabled": 0, "name": "d133d2680dc6cd1093bb97104831b4b9", "fusion_lat": 0.0, "rental_uris": {"ios": "https://dc.lft.to/lastmile_qr_scan", "android": "https://dc.lft.to/lastmile_qr_scan"}, "lon": -77.03958266666666, "type": "electric_scooter"}, {"bike_id": "dce63d11908afe13438134c0c264c7e5", "is_reserved": 0, "fusion_lon": 0.0, "lat": 38.9027115, "is_disabled": 0, "name": "dce63d11908afe13438134c0c264c7e5", "fusion_lat": 0.0, "rental_uris": {"ios": "https://dc.lft.to/lastmile_qr_scan", "android": "https://dc.lft.to/lastmile_qr_scan"}, "lon": -77.038337, "type": "electric_scooter"}, {"bike_id": "810e2ef86638bb5e5364f6fee6c10e59", "is_reserved": 0, "fusion_lon": 0.0, "lat": 38.9212775, "is_disabled": 0, "name": "810e2ef86638bb5e5364f6fee6c10e59", "fusion_lat": 0.0, "rental_uris": {"ios": "https://dc.lft.to/lastmile_qr_scan", "android": "https://dc.lft.to/lastmile_qr_scan"}, "lon": -77.02201816666667, "type": "electric_scooter"}, {"bike_id": "095fc62423419328862b1c6fdbaf59d2", "is_reserved": 0, "fusion_lon": 0.0, "lat": 38.91205683333333, "is_disabled": 0, "name": "095fc62423419328862b1c6fdbaf59d2", "fusion_lat": 0.0, "rental_uris": {"ios": "https://dc.lft.to/lastmile_qr_scan", "android": "https://dc.lft.to/lastmile_qr_scan"}, "lon": -77.02969366666666, "type": "electric_scooter"}, {"bike_id": "a689a7ad1e5569eee59f3c6cc2dc5033", "is_reserved": 0, "fusion_lon": 0.0, "lat": 38.91118066666667, "is_disabled": 0, "name": "a689a7ad1e5569eee59f3c6cc2dc5033", "fusion_lat": 0.0, "rental_uris": {"ios": "https://dc.lft.to/lastmile_qr_scan", "android": "https://dc.lft.to/lastmile_qr_scan"}, "lon": -77.0373355, "type": "electric_scooter"}, {"bike_id": "d9aa45be5d3b854665498345d4fcf365", "is_reserved": 0, "fusion_lon": 0.0, "lat": 38.97513083333333, "is_disabled": 0, "name": "d9aa45be5d3b854665498345d4fcf365", "fusion_lat": 0.0, "rental_uris": {"ios": "https://dc.lft.to/lastmile_qr_scan", "android": "https://dc.lft.to/lastmile_qr_scan"}, "lon": -77.01743966666666, "type": "electric_scooter"}, {"bike_id": "1c1d28c467c89fd91805b1e081b37e8c", "is_reserved": 0, "fusion_lon": 0.0, "lat": 38.9351195, "is_disabled": 0, "name": "1c1d28c467c89fd91805b1e081b37e8c", "fusion_lat": 0.0, "rental_uris": {"ios": "https://dc.lft.to/lastmile_qr_scan", "android": "https://dc.lft.to/lastmile_qr_scan"}, "lon": -77.03304383333334, "type": "electric_scooter"}, {"bike_id": "bfc2822826b7e655d4c0b840ae2acf9f", "is_reserved": 0, "fusion_lon": 0.0, "lat": 38.88704583333333, "is_disabled": 0, "name": "bfc2822826b7e655d4c0b840ae2acf9f", "fusion_lat": 0.0, "rental_uris": {"ios": "https://dc.lft.to/lastmile_qr_scan", "android": "https://dc.lft.to/lastmile_qr_scan"}, "lon": -77.00152133333333, "type": "electric_scooter"}, {"bike_id": "79559d5a20ba0db83b509d5d3ba732cb", "is_reserved": 0, "fusion_lon": 0.0, "lat": 38.9187795, "is_disabled": 0, "name": "79559d5a20ba0db83b509d5d3ba732cb", "fusion_lat": 0.0, "rental_uris": {"ios": "https://dc.lft.to/lastmile_qr_scan", "android": "https://dc.lft.to/lastmile_qr_scan"}, "lon": -77.04461766666667, "type": "electric_scooter"}, {"bike_id": "0a88f2f5b2434e7daaee096352a4328f", "is_reserved": 0, "fusion_lon": 0.0, "lat": 38.879926, "is_disabled": 0, "name": "0a88f2f5b2434e7daaee096352a4328f", "fusion_lat": 0.0, "rental_uris": {"ios": "https://dc.lft.to/lastmile_qr_scan", "android": "https://dc.lft.to/lastmile_qr_scan"}, "lon": -76.98539766666667, "type": "electric_scooter"}, {"bike_id": "31c1ee6b093eed6ffe71a80c26f93493", "is_reserved": 0, "fusion_lon": 0.0, "lat": 38.93169266666666, "is_disabled": 0, "name": "31c1ee6b093eed6ffe71a80c26f93493", "fusion_lat": 0.0, "rental_uris": {"ios": "https://dc.lft.to/lastmile_qr_scan", "android": "https://dc.lft.to/lastmile_qr_scan"}, "lon": -76.99623683333333, "type": "electric_scooter"}, {"bike_id": "ab2a2cae03e3cff3643c93a0ebc4c9ed", "is_reserved": 0, "fusion_lon": 0.0, "lat": 38.8954895, "is_disabled": 0, "name": "ab2a2cae03e3cff3643c93a0ebc4c9ed", "fusion_lat": 0.0, "rental_uris": {"ios": "https://dc.lft.to/lastmile_qr_scan", "android": "https://dc.lft.to/lastmile_qr_scan"}, "lon": -77.025529, "type": "electric_scooter"}, {"bike_id": "b65a49c35a2ef6ab985a446116238d5c", "is_reserved": 0, "fusion_lon": 0.0, "lat": 39.030476, "is_disabled": 0, "name": "b65a49c35a2ef6ab985a446116238d5c", "fusion_lat": 0.0, "rental_uris": {"ios": "https://dc.lft.to/lastmile_qr_scan", "android": "https://dc.lft.to/lastmile_qr_scan"}, "lon": -77.09481683333334, "type": "electric_bike"}, {"bike_id": "fb2562fa0a932a895fec585e10b55055", "is_reserved": 0, "fusion_lon": 0.0, "lat": 38.902738, "is_disabled": 0, "name": "fb2562fa0a932a895fec585e10b55055", "fusion_lat": 0.0, "rental_uris": {"ios": "https://dc.lft.to/lastmile_qr_scan", "android": "https://dc.lft.to/lastmile_qr_scan"}, "lon": -77.03327616666667, "type": "electric_scooter"}, {"bike_id": "1a6f3ae9dda7de68ed5a697406b856ca", "is_reserved": 0, "fusion_lon": 0.0, "lat": 38.933438, "is_disabled": 0, "name": "1a6f3ae9dda7de68ed5a697406b856ca", "fusion_lat": 0.0, "rental_uris": {"ios": "https://dc.lft.to/lastmile_qr_scan", "android": "https://dc.lft.to/lastmile_qr_scan"}, "lon": -77.05711883333333, "type": "electric_scooter"}, {"bike_id": "869329ad0abe9837ac911f5fdbf4a4ac", "is_reserved": 0, "fusion_lon": 0.0, "lat": 38.89825783333333, "is_disabled": 0, "name": "869329ad0abe9837ac911f5fdbf4a4ac", "fusion_lat": 0.0, "rental_uris": {"ios": "https://dc.lft.to/lastmile_qr_scan", "android": "https://dc.lft.to/lastmile_qr_scan"}, "lon": -76.98029316666667, "type": "electric_scooter"}, {"bike_id": "43868b97f8b8cb9f14320ca504e1715e", "is_reserved": 0, "fusion_lon": 0.0, "lat": 38.9442465, "is_disabled": 0, "name": "43868b97f8b8cb9f14320ca504e1715e", "fusion_lat": 0.0, "rental_uris": {"ios": "https://dc.lft.to/lastmile_qr_scan", "android": "https://dc.lft.to/lastmile_qr_scan"}, "lon": -77.06261616666667, "type": "electric_scooter"}, {"bike_id": "541393649e74a3affbdcf6a8c89c3aae", "is_reserved": 0, "fusion_lon": 0.0, "lat": 38.908336166666665, "is_disabled": 0, "name": "541393649e74a3affbdcf6a8c89c3aae", "fusion_lat": 0.0, "rental_uris": {"ios": "https://dc.lft.to/lastmile_qr_scan", "android": "https://dc.lft.to/lastmile_qr_scan"}, "lon": -76.997048, "type": "electric_scooter"}, {"bike_id": "0bdd411218c2df3336d8dd3bbe136ab8", "is_reserved": 0, "fusion_lon": 0.0, "lat": 38.90012333333333, "is_disabled": 0, "name": "0bdd411218c2df3336d8dd3bbe136ab8", "fusion_lat": 0.0, "rental_uris": {"ios": "https://dc.lft.to/lastmile_qr_scan", "android": "https://dc.lft.to/lastmile_qr_scan"}, "lon": -76.9976105, "type": "electric_scooter"}, {"bike_id": "b076197dac36bcfd9c049f862dd39605", "is_reserved": 0, "fusion_lon": 0.0, "lat": 38.89723583333333, "is_disabled": 0, "name": "b076197dac36bcfd9c049f862dd39605", "fusion_lat": 0.0, "rental_uris": {"ios": "https://dc.lft.to/lastmile_qr_scan", "android": "https://dc.lft.to/lastmile_qr_scan"}, "lon": -77.02698116666667, "type": "electric_scooter"}, {"bike_id": "ced95f5e27ccb10387521120c26bd003", "is_reserved": 0, "fusion_lon": 0.0, "lat": 38.919245833333335, "is_disabled": 0, "name": "ced95f5e27ccb10387521120c26bd003", "fusion_lat": 0.0, "rental_uris": {"ios": "https://dc.lft.to/lastmile_qr_scan", "android": "https://dc.lft.to/lastmile_qr_scan"}, "lon": -77.00070466666666, "type": "electric_scooter"}, {"bike_id": "45aab62c039fe1a5fb56d990924bf27b", "is_reserved": 0, "fusion_lon": 0.0, "lat": 38.891976666666665, "is_disabled": 0, "name": "45aab62c039fe1a5fb56d990924bf27b", "fusion_lat": 0.0, "rental_uris": {"ios": "https://dc.lft.to/lastmile_qr_scan", "android": "https://dc.lft.to/lastmile_qr_scan"}, "lon": -77.0155045, "type": "electric_scooter"}, {"bike_id": "94e22db9b568484c5ab02636adc08de5", "is_reserved": 0, "fusion_lon": 0.0, "lat": 38.90766433333334, "is_disabled": 0, "name": "94e22db9b568484c5ab02636adc08de5", "fusion_lat": 0.0, "rental_uris": {"ios": "https://dc.lft.to/lastmile_qr_scan", "android": "https://dc.lft.to/lastmile_qr_scan"}, "lon": -77.0320625, "type": "electric_scooter"}, {"bike_id": "c006e955fade7a0ee550188ad8b45ab7", "is_reserved": 0, "fusion_lon": 0.0, "lat": 38.95729083333333, "is_disabled": 0, "name": "c006e955fade7a0ee550188ad8b45ab7", "fusion_lat": 0.0, "rental_uris": {"ios": "https://dc.lft.to/lastmile_qr_scan", "android": "https://dc.lft.to/lastmile_qr_scan"}, "lon": -76.9801855, "type": "electric_bike"}, {"bike_id": "f1e1fec36d56d673fb461b7b8660616c", "is_reserved": 0, "fusion_lon": 0.0, "lat": 38.918132166666666, "is_disabled": 0, "name": "f1e1fec36d56d673fb461b7b8660616c", "fusion_lat": 0.0, "rental_uris": {"ios": "https://dc.lft.to/lastmile_qr_scan", "android": "https://dc.lft.to/lastmile_qr_scan"}, "lon": -77.024791, "type": "electric_scooter"}, {"bike_id": "7f2ae917191d8cdcd549ea658cfadada", "is_reserved": 0, "fusion_lon": 0.0, "lat": 38.9417385, "is_disabled": 0, "name": "7f2ae917191d8cdcd549ea658cfadada", "fusion_lat": 0.0, "rental_uris": {"ios": "https://dc.lft.to/lastmile_qr_scan", "android": "https://dc.lft.to/lastmile_qr_scan"}, "lon": -77.04131533333333, "type": "electric_scooter"}, {"bike_id": "61941ed8028fa17935dbb9e493d27e75", "is_reserved": 0, "fusion_lon": 0.0, "lat": 38.998186833333335, "is_disabled": 0, "name": "61941ed8028fa17935dbb9e493d27e75", "fusion_lat": 0.0, "rental_uris": {"ios": "https://dc.lft.to/lastmile_qr_scan", "android": "https://dc.lft.to/lastmile_qr_scan"}, "lon": -76.88378416666667, "type": "electric_bike"}, {"bike_id": "b40a3ba22a7aaa745ecb766eae1c974a", "is_reserved": 0, "fusion_lon": 0.0, "lat": 38.898741666666666, "is_disabled": 0, "name": "b40a3ba22a7aaa745ecb766eae1c974a", "fusion_lat": 0.0, "rental_uris": {"ios": "https://dc.lft.to/lastmile_qr_scan", "android": "https://dc.lft.to/lastmile_qr_scan"}, "lon": -76.93160233333333, "type": "electric_scooter"}, {"bike_id": "925af86c15e53fd716e0015e1e175094", "is_reserved": 0, "fusion_lon": 0.0, "lat": 38.903725, "is_disabled": 0, "name": "925af86c15e53fd716e0015e1e175094", "fusion_lat": 0.0, "rental_uris": {"ios": "https://dc.lft.to/lastmile_qr_scan", "android": "https://dc.lft.to/lastmile_qr_scan"}, "lon": -77.01101183333333, "type": "electric_scooter"}, {"bike_id": "d07702f3cfb48f75aad8b18443891488", "is_reserved": 0, "fusion_lon": 0.0, "lat": 38.928974833333335, "is_disabled": 0, "name": "d07702f3cfb48f75aad8b18443891488", "fusion_lat": 0.0, "rental_uris": {"ios": "https://dc.lft.to/lastmile_qr_scan", "android": "https://dc.lft.to/lastmile_qr_scan"}, "lon": -77.05453216666666, "type": "electric_scooter"}, {"bike_id": "49d30854ba2606d6578c5b529c9d82fc", "is_reserved": 0, "fusion_lon": 0.0, "lat": 38.9214155, "is_disabled": 0, "name": "49d30854ba2606d6578c5b529c9d82fc", "fusion_lat": 0.0, "rental_uris": {"ios": "https://dc.lft.to/lastmile_qr_scan", "android": "https://dc.lft.to/lastmile_qr_scan"}, "lon": -77.034952, "type": "electric_scooter"}, {"bike_id": "9c92b0ecd1b1b6392ee457fb25a27fdc", "is_reserved": 0, "fusion_lon": 0.0, "lat": 38.807426, "is_disabled": 0, "name": "9c92b0ecd1b1b6392ee457fb25a27fdc", "fusion_lat": 0.0, "rental_uris": {"ios": "https://dc.lft.to/lastmile_qr_scan", "android": "https://dc.lft.to/lastmile_qr_scan"}, "lon": -77.0942645, "type": "electric_bike"}, {"bike_id": "a0ab8153416a35927bb0d82117f6d3f2", "is_reserved": 0, "fusion_lon": 0.0, "lat": 38.903291333333335, "is_disabled": 0, "name": "a0ab8153416a35927bb0d82117f6d3f2", "fusion_lat": 0.0, "rental_uris": {"ios": "https://dc.lft.to/lastmile_qr_scan", "android": "https://dc.lft.to/lastmile_qr_scan"}, "lon": -77.06642766666667, "type": "electric_scooter"}, {"bike_id": "495a8d791b51222a639a58c4cf0c7b87", "is_reserved": 0, "fusion_lon": 0.0, "lat": 38.86387933333334, "is_disabled": 0, "name": "495a8d791b51222a639a58c4cf0c7b87", "fusion_lat": 0.0, "rental_uris": {"ios": "https://dc.lft.to/lastmile_qr_scan", "android": "https://dc.lft.to/lastmile_qr_scan"}, "lon": -76.98989416666667, "type": "electric_bike"}, {"bike_id": "ee11824709b66e9556e0a85f68f36471", "is_reserved": 0, "fusion_lon": 0.0, "lat": 38.8960525, "is_disabled": 0, "name": "ee11824709b66e9556e0a85f68f36471", "fusion_lat": 0.0, "rental_uris": {"ios": "https://dc.lft.to/lastmile_qr_scan", "android": "https://dc.lft.to/lastmile_qr_scan"}, "lon": -77.04506616666667, "type": "electric_scooter"}, {"bike_id": "dfc07eae263129d3902753a994fe4559", "is_reserved": 0, "fusion_lon": 0.0, "lat": 38.869611, "is_disabled": 0, "name": "dfc07eae263129d3902753a994fe4559", "fusion_lat": 0.0, "rental_uris": {"ios": "https://dc.lft.to/lastmile_qr_scan", "android": "https://dc.lft.to/lastmile_qr_scan"}, "lon": -77.0137735, "type": "electric_scooter"}, {"bike_id": "4f11ff665b9e7addd1aae7abe273b7a6", "is_reserved": 0, "fusion_lon": 0.0, "lat": 38.892977, "is_disabled": 0, "name": "4f11ff665b9e7addd1aae7abe273b7a6", "fusion_lat": 0.0, "rental_uris": {"ios": "https://dc.lft.to/lastmile_qr_scan", "android": "https://dc.lft.to/lastmile_qr_scan"}, "lon": -77.01223166666666, "type": "electric_scooter"}, {"bike_id": "864e8533a224f225341ce4346db3e509", "is_reserved": 0, "fusion_lon": 0.0, "lat": 38.96823066666666, "is_disabled": 0, "name": "864e8533a224f225341ce4346db3e509", "fusion_lat": 0.0, "rental_uris": {"ios": "https://dc.lft.to/lastmile_qr_scan", "android": "https://dc.lft.to/lastmile_qr_scan"}, "lon": -77.01785283333334, "type": "electric_scooter"}, {"bike_id": "304a61ab647f409a61d3ae8f612e6528", "is_reserved": 0, "fusion_lon": 0.0, "lat": 38.896253, "is_disabled": 0, "name": "304a61ab647f409a61d3ae8f612e6528", "fusion_lat": 0.0, "rental_uris": {"ios": "https://dc.lft.to/lastmile_qr_scan", "android": "https://dc.lft.to/lastmile_qr_scan"}, "lon": -77.032298, "type": "electric_scooter"}, {"bike_id": "ed69180109afaa09b3a4f4a93bf81fe1", "is_reserved": 0, "fusion_lon": 0.0, "lat": 38.92230266666667, "is_disabled": 0, "name": "ed69180109afaa09b3a4f4a93bf81fe1", "fusion_lat": 0.0, "rental_uris": {"ios": "https://dc.lft.to/lastmile_qr_scan", "android": "https://dc.lft.to/lastmile_qr_scan"}, "lon": -77.03524433333334, "type": "electric_scooter"}, {"bike_id": "aa6bdc3b63fc45f5ffc51382a7cf51a4", "is_reserved": 0, "fusion_lon": 0.0, "lat": 38.905061, "is_disabled": 0, "name": "aa6bdc3b63fc45f5ffc51382a7cf51a4", "fusion_lat": 0.0, "rental_uris": {"ios": "https://dc.lft.to/lastmile_qr_scan", "android": "https://dc.lft.to/lastmile_qr_scan"}, "lon": -77.04848066666666, "type": "electric_scooter"}, {"bike_id": "9281d2139741beaa92be67cc93b09ba0", "is_reserved": 0, "fusion_lon": 0.0, "lat": 38.90458816666667, "is_disabled": 0, "name": "9281d2139741beaa92be67cc93b09ba0", "fusion_lat": 0.0, "rental_uris": {"ios": "https://dc.lft.to/lastmile_qr_scan", "android": "https://dc.lft.to/lastmile_qr_scan"}, "lon": -76.99509416666666, "type": "electric_scooter"}, {"bike_id": "45c1b88d44247629fec1298e12964044", "is_reserved": 0, "fusion_lon": 0.0, "lat": 38.928817333333335, "is_disabled": 0, "name": "45c1b88d44247629fec1298e12964044", "fusion_lat": 0.0, "rental_uris": {"ios": "https://dc.lft.to/lastmile_qr_scan", "android": "https://dc.lft.to/lastmile_qr_scan"}, "lon": -77.03318816666666, "type": "electric_scooter"}, {"bike_id": "17198f3261df0832a5da131014dc3152", "is_reserved": 0, "fusion_lon": 0.0, "lat": 38.87341816666667, "is_disabled": 0, "name": "17198f3261df0832a5da131014dc3152", "fusion_lat": 0.0, "rental_uris": {"ios": "https://dc.lft.to/lastmile_qr_scan", "android": "https://dc.lft.to/lastmile_qr_scan"}, "lon": -76.967865, "type": "electric_scooter"}, {"bike_id": "2bcc14e25b5aaf420b92c83d4a3ce4af", "is_reserved": 0, "fusion_lon": 0.0, "lat": 38.906070166666666, "is_disabled": 0, "name": "2bcc14e25b5aaf420b92c83d4a3ce4af", "fusion_lat": 0.0, "rental_uris": {"ios": "https://dc.lft.to/lastmile_qr_scan", "android": "https://dc.lft.to/lastmile_qr_scan"}, "lon": -77.0511395, "type": "electric_scooter"}, {"bike_id": "dc1b889a9b9617987413699d94e3891e", "is_reserved": 0, "fusion_lon": 0.0, "lat": 38.879237833333335, "is_disabled": 0, "name": "dc1b889a9b9617987413699d94e3891e", "fusion_lat": 0.0, "rental_uris": {"ios": "https://dc.lft.to/lastmile_qr_scan", "android": "https://dc.lft.to/lastmile_qr_scan"}, "lon": -77.01342583333333, "type": "electric_scooter"}, {"bike_id": "903832e8ee8e66ec5b3106f4c8f31000", "is_reserved": 0, "fusion_lon": 0.0, "lat": 38.88503433333333, "is_disabled": 0, "name": "903832e8ee8e66ec5b3106f4c8f31000", "fusion_lat": 0.0, "rental_uris": {"ios": "https://dc.lft.to/lastmile_qr_scan", "android": "https://dc.lft.to/lastmile_qr_scan"}, "lon": -77.00570066666667, "type": "electric_scooter"}, {"bike_id": "3899e4d6c046830dc769d7705965d91b", "is_reserved": 0, "fusion_lon": 0.0, "lat": 38.93963166666666, "is_disabled": 0, "name": "3899e4d6c046830dc769d7705965d91b", "fusion_lat": 0.0, "rental_uris": {"ios": "https://dc.lft.to/lastmile_qr_scan", "android": "https://dc.lft.to/lastmile_qr_scan"}, "lon": -77.05322, "type": "electric_scooter"}, {"bike_id": "493d0d979810d0df8025d53c02729996", "is_reserved": 0, "fusion_lon": 0.0, "lat": 38.9370285, "is_disabled": 0, "name": "493d0d979810d0df8025d53c02729996", "fusion_lat": 0.0, "rental_uris": {"ios": "https://dc.lft.to/lastmile_qr_scan", "android": "https://dc.lft.to/lastmile_qr_scan"}, "lon": -77.03262733333334, "type": "electric_scooter"}, {"bike_id": "ecd54272cc12760f186335683e00bc39", "is_reserved": 0, "fusion_lon": 0.0, "lat": 38.9238095, "is_disabled": 0, "name": "ecd54272cc12760f186335683e00bc39", "fusion_lat": 0.0, "rental_uris": {"ios": "https://dc.lft.to/lastmile_qr_scan", "android": "https://dc.lft.to/lastmile_qr_scan"}, "lon": -77.0517775, "type": "electric_scooter"}, {"bike_id": "72ef8ec70ac549a5bb146e88608579a7", "is_reserved": 0, "fusion_lon": 0.0, "lat": 38.9213045, "is_disabled": 0, "name": "72ef8ec70ac549a5bb146e88608579a7", "fusion_lat": 0.0, "rental_uris": {"ios": "https://dc.lft.to/lastmile_qr_scan", "android": "https://dc.lft.to/lastmile_qr_scan"}, "lon": -77.04144183333334, "type": "electric_scooter"}, {"bike_id": "c39b71119b88426e12205d30f7ebaa4f", "is_reserved": 0, "fusion_lon": 0.0, "lat": 38.9357785, "is_disabled": 0, "name": "c39b71119b88426e12205d30f7ebaa4f", "fusion_lat": 0.0, "rental_uris": {"ios": "https://dc.lft.to/lastmile_qr_scan", "android": "https://dc.lft.to/lastmile_qr_scan"}, "lon": -77.03282583333333, "type": "electric_scooter"}, {"bike_id": "3d6eaca25fe543eb84b15acff5a2a1cd", "is_reserved": 0, "fusion_lon": 0.0, "lat": 38.9211585, "is_disabled": 0, "name": "3d6eaca25fe543eb84b15acff5a2a1cd", "fusion_lat": 0.0, "rental_uris": {"ios": "https://dc.lft.to/lastmile_qr_scan", "android": "https://dc.lft.to/lastmile_qr_scan"}, "lon": -77.03171, "type": "electric_scooter"}, {"bike_id": "c66364c00336dc342101dfe1921a2a07", "is_reserved": 0, "fusion_lon": 0.0, "lat": 38.9080795, "is_disabled": 0, "name": "c66364c00336dc342101dfe1921a2a07", "fusion_lat": 0.0, "rental_uris": {"ios": "https://dc.lft.to/lastmile_qr_scan", "android": "https://dc.lft.to/lastmile_qr_scan"}, "lon": -77.03446766666667, "type": "electric_scooter"}, {"bike_id": "622334c96e56b61d4e220858574e226a", "is_reserved": 0, "fusion_lon": 0.0, "lat": 38.90293966666667, "is_disabled": 0, "name": "622334c96e56b61d4e220858574e226a", "fusion_lat": 0.0, "rental_uris": {"ios": "https://dc.lft.to/lastmile_qr_scan", "android": "https://dc.lft.to/lastmile_qr_scan"}, "lon": -77.03429283333334, "type": "electric_scooter"}, {"bike_id": "da1db1cbb90aea511d52d48fe232d672", "is_reserved": 0, "fusion_lon": 0.0, "lat": 38.91248516666667, "is_disabled": 0, "name": "da1db1cbb90aea511d52d48fe232d672", "fusion_lat": 0.0, "rental_uris": {"ios": "https://dc.lft.to/lastmile_qr_scan", "android": "https://dc.lft.to/lastmile_qr_scan"}, "lon": -77.03649733333333, "type": "electric_scooter"}, {"bike_id": "498226e8e4f9020c9f374b8e108ad73e", "is_reserved": 0, "fusion_lon": 0.0, "lat": 38.909761333333336, "is_disabled": 0, "name": "498226e8e4f9020c9f374b8e108ad73e", "fusion_lat": 0.0, "rental_uris": {"ios": "https://dc.lft.to/lastmile_qr_scan", "android": "https://dc.lft.to/lastmile_qr_scan"}, "lon": -77.038669, "type": "electric_scooter"}, {"bike_id": "690b5e3f45e161780d771496ab509097", "is_reserved": 0, "fusion_lon": 0.0, "lat": 38.911736833333336, "is_disabled": 0, "name": "690b5e3f45e161780d771496ab509097", "fusion_lat": 0.0, "rental_uris": {"ios": "https://dc.lft.to/lastmile_qr_scan", "android": "https://dc.lft.to/lastmile_qr_scan"}, "lon": -77.0030085, "type": "electric_bike"}, {"bike_id": "7737f514dca7fb55f079bec84c9a0d8d", "is_reserved": 0, "fusion_lon": 0.0, "lat": 38.900426333333336, "is_disabled": 0, "name": "7737f514dca7fb55f079bec84c9a0d8d", "fusion_lat": 0.0, "rental_uris": {"ios": "https://dc.lft.to/lastmile_qr_scan", "android": "https://dc.lft.to/lastmile_qr_scan"}, "lon": -77.00215033333333, "type": "electric_scooter"}, {"bike_id": "230f32fd7b74cf8a971cdbb3e1c39dbd", "is_reserved": 0, "fusion_lon": 0.0, "lat": 38.877277666666664, "is_disabled": 0, "name": "230f32fd7b74cf8a971cdbb3e1c39dbd", "fusion_lat": 0.0, "rental_uris": {"ios": "https://dc.lft.to/lastmile_qr_scan", "android": "https://dc.lft.to/lastmile_qr_scan"}, "lon": -77.11843866666666, "type": "electric_bike"}, {"bike_id": "13929908a6bfe383f81a914926b24461", "is_reserved": 0, "fusion_lon": 0.0, "lat": 38.90969883333333, "is_disabled": 0, "name": "13929908a6bfe383f81a914926b24461", "fusion_lat": 0.0, "rental_uris": {"ios": "https://dc.lft.to/lastmile_qr_scan", "android": "https://dc.lft.to/lastmile_qr_scan"}, "lon": -77.05266283333333, "type": "electric_scooter"}, {"bike_id": "f3fba660ecedaad585007a070cb4595d", "is_reserved": 0, "fusion_lon": 0.0, "lat": 38.89095283333333, "is_disabled": 0, "name": "f3fba660ecedaad585007a070cb4595d", "fusion_lat": 0.0, "rental_uris": {"ios": "https://dc.lft.to/lastmile_qr_scan", "android": "https://dc.lft.to/lastmile_qr_scan"}, "lon": -76.94393133333334, "type": "electric_scooter"}, {"bike_id": "caa0a4aba2adc09d8f34e6b5876d556a", "is_reserved": 0, "fusion_lon": 0.0, "lat": 38.92375833333333, "is_disabled": 0, "name": "caa0a4aba2adc09d8f34e6b5876d556a", "fusion_lat": 0.0, "rental_uris": {"ios": "https://dc.lft.to/lastmile_qr_scan", "android": "https://dc.lft.to/lastmile_qr_scan"}, "lon": -77.01914333333333, "type": "electric_scooter"}, {"bike_id": "85b255d354427572e16049827129bdd6", "is_reserved": 0, "fusion_lon": 0.0, "lat": 38.900840333333335, "is_disabled": 0, "name": "85b255d354427572e16049827129bdd6", "fusion_lat": 0.0, "rental_uris": {"ios": "https://dc.lft.to/lastmile_qr_scan", "android": "https://dc.lft.to/lastmile_qr_scan"}, "lon": -76.9386775, "type": "electric_scooter"}, {"bike_id": "21735ffe51db50ac4dc94b6b4ee9bfff", "is_reserved": 0, "fusion_lon": 0.0, "lat": 38.929658333333336, "is_disabled": 0, "name": "21735ffe51db50ac4dc94b6b4ee9bfff", "fusion_lat": 0.0, "rental_uris": {"ios": "https://dc.lft.to/lastmile_qr_scan", "android": "https://dc.lft.to/lastmile_qr_scan"}, "lon": -77.00535, "type": "electric_scooter"}, {"bike_id": "f02a13ecef65a7739b2ea2d14b6e515e", "is_reserved": 0, "fusion_lon": 0.0, "lat": 38.917987333333336, "is_disabled": 0, "name": "f02a13ecef65a7739b2ea2d14b6e515e", "fusion_lat": 0.0, "rental_uris": {"ios": "https://dc.lft.to/lastmile_qr_scan", "android": "https://dc.lft.to/lastmile_qr_scan"}, "lon": -77.03554516666667, "type": "electric_scooter"}, {"bike_id": "6f37ff696a481ae5d7b67db30fc421fc", "is_reserved": 0, "fusion_lon": 0.0, "lat": 38.90001766666666, "is_disabled": 0, "name": "6f37ff696a481ae5d7b67db30fc421fc", "fusion_lat": 0.0, "rental_uris": {"ios": "https://dc.lft.to/lastmile_qr_scan", "android": "https://dc.lft.to/lastmile_qr_scan"}, "lon": -77.01553233333334, "type": "electric_scooter"}, {"bike_id": "30c6293bcf76bc01be5a94b91a08716c", "is_reserved": 0, "fusion_lon": 0.0, "lat": 38.927681166666666, "is_disabled": 0, "name": "30c6293bcf76bc01be5a94b91a08716c", "fusion_lat": 0.0, "rental_uris": {"ios": "https://dc.lft.to/lastmile_qr_scan", "android": "https://dc.lft.to/lastmile_qr_scan"}, "lon": -77.027826, "type": "electric_scooter"}, {"bike_id": "d7e8529a68d2cb4f6d35c59eee3b2abc", "is_reserved": 0, "fusion_lon": 0.0, "lat": 38.90240083333333, "is_disabled": 0, "name": "d7e8529a68d2cb4f6d35c59eee3b2abc", "fusion_lat": 0.0, "rental_uris": {"ios": "https://dc.lft.to/lastmile_qr_scan", "android": "https://dc.lft.to/lastmile_qr_scan"}, "lon": -77.0607715, "type": "electric_scooter"}, {"bike_id": "48451fd2c8a00f17bba1d65ce8a3e38a", "is_reserved": 0, "fusion_lon": 0.0, "lat": 38.93163066666666, "is_disabled": 0, "name": "48451fd2c8a00f17bba1d65ce8a3e38a", "fusion_lat": 0.0, "rental_uris": {"ios": "https://dc.lft.to/lastmile_qr_scan", "android": "https://dc.lft.to/lastmile_qr_scan"}, "lon": -77.05642916666666, "type": "electric_scooter"}, {"bike_id": "e187b85d5be2207404e26221447e8faf", "is_reserved": 0, "fusion_lon": 0.0, "lat": 38.9247065, "is_disabled": 0, "name": "e187b85d5be2207404e26221447e8faf", "fusion_lat": 0.0, "rental_uris": {"ios": "https://dc.lft.to/lastmile_qr_scan", "android": "https://dc.lft.to/lastmile_qr_scan"}, "lon": -77.05206483333333, "type": "electric_scooter"}, {"bike_id": "e2e21b2e97edae41f6dc18fe9d4c2846", "is_reserved": 0, "fusion_lon": 0.0, "lat": 38.90943816666667, "is_disabled": 0, "name": "e2e21b2e97edae41f6dc18fe9d4c2846", "fusion_lat": 0.0, "rental_uris": {"ios": "https://dc.lft.to/lastmile_qr_scan", "android": "https://dc.lft.to/lastmile_qr_scan"}, "lon": -77.03853516666666, "type": "electric_scooter"},