{"data": {"bikes": [{"bike_id": "bf14e11a336ccd7e68a9e2996134970c", "type": "electric_scooter", "is_disabled": 0, "lat": 38.92962416666667, "rental_uris": {"ios": "https://dc.lft.to/lastmile_qr_scan", "android": "https://dc.lft.to/lastmile_qr_scan"}, "is_reserved": 0, "fusion_lon": 0.0, "fusion_lat": 0.0, "lon": -77.01147166666667, "name": "bf14e11a336ccd7e68a9e2996134970c"}, {"bike_id": "6be83404e9cea97006b1a063cffa79db", "type": "electric_scooter", "is_disabled": 0, "lat": 38.92326, "rental_uris": {"ios": "https://dc.lft.to/lastmile_qr_scan", "android": "https://dc.lft.to/lastmile_qr_scan"}, "is_reserved": 0, "fusion_lon": 0.0, "fusion_lat": 0.0, "lon": -77.00883833333333, "name": "6be83404e9cea97006b1a063cffa79db"}, {"bike_id": "78fa70fe56443b8e7b69ba6661c66e10", "type": "electric_scooter", "is_disabled": 0, "lat": 38.90523183333333, "rental_uris": {"ios": "https://dc.lft.to/lastmile_qr_scan", "android": "https://dc.lft.to/lastmile_qr_scan"}, "is_reserved": 0, "fusion_lon": 0.0, "fusion_lat": 0.0, "lon": -77.04341333333333, "name": "78fa70fe56443b8e7b69ba6661c66e10"}, {"bike_id": "9ecaef6b9fc8c8de89b0cc16753e6dc7", "type": "electric_scooter", "is_disabled": 0, "lat": 38.93606283333333, "rental_uris": {"ios": "https://dc.lft.to/lastmile_qr_scan", "android": "https://dc.lft.to/lastmile_qr_scan"}, "is_reserved": 0, "fusion_lon": 0.0, "fusion_lat": 0.0, "lon": -77.03808016666666, "name": "9ecaef6b9fc8c8de89b0cc16753e6dc7"}, {"bike_id": "c495543d570b1cdf849d8a50a44f5710", "type": "electric_bike", "is_disabled": 0, "lat": 38.910002, "rental_uris": {"ios": "https://dc.lft.to/lastmile_qr_scan", "android": "https://dc.lft.to/lastmile_qr_scan"}, "is_reserved": 0, "fusion_lon": 0.0, "fusion_lat": 0.0, "lon": -77.057153, "name": "c495543d570b1cdf849d8a50a44f5710"}, {"bike_id": "58b84c5f5ddc78d060e309362fe2dd03", "type": "electric_scooter", "is_disabled": 0, "lat": 38.9004755, "rental_uris": {"ios": "https://dc.lft.to/lastmile_qr_scan", "android": "https://dc.lft.to/lastmile_qr_scan"}, "is_reserved": 0, "fusion_lon": 0.0, "fusion_lat": 0.0, "lon": -77.01726983333333, "name": "58b84c5f5ddc78d060e309362fe2dd03"}, {"bike_id": "e60900d0fb4b1e03e7d03814029a9667", "type": "electric_scooter", "is_disabled": 0, "lat": 38.92488383333333, "rental_uris": {"ios": "https://dc.lft.to/lastmile_qr_scan", "android": "https://dc.lft.to/lastmile_qr_scan"}, "is_reserved": 0, "fusion_lon": 0.0, "fusion_lat": 0.0, "lon": -77.03179833333333, "name": "e60900d0fb4b1e03e7d03814029a9667"}, {"bike_id": "d6aef6072ad109e52022605e76d7efe5", "type": "electric_scooter", "is_disabled": 0, "lat": 38.91655216666667, "rental_uris": {"ios": "https://dc.lft.to/lastmile_qr_scan", "android": "https://dc.lft.to/lastmile_qr_scan"}, "is_reserved": 0, "fusion_lon": 0.0, "fusion_lat": 0.0, "lon": -76.979088, "name": "d6aef6072ad109e52022605e76d7efe5"}, {"bike_id": "76496e1c628a8ce83a7c2fd875b95e06", "type": "electric_bike", "is_disabled": 0, "lat": 38.9517065, "rental_uris": {"ios": "https://dc.lft.to/lastmile_qr_scan", "android": "https://dc.lft.to/lastmile_qr_scan"}, "is_reserved": 0, "fusion_lon": 0.0, "fusion_lat": 0.0, "lon": -76.97732166666667, "name": "76496e1c628a8ce83a7c2fd875b95e06"}, {"bike_id": "3d46c52e6f8ec7396866e41a886c1fb0", "type": "electric_scooter", "is_disabled": 0, "lat": 38.933623, "rental_uris": {"ios": "https://dc.lft.to/lastmile_qr_scan", "android": "https://dc.lft.to/lastmile_qr_scan"}, "is_reserved": 0, "fusion_lon": 0.0, "fusion_lat": 0.0, "lon": -77.0264535, "name": "3d46c52e6f8ec7396866e41a886c1fb0"}, {"bike_id": "a0dcbeedcd644ed277b9d61ed6e3fab6", "type": "electric_bike", "is_disabled": 0, "lat": 38.98764533333333, "rental_uris": {"ios": "https://dc.lft.to/lastmile_qr_scan", "android": "https://dc.lft.to/lastmile_qr_scan"}, "is_reserved": 0, "fusion_lon": 0.0, "fusion_lat": 0.0, "lon": -77.14062916666667, "name": "a0dcbeedcd644ed277b9d61ed6e3fab6"}, {"bike_id": "ff74544e1f7291d69c612e96ed7bf77c", "type": "electric_scooter", "is_disabled": 0, "lat": 38.922073166666664, "rental_uris": {"ios": "https://dc.lft.to/lastmile_qr_scan", "android": "https://dc.lft.to/lastmile_qr_scan"}, "is_reserved": 0, "fusion_lon": 0.0, "fusion_lat": 0.0, "lon": -77.036502, "name": "ff74544e1f7291d69c612e96ed7bf77c"}, {"bike_id": "6e6c78476817d5f5f0843da7b33626f9", "type": "electric_scooter", "is_disabled": 0, "lat": 38.907934833333336, "rental_uris": {"ios": "https://dc.lft.to/lastmile_qr_scan", "android": "https://dc.lft.to/lastmile_qr_scan"}, "is_reserved": 0, "fusion_lon": 0.0, "fusion_lat": 0.0, "lon": -77.001981, "name": "6e6c78476817d5f5f0843da7b33626f9"}, {"bike_id": "60cb4c8cd5b4ad59d9136abda8d916bf", "type": "electric_scooter", "is_disabled": 0, "lat": 38.903050666666665, "rental_uris": {"ios": "https://dc.lft.to/lastmile_qr_scan", "android": "https://dc.lft.to/lastmile_qr_scan"}, "is_reserved": 0, "fusion_lon": 0.0, "fusion_lat": 0.0, "lon": -77.049581, "name": "60cb4c8cd5b4ad59d9136abda8d916bf"}, {"bike_id": "40f22fbf2f4e176b055d62c80801586b", "type": "electric_bike", "is_disabled": 0, "lat": 38.993293, "rental_uris": {"ios": "https://dc.lft.to/lastmile_qr_scan", "android": "https://dc.lft.to/lastmile_qr_scan"}, "is_reserved": 0, "fusion_lon": 0.0, "fusion_lat": 0.0, "lon": -76.94614166666666, "name": "40f22fbf2f4e176b055d62c80801586b"}, {"bike_id": "87e609698d307e12177b508351ec5afb", "type": "electric_bike", "is_disabled": 0, "lat": 38.855202166666665, "rental_uris": {"ios": "https://dc.lft.to/lastmile_qr_scan", "android": "https://dc.lft.to/lastmile_qr_scan"}, "is_reserved": 0, "fusion_lon": 0.0, "fusion_lat": 0.0, "lon": -77.12006316666667, "name": "87e609698d307e12177b508351ec5afb"}, {"bike_id": "eccc4f71766a17d5d209b404502d6f41", "type": "electric_scooter", "is_disabled": 0, "lat": 38.91603166666667, "rental_uris": {"ios": "https://dc.lft.to/lastmile_qr_scan", "android": "https://dc.lft.to/lastmile_qr_scan"}, "is_reserved": 0, "fusion_lon": 0.0, "fusion_lat": 0.0, "lon": -77.03198083333334, "name": "eccc4f71766a17d5d209b404502d6f41"}, {"bike_id": "ff5ff359499929459ff72318f2dc8781", "type": "electric_scooter", "is_disabled": 0, "lat": 38.9022505, "rental_uris": {"ios": "https://dc.lft.to/lastmile_qr_scan", "android": "https://dc.lft.to/lastmile_qr_scan"}, "is_reserved": 0, "fusion_lon": 0.0, "fusion_lat": 0.0, "lon": -77.04029516666667, "name": "ff5ff359499929459ff72318f2dc8781"}, {"bike_id": "603a5f00ecb8290038e41307bf4ac76f", "type": "electric_scooter", "is_disabled": 0, "lat": 38.92971766666667, "rental_uris": {"ios": "https://dc.lft.to/lastmile_qr_scan", "android": "https://dc.lft.to/lastmile_qr_scan"}, "is_reserved": 0, "fusion_lon": 0.0, "fusion_lat": 0.0, "lon": -77.03660283333333, "name": "603a5f00ecb8290038e41307bf4ac76f"}, {"bike_id": "fa00c0b47fdf6f27cd5828f9b8c9eeaf", "type": "electric_scooter", "is_disabled": 0, "lat": 38.919299, "rental_uris": {"ios": "https://dc.lft.to/lastmile_qr_scan", "android": "https://dc.lft.to/lastmile_qr_scan"}, "is_reserved": 0, "fusion_lon": 0.0, "fusion_lat": 0.0, "lon": -77.03177433333333, "name": "fa00c0b47fdf6f27cd5828f9b8c9eeaf"}, {"bike_id": "cac54377df91820eca99e0aeedfbc6f5", "type": "electric_scooter", "is_disabled": 0, "lat": 38.933529666666665, "rental_uris": {"ios": "https://dc.lft.to/lastmile_qr_scan", "android": "https://dc.lft.to/lastmile_qr_scan"}, "is_reserved": 0, "fusion_lon": 0.0, "fusion_lat": 0.0, "lon": -77.07359966666667, "name": "cac54377df91820eca99e0aeedfbc6f5"}, {"bike_id": "fb5a5901d2a872e4e93a20c9b394f48f", "type": "electric_scooter", "is_disabled": 0, "lat": 38.92794966666666, "rental_uris": {"ios": "https://dc.lft.to/lastmile_qr_scan", "android": "https://dc.lft.to/lastmile_qr_scan"}, "is_reserved": 0, "fusion_lon": 0.0, "fusion_lat": 0.0, "lon": -77.02207433333334, "name": "fb5a5901d2a872e4e93a20c9b394f48f"}, {"bike_id": "1d2090e5660c0edd4c0b8ad3fdc0bc7c", "type": "electric_scooter", "is_disabled": 0, "lat": 38.9141835, "rental_uris": {"ios": "https://dc.lft.to/lastmile_qr_scan", "android": "https://dc.lft.to/lastmile_qr_scan"}, "is_reserved": 0, "fusion_lon": 0.0, "fusion_lat": 0.0, "lon": -77.03173016666666, "name": "1d2090e5660c0edd4c0b8ad3fdc0bc7c"}, {"bike_id": "38715fcd15ef27e4d36144fc34026c1d", "type": "electric_scooter", "is_disabled": 0, "lat": 38.91178983333333, "rental_uris": {"ios": "https://dc.lft.to/lastmile_qr_scan", "android": "https://dc.lft.to/lastmile_qr_scan"}, "is_reserved": 0, "fusion_lon": 0.0, "fusion_lat": 0.0, "lon": -77.06860233333333, "name": "38715fcd15ef27e4d36144fc34026c1d"}, {"bike_id": "9bf6c05820a615a15edd746a339b6e47", "type": "electric_scooter", "is_disabled": 0, "lat": 38.9215925, "rental_uris": {"ios": "https://dc.lft.to/lastmile_qr_scan", "android": "https://dc.lft.to/lastmile_qr_scan"}, "is_reserved": 0, "fusion_lon": 0.0, "fusion_lat": 0.0, "lon": -77.0384675, "name": "9bf6c05820a615a15edd746a339b6e47"}, {"bike_id": "cab9ec5f0aff85f1c1d874e5766a723f", "type": "electric_bike", "is_disabled": 0, "lat": 38.889534833333336, "rental_uris": {"ios": "https://dc.lft.to/lastmile_qr_scan", "android": "https://dc.lft.to/lastmile_qr_scan"}, "is_reserved": 0, "fusion_lon": 0.0, "fusion_lat": 0.0, "lon": -77.09135983333333, "name": "cab9ec5f0aff85f1c1d874e5766a723f"}, {"bike_id": "27cc602aa7ef9b39e59cfb58550492ea", "type": "electric_scooter", "is_disabled": 0, "lat": 38.89976883333333, "rental_uris": {"ios": "https://dc.lft.to/lastmile_qr_scan", "android": "https://dc.lft.to/lastmile_qr_scan"}, "is_reserved": 0, "fusion_lon": 0.0, "fusion_lat": 0.0, "lon": -77.01577, "name": "27cc602aa7ef9b39e59cfb58550492ea"}, {"bike_id": "2f2d149ed8eece4e16124f62d3fd17a1", "type": "electric_scooter", "is_disabled": 0, "lat": 38.906008, "rental_uris": {"ios": "https://dc.lft.to/lastmile_qr_scan", "android": "https://dc.lft.to/lastmile_qr_scan"}, "is_reserved": 0, "fusion_lon": 0.0, "fusion_lat": 0.0, "lon": -77.06299516666667, "name": "2f2d149ed8eece4e16124f62d3fd17a1"}, {"bike_id": "55dda717921f0a59af33507bbb890050", "type": "electric_scooter", "is_disabled": 0, "lat": 38.89685, "rental_uris": {"ios": "https://dc.lft.to/lastmile_qr_scan", "android": "https://dc.lft.to/lastmile_qr_scan"}, "is_reserved": 0, "fusion_lon": 0.0, "fusion_lat": 0.0, "lon": -76.9996605, "name": "55dda717921f0a59af33507bbb890050"}, {"bike_id": "9ebc163251dadbc631d5150356db8f30", "type": "electric_scooter", "is_disabled": 0, "lat": 38.912221, "rental_uris": {"ios": "https://dc.lft.to/lastmile_qr_scan", "android": "https://dc.lft.to/lastmile_qr_scan"}, "is_reserved": 0, "fusion_lon": 0.0, "fusion_lat": 0.0, "lon": -77.03196533333333, "name": "9ebc163251dadbc631d5150356db8f30"}, {"bike_id": "7514c3a3c8d7e867e8477d16c5a50254", "type": "electric_scooter", "is_disabled": 0, "lat": 38.9011915, "rental_uris": {"ios": "https://dc.lft.to/lastmile_qr_scan", "android": "https://dc.lft.to/lastmile_qr_scan"}, "is_reserved": 0, "fusion_lon": 0.0, "fusion_lat": 0.0, "lon": -76.92952366666667, "name": "7514c3a3c8d7e867e8477d16c5a50254"}, {"bike_id": "04110dafd472b84f2cf613844b892437", "type": "electric_scooter", "is_disabled": 0, "lat": 38.9030095, "rental_uris": {"ios": "https://dc.lft.to/lastmile_qr_scan", "android": "https://dc.lft.to/lastmile_qr_scan"}, "is_reserved": 0, "fusion_lon": 0.0, "fusion_lat": 0.0, "lon": -77.06527933333334, "name": "04110dafd472b84f2cf613844b892437"}, {"bike_id": "589426ba0554a4810c7f0cc195702290", "type": "electric_bike", "is_disabled": 0, "lat": 38.931753666666665, "rental_uris": {"ios": "https://dc.lft.to/lastmile_qr_scan", "android": "https://dc.lft.to/lastmile_qr_scan"}, "is_reserved": 0, "fusion_lon": 0.0, "fusion_lat": 0.0, "lon": -77.035543, "name": "589426ba0554a4810c7f0cc195702290"}, {"bike_id": "4eb374eaad28ecdbf11e5662d72a2b4a", "type": "electric_scooter", "is_disabled": 0, "lat": 38.89910416666667, "rental_uris": {"ios": "https://dc.lft.to/lastmile_qr_scan", "android": "https://dc.lft.to/lastmile_qr_scan"}, "is_reserved": 0, "fusion_lon": 0.0, "fusion_lat": 0.0, "lon": -77.03957033333333, "name": "4eb374eaad28ecdbf11e5662d72a2b4a"}, {"bike_id": "c4600b3230ca8d8d13293f5aeb6b9dfd", "type": "electric_scooter", "is_disabled": 0, "lat": 38.86207266666667, "rental_uris": {"ios": "https://dc.lft.to/lastmile_qr_scan", "android": "https://dc.lft.to/lastmile_qr_scan"}, "is_reserved": 0, "fusion_lon": 0.0, "fusion_lat": 0.0, "lon": -76.99470083333334, "name": "c4600b3230ca8d8d13293f5aeb6b9dfd"}, {"bike_id": "80ea6191c6fc7fa9b00c1385507ef82b", "type": "electric_bike", "is_disabled": 0, "lat": 38.97403666666666, "rental_uris": {"ios": "https://dc.lft.to/lastmile_qr_scan", "android": "https://dc.lft.to/lastmile_qr_scan"}, "is_reserved": 0, "fusion_lon": 0.0, "fusion_lat": 0.0, "lon": -77.06455283333334, "name": "80ea6191c6fc7fa9b00c1385507ef82b"}, {"bike_id": "d35ccce1c5567c76739ae0664ea774fa", "type": "electric_scooter", "is_disabled": 0, "lat": 38.956285333333334, "rental_uris": {"ios": "https://dc.lft.to/lastmile_qr_scan", "android": "https://dc.lft.to/lastmile_qr_scan"}, "is_reserved": 0, "fusion_lon": 0.0, "fusion_lat": 0.0, "lon": -77.036164, "name": "d35ccce1c5567c76739ae0664ea774fa"}, {"bike_id": "24eb348f042dfa352eb2de707aa313d9", "type": "electric_scooter", "is_disabled": 0, "lat": 38.9058055, "rental_uris": {"ios": "https://dc.lft.to/lastmile_qr_scan", "android": "https://dc.lft.to/lastmile_qr_scan"}, "is_reserved": 0, "fusion_lon": 0.0, "fusion_lat": 0.0, "lon": -77.02695066666666, "name": "24eb348f042dfa352eb2de707aa313d9"}, {"bike_id": "75a34964febf55a264ee3708dd3c6780", "type": "electric_scooter", "is_disabled": 0, "lat": 38.92321533333333, "rental_uris": {"ios": "https://dc.lft.to/lastmile_qr_scan", "android": "https://dc.lft.to/lastmile_qr_scan"}, "is_reserved": 0, "fusion_lon": 0.0, "fusion_lat": 0.0, "lon": -77.03774433333334, "name": "75a34964febf55a264ee3708dd3c6780"}, {"bike_id": "fb079a5fe677fed2daea7867bc8f0cfc", "type": "electric_scooter", "is_disabled": 0, "lat": 38.88536333333333, "rental_uris": {"ios": "https://dc.lft.to/lastmile_qr_scan", "android": "https://dc.lft.to/lastmile_qr_scan"}, "is_reserved": 0, "fusion_lon": 0.0, "fusion_lat": 0.0, "lon": -76.99820166666666, "name": "fb079a5fe677fed2daea7867bc8f0cfc"}, {"bike_id": "49ea0187734457f587dbee44205df7ac", "type": "electric_scooter", "is_disabled": 0, "lat": 38.86684483333333, "rental_uris": {"ios": "https://dc.lft.to/lastmile_qr_scan", "android": "https://dc.lft.to/lastmile_qr_scan"}, "is_reserved": 0, "fusion_lon": 0.0, "fusion_lat": 0.0, "lon": -76.98575033333333, "name": "49ea0187734457f587dbee44205df7ac"}, {"bike_id": "c3fab4defc2e02868f5f3e59a5204ac4", "type": "electric_scooter", "is_disabled": 0, "lat": 38.8650035, "rental_uris": {"ios": "https://dc.lft.to/lastmile_qr_scan", "android": "https://dc.lft.to/lastmile_qr_scan"}, "is_reserved": 0, "fusion_lon": 0.0, "fusion_lat": 0.0, "lon": -76.9900175, "name": "c3fab4defc2e02868f5f3e59a5204ac4"}, {"bike_id": "56a1554e367efd1066037c1d292b9836", "type": "electric_scooter", "is_disabled": 0, "lat": 38.898298833333335, "rental_uris": {"ios": "https://dc.lft.to/lastmile_qr_scan", "android": "https://dc.lft.to/lastmile_qr_scan"}, "is_reserved": 0, "fusion_lon": 0.0, "fusion_lat": 0.0, "lon": -76.919548, "name": "56a1554e367efd1066037c1d292b9836"}, {"bike_id": "55dabe60f6df169aea2b801fb21b20f6", "type": "electric_scooter", "is_disabled": 0, "lat": 38.920098833333334, "rental_uris": {"ios": "https://dc.lft.to/lastmile_qr_scan", "android": "https://dc.lft.to/lastmile_qr_scan"}, "is_reserved": 0, "fusion_lon": 0.0, "fusion_lat": 0.0, "lon": -76.98496483333334, "name": "55dabe60f6df169aea2b801fb21b20f6"}, {"bike_id": "14f9cac27c6978463611ea9338d66151", "type": "electric_scooter", "is_disabled": 0, "lat": 38.92317583333333, "rental_uris": {"ios": "https://dc.lft.to/lastmile_qr_scan", "android": "https://dc.lft.to/lastmile_qr_scan"}, "is_reserved": 0, "fusion_lon": 0.0, "fusion_lat": 0.0, "lon": -77.02145716666666, "name": "14f9cac27c6978463611ea9338d66151"}, {"bike_id": "d7386746febc0f4558d91484a8e4dd38", "type": "electric_scooter", "is_disabled": 0, "lat": 38.883972166666666, "rental_uris": {"ios": "https://dc.lft.to/lastmile_qr_scan", "android": "https://dc.lft.to/lastmile_qr_scan"}, "is_reserved": 0, "fusion_lon": 0.0, "fusion_lat": 0.0, "lon": -77.01784166666667, "name": "d7386746febc0f4558d91484a8e4dd38"}, {"bike_id": "88ebdf5159a0d25b05f4c18a34833406", "type": "electric_scooter", "is_disabled": 0, "lat": 38.907447833333336, "rental_uris": {"ios": "https://dc.lft.to/lastmile_qr_scan", "android": "https://dc.lft.to/lastmile_qr_scan"}, "is_reserved": 0, "fusion_lon": 0.0, "fusion_lat": 0.0, "lon": -77.04344183333333, "name": "88ebdf5159a0d25b05f4c18a34833406"}, {"bike_id": "832f95cbc87faa41de9440845faf588d", "type": "electric_scooter", "is_disabled": 0, "lat": 38.900273, "rental_uris": {"ios": "https://dc.lft.to/lastmile_qr_scan", "android": "https://dc.lft.to/lastmile_qr_scan"}, "is_reserved": 0, "fusion_lon": 0.0, "fusion_lat": 0.0, "lon": -77.001867, "name": "832f95cbc87faa41de9440845faf588d"}, {"bike_id": "71b17f80bfdec927e60232d28f0759c6", "type": "electric_scooter", "is_disabled": 0, "lat": 38.91707983333333, "rental_uris": {"ios": "https://dc.lft.to/lastmile_qr_scan", "android": "https://dc.lft.to/lastmile_qr_scan"}, "is_reserved": 0, "fusion_lon": 0.0, "fusion_lat": 0.0, "lon": -77.09580916666667, "name": "71b17f80bfdec927e60232d28f0759c6"}, {"bike_id": "6e796aa93fb480423a136de408258546", "type": "electric_scooter", "is_disabled": 0, "lat": 38.92817183333333, "rental_uris": {"ios": "https://dc.lft.to/lastmile_qr_scan", "android": "https://dc.lft.to/lastmile_qr_scan"}, "is_reserved": 0, "fusion_lon": 0.0, "fusion_lat": 0.0, "lon": -77.03594183333334, "name": "6e796aa93fb480423a136de408258546"}, {"bike_id": "91e93e6cb9262dee7502f33a38df3dfe", "type": "electric_scooter", "is_disabled": 0, "lat": 38.9170415, "rental_uris": {"ios": "https://dc.lft.to/lastmile_qr_scan", "android": "https://dc.lft.to/lastmile_qr_scan"}, "is_reserved": 0, "fusion_lon": 0.0, "fusion_lat": 0.0, "lon": -77.03470716666666, "name": "91e93e6cb9262dee7502f33a38df3dfe"}, {"bike_id": "f251e1ef20813bdcab7a9676368bdd88", "type": "electric_scooter", "is_disabled": 0, "lat": 38.925762, "rental_uris": {"ios": "https://dc.lft.to/lastmile_qr_scan", "android": "https://dc.lft.to/lastmile_qr_scan"}, "is_reserved": 0, "fusion_lon": 0.0, "fusion_lat": 0.0, "lon": -77.0374135, "name": "f251e1ef20813bdcab7a9676368bdd88"}, {"bike_id": "e0d5bd6cd17990247ac7559f99fddc9a", "type": "electric_scooter", "is_disabled": 0, "lat": 38.927716333333336, "rental_uris": {"ios": "https://dc.lft.to/lastmile_qr_scan", "android": "https://dc.lft.to/lastmile_qr_scan"}, "is_reserved": 0, "fusion_lon": 0.0, "fusion_lat": 0.0, "lon": -76.9875545, "name": "e0d5bd6cd17990247ac7559f99fddc9a"}, {"bike_id": "ab7ae7b0f54234fa0415f26ad5ac9883", "type": "electric_scooter", "is_disabled": 0, "lat": 38.922794, "rental_uris": {"ios": "https://dc.lft.to/lastmile_qr_scan", "android": "https://dc.lft.to/lastmile_qr_scan"}, "is_reserved": 0, "fusion_lon": 0.0, "fusion_lat": 0.0, "lon": -76.99443666666667, "name": "ab7ae7b0f54234fa0415f26ad5ac9883"}, {"bike_id": "31686a5a3465346334335f87b1d852d3", "type": "electric_scooter", "is_disabled": 0, "lat": 38.957347666666664, "rental_uris": {"ios": "https://dc.lft.to/lastmile_qr_scan", "android": "https://dc.lft.to/lastmile_qr_scan"}, "is_reserved": 0, "fusion_lon": 0.0, "fusion_lat": 0.0, "lon": -77.0240175, "name": "31686a5a3465346334335f87b1d852d3"}, {"bike_id": "d09acb1ff4e250e495a9849f11ed2ad6", "type": "electric_bike", "is_disabled": 0, "lat": 38.9125015, "rental_uris": {"ios": "https://dc.lft.to/lastmile_qr_scan", "android": "https://dc.lft.to/lastmile_qr_scan"}, "is_reserved": 0, "fusion_lon": 0.0, "fusion_lat": 0.0, "lon": -77.08737416666666, "name": "d09acb1ff4e250e495a9849f11ed2ad6"}, {"bike_id": "3a0824643d6997fe76e47ca220299efb", "type": "electric_scooter", "is_disabled": 0, "lat": 38.91546, "rental_uris": {"ios": "https://dc.lft.to/lastmile_qr_scan", "android": "https://dc.lft.to/lastmile_qr_scan"}, "is_reserved": 0, "fusion_lon": 0.0, "fusion_lat": 0.0, "lon": -77.0385615, "name": "3a0824643d6997fe76e47ca220299efb"}, {"bike_id": "419e2fb1b7113db8f4bde7398bf95ed9", "type": "electric_scooter", "is_disabled": 0, "lat": 38.93572866666667, "rental_uris": {"ios": "https://dc.lft.to/lastmile_qr_scan", "android": "https://dc.lft.to/lastmile_qr_scan"}, "is_reserved": 0, "fusion_lon": 0.0, "fusion_lat": 0.0, "lon": -77.03252583333334, "name": "419e2fb1b7113db8f4bde7398bf95ed9"}, {"bike_id": "6295041c0ae2a4f5e6876cbbcb966df5", "type": "electric_bike", "is_disabled": 0, "lat": 38.90864166666667, "rental_uris": {"ios": "https://dc.lft.to/lastmile_qr_scan", "android": "https://dc.lft.to/lastmile_qr_scan"}, "is_reserved": 0, "fusion_lon": 0.0, "fusion_lat": 0.0, "lon": -76.99136633333333, "name": "6295041c0ae2a4f5e6876cbbcb966df5"}, {"bike_id": "82b9700b308ef38beb0ffb6668fe8651", "type": "electric_scooter", "is_disabled": 0, "lat": 38.913834666666666, "rental_uris": {"ios": "https://dc.lft.to/lastmile_qr_scan", "android": "https://dc.lft.to/lastmile_qr_scan"}, "is_reserved": 0, "fusion_lon": 0.0, "fusion_lat": 0.0, "lon": -77.01706116666666, "name": "82b9700b308ef38beb0ffb6668fe8651"}, {"bike_id": "10109535f7156ecc32d005d8dedbd407", "type": "electric_scooter", "is_disabled": 0, "lat": 38.93475133333333, "rental_uris": {"ios": "https://dc.lft.to/lastmile_qr_scan", "android": "https://dc.lft.to/lastmile_qr_scan"}, "is_reserved": 0, "fusion_lon": 0.0, "fusion_lat": 0.0, "lon": -77.07280283333333, "name": "10109535f7156ecc32d005d8dedbd407"}, {"bike_id": "e401a432f39854ce1d543f98b8148dd3", "type": "electric_scooter", "is_disabled": 0, "lat": 38.922588833333336, "rental_uris": {"ios": "https://dc.lft.to/lastmile_qr_scan", "android": "https://dc.lft.to/lastmile_qr_scan"}, "is_reserved": 0, "fusion_lon": 0.0, "fusion_lat": 0.0, "lon": -77.01955483333333, "name": "e401a432f39854ce1d543f98b8148dd3"}, {"bike_id": "bf119056dc57fc161691569d03c0c373", "type": "electric_scooter", "is_disabled": 0, "lat": 38.879323666666664, "rental_uris": {"ios": "https://dc.lft.to/lastmile_qr_scan", "android": "https://dc.lft.to/lastmile_qr_scan"}, "is_reserved": 0, "fusion_lon": 0.0, "fusion_lat": 0.0, "lon": -77.01647316666667, "name": "bf119056dc57fc161691569d03c0c373"}, {"bike_id": "d6fa4b029fcb87b98a2a5d2307d98841", "type": "electric_scooter", "is_disabled": 0, "lat": 38.924982, "rental_uris": {"ios": "https://dc.lft.to/lastmile_qr_scan", "android": "https://dc.lft.to/lastmile_qr_scan"}, "is_reserved": 0, "fusion_lon": 0.0, "fusion_lat": 0.0, "lon": -77.03804466666666, "name": "d6fa4b029fcb87b98a2a5d2307d98841"}, {"bike_id": "56b117010736d95aaed51ad98f0d312f", "type": "electric_scooter", "is_disabled": 0, "lat": 38.9223905, "rental_uris": {"ios": "https://dc.lft.to/lastmile_qr_scan", "android": "https://dc.lft.to/lastmile_qr_scan"}, "is_reserved": 0, "fusion_lon": 0.0, "fusion_lat": 0.0, "lon": -77.07312933333333, "name": "56b117010736d95aaed51ad98f0d312f"}, {"bike_id": "d9e7cbc86f20a6649a6dfdeca97a411a", "type": "electric_scooter", "is_disabled": 0, "lat": 38.87814383333333, "rental_uris": {"ios": "https://dc.lft.to/lastmile_qr_scan", "android": "https://dc.lft.to/lastmile_qr_scan"}, "is_reserved": 0, "fusion_lon": 0.0, "fusion_lat": 0.0, "lon": -77.02241866666667, "name": "d9e7cbc86f20a6649a6dfdeca97a411a"}, {"bike_id": "b17207d7627887705877bab037646de4", "type": "electric_scooter", "is_disabled": 0, "lat": 38.876487, "rental_uris": {"ios": "https://dc.lft.to/lastmile_qr_scan", "android": "https://dc.lft.to/lastmile_qr_scan"}, "is_reserved": 0, "fusion_lon": 0.0, "fusion_lat": 0.0, "lon": -76.965086, "name": "b17207d7627887705877bab037646de4"}, {"bike_id": "a51f80a8509d03c36f16db7997a0a121", "type": "electric_scooter", "is_disabled": 0, "lat": 38.9212655, "rental_uris": {"ios": "https://dc.lft.to/lastmile_qr_scan", "android": "https://dc.lft.to/lastmile_qr_scan"}, "is_reserved": 0, "fusion_lon": 0.0, "fusion_lat": 0.0, "lon": -77.041306, "name": "a51f80a8509d03c36f16db7997a0a121"}, {"bike_id": "5988459f90aef1612cbc0b3b0562bcb4", "type": "electric_scooter", "is_disabled": 0, "lat": 38.8382405, "rental_uris": {"ios": "https://dc.lft.to/lastmile_qr_scan", "android": "https://dc.lft.to/lastmile_qr_scan"}, "is_reserved": 0, "fusion_lon": 0.0, "fusion_lat": 0.0, "lon": -77.00267966666667, "name": "5988459f90aef1612cbc0b3b0562bcb4"}, {"bike_id": "1a8ee1f56eb06787d352e3c9a9b2c3e7", "type": "electric_scooter", "is_disabled": 0, "lat": 38.904186, "rental_uris": {"ios": "https://dc.lft.to/lastmile_qr_scan", "android": "https://dc.lft.to/lastmile_qr_scan"}, "is_reserved": 0, "fusion_lon": 0.0, "fusion_lat": 0.0, "lon": -77.02724633333334, "name": "1a8ee1f56eb06787d352e3c9a9b2c3e7"}, {"bike_id": "1f6c56a4408808de320a351c77f51899", "type": "electric_scooter", "is_disabled": 0, "lat": 38.9147695, "rental_uris": {"ios": "https://dc.lft.to/lastmile_qr_scan", "android": "https://dc.lft.to/lastmile_qr_scan"}, "is_reserved": 0, "fusion_lon": 0.0, "fusion_lat": 0.0, "lon": -76.98575983333333, "name": "1f6c56a4408808de320a351c77f51899"}, {"bike_id": "056f13b1a6811d4542b4467a9f091cd0", "type": "electric_scooter", "is_disabled": 0, "lat": 38.904793833333336, "rental_uris": {"ios": "https://dc.lft.to/lastmile_qr_scan", "android": "https://dc.lft.to/lastmile_qr_scan"}, "is_reserved": 0, "fusion_lon": 0.0, "fusion_lat": 0.0, "lon": -77.00732883333333, "name": "056f13b1a6811d4542b4467a9f091cd0"}, {"bike_id": "a93613dc4e89f9efca5a8159df1602eb", "type": "electric_scooter", "is_disabled": 0, "lat": 38.9223575, "rental_uris": {"ios": "https://dc.lft.to/lastmile_qr_scan", "android": "https://dc.lft.to/lastmile_qr_scan"}, "is_reserved": 0, "fusion_lon": 0.0, "fusion_lat": 0.0, "lon": -77.028379, "name": "a93613dc4e89f9efca5a8159df1602eb"}, {"bike_id": "6969543fe0afd96289d1be3731fbc30a", "type": "electric_scooter", "is_disabled": 0, "lat": 38.90254766666666, "rental_uris": {"ios": "https://dc.lft.to/lastmile_qr_scan", "android": "https://dc.lft.to/lastmile_qr_scan"}, "is_reserved": 0, "fusion_lon": 0.0, "fusion_lat": 0.0, "lon": -76.98667616666667, "name": "6969543fe0afd96289d1be3731fbc30a"}, {"bike_id": "301b30410b1430e2e55907c23e6e2f98", "type": "electric_scooter", "is_disabled": 0, "lat": 38.921576, "rental_uris": {"ios": "https://dc.lft.to/lastmile_qr_scan", "android": "https://dc.lft.to/lastmile_qr_scan"}, "is_reserved": 0, "fusion_lon": 0.0, "fusion_lat": 0.0, "lon": -77.03319333333333, "name": "301b30410b1430e2e55907c23e6e2f98"}, {"bike_id": "b735429a8bfb562440c4d9228c4c216b", "type": "electric_scooter", "is_disabled": 0, "lat": 38.896752, "rental_uris": {"ios": "https://dc.lft.to/lastmile_qr_scan", "android": "https://dc.lft.to/lastmile_qr_scan"}, "is_reserved": 0, "fusion_lon": 0.0, "fusion_lat": 0.0, "lon": -77.02386516666667, "name": "b735429a8bfb562440c4d9228c4c216b"}, {"bike_id": "13c2dbf28848401053ea16f5370fa24d", "type": "electric_scooter", "is_disabled": 0, "lat": 38.91567633333333, "rental_uris": {"ios": "https://dc.lft.to/lastmile_qr_scan", "android": "https://dc.lft.to/lastmile_qr_scan"}, "is_reserved": 0, "fusion_lon": 0.0, "fusion_lat": 0.0, "lon": -77.020191, "name": "13c2dbf28848401053ea16f5370fa24d"}, {"bike_id": "e21fb5fd65b82626c9f850a5e079b1e5", "type": "electric_scooter", "is_disabled": 0, "lat": 38.9000675, "rental_uris": {"ios": "https://dc.lft.to/lastmile_qr_scan", "android": "https://dc.lft.to/lastmile_qr_scan"}, "is_reserved": 0, "fusion_lon": 0.0, "fusion_lat": 0.0, "lon": -77.0103395, "name": "e21fb5fd65b82626c9f850a5e079b1e5"}, {"bike_id": "f6a9b789eae765d950206fd33f34c3fa", "type": "electric_scooter", "is_disabled": 0, "lat": 38.8811355, "rental_uris": {"ios": "https://dc.lft.to/lastmile_qr_scan", "android": "https://dc.lft.to/lastmile_qr_scan"}, "is_reserved": 0, "fusion_lon": 0.0, "fusion_lat": 0.0, "lon": -77.02654983333333, "name": "f6a9b789eae765d950206fd33f34c3fa"}, {"bike_id": "918ffc68e50da373aa70285face39c6b", "type": "electric_scooter", "is_disabled": 0, "lat": 38.929039833333334, "rental_uris": {"ios": "https://dc.lft.to/lastmile_qr_scan", "android": "https://dc.lft.to/lastmile_qr_scan"}, "is_reserved": 0, "fusion_lon": 0.0, "fusion_lat": 0.0, "lon": -77.03279183333333, "name": "918ffc68e50da373aa70285face39c6b"}, {"bike_id": "3d8e0187781ee7e350a1d5a76de704a7", "type": "electric_bike", "is_disabled": 0, "lat": 39.033942333333336, "rental_uris": {"ios": "https://dc.lft.to/lastmile_qr_scan", "android": "https://dc.lft.to/lastmile_qr_scan"}, "is_reserved": 0, "fusion_lon": 0.0, "fusion_lat": 0.0, "lon": -77.04166266666667, "name": "3d8e0187781ee7e350a1d5a76de704a7"}, {"bike_id": "aa8d6a169e097c96d1e02e41f2731614", "type": "electric_scooter", "is_disabled": 0, "lat": 38.881774666666665, "rental_uris": {"ios": "https://dc.lft.to/lastmile_qr_scan", "android": "https://dc.lft.to/lastmile_qr_scan"}, "is_reserved": 0, "fusion_lon": 0.0, "fusion_lat": 0.0, "lon": -77.02812466666667, "name": "aa8d6a169e097c96d1e02e41f2731614"}, {"bike_id": "19d5ef159a03eb42bc85959f7948c51d", "type": "electric_scooter", "is_disabled": 0, "lat": 38.875679166666664, "rental_uris": {"ios": "https://dc.lft.to/lastmile_qr_scan", "android": "https://dc.lft.to/lastmile_qr_scan"}, "is_reserved": 0, "fusion_lon": 0.0, "fusion_lat": 0.0, "lon": -77.012776, "name": "19d5ef159a03eb42bc85959f7948c51d"}, {"bike_id": "098bc8775fd3c6f72abe63a4217a1bb4", "type": "electric_scooter", "is_disabled": 0, "lat": 38.9030145, "rental_uris": {"ios": "https://dc.lft.to/lastmile_qr_scan", "android": "https://dc.lft.to/lastmile_qr_scan"}, "is_reserved": 0, "fusion_lon": 0.0, "fusion_lat": 0.0, "lon": -77.05046016666667, "name": "098bc8775fd3c6f72abe63a4217a1bb4"}, {"bike_id": "375caf7b8e042735ed7a06858f26fb09", "type": "electric_scooter", "is_disabled": 0, "lat": 38.90517916666667, "rental_uris": {"ios": "https://dc.lft.to/lastmile_qr_scan", "android": "https://dc.lft.to/lastmile_qr_scan"}, "is_reserved": 0, "fusion_lon": 0.0, "fusion_lat": 0.0, "lon": -77.04996366666667, "name": "375caf7b8e042735ed7a06858f26fb09"}, {"bike_id": "2b97d707d45d79e7154ecf21882e14cc", "type": "electric_scooter", "is_disabled": 0, "lat": 38.9237515, "rental_uris": {"ios": "https://dc.lft.to/lastmile_qr_scan", "android": "https://dc.lft.to/lastmile_qr_scan"}, "is_reserved": 0, "fusion_lon": 0.0, "fusion_lat": 0.0, "lon": -77.0282, "name": "2b97d707d45d79e7154ecf21882e14cc"}, {"bike_id": "b86946f8c033e6c4e7e27e55410ea2b3", "type": "electric_scooter", "is_disabled": 0, "lat": 38.89738283333333, "rental_uris": {"ios": "https://dc.lft.to/lastmile_qr_scan", "android": "https://dc.lft.to/lastmile_qr_scan"}, "is_reserved": 0, "fusion_lon": 0.0, "fusion_lat": 0.0, "lon": -76.94728033333334, "name": "b86946f8c033e6c4e7e27e55410ea2b3"}, {"bike_id": "a5b0ca50fede9983b95c4d772f85eca3", "type": "electric_scooter", "is_disabled": 0, "lat": 38.91832733333333, "rental_uris": {"ios": "https://dc.lft.to/lastmile_qr_scan", "android": "https://dc.lft.to/lastmile_qr_scan"}, "is_reserved": 0, "fusion_lon": 0.0, "fusion_lat": 0.0, "lon": -77.0231415, "name": "a5b0ca50fede9983b95c4d772f85eca3"}, {"bike_id": "47f36260a0bbe20374b2a2a07d482b6c", "type": "electric_scooter", "is_disabled": 0, "lat": 38.92537033333333, "rental_uris": {"ios": "https://dc.lft.to/lastmile_qr_scan", "android": "https://dc.lft.to/lastmile_qr_scan"}, "is_reserved": 0, "fusion_lon": 0.0, "fusion_lat": 0.0, "lon": -77.03248516666666, "name": "47f36260a0bbe20374b2a2a07d482b6c"}, {"bike_id": "22acc7e71f99ada4b5378e0d10b342c6", "type": "electric_bike", "is_disabled": 0, "lat": 38.88928516666667, "rental_uris": {"ios": "https://dc.lft.to/lastmile_qr_scan", "android": "https://dc.lft.to/lastmile_qr_scan"}, "is_reserved": 0, "fusion_lon": 0.0, "fusion_lat": 0.0, "lon": -76.99178333333333, "name": "22acc7e71f99ada4b5378e0d10b342c6"}, {"bike_id": "c1593832b39852d72bbcd9e61751c18b", "type": "electric_scooter", "is_disabled": 0, "lat": 38.91964383333333, "rental_uris": {"ios": "https://dc.lft.to/lastmile_qr_scan", "android": "https://dc.lft.to/lastmile_qr_scan"}, "is_reserved": 0, "fusion_lon": 0.0, "fusion_lat": 0.0, "lon": -77.0394845, "name": "c1593832b39852d72bbcd9e61751c18b"}, {"bike_id": "81acec5f2b21adc55230938ff86ac029", "type": "electric_scooter", "is_disabled": 0, "lat": 38.90724766666666, "rental_uris": {"ios": "https://dc.lft.to/lastmile_qr_scan", "android": "https://dc.lft.to/lastmile_qr_scan"}, "is_reserved": 0, "fusion_lon": 0.0, "fusion_lat": 0.0, "lon": -77.03197466666667, "name": "81acec5f2b21adc55230938ff86ac029"}, {"bike_id": "60352ec74976d3295d82f298ae469be8", "type": "electric_scooter", "is_disabled": 0, "lat": 38.915573, "rental_uris": {"ios": "https://dc.lft.to/lastmile_qr_scan", "android": "https://dc.lft.to/lastmile_qr_scan"}, "is_reserved": 0, "fusion_lon": 0.0, "fusion_lat": 0.0, "lon": -77.02553333333333, "name": "60352ec74976d3295d82f298ae469be8"}, {"bike_id": "dd2e475139edda5c97ffdde28a3cf5da", "type": "electric_scooter", "is_disabled": 0, "lat": 38.941372333333334, "rental_uris": {"ios": "https://dc.lft.to/lastmile_qr_scan", "android": "https://dc.lft.to/lastmile_qr_scan"}, "is_reserved": 0, "fusion_lon": 0.0, "fusion_lat": 0.0, "lon": -77.02327316666667, "name": "dd2e475139edda5c97ffdde28a3cf5da"}, {"bike_id": "e8b1ec88ca0873e488b03e4514fd98dc", "type": "electric_scooter", "is_disabled": 0, "lat": 38.906482833333335, "rental_uris": {"ios": "https://dc.lft.to/lastmile_qr_scan", "android": "https://dc.lft.to/lastmile_qr_scan"}, "is_reserved": 0, "fusion_lon": 0.0, "fusion_lat": 0.0, "lon": -77.03897133333334, "name": "e8b1ec88ca0873e488b03e4514fd98dc"}, {"bike_id": "a6659af39f745027997a428c868455ee", "type": "electric_scooter", "is_disabled": 0, "lat": 38.92975466666667, "rental_uris": {"ios": "https://dc.lft.to/lastmile_qr_scan", "android": "https://dc.lft.to/lastmile_qr_scan"}, "is_reserved": 0, "fusion_lon": 0.0, "fusion_lat": 0.0, "lon": -77.01302916666667, "name": "a6659af39f745027997a428c868455ee"}, {"bike_id": "d99d1cda6254319934a2435a72fad9ea", "type": "electric_scooter", "is_disabled": 0, "lat": 38.897319333333336, "rental_uris": {"ios": "https://dc.lft.to/lastmile_qr_scan", "android": "https://dc.lft.to/lastmile_qr_scan"}, "is_reserved": 0, "fusion_lon": 0.0, "fusion_lat": 0.0, "lon": -76.9473135, "name": "d99d1cda6254319934a2435a72fad9ea"}, {"bike_id": "5e32af95f5e51f2bc3140ca234fc673f", "type": "electric_scooter", "is_disabled": 0, "lat": 38.90234933333333, "rental_uris": {"ios": "https://dc.lft.to/lastmile_qr_scan", "android": "https://dc.lft.to/lastmile_qr_scan"}, "is_reserved": 0, "fusion_lon": 0.0, "fusion_lat": 0.0, "lon": -77.00198433333334, "name": "5e32af95f5e51f2bc3140ca234fc673f"}, {"bike_id": "3413b1b2dac8e3a57d0f3559b85c71e2", "type": "electric_scooter", "is_disabled": 0, "lat": 38.91424883333333, "rental_uris": {"ios": "https://dc.lft.to/lastmile_qr_scan", "android": "https://dc.lft.to/lastmile_qr_scan"}, "is_reserved": 0, "fusion_lon": 0.0, "fusion_lat": 0.0, "lon": -77.03178433333333, "name": "3413b1b2dac8e3a57d0f3559b85c71e2"}, {"bike_id": "88bf4232c8cfe2a44e4bcdd6503280d5", "type": "electric_scooter", "is_disabled": 0, "lat": 38.90169866666667, "rental_uris": {"ios": "https://dc.lft.to/lastmile_qr_scan", "android": "https://dc.lft.to/lastmile_qr_scan"}, "is_reserved": 0, "fusion_lon": 0.0, "fusion_lat": 0.0, "lon": -77.02292483333333, "name": "88bf4232c8cfe2a44e4bcdd6503280d5"}, {"bike_id": "8f47317172e66a5c3bd232457cb44371", "type": "electric_scooter", "is_disabled": 0, "lat": 38.89525183333333, "rental_uris": {"ios": "https://dc.lft.to/lastmile_qr_scan", "android": "https://dc.lft.to/lastmile_qr_scan"}, "is_reserved": 0, "fusion_lon": 0.0, "fusion_lat": 0.0, "lon": -76.948907, "name": "8f47317172e66a5c3bd232457cb44371"}, {"bike_id": "0e2e02c2285c0c06aebf31ac3a682ed8", "type": "electric_scooter", "is_disabled": 0, "lat": 38.900408666666664, "rental_uris": {"ios": "https://dc.lft.to/lastmile_qr_scan", "android": "https://dc.lft.to/lastmile_qr_scan"}, "is_reserved": 0, "fusion_lon": 0.0, "fusion_lat": 0.0, "lon": -76.98836116666666, "name": "0e2e02c2285c0c06aebf31ac3a682ed8"}, {"bike_id": "fec9f763e67f77fdccccafaa29202677", "type": "electric_scooter", "is_disabled": 0, "lat": 38.876248333333336, "rental_uris": {"ios": "https://dc.lft.to/lastmile_qr_scan", "android": "https://dc.lft.to/lastmile_qr_scan"}, "is_reserved": 0, "fusion_lon": 0.0, "fusion_lat": 0.0, "lon": -76.96526116666666, "name": "fec9f763e67f77fdccccafaa29202677"}, {"bike_id": "fe3a8fddd15e31ca1f70fc9306fd71d6", "type": "electric_scooter", "is_disabled": 0, "lat": 38.907461833333336, "rental_uris": {"ios": "https://dc.lft.to/lastmile_qr_scan", "android": "https://dc.lft.to/lastmile_qr_scan"}, "is_reserved": 0, "fusion_lon": 0.0, "fusion_lat": 0.0, "lon": -77.03476083333334, "name": "fe3a8fddd15e31ca1f70fc9306fd71d6"}, {"bike_id": "cc385eec2bfa030f9dc58a2c4b497588", "type": "electric_scooter", "is_disabled": 0, "lat": 38.906193333333334, "rental_uris": {"ios": "https://dc.lft.to/lastmile_qr_scan", "android": "https://dc.lft.to/lastmile_qr_scan"}, "is_reserved": 0, "fusion_lon": 0.0, "fusion_lat": 0.0, "lon": -77.00738866666667, "name": "cc385eec2bfa030f9dc58a2c4b497588"}, {"bike_id": "2d837379fd8a1891c58e26797c1536ab", "type": "electric_scooter", "is_disabled": 0, "lat": 38.93926916666667, "rental_uris": {"ios": "https://dc.lft.to/lastmile_qr_scan", "android": "https://dc.lft.to/lastmile_qr_scan"}, "is_reserved": 0, "fusion_lon": 0.0, "fusion_lat": 0.0, "lon": -77.0368305, "name": "2d837379fd8a1891c58e26797c1536ab"}, {"bike_id": "31fb0fc9be33b65f53509d8d79cb2537", "type": "electric_scooter", "is_disabled": 0, "lat": 38.906380166666665, "rental_uris": {"ios": "https://dc.lft.to/lastmile_qr_scan", "android": "https://dc.lft.to/lastmile_qr_scan"}, "is_reserved": 0, "fusion_lon": 0.0, "fusion_lat": 0.0, "lon": -77.0314295, "name": "31fb0fc9be33b65f53509d8d79cb2537"}, {"bike_id": "964b4d0a99ec81465dbdb3fe85030747", "type": "electric_scooter", "is_disabled": 0, "lat": 38.900431833333336, "rental_uris": {"ios": "https://dc.lft.to/lastmile_qr_scan", "android": "https://dc.lft.to/lastmile_qr_scan"}, "is_reserved": 0, "fusion_lon": 0.0, "fusion_lat": 0.0, "lon": -77.01313516666667, "name": "964b4d0a99ec81465dbdb3fe85030747"}, {"bike_id": "6eb9387f647a3c62a1d4d4b32235cbe0", "type": "electric_scooter", "is_disabled": 0, "lat": 38.900615333333334, "rental_uris": {"ios": "https://dc.lft.to/lastmile_qr_scan", "android": "https://dc.lft.to/lastmile_qr_scan"}, "is_reserved": 0, "fusion_lon": 0.0, "fusion_lat": 0.0, "lon": -76.9274085, "name": "6eb9387f647a3c62a1d4d4b32235cbe0"}, {"bike_id": "4e6da424d634fa258ad1d4370089877b", "type": "electric_scooter", "is_disabled": 0, "lat": 38.90912216666667, "rental_uris": {"ios": "https://dc.lft.to/lastmile_qr_scan", "android": "https://dc.lft.to/lastmile_qr_scan"}, "is_reserved": 0, "fusion_lon": 0.0, "fusion_lat": 0.0, "lon": -77.04289966666667, "name": "4e6da424d634fa258ad1d4370089877b"}, {"bike_id": "d79a58031581bd75f98efe5374c5630f", "type": "electric_scooter", "is_disabled": 0, "lat": 38.949959666666665, "rental_uris": {"ios": "https://dc.lft.to/lastmile_qr_scan", "android": "https://dc.lft.to/lastmile_qr_scan"}, "is_reserved": 0, "fusion_lon": 0.0, "fusion_lat": 0.0, "lon": -77.01830916666667, "name": "d79a58031581bd75f98efe5374c5630f"}, {"bike_id": "8e9a544fd691556b8edb393c2fa696f7", "type": "electric_scooter", "is_disabled": 0, "lat": 38.90498683333333, "rental_uris": {"ios": "https://dc.lft.to/lastmile_qr_scan", "android": "https://dc.lft.to/lastmile_qr_scan"}, "is_reserved": 0, "fusion_lon": 0.0, "fusion_lat": 0.0, "lon": -77.06886583333333, "name": "8e9a544fd691556b8edb393c2fa696f7"}, {"bike_id": "ac6bc139eae88e48406573c648546714", "type": "electric_scooter", "is_disabled": 0, "lat": 38.892186, "rental_uris": {"ios": "https://dc.lft.to/lastmile_qr_scan", "android": "https://dc.lft.to/lastmile_qr_scan"}, "is_reserved": 0, "fusion_lon": 0.0, "fusion_lat": 0.0, "lon": -77.03980666666666, "name": "ac6bc139eae88e48406573c648546714"}, {"bike_id": "f9f0ff10b97ea92ca3a6c4c6ab7cecba", "type": "electric_scooter", "is_disabled": 0, "lat": 38.918404833333334, "rental_uris": {"ios": "https://dc.lft.to/lastmile_qr_scan", "android": "https://dc.lft.to/lastmile_qr_scan"}, "is_reserved": 0, "fusion_lon": 0.0, "fusion_lat": 0.0, "lon": -77.02313283333334, "name": "f9f0ff10b97ea92ca3a6c4c6ab7cecba"}, {"bike_id": "cb4265f636385a779bbe035c7e65453e", "type": "electric_scooter", "is_disabled": 0, "lat": 38.92078683333333, "rental_uris": {"ios": "https://dc.lft.to/lastmile_qr_scan", "android": "https://dc.lft.to/lastmile_qr_scan"}, "is_reserved": 0, "fusion_lon": 0.0, "fusion_lat": 0.0, "lon": -77.0237255, "name": "cb4265f636385a779bbe035c7e65453e"}, {"bike_id": "b7076475e969d5f5e225d18124593877", "type": "electric_scooter", "is_disabled": 0, "lat": 38.90280816666667, "rental_uris": {"ios": "https://dc.lft.to/lastmile_qr_scan", "android": "https://dc.lft.to/lastmile_qr_scan"}, "is_reserved": 0, "fusion_lon": 0.0, "fusion_lat": 0.0, "lon": -77.00334183333334, "name": "b7076475e969d5f5e225d18124593877"}, {"bike_id": "f393c17387d211a63c80d690210094ad", "type": "electric_scooter", "is_disabled": 0, "lat": 38.91701366666667, "rental_uris": {"ios": "https://dc.lft.to/lastmile_qr_scan", "android": "https://dc.lft.to/lastmile_qr_scan"}, "is_reserved": 0, "fusion_lon": 0.0, "fusion_lat": 0.0, "lon": -77.02377666666666, "name": "f393c17387d211a63c80d690210094ad"}, {"bike_id": "b8f08070bd1a1db306489c8145be23d3", "type": "electric_scooter", "is_disabled": 0, "lat": 38.9016975, "rental_uris": {"ios": "https://dc.lft.to/lastmile_qr_scan", "android": "https://dc.lft.to/lastmile_qr_scan"}, "is_reserved": 0, "fusion_lon": 0.0, "fusion_lat": 0.0, "lon": -77.02490383333334, "name": "b8f08070bd1a1db306489c8145be23d3"}, {"bike_id": "bbb1915b35c03a2aa608a0c40a5a4bec", "type": "electric_scooter", "is_disabled": 0, "lat": 38.91705733333333, "rental_uris": {"ios": "https://dc.lft.to/lastmile_qr_scan", "android": "https://dc.lft.to/lastmile_qr_scan"}, "is_reserved": 0, "fusion_lon": 0.0, "fusion_lat": 0.0, "lon": -77.03010366666666, "name": "bbb1915b35c03a2aa608a0c40a5a4bec"}, {"bike_id": "81885f89bb840c73b7821efae5f3b76a", "type": "electric_scooter", "is_disabled": 0, "lat": 38.91830983333333, "rental_uris": {"ios": "https://dc.lft.to/lastmile_qr_scan", "android": "https://dc.lft.to/lastmile_qr_scan"}, "is_reserved": 0, "fusion_lon": 0.0, "fusion_lat": 0.0, "lon": -77.04504833333333, "name": "81885f89bb840c73b7821efae5f3b76a"}, {"bike_id": "e2fb835de133201aa817d3ddc77f2d15", "type": "electric_scooter", "is_disabled": 0, "lat": 38.890097833333336, "rental_uris": {"ios": "https://dc.lft.to/lastmile_qr_scan", "android": "https://dc.lft.to/lastmile_qr_scan"}, "is_reserved": 0, "fusion_lon": 0.0, "fusion_lat": 0.0, "lon": -76.93747866666666, "name": "e2fb835de133201aa817d3ddc77f2d15"}, {"bike_id": "033bb25c44825d3326cf14f2aacd4514", "type": "electric_scooter", "is_disabled": 0, "lat": 38.91443366666667, "rental_uris": {"ios": "https://dc.lft.to/lastmile_qr_scan", "android": "https://dc.lft.to/lastmile_qr_scan"}, "is_reserved": 0, "fusion_lon": 0.0, "fusion_lat": 0.0, "lon": -77.02590183333334, "name": "033bb25c44825d3326cf14f2aacd4514"}, {"bike_id": "660ae59ad13d6341a99b54dced66eb7e", "type": "electric_scooter", "is_disabled": 0, "lat": 38.861804, "rental_uris": {"ios": "https://dc.lft.to/lastmile_qr_scan", "android": "https://dc.lft.to/lastmile_qr_scan"}, "is_reserved": 0, "fusion_lon": 0.0, "fusion_lat": 0.0, "lon": -77.088231, "name": "660ae59ad13d6341a99b54dced66eb7e"}, {"bike_id": "3fd0f94620becfafd197110db94b34fc", "type": "electric_scooter", "is_disabled": 0, "lat": 38.9379245, "rental_uris": {"ios": "https://dc.lft.to/lastmile_qr_scan", "android": "https://dc.lft.to/lastmile_qr_scan"}, "is_reserved": 0, "fusion_lon": 0.0, "fusion_lat": 0.0, "lon": -77.02482533333334, "name": "3fd0f94620becfafd197110db94b34fc"}, {"bike_id": "8c998ac0f8d52ab331e8f7e5b3a7b8e6", "type": "electric_scooter", "is_disabled": 0, "lat": 38.884271, "rental_uris": {"ios": "https://dc.lft.to/lastmile_qr_scan", "android": "https://dc.lft.to/lastmile_qr_scan"}, "is_reserved": 0, "fusion_lon": 0.0, "fusion_lat": 0.0, "lon": -76.957549, "name": "8c998ac0f8d52ab331e8f7e5b3a7b8e6"}, {"bike_id": "5f76f326286045b8060f84246144af3c", "type": "electric_scooter", "is_disabled": 0, "lat": 38.90076616666666, "rental_uris": {"ios": "https://dc.lft.to/lastmile_qr_scan", "android": "https://dc.lft.to/lastmile_qr_scan"}, "is_reserved": 0, "fusion_lon": 0.0, "fusion_lat": 0.0, "lon": -77.018234, "name": "5f76f326286045b8060f84246144af3c"}, {"bike_id": "ffef88bfaef1768c91340ea48aa1c5da", "type": "electric_scooter", "is_disabled": 0, "lat": 38.8995695, "rental_uris": {"ios": "https://dc.lft.to/lastmile_qr_scan", "android": "https://dc.lft.to/lastmile_qr_scan"}, "is_reserved": 0, "fusion_lon": 0.0, "fusion_lat": 0.0, "lon": -77.05137616666667, "name": "ffef88bfaef1768c91340ea48aa1c5da"}, {"bike_id": "1a507e18c1c11af745abdaa045018f9c", "type": "electric_scooter", "is_disabled": 0, "lat": 38.94225183333333, "rental_uris": {"ios": "https://dc.lft.to/lastmile_qr_scan", "android": "https://dc.lft.to/lastmile_qr_scan"}, "is_reserved": 0, "fusion_lon": 0.0, "fusion_lat": 0.0, "lon": -77.01438683333333, "name": "1a507e18c1c11af745abdaa045018f9c"}, {"bike_id": "fe924cff31d4599424de0ea9194cbb89", "type": "electric_scooter", "is_disabled": 0, "lat": 38.896128833333336, "rental_uris": {"ios": "https://dc.lft.to/lastmile_qr_scan", "android": "https://dc.lft.to/lastmile_qr_scan"}, "is_reserved": 0, "fusion_lon": 0.0, "fusion_lat": 0.0, "lon": -76.98136466666666, "name": "fe924cff31d4599424de0ea9194cbb89"}, {"bike_id": "aeb5f74406cbf512c491e864d98630b0", "type": "electric_scooter", "is_disabled": 0, "lat": 38.86692133333333, "rental_uris": {"ios": "https://dc.lft.to/lastmile_qr_scan", "android": "https://dc.lft.to/lastmile_qr_scan"}, "is_reserved": 0, "fusion_lon": 0.0, "fusion_lat": 0.0, "lon": -76.98588816666667, "name": "aeb5f74406cbf512c491e864d98630b0"}, {"bike_id": "53c759375f56465d13fc9e576358c9c0", "type": "electric_scooter", "is_disabled": 0, "lat": 38.91777783333333, "rental_uris": {"ios": "https://dc.lft.to/lastmile_qr_scan", "android": "https://dc.lft.to/lastmile_qr_scan"}, "is_reserved": 0, "fusion_lon": 0.0, "fusion_lat": 0.0, "lon": -77.04549866666666, "name": "53c759375f56465d13fc9e576358c9c0"}, {"bike_id": "52fe5bc8bf2a5d2dda1944a0f9914e45", "type": "electric_scooter", "is_disabled": 0, "lat": 38.921909166666666, "rental_uris": {"ios": "https://dc.lft.to/lastmile_qr_scan", "android": "https://dc.lft.to/lastmile_qr_scan"}, "is_reserved": 0, "fusion_lon": 0.0, "fusion_lat": 0.0, "lon": -77.03781133333334, "name": "52fe5bc8bf2a5d2dda1944a0f9914e45"}, {"bike_id": "909d8c49b105fa5e75fb85bbeb6cb574", "type": "electric_scooter", "is_disabled": 0, "lat": 38.90973016666667, "rental_uris": {"ios": "https://dc.lft.to/lastmile_qr_scan", "android": "https://dc.lft.to/lastmile_qr_scan"}, "is_reserved": 0, "fusion_lon": 0.0, "fusion_lat": 0.0, "lon": -77.03629233333334, "name": "909d8c49b105fa5e75fb85bbeb6cb574"}, {"bike_id": "ecdd08e9e05fd54ad9b81abb63d0e16e", "type": "electric_scooter", "is_disabled": 0, "lat": 38.9112905, "rental_uris": {"ios": "https://dc.lft.to/lastmile_qr_scan", "android": "https://dc.lft.to/lastmile_qr_scan"}, "is_reserved": 0, "fusion_lon": 0.0, "fusion_lat": 0.0, "lon": -77.0441765, "name": "ecdd08e9e05fd54ad9b81abb63d0e16e"}, {"bike_id": "4ad6f155d60f5aeaf8ebb73f0ed59158", "type": "electric_scooter", "is_disabled": 0, "lat": 38.91099883333333, "rental_uris": {"ios": "https://dc.lft.to/lastmile_qr_scan", "android": "https://dc.lft.to/lastmile_qr_scan"}, "is_reserved": 0, "fusion_lon": 0.0, "fusion_lat": 0.0, "lon": -77.00251866666666, "name": "4ad6f155d60f5aeaf8ebb73f0ed59158"}, {"bike_id": "4a38c314dcf039d1d65cae2dd7ab00a6", "type": "electric_scooter", "is_disabled": 0, "lat": 38.90859583333334, "rental_uris": {"ios": "https://dc.lft.to/lastmile_qr_scan", "android": "https://dc.lft.to/lastmile_qr_scan"}, "is_reserved": 0, "fusion_lon": 0.0, "fusion_lat": 0.0, "lon": -77.02363433333333, "name": "4a38c314dcf039d1d65cae2dd7ab00a6"}, {"bike_id": "b7a3645c3996bfbc1da505ac0dc238d8", "type": "electric_scooter", "is_disabled": 0, "lat": 38.866842, "rental_uris": {"ios": "https://dc.lft.to/lastmile_qr_scan", "android": "https://dc.lft.to/lastmile_qr_scan"}, "is_reserved": 0, "fusion_lon": 0.0, "fusion_lat": 0.0, "lon": -76.98576766666666, "name": "b7a3645c3996bfbc1da505ac0dc238d8"}, {"bike_id": "d5c8050c05ee5c0337d0ecd369cbeca9", "type": "electric_scooter", "is_disabled": 0, "lat": 38.933736833333334, "rental_uris": {"ios": "https://dc.lft.to/lastmile_qr_scan", "android": "https://dc.lft.to/lastmile_qr_scan"}, "is_reserved": 0, "fusion_lon": 0.0, "fusion_lat": 0.0, "lon": -77.05733666666667, "name": "d5c8050c05ee5c0337d0ecd369cbeca9"}, {"bike_id": "d2cb499b5272407dfa69eee3085f4133", "type": "electric_scooter", "is_disabled": 0, "lat": 38.933527166666664, "rental_uris": {"ios": "https://dc.lft.to/lastmile_qr_scan", "android": "https://dc.lft.to/lastmile_qr_scan"}, "is_reserved": 0, "fusion_lon": 0.0, "fusion_lat": 0.0, "lon": -76.9926095, "name": "d2cb499b5272407dfa69eee3085f4133"}, {"bike_id": "04d93b1939e5134c7d77bb7459c0bc6e", "type": "electric_scooter", "is_disabled": 0, "lat": 38.9132315, "rental_uris": {"ios": "https://dc.lft.to/lastmile_qr_scan", "android": "https://dc.lft.to/lastmile_qr_scan"}, "is_reserved": 0, "fusion_lon": 0.0, "fusion_lat": 0.0, "lon": -77.036798, "name": "04d93b1939e5134c7d77bb7459c0bc6e"}, {"bike_id": "2ee62800ec33114e42af61ef1f5b2eac", "type": "electric_scooter", "is_disabled": 0, "lat": 38.892357, "rental_uris": {"ios": "https://dc.lft.to/lastmile_qr_scan", "android": "https://dc.lft.to/lastmile_qr_scan"}, "is_reserved": 0, "fusion_lon": 0.0, "fusion_lat": 0.0, "lon": -77.05002866666666, "name": "2ee62800ec33114e42af61ef1f5b2eac"}, {"bike_id": "888d8522ec8c372c38ab510415a6c408", "type": "electric_scooter", "is_disabled": 0, "lat": 38.90131133333333, "rental_uris": {"ios": "https://dc.lft.to/lastmile_qr_scan", "android": "https://dc.lft.to/lastmile_qr_scan"}, "is_reserved": 0, "fusion_lon": 0.0, "fusion_lat": 0.0, "lon": -77.01820266666667, "name": "888d8522ec8c372c38ab510415a6c408"}, {"bike_id": "75a691e11ab2d601fc0f34213a81e5f9", "type": "electric_scooter", "is_disabled": 0, "lat": 38.915072333333335, "rental_uris": {"ios": "https://dc.lft.to/lastmile_qr_scan", "android": "https://dc.lft.to/lastmile_qr_scan"}, "is_reserved": 0, "fusion_lon": 0.0, "fusion_lat": 0.0, "lon": -77.017769, "name": "75a691e11ab2d601fc0f34213a81e5f9"}, {"bike_id": "1623bb5852df5ae9d10fbf018b85eb26", "type": "electric_scooter", "is_disabled": 0, "lat": 38.916946833333334, "rental_uris": {"ios": "https://dc.lft.to/lastmile_qr_scan", "android": "https://dc.lft.to/lastmile_qr_scan"}, "is_reserved": 0, "fusion_lon": 0.0, "fusion_lat": 0.0, "lon": -77.0238315, "name": "1623bb5852df5ae9d10fbf018b85eb26"}, {"bike_id": "fd18f85c8c283dacc364336fc195f4cb", "type": "electric_scooter", "is_disabled": 0, "lat": 38.911062, "rental_uris": {"ios": "https://dc.lft.to/lastmile_qr_scan", "android": "https://dc.lft.to/lastmile_qr_scan"}, "is_reserved": 0, "fusion_lon": 0.0, "fusion_lat": 0.0, "lon": -77.011443, "name": "fd18f85c8c283dacc364336fc195f4cb"}, {"bike_id": "4bfc4fc76d2f9f2fa36fc17b72c8c5ce", "type": "electric_scooter", "is_disabled": 0, "lat": 38.90484983333333, "rental_uris": {"ios": "https://dc.lft.to/lastmile_qr_scan", "android": "https://dc.lft.to/lastmile_qr_scan"}, "is_reserved": 0, "fusion_lon": 0.0, "fusion_lat": 0.0, "lon": -77.069084, "name": "4bfc4fc76d2f9f2fa36fc17b72c8c5ce"}, {"bike_id": "08ef4f20993b71247a3156df3f1f2c33", "type": "electric_scooter", "is_disabled": 0, "lat": 38.882691, "rental_uris": {"ios": "https://dc.lft.to/lastmile_qr_scan", "android": "https://dc.lft.to/lastmile_qr_scan"}, "is_reserved": 0, "fusion_lon": 0.0, "fusion_lat": 0.0, "lon": -76.99360383333334, "name": "08ef4f20993b71247a3156df3f1f2c33"}, {"bike_id": "16365c625a9ee28f5aea3ec15a1996bc", "type": "electric_scooter", "is_disabled": 0, "lat": 38.88049566666667, "rental_uris": {"ios": "https://dc.lft.to/lastmile_qr_scan", "android": "https://dc.lft.to/lastmile_qr_scan"}, "is_reserved": 0, "fusion_lon": 0.0, "fusion_lat": 0.0, "lon": -77.00556583333334, "name": "16365c625a9ee28f5aea3ec15a1996bc"}, {"bike_id": "c0d7e3c3bb7d17e5cba2f0adff623040", "type": "electric_scooter", "is_disabled": 0, "lat": 38.930664166666666, "rental_uris": {"ios": "https://dc.lft.to/lastmile_qr_scan", "android": "https://dc.lft.to/lastmile_qr_scan"}, "is_reserved": 0, "fusion_lon": 0.0, "fusion_lat": 0.0, "lon": -77.0198455, "name": "c0d7e3c3bb7d17e5cba2f0adff623040"}, {"bike_id": "a10112144bd0e8450a7f90cfde4ef199", "type": "electric_scooter", "is_disabled": 0, "lat": 38.94201566666667, "rental_uris": {"ios": "https://dc.lft.to/lastmile_qr_scan", "android": "https://dc.lft.to/lastmile_qr_scan"}, "is_reserved": 0, "fusion_lon": 0.0, "fusion_lat": 0.0, "lon": -77.02593416666667, "name": "a10112144bd0e8450a7f90cfde4ef199"}, {"bike_id": "2ca7eacec7adb62dc31adc79a95483d4", "type": "electric_scooter", "is_disabled": 0, "lat": 38.906810166666666, "rental_uris": {"ios": "https://dc.lft.to/lastmile_qr_scan", "android": "https://dc.lft.to/lastmile_qr_scan"}, "is_reserved": 0, "fusion_lon": 0.0, "fusion_lat": 0.0, "lon": -77.02695216666666, "name": "2ca7eacec7adb62dc31adc79a95483d4"}, {"bike_id": "e06fd70a22cc46826e456b827f771394", "type": "electric_scooter", "is_disabled": 0, "lat": 38.90804933333333, "rental_uris": {"ios": "https://dc.lft.to/lastmile_qr_scan", "android": "https://dc.lft.to/lastmile_qr_scan"}, "is_reserved": 0, "fusion_lon": 0.0, "fusion_lat": 0.0, "lon": -77.034418, "name": "e06fd70a22cc46826e456b827f771394"}, {"bike_id": "228c3676f2441392a0c1df0cde224331", "type": "electric_scooter", "is_disabled": 0, "lat": 38.89913883333333, "rental_uris": {"ios": "https://dc.lft.to/lastmile_qr_scan", "android": "https://dc.lft.to/lastmile_qr_scan"}, "is_reserved": 0, "fusion_lon": 0.0, "fusion_lat": 0.0, "lon": -76.9336455, "name": "228c3676f2441392a0c1df0cde224331"}, {"bike_id": "8f0189a069dcc924b1a72870179ec3c6", "type": "electric_bike", "is_disabled": 0, "lat": 38.92376616666667, "rental_uris": {"ios": "https://dc.lft.to/lastmile_qr_scan", "android": "https://dc.lft.to/lastmile_qr_scan"}, "is_reserved": 0, "fusion_lon": 0.0, "fusion_lat": 0.0, "lon": -77.00212666666667, "name": "8f0189a069dcc924b1a72870179ec3c6"}, {"bike_id": "fb8d856185241d39f5537a178b811b3f", "type": "electric_scooter", "is_disabled": 0, "lat": 38.88278366666667, "rental_uris": {"ios": "https://dc.lft.to/lastmile_qr_scan", "android": "https://dc.lft.to/lastmile_qr_scan"}, "is_reserved": 0, "fusion_lon": 0.0, "fusion_lat": 0.0, "lon": -76.987798, "name": "fb8d856185241d39f5537a178b811b3f"}, {"bike_id": "97ac0457b7b5167cc4de652f29438d55", "type": "electric_scooter", "is_disabled": 0, "lat": 38.91675516666667, "rental_uris": {"ios": "https://dc.lft.to/lastmile_qr_scan", "android": "https://dc.lft.to/lastmile_qr_scan"}, "is_reserved": 0, "fusion_lon": 0.0, "fusion_lat": 0.0, "lon": -77.02962833333333, "name": "97ac0457b7b5167cc4de652f29438d55"}, {"bike_id": "d74e6984f6e0dacec588370bfea567bf", "type": "electric_scooter", "is_disabled": 0, "lat": 38.95853916666667, "rental_uris": {"ios": "https://dc.lft.to/lastmile_qr_scan", "android": "https://dc.lft.to/lastmile_qr_scan"}, "is_reserved": 0, "fusion_lon": 0.0, "fusion_lat": 0.0, "lon": -77.02800783333333, "name": "d74e6984f6e0dacec588370bfea567bf"}, {"bike_id": "cb6c9e1f736ee881944411fabaefd52f", "type": "electric_scooter", "is_disabled": 0, "lat": 38.90564716666667, "rental_uris": {"ios": "https://dc.lft.to/lastmile_qr_scan", "android": "https://dc.lft.to/lastmile_qr_scan"}, "is_reserved": 0, "fusion_lon": 0.0, "fusion_lat": 0.0, "lon": -77.0281905, "name": "cb6c9e1f736ee881944411fabaefd52f"}, {"bike_id": "d25b972f5a564bedb27c7ab541713a43", "type": "electric_scooter", "is_disabled": 0, "lat": 38.936098333333334, "rental_uris": {"ios": "https://dc.lft.to/lastmile_qr_scan", "android": "https://dc.lft.to/lastmile_qr_scan"}, "is_reserved": 0, "fusion_lon": 0.0, "fusion_lat": 0.0, "lon": -77.05591883333334, "name": "d25b972f5a564bedb27c7ab541713a43"}, {"bike_id": "0210cf979ea97cca0e7718f1b6587127", "type": "electric_scooter", "is_disabled": 0, "lat": 38.930871, "rental_uris": {"ios": "https://dc.lft.to/lastmile_qr_scan", "android": "https://dc.lft.to/lastmile_qr_scan"}, "is_reserved": 0, "fusion_lon": 0.0, "fusion_lat": 0.0, "lon": -77.0373545, "name": "0210cf979ea97cca0e7718f1b6587127"}, {"bike_id": "a3a9f8febb80782e443ec7daa96c75aa", "type": "electric_scooter", "is_disabled": 0, "lat": 38.94257483333333, "rental_uris": {"ios": "https://dc.lft.to/lastmile_qr_scan", "android": "https://dc.lft.to/lastmile_qr_scan"}, "is_reserved": 0, "fusion_lon": 0.0, "fusion_lat": 0.0, "lon": -77.02531183333333, "name": "a3a9f8febb80782e443ec7daa96c75aa"}, {"bike_id": "271ea74a422e0dab62bd248d3c4afb57", "type": "electric_scooter", "is_disabled": 0, "lat": 38.908006, "rental_uris": {"ios": "https://dc.lft.to/lastmile_qr_scan", "android": "https://dc.lft.to/lastmile_qr_scan"}, "is_reserved": 0, "fusion_lon": 0.0, "fusion_lat": 0.0, "lon": -77.0306035, "name": "271ea74a422e0dab62bd248d3c4afb57"}, {"bike_id": "c7b0c6f9d71b4372ab81dd7c0dde6877", "type": "electric_scooter", "is_disabled": 0, "lat": 38.92814116666667, "rental_uris": {"ios": "https://dc.lft.to/lastmile_qr_scan", "android": "https://dc.lft.to/lastmile_qr_scan"}, "is_reserved": 0, "fusion_lon": 0.0, "fusion_lat": 0.0, "lon": -77.028116, "name": "c7b0c6f9d71b4372ab81dd7c0dde6877"}, {"bike_id": "3ecd8cc08b30623dd01a338ffc5f6fb8", "type": "electric_scooter", "is_disabled": 0, "lat": 38.90821533333333, "rental_uris": {"ios": "https://dc.lft.to/lastmile_qr_scan", "android": "https://dc.lft.to/lastmile_qr_scan"}, "is_reserved": 0, "fusion_lon": 0.0, "fusion_lat": 0.0, "lon": -77.03642466666666, "name": "3ecd8cc08b30623dd01a338ffc5f6fb8"}, {"bike_id": "139d05a6524661ce66bad8348cc6ca7c", "type": "electric_scooter", "is_disabled": 0, "lat": 38.873831833333334, "rental_uris": {"ios": "https://dc.lft.to/lastmile_qr_scan", "android": "https://dc.lft.to/lastmile_qr_scan"}, "is_reserved": 0, "fusion_lon": 0.0, "fusion_lat": 0.0, "lon": -77.04338133333333, "name": "139d05a6524661ce66bad8348cc6ca7c"}, {"bike_id": "966210464966a3d7873200e030ea35f4", "type": "electric_scooter", "is_disabled": 0, "lat": 38.935132, "rental_uris": {"ios": "https://dc.lft.to/lastmile_qr_scan", "android": "https://dc.lft.to/lastmile_qr_scan"}, "is_reserved": 0, "fusion_lon": 0.0, "fusion_lat": 0.0, "lon": -77.03359933333333, "name": "966210464966a3d7873200e030ea35f4"}, {"bike_id": "dc55a0cde422d941dbeb2a6e92ec61b8", "type": "electric_scooter", "is_disabled": 0, "lat": 38.8933385, "rental_uris": {"ios": "https://dc.lft.to/lastmile_qr_scan", "android": "https://dc.lft.to/lastmile_qr_scan"}, "is_reserved": 0, "fusion_lon": 0.0, "fusion_lat": 0.0, "lon": -76.95058266666666, "name": "dc55a0cde422d941dbeb2a6e92ec61b8"}, {"bike_id": "9052e900f19d0cdd04cd3cc66de2938f", "type": "electric_scooter", "is_disabled": 0, "lat": 38.916679, "rental_uris": {"ios": "https://dc.lft.to/lastmile_qr_scan", "android": "https://dc.lft.to/lastmile_qr_scan"}, "is_reserved": 0, "fusion_lon": 0.0, "fusion_lat": 0.0, "lon": -77.046899, "name": "9052e900f19d0cdd04cd3cc66de2938f"}, {"bike_id": "ca97c93da689bf6978302dfb512b7cf5", "type": "electric_scooter", "is_disabled": 0, "lat": 38.936672333333334, "rental_uris": {"ios": "https://dc.lft.to/lastmile_qr_scan", "android": "https://dc.lft.to/lastmile_qr_scan"}, "is_reserved": 0, "fusion_lon": 0.0, "fusion_lat": 0.0, "lon": -77.0240825, "name": "ca97c93da689bf6978302dfb512b7cf5"}, {"bike_id": "f6982a2ff520cd2a6a506e005bab480a", "type": "electric_scooter", "is_disabled": 0, "lat": 38.902702, "rental_uris": {"ios": "https://dc.lft.to/lastmile_qr_scan", "android": "https://dc.lft.to/lastmile_qr_scan"}, "is_reserved": 0, "fusion_lon": 0.0, "fusion_lat": 0.0, "lon": -77.03381633333333, "name": "f6982a2ff520cd2a6a506e005bab480a"}, {"bike_id": "3cfacc40e00aba5984243136c49e25d8", "type": "electric_scooter", "is_disabled": 0, "lat": 38.914055833333336, "rental_uris": {"ios": "https://dc.lft.to/lastmile_qr_scan", "android": "https://dc.lft.to/lastmile_qr_scan"}, "is_reserved": 0, "fusion_lon": 0.0, "fusion_lat": 0.0, "lon": -77.03222966666667, "name": "3cfacc40e00aba5984243136c49e25d8"}, {"bike_id": "24c37b62184a1b57fb37f773d49d6c35", "type": "electric_scooter", "is_disabled": 0, "lat": 38.924745, "rental_uris": {"ios": "https://dc.lft.to/lastmile_qr_scan", "android": "https://dc.lft.to/lastmile_qr_scan"}, "is_reserved": 0, "fusion_lon": 0.0, "fusion_lat": 0.0, "lon": -77.05206583333333, "name": "24c37b62184a1b57fb37f773d49d6c35"}, {"bike_id": "8ce8018236d614128170fbb9817b5cd7", "type": "electric_scooter", "is_disabled": 0, "lat": 38.9008325, "rental_uris": {"ios": "https://dc.lft.to/lastmile_qr_scan", "android": "https://dc.lft.to/lastmile_qr_scan"}, "is_reserved": 0, "fusion_lon": 0.0, "fusion_lat": 0.0, "lon": -76.98334466666667, "name": "8ce8018236d614128170fbb9817b5cd7"}, {"bike_id": "c74b8bace2aa59b727e3a1c92adf63e3", "type": "electric_scooter", "is_disabled": 0, "lat": 38.909760166666665, "rental_uris": {"ios": "https://dc.lft.to/lastmile_qr_scan", "android": "https://dc.lft.to/lastmile_qr_scan"}, "is_reserved": 0, "fusion_lon": 0.0, "fusion_lat": 0.0, "lon": -77.0342995, "name": "c74b8bace2aa59b727e3a1c92adf63e3"}, {"bike_id": "07c3cfeb7a074212ea389c59c3ed157e", "type": "electric_scooter", "is_disabled": 0, "lat": 38.91920783333333, "rental_uris": {"ios": "https://dc.lft.to/lastmile_qr_scan", "android": "https://dc.lft.to/lastmile_qr_scan"}, "is_reserved": 0, "fusion_lon": 0.0, "fusion_lat": 0.0, "lon": -77.02576333333333, "name": "07c3cfeb7a074212ea389c59c3ed157e"}, {"bike_id": "d356988dfc8314f60cbf0707aedbea5d", "type": "electric_scooter", "is_disabled": 0, "lat": 38.9181625, "rental_uris": {"ios": "https://dc.lft.to/lastmile_qr_scan", "android": "https://dc.lft.to/lastmile_qr_scan"}, "is_reserved": 0, "fusion_lon": 0.0, "fusion_lat": 0.0, "lon": -77.03170633333333, "name": "d356988dfc8314f60cbf0707aedbea5d"}, {"bike_id": "810611e97d8c76161feebfd6fa9aa384", "type": "electric_scooter", "is_disabled": 0, "lat": 38.95685683333333, "rental_uris": {"ios": "https://dc.lft.to/lastmile_qr_scan", "android": "https://dc.lft.to/lastmile_qr_scan"}, "is_reserved": 0, "fusion_lon": 0.0, "fusion_lat": 0.0, "lon": -77.02394683333333, "name": "810611e97d8c76161feebfd6fa9aa384"}, {"bike_id": "e4e6fce4dfcb6dce1968d0557e5a9811", "type": "electric_scooter", "is_disabled": 0, "lat": 38.92065816666667, "rental_uris": {"ios": "https://dc.lft.to/lastmile_qr_scan", "android": "https://dc.lft.to/lastmile_qr_scan"}, "is_reserved": 0, "fusion_lon": 0.0, "fusion_lat": 0.0, "lon": -77.03462666666667, "name": "e4e6fce4dfcb6dce1968d0557e5a9811"}, {"bike_id": "a74071aa4a5d45a18bee5d766f90e808", "type": "electric_scooter", "is_disabled": 0, "lat": 38.90133616666667, "rental_uris": {"ios": "https://dc.lft.to/lastmile_qr_scan", "android": "https://dc.lft.to/lastmile_qr_scan"}, "is_reserved": 0, "fusion_lon": 0.0, "fusion_lat": 0.0, "lon": -77.036521, "name": "a74071aa4a5d45a18bee5d766f90e808"}, {"bike_id": "4fbe93a96cb61a3bdadf74ad5421b989", "type": "electric_scooter", "is_disabled": 0, "lat": 38.9109665, "rental_uris": {"ios": "https://dc.lft.to/lastmile_qr_scan", "android": "https://dc.lft.to/lastmile_qr_scan"}, "is_reserved": 0, "fusion_lon": 0.0, "fusion_lat": 0.0, "lon": -77.0297055, "name": "4fbe93a96cb61a3bdadf74ad5421b989"}, {"bike_id": "e727f2648e32e05cccf7dd887881716e", "type": "electric_scooter", "is_disabled": 0, "lat": 38.90720433333333, "rental_uris": {"ios": "https://dc.lft.to/lastmile_qr_scan", "android": "https://dc.lft.to/lastmile_qr_scan"}, "is_reserved": 0, "fusion_lon": 0.0, "fusion_lat": 0.0, "lon": -77.04652516666667, "name": "e727f2648e32e05cccf7dd887881716e"}, {"bike_id": "d97bea328d8ad13cee6093e61e70172f", "type": "electric_scooter", "is_disabled": 0, "lat": 38.92146283333334, "rental_uris": {"ios": "https://dc.lft.to/lastmile_qr_scan", "android": "https://dc.lft.to/lastmile_qr_scan"}, "is_reserved": 0, "fusion_lon": 0.0, "fusion_lat": 0.0, "lon": -77.03870666666667, "name": "d97bea328d8ad13cee6093e61e70172f"}, {"bike_id": "e35af4031ac5b9a7c07f520697fdb558", "type": "electric_scooter", "is_disabled": 0, "lat": 38.9072185, "rental_uris": {"ios": "https://dc.lft.to/lastmile_qr_scan", "android": "https://dc.lft.to/lastmile_qr_scan"}, "is_reserved": 0, "fusion_lon": 0.0, "fusion_lat": 0.0, "lon": -77.0502265, "name": "e35af4031ac5b9a7c07f520697fdb558"}, {"bike_id": "155d3022efd09d4e1b2ffc1c0ab9b3aa", "type": "electric_scooter", "is_disabled": 0, "lat": 38.92684883333333, "rental_uris": {"ios": "https://dc.lft.to/lastmile_qr_scan", "android": "https://dc.lft.to/lastmile_qr_scan"}, "is_reserved": 0, "fusion_lon": 0.0, "fusion_lat": 0.0, "lon": -77.02158783333333, "name": "155d3022efd09d4e1b2ffc1c0ab9b3aa"}, {"bike_id": "9696f3ea75d5a7e29d1b0d649319818c", "type": "electric_scooter", "is_disabled": 0, "lat": 38.872906, "rental_uris": {"ios": "https://dc.lft.to/lastmile_qr_scan", "android": "https://dc.lft.to/lastmile_qr_scan"}, "is_reserved": 0, "fusion_lon": 0.0, "fusion_lat": 0.0, "lon": -77.00983966666666, "name": "9696f3ea75d5a7e29d1b0d649319818c"}, {"bike_id": "666c50e6f9b9731c1988dbd044448f24", "type": "electric_scooter", "is_disabled": 0, "lat": 38.890079166666666, "rental_uris": {"ios": "https://dc.lft.to/lastmile_qr_scan", "android": "https://dc.lft.to/lastmile_qr_scan"}, "is_reserved": 0, "fusion_lon": 0.0, "fusion_lat": 0.0, "lon": -76.93748333333333, "name": "666c50e6f9b9731c1988dbd044448f24"}, {"bike_id": "b8ca6c4297044634f132e26f25f6e019", "type": "electric_scooter", "is_disabled": 0, "lat": 38.90723466666667, "rental_uris": {"ios": "https://dc.lft.to/lastmile_qr_scan", "android": "https://dc.lft.to/lastmile_qr_scan"}, "is_reserved": 0, "fusion_lon": 0.0, "fusion_lat": 0.0, "lon": -77.05328616666667, "name": "b8ca6c4297044634f132e26f25f6e019"}, {"bike_id": "8c8a5958af8e18db4546d0fdad4a1adb", "type": "electric_scooter", "is_disabled": 0, "lat": 38.9239865, "rental_uris": {"ios": "https://dc.lft.to/lastmile_qr_scan", "android": "https://dc.lft.to/lastmile_qr_scan"}, "is_reserved": 0, "fusion_lon": 0.0, "fusion_lat": 0.0, "lon": -77.02470216666667, "name": "8c8a5958af8e18db4546d0fdad4a1adb"}, {"bike_id": "620aec233da9ffe7bd5735b4bc850616", "type": "electric_scooter", "is_disabled": 0, "lat": 38.90718233333333, "rental_uris": {"ios": "https://dc.lft.to/lastmile_qr_scan", "android": "https://dc.lft.to/lastmile_qr_scan"}, "is_reserved": 0, "fusion_lon": 0.0, "fusion_lat": 0.0, "lon": -77.04824466666666, "name": "620aec233da9ffe7bd5735b4bc850616"}, {"bike_id": "d892c3eef02a59dc30cc3fd3bcf707fa", "type": "electric_scooter", "is_disabled": 0, "lat": 38.912705333333335, "rental_uris": {"ios": "https://dc.lft.to/lastmile_qr_scan", "android": "https://dc.lft.to/lastmile_qr_scan"}, "is_reserved": 0, "fusion_lon": 0.0, "fusion_lat": 0.0, "lon": -77.01216633333334, "name": "d892c3eef02a59dc30cc3fd3bcf707fa"}, {"bike_id": "125551ac4e48a0845fcd55298cc70c9e", "type": "electric_scooter", "is_disabled": 0, "lat": 38.92265716666667, "rental_uris": {"ios": "https://dc.lft.to/lastmile_qr_scan", "android": "https://dc.lft.to/lastmile_qr_scan"}, "is_reserved": 0, "fusion_lon": 0.0, "fusion_lat": 0.0, "lon": -77.03393533333333, "name": "125551ac4e48a0845fcd55298cc70c9e"}, {"bike_id": "9617e61f14fc0a44343457924dd2236a", "type": "electric_scooter", "is_disabled": 0, "lat": 38.900298, "rental_uris": {"ios": "https://dc.lft.to/lastmile_qr_scan", "android": "https://dc.lft.to/lastmile_qr_scan"}, "is_reserved": 0, "fusion_lon": 0.0, "fusion_lat": 0.0, "lon": -77.0351465, "name": "9617e61f14fc0a44343457924dd2236a"}, {"bike_id": "c5b5e8c6b6183f80940d8daabb1b22b7", "type": "electric_scooter", "is_disabled": 0, "lat": 38.907261, "rental_uris": {"ios": "https://dc.lft.to/lastmile_qr_scan", "android": "https://dc.lft.to/lastmile_qr_scan"}, "is_reserved": 0, "fusion_lon": 0.0, "fusion_lat": 0.0, "lon": -77.03434316666667, "name": "c5b5e8c6b6183f80940d8daabb1b22b7"}, {"bike_id": "4c56e10d03c80991f99c5cffd063d092", "type": "electric_scooter", "is_disabled": 0, "lat": 38.917783666666665, "rental_uris": {"ios": "https://dc.lft.to/lastmile_qr_scan", "android": "https://dc.lft.to/lastmile_qr_scan"}, "is_reserved": 0, "fusion_lon": 0.0, "fusion_lat": 0.0, "lon": -77.0241665, "name": "4c56e10d03c80991f99c5cffd063d092"}, {"bike_id": "4c568f4af49f8dc336802f34efc4ccd3", "type": "electric_scooter", "is_disabled": 0, "lat": 38.921435833333334, "rental_uris": {"ios": "https://dc.lft.to/lastmile_qr_scan", "android": "https://dc.lft.to/lastmile_qr_scan"}, "is_reserved": 0, "fusion_lon": 0.0, "fusion_lat": 0.0, "lon": -77.03868166666666, "name": "4c568f4af49f8dc336802f34efc4ccd3"}, {"bike_id": "0163b8f22fb65b160c9a52eca21f4207", "type": "electric_scooter", "is_disabled": 0, "lat": 38.910256, "rental_uris": {"ios": "https://dc.lft.to/lastmile_qr_scan", "android": "https://dc.lft.to/lastmile_qr_scan"}, "is_reserved": 0, "fusion_lon": 0.0, "fusion_lat": 0.0, "lon": -77.02815616666666, "name": "0163b8f22fb65b160c9a52eca21f4207"}, {"bike_id": "ef59f3750635ed966edce1144b82f0f7", "type": "electric_scooter", "is_disabled": 0, "lat": 38.918035, "rental_uris": {"ios": "https://dc.lft.to/lastmile_qr_scan", "android": "https://dc.lft.to/lastmile_qr_scan"}, "is_reserved": 0, "fusion_lon": 0.0, "fusion_lat": 0.0, "lon": -77.034323, "name": "ef59f3750635ed966edce1144b82f0f7"}, {"bike_id": "f27bb2f6f5f4bfd5bc9d817443cd57b9", "type": "electric_scooter", "is_disabled": 0, "lat": 38.89221383333334, "rental_uris": {"ios": "https://dc.lft.to/lastmile_qr_scan", "android": "https://dc.lft.to/lastmile_qr_scan"}, "is_reserved": 0, "fusion_lon": 0.0, "fusion_lat": 0.0, "lon": -77.03977966666666, "name": "f27bb2f6f5f4bfd5bc9d817443cd57b9"}, {"bike_id": "0537fa954f92006e2e2922a49d84e446", "type": "electric_scooter", "is_disabled": 0, "lat": 38.9181685, "rental_uris": {"ios": "https://dc.lft.to/lastmile_qr_scan", "android": "https://dc.lft.to/lastmile_qr_scan"}, "is_reserved": 0, "fusion_lon": 0.0, "fusion_lat": 0.0, "lon": -77.01462566666666, "name": "0537fa954f92006e2e2922a49d84e446"}, {"bike_id": "25889d10639eb8f797e0a621f28dad23", "type": "electric_scooter", "is_disabled": 0, "lat": 38.898241, "rental_uris": {"ios": "https://dc.lft.to/lastmile_qr_scan", "android": "https://dc.lft.to/lastmile_qr_scan"}, "is_reserved": 0, "fusion_lon": 0.0, "fusion_lat": 0.0, "lon": -77.04559, "name": "25889d10639eb8f797e0a621f28dad23"}, {"bike_id": "898c400f18dcec7d34cfd959bfbe7300", "type": "electric_scooter", "is_disabled": 0, "lat": 38.90261316666667, "rental_uris": {"ios": "https://dc.lft.to/lastmile_qr_scan", "android": "https://dc.lft.to/lastmile_qr_scan"}, "is_reserved": 0, "fusion_lon": 0.0, "fusion_lat": 0.0, "lon": -77.02646283333333, "name": "898c400f18dcec7d34cfd959bfbe7300"}, {"bike_id": "a9f6063f01352147006c6525a3aa470c", "type": "electric_scooter", "is_disabled": 0, "lat": 38.9234035, "rental_uris": {"ios": "https://dc.lft.to/lastmile_qr_scan", "android": "https://dc.lft.to/lastmile_qr_scan"}, "is_reserved": 0, "fusion_lon": 0.0, "fusion_lat": 0.0, "lon": -77.05097533333333, "name": "a9f6063f01352147006c6525a3aa470c"}, {"bike_id": "d04b137a1895b929c65d59b4e6df2b86", "type": "electric_scooter", "is_disabled": 0, "lat": 38.8671215, "rental_uris": {"ios": "https://dc.lft.to/lastmile_qr_scan", "android": "https://dc.lft.to/lastmile_qr_scan"}, "is_reserved": 0, "fusion_lon": 0.0, "fusion_lat": 0.0, "lon": -77.01011016666666, "name": "d04b137a1895b929c65d59b4e6df2b86"}, {"bike_id": "1078ffdf2789ba8e86f6d2f18a397ce1", "type": "electric_scooter", "is_disabled": 0, "lat": 38.9100485, "rental_uris": {"ios": "https://dc.lft.to/lastmile_qr_scan", "android": "https://dc.lft.to/lastmile_qr_scan"}, "is_reserved": 0, "fusion_lon": 0.0, "fusion_lat": 0.0, "lon": -77.04009116666667, "name": "1078ffdf2789ba8e86f6d2f18a397ce1"}, {"bike_id": "2a51b9108a5109ab52d0823f93b80328", "type": "electric_scooter", "is_disabled": 0, "lat": 38.931902666666666, "rental_uris": {"ios": "https://dc.lft.to/lastmile_qr_scan", "android": "https://dc.lft.to/lastmile_qr_scan"}, "is_reserved": 0, "fusion_lon": 0.0, "fusion_lat": 0.0, "lon": -77.020208, "name": "2a51b9108a5109ab52d0823f93b80328"}, {"bike_id": "de8b81d5b065c56bcc24601edcd2810d", "type": "electric_scooter", "is_disabled": 0, "lat": 38.916353, "rental_uris": {"ios": "https://dc.lft.to/lastmile_qr_scan", "android": "https://dc.lft.to/lastmile_qr_scan"}, "is_reserved": 0, "fusion_lon": 0.0, "fusion_lat": 0.0, "lon": -77.0396565, "name": "de8b81d5b065c56bcc24601edcd2810d"}, {"bike_id": "cd9f6848bebe38bf032e78a9d9a66705", "type": "electric_scooter", "is_disabled": 0, "lat": 38.901406333333334, "rental_uris": {"ios": "https://dc.lft.to/lastmile_qr_scan", "android": "https://dc.lft.to/lastmile_qr_scan"}, "is_reserved": 0, "fusion_lon": 0.0, "fusion_lat": 0.0, "lon": -77.016114, "name": "cd9f6848bebe38bf032e78a9d9a66705"}, {"bike_id": "19a605bb90e2e4b95df8f620f3f8e507", "type": "electric_scooter", "is_disabled": 0, "lat": 38.922731666666664, "rental_uris": {"ios": "https://dc.lft.to/lastmile_qr_scan", "android": "https://dc.lft.to/lastmile_qr_scan"}, "is_reserved": 0, "fusion_lon": 0.0, "fusion_lat": 0.0, "lon": -76.99446516666667, "name": "19a605bb90e2e4b95df8f620f3f8e507"}, {"bike_id": "a04d72ae97fa4b9b1fc153b603450386", "type": "electric_bike", "is_disabled": 0, "lat": 38.95329383333333, "rental_uris": {"ios": "https://dc.lft.to/lastmile_qr_scan", "android": "https://dc.lft.to/lastmile_qr_scan"}, "is_reserved": 0, "fusion_lon": 0.0, "fusion_lat": 0.0, "lon": -76.98242933333333, "name": "a04d72ae97fa4b9b1fc153b603450386"}, {"bike_id": "c711d0b0dd569a8797492fc46fd70b71", "type": "electric_bike", "is_disabled": 0, "lat": 38.81163183333334, "rental_uris": {"ios": "https://dc.lft.to/lastmile_qr_scan", "android": "https://dc.lft.to/lastmile_qr_scan"}, "is_reserved": 0, "fusion_lon": 0.0, "fusion_lat": 0.0, "lon": -77.0695835, "name": "c711d0b0dd569a8797492fc46fd70b71"}, {"bike_id": "a37f8d26ce85019ca6483c0564601250", "type": "electric_scooter", "is_disabled": 0, "lat": 38.9225325, "rental_uris": {"ios": "https://dc.lft.to/lastmile_qr_scan", "android": "https://dc.lft.to/lastmile_qr_scan"}, "is_reserved": 0, "fusion_lon": 0.0, "fusion_lat": 0.0, "lon": -77.03898166666667, "name": "a37f8d26ce85019ca6483c0564601250"}, {"bike_id": "eddcad8701bfe92ebfb31a91cb3601bb", "type": "electric_scooter", "is_disabled": 0, "lat": 38.919722666666665, "rental_uris": {"ios": "https://dc.lft.to/lastmile_qr_scan", "android": "https://dc.lft.to/lastmile_qr_scan"}, "is_reserved": 0, "fusion_lon": 0.0, "fusion_lat": 0.0, "lon": -77.04217216666666, "name": "eddcad8701bfe92ebfb31a91cb3601bb"}, {"bike_id": "b1a305c4999663e4a2079f31a9c029cd", "type": "electric_scooter", "is_disabled": 0, "lat": 38.92646933333333, "rental_uris": {"ios": "https://dc.lft.to/lastmile_qr_scan", "android": "https://dc.lft.to/lastmile_qr_scan"}, "is_reserved": 0, "fusion_lon": 0.0, "fusion_lat": 0.0, "lon": -77.02447016666666, "name": "b1a305c4999663e4a2079f31a9c029cd"}, {"bike_id": "df625aa5f692511b367112ad0fb5eba9", "type": "electric_scooter", "is_disabled": 0, "lat": 38.9055075, "rental_uris": {"ios": "https://dc.lft.to/lastmile_qr_scan", "android": "https://dc.lft.to/lastmile_qr_scan"}, "is_reserved": 0, "fusion_lon": 0.0, "fusion_lat": 0.0, "lon": -76.996211, "name": "df625aa5f692511b367112ad0fb5eba9"}, {"bike_id": "d32f610a08ee64184dedfc08619115c4", "type": "electric_scooter", "is_disabled": 0, "lat": 38.92485766666667, "rental_uris": {"ios": "https://dc.lft.to/lastmile_qr_scan", "android": "https://dc.lft.to/lastmile_qr_scan"}, "is_reserved": 0, "fusion_lon": 0.0, "fusion_lat": 0.0, "lon": -77.05213166666667, "name": "d32f610a08ee64184dedfc08619115c4"}, {"bike_id": "842a76c73ef6caaa7f3301602a5b6225", "type": "electric_scooter", "is_disabled": 0, "lat": 38.902765, "rental_uris": {"ios": "https://dc.lft.to/lastmile_qr_scan", "android": "https://dc.lft.to/lastmile_qr_scan"}, "is_reserved": 0, "fusion_lon": 0.0, "fusion_lat": 0.0, "lon": -77.02274133333333, "name": "842a76c73ef6caaa7f3301602a5b6225"}, {"bike_id": "a6b0cb19f37c70ded294b12fc31ebaa7", "type": "electric_bike", "is_disabled": 0, "lat": 38.90645583333333, "rental_uris": {"ios": "https://dc.lft.to/lastmile_qr_scan", "android": "https://dc.lft.to/lastmile_qr_scan"}, "is_reserved": 0, "fusion_lon": 0.0, "fusion_lat": 0.0, "lon": -77.05121433333333, "name": "a6b0cb19f37c70ded294b12fc31ebaa7"}, {"bike_id": "69ebedd2840b7c01a70038e9336fba44", "type": "electric_scooter", "is_disabled": 0, "lat": 38.884243833333336, "rental_uris": {"ios": "https://dc.lft.to/lastmile_qr_scan", "android": "https://dc.lft.to/lastmile_qr_scan"}, "is_reserved": 0, "fusion_lon": 0.0, "fusion_lat": 0.0, "lon": -76.95756233333333, "name": "69ebedd2840b7c01a70038e9336fba44"}, {"bike_id": "c571699d9b68271271125b96c67ab1d0", "type": "electric_scooter", "is_disabled": 0, "lat": 38.90572483333333, "rental_uris": {"ios": "https://dc.lft.to/lastmile_qr_scan", "android": "https://dc.lft.to/lastmile_qr_scan"}, "is_reserved": 0, "fusion_lon": 0.0, "fusion_lat": 0.0, "lon": -77.0058895, "name": "c571699d9b68271271125b96c67ab1d0"}, {"bike_id": "00a917107916961762ea85fdb267f005", "type": "electric_bike", "is_disabled": 0, "lat": 38.80412416666667, "rental_uris": {"ios": "https://dc.lft.to/lastmile_qr_scan", "android": "https://dc.lft.to/lastmile_qr_scan"}, "is_reserved": 0, "fusion_lon": 0.0, "fusion_lat": 0.0, "lon": -77.05553383333333, "name": "00a917107916961762ea85fdb267f005"}, {"bike_id": "d558edd98a6f9efec88c92d6001c90b0", "type": "electric_bike", "is_disabled": 0, "lat": 38.89995616666667, "rental_uris": {"ios": "https://dc.lft.to/lastmile_qr_scan", "android": "https://dc.lft.to/lastmile_qr_scan"}, "is_reserved": 0, "fusion_lon": 0.0, "fusion_lat": 0.0, "lon": -77.07551, "name": "d558edd98a6f9efec88c92d6001c90b0"}, {"bike_id": "06b23da0c951dbf3ce3c2c1970d590f5", "type": "electric_scooter", "is_disabled": 0, "lat": 38.917852833333335, "rental_uris": {"ios": "https://dc.lft.to/lastmile_qr_scan", "android": "https://dc.lft.to/lastmile_qr_scan"}, "is_reserved": 0, "fusion_lon": 0.0, "fusion_lat": 0.0, "lon": -77.03640283333333, "name": "06b23da0c951dbf3ce3c2c1970d590f5"}, {"bike_id": "f15340e78d232477bc87c2d1e40b8bfa", "type": "electric_scooter", "is_disabled": 0, "lat": 38.889990833333336, "rental_uris": {"ios": "https://dc.lft.to/lastmile_qr_scan", "android": "https://dc.lft.to/lastmile_qr_scan"}, "is_reserved": 0, "fusion_lon": 0.0, "fusion_lat": 0.0, "lon": -77.04901316666667, "name": "f15340e78d232477bc87c2d1e40b8bfa"}, {"bike_id": "44eec0f3d83b7e9693e84700db59c9b1", "type": "electric_scooter", "is_disabled": 0, "lat": 38.94899766666666, "rental_uris": {"ios": "https://dc.lft.to/lastmile_qr_scan", "android": "https://dc.lft.to/lastmile_qr_scan"}, "is_reserved": 0, "fusion_lon": 0.0, "fusion_lat": 0.0, "lon": -77.02074416666666, "name": "44eec0f3d83b7e9693e84700db59c9b1"}, {"bike_id": "3c58ff5191da3e14d3466012c5fef082", "type": "electric_scooter", "is_disabled": 0, "lat": 38.9223585, "rental_uris": {"ios": "https://dc.lft.to/lastmile_qr_scan", "android": "https://dc.lft.to/lastmile_qr_scan"}, "is_reserved": 0, "fusion_lon": 0.0, "fusion_lat": 0.0, "lon": -77.03521666666667, "name": "3c58ff5191da3e14d3466012c5fef082"}, {"bike_id": "bdb11505a903d802b3ced0c94798154f", "type": "electric_scooter", "is_disabled": 0, "lat": 38.91560583333333, "rental_uris": {"ios": "https://dc.lft.to/lastmile_qr_scan", "android": "https://dc.lft.to/lastmile_qr_scan"}, "is_reserved": 0, "fusion_lon": 0.0, "fusion_lat": 0.0, "lon": -77.0264055, "name": "bdb11505a903d802b3ced0c94798154f"}, {"bike_id": "e72708566dc6007f77bfb7788a086e21", "type": "electric_scooter", "is_disabled": 0, "lat": 38.84437533333333, "rental_uris": {"ios": "https://dc.lft.to/lastmile_qr_scan", "android": "https://dc.lft.to/lastmile_qr_scan"}, "is_reserved": 0, "fusion_lon": 0.0, "fusion_lat": 0.0, "lon": -76.9987235, "name": "e72708566dc6007f77bfb7788a086e21"}, {"bike_id": "8f15118b6f4b232f1b14cb2ac4730be7", "type": "electric_scooter", "is_disabled": 0, "lat": 38.912600166666664, "rental_uris": {"ios": "https://dc.lft.to/lastmile_qr_scan", "android": "https://dc.lft.to/lastmile_qr_scan"}, "is_reserved": 0, "fusion_lon": 0.0, "fusion_lat": 0.0, "lon": -77.030186, "name": "8f15118b6f4b232f1b14cb2ac4730be7"}, {"bike_id": "d185f997a6be641d29d00c4a6e459e3a", "type": "electric_scooter", "is_disabled": 0, "lat": 38.9376895, "rental_uris": {"ios": "https://dc.lft.to/lastmile_qr_scan", "android": "https://dc.lft.to/lastmile_qr_scan"}, "is_reserved": 0, "fusion_lon": 0.0, "fusion_lat": 0.0, "lon": -77.01972583333334, "name": "d185f997a6be641d29d00c4a6e459e3a"}, {"bike_id": "dd3abec10c8da0b8890efa3e83462b75", "type": "electric_scooter", "is_disabled": 0, "lat": 38.899881, "rental_uris": {"ios": "https://dc.lft.to/lastmile_qr_scan", "android": "https://dc.lft.to/lastmile_qr_scan"}, "is_reserved": 0, "fusion_lon": 0.0, "fusion_lat": 0.0, "lon": -76.94997866666667, "name": "dd3abec10c8da0b8890efa3e83462b75"}, {"bike_id": "98725eedfc41d2ddf8b8c11832d6f2ad", "type": "electric_scooter", "is_disabled": 0, "lat": 38.91390583333333, "rental_uris": {"ios": "https://dc.lft.to/lastmile_qr_scan", "android": "https://dc.lft.to/lastmile_qr_scan"}, "is_reserved": 0, "fusion_lon": 0.0, "fusion_lat": 0.0, "lon": -77.03933, "name": "98725eedfc41d2ddf8b8c11832d6f2ad"}, {"bike_id": "a6eea71076a0f3f257b2a5337c67033b", "type": "electric_scooter", "is_disabled": 0, "lat": 38.92410016666667, "rental_uris": {"ios": "https://dc.lft.to/lastmile_qr_scan", "android": "https://dc.lft.to/lastmile_qr_scan"}, "is_reserved": 0, "fusion_lon": 0.0, "fusion_lat": 0.0, "lon": -77.02033783333333, "name": "a6eea71076a0f3f257b2a5337c67033b"}, {"bike_id": "d96168c223ca1f1b5c2a532fb6d15e31", "type": "electric_bike", "is_disabled": 0, "lat": 38.8636515, "rental_uris": {"ios": "https://dc.lft.to/lastmile_qr_scan", "android": "https://dc.lft.to/lastmile_qr_scan"}, "is_reserved": 0, "fusion_lon": 0.0, "fusion_lat": 0.0, "lon": -76.9701055, "name": "d96168c223ca1f1b5c2a532fb6d15e31"}, {"bike_id": "e468e1cc70afb0b64f093d779ed466be", "type": "electric_scooter", "is_disabled": 0, "lat": 38.92181, "rental_uris": {"ios": "https://dc.lft.to/lastmile_qr_scan", "android": "https://dc.lft.to/lastmile_qr_scan"}, "is_reserved": 0, "fusion_lon": 0.0, "fusion_lat": 0.0, "lon": -76.99794916666667, "name": "e468e1cc70afb0b64f093d779ed466be"}, {"bike_id": "255b1739ce5338ddb071e818cf29d28d", "type": "electric_bike", "is_disabled": 0, "lat": 38.85764666666667, "rental_uris": {"ios": "https://dc.lft.to/lastmile_qr_scan", "android": "https://dc.lft.to/lastmile_qr_scan"}, "is_reserved": 0, "fusion_lon": 0.0, "fusion_lat": 0.0, "lon": -76.987635, "name": "255b1739ce5338ddb071e818cf29d28d"}, {"bike_id": "14b6335e84f71adb0c41cf9bbe835365", "type": "electric_scooter", "is_disabled": 0, "lat": 38.90956033333333, "rental_uris": {"ios": "https://dc.lft.to/lastmile_qr_scan", "android": "https://dc.lft.to/lastmile_qr_scan"}, "is_reserved": 0, "fusion_lon": 0.0, "fusion_lat": 0.0, "lon": -77.0143155, "name": "14b6335e84f71adb0c41cf9bbe835365"}, {"bike_id": "e5325778b98f7b0385620c9d0f27ec78", "type": "electric_scooter", "is_disabled": 0, "lat": 38.858942, "rental_uris": {"ios": "https://dc.lft.to/lastmile_qr_scan", "android": "https://dc.lft.to/lastmile_qr_scan"}, "is_reserved": 0, "fusion_lon": 0.0, "fusion_lat": 0.0, "lon": -76.99731766666666, "name": "e5325778b98f7b0385620c9d0f27ec78"}, {"bike_id": "b57e1178784d34cb4f15d16bc521548f", "type": "electric_scooter", "is_disabled": 0, "lat": 38.878136, "rental_uris": {"ios": "https://dc.lft.to/lastmile_qr_scan", "android": "https://dc.lft.to/lastmile_qr_scan"}, "is_reserved": 0, "fusion_lon": 0.0, "fusion_lat": 0.0, "lon": -76.971716, "name": "b57e1178784d34cb4f15d16bc521548f"}, {"bike_id": "c719c9d94c5aadbebce0c063a69f60a3", "type": "electric_scooter", "is_disabled": 0, "lat": 38.8814845, "rental_uris": {"ios": "https://dc.lft.to/lastmile_qr_scan", "android": "https://dc.lft.to/lastmile_qr_scan"}, "is_reserved": 0, "fusion_lon": 0.0, "fusion_lat": 0.0, "lon": -77.02739916666667, "name": "c719c9d94c5aadbebce0c063a69f60a3"}, {"bike_id": "fd429c753ea1b62d4b4a825033e9daaf", "type": "electric_scooter", "is_disabled": 0, "lat": 38.90783866666666, "rental_uris": {"ios": "https://dc.lft.to/lastmile_qr_scan", "android": "https://dc.lft.to/lastmile_qr_scan"}, "is_reserved": 0, "fusion_lon": 0.0, "fusion_lat": 0.0, "lon": -77.01083983333334, "name": "fd429c753ea1b62d4b4a825033e9daaf"}, {"bike_id": "2c0c9f4dc2dfbf144c00aa8de5cd9811", "type": "electric_scooter", "is_disabled": 0, "lat": 38.95533783333333, "rental_uris": {"ios": "https://dc.lft.to/lastmile_qr_scan", "android": "https://dc.lft.to/lastmile_qr_scan"}, "is_reserved": 0, "fusion_lon": 0.0, "fusion_lat": 0.0, "lon": -77.02779766666667, "name": "2c0c9f4dc2dfbf144c00aa8de5cd9811"}, {"bike_id": "1fc3edc2c85b99654eb1f9cc8539e6dd", "type": "electric_scooter", "is_disabled": 0, "lat": 38.9655375, "rental_uris": {"ios": "https://dc.lft.to/lastmile_qr_scan", "android": "https://dc.lft.to/lastmile_qr_scan"}, "is_reserved": 0, "fusion_lon": 0.0, "fusion_lat": 0.0, "lon": -77.03627, "name": "1fc3edc2c85b99654eb1f9cc8539e6dd"}, {"bike_id": "f198a638964c533057dffca1357a54f3", "type": "electric_scooter", "is_disabled": 0, "lat": 38.916587166666666, "rental_uris": {"ios": "https://dc.lft.to/lastmile_qr_scan", "android": "https://dc.lft.to/lastmile_qr_scan"}, "is_reserved": 0, "fusion_lon": 0.0, "fusion_lat": 0.0, "lon": -77.02394516666666, "name": "f198a638964c533057dffca1357a54f3"}, {"bike_id": "1a375050810cf1526b210dbfb68fad9a", "type": "electric_scooter", "is_disabled": 0, "lat": 38.902132333333334, "rental_uris": {"ios": "https://dc.lft.to/lastmile_qr_scan", "android": "https://dc.lft.to/lastmile_qr_scan"}, "is_reserved": 0, "fusion_lon": 0.0, "fusion_lat": 0.0, "lon": -77.04104483333333, "name": "1a375050810cf1526b210dbfb68fad9a"}, {"bike_id": "5a336b9333aaef4b99223de0eb4697a0", "type": "electric_scooter", "is_disabled": 0, "lat": 38.87656116666667, "rental_uris": {"ios": "https://dc.lft.to/lastmile_qr_scan", "android": "https://dc.lft.to/lastmile_qr_scan"}, "is_reserved": 0, "fusion_lon": 0.0, "fusion_lat": 0.0, "lon": -77.00428966666666, "name": "5a336b9333aaef4b99223de0eb4697a0"}, {"bike_id": "b7a06f66d9617b858c8d83ed7042f7c0", "type": "electric_scooter", "is_disabled": 0, "lat": 38.920487333333334, "rental_uris": {"ios": "https://dc.lft.to/lastmile_qr_scan", "android": "https://dc.lft.to/lastmile_qr_scan"}, "is_reserved": 0, "fusion_lon": 0.0, "fusion_lat": 0.0, "lon": -77.02428283333333, "name": "b7a06f66d9617b858c8d83ed7042f7c0"}, {"bike_id": "dd422a5d5fbda60e659c5c6c19b2c7c8", "type": "electric_scooter", "is_disabled": 0, "lat": 38.911178666666665, "rental_uris": {"ios": "https://dc.lft.to/lastmile_qr_scan", "android": "https://dc.lft.to/lastmile_qr_scan"}, "is_reserved": 0, "fusion_lon": 0.0, "fusion_lat": 0.0, "lon": -77.0446435, "name": "dd422a5d5fbda60e659c5c6c19b2c7c8"}, {"bike_id": "ab79feea582751237d969c21df9ff1d3", "type": "electric_scooter", "is_disabled": 0, "lat": 38.90011916666667, "rental_uris": {"ios": "https://dc.lft.to/lastmile_qr_scan", "android": "https://dc.lft.to/lastmile_qr_scan"}, "is_reserved": 0, "fusion_lon": 0.0, "fusion_lat": 0.0, "lon": -76.98537733333333, "name": "ab79feea582751237d969c21df9ff1d3"}, {"bike_id": "e7b2c6a4857b9cffc4eadd4c98e1fdb5", "type": "electric_scooter", "is_disabled": 0, "lat": 38.907103, "rental_uris": {"ios": "https://dc.lft.to/lastmile_qr_scan", "android": "https://dc.lft.to/lastmile_qr_scan"}, "is_reserved": 0, "fusion_lon": 0.0, "fusion_lat": 0.0, "lon": -77.02389116666667, "name": "e7b2c6a4857b9cffc4eadd4c98e1fdb5"}, {"bike_id": "43bffb010e312ac6f9b97ceae9ed02df", "type": "electric_scooter", "is_disabled": 0, "lat": 38.93394383333333, "rental_uris": {"ios": "https://dc.lft.to/lastmile_qr_scan", "android": "https://dc.lft.to/lastmile_qr_scan"}, "is_reserved": 0, "fusion_lon": 0.0, "fusion_lat": 0.0, "lon": -77.022237, "name": "43bffb010e312ac6f9b97ceae9ed02df"}, {"bike_id": "45460cdb3201b4416da1bdfa38cd767a", "type": "electric_scooter", "is_disabled": 0, "lat": 38.916622, "rental_uris": {"ios": "https://dc.lft.to/lastmile_qr_scan", "android": "https://dc.lft.to/lastmile_qr_scan"}, "is_reserved": 0, "fusion_lon": 0.0, "fusion_lat": 0.0, "lon": -77.02390433333333, "name": "45460cdb3201b4416da1bdfa38cd767a"}, {"bike_id": "876ac55d516a7b4d77a94529b42b2d0e", "type": "electric_scooter", "is_disabled": 0, "lat": 38.91240783333333, "rental_uris": {"ios": "https://dc.lft.to/lastmile_qr_scan", "android": "https://dc.lft.to/lastmile_qr_scan"}, "is_reserved": 0, "fusion_lon": 0.0, "fusion_lat": 0.0, "lon": -77.022218, "name": "876ac55d516a7b4d77a94529b42b2d0e"}, {"bike_id": "5d0674c754cdf24a86e314a934c71294", "type": "electric_scooter", "is_disabled": 0, "lat": 38.94289333333333, "rental_uris": {"ios": "https://dc.lft.to/lastmile_qr_scan", "android": "https://dc.lft.to/lastmile_qr_scan"}, "is_reserved": 0, "fusion_lon": 0.0, "fusion_lat": 0.0, "lon": -77.02175116666666, "name": "5d0674c754cdf24a86e314a934c71294"}, {"bike_id": "fe13b78b4767f3f26690e96812a39954", "type": "electric_scooter", "is_disabled": 0, "lat": 38.921177166666666, "rental_uris": {"ios": "https://dc.lft.to/lastmile_qr_scan", "android": "https://dc.lft.to/lastmile_qr_scan"}, "is_reserved": 0, "fusion_lon": 0.0, "fusion_lat": 0.0, "lon": -77.04377816666667, "name": "fe13b78b4767f3f26690e96812a39954"}, {"bike_id": "f288231634af78b3ef0eab1c9a3de91b", "type": "electric_bike", "is_disabled": 0, "lat": 38.94865733333334, "rental_uris": {"ios": "https://dc.lft.to/lastmile_qr_scan", "android": "https://dc.lft.to/lastmile_qr_scan"}, "is_reserved": 0, "fusion_lon": 0.0, "fusion_lat": 0.0, "lon": -77.02200433333333, "name": "f288231634af78b3ef0eab1c9a3de91b"}, {"bike_id": "f2ae1db2197f7acb9ec4834f650c5035", "type": "electric_scooter", "is_disabled": 0, "lat": 38.904875, "rental_uris": {"ios": "https://dc.lft.to/lastmile_qr_scan", "android": "https://dc.lft.to/lastmile_qr_scan"}, "is_reserved": 0, "fusion_lon": 0.0, "fusion_lat": 0.0, "lon": -77.02609933333333, "name": "f2ae1db2197f7acb9ec4834f650c5035"}, {"bike_id": "0d2b6315a51c5d16aa73b1f8e9572820", "type": "electric_scooter", "is_disabled": 0, "lat": 38.93749966666667, "rental_uris": {"ios": "https://dc.lft.to/lastmile_qr_scan", "android": "https://dc.lft.to/lastmile_qr_scan"}, "is_reserved": 0, "fusion_lon": 0.0, "fusion_lat": 0.0, "lon": -77.03581033333333, "name": "0d2b6315a51c5d16aa73b1f8e9572820"}, {"bike_id": "9ec80e30ed6ec0398cee358fe1c106ed", "type": "electric_scooter", "is_disabled": 0, "lat": 38.90971116666667, "rental_uris": {"ios": "https://dc.lft.to/lastmile_qr_scan", "android": "https://dc.lft.to/lastmile_qr_scan"}, "is_reserved": 0, "fusion_lon": 0.0, "fusion_lat": 0.0, "lon": -77.03627566666667, "name": "9ec80e30ed6ec0398cee358fe1c106ed"}, {"bike_id": "9471989e17fb428c13b9726c9b9f8484", "type": "electric_scooter", "is_disabled": 0, "lat": 38.894966, "rental_uris": {"ios": "https://dc.lft.to/lastmile_qr_scan", "android": "https://dc.lft.to/lastmile_qr_scan"}, "is_reserved": 0, "fusion_lon": 0.0, "fusion_lat": 0.0, "lon": -77.01094683333334, "name": "9471989e17fb428c13b9726c9b9f8484"}, {"bike_id": "90dfa2720b9f7152a1c4d803ab000e1c", "type": "electric_scooter", "is_disabled": 0, "lat": 38.90559566666667, "rental_uris": {"ios": "https://dc.lft.to/lastmile_qr_scan", "android": "https://dc.lft.to/lastmile_qr_scan"}, "is_reserved": 0, "fusion_lon": 0.0, "fusion_lat": 0.0, "lon": -77.00579166666667, "name": "90dfa2720b9f7152a1c4d803ab000e1c"}, {"bike_id": "9c4f225ef9c0cdabdabcdb9407244a8f", "type": "electric_scooter", "is_disabled": 0, "lat": 38.925806, "rental_uris": {"ios": "https://dc.lft.to/lastmile_qr_scan", "android": "https://dc.lft.to/lastmile_qr_scan"}, "is_reserved": 0, "fusion_lon": 0.0, "fusion_lat": 0.0, "lon": -77.0302545, "name": "9c4f225ef9c0cdabdabcdb9407244a8f"}, {"bike_id": "3563678c231326cc04d526fcec9db890", "type": "electric_scooter", "is_disabled": 0, "lat": 38.940679333333335, "rental_uris": {"ios": "https://dc.lft.to/lastmile_qr_scan", "android": "https://dc.lft.to/lastmile_qr_scan"}, "is_reserved": 0, "fusion_lon": 0.0, "fusion_lat": 0.0, "lon": -77.061143, "name": "3563678c231326cc04d526fcec9db890"}, {"bike_id": "7eb148234552e37957059fff7136ff53", "type": "electric_scooter", "is_disabled": 0, "lat": 38.901711666666664, "rental_uris": {"ios": "https://dc.lft.to/lastmile_qr_scan", "android": "https://dc.lft.to/lastmile_qr_scan"}, "is_reserved": 0, "fusion_lon": 0.0, "fusion_lat": 0.0, "lon": -77.03886933333334, "name": "7eb148234552e37957059fff7136ff53"}, {"bike_id": "a4dca0c9e5d53467cffc810ee556db57", "type": "electric_scooter", "is_disabled": 0, "lat": 38.916379, "rental_uris": {"ios": "https://dc.lft.to/lastmile_qr_scan", "android": "https://dc.lft.to/lastmile_qr_scan"}, "is_reserved": 0, "fusion_lon": 0.0, "fusion_lat": 0.0, "lon": -77.0255135, "name": "a4dca0c9e5d53467cffc810ee556db57"}, {"bike_id": "d80f96bc2280d5ef9122995e8a33cd79", "type": "electric_scooter", "is_disabled": 0, "lat": 38.9235935, "rental_uris": {"ios": "https://dc.lft.to/lastmile_qr_scan", "android": "https://dc.lft.to/lastmile_qr_scan"}, "is_reserved": 0, "fusion_lon": 0.0, "fusion_lat": 0.0, "lon": -77.039074, "name": "d80f96bc2280d5ef9122995e8a33cd79"}, {"bike_id": "cbdff0a5973dc5fe981ef0d85d3ec069", "type": "electric_scooter", "is_disabled": 0, "lat": 38.96437816666667, "rental_uris": {"ios": "https://dc.lft.to/lastmile_qr_scan", "android": "https://dc.lft.to/lastmile_qr_scan"}, "is_reserved": 0, "fusion_lon": 0.0, "fusion_lat": 0.0, "lon": -77.02064966666667, "name": "cbdff0a5973dc5fe981ef0d85d3ec069"}, {"bike_id": "75d66af00c84a63b7f9085080d7f9bde", "type": "electric_scooter", "is_disabled": 0, "lat": 38.95215616666667, "rental_uris": {"ios": "https://dc.lft.to/lastmile_qr_scan", "android": "https://dc.lft.to/lastmile_qr_scan"}, "is_reserved": 0, "fusion_lon": 0.0, "fusion_lat": 0.0, "lon": -77.07072233333334, "name": "75d66af00c84a63b7f9085080d7f9bde"}, {"bike_id": "71fe008b5bd031aefe11d530666790aa", "type": "electric_scooter", "is_disabled": 0, "lat": 38.890088666666664, "rental_uris": {"ios": "https://dc.lft.to/lastmile_qr_scan", "android": "https://dc.lft.to/lastmile_qr_scan"}, "is_reserved": 0, "fusion_lon": 0.0, "fusion_lat": 0.0, "lon": -76.93750933333334, "name": "71fe008b5bd031aefe11d530666790aa"}, {"bike_id": "cf5c2cc833f6a0721fb4f04cee814cd6", "type": "electric_scooter", "is_disabled": 0, "lat": 38.928626666666666, "rental_uris": {"ios": "https://dc.lft.to/lastmile_qr_scan", "android": "https://dc.lft.to/lastmile_qr_scan"}, "is_reserved": 0, "fusion_lon": 0.0, "fusion_lat": 0.0, "lon": -77.021756, "name": "cf5c2cc833f6a0721fb4f04cee814cd6"}, {"bike_id": "ed698465d0c96db72fd208f8e094dcd6", "type": "electric_scooter", "is_disabled": 0, "lat": 38.89802816666667, "rental_uris": {"ios": "https://dc.lft.to/lastmile_qr_scan", "android": "https://dc.lft.to/lastmile_qr_scan"}, "is_reserved": 0, "fusion_lon": 0.0, "fusion_lat": 0.0, "lon": -77.0220475, "name": "ed698465d0c96db72fd208f8e094dcd6"}, {"bike_id": "7fa566af2ab1526e69e99f613bb9383c", "type": "electric_scooter", "is_disabled": 0, "lat": 38.905184, "rental_uris": {"ios": "https://dc.lft.to/lastmile_qr_scan", "android": "https://dc.lft.to/lastmile_qr_scan"}, "is_reserved": 0, "fusion_lon": 0.0, "fusion_lat": 0.0, "lon": -77.067687, "name": "7fa566af2ab1526e69e99f613bb9383c"}, {"bike_id": "66e391f922b537a7f51d562741e2402a", "type": "electric_scooter", "is_disabled": 0, "lat": 38.91115633333333, "rental_uris": {"ios": "https://dc.lft.to/lastmile_qr_scan", "android": "https://dc.lft.to/lastmile_qr_scan"}, "is_reserved": 0, "fusion_lon": 0.0, "fusion_lat": 0.0, "lon": -77.04220716666667, "name": "66e391f922b537a7f51d562741e2402a"}, {"bike_id": "98f4a09f2eac81715492941b6f22c415", "type": "electric_scooter", "is_disabled": 0, "lat": 38.917431666666666, "rental_uris": {"ios": "https://dc.lft.to/lastmile_qr_scan", "android": "https://dc.lft.to/lastmile_qr_scan"}, "is_reserved": 0, "fusion_lon": 0.0, "fusion_lat": 0.0, "lon": -77.0318675, "name": "98f4a09f2eac81715492941b6f22c415"}, {"bike_id": "026a07e97b6d0c2726a270fc3d34bada", "type": "electric_scooter", "is_disabled": 0, "lat": 38.88179866666667, "rental_uris": {"ios": "https://dc.lft.to/lastmile_qr_scan", "android": "https://dc.lft.to/lastmile_qr_scan"}, "is_reserved": 0, "fusion_lon": 0.0, "fusion_lat": 0.0, "lon": -77.03739866666666, "name": "026a07e97b6d0c2726a270fc3d34bada"}, {"bike_id": "f7086cbf122a1045158e8d5813407264", "type": "electric_scooter", "is_disabled": 0, "lat": 38.90568533333333, "rental_uris": {"ios": "https://dc.lft.to/lastmile_qr_scan", "android": "https://dc.lft.to/lastmile_qr_scan"}, "is_reserved": 0, "fusion_lon": 0.0, "fusion_lat": 0.0, "lon": -76.97626266666667, "name": "f7086cbf122a1045158e8d5813407264"}, {"bike_id": "12b962b17863e8335c9ec4a07b6f1945", "type": "electric_scooter", "is_disabled": 0, "lat": 38.8709225, "rental_uris": {"ios": "https://dc.lft.to/lastmile_qr_scan", "android": "https://dc.lft.to/lastmile_qr_scan"}, "is_reserved": 0, "fusion_lon": 0.0, "fusion_lat": 0.0, "lon": -77.01206333333333, "name": "12b962b17863e8335c9ec4a07b6f1945"}, {"bike_id": "f534b4b30a3e6cd7d3ba4611b6ad1e03", "type": "electric_scooter", "is_disabled": 0, "lat": 38.92569566666667, "rental_uris": {"ios": "https://dc.lft.to/lastmile_qr_scan", "android": "https://dc.lft.to/lastmile_qr_scan"}, "is_reserved": 0, "fusion_lon": 0.0, "fusion_lat": 0.0, "lon": -77.0378065, "name": "f534b4b30a3e6cd7d3ba4611b6ad1e03"}, {"bike_id": "aec8e25365843de5cd13902ac42dc0fd", "type": "electric_scooter", "is_disabled": 0, "lat": 38.90866666666667, "rental_uris": {"ios": "https://dc.lft.to/lastmile_qr_scan", "android": "https://dc.lft.to/lastmile_qr_scan"}, "is_reserved": 0, "fusion_lon": 0.0, "fusion_lat": 0.0, "lon": -77.08594216666667, "name": "aec8e25365843de5cd13902ac42dc0fd"}, {"bike_id": "d7aabe885c065f4e12dd9c42592088ac", "type": "electric_scooter", "is_disabled": 0, "lat": 38.922552333333336, "rental_uris": {"ios": "https://dc.lft.to/lastmile_qr_scan", "android": "https://dc.lft.to/lastmile_qr_scan"}, "is_reserved": 0, "fusion_lon": 0.0, "fusion_lat": 0.0, "lon": -77.04299283333333, "name": "d7aabe885c065f4e12dd9c42592088ac"}, {"bike_id": "5b1021df3b875ffa08d55acaa69b44e3", "type": "electric_scooter", "is_disabled": 0, "lat": 38.88401866666667, "rental_uris": {"ios": "https://dc.lft.to/lastmile_qr_scan", "android": "https://dc.lft.to/lastmile_qr_scan"}, "is_reserved": 0, "fusion_lon": 0.0, "fusion_lat": 0.0, "lon": -76.95386133333334, "name": "5b1021df3b875ffa08d55acaa69b44e3"}, {"bike_id": "cc77d65ae4cf6522dbde79698b93211c", "type": "electric_scooter", "is_disabled": 0, "lat": 38.90529383333333, "rental_uris": {"ios": "https://dc.lft.to/lastmile_qr_scan", "android": "https://dc.lft.to/lastmile_qr_scan"}, "is_reserved": 0, "fusion_lon": 0.0, "fusion_lat": 0.0, "lon": -77.05723133333333, "name": "cc77d65ae4cf6522dbde79698b93211c"}, {"bike_id": "54e5b063469b5b9bbf2d37fd7ba3cc5f", "type": "electric_bike", "is_disabled": 0, "lat": 38.90820566666667, "rental_uris": {"ios": "https://dc.lft.to/lastmile_qr_scan", "android": "https://dc.lft.to/lastmile_qr_scan"}, "is_reserved": 0, "fusion_lon": 0.0, "fusion_lat": 0.0, "lon": -76.94034266666667, "name": "54e5b063469b5b9bbf2d37fd7ba3cc5f"},