{"data": {"bikes": [{"type": "electric_bike", "rental_uris": {"android": "https://dc.lft.to/lastmile_qr_scan", "ios": "https://dc.lft.to/lastmile_qr_scan"}, "name": "97b89b88f0454333417492a8fda8e8a4", "lat": 38.886042833333335, "is_reserved": 0, "fusion_lon": 0.0, "fusion_lat": 0.0, "is_disabled": 0, "bike_id": "97b89b88f0454333417492a8fda8e8a4", "lon": -77.1423345}, {"type": "electric_scooter", "rental_uris": {"android": "https://dc.lft.to/lastmile_qr_scan", "ios": "https://dc.lft.to/lastmile_qr_scan"}, "name": "5a58bcea1e6a1a01f03f7624dd266ad8", "lat": 38.9251495, "is_reserved": 0, "fusion_lon": 0.0, "fusion_lat": 0.0, "is_disabled": 0, "bike_id": "5a58bcea1e6a1a01f03f7624dd266ad8", "lon": -77.023575}, {"type": "electric_scooter", "rental_uris": {"android": "https://dc.lft.to/lastmile_qr_scan", "ios": "https://dc.lft.to/lastmile_qr_scan"}, "name": "193f04f7ed49baf98679a47da62eb0c9", "lat": 38.892296, "is_reserved": 0, "fusion_lon": 0.0, "fusion_lat": 0.0, "is_disabled": 0, "bike_id": "193f04f7ed49baf98679a47da62eb0c9", "lon": -77.04999883333333}, {"type": "electric_scooter", "rental_uris": {"android": "https://dc.lft.to/lastmile_qr_scan", "ios": "https://dc.lft.to/lastmile_qr_scan"}, "name": "434dee5d1b70f30d5ef6646216a3f180", "lat": 38.88508616666667, "is_reserved": 0, "fusion_lon": 0.0, "fusion_lat": 0.0, "is_disabled": 0, "bike_id": "434dee5d1b70f30d5ef6646216a3f180", "lon": -77.01117216666667}, {"type": "electric_scooter", "rental_uris": {"android": "https://dc.lft.to/lastmile_qr_scan", "ios": "https://dc.lft.to/lastmile_qr_scan"}, "name": "9589e234fba485a196272902a92e6133", "lat": 38.90126383333333, "is_reserved": 0, "fusion_lon": 0.0, "fusion_lat": 0.0, "is_disabled": 0, "bike_id": "9589e234fba485a196272902a92e6133", "lon": -77.0317155}, {"type": "electric_scooter", "rental_uris": {"android": "https://dc.lft.to/lastmile_qr_scan", "ios": "https://dc.lft.to/lastmile_qr_scan"}, "name": "fe5df9ecd68de7654b7a338267d73b98", "lat": 38.921391666666665, "is_reserved": 0, "fusion_lon": 0.0, "fusion_lat": 0.0, "is_disabled": 0, "bike_id": "fe5df9ecd68de7654b7a338267d73b98", "lon": -77.0179925}, {"type": "electric_scooter", "rental_uris": {"android": "https://dc.lft.to/lastmile_qr_scan", "ios": "https://dc.lft.to/lastmile_qr_scan"}, "name": "efa5b6a4a2bd8ddb5626eca680c5de63", "lat": 38.90503266666666, "is_reserved": 0, "fusion_lon": 0.0, "fusion_lat": 0.0, "is_disabled": 0, "bike_id": "efa5b6a4a2bd8ddb5626eca680c5de63", "lon": -77.0532235}, {"type": "electric_scooter", "rental_uris": {"android": "https://dc.lft.to/lastmile_qr_scan", "ios": "https://dc.lft.to/lastmile_qr_scan"}, "name": "d95f6a166eb055a6f67edab445eac833", "lat": 38.923636333333334, "is_reserved": 0, "fusion_lon": 0.0, "fusion_lat": 0.0, "is_disabled": 0, "bike_id": "d95f6a166eb055a6f67edab445eac833", "lon": -77.05050233333333}, {"type": "electric_scooter", "rental_uris": {"android": "https://dc.lft.to/lastmile_qr_scan", "ios": "https://dc.lft.to/lastmile_qr_scan"}, "name": "c9a2b2b9a199c898f602f7d37e2d0e73", "lat": 38.893549666666665, "is_reserved": 0, "fusion_lon": 0.0, "fusion_lat": 0.0, "is_disabled": 0, "bike_id": "c9a2b2b9a199c898f602f7d37e2d0e73", "lon": -77.00334733333334}, {"type": "electric_scooter", "rental_uris": {"android": "https://dc.lft.to/lastmile_qr_scan", "ios": "https://dc.lft.to/lastmile_qr_scan"}, "name": "3355b6f0dddb3651fba80d7b46bb077e", "lat": 38.92441383333333, "is_reserved": 0, "fusion_lon": 0.0, "fusion_lat": 0.0, "is_disabled": 0, "bike_id": "3355b6f0dddb3651fba80d7b46bb077e", "lon": -77.05211983333334}, {"type": "electric_scooter", "rental_uris": {"android": "https://dc.lft.to/lastmile_qr_scan", "ios": "https://dc.lft.to/lastmile_qr_scan"}, "name": "f5150a2b54a38e600535a4dbae8c26ae", "lat": 38.9139925, "is_reserved": 0, "fusion_lon": 0.0, "fusion_lat": 0.0, "is_disabled": 0, "bike_id": "f5150a2b54a38e600535a4dbae8c26ae", "lon": -77.018437}, {"type": "electric_scooter", "rental_uris": {"android": "https://dc.lft.to/lastmile_qr_scan", "ios": "https://dc.lft.to/lastmile_qr_scan"}, "name": "845df49e4681a517edad552abb6ab2da", "lat": 38.9111625, "is_reserved": 0, "fusion_lon": 0.0, "fusion_lat": 0.0, "is_disabled": 0, "bike_id": "845df49e4681a517edad552abb6ab2da", "lon": -77.04362733333333}, {"type": "electric_scooter", "rental_uris": {"android": "https://dc.lft.to/lastmile_qr_scan", "ios": "https://dc.lft.to/lastmile_qr_scan"}, "name": "9ef65f4815ad2c74fe69326a942df297", "lat": 38.89462616666667, "is_reserved": 0, "fusion_lon": 0.0, "fusion_lat": 0.0, "is_disabled": 0, "bike_id": "9ef65f4815ad2c74fe69326a942df297", "lon": -77.03376866666666}, {"type": "electric_scooter", "rental_uris": {"android": "https://dc.lft.to/lastmile_qr_scan", "ios": "https://dc.lft.to/lastmile_qr_scan"}, "name": "4d4b3ff4c145d89690d25f94be9daa24", "lat": 38.94444766666667, "is_reserved": 0, "fusion_lon": 0.0, "fusion_lat": 0.0, "is_disabled": 0, "bike_id": "4d4b3ff4c145d89690d25f94be9daa24", "lon": -77.0234065}, {"type": "electric_scooter", "rental_uris": {"android": "https://dc.lft.to/lastmile_qr_scan", "ios": "https://dc.lft.to/lastmile_qr_scan"}, "name": "253641deecc797ce0fe98e512012862c", "lat": 38.9034215, "is_reserved": 0, "fusion_lon": 0.0, "fusion_lat": 0.0, "is_disabled": 0, "bike_id": "253641deecc797ce0fe98e512012862c", "lon": -77.06199383333333}, {"type": "electric_scooter", "rental_uris": {"android": "https://dc.lft.to/lastmile_qr_scan", "ios": "https://dc.lft.to/lastmile_qr_scan"}, "name": "a8348439d539522fce54f5a267303951", "lat": 38.918164833333336, "is_reserved": 0, "fusion_lon": 0.0, "fusion_lat": 0.0, "is_disabled": 0, "bike_id": "a8348439d539522fce54f5a267303951", "lon": -77.037259}, {"type": "electric_scooter", "rental_uris": {"android": "https://dc.lft.to/lastmile_qr_scan", "ios": "https://dc.lft.to/lastmile_qr_scan"}, "name": "56af20633e5cfd2ada960552dbf6d8b8", "lat": 38.897002666666666, "is_reserved": 0, "fusion_lon": 0.0, "fusion_lat": 0.0, "is_disabled": 0, "bike_id": "56af20633e5cfd2ada960552dbf6d8b8", "lon": -77.043482}, {"type": "electric_scooter", "rental_uris": {"android": "https://dc.lft.to/lastmile_qr_scan", "ios": "https://dc.lft.to/lastmile_qr_scan"}, "name": "c1cb880ded6ebb557aeaa82c5e18b53c", "lat": 38.90694283333333, "is_reserved": 0, "fusion_lon": 0.0, "fusion_lat": 0.0, "is_disabled": 0, "bike_id": "c1cb880ded6ebb557aeaa82c5e18b53c", "lon": -77.026986}, {"type": "electric_scooter", "rental_uris": {"android": "https://dc.lft.to/lastmile_qr_scan", "ios": "https://dc.lft.to/lastmile_qr_scan"}, "name": "3c971b599f7618ff0f22d480351ca213", "lat": 38.91054033333333, "is_reserved": 0, "fusion_lon": 0.0, "fusion_lat": 0.0, "is_disabled": 0, "bike_id": "3c971b599f7618ff0f22d480351ca213", "lon": -77.0437315}, {"type": "electric_scooter", "rental_uris": {"android": "https://dc.lft.to/lastmile_qr_scan", "ios": "https://dc.lft.to/lastmile_qr_scan"}, "name": "d56c59102e3b353fa7afbd5abfe0b012", "lat": 38.921715, "is_reserved": 0, "fusion_lon": 0.0, "fusion_lat": 0.0, "is_disabled": 0, "bike_id": "d56c59102e3b353fa7afbd5abfe0b012", "lon": -77.01921266666666}, {"type": "electric_scooter", "rental_uris": {"android": "https://dc.lft.to/lastmile_qr_scan", "ios": "https://dc.lft.to/lastmile_qr_scan"}, "name": "e8fd5e8c47a794142612e322da1fe7d6", "lat": 38.91415633333333, "is_reserved": 0, "fusion_lon": 0.0, "fusion_lat": 0.0, "is_disabled": 0, "bike_id": "e8fd5e8c47a794142612e322da1fe7d6", "lon": -77.0222635}, {"type": "electric_scooter", "rental_uris": {"android": "https://dc.lft.to/lastmile_qr_scan", "ios": "https://dc.lft.to/lastmile_qr_scan"}, "name": "0d06bedbb244e142ca0a8c2d78ba7bc2", "lat": 38.914166, "is_reserved": 0, "fusion_lon": 0.0, "fusion_lat": 0.0, "is_disabled": 0, "bike_id": "0d06bedbb244e142ca0a8c2d78ba7bc2", "lon": -77.0180415}, {"type": "electric_scooter", "rental_uris": {"android": "https://dc.lft.to/lastmile_qr_scan", "ios": "https://dc.lft.to/lastmile_qr_scan"}, "name": "54bc77e33d4284f94f9e69abdbca8827", "lat": 38.9292335, "is_reserved": 0, "fusion_lon": 0.0, "fusion_lat": 0.0, "is_disabled": 0, "bike_id": "54bc77e33d4284f94f9e69abdbca8827", "lon": -76.998172}, {"type": "electric_scooter", "rental_uris": {"android": "https://dc.lft.to/lastmile_qr_scan", "ios": "https://dc.lft.to/lastmile_qr_scan"}, "name": "a98d2d3a74a4a4413f317f61169b3f71", "lat": 38.927990333333334, "is_reserved": 0, "fusion_lon": 0.0, "fusion_lat": 0.0, "is_disabled": 0, "bike_id": "a98d2d3a74a4a4413f317f61169b3f71", "lon": -77.03366666666666}, {"type": "electric_scooter", "rental_uris": {"android": "https://dc.lft.to/lastmile_qr_scan", "ios": "https://dc.lft.to/lastmile_qr_scan"}, "name": "c80d5a98c79a7254d11dc48a315c7578", "lat": 38.92157866666667, "is_reserved": 0, "fusion_lon": 0.0, "fusion_lat": 0.0, "is_disabled": 0, "bike_id": "c80d5a98c79a7254d11dc48a315c7578", "lon": -77.03373066666667}, {"type": "electric_scooter", "rental_uris": {"android": "https://dc.lft.to/lastmile_qr_scan", "ios": "https://dc.lft.to/lastmile_qr_scan"}, "name": "3d57aaf5ce372f5fac1bfefc14572d63", "lat": 38.896787833333335, "is_reserved": 0, "fusion_lon": 0.0, "fusion_lat": 0.0, "is_disabled": 0, "bike_id": "3d57aaf5ce372f5fac1bfefc14572d63", "lon": -77.043514}, {"type": "electric_scooter", "rental_uris": {"android": "https://dc.lft.to/lastmile_qr_scan", "ios": "https://dc.lft.to/lastmile_qr_scan"}, "name": "619d014082b3ea19b643c5b1030d1502", "lat": 38.925997833333334, "is_reserved": 0, "fusion_lon": 0.0, "fusion_lat": 0.0, "is_disabled": 0, "bike_id": "619d014082b3ea19b643c5b1030d1502", "lon": -77.021568}, {"type": "electric_scooter", "rental_uris": {"android": "https://dc.lft.to/lastmile_qr_scan", "ios": "https://dc.lft.to/lastmile_qr_scan"}, "name": "09f8b4a78641b44a03eb60d4c22d921d", "lat": 38.9056865, "is_reserved": 0, "fusion_lon": 0.0, "fusion_lat": 0.0, "is_disabled": 0, "bike_id": "09f8b4a78641b44a03eb60d4c22d921d", "lon": -77.00388183333334}, {"type": "electric_scooter", "rental_uris": {"android": "https://dc.lft.to/lastmile_qr_scan", "ios": "https://dc.lft.to/lastmile_qr_scan"}, "name": "8cfb85e6695d2963647777ee629b1661", "lat": 38.90514266666667, "is_reserved": 0, "fusion_lon": 0.0, "fusion_lat": 0.0, "is_disabled": 0, "bike_id": "8cfb85e6695d2963647777ee629b1661", "lon": -77.02938866666666}, {"type": "electric_scooter", "rental_uris": {"android": "https://dc.lft.to/lastmile_qr_scan", "ios": "https://dc.lft.to/lastmile_qr_scan"}, "name": "e8a0dea1478110195512892fdf4ee0dc", "lat": 38.916904, "is_reserved": 0, "fusion_lon": 0.0, "fusion_lat": 0.0, "is_disabled": 0, "bike_id": "e8a0dea1478110195512892fdf4ee0dc", "lon": -77.02602983333334}, {"type": "electric_scooter", "rental_uris": {"android": "https://dc.lft.to/lastmile_qr_scan", "ios": "https://dc.lft.to/lastmile_qr_scan"}, "name": "9cbcc9fa7435ec111109daea9eb6f820", "lat": 38.87631533333333, "is_reserved": 0, "fusion_lon": 0.0, "fusion_lat": 0.0, "is_disabled": 0, "bike_id": "9cbcc9fa7435ec111109daea9eb6f820", "lon": -77.01664066666666}, {"type": "electric_scooter", "rental_uris": {"android": "https://dc.lft.to/lastmile_qr_scan", "ios": "https://dc.lft.to/lastmile_qr_scan"}, "name": "db18f568a9a348f9b3293e1696ba4616", "lat": 38.900668, "is_reserved": 0, "fusion_lon": 0.0, "fusion_lat": 0.0, "is_disabled": 0, "bike_id": "db18f568a9a348f9b3293e1696ba4616", "lon": -76.92746166666667}, {"type": "electric_scooter", "rental_uris": {"android": "https://dc.lft.to/lastmile_qr_scan", "ios": "https://dc.lft.to/lastmile_qr_scan"}, "name": "190b229efa4314ded8199d56d368e658", "lat": 38.878614, "is_reserved": 0, "fusion_lon": 0.0, "fusion_lat": 0.0, "is_disabled": 0, "bike_id": "190b229efa4314ded8199d56d368e658", "lon": -76.99160066666667}, {"type": "electric_scooter", "rental_uris": {"android": "https://dc.lft.to/lastmile_qr_scan", "ios": "https://dc.lft.to/lastmile_qr_scan"}, "name": "1f74a75f6fb803a14f7fd290d96b582a", "lat": 38.94714, "is_reserved": 0, "fusion_lon": 0.0, "fusion_lat": 0.0, "is_disabled": 0, "bike_id": "1f74a75f6fb803a14f7fd290d96b582a", "lon": -77.02541733333334}, {"type": "electric_scooter", "rental_uris": {"android": "https://dc.lft.to/lastmile_qr_scan", "ios": "https://dc.lft.to/lastmile_qr_scan"}, "name": "72a7d5ab5b22670fa4d971395b5c478a", "lat": 38.89897333333333, "is_reserved": 0, "fusion_lon": 0.0, "fusion_lat": 0.0, "is_disabled": 0, "bike_id": "72a7d5ab5b22670fa4d971395b5c478a", "lon": -77.0327365}, {"type": "electric_scooter", "rental_uris": {"android": "https://dc.lft.to/lastmile_qr_scan", "ios": "https://dc.lft.to/lastmile_qr_scan"}, "name": "17a102d436fbc2e41d8ba66b4c38fd04", "lat": 38.935295833333335, "is_reserved": 0, "fusion_lon": 0.0, "fusion_lat": 0.0, "is_disabled": 0, "bike_id": "17a102d436fbc2e41d8ba66b4c38fd04", "lon": -77.02847583333333}, {"type": "electric_scooter", "rental_uris": {"android": "https://dc.lft.to/lastmile_qr_scan", "ios": "https://dc.lft.to/lastmile_qr_scan"}, "name": "c5ff9961484e5a645bfdf1b04ae395a7", "lat": 38.90436033333334, "is_reserved": 0, "fusion_lon": 0.0, "fusion_lat": 0.0, "is_disabled": 0, "bike_id": "c5ff9961484e5a645bfdf1b04ae395a7", "lon": -77.025922}, {"type": "electric_scooter", "rental_uris": {"android": "https://dc.lft.to/lastmile_qr_scan", "ios": "https://dc.lft.to/lastmile_qr_scan"}, "name": "f9bc16ae6bd9ed0525b3a1db334dd8c8", "lat": 38.88261516666667, "is_reserved": 0, "fusion_lon": 0.0, "fusion_lat": 0.0, "is_disabled": 0, "bike_id": "f9bc16ae6bd9ed0525b3a1db334dd8c8", "lon": -76.9919865}, {"type": "electric_scooter", "rental_uris": {"android": "https://dc.lft.to/lastmile_qr_scan", "ios": "https://dc.lft.to/lastmile_qr_scan"}, "name": "0e36b6ae192b95ff11942cdffcf9ad3c", "lat": 38.915736333333335, "is_reserved": 0, "fusion_lon": 0.0, "fusion_lat": 0.0, "is_disabled": 0, "bike_id": "0e36b6ae192b95ff11942cdffcf9ad3c", "lon": -77.0319165}, {"type": "electric_scooter", "rental_uris": {"android": "https://dc.lft.to/lastmile_qr_scan", "ios": "https://dc.lft.to/lastmile_qr_scan"}, "name": "472f41df88307a6ebedeeb37e2c1b30a", "lat": 38.905483833333335, "is_reserved": 0, "fusion_lon": 0.0, "fusion_lat": 0.0, "is_disabled": 0, "bike_id": "472f41df88307a6ebedeeb37e2c1b30a", "lon": -77.03450033333333}, {"type": "electric_scooter", "rental_uris": {"android": "https://dc.lft.to/lastmile_qr_scan", "ios": "https://dc.lft.to/lastmile_qr_scan"}, "name": "38a760748efd16e2a279ffe86b70e14c", "lat": 38.926025833333334, "is_reserved": 0, "fusion_lon": 0.0, "fusion_lat": 0.0, "is_disabled": 0, "bike_id": "38a760748efd16e2a279ffe86b70e14c", "lon": -77.021526}, {"type": "electric_scooter", "rental_uris": {"android": "https://dc.lft.to/lastmile_qr_scan", "ios": "https://dc.lft.to/lastmile_qr_scan"}, "name": "714abdc8b3369a89741f616420322d65", "lat": 38.89619833333333, "is_reserved": 0, "fusion_lon": 0.0, "fusion_lat": 0.0, "is_disabled": 0, "bike_id": "714abdc8b3369a89741f616420322d65", "lon": -77.01170483333334}, {"type": "electric_scooter", "rental_uris": {"android": "https://dc.lft.to/lastmile_qr_scan", "ios": "https://dc.lft.to/lastmile_qr_scan"}, "name": "acb8f1193710d441f0e3c45f7965a5e6", "lat": 38.9650015, "is_reserved": 0, "fusion_lon": 0.0, "fusion_lat": 0.0, "is_disabled": 0, "bike_id": "acb8f1193710d441f0e3c45f7965a5e6", "lon": -77.00260683333333}, {"type": "electric_scooter", "rental_uris": {"android": "https://dc.lft.to/lastmile_qr_scan", "ios": "https://dc.lft.to/lastmile_qr_scan"}, "name": "0c6bd62d8ae8865fe2be6c56e9191af8", "lat": 38.883421166666665, "is_reserved": 0, "fusion_lon": 0.0, "fusion_lat": 0.0, "is_disabled": 0, "bike_id": "0c6bd62d8ae8865fe2be6c56e9191af8", "lon": -76.94287316666667}, {"type": "electric_bike", "rental_uris": {"android": "https://dc.lft.to/lastmile_qr_scan", "ios": "https://dc.lft.to/lastmile_qr_scan"}, "name": "4892c5c8a60c4430fc962884f1840402", "lat": 38.8987415, "is_reserved": 0, "fusion_lon": 0.0, "fusion_lat": 0.0, "is_disabled": 0, "bike_id": "4892c5c8a60c4430fc962884f1840402", "lon": -76.93185916666667}, {"type": "electric_scooter", "rental_uris": {"android": "https://dc.lft.to/lastmile_qr_scan", "ios": "https://dc.lft.to/lastmile_qr_scan"}, "name": "3d8403e9a67ca03e26a79110a5adedde", "lat": 38.89846933333333, "is_reserved": 0, "fusion_lon": 0.0, "fusion_lat": 0.0, "is_disabled": 0, "bike_id": "3d8403e9a67ca03e26a79110a5adedde", "lon": -77.024366}, {"type": "electric_scooter", "rental_uris": {"android": "https://dc.lft.to/lastmile_qr_scan", "ios": "https://dc.lft.to/lastmile_qr_scan"}, "name": "af3f52c495318dce02a23b43a4c8a6a7", "lat": 38.884205, "is_reserved": 0, "fusion_lon": 0.0, "fusion_lat": 0.0, "is_disabled": 0, "bike_id": "af3f52c495318dce02a23b43a4c8a6a7", "lon": -77.0257225}, {"type": "electric_scooter", "rental_uris": {"android": "https://dc.lft.to/lastmile_qr_scan", "ios": "https://dc.lft.to/lastmile_qr_scan"}, "name": "f4cc95f983d4778f53d1d3aef457b6e1", "lat": 38.87939733333333, "is_reserved": 0, "fusion_lon": 0.0, "fusion_lat": 0.0, "is_disabled": 0, "bike_id": "f4cc95f983d4778f53d1d3aef457b6e1", "lon": -77.00375283333334}, {"type": "electric_scooter", "rental_uris": {"android": "https://dc.lft.to/lastmile_qr_scan", "ios": "https://dc.lft.to/lastmile_qr_scan"}, "name": "5db437439a7ad485899c0d45c2e60d3f", "lat": 38.90384483333333, "is_reserved": 0, "fusion_lon": 0.0, "fusion_lat": 0.0, "is_disabled": 0, "bike_id": "5db437439a7ad485899c0d45c2e60d3f", "lon": -77.0320735}, {"type": "electric_scooter", "rental_uris": {"android": "https://dc.lft.to/lastmile_qr_scan", "ios": "https://dc.lft.to/lastmile_qr_scan"}, "name": "a2f2298b7624aae4bcc2bf5a3a40bb95", "lat": 38.9087355, "is_reserved": 0, "fusion_lon": 0.0, "fusion_lat": 0.0, "is_disabled": 0, "bike_id": "a2f2298b7624aae4bcc2bf5a3a40bb95", "lon": -77.07526983333334}, {"type": "electric_bike", "rental_uris": {"android": "https://dc.lft.to/lastmile_qr_scan", "ios": "https://dc.lft.to/lastmile_qr_scan"}, "name": "4b47083ac8fdf7849284a813234e18b1", "lat": 38.900331666666666, "is_reserved": 0, "fusion_lon": 0.0, "fusion_lat": 0.0, "is_disabled": 0, "bike_id": "4b47083ac8fdf7849284a813234e18b1", "lon": -76.97229583333333}, {"type": "electric_scooter", "rental_uris": {"android": "https://dc.lft.to/lastmile_qr_scan", "ios": "https://dc.lft.to/lastmile_qr_scan"}, "name": "0f8dd43337ce59b2202d83704254ebc0", "lat": 38.9151895, "is_reserved": 0, "fusion_lon": 0.0, "fusion_lat": 0.0, "is_disabled": 0, "bike_id": "0f8dd43337ce59b2202d83704254ebc0", "lon": -77.01225116666667}, {"type": "electric_scooter", "rental_uris": {"android": "https://dc.lft.to/lastmile_qr_scan", "ios": "https://dc.lft.to/lastmile_qr_scan"}, "name": "b923f22a70edbee9878d497b7932dd6b", "lat": 38.90277366666667, "is_reserved": 0, "fusion_lon": 0.0, "fusion_lat": 0.0, "is_disabled": 0, "bike_id": "b923f22a70edbee9878d497b7932dd6b", "lon": -77.03469533333333}, {"type": "electric_scooter", "rental_uris": {"android": "https://dc.lft.to/lastmile_qr_scan", "ios": "https://dc.lft.to/lastmile_qr_scan"}, "name": "9ded41f7010f1edec8010b44d3a99df2", "lat": 38.89470033333333, "is_reserved": 0, "fusion_lon": 0.0, "fusion_lat": 0.0, "is_disabled": 0, "bike_id": "9ded41f7010f1edec8010b44d3a99df2", "lon": -77.02197033333333}, {"type": "electric_scooter", "rental_uris": {"android": "https://dc.lft.to/lastmile_qr_scan", "ios": "https://dc.lft.to/lastmile_qr_scan"}, "name": "ef493e150a92b0e793ee780db249e00f", "lat": 38.898571, "is_reserved": 0, "fusion_lon": 0.0, "fusion_lat": 0.0, "is_disabled": 0, "bike_id": "ef493e150a92b0e793ee780db249e00f", "lon": -77.03193216666666}, {"type": "electric_scooter", "rental_uris": {"android": "https://dc.lft.to/lastmile_qr_scan", "ios": "https://dc.lft.to/lastmile_qr_scan"}, "name": "061718b81a4a124b8ac7f91cd7890b22", "lat": 38.923342833333336, "is_reserved": 0, "fusion_lon": 0.0, "fusion_lat": 0.0, "is_disabled": 0, "bike_id": "061718b81a4a124b8ac7f91cd7890b22", "lon": -77.05678816666666}, {"type": "electric_scooter", "rental_uris": {"android": "https://dc.lft.to/lastmile_qr_scan", "ios": "https://dc.lft.to/lastmile_qr_scan"}, "name": "121b203c51bf1d0377443a7f6c4da616", "lat": 38.90263083333333, "is_reserved": 0, "fusion_lon": 0.0, "fusion_lat": 0.0, "is_disabled": 0, "bike_id": "121b203c51bf1d0377443a7f6c4da616", "lon": -77.03032816666666}, {"type": "electric_scooter", "rental_uris": {"android": "https://dc.lft.to/lastmile_qr_scan", "ios": "https://dc.lft.to/lastmile_qr_scan"}, "name": "0a521482d8bd977594ffc4ce04d8811f", "lat": 38.91623033333333, "is_reserved": 0, "fusion_lon": 0.0, "fusion_lat": 0.0, "is_disabled": 0, "bike_id": "0a521482d8bd977594ffc4ce04d8811f", "lon": -77.04861066666666}, {"type": "electric_scooter", "rental_uris": {"android": "https://dc.lft.to/lastmile_qr_scan", "ios": "https://dc.lft.to/lastmile_qr_scan"}, "name": "1d39c6ebaba2984ae7008c0244c214c8", "lat": 38.9243615, "is_reserved": 0, "fusion_lon": 0.0, "fusion_lat": 0.0, "is_disabled": 0, "bike_id": "1d39c6ebaba2984ae7008c0244c214c8", "lon": -77.02243266666666}, {"type": "electric_bike", "rental_uris": {"android": "https://dc.lft.to/lastmile_qr_scan", "ios": "https://dc.lft.to/lastmile_qr_scan"}, "name": "65666d4ada33adc0d83cd62e8ab33903", "lat": 38.89121433333333, "is_reserved": 0, "fusion_lon": 0.0, "fusion_lat": 0.0, "is_disabled": 0, "bike_id": "65666d4ada33adc0d83cd62e8ab33903", "lon": -76.94056533333334}, {"type": "electric_scooter", "rental_uris": {"android": "https://dc.lft.to/lastmile_qr_scan", "ios": "https://dc.lft.to/lastmile_qr_scan"}, "name": "81db6b8289bf19a3fc6b39b39c26b17a", "lat": 38.9171395, "is_reserved": 0, "fusion_lon": 0.0, "fusion_lat": 0.0, "is_disabled": 0, "bike_id": "81db6b8289bf19a3fc6b39b39c26b17a", "lon": -77.02588083333333}, {"type": "electric_scooter", "rental_uris": {"android": "https://dc.lft.to/lastmile_qr_scan", "ios": "https://dc.lft.to/lastmile_qr_scan"}, "name": "23b21635022a1ee240c16e983f8018d7", "lat": 38.905654166666665, "is_reserved": 0, "fusion_lon": 0.0, "fusion_lat": 0.0, "is_disabled": 0, "bike_id": "23b21635022a1ee240c16e983f8018d7", "lon": -77.00586566666666}, {"type": "electric_scooter", "rental_uris": {"android": "https://dc.lft.to/lastmile_qr_scan", "ios": "https://dc.lft.to/lastmile_qr_scan"}, "name": "c7aa844d4c6f8b5e04b13021fc5eee51", "lat": 38.91352933333334, "is_reserved": 0, "fusion_lon": 0.0, "fusion_lat": 0.0, "is_disabled": 0, "bike_id": "c7aa844d4c6f8b5e04b13021fc5eee51", "lon": -77.033557}, {"type": "electric_scooter", "rental_uris": {"android": "https://dc.lft.to/lastmile_qr_scan", "ios": "https://dc.lft.to/lastmile_qr_scan"}, "name": "eb9566213664c9cce42c0ff65713ed6d", "lat": 38.893523, "is_reserved": 0, "fusion_lon": 0.0, "fusion_lat": 0.0, "is_disabled": 0, "bike_id": "eb9566213664c9cce42c0ff65713ed6d", "lon": -77.01524233333333}, {"type": "electric_scooter", "rental_uris": {"android": "https://dc.lft.to/lastmile_qr_scan", "ios": "https://dc.lft.to/lastmile_qr_scan"}, "name": "eda880e411234cbe00a9e770ce400c70", "lat": 38.90655983333333, "is_reserved": 0, "fusion_lon": 0.0, "fusion_lat": 0.0, "is_disabled": 0, "bike_id": "eda880e411234cbe00a9e770ce400c70", "lon": -77.0428005}, {"type": "electric_scooter", "rental_uris": {"android": "https://dc.lft.to/lastmile_qr_scan", "ios": "https://dc.lft.to/lastmile_qr_scan"}, "name": "3d2cd144622df899a644a5b9c1dadb93", "lat": 38.92472816666667, "is_reserved": 0, "fusion_lon": 0.0, "fusion_lat": 0.0, "is_disabled": 0, "bike_id": "3d2cd144622df899a644a5b9c1dadb93", "lon": -77.038273}, {"type": "electric_scooter", "rental_uris": {"android": "https://dc.lft.to/lastmile_qr_scan", "ios": "https://dc.lft.to/lastmile_qr_scan"}, "name": "9d3cec45c39a0598f2fd2bff7ec365ec", "lat": 38.908743333333334, "is_reserved": 0, "fusion_lon": 0.0, "fusion_lat": 0.0, "is_disabled": 0, "bike_id": "9d3cec45c39a0598f2fd2bff7ec365ec", "lon": -77.03196083333333}, {"type": "electric_scooter", "rental_uris": {"android": "https://dc.lft.to/lastmile_qr_scan", "ios": "https://dc.lft.to/lastmile_qr_scan"}, "name": "5386d9c10ad9ef4a3dc8124f03497a58", "lat": 38.904695833333335, "is_reserved": 0, "fusion_lon": 0.0, "fusion_lat": 0.0, "is_disabled": 0, "bike_id": "5386d9c10ad9ef4a3dc8124f03497a58", "lon": -77.035775}, {"type": "electric_scooter", "rental_uris": {"android": "https://dc.lft.to/lastmile_qr_scan", "ios": "https://dc.lft.to/lastmile_qr_scan"}, "name": "b640d3199077f22fa30e3f414a8ede64", "lat": 38.915567333333335, "is_reserved": 0, "fusion_lon": 0.0, "fusion_lat": 0.0, "is_disabled": 0, "bike_id": "b640d3199077f22fa30e3f414a8ede64", "lon": -77.00678633333334}, {"type": "electric_scooter", "rental_uris": {"android": "https://dc.lft.to/lastmile_qr_scan", "ios": "https://dc.lft.to/lastmile_qr_scan"}, "name": "41bedb0a733449fcaa513e65931414f4", "lat": 38.93114083333333, "is_reserved": 0, "fusion_lon": 0.0, "fusion_lat": 0.0, "is_disabled": 0, "bike_id": "41bedb0a733449fcaa513e65931414f4", "lon": -77.03505566666666}, {"type": "electric_scooter", "rental_uris": {"android": "https://dc.lft.to/lastmile_qr_scan", "ios": "https://dc.lft.to/lastmile_qr_scan"}, "name": "4263578ebd3f54a140ecafecad073e16", "lat": 38.89421333333333, "is_reserved": 0, "fusion_lon": 0.0, "fusion_lat": 0.0, "is_disabled": 0, "bike_id": "4263578ebd3f54a140ecafecad073e16", "lon": -76.99773533333334}, {"type": "electric_scooter", "rental_uris": {"android": "https://dc.lft.to/lastmile_qr_scan", "ios": "https://dc.lft.to/lastmile_qr_scan"}, "name": "ca5813c3a3f2f66426573bf862c2b30d", "lat": 38.92073216666667, "is_reserved": 0, "fusion_lon": 0.0, "fusion_lat": 0.0, "is_disabled": 0, "bike_id": "ca5813c3a3f2f66426573bf862c2b30d", "lon": -77.02316983333333}, {"type": "electric_scooter", "rental_uris": {"android": "https://dc.lft.to/lastmile_qr_scan", "ios": "https://dc.lft.to/lastmile_qr_scan"}, "name": "9d6a7f42d522fadfb95abe9ac1402c92", "lat": 38.90612016666667, "is_reserved": 0, "fusion_lon": 0.0, "fusion_lat": 0.0, "is_disabled": 0, "bike_id": "9d6a7f42d522fadfb95abe9ac1402c92", "lon": -77.04125316666666}, {"type": "electric_scooter", "rental_uris": {"android": "https://dc.lft.to/lastmile_qr_scan", "ios": "https://dc.lft.to/lastmile_qr_scan"}, "name": "48fb2f982568f0e639347b79bed55a42", "lat": 38.899642166666666, "is_reserved": 0, "fusion_lon": 0.0, "fusion_lat": 0.0, "is_disabled": 0, "bike_id": "48fb2f982568f0e639347b79bed55a42", "lon": -77.01608}, {"type": "electric_scooter", "rental_uris": {"android": "https://dc.lft.to/lastmile_qr_scan", "ios": "https://dc.lft.to/lastmile_qr_scan"}, "name": "3bddaa2d8c0de00cafcc140141c855d1", "lat": 38.897674, "is_reserved": 0, "fusion_lon": 0.0, "fusion_lat": 0.0, "is_disabled": 0, "bike_id": "3bddaa2d8c0de00cafcc140141c855d1", "lon": -77.01219716666667}, {"type": "electric_scooter", "rental_uris": {"android": "https://dc.lft.to/lastmile_qr_scan", "ios": "https://dc.lft.to/lastmile_qr_scan"}, "name": "d96106c10e8b15148796831a0129c3a9", "lat": 38.9064645, "is_reserved": 0, "fusion_lon": 0.0, "fusion_lat": 0.0, "is_disabled": 0, "bike_id": "d96106c10e8b15148796831a0129c3a9", "lon": -77.05323266666667}, {"type": "electric_bike", "rental_uris": {"android": "https://dc.lft.to/lastmile_qr_scan", "ios": "https://dc.lft.to/lastmile_qr_scan"}, "name": "8f29c30d3f85ff8f505bbdf3ab2cf5f3", "lat": 38.80050383333333, "is_reserved": 0, "fusion_lon": 0.0, "fusion_lat": 0.0, "is_disabled": 0, "bike_id": "8f29c30d3f85ff8f505bbdf3ab2cf5f3", "lon": -77.12838083333334}, {"type": "electric_scooter", "rental_uris": {"android": "https://dc.lft.to/lastmile_qr_scan", "ios": "https://dc.lft.to/lastmile_qr_scan"}, "name": "60d7061ba20dab3ea2333ff0eccfb6b6", "lat": 38.892216166666664, "is_reserved": 0, "fusion_lon": 0.0, "fusion_lat": 0.0, "is_disabled": 0, "bike_id": "60d7061ba20dab3ea2333ff0eccfb6b6", "lon": -77.02563483333333}, {"type": "electric_scooter", "rental_uris": {"android": "https://dc.lft.to/lastmile_qr_scan", "ios": "https://dc.lft.to/lastmile_qr_scan"}, "name": "e21810e9b14b17d71db668f0b6eef7f6", "lat": 38.92246733333333, "is_reserved": 0, "fusion_lon": 0.0, "fusion_lat": 0.0, "is_disabled": 0, "bike_id": "e21810e9b14b17d71db668f0b6eef7f6", "lon": -77.03042983333333}, {"type": "electric_scooter", "rental_uris": {"android": "https://dc.lft.to/lastmile_qr_scan", "ios": "https://dc.lft.to/lastmile_qr_scan"}, "name": "fe240b5fcf245868da9b76ec817481d0", "lat": 38.880720333333336, "is_reserved": 0, "fusion_lon": 0.0, "fusion_lat": 0.0, "is_disabled": 0, "bike_id": "fe240b5fcf245868da9b76ec817481d0", "lon": -76.99154216666666}, {"type": "electric_scooter", "rental_uris": {"android": "https://dc.lft.to/lastmile_qr_scan", "ios": "https://dc.lft.to/lastmile_qr_scan"}, "name": "fd31c8af1d1ecfc6fe1ebcc38bf65be8", "lat": 38.864716333333334, "is_reserved": 0, "fusion_lon": 0.0, "fusion_lat": 0.0, "is_disabled": 0, "bike_id": "fd31c8af1d1ecfc6fe1ebcc38bf65be8", "lon": -76.98228316666666}, {"type": "electric_scooter", "rental_uris": {"android": "https://dc.lft.to/lastmile_qr_scan", "ios": "https://dc.lft.to/lastmile_qr_scan"}, "name": "efe79d25c72321c92336925e8447dbf6", "lat": 38.931925166666666, "is_reserved": 0, "fusion_lon": 0.0, "fusion_lat": 0.0, "is_disabled": 0, "bike_id": "efe79d25c72321c92336925e8447dbf6", "lon": -77.02834816666666}, {"type": "electric_scooter", "rental_uris": {"android": "https://dc.lft.to/lastmile_qr_scan", "ios": "https://dc.lft.to/lastmile_qr_scan"}, "name": "9badad388b06d0cc63def14614016150", "lat": 38.928593, "is_reserved": 0, "fusion_lon": 0.0, "fusion_lat": 0.0, "is_disabled": 0, "bike_id": "9badad388b06d0cc63def14614016150", "lon": -77.05426083333333}, {"type": "electric_scooter", "rental_uris": {"android": "https://dc.lft.to/lastmile_qr_scan", "ios": "https://dc.lft.to/lastmile_qr_scan"}, "name": "a98e3a7adecddcb9dd78d872bec3401e", "lat": 38.898283, "is_reserved": 0, "fusion_lon": 0.0, "fusion_lat": 0.0, "is_disabled": 0, "bike_id": "a98e3a7adecddcb9dd78d872bec3401e", "lon": -77.02833183333334}, {"type": "electric_scooter", "rental_uris": {"android": "https://dc.lft.to/lastmile_qr_scan", "ios": "https://dc.lft.to/lastmile_qr_scan"}, "name": "d8d30406a941244357fa4721a110e348", "lat": 38.92583916666667, "is_reserved": 0, "fusion_lon": 0.0, "fusion_lat": 0.0, "is_disabled": 0, "bike_id": "d8d30406a941244357fa4721a110e348", "lon": -77.02503033333333}, {"type": "electric_scooter", "rental_uris": {"android": "https://dc.lft.to/lastmile_qr_scan", "ios": "https://dc.lft.to/lastmile_qr_scan"}, "name": "3b7d9155e6bd0170fe0902e182d73137", "lat": 38.875572166666664, "is_reserved": 0, "fusion_lon": 0.0, "fusion_lat": 0.0, "is_disabled": 0, "bike_id": "3b7d9155e6bd0170fe0902e182d73137", "lon": -77.00589966666666}, {"type": "electric_scooter", "rental_uris": {"android": "https://dc.lft.to/lastmile_qr_scan", "ios": "https://dc.lft.to/lastmile_qr_scan"}, "name": "bf3fbe52562614eeb4b4cfea25367eb2", "lat": 38.85707416666666, "is_reserved": 0, "fusion_lon": 0.0, "fusion_lat": 0.0, "is_disabled": 0, "bike_id": "bf3fbe52562614eeb4b4cfea25367eb2", "lon": -76.98135266666667}, {"type": "electric_scooter", "rental_uris": {"android": "https://dc.lft.to/lastmile_qr_scan", "ios": "https://dc.lft.to/lastmile_qr_scan"}, "name": "c6d4cb2a7b8d7aba7a040c6d2281a830", "lat": 38.91885933333333, "is_reserved": 0, "fusion_lon": 0.0, "fusion_lat": 0.0, "is_disabled": 0, "bike_id": "c6d4cb2a7b8d7aba7a040c6d2281a830", "lon": -77.01896816666667}, {"type": "electric_scooter", "rental_uris": {"android": "https://dc.lft.to/lastmile_qr_scan", "ios": "https://dc.lft.to/lastmile_qr_scan"}, "name": "c9a08e60703db64861cd3c31845754be", "lat": 38.901670833333334, "is_reserved": 0, "fusion_lon": 0.0, "fusion_lat": 0.0, "is_disabled": 0, "bike_id": "c9a08e60703db64861cd3c31845754be", "lon": -76.98075416666667}, {"type": "electric_scooter", "rental_uris": {"android": "https://dc.lft.to/lastmile_qr_scan", "ios": "https://dc.lft.to/lastmile_qr_scan"}, "name": "19f9064b4f43739c48a26b4c110ab7c5", "lat": 38.86507, "is_reserved": 0, "fusion_lon": 0.0, "fusion_lat": 0.0, "is_disabled": 0, "bike_id": "19f9064b4f43739c48a26b4c110ab7c5", "lon": -76.969008}, {"type": "electric_scooter", "rental_uris": {"android": "https://dc.lft.to/lastmile_qr_scan", "ios": "https://dc.lft.to/lastmile_qr_scan"}, "name": "d2b63dc8d6a004d8c6edc1eca1e9fa14", "lat": 38.9241075, "is_reserved": 0, "fusion_lon": 0.0, "fusion_lat": 0.0, "is_disabled": 0, "bike_id": "d2b63dc8d6a004d8c6edc1eca1e9fa14", "lon": -77.020085}, {"type": "electric_scooter", "rental_uris": {"android": "https://dc.lft.to/lastmile_qr_scan", "ios": "https://dc.lft.to/lastmile_qr_scan"}, "name": "94a24ef7f5d873612a22666fff4fdc2d", "lat": 38.89716033333333, "is_reserved": 0, "fusion_lon": 0.0, "fusion_lat": 0.0, "is_disabled": 0, "bike_id": "94a24ef7f5d873612a22666fff4fdc2d", "lon": -77.02159183333333}, {"type": "electric_scooter", "rental_uris": {"android": "https://dc.lft.to/lastmile_qr_scan", "ios": "https://dc.lft.to/lastmile_qr_scan"}, "name": "389e5f9d8422e59a16f3f4a55ea25ab5", "lat": 38.904329, "is_reserved": 0, "fusion_lon": 0.0, "fusion_lat": 0.0, "is_disabled": 0, "bike_id": "389e5f9d8422e59a16f3f4a55ea25ab5", "lon": -77.02591533333333}, {"type": "electric_scooter", "rental_uris": {"android": "https://dc.lft.to/lastmile_qr_scan", "ios": "https://dc.lft.to/lastmile_qr_scan"}, "name": "e46f4f318e8578d2430aeaba1c927c28", "lat": 38.90554766666666, "is_reserved": 0, "fusion_lon": 0.0, "fusion_lat": 0.0, "is_disabled": 0, "bike_id": "e46f4f318e8578d2430aeaba1c927c28", "lon": -77.00554466666667}, {"type": "electric_scooter", "rental_uris": {"android": "https://dc.lft.to/lastmile_qr_scan", "ios": "https://dc.lft.to/lastmile_qr_scan"}, "name": "a89ec5b0028640bcf9168fae4365da59", "lat": 38.924648166666664, "is_reserved": 0, "fusion_lon": 0.0, "fusion_lat": 0.0, "is_disabled": 0, "bike_id": "a89ec5b0028640bcf9168fae4365da59", "lon": -77.02112666666666}, {"type": "electric_scooter", "rental_uris": {"android": "https://dc.lft.to/lastmile_qr_scan", "ios": "https://dc.lft.to/lastmile_qr_scan"}, "name": "c1ce7733666da5078c699381bd22a21e", "lat": 38.917103833333336, "is_reserved": 0, "fusion_lon": 0.0, "fusion_lat": 0.0, "is_disabled": 0, "bike_id": "c1ce7733666da5078c699381bd22a21e", "lon": -77.02900166666667}, {"type": "electric_scooter", "rental_uris": {"android": "https://dc.lft.to/lastmile_qr_scan", "ios": "https://dc.lft.to/lastmile_qr_scan"}, "name": "cb90222e8e4c4ca2729ff9cb5a032520", "lat": 38.9244515, "is_reserved": 0, "fusion_lon": 0.0, "fusion_lat": 0.0, "is_disabled": 0, "bike_id": "cb90222e8e4c4ca2729ff9cb5a032520", "lon": -77.0297855}, {"type": "electric_scooter", "rental_uris": {"android": "https://dc.lft.to/lastmile_qr_scan", "ios": "https://dc.lft.to/lastmile_qr_scan"}, "name": "28ae0cca9c21f06e633973b2f8d473ce", "lat": 38.89713116666667, "is_reserved": 0, "fusion_lon": 0.0, "fusion_lat": 0.0, "is_disabled": 0, "bike_id": "28ae0cca9c21f06e633973b2f8d473ce", "lon": -77.02675683333334}, {"type": "electric_bike", "rental_uris": {"android": "https://dc.lft.to/lastmile_qr_scan", "ios": "https://dc.lft.to/lastmile_qr_scan"}, "name": "54dc58a7c8b6355e0e99ff81ad79d977", "lat": 38.9396725, "is_reserved": 0, "fusion_lon": 0.0, "fusion_lat": 0.0, "is_disabled": 0, "bike_id": "54dc58a7c8b6355e0e99ff81ad79d977", "lon": -76.986159}, {"type": "electric_scooter", "rental_uris": {"android": "https://dc.lft.to/lastmile_qr_scan", "ios": "https://dc.lft.to/lastmile_qr_scan"}, "name": "51b77454c29acf94fb3b3a6c7b1e08c8", "lat": 38.926006, "is_reserved": 0, "fusion_lon": 0.0, "fusion_lat": 0.0, "is_disabled": 0, "bike_id": "51b77454c29acf94fb3b3a6c7b1e08c8", "lon": -77.02157966666667}, {"type": "electric_scooter", "rental_uris": {"android": "https://dc.lft.to/lastmile_qr_scan", "ios": "https://dc.lft.to/lastmile_qr_scan"}, "name": "2b316d839417dd6c7e523677572cb308", "lat": 38.89900216666667, "is_reserved": 0, "fusion_lon": 0.0, "fusion_lat": 0.0, "is_disabled": 0, "bike_id": "2b316d839417dd6c7e523677572cb308", "lon": -77.04015466666667}, {"type": "electric_scooter", "rental_uris": {"android": "https://dc.lft.to/lastmile_qr_scan", "ios": "https://dc.lft.to/lastmile_qr_scan"}, "name": "fe62de4d3d3d214e5cfaa175c993e1d8", "lat": 38.9037435, "is_reserved": 0, "fusion_lon": 0.0, "fusion_lat": 0.0, "is_disabled": 0, "bike_id": "fe62de4d3d3d214e5cfaa175c993e1d8", "lon": -77.03856516666667}, {"type": "electric_bike", "rental_uris": {"android": "https://dc.lft.to/lastmile_qr_scan", "ios": "https://dc.lft.to/lastmile_qr_scan"}, "name": "93e51e298c2f896d88c7fae87a1b6755", "lat": 38.857770333333335, "is_reserved": 0, "fusion_lon": 0.0, "fusion_lat": 0.0, "is_disabled": 0, "bike_id": "93e51e298c2f896d88c7fae87a1b6755", "lon": -76.98753166666667}, {"type": "electric_scooter", "rental_uris": {"android": "https://dc.lft.to/lastmile_qr_scan", "ios": "https://dc.lft.to/lastmile_qr_scan"}, "name": "796711fcaac7b5ee7de3ba1db7cfa5b4", "lat": 38.909605, "is_reserved": 0, "fusion_lon": 0.0, "fusion_lat": 0.0, "is_disabled": 0, "bike_id": "796711fcaac7b5ee7de3ba1db7cfa5b4", "lon": -77.0244455}, {"type": "electric_scooter", "rental_uris": {"android": "https://dc.lft.to/lastmile_qr_scan", "ios": "https://dc.lft.to/lastmile_qr_scan"}, "name": "7f6dea9b062ad52349ff49ab352880d6", "lat": 38.90193566666667, "is_reserved": 0, "fusion_lon": 0.0, "fusion_lat": 0.0, "is_disabled": 0, "bike_id": "7f6dea9b062ad52349ff49ab352880d6", "lon": -77.06115}, {"type": "electric_scooter", "rental_uris": {"android": "https://dc.lft.to/lastmile_qr_scan", "ios": "https://dc.lft.to/lastmile_qr_scan"}, "name": "ad47cad88ccbde12b13053384a6a8585", "lat": 38.91115166666667, "is_reserved": 0, "fusion_lon": 0.0, "fusion_lat": 0.0, "is_disabled": 0, "bike_id": "ad47cad88ccbde12b13053384a6a8585", "lon": -77.03194166666667}, {"type": "electric_scooter", "rental_uris": {"android": "https://dc.lft.to/lastmile_qr_scan", "ios": "https://dc.lft.to/lastmile_qr_scan"}, "name": "bc94a6674a27bb7e66919876a67677ef", "lat": 38.920593333333336, "is_reserved": 0, "fusion_lon": 0.0, "fusion_lat": 0.0, "is_disabled": 0, "bike_id": "bc94a6674a27bb7e66919876a67677ef", "lon": -77.02948633333334}, {"type": "electric_scooter", "rental_uris": {"android": "https://dc.lft.to/lastmile_qr_scan", "ios": "https://dc.lft.to/lastmile_qr_scan"}, "name": "12ad2340d01ae54da60bd2fba11190ee", "lat": 38.920578166666665, "is_reserved": 0, "fusion_lon": 0.0, "fusion_lat": 0.0, "is_disabled": 0, "bike_id": "12ad2340d01ae54da60bd2fba11190ee", "lon": -77.02456716666667}, {"type": "electric_scooter", "rental_uris": {"android": "https://dc.lft.to/lastmile_qr_scan", "ios": "https://dc.lft.to/lastmile_qr_scan"}, "name": "79d4c4e744b3a80bc27d87ae98bf5a54", "lat": 38.93523183333333, "is_reserved": 0, "fusion_lon": 0.0, "fusion_lat": 0.0, "is_disabled": 0, "bike_id": "79d4c4e744b3a80bc27d87ae98bf5a54", "lon": -77.03258933333333}, {"type": "electric_scooter", "rental_uris": {"android": "https://dc.lft.to/lastmile_qr_scan", "ios": "https://dc.lft.to/lastmile_qr_scan"}, "name": "ba45c6a8336ebd749458e44ebcaa33c4", "lat": 38.964195, "is_reserved": 0, "fusion_lon": 0.0, "fusion_lat": 0.0, "is_disabled": 0, "bike_id": "ba45c6a8336ebd749458e44ebcaa33c4", "lon": -77.03257416666666}, {"type": "electric_scooter", "rental_uris": {"android": "https://dc.lft.to/lastmile_qr_scan", "ios": "https://dc.lft.to/lastmile_qr_scan"}, "name": "42312064de14d612ab88b4bca23eb203", "lat": 38.920637666666664, "is_reserved": 0, "fusion_lon": 0.0, "fusion_lat": 0.0, "is_disabled": 0, "bike_id": "42312064de14d612ab88b4bca23eb203", "lon": -77.02303766666667}, {"type": "electric_scooter", "rental_uris": {"android": "https://dc.lft.to/lastmile_qr_scan", "ios": "https://dc.lft.to/lastmile_qr_scan"}, "name": "d9a42d8f801aba3466f501280958e7bb", "lat": 38.9205895, "is_reserved": 0, "fusion_lon": 0.0, "fusion_lat": 0.0, "is_disabled": 0, "bike_id": "d9a42d8f801aba3466f501280958e7bb", "lon": -77.02304483333333}, {"type": "electric_scooter", "rental_uris": {"android": "https://dc.lft.to/lastmile_qr_scan", "ios": "https://dc.lft.to/lastmile_qr_scan"}, "name": "0428ea0fea6ce0b70f012312a21daeb5", "lat": 38.93749183333333, "is_reserved": 0, "fusion_lon": 0.0, "fusion_lat": 0.0, "is_disabled": 0, "bike_id": "0428ea0fea6ce0b70f012312a21daeb5", "lon": -77.024433}, {"type": "electric_scooter", "rental_uris": {"android": "https://dc.lft.to/lastmile_qr_scan", "ios": "https://dc.lft.to/lastmile_qr_scan"}, "name": "35406863116df3738f40b6546ad22145", "lat": 38.902159833333336, "is_reserved": 0, "fusion_lon": 0.0, "fusion_lat": 0.0, "is_disabled": 0, "bike_id": "35406863116df3738f40b6546ad22145", "lon": -77.01719416666667}, {"type": "electric_scooter", "rental_uris": {"android": "https://dc.lft.to/lastmile_qr_scan", "ios": "https://dc.lft.to/lastmile_qr_scan"}, "name": "b9d7a267609b444c19159c7b9cc63dd9", "lat": 38.904579166666664, "is_reserved": 0, "fusion_lon": 0.0, "fusion_lat": 0.0, "is_disabled": 0, "bike_id": "b9d7a267609b444c19159c7b9cc63dd9", "lon": -77.03222083333333}, {"type": "electric_scooter", "rental_uris": {"android": "https://dc.lft.to/lastmile_qr_scan", "ios": "https://dc.lft.to/lastmile_qr_scan"}, "name": "9ed9eedcadddd3319636981524c79911", "lat": 38.894761, "is_reserved": 0, "fusion_lon": 0.0, "fusion_lat": 0.0, "is_disabled": 0, "bike_id": "9ed9eedcadddd3319636981524c79911", "lon": -76.99485033333333}, {"type": "electric_scooter", "rental_uris": {"android": "https://dc.lft.to/lastmile_qr_scan", "ios": "https://dc.lft.to/lastmile_qr_scan"}, "name": "7aa866cab4fd5812a264eb5c4eb8409f", "lat": 38.90741416666667, "is_reserved": 0, "fusion_lon": 0.0, "fusion_lat": 0.0, "is_disabled": 0, "bike_id": "7aa866cab4fd5812a264eb5c4eb8409f", "lon": -77.01534733333334}, {"type": "electric_scooter", "rental_uris": {"android": "https://dc.lft.to/lastmile_qr_scan", "ios": "https://dc.lft.to/lastmile_qr_scan"}, "name": "297e8245d3848bfea6a140377fb7838a", "lat": 38.902112833333334, "is_reserved": 0, "fusion_lon": 0.0, "fusion_lat": 0.0, "is_disabled": 0, "bike_id": "297e8245d3848bfea6a140377fb7838a", "lon": -77.02142983333333}, {"type": "electric_bike", "rental_uris": {"android": "https://dc.lft.to/lastmile_qr_scan", "ios": "https://dc.lft.to/lastmile_qr_scan"}, "name": "fefc53fb9129fce223b9b316e9b75bb1", "lat": 38.944746, "is_reserved": 0, "fusion_lon": 0.0, "fusion_lat": 0.0, "is_disabled": 0, "bike_id": "fefc53fb9129fce223b9b316e9b75bb1", "lon": -76.98689333333333}, {"type": "electric_bike", "rental_uris": {"android": "https://dc.lft.to/lastmile_qr_scan", "ios": "https://dc.lft.to/lastmile_qr_scan"}, "name": "376c95e1f547adaa3d68a227d294f1cc", "lat": 38.994111333333336, "is_reserved": 0, "fusion_lon": 0.0, "fusion_lat": 0.0, "is_disabled": 0, "bike_id": "376c95e1f547adaa3d68a227d294f1cc", "lon": -77.01799833333334}, {"type": "electric_scooter", "rental_uris": {"android": "https://dc.lft.to/lastmile_qr_scan", "ios": "https://dc.lft.to/lastmile_qr_scan"}, "name": "59870e1086e56e9f74f0954fa6ea0843", "lat": 38.9024135, "is_reserved": 0, "fusion_lon": 0.0, "fusion_lat": 0.0, "is_disabled": 0, "bike_id": "59870e1086e56e9f74f0954fa6ea0843", "lon": -77.00190383333333}, {"type": "electric_scooter", "rental_uris": {"android": "https://dc.lft.to/lastmile_qr_scan", "ios": "https://dc.lft.to/lastmile_qr_scan"}, "name": "aa7cc3bd2b261b32f25948aa496e4b48", "lat": 38.9250215, "is_reserved": 0, "fusion_lon": 0.0, "fusion_lat": 0.0, "is_disabled": 0, "bike_id": "aa7cc3bd2b261b32f25948aa496e4b48", "lon": -77.02400466666667}, {"type": "electric_scooter", "rental_uris": {"android": "https://dc.lft.to/lastmile_qr_scan", "ios": "https://dc.lft.to/lastmile_qr_scan"}, "name": "0183a1b6355741bdda0a0ff28e597525", "lat": 38.8970755, "is_reserved": 0, "fusion_lon": 0.0, "fusion_lat": 0.0, "is_disabled": 0, "bike_id": "0183a1b6355741bdda0a0ff28e597525", "lon": -77.01276066666667}, {"type": "electric_bike", "rental_uris": {"android": "https://dc.lft.to/lastmile_qr_scan", "ios": "https://dc.lft.to/lastmile_qr_scan"}, "name": "dcf864d211e84a04fe95e57ea2840740", "lat": 38.838658833333334, "is_reserved": 0, "fusion_lon": 0.0, "fusion_lat": 0.0, "is_disabled": 0, "bike_id": "dcf864d211e84a04fe95e57ea2840740", "lon": -76.99534633333333}, {"type": "electric_scooter", "rental_uris": {"android": "https://dc.lft.to/lastmile_qr_scan", "ios": "https://dc.lft.to/lastmile_qr_scan"}, "name": "8907357699b0ac45098ed86551213174", "lat": 38.92148266666667, "is_reserved": 0, "fusion_lon": 0.0, "fusion_lat": 0.0, "is_disabled": 0, "bike_id": "8907357699b0ac45098ed86551213174", "lon": -77.0181345}, {"type": "electric_scooter", "rental_uris": {"android": "https://dc.lft.to/lastmile_qr_scan", "ios": "https://dc.lft.to/lastmile_qr_scan"}, "name": "7404eb068342f404f38e09bf50d011e8", "lat": 38.890604333333336, "is_reserved": 0, "fusion_lon": 0.0, "fusion_lat": 0.0, "is_disabled": 0, "bike_id": "7404eb068342f404f38e09bf50d011e8", "lon": -77.03208933333333}, {"type": "electric_scooter", "rental_uris": {"android": "https://dc.lft.to/lastmile_qr_scan", "ios": "https://dc.lft.to/lastmile_qr_scan"}, "name": "7e06c587dfc0571c64aa84a3e6da63d6", "lat": 38.902387833333336, "is_reserved": 0, "fusion_lon": 0.0, "fusion_lat": 0.0, "is_disabled": 0, "bike_id": "7e06c587dfc0571c64aa84a3e6da63d6", "lon": -76.974171}, {"type": "electric_scooter", "rental_uris": {"android": "https://dc.lft.to/lastmile_qr_scan", "ios": "https://dc.lft.to/lastmile_qr_scan"}, "name": "881fc0e322596bf25319e6ae3bf689ae", "lat": 38.92470016666667, "is_reserved": 0, "fusion_lon": 0.0, "fusion_lat": 0.0, "is_disabled": 0, "bike_id": "881fc0e322596bf25319e6ae3bf689ae", "lon": -77.02203966666667}, {"type": "electric_scooter", "rental_uris": {"android": "https://dc.lft.to/lastmile_qr_scan", "ios": "https://dc.lft.to/lastmile_qr_scan"}, "name": "b76cb373b9f1dfeefcc02c64825a469e", "lat": 38.915763166666665, "is_reserved": 0, "fusion_lon": 0.0, "fusion_lat": 0.0, "is_disabled": 0, "bike_id": "b76cb373b9f1dfeefcc02c64825a469e", "lon": -77.012266}, {"type": "electric_scooter", "rental_uris": {"android": "https://dc.lft.to/lastmile_qr_scan", "ios": "https://dc.lft.to/lastmile_qr_scan"}, "name": "04b4e5c5d4d1f4f4818a684db17bc09e", "lat": 38.896109, "is_reserved": 0, "fusion_lon": 0.0, "fusion_lat": 0.0, "is_disabled": 0, "bike_id": "04b4e5c5d4d1f4f4818a684db17bc09e", "lon": -77.04598566666667}, {"type": "electric_scooter", "rental_uris": {"android": "https://dc.lft.to/lastmile_qr_scan", "ios": "https://dc.lft.to/lastmile_qr_scan"}, "name": "92bbe6f93005d46bb64db5706d69b7c0", "lat": 38.90551516666667, "is_reserved": 0, "fusion_lon": 0.0, "fusion_lat": 0.0, "is_disabled": 0, "bike_id": "92bbe6f93005d46bb64db5706d69b7c0", "lon": -77.03519166666666}, {"type": "electric_scooter", "rental_uris": {"android": "https://dc.lft.to/lastmile_qr_scan", "ios": "https://dc.lft.to/lastmile_qr_scan"}, "name": "4b1875b335c418b7d7f2089521ff053d", "lat": 38.91501383333333, "is_reserved": 0, "fusion_lon": 0.0, "fusion_lat": 0.0, "is_disabled": 0, "bike_id": "4b1875b335c418b7d7f2089521ff053d", "lon": -77.04497283333333}, {"type": "electric_scooter", "rental_uris": {"android": "https://dc.lft.to/lastmile_qr_scan", "ios": "https://dc.lft.to/lastmile_qr_scan"}, "name": "530a1c4e3b422fe842d4d77c34111637", "lat": 38.9027565, "is_reserved": 0, "fusion_lon": 0.0, "fusion_lat": 0.0, "is_disabled": 0, "bike_id": "530a1c4e3b422fe842d4d77c34111637", "lon": -77.03982366666666}, {"type": "electric_scooter", "rental_uris": {"android": "https://dc.lft.to/lastmile_qr_scan", "ios": "https://dc.lft.to/lastmile_qr_scan"}, "name": "b74d19619f1e57ae36e4c9506fe61233", "lat": 38.90375866666667, "is_reserved": 0, "fusion_lon": 0.0, "fusion_lat": 0.0, "is_disabled": 0, "bike_id": "b74d19619f1e57ae36e4c9506fe61233", "lon": -77.03858416666667}, {"type": "electric_scooter", "rental_uris": {"android": "https://dc.lft.to/lastmile_qr_scan", "ios": "https://dc.lft.to/lastmile_qr_scan"}, "name": "5a34eace4f7092738b083257b9a0aae5", "lat": 38.895023, "is_reserved": 0, "fusion_lon": 0.0, "fusion_lat": 0.0, "is_disabled": 0, "bike_id": "5a34eace4f7092738b083257b9a0aae5", "lon": -77.04635933333333}, {"type": "electric_scooter", "rental_uris": {"android": "https://dc.lft.to/lastmile_qr_scan", "ios": "https://dc.lft.to/lastmile_qr_scan"}, "name": "b0bda250aa8bb6a8c256fb91397d2250", "lat": 38.894236, "is_reserved": 0, "fusion_lon": 0.0, "fusion_lat": 0.0, "is_disabled": 0, "bike_id": "b0bda250aa8bb6a8c256fb91397d2250", "lon": -76.99776283333334}, {"type": "electric_scooter", "rental_uris": {"android": "https://dc.lft.to/lastmile_qr_scan", "ios": "https://dc.lft.to/lastmile_qr_scan"}, "name": "ae33de8a8134423cf607e197b3623ac4", "lat": 38.90181066666667, "is_reserved": 0, "fusion_lon": 0.0, "fusion_lat": 0.0, "is_disabled": 0, "bike_id": "ae33de8a8134423cf607e197b3623ac4", "lon": -77.02512966666667}, {"type": "electric_scooter", "rental_uris": {"android": "https://dc.lft.to/lastmile_qr_scan", "ios": "https://dc.lft.to/lastmile_qr_scan"}, "name": "96c319445bc4067a25c59ae88076fe92", "lat": 38.8762285, "is_reserved": 0, "fusion_lon": 0.0, "fusion_lat": 0.0, "is_disabled": 0, "bike_id": "96c319445bc4067a25c59ae88076fe92", "lon": -77.00265483333334}, {"type": "electric_scooter", "rental_uris": {"android": "https://dc.lft.to/lastmile_qr_scan", "ios": "https://dc.lft.to/lastmile_qr_scan"}, "name": "d34b6ac14cdfb0029eb76ca440337425", "lat": 38.8822095, "is_reserved": 0, "fusion_lon": 0.0, "fusion_lat": 0.0, "is_disabled": 0, "bike_id": "d34b6ac14cdfb0029eb76ca440337425", "lon": -76.9392325}, {"type": "electric_scooter", "rental_uris": {"android": "https://dc.lft.to/lastmile_qr_scan", "ios": "https://dc.lft.to/lastmile_qr_scan"}, "name": "7d1cda0923b105ee5c52a54746a30e29", "lat": 38.90053966666667, "is_reserved": 0, "fusion_lon": 0.0, "fusion_lat": 0.0, "is_disabled": 0, "bike_id": "7d1cda0923b105ee5c52a54746a30e29", "lon": -77.0239675}, {"type": "electric_bike", "rental_uris": {"android": "https://dc.lft.to/lastmile_qr_scan", "ios": "https://dc.lft.to/lastmile_qr_scan"}, "name": "3ead3673aa8f27089ababc3b9ea3b168", "lat": 39.038118, "is_reserved": 0, "fusion_lon": 0.0, "fusion_lat": 0.0, "is_disabled": 0, "bike_id": "3ead3673aa8f27089ababc3b9ea3b168", "lon": -77.04223783333333}, {"type": "electric_scooter", "rental_uris": {"android": "https://dc.lft.to/lastmile_qr_scan", "ios": "https://dc.lft.to/lastmile_qr_scan"}, "name": "663d6cf1a3ba6c9ed4e8d27f0a63ddc5", "lat": 38.892204666666665, "is_reserved": 0, "fusion_lon": 0.0, "fusion_lat": 0.0, "is_disabled": 0, "bike_id": "663d6cf1a3ba6c9ed4e8d27f0a63ddc5", "lon": -77.04366733333333}, {"type": "electric_scooter", "rental_uris": {"android": "https://dc.lft.to/lastmile_qr_scan", "ios": "https://dc.lft.to/lastmile_qr_scan"}, "name": "1825949436cf3cd23dfaca23f2116d81", "lat": 38.9430575, "is_reserved": 0, "fusion_lon": 0.0, "fusion_lat": 0.0, "is_disabled": 0, "bike_id": "1825949436cf3cd23dfaca23f2116d81", "lon": -77.03459833333334}, {"type": "electric_scooter", "rental_uris": {"android": "https://dc.lft.to/lastmile_qr_scan", "ios": "https://dc.lft.to/lastmile_qr_scan"}, "name": "230149285351c558f9339bfbb31c352d", "lat": 38.92468266666667, "is_reserved": 0, "fusion_lon": 0.0, "fusion_lat": 0.0, "is_disabled": 0, "bike_id": "230149285351c558f9339bfbb31c352d", "lon": -77.03830066666667}, {"type": "electric_scooter", "rental_uris": {"android": "https://dc.lft.to/lastmile_qr_scan", "ios": "https://dc.lft.to/lastmile_qr_scan"}, "name": "fa980e440e7298be63cc8e837a002970", "lat": 38.895452166666665, "is_reserved": 0, "fusion_lon": 0.0, "fusion_lat": 0.0, "is_disabled": 0, "bike_id": "fa980e440e7298be63cc8e837a002970", "lon": -76.98338483333333}, {"type": "electric_scooter", "rental_uris": {"android": "https://dc.lft.to/lastmile_qr_scan", "ios": "https://dc.lft.to/lastmile_qr_scan"}, "name": "0c8f83d7652b8d4211558a4fa71350e9", "lat": 38.917051666666666, "is_reserved": 0, "fusion_lon": 0.0, "fusion_lat": 0.0, "is_disabled": 0, "bike_id": "0c8f83d7652b8d4211558a4fa71350e9", "lon": -77.0296}, {"type": "electric_scooter", "rental_uris": {"android": "https://dc.lft.to/lastmile_qr_scan", "ios": "https://dc.lft.to/lastmile_qr_scan"}, "name": "309fb58d35bbd0079eefd55aa77a55ec", "lat": 38.9446285, "is_reserved": 0, "fusion_lon": 0.0, "fusion_lat": 0.0, "is_disabled": 0, "bike_id": "309fb58d35bbd0079eefd55aa77a55ec", "lon": -77.06388533333333}, {"type": "electric_scooter", "rental_uris": {"android": "https://dc.lft.to/lastmile_qr_scan", "ios": "https://dc.lft.to/lastmile_qr_scan"}, "name": "5f735751d6742450750b91b921f3b781", "lat": 38.899772666666664, "is_reserved": 0, "fusion_lon": 0.0, "fusion_lat": 0.0, "is_disabled": 0, "bike_id": "5f735751d6742450750b91b921f3b781", "lon": -77.03392816666667}, {"type": "electric_scooter", "rental_uris": {"android": "https://dc.lft.to/lastmile_qr_scan", "ios": "https://dc.lft.to/lastmile_qr_scan"}, "name": "84140a8801b9c5c9588becfdca173e3e", "lat": 38.899418, "is_reserved": 0, "fusion_lon": 0.0, "fusion_lat": 0.0, "is_disabled": 0, "bike_id": "84140a8801b9c5c9588becfdca173e3e", "lon": -77.02814216666667}, {"type": "electric_scooter", "rental_uris": {"android": "https://dc.lft.to/lastmile_qr_scan", "ios": "https://dc.lft.to/lastmile_qr_scan"}, "name": "1afa2ba710f45736bf52bec9b7384ed2", "lat": 38.90247816666667, "is_reserved": 0, "fusion_lon": 0.0, "fusion_lat": 0.0, "is_disabled": 0, "bike_id": "1afa2ba710f45736bf52bec9b7384ed2", "lon": -77.04590633333333}, {"type": "electric_scooter", "rental_uris": {"android": "https://dc.lft.to/lastmile_qr_scan", "ios": "https://dc.lft.to/lastmile_qr_scan"}, "name": "a71fbf4c722acaa694bb1ffdb031574b", "lat": 38.93036016666667, "is_reserved": 0, "fusion_lon": 0.0, "fusion_lat": 0.0, "is_disabled": 0, "bike_id": "a71fbf4c722acaa694bb1ffdb031574b", "lon": -77.0329795}, {"type": "electric_bike", "rental_uris": {"android": "https://dc.lft.to/lastmile_qr_scan", "ios": "https://dc.lft.to/lastmile_qr_scan"}, "name": "e0dc56eff6c6ffc12e04856d3e5394ca", "lat": 38.89834033333333, "is_reserved": 0, "fusion_lon": 0.0, "fusion_lat": 0.0, "is_disabled": 0, "bike_id": "e0dc56eff6c6ffc12e04856d3e5394ca", "lon": -77.04682983333333}, {"type": "electric_scooter", "rental_uris": {"android": "https://dc.lft.to/lastmile_qr_scan", "ios": "https://dc.lft.to/lastmile_qr_scan"}, "name": "f04a920ebf4b4e18ed13107efcf6c6ed", "lat": 38.8988325, "is_reserved": 0, "fusion_lon": 0.0, "fusion_lat": 0.0, "is_disabled": 0, "bike_id": "f04a920ebf4b4e18ed13107efcf6c6ed", "lon": -76.988395}, {"type": "electric_scooter", "rental_uris": {"android": "https://dc.lft.to/lastmile_qr_scan", "ios": "https://dc.lft.to/lastmile_qr_scan"}, "name": "e779109b92dff3e7de922ce31ce9fb44", "lat": 38.880514166666664, "is_reserved": 0, "fusion_lon": 0.0, "fusion_lat": 0.0, "is_disabled": 0, "bike_id": "e779109b92dff3e7de922ce31ce9fb44", "lon": -77.0036065}, {"type": "electric_scooter", "rental_uris": {"android": "https://dc.lft.to/lastmile_qr_scan", "ios": "https://dc.lft.to/lastmile_qr_scan"}, "name": "84817e190652de695d282e41b6a8f61c", "lat": 38.9184205, "is_reserved": 0, "fusion_lon": 0.0, "fusion_lat": 0.0, "is_disabled": 0, "bike_id": "84817e190652de695d282e41b6a8f61c", "lon": -77.03859616666666}, {"type": "electric_bike", "rental_uris": {"android": "https://dc.lft.to/lastmile_qr_scan", "ios": "https://dc.lft.to/lastmile_qr_scan"}, "name": "da496c9dde81879b9d165d7101eb70ad", "lat": 38.865863, "is_reserved": 0, "fusion_lon": 0.0, "fusion_lat": 0.0, "is_disabled": 0, "bike_id": "da496c9dde81879b9d165d7101eb70ad", "lon": -76.99036266666667}, {"type": "electric_scooter", "rental_uris": {"android": "https://dc.lft.to/lastmile_qr_scan", "ios": "https://dc.lft.to/lastmile_qr_scan"}, "name": "ccccf6f3f460787b952af31065130cc2", "lat": 38.917106833333335, "is_reserved": 0, "fusion_lon": 0.0, "fusion_lat": 0.0, "is_disabled": 0, "bike_id": "ccccf6f3f460787b952af31065130cc2", "lon": -77.0386755}, {"type": "electric_scooter", "rental_uris": {"android": "https://dc.lft.to/lastmile_qr_scan", "ios": "https://dc.lft.to/lastmile_qr_scan"}, "name": "dd17fc1c2a938b1d4b06734c96b1d597", "lat": 38.93636516666667, "is_reserved": 0, "fusion_lon": 0.0, "fusion_lat": 0.0, "is_disabled": 0, "bike_id": "dd17fc1c2a938b1d4b06734c96b1d597", "lon": -77.0326115}, {"type": "electric_scooter", "rental_uris": {"android": "https://dc.lft.to/lastmile_qr_scan", "ios": "https://dc.lft.to/lastmile_qr_scan"}, "name": "5bb7b94d7daf5d00f84ad8fd340c7008", "lat": 38.940256833333336, "is_reserved": 0, "fusion_lon": 0.0, "fusion_lat": 0.0, "is_disabled": 0, "bike_id": "5bb7b94d7daf5d00f84ad8fd340c7008", "lon": -77.02511016666666}, {"type": "electric_scooter", "rental_uris": {"android": "https://dc.lft.to/lastmile_qr_scan", "ios": "https://dc.lft.to/lastmile_qr_scan"}, "name": "3ee637ab742c9e529dafc3b2b38da00a", "lat": 38.92595433333334, "is_reserved": 0, "fusion_lon": 0.0, "fusion_lat": 0.0, "is_disabled": 0, "bike_id": "3ee637ab742c9e529dafc3b2b38da00a", "lon": -77.0215605}, {"type": "electric_scooter", "rental_uris": {"android": "https://dc.lft.to/lastmile_qr_scan", "ios": "https://dc.lft.to/lastmile_qr_scan"}, "name": "14f920b3cbf81196469e9d6f06edc17e", "lat": 38.90560283333333, "is_reserved": 0, "fusion_lon": 0.0, "fusion_lat": 0.0, "is_disabled": 0, "bike_id": "14f920b3cbf81196469e9d6f06edc17e", "lon": -77.0055725}, {"type": "electric_scooter", "rental_uris": {"android": "https://dc.lft.to/lastmile_qr_scan", "ios": "https://dc.lft.to/lastmile_qr_scan"}, "name": "f63d27532ed781282fd9bdba795d6c06", "lat": 38.89007933333333, "is_reserved": 0, "fusion_lon": 0.0, "fusion_lat": 0.0, "is_disabled": 0, "bike_id": "f63d27532ed781282fd9bdba795d6c06", "lon": -76.9371675}, {"type": "electric_scooter", "rental_uris": {"android": "https://dc.lft.to/lastmile_qr_scan", "ios": "https://dc.lft.to/lastmile_qr_scan"}, "name": "6cdcc0a388e6db8a725a413a9289ba55", "lat": 38.875922333333335, "is_reserved": 0, "fusion_lon": 0.0, "fusion_lat": 0.0, "is_disabled": 0, "bike_id": "6cdcc0a388e6db8a725a413a9289ba55", "lon": -77.00581083333333}, {"type": "electric_scooter", "rental_uris": {"android": "https://dc.lft.to/lastmile_qr_scan", "ios": "https://dc.lft.to/lastmile_qr_scan"}, "name": "99d9328f8c95de340bd331049e7b882c", "lat": 38.9058925, "is_reserved": 0, "fusion_lon": 0.0, "fusion_lat": 0.0, "is_disabled": 0, "bike_id": "99d9328f8c95de340bd331049e7b882c", "lon": -76.99313366666667}, {"type": "electric_scooter", "rental_uris": {"android": "https://dc.lft.to/lastmile_qr_scan", "ios": "https://dc.lft.to/lastmile_qr_scan"}, "name": "7fe7fe75c46f30c1f2c485fb46335c99", "lat": 38.898779, "is_reserved": 0, "fusion_lon": 0.0, "fusion_lat": 0.0, "is_disabled": 0, "bike_id": "7fe7fe75c46f30c1f2c485fb46335c99", "lon": -76.988412}, {"type": "electric_scooter", "rental_uris": {"android": "https://dc.lft.to/lastmile_qr_scan", "ios": "https://dc.lft.to/lastmile_qr_scan"}, "name": "d7bf41f598b8e904c19eabc7c7f78a3f", "lat": 38.92665433333333, "is_reserved": 0, "fusion_lon": 0.0, "fusion_lat": 0.0, "is_disabled": 0, "bike_id": "d7bf41f598b8e904c19eabc7c7f78a3f", "lon": -77.030306}, {"type": "electric_scooter", "rental_uris": {"android": "https://dc.lft.to/lastmile_qr_scan", "ios": "https://dc.lft.to/lastmile_qr_scan"}, "name": "1ae8369758935074ad7edc1503a50428", "lat": 38.9260825, "is_reserved": 0, "fusion_lon": 0.0, "fusion_lat": 0.0, "is_disabled": 0, "bike_id": "1ae8369758935074ad7edc1503a50428", "lon": -77.02163316666666}, {"type": "electric_scooter", "rental_uris": {"android": "https://dc.lft.to/lastmile_qr_scan", "ios": "https://dc.lft.to/lastmile_qr_scan"}, "name": "40ff4cabc5a75bfc4ff5a82098f3591f", "lat": 38.908274166666665, "is_reserved": 0, "fusion_lon": 0.0, "fusion_lat": 0.0, "is_disabled": 0, "bike_id": "40ff4cabc5a75bfc4ff5a82098f3591f", "lon": -76.996945}, {"type": "electric_scooter", "rental_uris": {"android": "https://dc.lft.to/lastmile_qr_scan", "ios": "https://dc.lft.to/lastmile_qr_scan"}, "name": "202850d595a7fc9ccc2d629c8712f567", "lat": 38.91702516666667, "is_reserved": 0, "fusion_lon": 0.0, "fusion_lat": 0.0, "is_disabled": 0, "bike_id": "202850d595a7fc9ccc2d629c8712f567", "lon": -77.03117966666667}, {"type": "electric_scooter", "rental_uris": {"android": "https://dc.lft.to/lastmile_qr_scan", "ios": "https://dc.lft.to/lastmile_qr_scan"}, "name": "1c3b2cb6ca71e8b637d971d1eebc1eee", "lat": 38.90163233333333, "is_reserved": 0, "fusion_lon": 0.0, "fusion_lat": 0.0, "is_disabled": 0, "bike_id": "1c3b2cb6ca71e8b637d971d1eebc1eee", "lon": -77.03422666666667}, {"type": "electric_scooter", "rental_uris": {"android": "https://dc.lft.to/lastmile_qr_scan", "ios": "https://dc.lft.to/lastmile_qr_scan"}, "name": "4083053203ceb2a3368138a5fb042533", "lat": 38.903751666666665, "is_reserved": 0, "fusion_lon": 0.0, "fusion_lat": 0.0, "is_disabled": 0, "bike_id": "4083053203ceb2a3368138a5fb042533", "lon": -77.00884233333333}, {"type": "electric_scooter", "rental_uris": {"android": "https://dc.lft.to/lastmile_qr_scan", "ios": "https://dc.lft.to/lastmile_qr_scan"}, "name": "d2a4ca4b5177a983f19d6999262a3ab1", "lat": 38.89197516666667, "is_reserved": 0, "fusion_lon": 0.0, "fusion_lat": 0.0, "is_disabled": 0, "bike_id": "d2a4ca4b5177a983f19d6999262a3ab1", "lon": -77.00296533333334}, {"type": "electric_scooter", "rental_uris": {"android": "https://dc.lft.to/lastmile_qr_scan", "ios": "https://dc.lft.to/lastmile_qr_scan"}, "name": "5d78cf6ef682e965f0dbb81dacc30dc7", "lat": 38.90012333333333, "is_reserved": 0, "fusion_lon": 0.0, "fusion_lat": 0.0, "is_disabled": 0, "bike_id": "5d78cf6ef682e965f0dbb81dacc30dc7", "lon": -76.93025566666667}, {"type": "electric_scooter", "rental_uris": {"android": "https://dc.lft.to/lastmile_qr_scan", "ios": "https://dc.lft.to/lastmile_qr_scan"}, "name": "6f359992e80dad5b63a08365dd0e20e1", "lat": 38.89301916666667, "is_reserved": 0, "fusion_lon": 0.0, "fusion_lat": 0.0, "is_disabled": 0, "bike_id": "6f359992e80dad5b63a08365dd0e20e1", "lon": -76.9298625}, {"type": "electric_scooter", "rental_uris": {"android": "https://dc.lft.to/lastmile_qr_scan", "ios": "https://dc.lft.to/lastmile_qr_scan"}, "name": "fc483eb077aa457c3f2d7bc5e1799c57", "lat": 38.9002345, "is_reserved": 0, "fusion_lon": 0.0, "fusion_lat": 0.0, "is_disabled": 0, "bike_id": "fc483eb077aa457c3f2d7bc5e1799c57", "lon": -77.00203683333334}, {"type": "electric_scooter", "rental_uris": {"android": "https://dc.lft.to/lastmile_qr_scan", "ios": "https://dc.lft.to/lastmile_qr_scan"}, "name": "b21a7f0906b7836d00082809720d208c", "lat": 38.92647633333333, "is_reserved": 0, "fusion_lon": 0.0, "fusion_lat": 0.0, "is_disabled": 0, "bike_id": "b21a7f0906b7836d00082809720d208c", "lon": -77.040554}, {"type": "electric_scooter", "rental_uris": {"android": "https://dc.lft.to/lastmile_qr_scan", "ios": "https://dc.lft.to/lastmile_qr_scan"}, "name": "4d84d9723d0c5d8d93fd1f9c4f8c4ac1", "lat": 38.8881775, "is_reserved": 0, "fusion_lon": 0.0, "fusion_lat": 0.0, "is_disabled": 0, "bike_id": "4d84d9723d0c5d8d93fd1f9c4f8c4ac1", "lon": -76.97700516666667}, {"type": "electric_scooter", "rental_uris": {"android": "https://dc.lft.to/lastmile_qr_scan", "ios": "https://dc.lft.to/lastmile_qr_scan"}, "name": "e5be6f510a30a3ba65190e40ba1a19ea", "lat": 38.9162415, "is_reserved": 0, "fusion_lon": 0.0, "fusion_lat": 0.0, "is_disabled": 0, "bike_id": "e5be6f510a30a3ba65190e40ba1a19ea", "lon": -77.001908}, {"type": "electric_scooter", "rental_uris": {"android": "https://dc.lft.to/lastmile_qr_scan", "ios": "https://dc.lft.to/lastmile_qr_scan"}, "name": "273dea053ab36575ae157f2cd4f8f41a", "lat": 38.89963266666667, "is_reserved": 0, "fusion_lon": 0.0, "fusion_lat": 0.0, "is_disabled": 0, "bike_id": "273dea053ab36575ae157f2cd4f8f41a", "lon": -77.03190666666667}, {"type": "electric_scooter", "rental_uris": {"android": "https://dc.lft.to/lastmile_qr_scan", "ios": "https://dc.lft.to/lastmile_qr_scan"}, "name": "30274591e0c7832fd7148bac1022eea2", "lat": 38.926359833333336, "is_reserved": 0, "fusion_lon": 0.0, "fusion_lat": 0.0, "is_disabled": 0, "bike_id": "30274591e0c7832fd7148bac1022eea2", "lon": -77.04060166666666}, {"type": "electric_scooter", "rental_uris": {"android": "https://dc.lft.to/lastmile_qr_scan", "ios": "https://dc.lft.to/lastmile_qr_scan"}, "name": "90cdcc1ad1e96c2000ed75a6c96f9d6a", "lat": 38.9279155, "is_reserved": 0, "fusion_lon": 0.0, "fusion_lat": 0.0, "is_disabled": 0, "bike_id": "90cdcc1ad1e96c2000ed75a6c96f9d6a", "lon": -77.05538333333334}, {"type": "electric_scooter", "rental_uris": {"android": "https://dc.lft.to/lastmile_qr_scan", "ios": "https://dc.lft.to/lastmile_qr_scan"}, "name": "1fb51f9fa639cce08effdc32e949529f", "lat": 38.922545, "is_reserved": 0, "fusion_lon": 0.0, "fusion_lat": 0.0, "is_disabled": 0, "bike_id": "1fb51f9fa639cce08effdc32e949529f", "lon": -77.01949266666666}, {"type": "electric_bike", "rental_uris": {"android": "https://dc.lft.to/lastmile_qr_scan", "ios": "https://dc.lft.to/lastmile_qr_scan"}, "name": "9b728167f9a331faef1b35690a4e3cd6", "lat": 38.8939835, "is_reserved": 0, "fusion_lon": 0.0, "fusion_lat": 0.0, "is_disabled": 0, "bike_id": "9b728167f9a331faef1b35690a4e3cd6", "lon": -76.86852283333333}, {"type": "electric_scooter", "rental_uris": {"android": "https://dc.lft.to/lastmile_qr_scan", "ios": "https://dc.lft.to/lastmile_qr_scan"}, "name": "a7d851966d8183ce2923ff2ab96ee99c", "lat": 38.8767365, "is_reserved": 0, "fusion_lon": 0.0, "fusion_lat": 0.0, "is_disabled": 0, "bike_id": "a7d851966d8183ce2923ff2ab96ee99c", "lon": -77.02000466666667}, {"type": "electric_scooter", "rental_uris": {"android": "https://dc.lft.to/lastmile_qr_scan", "ios": "https://dc.lft.to/lastmile_qr_scan"}, "name": "b4133a13b8a971119e2282599387bc4c", "lat": 38.9205845, "is_reserved": 0, "fusion_lon": 0.0, "fusion_lat": 0.0, "is_disabled": 0, "bike_id": "b4133a13b8a971119e2282599387bc4c", "lon": -77.02300033333333}, {"type": "electric_scooter", "rental_uris": {"android": "https://dc.lft.to/lastmile_qr_scan", "ios": "https://dc.lft.to/lastmile_qr_scan"}, "name": "6b6e3428402646df9d9f8b84859759fc", "lat": 38.89532233333333, "is_reserved": 0, "fusion_lon": 0.0, "fusion_lat": 0.0, "is_disabled": 0, "bike_id": "6b6e3428402646df9d9f8b84859759fc", "lon": -77.03117333333333}, {"type": "electric_scooter", "rental_uris": {"android": "https://dc.lft.to/lastmile_qr_scan", "ios": "https://dc.lft.to/lastmile_qr_scan"}, "name": "36dc1679421c0b1e5db609a5d1e5b9bb", "lat": 38.921247666666666, "is_reserved": 0, "fusion_lon": 0.0, "fusion_lat": 0.0, "is_disabled": 0, "bike_id": "36dc1679421c0b1e5db609a5d1e5b9bb", "lon": -77.02099133333333}, {"type": "electric_scooter", "rental_uris": {"android": "https://dc.lft.to/lastmile_qr_scan", "ios": "https://dc.lft.to/lastmile_qr_scan"}, "name": "04e024d1b18a88e031168f9a1fb8b4d6", "lat": 38.9072605, "is_reserved": 0, "fusion_lon": 0.0, "fusion_lat": 0.0, "is_disabled": 0, "bike_id": "04e024d1b18a88e031168f9a1fb8b4d6", "lon": -77.03188016666667}, {"type": "electric_scooter", "rental_uris": {"android": "https://dc.lft.to/lastmile_qr_scan", "ios": "https://dc.lft.to/lastmile_qr_scan"}, "name": "310b3f59d16638eea3b61424a047581b", "lat": 38.911068666666665, "is_reserved": 0, "fusion_lon": 0.0, "fusion_lat": 0.0, "is_disabled": 0, "bike_id": "310b3f59d16638eea3b61424a047581b", "lon": -77.04458916666667}, {"type": "electric_scooter", "rental_uris": {"android": "https://dc.lft.to/lastmile_qr_scan", "ios": "https://dc.lft.to/lastmile_qr_scan"}, "name": "ea379b122105db45481f4e138542fe87", "lat": 38.903889166666666, "is_reserved": 0, "fusion_lon": 0.0, "fusion_lat": 0.0, "is_disabled": 0, "bike_id": "ea379b122105db45481f4e138542fe87", "lon": -76.98102933333334}, {"type": "electric_scooter", "rental_uris": {"android": "https://dc.lft.to/lastmile_qr_scan", "ios": "https://dc.lft.to/lastmile_qr_scan"}, "name": "cff4e91a7e135d55dfee88b42dd5e570", "lat": 38.90426, "is_reserved": 0, "fusion_lon": 0.0, "fusion_lat": 0.0, "is_disabled": 0, "bike_id": "cff4e91a7e135d55dfee88b42dd5e570", "lon": -77.02506933333333}, {"type": "electric_scooter", "rental_uris": {"android": "https://dc.lft.to/lastmile_qr_scan", "ios": "https://dc.lft.to/lastmile_qr_scan"}, "name": "ec2d83028a802c86bbaae33321d27ee9", "lat": 38.907741333333334, "is_reserved": 0, "fusion_lon": 0.0, "fusion_lat": 0.0, "is_disabled": 0, "bike_id": "ec2d83028a802c86bbaae33321d27ee9", "lon": -77.0244715}, {"type": "electric_scooter", "rental_uris": {"android": "https://dc.lft.to/lastmile_qr_scan", "ios": "https://dc.lft.to/lastmile_qr_scan"}, "name": "31c6907575a36dde52feb22cc3240d6b", "lat": 38.91120433333333, "is_reserved": 0, "fusion_lon": 0.0, "fusion_lat": 0.0, "is_disabled": 0, "bike_id": "31c6907575a36dde52feb22cc3240d6b", "lon": -77.04365166666666}, {"type": "electric_scooter", "rental_uris": {"android": "https://dc.lft.to/lastmile_qr_scan", "ios": "https://dc.lft.to/lastmile_qr_scan"}, "name": "d895dd46c66eae67fa761ed3c44ae5bc", "lat": 38.92504, "is_reserved": 0, "fusion_lon": 0.0, "fusion_lat": 0.0, "is_disabled": 0, "bike_id": "d895dd46c66eae67fa761ed3c44ae5bc", "lon": -77.0377195}, {"type": "electric_scooter", "rental_uris": {"android": "https://dc.lft.to/lastmile_qr_scan", "ios": "https://dc.lft.to/lastmile_qr_scan"}, "name": "ae577e31ee49d11c363988a14edd16ce", "lat": 38.8850245, "is_reserved": 0, "fusion_lon": 0.0, "fusion_lat": 0.0, "is_disabled": 0, "bike_id": "ae577e31ee49d11c363988a14edd16ce", "lon": -77.00220983333334}, {"type": "electric_scooter", "rental_uris": {"android": "https://dc.lft.to/lastmile_qr_scan", "ios": "https://dc.lft.to/lastmile_qr_scan"}, "name": "986f814adcabd13042ed5fa40cb660cb", "lat": 38.9038445, "is_reserved": 0, "fusion_lon": 0.0, "fusion_lat": 0.0, "is_disabled": 0, "bike_id": "986f814adcabd13042ed5fa40cb660cb", "lon": -77.0283445}, {"type": "electric_scooter", "rental_uris": {"android": "https://dc.lft.to/lastmile_qr_scan", "ios": "https://dc.lft.to/lastmile_qr_scan"}, "name": "adde45eb6de15a628b9013346146f57f", "lat": 38.926018, "is_reserved": 0, "fusion_lon": 0.0, "fusion_lat": 0.0, "is_disabled": 0, "bike_id": "adde45eb6de15a628b9013346146f57f", "lon": -77.0215625}, {"type": "electric_scooter", "rental_uris": {"android": "https://dc.lft.to/lastmile_qr_scan", "ios": "https://dc.lft.to/lastmile_qr_scan"}, "name": "157c37b1d6579c835d0aded1d060435a", "lat": 38.91356566666666, "is_reserved": 0, "fusion_lon": 0.0, "fusion_lat": 0.0, "is_disabled": 0, "bike_id": "157c37b1d6579c835d0aded1d060435a", "lon": -77.019951}, {"type": "electric_bike", "rental_uris": {"android": "https://dc.lft.to/lastmile_qr_scan", "ios": "https://dc.lft.to/lastmile_qr_scan"}, "name": "fe2858e861685c67a6d50a607a574a69", "lat": 39.01094633333334, "is_reserved": 0, "fusion_lon": 0.0, "fusion_lat": 0.0, "is_disabled": 0, "bike_id": "fe2858e861685c67a6d50a607a574a69", "lon": -77.04960916666667}, {"type": "electric_bike", "rental_uris": {"android": "https://dc.lft.to/lastmile_qr_scan", "ios": "https://dc.lft.to/lastmile_qr_scan"}, "name": "f31b8712f9484afe6bad6aae000770d9", "lat": 38.813330666666666, "is_reserved": 0, "fusion_lon": 0.0, "fusion_lat": 0.0, "is_disabled": 0, "bike_id": "f31b8712f9484afe6bad6aae000770d9", "lon": -77.050846}, {"type": "electric_scooter", "rental_uris": {"android": "https://dc.lft.to/lastmile_qr_scan", "ios": "https://dc.lft.to/lastmile_qr_scan"}, "name": "544cab696d4b54dee0a72a3e7cbcfeb7", "lat": 38.907368166666664, "is_reserved": 0, "fusion_lon": 0.0, "fusion_lat": 0.0, "is_disabled": 0, "bike_id": "544cab696d4b54dee0a72a3e7cbcfeb7", "lon": -77.01308916666666}, {"type": "electric_scooter", "rental_uris": {"android": "https://dc.lft.to/lastmile_qr_scan", "ios": "https://dc.lft.to/lastmile_qr_scan"}, "name": "471a56ae2862fc27fd874f42ee586b42", "lat": 38.90308433333333, "is_reserved": 0, "fusion_lon": 0.0, "fusion_lat": 0.0, "is_disabled": 0, "bike_id": "471a56ae2862fc27fd874f42ee586b42", "lon": -77.02210466666666}, {"type": "electric_scooter", "rental_uris": {"android": "https://dc.lft.to/lastmile_qr_scan", "ios": "https://dc.lft.to/lastmile_qr_scan"}, "name": "8843c2f5052c84e79792500d5c69abe1", "lat": 38.914883333333336, "is_reserved": 0, "fusion_lon": 0.0, "fusion_lat": 0.0, "is_disabled": 0, "bike_id": "8843c2f5052c84e79792500d5c69abe1", "lon": -77.03248983333333}, {"type": "electric_scooter", "rental_uris": {"android": "https://dc.lft.to/lastmile_qr_scan", "ios": "https://dc.lft.to/lastmile_qr_scan"}, "name": "54d4f5daeb0e0e194a39ff9aae3c31da", "lat": 38.912586166666664, "is_reserved": 0, "fusion_lon": 0.0, "fusion_lat": 0.0, "is_disabled": 0, "bike_id": "54d4f5daeb0e0e194a39ff9aae3c31da", "lon": -77.039358}, {"type": "electric_scooter", "rental_uris": {"android": "https://dc.lft.to/lastmile_qr_scan", "ios": "https://dc.lft.to/lastmile_qr_scan"}, "name": "15f6df59174bffe29d2a3df5d900030c", "lat": 38.923961, "is_reserved": 0, "fusion_lon": 0.0, "fusion_lat": 0.0, "is_disabled": 0, "bike_id": "15f6df59174bffe29d2a3df5d900030c", "lon": -76.99596283333334}, {"type": "electric_scooter", "rental_uris": {"android": "https://dc.lft.to/lastmile_qr_scan", "ios": "https://dc.lft.to/lastmile_qr_scan"}, "name": "b675cd297bfe74b47b4fd844499ed952", "lat": 38.89021616666667, "is_reserved": 0, "fusion_lon": 0.0, "fusion_lat": 0.0, "is_disabled": 0, "bike_id": "b675cd297bfe74b47b4fd844499ed952", "lon": -76.93718483333333}, {"type": "electric_scooter", "rental_uris": {"android": "https://dc.lft.to/lastmile_qr_scan", "ios": "https://dc.lft.to/lastmile_qr_scan"}, "name": "9ba8975425f2538530094e422106373c", "lat": 38.890206166666665, "is_reserved": 0, "fusion_lon": 0.0, "fusion_lat": 0.0, "is_disabled": 0, "bike_id": "9ba8975425f2538530094e422106373c", "lon": -76.937153}, {"type": "electric_scooter", "rental_uris": {"android": "https://dc.lft.to/lastmile_qr_scan", "ios": "https://dc.lft.to/lastmile_qr_scan"}, "name": "d1c320cea06162e2cedd8d28b81646ba", "lat": 38.89681216666666, "is_reserved": 0, "fusion_lon": 0.0, "fusion_lat": 0.0, "is_disabled": 0, "bike_id": "d1c320cea06162e2cedd8d28b81646ba", "lon": -76.93666416666667}, {"type": "electric_bike", "rental_uris": {"android": "https://dc.lft.to/lastmile_qr_scan", "ios": "https://dc.lft.to/lastmile_qr_scan"}, "name": "07a5de0252c80df5f9991605c1560b46", "lat": 38.80382566666667, "is_reserved": 0, "fusion_lon": 0.0, "fusion_lat": 0.0, "is_disabled": 0, "bike_id": "07a5de0252c80df5f9991605c1560b46", "lon": -76.9881655}, {"type": "electric_scooter", "rental_uris": {"android": "https://dc.lft.to/lastmile_qr_scan", "ios": "https://dc.lft.to/lastmile_qr_scan"}, "name": "9387cac27f56bcb66b2f731f615c0a04", "lat": 38.8921395, "is_reserved": 0, "fusion_lon": 0.0, "fusion_lat": 0.0, "is_disabled": 0, "bike_id": "9387cac27f56bcb66b2f731f615c0a04", "lon": -77.0262985}, {"type": "electric_scooter", "rental_uris": {"android": "https://dc.lft.to/lastmile_qr_scan", "ios": "https://dc.lft.to/lastmile_qr_scan"}, "name": "f4b547271e2fc27a6e1f30b53344dfe1", "lat": 38.909630666666665, "is_reserved": 0, "fusion_lon": 0.0, "fusion_lat": 0.0, "is_disabled": 0, "bike_id": "f4b547271e2fc27a6e1f30b53344dfe1", "lon": -77.03305666666667}, {"type": "electric_scooter", "rental_uris": {"android": "https://dc.lft.to/lastmile_qr_scan", "ios": "https://dc.lft.to/lastmile_qr_scan"}, "name": "20d264c7c0fec30e6ac8c0cf7f62dfcb", "lat": 38.88024, "is_reserved": 0, "fusion_lon": 0.0, "fusion_lat": 0.0, "is_disabled": 0, "bike_id": "20d264c7c0fec30e6ac8c0cf7f62dfcb", "lon": -76.94328033333333}, {"type": "electric_scooter", "rental_uris": {"android": "https://dc.lft.to/lastmile_qr_scan", "ios": "https://dc.lft.to/lastmile_qr_scan"}, "name": "30f0adb8d80887e4c79fef5ece77da90", "lat": 38.903948666666665, "is_reserved": 0, "fusion_lon": 0.0, "fusion_lat": 0.0, "is_disabled": 0, "bike_id": "30f0adb8d80887e4c79fef5ece77da90", "lon": -77.0365855}, {"type": "electric_scooter", "rental_uris": {"android": "https://dc.lft.to/lastmile_qr_scan", "ios": "https://dc.lft.to/lastmile_qr_scan"}, "name": "70d8682788449e091196dfc8394053b5", "lat": 38.866569, "is_reserved": 0, "fusion_lon": 0.0, "fusion_lat": 0.0, "is_disabled": 0, "bike_id": "70d8682788449e091196dfc8394053b5", "lon": -76.9790575}, {"type": "electric_scooter", "rental_uris": {"android": "https://dc.lft.to/lastmile_qr_scan", "ios": "https://dc.lft.to/lastmile_qr_scan"}, "name": "ff1fe2a778b9c2c715b77f0c240de82c", "lat": 38.897259, "is_reserved": 0, "fusion_lon": 0.0, "fusion_lat": 0.0, "is_disabled": 0, "bike_id": "ff1fe2a778b9c2c715b77f0c240de82c", "lon": -76.995136}, {"type": "electric_scooter", "rental_uris": {"android": "https://dc.lft.to/lastmile_qr_scan", "ios": "https://dc.lft.to/lastmile_qr_scan"}, "name": "cd561bb7f2e4b2b199cc4bd413029107", "lat": 38.905647, "is_reserved": 0, "fusion_lon": 0.0, "fusion_lat": 0.0, "is_disabled": 0, "bike_id": "cd561bb7f2e4b2b199cc4bd413029107", "lon": -77.03489116666667}, {"type": "electric_scooter", "rental_uris": {"android": "https://dc.lft.to/lastmile_qr_scan", "ios": "https://dc.lft.to/lastmile_qr_scan"}, "name": "2d42e537e95f6f753f4d9fb733e7a4d7", "lat": 38.918880333333334, "is_reserved": 0, "fusion_lon": 0.0, "fusion_lat": 0.0, "is_disabled": 0, "bike_id": "2d42e537e95f6f753f4d9fb733e7a4d7", "lon": -77.02745966666667}, {"type": "electric_scooter", "rental_uris": {"android": "https://dc.lft.to/lastmile_qr_scan", "ios": "https://dc.lft.to/lastmile_qr_scan"}, "name": "19427bab4217d9b60f831768fd1b6c96", "lat": 38.916114666666665, "is_reserved": 0, "fusion_lon": 0.0, "fusion_lat": 0.0, "is_disabled": 0, "bike_id": "19427bab4217d9b60f831768fd1b6c96", "lon": -77.022893}, {"type": "electric_scooter", "rental_uris": {"android": "https://dc.lft.to/lastmile_qr_scan", "ios": "https://dc.lft.to/lastmile_qr_scan"}, "name": "bda7765b4bf5b6cba344a306b84ae39b", "lat": 38.94172983333333, "is_reserved": 0, "fusion_lon": 0.0, "fusion_lat": 0.0, "is_disabled": 0, "bike_id": "bda7765b4bf5b6cba344a306b84ae39b", "lon": -77.03100916666666}, {"type": "electric_scooter", "rental_uris": {"android": "https://dc.lft.to/lastmile_qr_scan", "ios": "https://dc.lft.to/lastmile_qr_scan"}, "name": "c88a6dd54cbec9aed8efbeeef5a6d92a", "lat": 38.8764015, "is_reserved": 0, "fusion_lon": 0.0, "fusion_lat": 0.0, "is_disabled": 0, "bike_id": "c88a6dd54cbec9aed8efbeeef5a6d92a", "lon": -77.0006855}, {"type": "electric_scooter", "rental_uris": {"android": "https://dc.lft.to/lastmile_qr_scan", "ios": "https://dc.lft.to/lastmile_qr_scan"}, "name": "7b554f07c98213983579bb5d28dda38f", "lat": 38.928491333333334, "is_reserved": 0, "fusion_lon": 0.0, "fusion_lat": 0.0, "is_disabled": 0, "bike_id": "7b554f07c98213983579bb5d28dda38f", "lon": -77.05428316666666}, {"type": "electric_scooter", "rental_uris": {"android": "https://dc.lft.to/lastmile_qr_scan", "ios": "https://dc.lft.to/lastmile_qr_scan"}, "name": "e6817633d17811e6b064353ef0ba8235", "lat": 38.9015335, "is_reserved": 0, "fusion_lon": 0.0, "fusion_lat": 0.0, "is_disabled": 0, "bike_id": "e6817633d17811e6b064353ef0ba8235", "lon": -76.92134916666667}, {"type": "electric_scooter", "rental_uris": {"android": "https://dc.lft.to/lastmile_qr_scan", "ios": "https://dc.lft.to/lastmile_qr_scan"}, "name": "5524c845d90386907d7ab329e573d44d", "lat": 38.923792166666665, "is_reserved": 0, "fusion_lon": 0.0, "fusion_lat": 0.0, "is_disabled": 0, "bike_id": "5524c845d90386907d7ab329e573d44d", "lon": -77.02691666666666}, {"type": "electric_scooter", "rental_uris": {"android": "https://dc.lft.to/lastmile_qr_scan", "ios": "https://dc.lft.to/lastmile_qr_scan"}, "name": "d5ea7ca64246ccbcf8232efe46a02933", "lat": 38.85215516666667, "is_reserved": 0, "fusion_lon": 0.0, "fusion_lat": 0.0, "is_disabled": 0, "bike_id": "d5ea7ca64246ccbcf8232efe46a02933", "lon": -76.99430716666667}, {"type": "electric_scooter", "rental_uris": {"android": "https://dc.lft.to/lastmile_qr_scan", "ios": "https://dc.lft.to/lastmile_qr_scan"}, "name": "1cbea4b4bef0ecbf1c21cd691316ee28", "lat": 38.93616133333333, "is_reserved": 0, "fusion_lon": 0.0, "fusion_lat": 0.0, "is_disabled": 0, "bike_id": "1cbea4b4bef0ecbf1c21cd691316ee28", "lon": -77.03213783333334}, {"type": "electric_scooter", "rental_uris": {"android": "https://dc.lft.to/lastmile_qr_scan", "ios": "https://dc.lft.to/lastmile_qr_scan"}, "name": "bf69029aaa8d5b92db21e822250fa683", "lat": 38.902483833333335, "is_reserved": 0, "fusion_lon": 0.0, "fusion_lat": 0.0, "is_disabled": 0, "bike_id": "bf69029aaa8d5b92db21e822250fa683", "lon": -77.0334615}, {"type": "electric_scooter", "rental_uris": {"android": "https://dc.lft.to/lastmile_qr_scan", "ios": "https://dc.lft.to/lastmile_qr_scan"}, "name": "9940a14afcfa3b5b512fa67344013f90", "lat": 38.87859616666667, "is_reserved": 0, "fusion_lon": 0.0, "fusion_lat": 0.0, "is_disabled": 0, "bike_id": "9940a14afcfa3b5b512fa67344013f90", "lon": -77.01766716666667}, {"type": "electric_scooter", "rental_uris": {"android": "https://dc.lft.to/lastmile_qr_scan", "ios": "https://dc.lft.to/lastmile_qr_scan"}, "name": "be90e9c6bf0bf8afa1688e682cae146c", "lat": 38.87551, "is_reserved": 0, "fusion_lon": 0.0, "fusion_lat": 0.0, "is_disabled": 0, "bike_id": "be90e9c6bf0bf8afa1688e682cae146c", "lon": -77.00588183333333}, {"type": "electric_scooter", "rental_uris": {"android": "https://dc.lft.to/lastmile_qr_scan", "ios": "https://dc.lft.to/lastmile_qr_scan"}, "name": "1dcf7da72bdcbbbf925063598a24b0d2", "lat": 38.90521366666667, "is_reserved": 0, "fusion_lon": 0.0, "fusion_lat": 0.0, "is_disabled": 0, "bike_id": "1dcf7da72bdcbbbf925063598a24b0d2", "lon": -77.0617295}, {"type": "electric_scooter", "rental_uris": {"android": "https://dc.lft.to/lastmile_qr_scan", "ios": "https://dc.lft.to/lastmile_qr_scan"}, "name": "576e8dcdeb7127505e753f39b736bbc7", "lat": 38.913400333333335, "is_reserved": 0, "fusion_lon": 0.0, "fusion_lat": 0.0, "is_disabled": 0, "bike_id": "576e8dcdeb7127505e753f39b736bbc7", "lon": -76.98892266666667}, {"type": "electric_scooter", "rental_uris": {"android": "https://dc.lft.to/lastmile_qr_scan", "ios": "https://dc.lft.to/lastmile_qr_scan"}, "name": "e6d1fb98a4bcbe290b1c24663df2356b", "lat": 38.911277166666665, "is_reserved": 0, "fusion_lon": 0.0, "fusion_lat": 0.0, "is_disabled": 0, "bike_id": "e6d1fb98a4bcbe290b1c24663df2356b", "lon": -77.02198966666667}, {"type": "electric_scooter", "rental_uris": {"android": "https://dc.lft.to/lastmile_qr_scan", "ios": "https://dc.lft.to/lastmile_qr_scan"}, "name": "b402498cc730eb3a8a7068b5f5a1e1a7", "lat": 38.92116016666667, "is_reserved": 0, "fusion_lon": 0.0, "fusion_lat": 0.0, "is_disabled": 0, "bike_id": "b402498cc730eb3a8a7068b5f5a1e1a7", "lon": -77.0214375}, {"type": "electric_scooter", "rental_uris": {"android": "https://dc.lft.to/lastmile_qr_scan", "ios": "https://dc.lft.to/lastmile_qr_scan"}, "name": "ff444748dda4cf266c3e07b8d018335a", "lat": 38.9013955, "is_reserved": 0, "fusion_lon": 0.0, "fusion_lat": 0.0, "is_disabled": 0, "bike_id": "ff444748dda4cf266c3e07b8d018335a", "lon": -77.03188266666666}, {"type": "electric_scooter", "rental_uris": {"android": "https://dc.lft.to/lastmile_qr_scan", "ios": "https://dc.lft.to/lastmile_qr_scan"}, "name": "ce109b61140f72f99331c10bb8b194a2", "lat": 38.9155245, "is_reserved": 0, "fusion_lon": 0.0, "fusion_lat": 0.0, "is_disabled": 0, "bike_id": "ce109b61140f72f99331c10bb8b194a2", "lon": -77.03665266666667}, {"type": "electric_scooter", "rental_uris": {"android": "https://dc.lft.to/lastmile_qr_scan", "ios": "https://dc.lft.to/lastmile_qr_scan"}, "name": "49249c38615d53a467f14a71e499c5e5", "lat": 38.90016716666667, "is_reserved": 0, "fusion_lon": 0.0, "fusion_lat": 0.0, "is_disabled": 0, "bike_id": "49249c38615d53a467f14a71e499c5e5", "lon": -77.011549}, {"type": "electric_scooter", "rental_uris": {"android": "https://dc.lft.to/lastmile_qr_scan", "ios": "https://dc.lft.to/lastmile_qr_scan"}, "name": "d473ef44b9b33ee125f8144e99317c5d", "lat": 38.89967083333333, "is_reserved": 0, "fusion_lon": 0.0, "fusion_lat": 0.0, "is_disabled": 0, "bike_id": "d473ef44b9b33ee125f8144e99317c5d", "lon": -77.03079416666667}, {"type": "electric_bike", "rental_uris": {"android": "https://dc.lft.to/lastmile_qr_scan", "ios": "https://dc.lft.to/lastmile_qr_scan"}, "name": "d5f35640f493b6b176e9fa84c03f4721", "lat": 38.908266166666664, "is_reserved": 0, "fusion_lon": 0.0, "fusion_lat": 0.0, "is_disabled": 0, "bike_id": "d5f35640f493b6b176e9fa84c03f4721", "lon": -76.94159783333333}, {"type": "electric_scooter", "rental_uris": {"android": "https://dc.lft.to/lastmile_qr_scan", "ios": "https://dc.lft.to/lastmile_qr_scan"}, "name": "bc8de99c06b48aa14ba627a7af1e21b9", "lat": 38.87733466666667, "is_reserved": 0, "fusion_lon": 0.0, "fusion_lat": 0.0, "is_disabled": 0, "bike_id": "bc8de99c06b48aa14ba627a7af1e21b9", "lon": -77.00771366666666}, {"type": "electric_scooter", "rental_uris": {"android": "https://dc.lft.to/lastmile_qr_scan", "ios": "https://dc.lft.to/lastmile_qr_scan"}, "name": "93cd47cef7d6b68345a4c67fb2532df8", "lat": 38.905279666666665, "is_reserved": 0, "fusion_lon": 0.0, "fusion_lat": 0.0, "is_disabled": 0, "bike_id": "93cd47cef7d6b68345a4c67fb2532df8", "lon": -77.03992566666666}, {"type": "electric_scooter", "rental_uris": {"android": "https://dc.lft.to/lastmile_qr_scan", "ios": "https://dc.lft.to/lastmile_qr_scan"}, "name": "22989a53a7c22a4abae04b092e452cbc", "lat": 38.88500966666667, "is_reserved": 0, "fusion_lon": 0.0, "fusion_lat": 0.0, "is_disabled": 0, "bike_id": "22989a53a7c22a4abae04b092e452cbc", "lon": -77.01515866666666}, {"type": "electric_scooter", "rental_uris": {"android": "https://dc.lft.to/lastmile_qr_scan", "ios": "https://dc.lft.to/lastmile_qr_scan"}, "name": "de023df8235dbb08f83a879e6eb76481", "lat": 38.92062083333333, "is_reserved": 0, "fusion_lon": 0.0, "fusion_lat": 0.0, "is_disabled": 0, "bike_id": "de023df8235dbb08f83a879e6eb76481", "lon": -77.02300983333333}, {"type": "electric_scooter", "rental_uris": {"android": "https://dc.lft.to/lastmile_qr_scan", "ios": "https://dc.lft.to/lastmile_qr_scan"}, "name": "f889257c3ef1e524b0be44392c811e3f", "lat": 38.90407583333333, "is_reserved": 0, "fusion_lon": 0.0, "fusion_lat": 0.0, "is_disabled": 0, "bike_id": "f889257c3ef1e524b0be44392c811e3f", "lon": -76.98109116666667}, {"type": "electric_scooter", "rental_uris": {"android": "https://dc.lft.to/lastmile_qr_scan", "ios": "https://dc.lft.to/lastmile_qr_scan"}, "name": "a7b9eec0ab6b1d3c5edc458a1b4b151e", "lat": 38.90822, "is_reserved": 0, "fusion_lon": 0.0, "fusion_lat": 0.0, "is_disabled": 0, "bike_id": "a7b9eec0ab6b1d3c5edc458a1b4b151e", "lon": -77.0383825}, {"type": "electric_scooter", "rental_uris": {"android": "https://dc.lft.to/lastmile_qr_scan", "ios": "https://dc.lft.to/lastmile_qr_scan"}, "name": "058c5d5d0dc1cd64f77bda2d3da2c9c8", "lat": 38.903138166666665, "is_reserved": 0, "fusion_lon": 0.0, "fusion_lat": 0.0, "is_disabled": 0, "bike_id": "058c5d5d0dc1cd64f77bda2d3da2c9c8", "lon": -77.03321533333333}, {"type": "electric_scooter", "rental_uris": {"android": "https://dc.lft.to/lastmile_qr_scan", "ios": "https://dc.lft.to/lastmile_qr_scan"}, "name": "aebf920c8e78d2d674f2da8f0ec88243", "lat": 38.903834833333335, "is_reserved": 0, "fusion_lon": 0.0, "fusion_lat": 0.0, "is_disabled": 0, "bike_id": "aebf920c8e78d2d674f2da8f0ec88243", "lon": -77.06848283333333}, {"type": "electric_scooter", "rental_uris": {"android": "https://dc.lft.to/lastmile_qr_scan", "ios": "https://dc.lft.to/lastmile_qr_scan"}, "name": "55ce8301473715130962cf5a9f0bf6f9", "lat": 38.91789133333333, "is_reserved": 0, "fusion_lon": 0.0, "fusion_lat": 0.0, "is_disabled": 0, "bike_id": "55ce8301473715130962cf5a9f0bf6f9", "lon": -77.04026133333333}, {"type": "electric_scooter", "rental_uris": {"android": "https://dc.lft.to/lastmile_qr_scan", "ios": "https://dc.lft.to/lastmile_qr_scan"}, "name": "a375d634fa31fd1f0781a36422ffecbc", "lat": 38.89835183333334, "is_reserved": 0, "fusion_lon": 0.0, "fusion_lat": 0.0, "is_disabled": 0, "bike_id": "a375d634fa31fd1f0781a36422ffecbc", "lon": -77.012507}, {"type": "electric_scooter", "rental_uris": {"android": "https://dc.lft.to/lastmile_qr_scan", "ios": "https://dc.lft.to/lastmile_qr_scan"}, "name": "53f88374fc31b63fcdb7796b6a5420fd", "lat": 38.89569983333333, "is_reserved": 0, "fusion_lon": 0.0, "fusion_lat": 0.0, "is_disabled": 0, "bike_id": "53f88374fc31b63fcdb7796b6a5420fd", "lon": -77.01112883333333}, {"type": "electric_scooter", "rental_uris": {"android": "https://dc.lft.to/lastmile_qr_scan", "ios": "https://dc.lft.to/lastmile_qr_scan"}, "name": "e68de7eff7f66694805d3d8e8e2c3010", "lat": 38.91974666666667, "is_reserved": 0, "fusion_lon": 0.0, "fusion_lat": 0.0, "is_disabled": 0, "bike_id": "e68de7eff7f66694805d3d8e8e2c3010", "lon": -77.07111433333333}, {"type": "electric_scooter", "rental_uris": {"android": "https://dc.lft.to/lastmile_qr_scan", "ios": "https://dc.lft.to/lastmile_qr_scan"}, "name": "cee69d5f3e05ff368a5e88c7cc802b0f", "lat": 38.923422, "is_reserved": 0, "fusion_lon": 0.0, "fusion_lat": 0.0, "is_disabled": 0, "bike_id": "cee69d5f3e05ff368a5e88c7cc802b0f", "lon": -77.05468533333334}, {"type": "electric_scooter", "rental_uris": {"android": "https://dc.lft.to/lastmile_qr_scan", "ios": "https://dc.lft.to/lastmile_qr_scan"}, "name": "e63b5f0beb58fab07587a2ecc618347e", "lat": 38.92610166666667, "is_reserved": 0, "fusion_lon": 0.0, "fusion_lat": 0.0, "is_disabled": 0, "bike_id": "e63b5f0beb58fab07587a2ecc618347e", "lon": -77.02162116666666}, {"type": "electric_scooter", "rental_uris": {"android": "https://dc.lft.to/lastmile_qr_scan", "ios": "https://dc.lft.to/lastmile_qr_scan"}, "name": "92b5ce07dbcd52c5df53853838487ae3", "lat": 38.895014333333336, "is_reserved": 0, "fusion_lon": 0.0, "fusion_lat": 0.0, "is_disabled": 0, "bike_id": "92b5ce07dbcd52c5df53853838487ae3", "lon": -77.046378}, {"type": "electric_bike", "rental_uris": {"android": "https://dc.lft.to/lastmile_qr_scan", "ios": "https://dc.lft.to/lastmile_qr_scan"}, "name": "6b9c1424348a00c41880dbd64c296350", "lat": 38.884026, "is_reserved": 0, "fusion_lon": 0.0, "fusion_lat": 0.0, "is_disabled": 0, "bike_id": "6b9c1424348a00c41880dbd64c296350", "lon": -76.96062083333334}, {"type": "electric_scooter", "rental_uris": {"android": "https://dc.lft.to/lastmile_qr_scan", "ios": "https://dc.lft.to/lastmile_qr_scan"}, "name": "67092c908343d05144f101a4cc9fdc0f", "lat": 38.90050033333333, "is_reserved": 0, "fusion_lon": 0.0, "fusion_lat": 0.0, "is_disabled": 0, "bike_id": "67092c908343d05144f101a4cc9fdc0f", "lon": -77.03361683333334}, {"type": "electric_scooter", "rental_uris": {"android": "https://dc.lft.to/lastmile_qr_scan", "ios": "https://dc.lft.to/lastmile_qr_scan"}, "name": "9378ada14f02c3d48aa79d3f12f87c30", "lat": 38.91125683333333, "is_reserved": 0, "fusion_lon": 0.0, "fusion_lat": 0.0, "is_disabled": 0, "bike_id": "9378ada14f02c3d48aa79d3f12f87c30", "lon": -77.0219985}, {"type": "electric_scooter", "rental_uris": {"android": "https://dc.lft.to/lastmile_qr_scan", "ios": "https://dc.lft.to/lastmile_qr_scan"}, "name": "15f38235cd6aa9a58d856cf1ee83888e", "lat": 38.90045766666667, "is_reserved": 0, "fusion_lon": 0.0, "fusion_lat": 0.0, "is_disabled": 0, "bike_id": "15f38235cd6aa9a58d856cf1ee83888e", "lon": -76.98826483333333}, {"type": "electric_scooter", "rental_uris": {"android": "https://dc.lft.to/lastmile_qr_scan", "ios": "https://dc.lft.to/lastmile_qr_scan"}, "name": "925154f8fea56a503f0f96362456af2d", "lat": 38.92508983333333, "is_reserved": 0, "fusion_lon": 0.0, "fusion_lat": 0.0, "is_disabled": 0, "bike_id": "925154f8fea56a503f0f96362456af2d", "lon": -77.02150383333333}, {"type": "electric_scooter", "rental_uris": {"android": "https://dc.lft.to/lastmile_qr_scan", "ios": "https://dc.lft.to/lastmile_qr_scan"}, "name": "1a548b271ab8373c49722ec0e291c83d", "lat": 38.893434166666665, "is_reserved": 0, "fusion_lon": 0.0, "fusion_lat": 0.0, "is_disabled": 0, "bike_id": "1a548b271ab8373c49722ec0e291c83d", "lon": -76.95249916666667}, {"type": "electric_scooter", "rental_uris": {"android": "https://dc.lft.to/lastmile_qr_scan", "ios": "https://dc.lft.to/lastmile_qr_scan"}, "name": "4897b4719641a137aa8b50dfd04ee792", "lat": 38.8988565, "is_reserved": 0, "fusion_lon": 0.0, "fusion_lat": 0.0, "is_disabled": 0, "bike_id": "4897b4719641a137aa8b50dfd04ee792", "lon": -77.03321783333334}, {"type": "electric_scooter", "rental_uris": {"android": "https://dc.lft.to/lastmile_qr_scan", "ios": "https://dc.lft.to/lastmile_qr_scan"}, "name": "5b54054614a08776b02b7a85f21e1354", "lat": 38.920201666666664, "is_reserved": 0, "fusion_lon": 0.0, "fusion_lat": 0.0, "is_disabled": 0, "bike_id": "5b54054614a08776b02b7a85f21e1354", "lon": -77.02804216666667}, {"type": "electric_scooter", "rental_uris": {"android": "https://dc.lft.to/lastmile_qr_scan", "ios": "https://dc.lft.to/lastmile_qr_scan"}, "name": "e6f93aad5b9852b8d92ea08c8572c88c", "lat": 38.919759, "is_reserved": 0, "fusion_lon": 0.0, "fusion_lat": 0.0, "is_disabled": 0, "bike_id": "e6f93aad5b9852b8d92ea08c8572c88c", "lon": -77.0217435}, {"type": "electric_scooter", "rental_uris": {"android": "https://dc.lft.to/lastmile_qr_scan", "ios": "https://dc.lft.to/lastmile_qr_scan"}, "name": "e2e4d9f3ad2ef519afde475552a8b8d5", "lat": 38.916965166666664, "is_reserved": 0, "fusion_lon": 0.0, "fusion_lat": 0.0, "is_disabled": 0, "bike_id": "e2e4d9f3ad2ef519afde475552a8b8d5", "lon": -77.04344166666667}, {"type": "electric_scooter", "rental_uris": {"android": "https://dc.lft.to/lastmile_qr_scan", "ios": "https://dc.lft.to/lastmile_qr_scan"}, "name": "241f10d11489b944006e24825b982658", "lat": 38.883944666666665, "is_reserved": 0, "fusion_lon": 0.0, "fusion_lat": 0.0, "is_disabled": 0, "bike_id": "241f10d11489b944006e24825b982658", "lon": -76.98839633333333}, {"type": "electric_scooter", "rental_uris": {"android": "https://dc.lft.to/lastmile_qr_scan", "ios": "https://dc.lft.to/lastmile_qr_scan"}, "name": "9a0b3d57888ff90a4aad01f244e26acb", "lat": 38.9100665, "is_reserved": 0, "fusion_lon": 0.0, "fusion_lat": 0.0, "is_disabled": 0, "bike_id": "9a0b3d57888ff90a4aad01f244e26acb", "lon": -76.99398816666667}, {"type": "electric_scooter", "rental_uris": {"android": "https://dc.lft.to/lastmile_qr_scan", "ios": "https://dc.lft.to/lastmile_qr_scan"}, "name": "095bf96cb3f8b38c34fd9e36d13134fa", "lat": 38.90503833333333, "is_reserved": 0, "fusion_lon": 0.0, "fusion_lat": 0.0, "is_disabled": 0, "bike_id": "095bf96cb3f8b38c34fd9e36d13134fa", "lon": -77.04502583333333}, {"type": "electric_scooter", "rental_uris": {"android": "https://dc.lft.to/lastmile_qr_scan", "ios": "https://dc.lft.to/lastmile_qr_scan"}, "name": "fcac7ab7a038e9a74476f7b0ddf0f828", "lat": 38.888357166666665, "is_reserved": 0, "fusion_lon": 0.0, "fusion_lat": 0.0, "is_disabled": 0, "bike_id": "fcac7ab7a038e9a74476f7b0ddf0f828", "lon": -76.9869035}, {"type": "electric_scooter", "rental_uris": {"android": "https://dc.lft.to/lastmile_qr_scan", "ios": "https://dc.lft.to/lastmile_qr_scan"}, "name": "4692de1f4f6849fcdfb699f9db0b1886", "lat": 38.890473666666665, "is_reserved": 0, "fusion_lon": 0.0, "fusion_lat": 0.0, "is_disabled": 0, "bike_id": "4692de1f4f6849fcdfb699f9db0b1886", "lon": -76.93754133333333}, {"type": "electric_bike", "rental_uris": {"android": "https://dc.lft.to/lastmile_qr_scan", "ios": "https://dc.lft.to/lastmile_qr_scan"}, "name": "52ff58e059ecbd56e4b5b4c5a736d12d", "lat": 38.9032825, "is_reserved": 0, "fusion_lon": 0.0, "fusion_lat": 0.0, "is_disabled": 0, "bike_id": "52ff58e059ecbd56e4b5b4c5a736d12d", "lon": -76.97531166666667}, {"type": "electric_scooter", "rental_uris": {"android": "https://dc.lft.to/lastmile_qr_scan", "ios": "https://dc.lft.to/lastmile_qr_scan"}, "name": "8366b1900d611759a7b8e59a67ac660b", "lat": 38.900382, "is_reserved": 0, "fusion_lon": 0.0, "fusion_lat": 0.0, "is_disabled": 0, "bike_id": "8366b1900d611759a7b8e59a67ac660b", "lon": -77.0020115}, {"type": "electric_scooter", "rental_uris": {"android": "https://dc.lft.to/lastmile_qr_scan", "ios": "https://dc.lft.to/lastmile_qr_scan"}, "name": "7e5d87a6ed5e543dfabdad51a2695018", "lat": 38.939029, "is_reserved": 0, "fusion_lon": 0.0, "fusion_lat": 0.0, "is_disabled": 0, "bike_id": "7e5d87a6ed5e543dfabdad51a2695018", "lon": -77.06043016666666}, {"type": "electric_scooter", "rental_uris": {"android": "https://dc.lft.to/lastmile_qr_scan", "ios": "https://dc.lft.to/lastmile_qr_scan"}, "name": "3543bb42a00eabd672097c5c2bc347bb", "lat": 38.908967, "is_reserved": 0, "fusion_lon": 0.0, "fusion_lat": 0.0, "is_disabled": 0, "bike_id": "3543bb42a00eabd672097c5c2bc347bb", "lon": -77.07289183333333}, {"type": "electric_scooter", "rental_uris": {"android": "https://dc.lft.to/lastmile_qr_scan", "ios": "https://dc.lft.to/lastmile_qr_scan"}, "name": "7fe4de95c3e7fd5691b697bd28d5b52f", "lat": 38.91678983333333, "is_reserved": 0, "fusion_lon": 0.0, "fusion_lat": 0.0, "is_disabled": 0, "bike_id": "7fe4de95c3e7fd5691b697bd28d5b52f", "lon": -77.0296875}, {"type": "electric_bike", "rental_uris": {"android": "https://dc.lft.to/lastmile_qr_scan", "ios": "https://dc.lft.to/lastmile_qr_scan"}, "name": "13d60e35629e42edbcba59241b35fc4a", "lat": 38.920366333333334, "is_reserved": 0, "fusion_lon": 0.0, "fusion_lat": 0.0, "is_disabled": 0, "bike_id": "13d60e35629e42edbcba59241b35fc4a", "lon": -76.97955183333333}, {"type": "electric_scooter", "rental_uris": {"android": "https://dc.lft.to/lastmile_qr_scan", "ios": "https://dc.lft.to/lastmile_qr_scan"}, "name": "bcfad237bb177ed36bf3c82e7e9f4e82", "lat": 38.897139, "is_reserved": 0, "fusion_lon": 0.0, "fusion_lat": 0.0, "is_disabled": 0, "bike_id": "bcfad237bb177ed36bf3c82e7e9f4e82", "lon": -77.02697166666667}, {"type": "electric_scooter", "rental_uris": {"android": "https://dc.lft.to/lastmile_qr_scan", "ios": "https://dc.lft.to/lastmile_qr_scan"}, "name": "4b616208b4f903da27f15bacb7866e20", "lat": 38.91815583333333, "is_reserved": 0, "fusion_lon": 0.0, "fusion_lat": 0.0, "is_disabled": 0, "bike_id": "4b616208b4f903da27f15bacb7866e20", "lon": -77.03446416666667}, {"type": "electric_scooter", "rental_uris": {"android": "https://dc.lft.to/lastmile_qr_scan", "ios": "https://dc.lft.to/lastmile_qr_scan"}, "name": "bc0ac7f08921a23c7f2358263527949b", "lat": 38.927866, "is_reserved": 0, "fusion_lon": 0.0, "fusion_lat": 0.0, "is_disabled": 0, "bike_id": "bc0ac7f08921a23c7f2358263527949b", "lon": -77.0308305}, {"type": "electric_scooter", "rental_uris": {"android": "https://dc.lft.to/lastmile_qr_scan", "ios": "https://dc.lft.to/lastmile_qr_scan"}, "name": "0e21786258b21174c086476afde13ec7", "lat": 38.91557916666667, "is_reserved": 0, "fusion_lon": 0.0, "fusion_lat": 0.0, "is_disabled": 0, "bike_id": "0e21786258b21174c086476afde13ec7", "lon": -77.00724833333334}, {"type": "electric_scooter", "rental_uris": {"android": "https://dc.lft.to/lastmile_qr_scan", "ios": "https://dc.lft.to/lastmile_qr_scan"}, "name": "f002565a5a542491b04696148fee56a7", "lat": 38.925662333333335, "is_reserved": 0, "fusion_lon": 0.0, "fusion_lat": 0.0, "is_disabled": 0, "bike_id": "f002565a5a542491b04696148fee56a7", "lon": -77.022831}, {"type": "electric_scooter", "rental_uris": {"android": "https://dc.lft.to/lastmile_qr_scan", "ios": "https://dc.lft.to/lastmile_qr_scan"}, "name": "b7c92f51f4863209d5b8e0b0327ebc17", "lat": 38.902406666666664, "is_reserved": 0, "fusion_lon": 0.0, "fusion_lat": 0.0, "is_disabled": 0, "bike_id": "b7c92f51f4863209d5b8e0b0327ebc17", "lon": -77.04640166666667}, {"type": "electric_scooter", "rental_uris": {"android": "https://dc.lft.to/lastmile_qr_scan", "ios": "https://dc.lft.to/lastmile_qr_scan"}, "name": "041cf7126aca3aaf46164e77581c8ddb", "lat": 38.90016816666667, "is_reserved": 0, "fusion_lon": 0.0, "fusion_lat": 0.0, "is_disabled": 0, "bike_id": "041cf7126aca3aaf46164e77581c8ddb", "lon": -77.0409035}, {"type": "electric_scooter", "rental_uris": {"android": "https://dc.lft.to/lastmile_qr_scan", "ios": "https://dc.lft.to/lastmile_qr_scan"}, "name": "b53cf95447fbf32517097819db6b570c", "lat": 38.92905, "is_reserved": 0, "fusion_lon": 0.0, "fusion_lat": 0.0, "is_disabled": 0, "bike_id": "b53cf95447fbf32517097819db6b570c", "lon": -77.03251533333334}, {"type": "electric_bike", "rental_uris": {"android": "https://dc.lft.to/lastmile_qr_scan", "ios": "https://dc.lft.to/lastmile_qr_scan"}, "name": "ce909361e1b10982b1f355e4f494fefd", "lat": 38.89047733333334, "is_reserved": 0, "fusion_lon": 0.0, "fusion_lat": 0.0, "is_disabled": 0, "bike_id": "ce909361e1b10982b1f355e4f494fefd", "lon": -77.014164},