{"data": {"bikes": [{"is_disabled": 0, "fusion_lon": 0.0, "fusion_lat": 0.0, "lat": 38.897347833333335, "type": "electric_scooter", "lon": -77.04944916666666, "bike_id": "83bb3349e045c8fdb01f8e0ce40007d5", "rental_uris": {"android": "https://dc.lft.to/lastmile_qr_scan", "ios": "https://dc.lft.to/lastmile_qr_scan"}, "name": "83bb3349e045c8fdb01f8e0ce40007d5", "is_reserved": 0}, {"is_disabled": 0, "fusion_lon": 0.0, "fusion_lat": 0.0, "lat": 38.86134283333333, "type": "electric_scooter", "lon": -76.98530383333333, "bike_id": "b72131d8d558541ea21ff9c49dce0f38", "rental_uris": {"android": "https://dc.lft.to/lastmile_qr_scan", "ios": "https://dc.lft.to/lastmile_qr_scan"}, "name": "b72131d8d558541ea21ff9c49dce0f38", "is_reserved": 0}, {"is_disabled": 0, "fusion_lon": 0.0, "fusion_lat": 0.0, "lat": 38.9118595, "type": "electric_scooter", "lon": -77.035084, "bike_id": "865e51086c8e64d7f2bb30441f322235", "rental_uris": {"android": "https://dc.lft.to/lastmile_qr_scan", "ios": "https://dc.lft.to/lastmile_qr_scan"}, "name": "865e51086c8e64d7f2bb30441f322235", "is_reserved": 0}, {"is_disabled": 0, "fusion_lon": 0.0, "fusion_lat": 0.0, "lat": 38.890439666666666, "type": "electric_scooter", "lon": -76.95246366666667, "bike_id": "956865dae159f582a9c434f9ae5b9715", "rental_uris": {"android": "https://dc.lft.to/lastmile_qr_scan", "ios": "https://dc.lft.to/lastmile_qr_scan"}, "name": "956865dae159f582a9c434f9ae5b9715", "is_reserved": 0}, {"is_disabled": 0, "fusion_lon": 0.0, "fusion_lat": 0.0, "lat": 38.893704666666665, "type": "electric_scooter", "lon": -76.94998216666667, "bike_id": "f9d7c813f0237bec3dee69df0234eef9", "rental_uris": {"android": "https://dc.lft.to/lastmile_qr_scan", "ios": "https://dc.lft.to/lastmile_qr_scan"}, "name": "f9d7c813f0237bec3dee69df0234eef9", "is_reserved": 0}, {"is_disabled": 0, "fusion_lon": 0.0, "fusion_lat": 0.0, "lat": 38.936231166666666, "type": "electric_scooter", "lon": -77.05914633333333, "bike_id": "b9ea83ad9cd99f4375b76d446ec06371", "rental_uris": {"android": "https://dc.lft.to/lastmile_qr_scan", "ios": "https://dc.lft.to/lastmile_qr_scan"}, "name": "b9ea83ad9cd99f4375b76d446ec06371", "is_reserved": 0}, {"is_disabled": 0, "fusion_lon": 0.0, "fusion_lat": 0.0, "lat": 38.931787166666666, "type": "electric_scooter", "lon": -77.02350683333333, "bike_id": "35f9a92e4ce3d22c8b8ff761d1f9df96", "rental_uris": {"android": "https://dc.lft.to/lastmile_qr_scan", "ios": "https://dc.lft.to/lastmile_qr_scan"}, "name": "35f9a92e4ce3d22c8b8ff761d1f9df96", "is_reserved": 0}, {"is_disabled": 0, "fusion_lon": 0.0, "fusion_lat": 0.0, "lat": 38.89675483333333, "type": "electric_scooter", "lon": -76.99786066666667, "bike_id": "18b3826d067cc98db0d2348ad1ba3f09", "rental_uris": {"android": "https://dc.lft.to/lastmile_qr_scan", "ios": "https://dc.lft.to/lastmile_qr_scan"}, "name": "18b3826d067cc98db0d2348ad1ba3f09", "is_reserved": 0}, {"is_disabled": 0, "fusion_lon": 0.0, "fusion_lat": 0.0, "lat": 38.928382666666664, "type": "electric_scooter", "lon": -77.01416016666667, "bike_id": "a1c6995dbf01d0779581f649682bc76d", "rental_uris": {"android": "https://dc.lft.to/lastmile_qr_scan", "ios": "https://dc.lft.to/lastmile_qr_scan"}, "name": "a1c6995dbf01d0779581f649682bc76d", "is_reserved": 0}, {"is_disabled": 0, "fusion_lon": 0.0, "fusion_lat": 0.0, "lat": 38.934765166666665, "type": "electric_scooter", "lon": -77.07217116666666, "bike_id": "4647235ed150aae12c73d7f0ef6f3a8e", "rental_uris": {"android": "https://dc.lft.to/lastmile_qr_scan", "ios": "https://dc.lft.to/lastmile_qr_scan"}, "name": "4647235ed150aae12c73d7f0ef6f3a8e", "is_reserved": 0}, {"is_disabled": 0, "fusion_lon": 0.0, "fusion_lat": 0.0, "lat": 38.901512, "type": "electric_scooter", "lon": -77.029393, "bike_id": "05fe5f756bf1becb9109c6d8d86a0e48", "rental_uris": {"android": "https://dc.lft.to/lastmile_qr_scan", "ios": "https://dc.lft.to/lastmile_qr_scan"}, "name": "05fe5f756bf1becb9109c6d8d86a0e48", "is_reserved": 0}, {"is_disabled": 0, "fusion_lon": 0.0, "fusion_lat": 0.0, "lat": 38.9004135, "type": "electric_scooter", "lon": -76.92268066666666, "bike_id": "d6caef82cd417933835e8acf2429546e", "rental_uris": {"android": "https://dc.lft.to/lastmile_qr_scan", "ios": "https://dc.lft.to/lastmile_qr_scan"}, "name": "d6caef82cd417933835e8acf2429546e", "is_reserved": 0}, {"is_disabled": 0, "fusion_lon": 0.0, "fusion_lat": 0.0, "lat": 38.92710833333334, "type": "electric_scooter", "lon": -77.02334483333334, "bike_id": "4b5d7ff40c12467607f80059e20c8584", "rental_uris": {"android": "https://dc.lft.to/lastmile_qr_scan", "ios": "https://dc.lft.to/lastmile_qr_scan"}, "name": "4b5d7ff40c12467607f80059e20c8584", "is_reserved": 0}, {"is_disabled": 0, "fusion_lon": 0.0, "fusion_lat": 0.0, "lat": 38.936802666666665, "type": "electric_scooter", "lon": -77.0246655, "bike_id": "8ee8efb2460d6a274616fb2789c7a818", "rental_uris": {"android": "https://dc.lft.to/lastmile_qr_scan", "ios": "https://dc.lft.to/lastmile_qr_scan"}, "name": "8ee8efb2460d6a274616fb2789c7a818", "is_reserved": 0}, {"is_disabled": 0, "fusion_lon": 0.0, "fusion_lat": 0.0, "lat": 38.927311, "type": "electric_scooter", "lon": -77.022432, "bike_id": "05373ad4077137e7c5fab002e83d57f6", "rental_uris": {"android": "https://dc.lft.to/lastmile_qr_scan", "ios": "https://dc.lft.to/lastmile_qr_scan"}, "name": "05373ad4077137e7c5fab002e83d57f6", "is_reserved": 0}, {"is_disabled": 0, "fusion_lon": 0.0, "fusion_lat": 0.0, "lat": 38.9163665, "type": "electric_scooter", "lon": -77.04621133333333, "bike_id": "d33802e5a61a34915bc20518e18b6514", "rental_uris": {"android": "https://dc.lft.to/lastmile_qr_scan", "ios": "https://dc.lft.to/lastmile_qr_scan"}, "name": "d33802e5a61a34915bc20518e18b6514", "is_reserved": 0}, {"is_disabled": 0, "fusion_lon": 0.0, "fusion_lat": 0.0, "lat": 38.9181115, "type": "electric_scooter", "lon": -77.024447, "bike_id": "a8f90f79299350a813697d8b60164cfd", "rental_uris": {"android": "https://dc.lft.to/lastmile_qr_scan", "ios": "https://dc.lft.to/lastmile_qr_scan"}, "name": "a8f90f79299350a813697d8b60164cfd", "is_reserved": 0}, {"is_disabled": 0, "fusion_lon": 0.0, "fusion_lat": 0.0, "lat": 38.915994833333336, "type": "electric_scooter", "lon": -77.02345616666666, "bike_id": "ee25d50763190134e4fa2818f9bbbf98", "rental_uris": {"android": "https://dc.lft.to/lastmile_qr_scan", "ios": "https://dc.lft.to/lastmile_qr_scan"}, "name": "ee25d50763190134e4fa2818f9bbbf98", "is_reserved": 0}, {"is_disabled": 0, "fusion_lon": 0.0, "fusion_lat": 0.0, "lat": 38.90902283333333, "type": "electric_scooter", "lon": -77.0028845, "bike_id": "d11e6677f3a61b91ad092e5f2085f43b", "rental_uris": {"android": "https://dc.lft.to/lastmile_qr_scan", "ios": "https://dc.lft.to/lastmile_qr_scan"}, "name": "d11e6677f3a61b91ad092e5f2085f43b", "is_reserved": 0}, {"is_disabled": 0, "fusion_lon": 0.0, "fusion_lat": 0.0, "lat": 38.86352133333333, "type": "electric_scooter", "lon": -76.982534, "bike_id": "d5f1e203b113f8cc44488480d65aa0db", "rental_uris": {"android": "https://dc.lft.to/lastmile_qr_scan", "ios": "https://dc.lft.to/lastmile_qr_scan"}, "name": "d5f1e203b113f8cc44488480d65aa0db", "is_reserved": 0}, {"is_disabled": 0, "fusion_lon": 0.0, "fusion_lat": 0.0, "lat": 38.858822333333336, "type": "electric_scooter", "lon": -76.990297, "bike_id": "7ca1247daf832d966677020110800a32", "rental_uris": {"android": "https://dc.lft.to/lastmile_qr_scan", "ios": "https://dc.lft.to/lastmile_qr_scan"}, "name": "7ca1247daf832d966677020110800a32", "is_reserved": 0}, {"is_disabled": 0, "fusion_lon": 0.0, "fusion_lat": 0.0, "lat": 38.887302, "type": "electric_scooter", "lon": -77.02203866666666, "bike_id": "1f1e14dce0bf137edb4477cd86ab230b", "rental_uris": {"android": "https://dc.lft.to/lastmile_qr_scan", "ios": "https://dc.lft.to/lastmile_qr_scan"}, "name": "1f1e14dce0bf137edb4477cd86ab230b", "is_reserved": 0}, {"is_disabled": 0, "fusion_lon": 0.0, "fusion_lat": 0.0, "lat": 38.920390166666664, "type": "electric_scooter", "lon": -77.0258305, "bike_id": "237d2afe1bf38f32b6f863c8b5f8730e", "rental_uris": {"android": "https://dc.lft.to/lastmile_qr_scan", "ios": "https://dc.lft.to/lastmile_qr_scan"}, "name": "237d2afe1bf38f32b6f863c8b5f8730e", "is_reserved": 0}, {"is_disabled": 0, "fusion_lon": 0.0, "fusion_lat": 0.0, "lat": 38.956253, "type": "electric_scooter", "lon": -77.02454983333334, "bike_id": "b9f1704ab8ede3bf8e879b7dc48a2ddf", "rental_uris": {"android": "https://dc.lft.to/lastmile_qr_scan", "ios": "https://dc.lft.to/lastmile_qr_scan"}, "name": "b9f1704ab8ede3bf8e879b7dc48a2ddf", "is_reserved": 0}, {"is_disabled": 0, "fusion_lon": 0.0, "fusion_lat": 0.0, "lat": 38.91813366666667, "type": "electric_scooter", "lon": -77.0269, "bike_id": "d91a88a1eab55be2f123bf3f40811818", "rental_uris": {"android": "https://dc.lft.to/lastmile_qr_scan", "ios": "https://dc.lft.to/lastmile_qr_scan"}, "name": "d91a88a1eab55be2f123bf3f40811818", "is_reserved": 0}, {"is_disabled": 0, "fusion_lon": 0.0, "fusion_lat": 0.0, "lat": 38.92445883333333, "type": "electric_scooter", "lon": -77.04028, "bike_id": "5a2f13439619065388688b9327af583e", "rental_uris": {"android": "https://dc.lft.to/lastmile_qr_scan", "ios": "https://dc.lft.to/lastmile_qr_scan"}, "name": "5a2f13439619065388688b9327af583e", "is_reserved": 0}, {"is_disabled": 0, "fusion_lon": 0.0, "fusion_lat": 0.0, "lat": 38.940535833333335, "type": "electric_scooter", "lon": -77.02490966666667, "bike_id": "54dfdeb83e3220847355a2272f5c4507", "rental_uris": {"android": "https://dc.lft.to/lastmile_qr_scan", "ios": "https://dc.lft.to/lastmile_qr_scan"}, "name": "54dfdeb83e3220847355a2272f5c4507", "is_reserved": 0}, {"is_disabled": 0, "fusion_lon": 0.0, "fusion_lat": 0.0, "lat": 38.92020316666667, "type": "electric_scooter", "lon": -77.03120733333333, "bike_id": "986ae21b35593d756727f480dd29049b", "rental_uris": {"android": "https://dc.lft.to/lastmile_qr_scan", "ios": "https://dc.lft.to/lastmile_qr_scan"}, "name": "986ae21b35593d756727f480dd29049b", "is_reserved": 0}, {"is_disabled": 0, "fusion_lon": 0.0, "fusion_lat": 0.0, "lat": 38.8990545, "type": "electric_scooter", "lon": -76.93388366666667, "bike_id": "3d5aa0287be1cea6d32a5bb06c805574", "rental_uris": {"android": "https://dc.lft.to/lastmile_qr_scan", "ios": "https://dc.lft.to/lastmile_qr_scan"}, "name": "3d5aa0287be1cea6d32a5bb06c805574", "is_reserved": 0}, {"is_disabled": 0, "fusion_lon": 0.0, "fusion_lat": 0.0, "lat": 38.89954316666667, "type": "electric_scooter", "lon": -77.05201183333334, "bike_id": "669aa43967363c5ff855e3bd98947131", "rental_uris": {"android": "https://dc.lft.to/lastmile_qr_scan", "ios": "https://dc.lft.to/lastmile_qr_scan"}, "name": "669aa43967363c5ff855e3bd98947131", "is_reserved": 0}, {"is_disabled": 0, "fusion_lon": 0.0, "fusion_lat": 0.0, "lat": 38.94275866666667, "type": "electric_scooter", "lon": -77.0325825, "bike_id": "da28526ef335a300c643b7333491b353", "rental_uris": {"android": "https://dc.lft.to/lastmile_qr_scan", "ios": "https://dc.lft.to/lastmile_qr_scan"}, "name": "da28526ef335a300c643b7333491b353", "is_reserved": 0}, {"is_disabled": 0, "fusion_lon": 0.0, "fusion_lat": 0.0, "lat": 38.928872166666665, "type": "electric_scooter", "lon": -77.02309783333334, "bike_id": "8f7d2415238924e9524f16bfcc4aac26", "rental_uris": {"android": "https://dc.lft.to/lastmile_qr_scan", "ios": "https://dc.lft.to/lastmile_qr_scan"}, "name": "8f7d2415238924e9524f16bfcc4aac26", "is_reserved": 0}, {"is_disabled": 0, "fusion_lon": 0.0, "fusion_lat": 0.0, "lat": 39.029994, "type": "electric_bike", "lon": -77.106556, "bike_id": "dae07adf8e3722f4285572dd16302a26", "rental_uris": {"android": "https://dc.lft.to/lastmile_qr_scan", "ios": "https://dc.lft.to/lastmile_qr_scan"}, "name": "dae07adf8e3722f4285572dd16302a26", "is_reserved": 0}, {"is_disabled": 0, "fusion_lon": 0.0, "fusion_lat": 0.0, "lat": 38.96453966666667, "type": "electric_bike", "lon": -76.97728283333333, "bike_id": "f65d4fb63e9f1e8e6e50c0bf68194dc1", "rental_uris": {"android": "https://dc.lft.to/lastmile_qr_scan", "ios": "https://dc.lft.to/lastmile_qr_scan"}, "name": "f65d4fb63e9f1e8e6e50c0bf68194dc1", "is_reserved": 0}, {"is_disabled": 0, "fusion_lon": 0.0, "fusion_lat": 0.0, "lat": 38.9341395, "type": "electric_bike", "lon": -77.02506016666666, "bike_id": "51718d759adea6f27e60286e9a0fdc56", "rental_uris": {"android": "https://dc.lft.to/lastmile_qr_scan", "ios": "https://dc.lft.to/lastmile_qr_scan"}, "name": "51718d759adea6f27e60286e9a0fdc56", "is_reserved": 0}, {"is_disabled": 0, "fusion_lon": 0.0, "fusion_lat": 0.0, "lat": 38.858513333333335, "type": "electric_bike", "lon": -77.09752516666667, "bike_id": "dec1c60519a2d3c272720df65332b0fb", "rental_uris": {"android": "https://dc.lft.to/lastmile_qr_scan", "ios": "https://dc.lft.to/lastmile_qr_scan"}, "name": "dec1c60519a2d3c272720df65332b0fb", "is_reserved": 0}, {"is_disabled": 0, "fusion_lon": 0.0, "fusion_lat": 0.0, "lat": 38.86597483333333, "type": "electric_bike", "lon": -76.97453116666667, "bike_id": "4e59b8cc3562daa4af6f0e0a9f5b4a5d", "rental_uris": {"android": "https://dc.lft.to/lastmile_qr_scan", "ios": "https://dc.lft.to/lastmile_qr_scan"}, "name": "4e59b8cc3562daa4af6f0e0a9f5b4a5d", "is_reserved": 0}, {"is_disabled": 0, "fusion_lon": 0.0, "fusion_lat": 0.0, "lat": 38.84295983333333, "type": "electric_scooter", "lon": -76.9994845, "bike_id": "0995eeb67fad748506f9e00ce01f7c2f", "rental_uris": {"android": "https://dc.lft.to/lastmile_qr_scan", "ios": "https://dc.lft.to/lastmile_qr_scan"}, "name": "0995eeb67fad748506f9e00ce01f7c2f", "is_reserved": 0}, {"is_disabled": 0, "fusion_lon": 0.0, "fusion_lat": 0.0, "lat": 38.88745483333334, "type": "electric_scooter", "lon": -77.016081, "bike_id": "0e682f40fe62101cde8eae5113e873bd", "rental_uris": {"android": "https://dc.lft.to/lastmile_qr_scan", "ios": "https://dc.lft.to/lastmile_qr_scan"}, "name": "0e682f40fe62101cde8eae5113e873bd", "is_reserved": 0}, {"is_disabled": 0, "fusion_lon": 0.0, "fusion_lat": 0.0, "lat": 38.92897966666666, "type": "electric_scooter", "lon": -77.024049, "bike_id": "a7197ad12188285ae4323fe890fb5cd0", "rental_uris": {"android": "https://dc.lft.to/lastmile_qr_scan", "ios": "https://dc.lft.to/lastmile_qr_scan"}, "name": "a7197ad12188285ae4323fe890fb5cd0", "is_reserved": 0}, {"is_disabled": 0, "fusion_lon": 0.0, "fusion_lat": 0.0, "lat": 38.896595833333336, "type": "electric_scooter", "lon": -77.04336416666666, "bike_id": "d4af302234ecf794c04ef8e4e4b9ee9c", "rental_uris": {"android": "https://dc.lft.to/lastmile_qr_scan", "ios": "https://dc.lft.to/lastmile_qr_scan"}, "name": "d4af302234ecf794c04ef8e4e4b9ee9c", "is_reserved": 0}, {"is_disabled": 0, "fusion_lon": 0.0, "fusion_lat": 0.0, "lat": 38.92531816666666, "type": "electric_scooter", "lon": -77.07328383333333, "bike_id": "fff723610f55480ec53b0af8bc9e5b65", "rental_uris": {"android": "https://dc.lft.to/lastmile_qr_scan", "ios": "https://dc.lft.to/lastmile_qr_scan"}, "name": "fff723610f55480ec53b0af8bc9e5b65", "is_reserved": 0}, {"is_disabled": 0, "fusion_lon": 0.0, "fusion_lat": 0.0, "lat": 38.897830666666664, "type": "electric_scooter", "lon": -77.02490866666666, "bike_id": "eab8806411a353acd60a173d96977732", "rental_uris": {"android": "https://dc.lft.to/lastmile_qr_scan", "ios": "https://dc.lft.to/lastmile_qr_scan"}, "name": "eab8806411a353acd60a173d96977732", "is_reserved": 0}, {"is_disabled": 0, "fusion_lon": 0.0, "fusion_lat": 0.0, "lat": 38.905208333333334, "type": "electric_scooter", "lon": -77.04330866666666, "bike_id": "6e26ce6f6a5de74ad8c3825f763e5216", "rental_uris": {"android": "https://dc.lft.to/lastmile_qr_scan", "ios": "https://dc.lft.to/lastmile_qr_scan"}, "name": "6e26ce6f6a5de74ad8c3825f763e5216", "is_reserved": 0}, {"is_disabled": 0, "fusion_lon": 0.0, "fusion_lat": 0.0, "lat": 38.95689633333333, "type": "electric_scooter", "lon": -77.02399866666667, "bike_id": "ee1f5abcb339dceff73883bc8e337388", "rental_uris": {"android": "https://dc.lft.to/lastmile_qr_scan", "ios": "https://dc.lft.to/lastmile_qr_scan"}, "name": "ee1f5abcb339dceff73883bc8e337388", "is_reserved": 0}, {"is_disabled": 0, "fusion_lon": 0.0, "fusion_lat": 0.0, "lat": 38.918138, "type": "electric_scooter", "lon": -77.03806566666667, "bike_id": "f83e94e338e140b2bda3fe84b67762f0", "rental_uris": {"android": "https://dc.lft.to/lastmile_qr_scan", "ios": "https://dc.lft.to/lastmile_qr_scan"}, "name": "f83e94e338e140b2bda3fe84b67762f0", "is_reserved": 0}, {"is_disabled": 0, "fusion_lon": 0.0, "fusion_lat": 0.0, "lat": 38.941770166666664, "type": "electric_scooter", "lon": -77.03655016666667, "bike_id": "a0df40a7b9644e145d8e7a454d7f51ea", "rental_uris": {"android": "https://dc.lft.to/lastmile_qr_scan", "ios": "https://dc.lft.to/lastmile_qr_scan"}, "name": "a0df40a7b9644e145d8e7a454d7f51ea", "is_reserved": 0}, {"is_disabled": 0, "fusion_lon": 0.0, "fusion_lat": 0.0, "lat": 38.90769233333333, "type": "electric_scooter", "lon": -77.00758466666667, "bike_id": "b0c27999c952ff99ca4280d42d3cc079", "rental_uris": {"android": "https://dc.lft.to/lastmile_qr_scan", "ios": "https://dc.lft.to/lastmile_qr_scan"}, "name": "b0c27999c952ff99ca4280d42d3cc079", "is_reserved": 0}, {"is_disabled": 0, "fusion_lon": 0.0, "fusion_lat": 0.0, "lat": 38.929143333333336, "type": "electric_scooter", "lon": -77.03193066666667, "bike_id": "971296b1fc0fe5021842dc61b84992e9", "rental_uris": {"android": "https://dc.lft.to/lastmile_qr_scan", "ios": "https://dc.lft.to/lastmile_qr_scan"}, "name": "971296b1fc0fe5021842dc61b84992e9", "is_reserved": 0}, {"is_disabled": 0, "fusion_lon": 0.0, "fusion_lat": 0.0, "lat": 38.95649216666666, "type": "electric_scooter", "lon": -77.01495766666666, "bike_id": "a60d5d61a81f9604250941abe6d224af", "rental_uris": {"android": "https://dc.lft.to/lastmile_qr_scan", "ios": "https://dc.lft.to/lastmile_qr_scan"}, "name": "a60d5d61a81f9604250941abe6d224af", "is_reserved": 0}, {"is_disabled": 0, "fusion_lon": 0.0, "fusion_lat": 0.0, "lat": 38.87671233333333, "type": "electric_bike", "lon": -77.01442866666666, "bike_id": "9e7f38d4dc6635655d54f5a7323dce94", "rental_uris": {"android": "https://dc.lft.to/lastmile_qr_scan", "ios": "https://dc.lft.to/lastmile_qr_scan"}, "name": "9e7f38d4dc6635655d54f5a7323dce94", "is_reserved": 0}, {"is_disabled": 0, "fusion_lon": 0.0, "fusion_lat": 0.0, "lat": 38.88589, "type": "electric_scooter", "lon": -77.03108483333334, "bike_id": "93e5b9707f5210cb529dc398ed3fa777", "rental_uris": {"android": "https://dc.lft.to/lastmile_qr_scan", "ios": "https://dc.lft.to/lastmile_qr_scan"}, "name": "93e5b9707f5210cb529dc398ed3fa777", "is_reserved": 0}, {"is_disabled": 0, "fusion_lon": 0.0, "fusion_lat": 0.0, "lat": 38.93228383333334, "type": "electric_scooter", "lon": -77.02029633333333, "bike_id": "d9b630b1e450caf5718e08ca35419e51", "rental_uris": {"android": "https://dc.lft.to/lastmile_qr_scan", "ios": "https://dc.lft.to/lastmile_qr_scan"}, "name": "d9b630b1e450caf5718e08ca35419e51", "is_reserved": 0}, {"is_disabled": 0, "fusion_lon": 0.0, "fusion_lat": 0.0, "lat": 38.9005935, "type": "electric_scooter", "lon": -77.05341433333334, "bike_id": "d65eddc794cd9113620b183a8ad39af9", "rental_uris": {"android": "https://dc.lft.to/lastmile_qr_scan", "ios": "https://dc.lft.to/lastmile_qr_scan"}, "name": "d65eddc794cd9113620b183a8ad39af9", "is_reserved": 0}, {"is_disabled": 0, "fusion_lon": 0.0, "fusion_lat": 0.0, "lat": 38.906933333333335, "type": "electric_bike", "lon": -76.95195966666667, "bike_id": "857fd4626ff71820a4d7892fb440fcc5", "rental_uris": {"android": "https://dc.lft.to/lastmile_qr_scan", "ios": "https://dc.lft.to/lastmile_qr_scan"}, "name": "857fd4626ff71820a4d7892fb440fcc5", "is_reserved": 0}, {"is_disabled": 0, "fusion_lon": 0.0, "fusion_lat": 0.0, "lat": 38.922654666666666, "type": "electric_scooter", "lon": -77.0413915, "bike_id": "e1dbfe4648da19af5e561f6ed8cd87f5", "rental_uris": {"android": "https://dc.lft.to/lastmile_qr_scan", "ios": "https://dc.lft.to/lastmile_qr_scan"}, "name": "e1dbfe4648da19af5e561f6ed8cd87f5", "is_reserved": 0}, {"is_disabled": 0, "fusion_lon": 0.0, "fusion_lat": 0.0, "lat": 38.90057766666666, "type": "electric_scooter", "lon": -76.934771, "bike_id": "10b0641e3cc38292c368821ff69c586b", "rental_uris": {"android": "https://dc.lft.to/lastmile_qr_scan", "ios": "https://dc.lft.to/lastmile_qr_scan"}, "name": "10b0641e3cc38292c368821ff69c586b", "is_reserved": 0}, {"is_disabled": 0, "fusion_lon": 0.0, "fusion_lat": 0.0, "lat": 38.9195785, "type": "electric_scooter", "lon": -77.0007935, "bike_id": "c442ba16f40ed2de02a0b3f166caa158", "rental_uris": {"android": "https://dc.lft.to/lastmile_qr_scan", "ios": "https://dc.lft.to/lastmile_qr_scan"}, "name": "c442ba16f40ed2de02a0b3f166caa158", "is_reserved": 0}, {"is_disabled": 0, "fusion_lon": 0.0, "fusion_lat": 0.0, "lat": 38.90736783333333, "type": "electric_scooter", "lon": -77.02988066666667, "bike_id": "833a14284a8219fd1bf4a7f7f422e2db", "rental_uris": {"android": "https://dc.lft.to/lastmile_qr_scan", "ios": "https://dc.lft.to/lastmile_qr_scan"}, "name": "833a14284a8219fd1bf4a7f7f422e2db", "is_reserved": 0}, {"is_disabled": 0, "fusion_lon": 0.0, "fusion_lat": 0.0, "lat": 38.92513666666667, "type": "electric_scooter", "lon": -77.0408945, "bike_id": "2246fe0e81e3dbc1eebe20b8f6d86ccf", "rental_uris": {"android": "https://dc.lft.to/lastmile_qr_scan", "ios": "https://dc.lft.to/lastmile_qr_scan"}, "name": "2246fe0e81e3dbc1eebe20b8f6d86ccf", "is_reserved": 0}, {"is_disabled": 0, "fusion_lon": 0.0, "fusion_lat": 0.0, "lat": 38.930344833333336, "type": "electric_scooter", "lon": -77.01953266666666, "bike_id": "967b9433bf036dafdca2fd663f675f96", "rental_uris": {"android": "https://dc.lft.to/lastmile_qr_scan", "ios": "https://dc.lft.to/lastmile_qr_scan"}, "name": "967b9433bf036dafdca2fd663f675f96", "is_reserved": 0}, {"is_disabled": 0, "fusion_lon": 0.0, "fusion_lat": 0.0, "lat": 38.919521333333336, "type": "electric_scooter", "lon": -77.0165195, "bike_id": "19d7709a28177907959c959db0aa3354", "rental_uris": {"android": "https://dc.lft.to/lastmile_qr_scan", "ios": "https://dc.lft.to/lastmile_qr_scan"}, "name": "19d7709a28177907959c959db0aa3354", "is_reserved": 0}, {"is_disabled": 0, "fusion_lon": 0.0, "fusion_lat": 0.0, "lat": 38.89515166666666, "type": "electric_bike", "lon": -76.94944766666667, "bike_id": "0941c11c1b70fe618bc8795ece3d6430", "rental_uris": {"android": "https://dc.lft.to/lastmile_qr_scan", "ios": "https://dc.lft.to/lastmile_qr_scan"}, "name": "0941c11c1b70fe618bc8795ece3d6430", "is_reserved": 0}, {"is_disabled": 0, "fusion_lon": 0.0, "fusion_lat": 0.0, "lat": 38.863414666666664, "type": "electric_bike", "lon": -76.98713366666667, "bike_id": "382adbf517c97aa6c81234c2f6259340", "rental_uris": {"android": "https://dc.lft.to/lastmile_qr_scan", "ios": "https://dc.lft.to/lastmile_qr_scan"}, "name": "382adbf517c97aa6c81234c2f6259340", "is_reserved": 0}, {"is_disabled": 0, "fusion_lon": 0.0, "fusion_lat": 0.0, "lat": 38.92108966666667, "type": "electric_scooter", "lon": -77.0317695, "bike_id": "723a906ff49a3482476945bc7dafd1b4", "rental_uris": {"android": "https://dc.lft.to/lastmile_qr_scan", "ios": "https://dc.lft.to/lastmile_qr_scan"}, "name": "723a906ff49a3482476945bc7dafd1b4", "is_reserved": 0}, {"is_disabled": 0, "fusion_lon": 0.0, "fusion_lat": 0.0, "lat": 38.9000115, "type": "electric_scooter", "lon": -76.99668566666666, "bike_id": "7266fd916a10150cca0dd136765d1b07", "rental_uris": {"android": "https://dc.lft.to/lastmile_qr_scan", "ios": "https://dc.lft.to/lastmile_qr_scan"}, "name": "7266fd916a10150cca0dd136765d1b07", "is_reserved": 0}, {"is_disabled": 0, "fusion_lon": 0.0, "fusion_lat": 0.0, "lat": 38.900614833333336, "type": "electric_scooter", "lon": -76.9868255, "bike_id": "dd021aaedab9310c1437baf1dde3c7e9", "rental_uris": {"android": "https://dc.lft.to/lastmile_qr_scan", "ios": "https://dc.lft.to/lastmile_qr_scan"}, "name": "dd021aaedab9310c1437baf1dde3c7e9", "is_reserved": 0}, {"is_disabled": 0, "fusion_lon": 0.0, "fusion_lat": 0.0, "lat": 38.91383016666666, "type": "electric_scooter", "lon": -77.02969083333333, "bike_id": "44c6e7d46bdf9b794ff58e9f6f0b2548", "rental_uris": {"android": "https://dc.lft.to/lastmile_qr_scan", "ios": "https://dc.lft.to/lastmile_qr_scan"}, "name": "44c6e7d46bdf9b794ff58e9f6f0b2548", "is_reserved": 0}, {"is_disabled": 0, "fusion_lon": 0.0, "fusion_lat": 0.0, "lat": 38.8870065, "type": "electric_scooter", "lon": -76.95364933333333, "bike_id": "268b1b05be52658e6988d526887bc7ef", "rental_uris": {"android": "https://dc.lft.to/lastmile_qr_scan", "ios": "https://dc.lft.to/lastmile_qr_scan"}, "name": "268b1b05be52658e6988d526887bc7ef", "is_reserved": 0}, {"is_disabled": 0, "fusion_lon": 0.0, "fusion_lat": 0.0, "lat": 38.9083395, "type": "electric_scooter", "lon": -76.99695533333333, "bike_id": "176e2be9255e83390a7e047feb9f3f07", "rental_uris": {"android": "https://dc.lft.to/lastmile_qr_scan", "ios": "https://dc.lft.to/lastmile_qr_scan"}, "name": "176e2be9255e83390a7e047feb9f3f07", "is_reserved": 0}, {"is_disabled": 0, "fusion_lon": 0.0, "fusion_lat": 0.0, "lat": 38.911304666666666, "type": "electric_scooter", "lon": -77.04179183333333, "bike_id": "2582f23f393a377d9003d070b1b7e5b3", "rental_uris": {"android": "https://dc.lft.to/lastmile_qr_scan", "ios": "https://dc.lft.to/lastmile_qr_scan"}, "name": "2582f23f393a377d9003d070b1b7e5b3", "is_reserved": 0}, {"is_disabled": 0, "fusion_lon": 0.0, "fusion_lat": 0.0, "lat": 38.842942, "type": "electric_scooter", "lon": -76.9994915, "bike_id": "1da581a04152c8b24c9a1ed37bd52c44", "rental_uris": {"android": "https://dc.lft.to/lastmile_qr_scan", "ios": "https://dc.lft.to/lastmile_qr_scan"}, "name": "1da581a04152c8b24c9a1ed37bd52c44", "is_reserved": 0}, {"is_disabled": 0, "fusion_lon": 0.0, "fusion_lat": 0.0, "lat": 38.935858333333336, "type": "electric_bike", "lon": -77.08252366666666, "bike_id": "891f088f4a30e9a8dd4d3a1f8962abce", "rental_uris": {"android": "https://dc.lft.to/lastmile_qr_scan", "ios": "https://dc.lft.to/lastmile_qr_scan"}, "name": "891f088f4a30e9a8dd4d3a1f8962abce", "is_reserved": 0}, {"is_disabled": 0, "fusion_lon": 0.0, "fusion_lat": 0.0, "lat": 38.975406166666666, "type": "electric_bike", "lon": -76.99531983333333, "bike_id": "d51300ecb4387365ff83b36524448391", "rental_uris": {"android": "https://dc.lft.to/lastmile_qr_scan", "ios": "https://dc.lft.to/lastmile_qr_scan"}, "name": "d51300ecb4387365ff83b36524448391", "is_reserved": 0}, {"is_disabled": 0, "fusion_lon": 0.0, "fusion_lat": 0.0, "lat": 38.86907333333333, "type": "electric_bike", "lon": -77.13178966666666, "bike_id": "3e257af7a172d2738e578d43c50e9bd3", "rental_uris": {"android": "https://dc.lft.to/lastmile_qr_scan", "ios": "https://dc.lft.to/lastmile_qr_scan"}, "name": "3e257af7a172d2738e578d43c50e9bd3", "is_reserved": 0}, {"is_disabled": 0, "fusion_lon": 0.0, "fusion_lat": 0.0, "lat": 38.92282516666667, "type": "electric_scooter", "lon": -77.04228983333333, "bike_id": "c34b1f8c08c08686b26cba950ff04400", "rental_uris": {"android": "https://dc.lft.to/lastmile_qr_scan", "ios": "https://dc.lft.to/lastmile_qr_scan"}, "name": "c34b1f8c08c08686b26cba950ff04400", "is_reserved": 0}, {"is_disabled": 0, "fusion_lon": 0.0, "fusion_lat": 0.0, "lat": 38.90840216666667, "type": "electric_scooter", "lon": -77.0269415, "bike_id": "89f082ca67e3508672df780184b78502", "rental_uris": {"android": "https://dc.lft.to/lastmile_qr_scan", "ios": "https://dc.lft.to/lastmile_qr_scan"}, "name": "89f082ca67e3508672df780184b78502", "is_reserved": 0}, {"is_disabled": 0, "fusion_lon": 0.0, "fusion_lat": 0.0, "lat": 38.911116666666665, "type": "electric_scooter", "lon": -77.0033525, "bike_id": "62c77bc63fa9e62713f8207b327b799d", "rental_uris": {"android": "https://dc.lft.to/lastmile_qr_scan", "ios": "https://dc.lft.to/lastmile_qr_scan"}, "name": "62c77bc63fa9e62713f8207b327b799d", "is_reserved": 0}, {"is_disabled": 0, "fusion_lon": 0.0, "fusion_lat": 0.0, "lat": 38.912696833333335, "type": "electric_scooter", "lon": -77.0222235, "bike_id": "f600ad32f5fc4351098735f960b5a5db", "rental_uris": {"android": "https://dc.lft.to/lastmile_qr_scan", "ios": "https://dc.lft.to/lastmile_qr_scan"}, "name": "f600ad32f5fc4351098735f960b5a5db", "is_reserved": 0}, {"is_disabled": 0, "fusion_lon": 0.0, "fusion_lat": 0.0, "lat": 38.900472666666666, "type": "electric_scooter", "lon": -77.00191583333333, "bike_id": "c47b5086e9e97110f9497afc6573b2ab", "rental_uris": {"android": "https://dc.lft.to/lastmile_qr_scan", "ios": "https://dc.lft.to/lastmile_qr_scan"}, "name": "c47b5086e9e97110f9497afc6573b2ab", "is_reserved": 0}, {"is_disabled": 0, "fusion_lon": 0.0, "fusion_lat": 0.0, "lat": 38.90130716666667, "type": "electric_scooter", "lon": -77.01966566666667, "bike_id": "0571418e76717ec563e961e3d7108ae8", "rental_uris": {"android": "https://dc.lft.to/lastmile_qr_scan", "ios": "https://dc.lft.to/lastmile_qr_scan"}, "name": "0571418e76717ec563e961e3d7108ae8", "is_reserved": 0}, {"is_disabled": 0, "fusion_lon": 0.0, "fusion_lat": 0.0, "lat": 38.935508, "type": "electric_scooter", "lon": -77.02207433333334, "bike_id": "ee1f750068e26db05e93a094c6733eb9", "rental_uris": {"android": "https://dc.lft.to/lastmile_qr_scan", "ios": "https://dc.lft.to/lastmile_qr_scan"}, "name": "ee1f750068e26db05e93a094c6733eb9", "is_reserved": 0}, {"is_disabled": 0, "fusion_lon": 0.0, "fusion_lat": 0.0, "lat": 38.92464066666667, "type": "electric_scooter", "lon": -77.0296355, "bike_id": "c2d63790377e01bb1db046e81ec03d11", "rental_uris": {"android": "https://dc.lft.to/lastmile_qr_scan", "ios": "https://dc.lft.to/lastmile_qr_scan"}, "name": "c2d63790377e01bb1db046e81ec03d11", "is_reserved": 0}, {"is_disabled": 0, "fusion_lon": 0.0, "fusion_lat": 0.0, "lat": 38.93490533333333, "type": "electric_scooter", "lon": -77.0343325, "bike_id": "92408736db16949571fcd963e807f70f", "rental_uris": {"android": "https://dc.lft.to/lastmile_qr_scan", "ios": "https://dc.lft.to/lastmile_qr_scan"}, "name": "92408736db16949571fcd963e807f70f", "is_reserved": 0}, {"is_disabled": 0, "fusion_lon": 0.0, "fusion_lat": 0.0, "lat": 38.90400316666667, "type": "electric_scooter", "lon": -77.03269683333333, "bike_id": "dab9cee63b65d0085579434e7b600339", "rental_uris": {"android": "https://dc.lft.to/lastmile_qr_scan", "ios": "https://dc.lft.to/lastmile_qr_scan"}, "name": "dab9cee63b65d0085579434e7b600339", "is_reserved": 0}, {"is_disabled": 0, "fusion_lon": 0.0, "fusion_lat": 0.0, "lat": 38.91986583333333, "type": "electric_bike", "lon": -76.973147, "bike_id": "b186479d461a26aa62a191abf146f42f", "rental_uris": {"android": "https://dc.lft.to/lastmile_qr_scan", "ios": "https://dc.lft.to/lastmile_qr_scan"}, "name": "b186479d461a26aa62a191abf146f42f", "is_reserved": 0}, {"is_disabled": 0, "fusion_lon": 0.0, "fusion_lat": 0.0, "lat": 38.978463833333336, "type": "electric_bike", "lon": -77.09128416666667, "bike_id": "dea361e97292aed72e975eb48e97f6d4", "rental_uris": {"android": "https://dc.lft.to/lastmile_qr_scan", "ios": "https://dc.lft.to/lastmile_qr_scan"}, "name": "dea361e97292aed72e975eb48e97f6d4", "is_reserved": 0}, {"is_disabled": 0, "fusion_lon": 0.0, "fusion_lat": 0.0, "lat": 38.897345, "type": "electric_scooter", "lon": -77.02161566666666, "bike_id": "f35c6c7a4c7ddd1fb6c45657237044bc", "rental_uris": {"android": "https://dc.lft.to/lastmile_qr_scan", "ios": "https://dc.lft.to/lastmile_qr_scan"}, "name": "f35c6c7a4c7ddd1fb6c45657237044bc", "is_reserved": 0}, {"is_disabled": 0, "fusion_lon": 0.0, "fusion_lat": 0.0, "lat": 38.896324, "type": "electric_scooter", "lon": -77.00894783333334, "bike_id": "2cfc2487bf319600ce523de1c477da21", "rental_uris": {"android": "https://dc.lft.to/lastmile_qr_scan", "ios": "https://dc.lft.to/lastmile_qr_scan"}, "name": "2cfc2487bf319600ce523de1c477da21", "is_reserved": 0}, {"is_disabled": 0, "fusion_lon": 0.0, "fusion_lat": 0.0, "lat": 38.9158995, "type": "electric_bike", "lon": -76.971511, "bike_id": "7da6dfe2776d582d4bcf402365fbf35b", "rental_uris": {"android": "https://dc.lft.to/lastmile_qr_scan", "ios": "https://dc.lft.to/lastmile_qr_scan"}, "name": "7da6dfe2776d582d4bcf402365fbf35b", "is_reserved": 0}, {"is_disabled": 0, "fusion_lon": 0.0, "fusion_lat": 0.0, "lat": 38.93376766666667, "type": "electric_scooter", "lon": -77.0725025, "bike_id": "ec446cebb9f891aed06b5c407a0a43dc", "rental_uris": {"android": "https://dc.lft.to/lastmile_qr_scan", "ios": "https://dc.lft.to/lastmile_qr_scan"}, "name": "ec446cebb9f891aed06b5c407a0a43dc", "is_reserved": 0}, {"is_disabled": 0, "fusion_lon": 0.0, "fusion_lat": 0.0, "lat": 38.917546, "type": "electric_scooter", "lon": -77.03580633333333, "bike_id": "58680c2e36745658d6ce35f4ca84e150", "rental_uris": {"android": "https://dc.lft.to/lastmile_qr_scan", "ios": "https://dc.lft.to/lastmile_qr_scan"}, "name": "58680c2e36745658d6ce35f4ca84e150", "is_reserved": 0}, {"is_disabled": 0, "fusion_lon": 0.0, "fusion_lat": 0.0, "lat": 38.922884333333336, "type": "electric_bike", "lon": -76.99774016666667, "bike_id": "303bdb51de983a4ddcb23099a76494f2", "rental_uris": {"android": "https://dc.lft.to/lastmile_qr_scan", "ios": "https://dc.lft.to/lastmile_qr_scan"}, "name": "303bdb51de983a4ddcb23099a76494f2", "is_reserved": 0}, {"is_disabled": 0, "fusion_lon": 0.0, "fusion_lat": 0.0, "lat": 38.93006616666667, "type": "electric_scooter", "lon": -77.022025, "bike_id": "09b4d1052a8348b7fdd26ce98c537540", "rental_uris": {"android": "https://dc.lft.to/lastmile_qr_scan", "ios": "https://dc.lft.to/lastmile_qr_scan"}, "name": "09b4d1052a8348b7fdd26ce98c537540", "is_reserved": 0}, {"is_disabled": 0, "fusion_lon": 0.0, "fusion_lat": 0.0, "lat": 38.918644, "type": "electric_scooter", "lon": -77.0321625, "bike_id": "012eddbbbe8935e42b96151e8b158f8d", "rental_uris": {"android": "https://dc.lft.to/lastmile_qr_scan", "ios": "https://dc.lft.to/lastmile_qr_scan"}, "name": "012eddbbbe8935e42b96151e8b158f8d", "is_reserved": 0}, {"is_disabled": 0, "fusion_lon": 0.0, "fusion_lat": 0.0, "lat": 38.905705166666664, "type": "electric_scooter", "lon": -77.04342766666667, "bike_id": "3fe0be8db2b97ac7ec217564276ce449", "rental_uris": {"android": "https://dc.lft.to/lastmile_qr_scan", "ios": "https://dc.lft.to/lastmile_qr_scan"}, "name": "3fe0be8db2b97ac7ec217564276ce449", "is_reserved": 0}, {"is_disabled": 0, "fusion_lon": 0.0, "fusion_lat": 0.0, "lat": 38.914168833333335, "type": "electric_scooter", "lon": -77.02566, "bike_id": "2dbb8d553a6e0c9d76bb6958410b1355", "rental_uris": {"android": "https://dc.lft.to/lastmile_qr_scan", "ios": "https://dc.lft.to/lastmile_qr_scan"}, "name": "2dbb8d553a6e0c9d76bb6958410b1355", "is_reserved": 0}, {"is_disabled": 0, "fusion_lon": 0.0, "fusion_lat": 0.0, "lat": 38.8939515, "type": "electric_scooter", "lon": -76.95000483333334, "bike_id": "ca0953ac2e12b66cd5a003afb3ab656e", "rental_uris": {"android": "https://dc.lft.to/lastmile_qr_scan", "ios": "https://dc.lft.to/lastmile_qr_scan"}, "name": "ca0953ac2e12b66cd5a003afb3ab656e", "is_reserved": 0}, {"is_disabled": 0, "fusion_lon": 0.0, "fusion_lat": 0.0, "lat": 38.911939, "type": "electric_scooter", "lon": -77.03714283333333, "bike_id": "f59fa0473135f9ac602592c30f4daf09", "rental_uris": {"android": "https://dc.lft.to/lastmile_qr_scan", "ios": "https://dc.lft.to/lastmile_qr_scan"}, "name": "f59fa0473135f9ac602592c30f4daf09", "is_reserved": 0}, {"is_disabled": 0, "fusion_lon": 0.0, "fusion_lat": 0.0, "lat": 38.9085005, "type": "electric_scooter", "lon": -77.02060866666666, "bike_id": "bf1df876f6513024114d0fb97bb083a6", "rental_uris": {"android": "https://dc.lft.to/lastmile_qr_scan", "ios": "https://dc.lft.to/lastmile_qr_scan"}, "name": "bf1df876f6513024114d0fb97bb083a6", "is_reserved": 0}, {"is_disabled": 0, "fusion_lon": 0.0, "fusion_lat": 0.0, "lat": 38.90529, "type": "electric_scooter", "lon": -77.067871, "bike_id": "31697f12b01d28db4f8f7cca8b5ce57b", "rental_uris": {"android": "https://dc.lft.to/lastmile_qr_scan", "ios": "https://dc.lft.to/lastmile_qr_scan"}, "name": "31697f12b01d28db4f8f7cca8b5ce57b", "is_reserved": 0}, {"is_disabled": 0, "fusion_lon": 0.0, "fusion_lat": 0.0, "lat": 38.90334133333333, "type": "electric_scooter", "lon": -76.97596633333333, "bike_id": "bb7b50a455f80ddc3207b9e9197d138a", "rental_uris": {"android": "https://dc.lft.to/lastmile_qr_scan", "ios": "https://dc.lft.to/lastmile_qr_scan"}, "name": "bb7b50a455f80ddc3207b9e9197d138a", "is_reserved": 0}, {"is_disabled": 0, "fusion_lon": 0.0, "fusion_lat": 0.0, "lat": 38.915595333333336, "type": "electric_scooter", "lon": -77.020023, "bike_id": "b4757a6e67c433b2a9c006c0ea980b73", "rental_uris": {"android": "https://dc.lft.to/lastmile_qr_scan", "ios": "https://dc.lft.to/lastmile_qr_scan"}, "name": "b4757a6e67c433b2a9c006c0ea980b73", "is_reserved": 0}, {"is_disabled": 0, "fusion_lon": 0.0, "fusion_lat": 0.0, "lat": 38.926402, "type": "electric_scooter", "lon": -77.04271666666666, "bike_id": "e90b2ddfd946488c6582a355feb17c72", "rental_uris": {"android": "https://dc.lft.to/lastmile_qr_scan", "ios": "https://dc.lft.to/lastmile_qr_scan"}, "name": "e90b2ddfd946488c6582a355feb17c72", "is_reserved": 0}, {"is_disabled": 0, "fusion_lon": 0.0, "fusion_lat": 0.0, "lat": 38.9050765, "type": "electric_scooter", "lon": -77.0293955, "bike_id": "0a25398cd5feb60884ec00c77816abb5", "rental_uris": {"android": "https://dc.lft.to/lastmile_qr_scan", "ios": "https://dc.lft.to/lastmile_qr_scan"}, "name": "0a25398cd5feb60884ec00c77816abb5", "is_reserved": 0}, {"is_disabled": 0, "fusion_lon": 0.0, "fusion_lat": 0.0, "lat": 38.906671333333335, "type": "electric_scooter", "lon": -77.02710566666667, "bike_id": "d714e62ec5fbbdca1669d74376181d91", "rental_uris": {"android": "https://dc.lft.to/lastmile_qr_scan", "ios": "https://dc.lft.to/lastmile_qr_scan"}, "name": "d714e62ec5fbbdca1669d74376181d91", "is_reserved": 0}, {"is_disabled": 0, "fusion_lon": 0.0, "fusion_lat": 0.0, "lat": 38.84429383333333, "type": "electric_scooter", "lon": -76.9977095, "bike_id": "6cb76764dc013fd603f2b974c92d6098", "rental_uris": {"android": "https://dc.lft.to/lastmile_qr_scan", "ios": "https://dc.lft.to/lastmile_qr_scan"}, "name": "6cb76764dc013fd603f2b974c92d6098", "is_reserved": 0}, {"is_disabled": 0, "fusion_lon": 0.0, "fusion_lat": 0.0, "lat": 38.913098166666664, "type": "electric_scooter", "lon": -77.04665933333334, "bike_id": "17161de828688cdfecf19723983ccbde", "rental_uris": {"android": "https://dc.lft.to/lastmile_qr_scan", "ios": "https://dc.lft.to/lastmile_qr_scan"}, "name": "17161de828688cdfecf19723983ccbde", "is_reserved": 0}, {"is_disabled": 0, "fusion_lon": 0.0, "fusion_lat": 0.0, "lat": 38.895026, "type": "electric_scooter", "lon": -76.94877133333334, "bike_id": "0fe164edf83c43a8dd02d46bd7281796", "rental_uris": {"android": "https://dc.lft.to/lastmile_qr_scan", "ios": "https://dc.lft.to/lastmile_qr_scan"}, "name": "0fe164edf83c43a8dd02d46bd7281796", "is_reserved": 0}, {"is_disabled": 0, "fusion_lon": 0.0, "fusion_lat": 0.0, "lat": 38.893600166666666, "type": "electric_scooter", "lon": -77.0217705, "bike_id": "bfec0ed1f1481093c724d3326851e187", "rental_uris": {"android": "https://dc.lft.to/lastmile_qr_scan", "ios": "https://dc.lft.to/lastmile_qr_scan"}, "name": "bfec0ed1f1481093c724d3326851e187", "is_reserved": 0}, {"is_disabled": 0, "fusion_lon": 0.0, "fusion_lat": 0.0, "lat": 38.94610083333333, "type": "electric_scooter", "lon": -77.03468283333333, "bike_id": "f7cd8589f5141883da3ee0407789bb54", "rental_uris": {"android": "https://dc.lft.to/lastmile_qr_scan", "ios": "https://dc.lft.to/lastmile_qr_scan"}, "name": "f7cd8589f5141883da3ee0407789bb54", "is_reserved": 0}, {"is_disabled": 0, "fusion_lon": 0.0, "fusion_lat": 0.0, "lat": 38.919409, "type": "electric_scooter", "lon": -77.08136616666667, "bike_id": "79e67400b65a5c8bde57adc25409aa46", "rental_uris": {"android": "https://dc.lft.to/lastmile_qr_scan", "ios": "https://dc.lft.to/lastmile_qr_scan"}, "name": "79e67400b65a5c8bde57adc25409aa46", "is_reserved": 0}, {"is_disabled": 0, "fusion_lon": 0.0, "fusion_lat": 0.0, "lat": 38.906351666666666, "type": "electric_scooter", "lon": -77.02507283333334, "bike_id": "cff51015ddd32628555195e9b578b8ab", "rental_uris": {"android": "https://dc.lft.to/lastmile_qr_scan", "ios": "https://dc.lft.to/lastmile_qr_scan"}, "name": "cff51015ddd32628555195e9b578b8ab", "is_reserved": 0}, {"is_disabled": 0, "fusion_lon": 0.0, "fusion_lat": 0.0, "lat": 38.89500133333333, "type": "electric_scooter", "lon": -76.94880483333333, "bike_id": "5fcdb9471e762000baf746ed0dce3b4e", "rental_uris": {"android": "https://dc.lft.to/lastmile_qr_scan", "ios": "https://dc.lft.to/lastmile_qr_scan"}, "name": "5fcdb9471e762000baf746ed0dce3b4e", "is_reserved": 0}, {"is_disabled": 0, "fusion_lon": 0.0, "fusion_lat": 0.0, "lat": 38.898468666666666, "type": "electric_scooter", "lon": -76.94557783333333, "bike_id": "40a9d0c12e1c4eb55d241cda54da0d96", "rental_uris": {"android": "https://dc.lft.to/lastmile_qr_scan", "ios": "https://dc.lft.to/lastmile_qr_scan"}, "name": "40a9d0c12e1c4eb55d241cda54da0d96", "is_reserved": 0}, {"is_disabled": 0, "fusion_lon": 0.0, "fusion_lat": 0.0, "lat": 38.8603245, "type": "electric_scooter", "lon": -76.99694633333333, "bike_id": "3b22db7fdb77255f23e51248b97b3a16", "rental_uris": {"android": "https://dc.lft.to/lastmile_qr_scan", "ios": "https://dc.lft.to/lastmile_qr_scan"}, "name": "3b22db7fdb77255f23e51248b97b3a16", "is_reserved": 0}, {"is_disabled": 0, "fusion_lon": 0.0, "fusion_lat": 0.0, "lat": 39.095913, "type": "electric_bike", "lon": -77.14775233333333, "bike_id": "ea37fd79e77a74a472838753d3731d7f", "rental_uris": {"android": "https://dc.lft.to/lastmile_qr_scan", "ios": "https://dc.lft.to/lastmile_qr_scan"}, "name": "ea37fd79e77a74a472838753d3731d7f", "is_reserved": 0}, {"is_disabled": 0, "fusion_lon": 0.0, "fusion_lat": 0.0, "lat": 38.999344666666666, "type": "electric_bike", "lon": -77.00125533333333, "bike_id": "0efd27adbefac32814cdef8b11262f3f", "rental_uris": {"android": "https://dc.lft.to/lastmile_qr_scan", "ios": "https://dc.lft.to/lastmile_qr_scan"}, "name": "0efd27adbefac32814cdef8b11262f3f", "is_reserved": 0}, {"is_disabled": 0, "fusion_lon": 0.0, "fusion_lat": 0.0, "lat": 38.85543716666667, "type": "electric_bike", "lon": -77.10724683333333, "bike_id": "596a9f8e3ac13008bf4c140f61581f42", "rental_uris": {"android": "https://dc.lft.to/lastmile_qr_scan", "ios": "https://dc.lft.to/lastmile_qr_scan"}, "name": "596a9f8e3ac13008bf4c140f61581f42", "is_reserved": 0}, {"is_disabled": 0, "fusion_lon": 0.0, "fusion_lat": 0.0, "lat": 38.9161585, "type": "electric_scooter", "lon": -77.048649, "bike_id": "87fa10f3da16d3e4cefd24b6087cad42", "rental_uris": {"android": "https://dc.lft.to/lastmile_qr_scan", "ios": "https://dc.lft.to/lastmile_qr_scan"}, "name": "87fa10f3da16d3e4cefd24b6087cad42", "is_reserved": 0}, {"is_disabled": 0, "fusion_lon": 0.0, "fusion_lat": 0.0, "lat": 38.831928166666664, "type": "electric_bike", "lon": -77.07679883333333, "bike_id": "5c601368f0e96572a19c2193f213f47d", "rental_uris": {"android": "https://dc.lft.to/lastmile_qr_scan", "ios": "https://dc.lft.to/lastmile_qr_scan"}, "name": "5c601368f0e96572a19c2193f213f47d", "is_reserved": 0}, {"is_disabled": 0, "fusion_lon": 0.0, "fusion_lat": 0.0, "lat": 38.951774, "type": "electric_scooter", "lon": -77.05660016666667, "bike_id": "0b8aefc909ce4f675086d428929de283", "rental_uris": {"android": "https://dc.lft.to/lastmile_qr_scan", "ios": "https://dc.lft.to/lastmile_qr_scan"}, "name": "0b8aefc909ce4f675086d428929de283", "is_reserved": 0}, {"is_disabled": 0, "fusion_lon": 0.0, "fusion_lat": 0.0, "lat": 38.887683, "type": "electric_bike", "lon": -77.12254183333333, "bike_id": "effcf9d0d59b8b9cf74565450323ebcd", "rental_uris": {"android": "https://dc.lft.to/lastmile_qr_scan", "ios": "https://dc.lft.to/lastmile_qr_scan"}, "name": "effcf9d0d59b8b9cf74565450323ebcd", "is_reserved": 0}, {"is_disabled": 0, "fusion_lon": 0.0, "fusion_lat": 0.0, "lat": 38.828766, "type": "electric_bike", "lon": -77.11224533333333, "bike_id": "007696a59722b53b099debaa58db47bf", "rental_uris": {"android": "https://dc.lft.to/lastmile_qr_scan", "ios": "https://dc.lft.to/lastmile_qr_scan"}, "name": "007696a59722b53b099debaa58db47bf", "is_reserved": 0}, {"is_disabled": 0, "fusion_lon": 0.0, "fusion_lat": 0.0, "lat": 38.965716666666665, "type": "electric_scooter", "lon": -77.01570166666667, "bike_id": "663a6ceafb3abc858bdb0d410d36ea23", "rental_uris": {"android": "https://dc.lft.to/lastmile_qr_scan", "ios": "https://dc.lft.to/lastmile_qr_scan"}, "name": "663a6ceafb3abc858bdb0d410d36ea23", "is_reserved": 0}, {"is_disabled": 0, "fusion_lon": 0.0, "fusion_lat": 0.0, "lat": 38.91815533333333, "type": "electric_scooter", "lon": -77.02471983333334, "bike_id": "436a963ef9e8c1d400250122e2825d54", "rental_uris": {"android": "https://dc.lft.to/lastmile_qr_scan", "ios": "https://dc.lft.to/lastmile_qr_scan"}, "name": "436a963ef9e8c1d400250122e2825d54", "is_reserved": 0}, {"is_disabled": 0, "fusion_lon": 0.0, "fusion_lat": 0.0, "lat": 38.955476, "type": "electric_bike", "lon": -76.9352785, "bike_id": "8aec11a6115843047f73db94e8361bb8", "rental_uris": {"android": "https://dc.lft.to/lastmile_qr_scan", "ios": "https://dc.lft.to/lastmile_qr_scan"}, "name": "8aec11a6115843047f73db94e8361bb8", "is_reserved": 0}, {"is_disabled": 0, "fusion_lon": 0.0, "fusion_lat": 0.0, "lat": 38.882653, "type": "electric_scooter", "lon": -76.98546283333333, "bike_id": "01b9dba78ce669289ed04f8789f6dfb9", "rental_uris": {"android": "https://dc.lft.to/lastmile_qr_scan", "ios": "https://dc.lft.to/lastmile_qr_scan"}, "name": "01b9dba78ce669289ed04f8789f6dfb9", "is_reserved": 0}, {"is_disabled": 0, "fusion_lon": 0.0, "fusion_lat": 0.0, "lat": 38.8332155, "type": "electric_scooter", "lon": -77.00009916666667, "bike_id": "2ce4983aa6a992f5a829db4cc634559e", "rental_uris": {"android": "https://dc.lft.to/lastmile_qr_scan", "ios": "https://dc.lft.to/lastmile_qr_scan"}, "name": "2ce4983aa6a992f5a829db4cc634559e", "is_reserved": 0}, {"is_disabled": 0, "fusion_lon": 0.0, "fusion_lat": 0.0, "lat": 38.8724515, "type": "electric_scooter", "lon": -76.97723333333333, "bike_id": "9c80605b9509bd0594185a734f5125d3", "rental_uris": {"android": "https://dc.lft.to/lastmile_qr_scan", "ios": "https://dc.lft.to/lastmile_qr_scan"}, "name": "9c80605b9509bd0594185a734f5125d3", "is_reserved": 0}, {"is_disabled": 0, "fusion_lon": 0.0, "fusion_lat": 0.0, "lat": 38.913457333333334, "type": "electric_scooter", "lon": -77.04863183333333, "bike_id": "3ffd95282f5c93fbd80826f3ab90320d", "rental_uris": {"android": "https://dc.lft.to/lastmile_qr_scan", "ios": "https://dc.lft.to/lastmile_qr_scan"}, "name": "3ffd95282f5c93fbd80826f3ab90320d", "is_reserved": 0}, {"is_disabled": 0, "fusion_lon": 0.0, "fusion_lat": 0.0, "lat": 38.925737833333336, "type": "electric_scooter", "lon": -77.028714, "bike_id": "df6923940c7e28d79e7fa744dd1ca774", "rental_uris": {"android": "https://dc.lft.to/lastmile_qr_scan", "ios": "https://dc.lft.to/lastmile_qr_scan"}, "name": "df6923940c7e28d79e7fa744dd1ca774", "is_reserved": 0}, {"is_disabled": 0, "fusion_lon": 0.0, "fusion_lat": 0.0, "lat": 38.915495, "type": "electric_scooter", "lon": -77.0379585, "bike_id": "568e4368c983fc23cd22c557c956157b", "rental_uris": {"android": "https://dc.lft.to/lastmile_qr_scan", "ios": "https://dc.lft.to/lastmile_qr_scan"}, "name": "568e4368c983fc23cd22c557c956157b", "is_reserved": 0}, {"is_disabled": 0, "fusion_lon": 0.0, "fusion_lat": 0.0, "lat": 38.9054, "type": "electric_scooter", "lon": -77.05020316666666, "bike_id": "d4ef5802400094a99ef70ecc64b2abb7", "rental_uris": {"android": "https://dc.lft.to/lastmile_qr_scan", "ios": "https://dc.lft.to/lastmile_qr_scan"}, "name": "d4ef5802400094a99ef70ecc64b2abb7", "is_reserved": 0}, {"is_disabled": 0, "fusion_lon": 0.0, "fusion_lat": 0.0, "lat": 38.88632883333333, "type": "electric_scooter", "lon": -76.9551105, "bike_id": "c1d870950e885c8292ef31c757209f95", "rental_uris": {"android": "https://dc.lft.to/lastmile_qr_scan", "ios": "https://dc.lft.to/lastmile_qr_scan"}, "name": "c1d870950e885c8292ef31c757209f95", "is_reserved": 0}, {"is_disabled": 0, "fusion_lon": 0.0, "fusion_lat": 0.0, "lat": 38.91594933333333, "type": "electric_scooter", "lon": -77.02129416666666, "bike_id": "79e50b47cf1327cfe854290a01c5aa83", "rental_uris": {"android": "https://dc.lft.to/lastmile_qr_scan", "ios": "https://dc.lft.to/lastmile_qr_scan"}, "name": "79e50b47cf1327cfe854290a01c5aa83", "is_reserved": 0}, {"is_disabled": 0, "fusion_lon": 0.0, "fusion_lat": 0.0, "lat": 38.92480666666667, "type": "electric_scooter", "lon": -77.03773516666666, "bike_id": "dcf8f4aff98f47c39d83b5b25b6c0e18", "rental_uris": {"android": "https://dc.lft.to/lastmile_qr_scan", "ios": "https://dc.lft.to/lastmile_qr_scan"}, "name": "dcf8f4aff98f47c39d83b5b25b6c0e18", "is_reserved": 0}, {"is_disabled": 0, "fusion_lon": 0.0, "fusion_lat": 0.0, "lat": 38.900172, "type": "electric_scooter", "lon": -77.03964666666667, "bike_id": "c6969752333deed1e9f6c34636da1f55", "rental_uris": {"android": "https://dc.lft.to/lastmile_qr_scan", "ios": "https://dc.lft.to/lastmile_qr_scan"}, "name": "c6969752333deed1e9f6c34636da1f55", "is_reserved": 0}, {"is_disabled": 0, "fusion_lon": 0.0, "fusion_lat": 0.0, "lat": 38.91610583333333, "type": "electric_scooter", "lon": -77.04599533333334, "bike_id": "c858a22a3109e49dc4d82fa962f58667", "rental_uris": {"android": "https://dc.lft.to/lastmile_qr_scan", "ios": "https://dc.lft.to/lastmile_qr_scan"}, "name": "c858a22a3109e49dc4d82fa962f58667", "is_reserved": 0}, {"is_disabled": 0, "fusion_lon": 0.0, "fusion_lat": 0.0, "lat": 38.8968195, "type": "electric_scooter", "lon": -77.01194416666667, "bike_id": "e64dcd695ed5d26b5e081300e8a17bcc", "rental_uris": {"android": "https://dc.lft.to/lastmile_qr_scan", "ios": "https://dc.lft.to/lastmile_qr_scan"}, "name": "e64dcd695ed5d26b5e081300e8a17bcc", "is_reserved": 0}, {"is_disabled": 0, "fusion_lon": 0.0, "fusion_lat": 0.0, "lat": 38.90147416666667, "type": "electric_scooter", "lon": -77.03983333333333, "bike_id": "f9594033d66819d7a96dfca45dae3b3e", "rental_uris": {"android": "https://dc.lft.to/lastmile_qr_scan", "ios": "https://dc.lft.to/lastmile_qr_scan"}, "name": "f9594033d66819d7a96dfca45dae3b3e", "is_reserved": 0}, {"is_disabled": 0, "fusion_lon": 0.0, "fusion_lat": 0.0, "lat": 38.88127016666667, "type": "electric_scooter", "lon": -77.020788, "bike_id": "09f5a94ba0da816b820c452ab1b3ca11", "rental_uris": {"android": "https://dc.lft.to/lastmile_qr_scan", "ios": "https://dc.lft.to/lastmile_qr_scan"}, "name": "09f5a94ba0da816b820c452ab1b3ca11", "is_reserved": 0}, {"is_disabled": 0, "fusion_lon": 0.0, "fusion_lat": 0.0, "lat": 38.90729833333333, "type": "electric_scooter", "lon": -77.02240816666666, "bike_id": "da5cfa5b06e6ca069007fee642d6400c", "rental_uris": {"android": "https://dc.lft.to/lastmile_qr_scan", "ios": "https://dc.lft.to/lastmile_qr_scan"}, "name": "da5cfa5b06e6ca069007fee642d6400c", "is_reserved": 0}, {"is_disabled": 0, "fusion_lon": 0.0, "fusion_lat": 0.0, "lat": 38.92351383333333, "type": "electric_bike", "lon": -76.99246566666666, "bike_id": "7db90c15ad62115cbfd7cc71bf8c2b7b", "rental_uris": {"android": "https://dc.lft.to/lastmile_qr_scan", "ios": "https://dc.lft.to/lastmile_qr_scan"}, "name": "7db90c15ad62115cbfd7cc71bf8c2b7b", "is_reserved": 0}, {"is_disabled": 0, "fusion_lon": 0.0, "fusion_lat": 0.0, "lat": 38.990809, "type": "electric_bike", "lon": -77.02380866666667, "bike_id": "ebc3de8436bad9f9833fa980724d9468", "rental_uris": {"android": "https://dc.lft.to/lastmile_qr_scan", "ios": "https://dc.lft.to/lastmile_qr_scan"}, "name": "ebc3de8436bad9f9833fa980724d9468", "is_reserved": 0}, {"is_disabled": 0, "fusion_lon": 0.0, "fusion_lat": 0.0, "lat": 38.9178525, "type": "electric_scooter", "lon": -77.0435715, "bike_id": "55d4ef5e796c1e95d690a6dcc0c76781", "rental_uris": {"android": "https://dc.lft.to/lastmile_qr_scan", "ios": "https://dc.lft.to/lastmile_qr_scan"}, "name": "55d4ef5e796c1e95d690a6dcc0c76781", "is_reserved": 0}, {"is_disabled": 0, "fusion_lon": 0.0, "fusion_lat": 0.0, "lat": 38.911117, "type": "electric_scooter", "lon": -77.04502733333334, "bike_id": "7bc54bf2e2ecb46d04943d74cf95ebbc", "rental_uris": {"android": "https://dc.lft.to/lastmile_qr_scan", "ios": "https://dc.lft.to/lastmile_qr_scan"}, "name": "7bc54bf2e2ecb46d04943d74cf95ebbc", "is_reserved": 0}, {"is_disabled": 0, "fusion_lon": 0.0, "fusion_lat": 0.0, "lat": 38.90852866666667, "type": "electric_scooter", "lon": -77.06348166666666, "bike_id": "9be0a3874379c7e95e62febcf3075be7", "rental_uris": {"android": "https://dc.lft.to/lastmile_qr_scan", "ios": "https://dc.lft.to/lastmile_qr_scan"}, "name": "9be0a3874379c7e95e62febcf3075be7", "is_reserved": 0}, {"is_disabled": 0, "fusion_lon": 0.0, "fusion_lat": 0.0, "lat": 38.909479833333336, "type": "electric_scooter", "lon": -77.03442866666667, "bike_id": "f1ea5a8872952a7185fbd55313d1ff91", "rental_uris": {"android": "https://dc.lft.to/lastmile_qr_scan", "ios": "https://dc.lft.to/lastmile_qr_scan"}, "name": "f1ea5a8872952a7185fbd55313d1ff91", "is_reserved": 0}, {"is_disabled": 0, "fusion_lon": 0.0, "fusion_lat": 0.0, "lat": 38.87499966666667, "type": "electric_scooter", "lon": -76.9980215, "bike_id": "503a2d9d0430850e9538813eb94a8c6d", "rental_uris": {"android": "https://dc.lft.to/lastmile_qr_scan", "ios": "https://dc.lft.to/lastmile_qr_scan"}, "name": "503a2d9d0430850e9538813eb94a8c6d", "is_reserved": 0}, {"is_disabled": 0, "fusion_lon": 0.0, "fusion_lat": 0.0, "lat": 38.92141433333333, "type": "electric_scooter", "lon": -77.00914733333333, "bike_id": "885dc6342648a6d1476c82649d80bf74", "rental_uris": {"android": "https://dc.lft.to/lastmile_qr_scan", "ios": "https://dc.lft.to/lastmile_qr_scan"}, "name": "885dc6342648a6d1476c82649d80bf74", "is_reserved": 0}, {"is_disabled": 0, "fusion_lon": 0.0, "fusion_lat": 0.0, "lat": 38.90728283333333, "type": "electric_scooter", "lon": -77.0241525, "bike_id": "fd87462a329bf94d587f30d85c724713", "rental_uris": {"android": "https://dc.lft.to/lastmile_qr_scan", "ios": "https://dc.lft.to/lastmile_qr_scan"}, "name": "fd87462a329bf94d587f30d85c724713", "is_reserved": 0}, {"is_disabled": 0, "fusion_lon": 0.0, "fusion_lat": 0.0, "lat": 38.919205166666664, "type": "electric_scooter", "lon": -77.0447105, "bike_id": "c05dfd97c69117af644286f9bdf4e305", "rental_uris": {"android": "https://dc.lft.to/lastmile_qr_scan", "ios": "https://dc.lft.to/lastmile_qr_scan"}, "name": "c05dfd97c69117af644286f9bdf4e305", "is_reserved": 0}, {"is_disabled": 0, "fusion_lon": 0.0, "fusion_lat": 0.0, "lat": 38.93106366666667, "type": "electric_scooter", "lon": -77.02457933333334, "bike_id": "78917105a1aa542b3c465ccef5f0cd01", "rental_uris": {"android": "https://dc.lft.to/lastmile_qr_scan", "ios": "https://dc.lft.to/lastmile_qr_scan"}, "name": "78917105a1aa542b3c465ccef5f0cd01", "is_reserved": 0}, {"is_disabled": 0, "fusion_lon": 0.0, "fusion_lat": 0.0, "lat": 38.913426, "type": "electric_scooter", "lon": -77.0422735, "bike_id": "797edda31c49ab99dae376187774de7a", "rental_uris": {"android": "https://dc.lft.to/lastmile_qr_scan", "ios": "https://dc.lft.to/lastmile_qr_scan"}, "name": "797edda31c49ab99dae376187774de7a", "is_reserved": 0}, {"is_disabled": 0, "fusion_lon": 0.0, "fusion_lat": 0.0, "lat": 38.88720583333333, "type": "electric_scooter", "lon": -77.02206816666667, "bike_id": "971ad25d11f67bdd3cfd4685adeb9191", "rental_uris": {"android": "https://dc.lft.to/lastmile_qr_scan", "ios": "https://dc.lft.to/lastmile_qr_scan"}, "name": "971ad25d11f67bdd3cfd4685adeb9191", "is_reserved": 0}, {"is_disabled": 0, "fusion_lon": 0.0, "fusion_lat": 0.0, "lat": 38.9291585, "type": "electric_scooter", "lon": -77.02146866666666, "bike_id": "90f3dad32d2c16d73723c225156a8085", "rental_uris": {"android": "https://dc.lft.to/lastmile_qr_scan", "ios": "https://dc.lft.to/lastmile_qr_scan"}, "name": "90f3dad32d2c16d73723c225156a8085", "is_reserved": 0}, {"is_disabled": 0, "fusion_lon": 0.0, "fusion_lat": 0.0, "lat": 38.902623166666665, "type": "electric_scooter", "lon": -77.00013733333333, "bike_id": "1b202d1d0765c814c26d5814891ba7fc", "rental_uris": {"android": "https://dc.lft.to/lastmile_qr_scan", "ios": "https://dc.lft.to/lastmile_qr_scan"}, "name": "1b202d1d0765c814c26d5814891ba7fc", "is_reserved": 0}, {"is_disabled": 0, "fusion_lon": 0.0, "fusion_lat": 0.0, "lat": 38.864670833333335, "type": "electric_scooter", "lon": -76.996119, "bike_id": "539939c1713716a6089ec0fff84a66a4", "rental_uris": {"android": "https://dc.lft.to/lastmile_qr_scan", "ios": "https://dc.lft.to/lastmile_qr_scan"}, "name": "539939c1713716a6089ec0fff84a66a4", "is_reserved": 0}, {"is_disabled": 0, "fusion_lon": 0.0, "fusion_lat": 0.0, "lat": 38.905138666666666, "type": "electric_scooter", "lon": -77.05148, "bike_id": "ee735d8151ee54ec7242594a12dcc08f", "rental_uris": {"android": "https://dc.lft.to/lastmile_qr_scan", "ios": "https://dc.lft.to/lastmile_qr_scan"}, "name": "ee735d8151ee54ec7242594a12dcc08f", "is_reserved": 0}, {"is_disabled": 0, "fusion_lon": 0.0, "fusion_lat": 0.0, "lat": 38.9563705, "type": "electric_scooter", "lon": -77.0298335, "bike_id": "f771adee0d52ede4357c36013ed4a541", "rental_uris": {"android": "https://dc.lft.to/lastmile_qr_scan", "ios": "https://dc.lft.to/lastmile_qr_scan"}, "name": "f771adee0d52ede4357c36013ed4a541", "is_reserved": 0}, {"is_disabled": 0, "fusion_lon": 0.0, "fusion_lat": 0.0, "lat": 38.88170783333333, "type": "electric_scooter", "lon": -77.0087705, "bike_id": "0a18bf3f241e5cbbabda4bbc8b86592f", "rental_uris": {"android": "https://dc.lft.to/lastmile_qr_scan", "ios": "https://dc.lft.to/lastmile_qr_scan"}, "name": "0a18bf3f241e5cbbabda4bbc8b86592f", "is_reserved": 0}, {"is_disabled": 0, "fusion_lon": 0.0, "fusion_lat": 0.0, "lat": 38.8597165, "type": "electric_scooter", "lon": -76.983994, "bike_id": "89c7798857cecbe1ce12342ed087bebd", "rental_uris": {"android": "https://dc.lft.to/lastmile_qr_scan", "ios": "https://dc.lft.to/lastmile_qr_scan"}, "name": "89c7798857cecbe1ce12342ed087bebd", "is_reserved": 0}, {"is_disabled": 0, "fusion_lon": 0.0, "fusion_lat": 0.0, "lat": 38.927380166666666, "type": "electric_bike", "lon": -76.9936375, "bike_id": "156a0941434246abce6b9ae50675aaf1", "rental_uris": {"android": "https://dc.lft.to/lastmile_qr_scan", "ios": "https://dc.lft.to/lastmile_qr_scan"}, "name": "156a0941434246abce6b9ae50675aaf1", "is_reserved": 0}, {"is_disabled": 0, "fusion_lon": 0.0, "fusion_lat": 0.0, "lat": 38.850680833333335, "type": "electric_bike", "lon": -76.973321, "bike_id": "bc66a5e4b8de2eaeba482f34ab9a8dc0", "rental_uris": {"android": "https://dc.lft.to/lastmile_qr_scan", "ios": "https://dc.lft.to/lastmile_qr_scan"}, "name": "bc66a5e4b8de2eaeba482f34ab9a8dc0", "is_reserved": 0}, {"is_disabled": 0, "fusion_lon": 0.0, "fusion_lat": 0.0, "lat": 38.919047166666665, "type": "electric_scooter", "lon": -77.02756, "bike_id": "923cbbcd29b0398522529401c8d7963a", "rental_uris": {"android": "https://dc.lft.to/lastmile_qr_scan", "ios": "https://dc.lft.to/lastmile_qr_scan"}, "name": "923cbbcd29b0398522529401c8d7963a", "is_reserved": 0}, {"is_disabled": 0, "fusion_lon": 0.0, "fusion_lat": 0.0, "lat": 38.918056, "type": "electric_scooter", "lon": -77.03549333333333, "bike_id": "48d9bf451a843ae9827214f8dc6bb73e", "rental_uris": {"android": "https://dc.lft.to/lastmile_qr_scan", "ios": "https://dc.lft.to/lastmile_qr_scan"}, "name": "48d9bf451a843ae9827214f8dc6bb73e", "is_reserved": 0}, {"is_disabled": 0, "fusion_lon": 0.0, "fusion_lat": 0.0, "lat": 38.92797233333334, "type": "electric_scooter", "lon": -77.023004, "bike_id": "6553e85fb1125fd8194c3ea400c2738c", "rental_uris": {"android": "https://dc.lft.to/lastmile_qr_scan", "ios": "https://dc.lft.to/lastmile_qr_scan"}, "name": "6553e85fb1125fd8194c3ea400c2738c", "is_reserved": 0}, {"is_disabled": 0, "fusion_lon": 0.0, "fusion_lat": 0.0, "lat": 38.9050585, "type": "electric_scooter", "lon": -77.0294015, "bike_id": "fcb3689cb0d1c9b5f1b35dfd04378d37", "rental_uris": {"android": "https://dc.lft.to/lastmile_qr_scan", "ios": "https://dc.lft.to/lastmile_qr_scan"}, "name": "fcb3689cb0d1c9b5f1b35dfd04378d37", "is_reserved": 0}, {"is_disabled": 0, "fusion_lon": 0.0, "fusion_lat": 0.0, "lat": 38.91423533333333, "type": "electric_scooter", "lon": -77.02968666666666, "bike_id": "822ea1b8f1953391378406f530463a94", "rental_uris": {"android": "https://dc.lft.to/lastmile_qr_scan", "ios": "https://dc.lft.to/lastmile_qr_scan"}, "name": "822ea1b8f1953391378406f530463a94", "is_reserved": 0}, {"is_disabled": 0, "fusion_lon": 0.0, "fusion_lat": 0.0, "lat": 38.91778816666667, "type": "electric_scooter", "lon": -77.04150066666666, "bike_id": "20faf05e65e9fb68eccc1302eb09a73c", "rental_uris": {"android": "https://dc.lft.to/lastmile_qr_scan", "ios": "https://dc.lft.to/lastmile_qr_scan"}, "name": "20faf05e65e9fb68eccc1302eb09a73c", "is_reserved": 0}, {"is_disabled": 0, "fusion_lon": 0.0, "fusion_lat": 0.0, "lat": 38.89992483333333, "type": "electric_scooter", "lon": -77.03356933333333, "bike_id": "00f55b460b69ce4dc6c4f9bf2fd38b0b", "rental_uris": {"android": "https://dc.lft.to/lastmile_qr_scan", "ios": "https://dc.lft.to/lastmile_qr_scan"}, "name": "00f55b460b69ce4dc6c4f9bf2fd38b0b", "is_reserved": 0}, {"is_disabled": 0, "fusion_lon": 0.0, "fusion_lat": 0.0, "lat": 38.921495166666666, "type": "electric_scooter", "lon": -77.04428883333334, "bike_id": "3fa67cebd847e6fc8ea02583ebbbb8ad", "rental_uris": {"android": "https://dc.lft.to/lastmile_qr_scan", "ios": "https://dc.lft.to/lastmile_qr_scan"}, "name": "3fa67cebd847e6fc8ea02583ebbbb8ad", "is_reserved": 0}, {"is_disabled": 0, "fusion_lon": 0.0, "fusion_lat": 0.0, "lat": 38.921344833333336, "type": "electric_scooter", "lon": -77.04390666666667, "bike_id": "148e7d167a359ff9f1391d3a1c308f29", "rental_uris": {"android": "https://dc.lft.to/lastmile_qr_scan", "ios": "https://dc.lft.to/lastmile_qr_scan"}, "name": "148e7d167a359ff9f1391d3a1c308f29", "is_reserved": 0}, {"is_disabled": 0, "fusion_lon": 0.0, "fusion_lat": 0.0, "lat": 38.892263166666666, "type": "electric_scooter", "lon": -77.04360683333333, "bike_id": "ded9a7192e8d084cd56d73ef3e836ee7", "rental_uris": {"android": "https://dc.lft.to/lastmile_qr_scan", "ios": "https://dc.lft.to/lastmile_qr_scan"}, "name": "ded9a7192e8d084cd56d73ef3e836ee7", "is_reserved": 0}, {"is_disabled": 0, "fusion_lon": 0.0, "fusion_lat": 0.0, "lat": 38.857809333333336, "type": "electric_bike", "lon": -76.98754216666667, "bike_id": "70d62b51e8bf970b5f376f4ca08c1e06", "rental_uris": {"android": "https://dc.lft.to/lastmile_qr_scan", "ios": "https://dc.lft.to/lastmile_qr_scan"}, "name": "70d62b51e8bf970b5f376f4ca08c1e06", "is_reserved": 0}, {"is_disabled": 0, "fusion_lon": 0.0, "fusion_lat": 0.0, "lat": 38.904740833333335, "type": "electric_bike", "lon": -76.92946866666666, "bike_id": "7212699ef3dd178bd09d110a087e2ffe", "rental_uris": {"android": "https://dc.lft.to/lastmile_qr_scan", "ios": "https://dc.lft.to/lastmile_qr_scan"}, "name": "7212699ef3dd178bd09d110a087e2ffe", "is_reserved": 0}, {"is_disabled": 0, "fusion_lon": 0.0, "fusion_lat": 0.0, "lat": 38.85282, "type": "electric_bike", "lon": -76.98153366666666, "bike_id": "c6b72064545d32997e002f6699e3ffcc", "rental_uris": {"android": "https://dc.lft.to/lastmile_qr_scan", "ios": "https://dc.lft.to/lastmile_qr_scan"}, "name": "c6b72064545d32997e002f6699e3ffcc", "is_reserved": 0}, {"is_disabled": 0, "fusion_lon": 0.0, "fusion_lat": 0.0, "lat": 38.90579116666667, "type": "electric_scooter", "lon": -77.0558895, "bike_id": "0ae0d17e99471980fb7fcea95a35d02b", "rental_uris": {"android": "https://dc.lft.to/lastmile_qr_scan", "ios": "https://dc.lft.to/lastmile_qr_scan"}, "name": "0ae0d17e99471980fb7fcea95a35d02b", "is_reserved": 0}, {"is_disabled": 0, "fusion_lon": 0.0, "fusion_lat": 0.0, "lat": 38.90455, "type": "electric_scooter", "lon": -77.02410866666666, "bike_id": "c252a0a2f91e532ea4349bd2ee9ed1f8", "rental_uris": {"android": "https://dc.lft.to/lastmile_qr_scan", "ios": "https://dc.lft.to/lastmile_qr_scan"}, "name": "c252a0a2f91e532ea4349bd2ee9ed1f8", "is_reserved": 0}, {"is_disabled": 0, "fusion_lon": 0.0, "fusion_lat": 0.0, "lat": 38.943329166666665, "type": "electric_bike", "lon": -77.0147725, "bike_id": "82f963d6a811f3387d424af6a3ec9577", "rental_uris": {"android": "https://dc.lft.to/lastmile_qr_scan", "ios": "https://dc.lft.to/lastmile_qr_scan"}, "name": "82f963d6a811f3387d424af6a3ec9577", "is_reserved": 0}, {"is_disabled": 0, "fusion_lon": 0.0, "fusion_lat": 0.0, "lat": 38.907203333333335, "type": "electric_scooter", "lon": -77.02715366666666, "bike_id": "68e1a1fcb7ff1e9b475ce44970308393", "rental_uris": {"android": "https://dc.lft.to/lastmile_qr_scan", "ios": "https://dc.lft.to/lastmile_qr_scan"}, "name": "68e1a1fcb7ff1e9b475ce44970308393", "is_reserved": 0}, {"is_disabled": 0, "fusion_lon": 0.0, "fusion_lat": 0.0, "lat": 39.0038765, "type": "electric_bike", "lon": -77.01296366666666, "bike_id": "ec667528e073c1a840e11960f142c5ce", "rental_uris": {"android": "https://dc.lft.to/lastmile_qr_scan", "ios": "https://dc.lft.to/lastmile_qr_scan"}, "name": "ec667528e073c1a840e11960f142c5ce", "is_reserved": 0}, {"is_disabled": 0, "fusion_lon": 0.0, "fusion_lat": 0.0, "lat": 38.9348925, "type": "electric_scooter", "lon": -77.03290466666667, "bike_id": "49dce43f1f4407736a5584d5363c1725", "rental_uris": {"android": "https://dc.lft.to/lastmile_qr_scan", "ios": "https://dc.lft.to/lastmile_qr_scan"}, "name": "49dce43f1f4407736a5584d5363c1725", "is_reserved": 0}, {"is_disabled": 0, "fusion_lon": 0.0, "fusion_lat": 0.0, "lat": 38.965551, "type": "electric_bike", "lon": -77.02300666666666, "bike_id": "8c0c33bd0308bd65a701ac73f9472cc8", "rental_uris": {"android": "https://dc.lft.to/lastmile_qr_scan", "ios": "https://dc.lft.to/lastmile_qr_scan"}, "name": "8c0c33bd0308bd65a701ac73f9472cc8", "is_reserved": 0}, {"is_disabled": 0, "fusion_lon": 0.0, "fusion_lat": 0.0, "lat": 38.90935483333333, "type": "electric_scooter", "lon": -76.97732383333333, "bike_id": "cce035abb557639b68611e698d560d28", "rental_uris": {"android": "https://dc.lft.to/lastmile_qr_scan", "ios": "https://dc.lft.to/lastmile_qr_scan"}, "name": "cce035abb557639b68611e698d560d28", "is_reserved": 0}, {"is_disabled": 0, "fusion_lon": 0.0, "fusion_lat": 0.0, "lat": 38.924335666666664, "type": "electric_scooter", "lon": -77.042461, "bike_id": "3039b53235a08e9e61d565348be44e7d", "rental_uris": {"android": "https://dc.lft.to/lastmile_qr_scan", "ios": "https://dc.lft.to/lastmile_qr_scan"}, "name": "3039b53235a08e9e61d565348be44e7d", "is_reserved": 0}, {"is_disabled": 0, "fusion_lon": 0.0, "fusion_lat": 0.0, "lat": 38.90707866666666, "type": "electric_scooter", "lon": -77.02390066666666, "bike_id": "c604a909fe78ad3a3c6f2f436905d63d", "rental_uris": {"android": "https://dc.lft.to/lastmile_qr_scan", "ios": "https://dc.lft.to/lastmile_qr_scan"}, "name": "c604a909fe78ad3a3c6f2f436905d63d", "is_reserved": 0}, {"is_disabled": 0, "fusion_lon": 0.0, "fusion_lat": 0.0, "lat": 38.918098666666666, "type": "electric_scooter", "lon": -77.024413, "bike_id": "9ee1f4477e1c8a823807c045bd50a34a", "rental_uris": {"android": "https://dc.lft.to/lastmile_qr_scan", "ios": "https://dc.lft.to/lastmile_qr_scan"}, "name": "9ee1f4477e1c8a823807c045bd50a34a", "is_reserved": 0}, {"is_disabled": 0, "fusion_lon": 0.0, "fusion_lat": 0.0, "lat": 38.9008615, "type": "electric_scooter", "lon": -77.01795466666667, "bike_id": "66f3e80d889481bf50aea960e97c66d6", "rental_uris": {"android": "https://dc.lft.to/lastmile_qr_scan", "ios": "https://dc.lft.to/lastmile_qr_scan"}, "name": "66f3e80d889481bf50aea960e97c66d6", "is_reserved": 0}, {"is_disabled": 0, "fusion_lon": 0.0, "fusion_lat": 0.0, "lat": 38.934626333333334, "type": "electric_scooter", "lon": -77.0274615, "bike_id": "9f27fc3167c53f7a3a19412131c6c730", "rental_uris": {"android": "https://dc.lft.to/lastmile_qr_scan", "ios": "https://dc.lft.to/lastmile_qr_scan"}, "name": "9f27fc3167c53f7a3a19412131c6c730", "is_reserved": 0}, {"is_disabled": 0, "fusion_lon": 0.0, "fusion_lat": 0.0, "lat": 38.9181435, "type": "electric_scooter", "lon": -77.03179716666666, "bike_id": "091f1cb3b7d2c8afc6fd468e5a962346", "rental_uris": {"android": "https://dc.lft.to/lastmile_qr_scan", "ios": "https://dc.lft.to/lastmile_qr_scan"}, "name": "091f1cb3b7d2c8afc6fd468e5a962346", "is_reserved": 0}, {"is_disabled": 0, "fusion_lon": 0.0, "fusion_lat": 0.0, "lat": 38.907926, "type": "electric_scooter", "lon": -77.04984433333334, "bike_id": "bb3eb98ed2d7f42092e83bf37d812c3a", "rental_uris": {"android": "https://dc.lft.to/lastmile_qr_scan", "ios": "https://dc.lft.to/lastmile_qr_scan"}, "name": "bb3eb98ed2d7f42092e83bf37d812c3a", "is_reserved": 0}, {"is_disabled": 0, "fusion_lon": 0.0, "fusion_lat": 0.0, "lat": 38.92159783333334, "type": "electric_scooter", "lon": -77.03380566666667, "bike_id": "41a16672303d9dfafd4e76cc9eef00ca", "rental_uris": {"android": "https://dc.lft.to/lastmile_qr_scan", "ios": "https://dc.lft.to/lastmile_qr_scan"}, "name": "41a16672303d9dfafd4e76cc9eef00ca", "is_reserved": 0}, {"is_disabled": 0, "fusion_lon": 0.0, "fusion_lat": 0.0, "lat": 38.8946485, "type": "electric_scooter", "lon": -76.99488216666667, "bike_id": "459eab44aac620455089f0adca1f8a70", "rental_uris": {"android": "https://dc.lft.to/lastmile_qr_scan", "ios": "https://dc.lft.to/lastmile_qr_scan"}, "name": "459eab44aac620455089f0adca1f8a70", "is_reserved": 0}, {"is_disabled": 0, "fusion_lon": 0.0, "fusion_lat": 0.0, "lat": 38.907206, "type": "electric_scooter", "lon": -77.02990666666666, "bike_id": "9bcc61d268a3b88c3ac7dd69d8f45b57", "rental_uris": {"android": "https://dc.lft.to/lastmile_qr_scan", "ios": "https://dc.lft.to/lastmile_qr_scan"}, "name": "9bcc61d268a3b88c3ac7dd69d8f45b57", "is_reserved": 0}, {"is_disabled": 0, "fusion_lon": 0.0, "fusion_lat": 0.0, "lat": 38.886276333333335, "type": "electric_scooter", "lon": -76.99851483333333, "bike_id": "ba67d347a42a5e7ca41adeefbb7bab18", "rental_uris": {"android": "https://dc.lft.to/lastmile_qr_scan", "ios": "https://dc.lft.to/lastmile_qr_scan"}, "name": "ba67d347a42a5e7ca41adeefbb7bab18", "is_reserved": 0}, {"is_disabled": 0, "fusion_lon": 0.0, "fusion_lat": 0.0, "lat": 38.8381415, "type": "electric_scooter", "lon": -77.0043325, "bike_id": "925d7b4979567d64f9f5dd152c185d5f", "rental_uris": {"android": "https://dc.lft.to/lastmile_qr_scan", "ios": "https://dc.lft.to/lastmile_qr_scan"}, "name": "925d7b4979567d64f9f5dd152c185d5f", "is_reserved": 0}, {"is_disabled": 0, "fusion_lon": 0.0, "fusion_lat": 0.0, "lat": 39.09944316666667, "type": "electric_bike", "lon": -77.18790933333334, "bike_id": "7a27be736985c288af26c9a58b063228", "rental_uris": {"android": "https://dc.lft.to/lastmile_qr_scan", "ios": "https://dc.lft.to/lastmile_qr_scan"}, "name": "7a27be736985c288af26c9a58b063228", "is_reserved": 0}, {"is_disabled": 0, "fusion_lon": 0.0, "fusion_lat": 0.0, "lat": 38.842962666666665, "type": "electric_scooter", "lon": -76.9995235, "bike_id": "c94aa6bb263fec4b0dd7172fc8d676d4", "rental_uris": {"android": "https://dc.lft.to/lastmile_qr_scan", "ios": "https://dc.lft.to/lastmile_qr_scan"}, "name": "c94aa6bb263fec4b0dd7172fc8d676d4", "is_reserved": 0}, {"is_disabled": 0, "fusion_lon": 0.0, "fusion_lat": 0.0, "lat": 38.89528033333333, "type": "electric_scooter", "lon": -77.01107966666666, "bike_id": "295a5005d1b6194f106a83638586f140", "rental_uris": {"android": "https://dc.lft.to/lastmile_qr_scan", "ios": "https://dc.lft.to/lastmile_qr_scan"}, "name": "295a5005d1b6194f106a83638586f140", "is_reserved": 0}, {"is_disabled": 0, "fusion_lon": 0.0, "fusion_lat": 0.0, "lat": 38.935018666666664, "type": "electric_bike", "lon": -76.9496495, "bike_id": "c860c80b09a10ffa72304ef2e3c1eb48", "rental_uris": {"android": "https://dc.lft.to/lastmile_qr_scan", "ios": "https://dc.lft.to/lastmile_qr_scan"}, "name": "c860c80b09a10ffa72304ef2e3c1eb48", "is_reserved": 0}, {"is_disabled": 0, "fusion_lon": 0.0, "fusion_lat": 0.0, "lat": 38.89747233333333, "type": "electric_scooter", "lon": -77.02821166666666, "bike_id": "04af8ef44202f4a35c1614562ff9c3e6", "rental_uris": {"android": "https://dc.lft.to/lastmile_qr_scan", "ios": "https://dc.lft.to/lastmile_qr_scan"}, "name": "04af8ef44202f4a35c1614562ff9c3e6", "is_reserved": 0}, {"is_disabled": 0, "fusion_lon": 0.0, "fusion_lat": 0.0, "lat": 38.93045166666667, "type": "electric_scooter", "lon": -76.9962985, "bike_id": "0ce473dfca678ad4debb2316d78da994", "rental_uris": {"android": "https://dc.lft.to/lastmile_qr_scan", "ios": "https://dc.lft.to/lastmile_qr_scan"}, "name": "0ce473dfca678ad4debb2316d78da994", "is_reserved": 0}, {"is_disabled": 0, "fusion_lon": 0.0, "fusion_lat": 0.0, "lat": 38.92260433333333, "type": "electric_scooter", "lon": -77.07128533333334, "bike_id": "f12e5d43606112dd95d8105fcefbc016", "rental_uris": {"android": "https://dc.lft.to/lastmile_qr_scan", "ios": "https://dc.lft.to/lastmile_qr_scan"}, "name": "f12e5d43606112dd95d8105fcefbc016", "is_reserved": 0}, {"is_disabled": 0, "fusion_lon": 0.0, "fusion_lat": 0.0, "lat": 38.91153383333334, "type": "electric_scooter", "lon": -76.98503116666667, "bike_id": "364ec180f082d9f143867f570ae5001a", "rental_uris": {"android": "https://dc.lft.to/lastmile_qr_scan", "ios": "https://dc.lft.to/lastmile_qr_scan"}, "name": "364ec180f082d9f143867f570ae5001a", "is_reserved": 0}, {"is_disabled": 0, "fusion_lon": 0.0, "fusion_lat": 0.0, "lat": 38.90465566666666, "type": "electric_scooter", "lon": -76.99212333333334, "bike_id": "19a40c9bb25e27ef4d41acee6a808c7e", "rental_uris": {"android": "https://dc.lft.to/lastmile_qr_scan", "ios": "https://dc.lft.to/lastmile_qr_scan"}, "name": "19a40c9bb25e27ef4d41acee6a808c7e", "is_reserved": 0}, {"is_disabled": 0, "fusion_lon": 0.0, "fusion_lat": 0.0, "lat": 38.935409, "type": "electric_scooter", "lon": -77.034059, "bike_id": "7032475bc7d3c6956f0b5e67707e0f50", "rental_uris": {"android": "https://dc.lft.to/lastmile_qr_scan", "ios": "https://dc.lft.to/lastmile_qr_scan"}, "name": "7032475bc7d3c6956f0b5e67707e0f50", "is_reserved": 0}, {"is_disabled": 0, "fusion_lon": 0.0, "fusion_lat": 0.0, "lat": 38.897440833333334, "type": "electric_scooter", "lon": -77.04680716666667, "bike_id": "5bb64fa53849c688967f5426713852fe", "rental_uris": {"android": "https://dc.lft.to/lastmile_qr_scan", "ios": "https://dc.lft.to/lastmile_qr_scan"}, "name": "5bb64fa53849c688967f5426713852fe", "is_reserved": 0}, {"is_disabled": 0, "fusion_lon": 0.0, "fusion_lat": 0.0, "lat": 38.89236966666667, "type": "electric_scooter", "lon": -77.04673866666667, "bike_id": "5a393f80a5d2b7353901a8e59b103662", "rental_uris": {"android": "https://dc.lft.to/lastmile_qr_scan", "ios": "https://dc.lft.to/lastmile_qr_scan"}, "name": "5a393f80a5d2b7353901a8e59b103662", "is_reserved": 0}, {"is_disabled": 0, "fusion_lon": 0.0, "fusion_lat": 0.0, "lat": 38.932755666666665, "type": "electric_scooter", "lon": -76.97421566666667, "bike_id": "594dafda07d3c5b2400c3802ccd300c1", "rental_uris": {"android": "https://dc.lft.to/lastmile_qr_scan", "ios": "https://dc.lft.to/lastmile_qr_scan"}, "name": "594dafda07d3c5b2400c3802ccd300c1", "is_reserved": 0}, {"is_disabled": 0, "fusion_lon": 0.0, "fusion_lat": 0.0, "lat": 38.905128833333336, "type": "electric_bike", "lon": -76.98126116666667, "bike_id": "f1c2c0194c82c10c5a53e6462615ecaf", "rental_uris": {"android": "https://dc.lft.to/lastmile_qr_scan", "ios": "https://dc.lft.to/lastmile_qr_scan"}, "name": "f1c2c0194c82c10c5a53e6462615ecaf", "is_reserved": 0}, {"is_disabled": 0, "fusion_lon": 0.0, "fusion_lat": 0.0, "lat": 38.927507166666665, "type": "electric_scooter", "lon": -77.0059505, "bike_id": "a8d846742d43a67c72f5e3b76f79c6f2", "rental_uris": {"android": "https://dc.lft.to/lastmile_qr_scan", "ios": "https://dc.lft.to/lastmile_qr_scan"}, "name": "a8d846742d43a67c72f5e3b76f79c6f2", "is_reserved": 0}, {"is_disabled": 0, "fusion_lon": 0.0, "fusion_lat": 0.0, "lat": 38.907666, "type": "electric_scooter", "lon": -77.06313883333333, "bike_id": "ff03c1b0a34cb76a808bb8d0a48bb8f4", "rental_uris": {"android": "https://dc.lft.to/lastmile_qr_scan", "ios": "https://dc.lft.to/lastmile_qr_scan"}, "name": "ff03c1b0a34cb76a808bb8d0a48bb8f4", "is_reserved": 0}, {"is_disabled": 0, "fusion_lon": 0.0, "fusion_lat": 0.0, "lat": 38.85214666666667, "type": "electric_bike", "lon": -77.10129233333333, "bike_id": "b39557a10c5e46f261472f29815858a4", "rental_uris": {"android": "https://dc.lft.to/lastmile_qr_scan", "ios": "https://dc.lft.to/lastmile_qr_scan"}, "name": "b39557a10c5e46f261472f29815858a4", "is_reserved": 0}, {"is_disabled": 0, "fusion_lon": 0.0, "fusion_lat": 0.0, "lat": 38.903658166666666, "type": "electric_scooter", "lon": -77.01779083333334, "bike_id": "f66e8cfe6c994a95eb16105bd7b23fa0", "rental_uris": {"android": "https://dc.lft.to/lastmile_qr_scan", "ios": "https://dc.lft.to/lastmile_qr_scan"}, "name": "f66e8cfe6c994a95eb16105bd7b23fa0", "is_reserved": 0}, {"is_disabled": 0, "fusion_lon": 0.0, "fusion_lat": 0.0, "lat": 38.905803, "type": "electric_scooter", "lon": -76.98752816666666, "bike_id": "67ce5aed17a7e4d4a0bb684143114237", "rental_uris": {"android": "https://dc.lft.to/lastmile_qr_scan", "ios": "https://dc.lft.to/lastmile_qr_scan"}, "name": "67ce5aed17a7e4d4a0bb684143114237", "is_reserved": 0}, {"is_disabled": 0, "fusion_lon": 0.0, "fusion_lat": 0.0, "lat": 38.930931666666666, "type": "electric_scooter", "lon": -77.03432833333333, "bike_id": "77b687d45fbf7e5b75795896bf83929d", "rental_uris": {"android": "https://dc.lft.to/lastmile_qr_scan", "ios": "https://dc.lft.to/lastmile_qr_scan"}, "name": "77b687d45fbf7e5b75795896bf83929d", "is_reserved": 0}, {"is_disabled": 0, "fusion_lon": 0.0, "fusion_lat": 0.0, "lat": 38.95273683333333, "type": "electric_scooter", "lon": -77.06871583333333, "bike_id": "ef806a9edc694128e8d9dd96bcaa1ff9", "rental_uris": {"android": "https://dc.lft.to/lastmile_qr_scan", "ios": "https://dc.lft.to/lastmile_qr_scan"}, "name": "ef806a9edc694128e8d9dd96bcaa1ff9", "is_reserved": 0}, {"is_disabled": 0, "fusion_lon": 0.0, "fusion_lat": 0.0, "lat": 38.892309166666664, "type": "electric_scooter", "lon": -77.04363066666667, "bike_id": "1ef7d339a2489422ef635a432c8a58a6", "rental_uris": {"android": "https://dc.lft.to/lastmile_qr_scan", "ios": "https://dc.lft.to/lastmile_qr_scan"}, "name": "1ef7d339a2489422ef635a432c8a58a6", "is_reserved": 0}, {"is_disabled": 0, "fusion_lon": 0.0, "fusion_lat": 0.0, "lat": 38.89312, "type": "electric_scooter", "lon": -77.02208266666666, "bike_id": "ad884f18be9bb9334c2838cc062d0401", "rental_uris": {"android": "https://dc.lft.to/lastmile_qr_scan", "ios": "https://dc.lft.to/lastmile_qr_scan"}, "name": "ad884f18be9bb9334c2838cc062d0401", "is_reserved": 0}, {"is_disabled": 0, "fusion_lon": 0.0, "fusion_lat": 0.0, "lat": 38.9233665, "type": "electric_scooter", "lon": -77.04745866666667, "bike_id": "db147082aac5a6cc67f8cf1858fa5dbb", "rental_uris": {"android": "https://dc.lft.to/lastmile_qr_scan", "ios": "https://dc.lft.to/lastmile_qr_scan"}, "name": "db147082aac5a6cc67f8cf1858fa5dbb", "is_reserved": 0}, {"is_disabled": 0, "fusion_lon": 0.0, "fusion_lat": 0.0, "lat": 38.910373166666666, "type": "electric_scooter", "lon": -77.04055666666666, "bike_id": "59d38c9457fa0f01cbc45b708b4ecbcb", "rental_uris": {"android": "https://dc.lft.to/lastmile_qr_scan", "ios": "https://dc.lft.to/lastmile_qr_scan"}, "name": "59d38c9457fa0f01cbc45b708b4ecbcb", "is_reserved": 0}, {"is_disabled": 0, "fusion_lon": 0.0, "fusion_lat": 0.0, "lat": 38.905116166666666, "type": "electric_scooter", "lon": -76.98848566666666, "bike_id": "8769a0e4e83b103ca6956d82e18f3faa", "rental_uris": {"android": "https://dc.lft.to/lastmile_qr_scan", "ios": "https://dc.lft.to/lastmile_qr_scan"}, "name": "8769a0e4e83b103ca6956d82e18f3faa", "is_reserved": 0}, {"is_disabled": 0, "fusion_lon": 0.0, "fusion_lat": 0.0, "lat": 38.89374133333333, "type": "electric_scooter", "lon": -76.94994016666666, "bike_id": "7d9d3ec1686e685daedbaa4d8dd47218", "rental_uris": {"android": "https://dc.lft.to/lastmile_qr_scan", "ios": "https://dc.lft.to/lastmile_qr_scan"}, "name": "7d9d3ec1686e685daedbaa4d8dd47218", "is_reserved": 0}, {"is_disabled": 0, "fusion_lon": 0.0, "fusion_lat": 0.0, "lat": 38.908885833333336, "type": "electric_bike", "lon": -77.032167, "bike_id": "a3bbe4ae1ce67263efe575b82ef84a80", "rental_uris": {"android": "https://dc.lft.to/lastmile_qr_scan", "ios": "https://dc.lft.to/lastmile_qr_scan"}, "name": "a3bbe4ae1ce67263efe575b82ef84a80", "is_reserved": 0}, {"is_disabled": 0, "fusion_lon": 0.0, "fusion_lat": 0.0, "lat": 38.91656866666667, "type": "electric_scooter", "lon": -77.03447283333334, "bike_id": "a3143912cf51855c4dc92d217502397c", "rental_uris": {"android": "https://dc.lft.to/lastmile_qr_scan", "ios": "https://dc.lft.to/lastmile_qr_scan"}, "name": "a3143912cf51855c4dc92d217502397c", "is_reserved": 0}, {"is_disabled": 0, "fusion_lon": 0.0, "fusion_lat": 0.0, "lat": 38.90589533333333, "type": "electric_scooter", "lon": -77.00702683333333, "bike_id": "d45cb4666327adcde7b80bce24ba902c", "rental_uris": {"android": "https://dc.lft.to/lastmile_qr_scan", "ios": "https://dc.lft.to/lastmile_qr_scan"}, "name": "d45cb4666327adcde7b80bce24ba902c", "is_reserved": 0}, {"is_disabled": 0, "fusion_lon": 0.0, "fusion_lat": 0.0, "lat": 38.905565833333334, "type": "electric_scooter", "lon": -77.019991, "bike_id": "201496a5750fc06601c0ef243d0be13e", "rental_uris": {"android": "https://dc.lft.to/lastmile_qr_scan", "ios": "https://dc.lft.to/lastmile_qr_scan"}, "name": "201496a5750fc06601c0ef243d0be13e", "is_reserved": 0}, {"is_disabled": 0, "fusion_lon": 0.0, "fusion_lat": 0.0, "lat": 38.912911, "type": "electric_scooter", "lon": -76.9869975, "bike_id": "11d170e954e9897ff3d7d34378b9d069", "rental_uris": {"android": "https://dc.lft.to/lastmile_qr_scan", "ios": "https://dc.lft.to/lastmile_qr_scan"}, "name": "11d170e954e9897ff3d7d34378b9d069", "is_reserved": 0}, {"is_disabled": 0, "fusion_lon": 0.0, "fusion_lat": 0.0, "lat": 38.90536816666667, "type": "electric_scooter", "lon": -77.05701166666667, "bike_id": "17e60b5cee272f7bbebe5deb417509fc", "rental_uris": {"android": "https://dc.lft.to/lastmile_qr_scan", "ios": "https://dc.lft.to/lastmile_qr_scan"}, "name": "17e60b5cee272f7bbebe5deb417509fc", "is_reserved": 0}, {"is_disabled": 0, "fusion_lon": 0.0, "fusion_lat": 0.0, "lat": 38.91185316666667, "type": "electric_scooter", "lon": -77.03922133333333, "bike_id": "46f82d60c6cbf2005b4723386dd953eb", "rental_uris": {"android": "https://dc.lft.to/lastmile_qr_scan", "ios": "https://dc.lft.to/lastmile_qr_scan"}, "name": "46f82d60c6cbf2005b4723386dd953eb", "is_reserved": 0}, {"is_disabled": 0, "fusion_lon": 0.0, "fusion_lat": 0.0, "lat": 38.899112333333335, "type": "electric_scooter", "lon": -76.93389366666666, "bike_id": "a71323debc452417c5a4f91a05218209", "rental_uris": {"android": "https://dc.lft.to/lastmile_qr_scan", "ios": "https://dc.lft.to/lastmile_qr_scan"}, "name": "a71323debc452417c5a4f91a05218209", "is_reserved": 0}, {"is_disabled": 0, "fusion_lon": 0.0, "fusion_lat": 0.0, "lat": 38.8920965, "type": "electric_scooter", "lon": -76.988029, "bike_id": "a4fc955735511ce2392f02823e0f4c54", "rental_uris": {"android": "https://dc.lft.to/lastmile_qr_scan", "ios": "https://dc.lft.to/lastmile_qr_scan"}, "name": "a4fc955735511ce2392f02823e0f4c54", "is_reserved": 0}, {"is_disabled": 0, "fusion_lon": 0.0, "fusion_lat": 0.0, "lat": 38.89837816666667, "type": "electric_scooter", "lon": -77.03165033333333, "bike_id": "fd9abc1f7257ce791524e217873d9e27", "rental_uris": {"android": "https://dc.lft.to/lastmile_qr_scan", "ios": "https://dc.lft.to/lastmile_qr_scan"}, "name": "fd9abc1f7257ce791524e217873d9e27", "is_reserved": 0}, {"is_disabled": 0, "fusion_lon": 0.0, "fusion_lat": 0.0, "lat": 38.9242285, "type": "electric_scooter", "lon": -77.05619016666667, "bike_id": "66df5e7bc934e11caafb87da0ea216d9", "rental_uris": {"android": "https://dc.lft.to/lastmile_qr_scan", "ios": "https://dc.lft.to/lastmile_qr_scan"}, "name": "66df5e7bc934e11caafb87da0ea216d9", "is_reserved": 0}, {"is_disabled": 0, "fusion_lon": 0.0, "fusion_lat": 0.0, "lat": 38.91852866666667, "type": "electric_scooter", "lon": -77.02952716666667, "bike_id": "e3e966c0aaab31b443a81accdd222b06", "rental_uris": {"android": "https://dc.lft.to/lastmile_qr_scan", "ios": "https://dc.lft.to/lastmile_qr_scan"}, "name": "e3e966c0aaab31b443a81accdd222b06", "is_reserved": 0}, {"is_disabled": 0, "fusion_lon": 0.0, "fusion_lat": 0.0, "lat": 38.96927516666667, "type": "electric_bike", "lon": -77.026084, "bike_id": "e26ae302eb201fab1e74768c6f3d6ea1", "rental_uris": {"android": "https://dc.lft.to/lastmile_qr_scan", "ios": "https://dc.lft.to/lastmile_qr_scan"}, "name": "e26ae302eb201fab1e74768c6f3d6ea1", "is_reserved": 0}, {"is_disabled": 0, "fusion_lon": 0.0, "fusion_lat": 0.0, "lat": 38.91484033333333, "type": "electric_scooter", "lon": -77.04407783333333, "bike_id": "2cd2f41ae20ce79f81dc57d7199766b4", "rental_uris": {"android": "https://dc.lft.to/lastmile_qr_scan", "ios": "https://dc.lft.to/lastmile_qr_scan"}, "name": "2cd2f41ae20ce79f81dc57d7199766b4", "is_reserved": 0}, {"is_disabled": 0, "fusion_lon": 0.0, "fusion_lat": 0.0, "lat": 38.98665166666667, "type": "electric_scooter", "lon": -77.02643316666666, "bike_id": "7c87a9999d5d71cc8ec572dc5b3f5308", "rental_uris": {"android": "https://dc.lft.to/lastmile_qr_scan", "ios": "https://dc.lft.to/lastmile_qr_scan"}, "name": "7c87a9999d5d71cc8ec572dc5b3f5308", "is_reserved": 0}, {"is_disabled": 0, "fusion_lon": 0.0, "fusion_lat": 0.0, "lat": 38.8888075, "type": "electric_scooter", "lon": -77.02857316666666, "bike_id": "34f256e0dc09043bb52672573bb281a6", "rental_uris": {"android": "https://dc.lft.to/lastmile_qr_scan", "ios": "https://dc.lft.to/lastmile_qr_scan"}, "name": "34f256e0dc09043bb52672573bb281a6", "is_reserved": 0}, {"is_disabled": 0, "fusion_lon": 0.0, "fusion_lat": 0.0, "lat": 38.836090166666665, "type": "electric_bike", "lon": -77.00380633333333, "bike_id": "505781c2a158e030e361c9b26b2a9f37", "rental_uris": {"android": "https://dc.lft.to/lastmile_qr_scan", "ios": "https://dc.lft.to/lastmile_qr_scan"}, "name": "505781c2a158e030e361c9b26b2a9f37", "is_reserved": 0}, {"is_disabled": 0, "fusion_lon": 0.0, "fusion_lat": 0.0, "lat": 38.83151866666667, "type": "electric_bike", "lon": -76.99689016666666, "bike_id": "7cc326b184610a75c6f489822fbf4f53", "rental_uris": {"android": "https://dc.lft.to/lastmile_qr_scan", "ios": "https://dc.lft.to/lastmile_qr_scan"}, "name": "7cc326b184610a75c6f489822fbf4f53", "is_reserved": 0}, {"is_disabled": 0, "fusion_lon": 0.0, "fusion_lat": 0.0, "lat": 38.988201333333336, "type": "electric_bike", "lon": -77.0265155, "bike_id": "920f5c9f020bfae0c4ff78dd4566bd76", "rental_uris": {"android": "https://dc.lft.to/lastmile_qr_scan", "ios": "https://dc.lft.to/lastmile_qr_scan"}, "name": "920f5c9f020bfae0c4ff78dd4566bd76", "is_reserved": 0}, {"is_disabled": 0, "fusion_lon": 0.0, "fusion_lat": 0.0, "lat": 38.942525833333335, "type": "electric_scooter", "lon": -77.0217335, "bike_id": "4a665d21408ade1cba20b513dea1595c", "rental_uris": {"android": "https://dc.lft.to/lastmile_qr_scan", "ios": "https://dc.lft.to/lastmile_qr_scan"}, "name": "4a665d21408ade1cba20b513dea1595c", "is_reserved": 0}, {"is_disabled": 0, "fusion_lon": 0.0, "fusion_lat": 0.0, "lat": 38.89796916666667, "type": "electric_scooter", "lon": -76.93050133333334, "bike_id": "2e7da8490091784face7cb0c0f85fd81", "rental_uris": {"android": "https://dc.lft.to/lastmile_qr_scan", "ios": "https://dc.lft.to/lastmile_qr_scan"}, "name": "2e7da8490091784face7cb0c0f85fd81", "is_reserved": 0}, {"is_disabled": 0, "fusion_lon": 0.0, "fusion_lat": 0.0, "lat": 38.867368666666664, "type": "electric_scooter", "lon": -76.98850833333333, "bike_id": "dad53e4fab882818799bbff140ba1200", "rental_uris": {"android": "https://dc.lft.to/lastmile_qr_scan", "ios": "https://dc.lft.to/lastmile_qr_scan"}, "name": "dad53e4fab882818799bbff140ba1200", "is_reserved": 0}, {"is_disabled": 0, "fusion_lon": 0.0, "fusion_lat": 0.0, "lat": 38.949853, "type": "electric_scooter", "lon": -77.02704233333333, "bike_id": "5122f29139561f3ebffb46ab1df1b911", "rental_uris": {"android": "https://dc.lft.to/lastmile_qr_scan", "ios": "https://dc.lft.to/lastmile_qr_scan"}, "name": "5122f29139561f3ebffb46ab1df1b911", "is_reserved": 0}, {"is_disabled": 0, "fusion_lon": 0.0, "fusion_lat": 0.0, "lat": 38.92663683333333, "type": "electric_scooter", "lon": -77.0230545, "bike_id": "93d835d2b91b694c559bb2f80e5f2554", "rental_uris": {"android": "https://dc.lft.to/lastmile_qr_scan", "ios": "https://dc.lft.to/lastmile_qr_scan"}, "name": "93d835d2b91b694c559bb2f80e5f2554", "is_reserved": 0}, {"is_disabled": 0, "fusion_lon": 0.0, "fusion_lat": 0.0, "lat": 38.91205033333333, "type": "electric_scooter", "lon": -76.98484833333333, "bike_id": "2a6a4ad98e0eaf6607249fc7f8f2ec55", "rental_uris": {"android": "https://dc.lft.to/lastmile_qr_scan", "ios": "https://dc.lft.to/lastmile_qr_scan"}, "name": "2a6a4ad98e0eaf6607249fc7f8f2ec55", "is_reserved": 0}, {"is_disabled": 0, "fusion_lon": 0.0, "fusion_lat": 0.0, "lat": 38.88758033333333, "type": "electric_scooter", "lon": -77.00230083333334, "bike_id": "3da8e01f2615536753a7be4591ef0d73", "rental_uris": {"android": "https://dc.lft.to/lastmile_qr_scan", "ios": "https://dc.lft.to/lastmile_qr_scan"}, "name": "3da8e01f2615536753a7be4591ef0d73", "is_reserved": 0}, {"is_disabled": 0, "fusion_lon": 0.0, "fusion_lat": 0.0, "lat": 38.901825333333335, "type": "electric_scooter", "lon": -77.05030766666667, "bike_id": "66e1246babb47b34a895050478b8e84c", "rental_uris": {"android": "https://dc.lft.to/lastmile_qr_scan", "ios": "https://dc.lft.to/lastmile_qr_scan"}, "name": "66e1246babb47b34a895050478b8e84c", "is_reserved": 0}, {"is_disabled": 0, "fusion_lon": 0.0, "fusion_lat": 0.0, "lat": 38.899981333333336, "type": "electric_scooter", "lon": -76.9916875, "bike_id": "13c2bca914af3db3133accaa8b756b85", "rental_uris": {"android": "https://dc.lft.to/lastmile_qr_scan", "ios": "https://dc.lft.to/lastmile_qr_scan"}, "name": "13c2bca914af3db3133accaa8b756b85", "is_reserved": 0}, {"is_disabled": 0, "fusion_lon": 0.0, "fusion_lat": 0.0, "lat": 38.90200266666667, "type": "electric_scooter", "lon": -77.03968183333333, "bike_id": "b70ec647806df244ff0ac3a2dc6d2464", "rental_uris": {"android": "https://dc.lft.to/lastmile_qr_scan", "ios": "https://dc.lft.to/lastmile_qr_scan"}, "name": "b70ec647806df244ff0ac3a2dc6d2464", "is_reserved": 0}, {"is_disabled": 0, "fusion_lon": 0.0, "fusion_lat": 0.0, "lat": 38.9017275, "type": "electric_scooter", "lon": -76.99385983333333, "bike_id": "4baf3f80a30af2d7ee31414108c652c3", "rental_uris": {"android": "https://dc.lft.to/lastmile_qr_scan", "ios": "https://dc.lft.to/lastmile_qr_scan"}, "name": "4baf3f80a30af2d7ee31414108c652c3", "is_reserved": 0}, {"is_disabled": 0, "fusion_lon": 0.0, "fusion_lat": 0.0, "lat": 38.902730166666665, "type": "electric_scooter", "lon": -77.0033205, "bike_id": "c25f0ac1caac2eef380e389455b978e5", "rental_uris": {"android": "https://dc.lft.to/lastmile_qr_scan", "ios": "https://dc.lft.to/lastmile_qr_scan"}, "name": "c25f0ac1caac2eef380e389455b978e5", "is_reserved": 0}, {"is_disabled": 0, "fusion_lon": 0.0, "fusion_lat": 0.0, "lat": 38.872082, "type": "electric_bike", "lon": -76.95485083333334, "bike_id": "1140db34d5a53cad92889ce2375337f7", "rental_uris": {"android": "https://dc.lft.to/lastmile_qr_scan", "ios": "https://dc.lft.to/lastmile_qr_scan"}, "name": "1140db34d5a53cad92889ce2375337f7", "is_reserved": 0}, {"is_disabled": 0, "fusion_lon": 0.0, "fusion_lat": 0.0, "lat": 38.94845933333333, "type": "electric_bike", "lon": -76.97209733333334, "bike_id": "03748e60f12bfa76d89073641dd5f563", "rental_uris": {"android": "https://dc.lft.to/lastmile_qr_scan", "ios": "https://dc.lft.to/lastmile_qr_scan"}, "name": "03748e60f12bfa76d89073641dd5f563", "is_reserved": 0}, {"is_disabled": 0, "fusion_lon": 0.0, "fusion_lat": 0.0, "lat": 38.87638466666667, "type": "electric_scooter", "lon": -76.9976525, "bike_id": "ff673cbb2bf5aa5ce9772de88d2faff6", "rental_uris": {"android": "https://dc.lft.to/lastmile_qr_scan", "ios": "https://dc.lft.to/lastmile_qr_scan"}, "name": "ff673cbb2bf5aa5ce9772de88d2faff6", "is_reserved": 0}, {"is_disabled": 0, "fusion_lon": 0.0, "fusion_lat": 0.0, "lat": 38.97065416666667, "type": "electric_bike", "lon": -76.96063816666667, "bike_id": "3d64b103b4144a950f178ebc16363932", "rental_uris": {"android": "https://dc.lft.to/lastmile_qr_scan", "ios": "https://dc.lft.to/lastmile_qr_scan"}, "name": "3d64b103b4144a950f178ebc16363932", "is_reserved": 0}, {"is_disabled": 0, "fusion_lon": 0.0, "fusion_lat": 0.0, "lat": 38.917336666666664, "type": "electric_scooter", "lon": -76.99180283333334, "bike_id": "625d5c7bcfe21fc1111deafdab3919d5", "rental_uris": {"android": "https://dc.lft.to/lastmile_qr_scan", "ios": "https://dc.lft.to/lastmile_qr_scan"}, "name": "625d5c7bcfe21fc1111deafdab3919d5", "is_reserved": 0}, {"is_disabled": 0, "fusion_lon": 0.0, "fusion_lat": 0.0, "lat": 38.91866016666667, "type": "electric_scooter", "lon": -77.032116, "bike_id": "2627c22677bafd83d0777c674b6b6d1d", "rental_uris": {"android": "https://dc.lft.to/lastmile_qr_scan", "ios": "https://dc.lft.to/lastmile_qr_scan"}, "name": "2627c22677bafd83d0777c674b6b6d1d", "is_reserved": 0}, {"is_disabled": 0, "fusion_lon": 0.0, "fusion_lat": 0.0, "lat": 38.900067666666665, "type": "electric_scooter", "lon": -77.033303, "bike_id": "d30e426af9d8748d5ee41915c7f028df", "rental_uris": {"android": "https://dc.lft.to/lastmile_qr_scan", "ios": "https://dc.lft.to/lastmile_qr_scan"}, "name": "d30e426af9d8748d5ee41915c7f028df", "is_reserved": 0}, {"is_disabled": 0, "fusion_lon": 0.0, "fusion_lat": 0.0, "lat": 38.909672666666665, "type": "electric_scooter", "lon": -77.023782, "bike_id": "dc229df19dc809c480a04b028220f350", "rental_uris": {"android": "https://dc.lft.to/lastmile_qr_scan", "ios": "https://dc.lft.to/lastmile_qr_scan"}, "name": "dc229df19dc809c480a04b028220f350", "is_reserved": 0}, {"is_disabled": 0, "fusion_lon": 0.0, "fusion_lat": 0.0, "lat": 38.81029133333333, "type": "electric_bike", "lon": -77.08436466666667, "bike_id": "55be467c833c17573c6a5f680ddf6647", "rental_uris": {"android": "https://dc.lft.to/lastmile_qr_scan", "ios": "https://dc.lft.to/lastmile_qr_scan"}, "name": "55be467c833c17573c6a5f680ddf6647", "is_reserved": 0}, {"is_disabled": 0, "fusion_lon": 0.0, "fusion_lat": 0.0, "lat": 38.91899516666667, "type": "electric_scooter", "lon": -77.07114433333334, "bike_id": "ce462dea7da2cba6feb7e566060cd7d8", "rental_uris": {"android": "https://dc.lft.to/lastmile_qr_scan", "ios": "https://dc.lft.to/lastmile_qr_scan"}, "name": "ce462dea7da2cba6feb7e566060cd7d8", "is_reserved": 0}, {"is_disabled": 0, "fusion_lon": 0.0, "fusion_lat": 0.0, "lat": 38.943067166666665, "type": "electric_scooter", "lon": -77.02760316666667, "bike_id": "9dd4d608fd6c3e8173fe84f65448d60c", "rental_uris": {"android": "https://dc.lft.to/lastmile_qr_scan", "ios": "https://dc.lft.to/lastmile_qr_scan"}, "name": "9dd4d608fd6c3e8173fe84f65448d60c", "is_reserved": 0}, {"is_disabled": 0, "fusion_lon": 0.0, "fusion_lat": 0.0, "lat": 38.91936966666667, "type": "electric_bike", "lon": -76.97503883333333, "bike_id": "b28f69c7afdc60d2d3f7ba67fddccca4", "rental_uris": {"android": "https://dc.lft.to/lastmile_qr_scan", "ios": "https://dc.lft.to/lastmile_qr_scan"}, "name": "b28f69c7afdc60d2d3f7ba67fddccca4", "is_reserved": 0}, {"is_disabled": 0, "fusion_lon": 0.0, "fusion_lat": 0.0, "lat": 38.905175166666666, "type": "electric_scooter", "lon": -77.053166, "bike_id": "8e1594b0a0870db863d2a8b8f80cda03", "rental_uris": {"android": "https://dc.lft.to/lastmile_qr_scan", "ios": "https://dc.lft.to/lastmile_qr_scan"}, "name": "8e1594b0a0870db863d2a8b8f80cda03", "is_reserved": 0}, {"is_disabled": 0, "fusion_lon": 0.0, "fusion_lat": 0.0, "lat": 38.91009583333334, "type": "electric_scooter", "lon": -77.08092416666666, "bike_id": "9f4a3adc77e3cb33aeee68a092f77aa4", "rental_uris": {"android": "https://dc.lft.to/lastmile_qr_scan", "ios": "https://dc.lft.to/lastmile_qr_scan"}, "name": "9f4a3adc77e3cb33aeee68a092f77aa4", "is_reserved": 0}, {"is_disabled": 0, "fusion_lon": 0.0, "fusion_lat": 0.0, "lat": 38.894105, "type": "electric_scooter", "lon": -77.010851, "bike_id": "5802168c79912063f402aaa0f763b6f1", "rental_uris": {"android": "https://dc.lft.to/lastmile_qr_scan", "ios": "https://dc.lft.to/lastmile_qr_scan"}, "name": "5802168c79912063f402aaa0f763b6f1", "is_reserved": 0}, {"is_disabled": 0, "fusion_lon": 0.0, "fusion_lat": 0.0, "lat": 38.92071983333334, "type": "electric_scooter", "lon": -77.04379616666667, "bike_id": "b13f3ed57a85d7d415a7d8145d67e7cd", "rental_uris": {"android": "https://dc.lft.to/lastmile_qr_scan", "ios": "https://dc.lft.to/lastmile_qr_scan"}, "name": "b13f3ed57a85d7d415a7d8145d67e7cd", "is_reserved": 0}, {"is_disabled": 0, "fusion_lon": 0.0, "fusion_lat": 0.0, "lat": 38.92340883333333, "type": "electric_scooter", "lon": -77.04193966666666, "bike_id": "969d9cad132b290d83cf931676587437", "rental_uris": {"android": "https://dc.lft.to/lastmile_qr_scan", "ios": "https://dc.lft.to/lastmile_qr_scan"}, "name": "969d9cad132b290d83cf931676587437", "is_reserved": 0}, {"is_disabled": 0, "fusion_lon": 0.0, "fusion_lat": 0.0, "lat": 38.86961633333333, "type": "electric_scooter", "lon": -76.96034716666666, "bike_id": "52e0d74b4377628a0c4594b82d0347c1", "rental_uris": {"android": "https://dc.lft.to/lastmile_qr_scan", "ios": "https://dc.lft.to/lastmile_qr_scan"}, "name": "52e0d74b4377628a0c4594b82d0347c1", "is_reserved": 0}, {"is_disabled": 0, "fusion_lon": 0.0, "fusion_lat": 0.0, "lat": 38.915616166666666, "type": "electric_scooter", "lon": -77.00769816666667, "bike_id": "5998f69c9471ab29f872c63c831c6795", "rental_uris": {"android": "https://dc.lft.to/lastmile_qr_scan", "ios": "https://dc.lft.to/lastmile_qr_scan"}, "name": "5998f69c9471ab29f872c63c831c6795", "is_reserved": 0}, {"is_disabled": 0, "fusion_lon": 0.0, "fusion_lat": 0.0, "lat": 38.93009716666667, "type": "electric_scooter", "lon": -77.020945, "bike_id": "f4cbd2808e1ca928ef697856edf6fa1b", "rental_uris": {"android": "https://dc.lft.to/lastmile_qr_scan", "ios": "https://dc.lft.to/lastmile_qr_scan"}, "name": "f4cbd2808e1ca928ef697856edf6fa1b", "is_reserved": 0}, {"is_disabled": 0, "fusion_lon": 0.0, "fusion_lat": 0.0, "lat": 38.908487, "type": "electric_scooter", "lon": -77.02061733333333, "bike_id": "d4d505c48756bcaec74f471880b6eaf0", "rental_uris": {"android": "https://dc.lft.to/lastmile_qr_scan", "ios": "https://dc.lft.to/lastmile_qr_scan"}, "name": "d4d505c48756bcaec74f471880b6eaf0", "is_reserved": 0}, {"is_disabled": 0, "fusion_lon": 0.0, "fusion_lat": 0.0, "lat": 38.927586166666664, "type": "electric_scooter", "lon": -77.0059375, "bike_id": "d6af287b00fc6d79072e274e441a1d7e", "rental_uris": {"android": "https://dc.lft.to/lastmile_qr_scan", "ios": "https://dc.lft.to/lastmile_qr_scan"}, "name": "d6af287b00fc6d79072e274e441a1d7e", "is_reserved": 0}, {"is_disabled": 0, "fusion_lon": 0.0, "fusion_lat": 0.0, "lat": 38.90732783333333, "type": "electric_scooter", "lon": -77.03210483333334, "bike_id": "33f1ae0346a5524b79183c8a1b70d789", "rental_uris": {"android": "https://dc.lft.to/lastmile_qr_scan", "ios": "https://dc.lft.to/lastmile_qr_scan"}, "name": "33f1ae0346a5524b79183c8a1b70d789", "is_reserved": 0}, {"is_disabled": 0, "fusion_lon": 0.0, "fusion_lat": 0.0, "lat": 38.903939666666666, "type": "electric_scooter", "lon": -76.990101, "bike_id": "547826cbd01a75dbf032ae723f52210d", "rental_uris": {"android": "https://dc.lft.to/lastmile_qr_scan", "ios": "https://dc.lft.to/lastmile_qr_scan"}, "name": "547826cbd01a75dbf032ae723f52210d", "is_reserved": 0}, {"is_disabled": 0, "fusion_lon": 0.0, "fusion_lat": 0.0, "lat": 38.897384, "type": "electric_scooter", "lon": -77.04793233333334, "bike_id": "9f4040a341bbbf4cc231b64df9504e88", "rental_uris": {"android": "https://dc.lft.to/lastmile_qr_scan", "ios": "https://dc.lft.to/lastmile_qr_scan"}, "name": "9f4040a341bbbf4cc231b64df9504e88", "is_reserved": 0}, {"is_disabled": 0, "fusion_lon": 0.0, "fusion_lat": 0.0, "lat": 38.903714666666666, "type": "electric_scooter", "lon": -77.00505116666666, "bike_id": "da7ea960ae6738b1046d074be81a7d99", "rental_uris": {"android": "https://dc.lft.to/lastmile_qr_scan", "ios": "https://dc.lft.to/lastmile_qr_scan"}, "name": "da7ea960ae6738b1046d074be81a7d99", "is_reserved": 0},