{"data": {"bikes": [{"type": "electric_scooter", "bike_id": "e493dbc6e0ff827990b7a90ba44f414d", "is_disabled": 0, "name": "e493dbc6e0ff827990b7a90ba44f414d", "lon": -77.000612, "is_reserved": 0, "fusion_lon": 0.0, "lat": 38.8811385, "rental_uris": {"android": "https://dc.lft.to/lastmile_qr_scan", "ios": "https://dc.lft.to/lastmile_qr_scan"}, "fusion_lat": 0.0}, {"type": "electric_scooter", "bike_id": "dc6f12e0ae60a6543dcf0259ac51f794", "is_disabled": 0, "name": "dc6f12e0ae60a6543dcf0259ac51f794", "lon": -77.028693, "is_reserved": 0, "fusion_lon": 0.0, "lat": 38.912539833333334, "rental_uris": {"android": "https://dc.lft.to/lastmile_qr_scan", "ios": "https://dc.lft.to/lastmile_qr_scan"}, "fusion_lat": 0.0}, {"type": "electric_scooter", "bike_id": "cfa8eef4fe4100547921f9340d14d66b", "is_disabled": 0, "name": "cfa8eef4fe4100547921f9340d14d66b", "lon": -77.03486983333333, "is_reserved": 0, "fusion_lon": 0.0, "lat": 38.90131433333333, "rental_uris": {"android": "https://dc.lft.to/lastmile_qr_scan", "ios": "https://dc.lft.to/lastmile_qr_scan"}, "fusion_lat": 0.0}, {"type": "electric_bike", "bike_id": "23e6294238e1604d25cb90a27f59a498", "is_disabled": 0, "name": "23e6294238e1604d25cb90a27f59a498", "lon": -76.9734695, "is_reserved": 0, "fusion_lon": 0.0, "lat": 38.8654705, "rental_uris": {"android": "https://dc.lft.to/lastmile_qr_scan", "ios": "https://dc.lft.to/lastmile_qr_scan"}, "fusion_lat": 0.0}, {"type": "electric_scooter", "bike_id": "b22906da12d697174ae114be35af9150", "is_disabled": 0, "name": "b22906da12d697174ae114be35af9150", "lon": -77.04138216666666, "is_reserved": 0, "fusion_lon": 0.0, "lat": 38.930659166666665, "rental_uris": {"android": "https://dc.lft.to/lastmile_qr_scan", "ios": "https://dc.lft.to/lastmile_qr_scan"}, "fusion_lat": 0.0}, {"type": "electric_scooter", "bike_id": "84a4d995e613845af4d8c73fb6a932df", "is_disabled": 0, "name": "84a4d995e613845af4d8c73fb6a932df", "lon": -77.04337383333333, "is_reserved": 0, "fusion_lon": 0.0, "lat": 38.90428883333333, "rental_uris": {"android": "https://dc.lft.to/lastmile_qr_scan", "ios": "https://dc.lft.to/lastmile_qr_scan"}, "fusion_lat": 0.0}, {"type": "electric_scooter", "bike_id": "87e1dee5339fe0498a685b8ae07b454c", "is_disabled": 0, "name": "87e1dee5339fe0498a685b8ae07b454c", "lon": -77.02889316666666, "is_reserved": 0, "fusion_lon": 0.0, "lat": 38.896951333333334, "rental_uris": {"android": "https://dc.lft.to/lastmile_qr_scan", "ios": "https://dc.lft.to/lastmile_qr_scan"}, "fusion_lat": 0.0}, {"type": "electric_bike", "bike_id": "a80392262fd6bfbb20160b3b1c9d105e", "is_disabled": 0, "name": "a80392262fd6bfbb20160b3b1c9d105e", "lon": -76.96151333333333, "is_reserved": 0, "fusion_lon": 0.0, "lat": 38.85617, "rental_uris": {"android": "https://dc.lft.to/lastmile_qr_scan", "ios": "https://dc.lft.to/lastmile_qr_scan"}, "fusion_lat": 0.0}, {"type": "electric_scooter", "bike_id": "47e18e47ce058471c262b1fd8e23d2cb", "is_disabled": 0, "name": "47e18e47ce058471c262b1fd8e23d2cb", "lon": -77.05699333333334, "is_reserved": 0, "fusion_lon": 0.0, "lat": 38.90529383333333, "rental_uris": {"android": "https://dc.lft.to/lastmile_qr_scan", "ios": "https://dc.lft.to/lastmile_qr_scan"}, "fusion_lat": 0.0}, {"type": "electric_scooter", "bike_id": "6bd69a9224d1a9cd91cab412b9dd3c20", "is_disabled": 0, "name": "6bd69a9224d1a9cd91cab412b9dd3c20", "lon": -76.99757466666667, "is_reserved": 0, "fusion_lon": 0.0, "lat": 38.8850355, "rental_uris": {"android": "https://dc.lft.to/lastmile_qr_scan", "ios": "https://dc.lft.to/lastmile_qr_scan"}, "fusion_lat": 0.0}, {"type": "electric_scooter", "bike_id": "04a3152c1eefec52ebe4047404877e7b", "is_disabled": 0, "name": "04a3152c1eefec52ebe4047404877e7b", "lon": -77.007395, "is_reserved": 0, "fusion_lon": 0.0, "lat": 38.8764505, "rental_uris": {"android": "https://dc.lft.to/lastmile_qr_scan", "ios": "https://dc.lft.to/lastmile_qr_scan"}, "fusion_lat": 0.0}, {"type": "electric_scooter", "bike_id": "32c653bd194f17f34879afb5973443d1", "is_disabled": 0, "name": "32c653bd194f17f34879afb5973443d1", "lon": -77.02606916666667, "is_reserved": 0, "fusion_lon": 0.0, "lat": 38.982704166666664, "rental_uris": {"android": "https://dc.lft.to/lastmile_qr_scan", "ios": "https://dc.lft.to/lastmile_qr_scan"}, "fusion_lat": 0.0}, {"type": "electric_scooter", "bike_id": "129efc1a5804e16178026b317f486bce", "is_disabled": 0, "name": "129efc1a5804e16178026b317f486bce", "lon": -77.00934083333334, "is_reserved": 0, "fusion_lon": 0.0, "lat": 38.916543833333336, "rental_uris": {"android": "https://dc.lft.to/lastmile_qr_scan", "ios": "https://dc.lft.to/lastmile_qr_scan"}, "fusion_lat": 0.0}, {"type": "electric_scooter", "bike_id": "f6d184a548600f4f9a57a81519920354", "is_disabled": 0, "name": "f6d184a548600f4f9a57a81519920354", "lon": -77.03847916666666, "is_reserved": 0, "fusion_lon": 0.0, "lat": 38.9165615, "rental_uris": {"android": "https://dc.lft.to/lastmile_qr_scan", "ios": "https://dc.lft.to/lastmile_qr_scan"}, "fusion_lat": 0.0}, {"type": "electric_scooter", "bike_id": "83d282715bf6de39c44213478dbdb1d2", "is_disabled": 0, "name": "83d282715bf6de39c44213478dbdb1d2", "lon": -77.0329925, "is_reserved": 0, "fusion_lon": 0.0, "lat": 38.909796, "rental_uris": {"android": "https://dc.lft.to/lastmile_qr_scan", "ios": "https://dc.lft.to/lastmile_qr_scan"}, "fusion_lat": 0.0}, {"type": "electric_scooter", "bike_id": "85e350fa4419f8159ad265caa5f623bc", "is_disabled": 0, "name": "85e350fa4419f8159ad265caa5f623bc", "lon": -77.03858083333333, "is_reserved": 0, "fusion_lon": 0.0, "lat": 38.9171875, "rental_uris": {"android": "https://dc.lft.to/lastmile_qr_scan", "ios": "https://dc.lft.to/lastmile_qr_scan"}, "fusion_lat": 0.0}, {"type": "electric_scooter", "bike_id": "b6832a22bb856b1fcca12aacef6e08b4", "is_disabled": 0, "name": "b6832a22bb856b1fcca12aacef6e08b4", "lon": -77.0239655, "is_reserved": 0, "fusion_lon": 0.0, "lat": 38.9096035, "rental_uris": {"android": "https://dc.lft.to/lastmile_qr_scan", "ios": "https://dc.lft.to/lastmile_qr_scan"}, "fusion_lat": 0.0}, {"type": "electric_scooter", "bike_id": "eb82ec266d88d3cb98014c4a7a6daded", "is_disabled": 0, "name": "eb82ec266d88d3cb98014c4a7a6daded", "lon": -77.02552966666667, "is_reserved": 0, "fusion_lon": 0.0, "lat": 38.970009166666664, "rental_uris": {"android": "https://dc.lft.to/lastmile_qr_scan", "ios": "https://dc.lft.to/lastmile_qr_scan"}, "fusion_lat": 0.0}, {"type": "electric_scooter", "bike_id": "d92cb6f9ac5c3af08056cf554e134f4c", "is_disabled": 0, "name": "d92cb6f9ac5c3af08056cf554e134f4c", "lon": -77.04556483333333, "is_reserved": 0, "fusion_lon": 0.0, "lat": 38.903554, "rental_uris": {"android": "https://dc.lft.to/lastmile_qr_scan", "ios": "https://dc.lft.to/lastmile_qr_scan"}, "fusion_lat": 0.0}, {"type": "electric_scooter", "bike_id": "25bc5cfda447191473b8f28480ec0a68", "is_disabled": 0, "name": "25bc5cfda447191473b8f28480ec0a68", "lon": -77.0398745, "is_reserved": 0, "fusion_lon": 0.0, "lat": 38.89530116666667, "rental_uris": {"android": "https://dc.lft.to/lastmile_qr_scan", "ios": "https://dc.lft.to/lastmile_qr_scan"}, "fusion_lat": 0.0}, {"type": "electric_scooter", "bike_id": "9c7b98a46beff0d206d6ad6c62f72ef3", "is_disabled": 0, "name": "9c7b98a46beff0d206d6ad6c62f72ef3", "lon": -77.03864316666666, "is_reserved": 0, "fusion_lon": 0.0, "lat": 38.91174266666667, "rental_uris": {"android": "https://dc.lft.to/lastmile_qr_scan", "ios": "https://dc.lft.to/lastmile_qr_scan"}, "fusion_lat": 0.0}, {"type": "electric_bike", "bike_id": "323e3573f26a63b2923e63a09567d35a", "is_disabled": 0, "name": "323e3573f26a63b2923e63a09567d35a", "lon": -76.9172345, "is_reserved": 0, "fusion_lon": 0.0, "lat": 38.88024733333334, "rental_uris": {"android": "https://dc.lft.to/lastmile_qr_scan", "ios": "https://dc.lft.to/lastmile_qr_scan"}, "fusion_lat": 0.0}, {"type": "electric_scooter", "bike_id": "f0950d5a26f1251bdd99786d5b3a2442", "is_disabled": 0, "name": "f0950d5a26f1251bdd99786d5b3a2442", "lon": -76.99770916666667, "is_reserved": 0, "fusion_lon": 0.0, "lat": 38.91108116666667, "rental_uris": {"android": "https://dc.lft.to/lastmile_qr_scan", "ios": "https://dc.lft.to/lastmile_qr_scan"}, "fusion_lat": 0.0}, {"type": "electric_scooter", "bike_id": "8671a18c603b40a5036e71277a1f5ae4", "is_disabled": 0, "name": "8671a18c603b40a5036e71277a1f5ae4", "lon": -77.04422583333333, "is_reserved": 0, "fusion_lon": 0.0, "lat": 38.901108666666666, "rental_uris": {"android": "https://dc.lft.to/lastmile_qr_scan", "ios": "https://dc.lft.to/lastmile_qr_scan"}, "fusion_lat": 0.0}, {"type": "electric_scooter", "bike_id": "45a2ee4d0556ad4cf4c191ef93f99483", "is_disabled": 0, "name": "45a2ee4d0556ad4cf4c191ef93f99483", "lon": -77.03165016666667, "is_reserved": 0, "fusion_lon": 0.0, "lat": 38.892584, "rental_uris": {"android": "https://dc.lft.to/lastmile_qr_scan", "ios": "https://dc.lft.to/lastmile_qr_scan"}, "fusion_lat": 0.0}, {"type": "electric_scooter", "bike_id": "42d14a0bca049849d80f86a0772553f9", "is_disabled": 0, "name": "42d14a0bca049849d80f86a0772553f9", "lon": -77.002953, "is_reserved": 0, "fusion_lon": 0.0, "lat": 38.89190983333334, "rental_uris": {"android": "https://dc.lft.to/lastmile_qr_scan", "ios": "https://dc.lft.to/lastmile_qr_scan"}, "fusion_lat": 0.0}, {"type": "electric_scooter", "bike_id": "1997bbae43f97b4e70de218b61a9e327", "is_disabled": 0, "name": "1997bbae43f97b4e70de218b61a9e327", "lon": -77.0503375, "is_reserved": 0, "fusion_lon": 0.0, "lat": 38.898319666666666, "rental_uris": {"android": "https://dc.lft.to/lastmile_qr_scan", "ios": "https://dc.lft.to/lastmile_qr_scan"}, "fusion_lat": 0.0}, {"type": "electric_scooter", "bike_id": "31226f91b1b967aaa8dbbf0ae514bf7b", "is_disabled": 0, "name": "31226f91b1b967aaa8dbbf0ae514bf7b", "lon": -77.02337133333333, "is_reserved": 0, "fusion_lon": 0.0, "lat": 38.92228883333333, "rental_uris": {"android": "https://dc.lft.to/lastmile_qr_scan", "ios": "https://dc.lft.to/lastmile_qr_scan"}, "fusion_lat": 0.0}, {"type": "electric_scooter", "bike_id": "2b3cc624bf088ce1871882cc49bd8f47", "is_disabled": 0, "name": "2b3cc624bf088ce1871882cc49bd8f47", "lon": -77.0351885, "is_reserved": 0, "fusion_lon": 0.0, "lat": 38.90041316666667, "rental_uris": {"android": "https://dc.lft.to/lastmile_qr_scan", "ios": "https://dc.lft.to/lastmile_qr_scan"}, "fusion_lat": 0.0}, {"type": "electric_scooter", "bike_id": "a0310dca0b1d7af168fff7b46c15d0f8", "is_disabled": 0, "name": "a0310dca0b1d7af168fff7b46c15d0f8", "lon": -77.021742, "is_reserved": 0, "fusion_lon": 0.0, "lat": 38.91995383333333, "rental_uris": {"android": "https://dc.lft.to/lastmile_qr_scan", "ios": "https://dc.lft.to/lastmile_qr_scan"}, "fusion_lat": 0.0}, {"type": "electric_scooter", "bike_id": "def003a24d797d7789889c5b5ab8d62e", "is_disabled": 0, "name": "def003a24d797d7789889c5b5ab8d62e", "lon": -77.02379166666667, "is_reserved": 0, "fusion_lon": 0.0, "lat": 38.93708983333333, "rental_uris": {"android": "https://dc.lft.to/lastmile_qr_scan", "ios": "https://dc.lft.to/lastmile_qr_scan"}, "fusion_lat": 0.0}, {"type": "electric_scooter", "bike_id": "a33fe351e8fbeac2b6f189bb2ceb5b6b", "is_disabled": 0, "name": "a33fe351e8fbeac2b6f189bb2ceb5b6b", "lon": -77.027657, "is_reserved": 0, "fusion_lon": 0.0, "lat": 38.9540985, "rental_uris": {"android": "https://dc.lft.to/lastmile_qr_scan", "ios": "https://dc.lft.to/lastmile_qr_scan"}, "fusion_lat": 0.0}, {"type": "electric_scooter", "bike_id": "6d49b8a6565b1cec75d4dc1987566e1d", "is_disabled": 0, "name": "6d49b8a6565b1cec75d4dc1987566e1d", "lon": -77.04561083333333, "is_reserved": 0, "fusion_lon": 0.0, "lat": 38.918220166666664, "rental_uris": {"android": "https://dc.lft.to/lastmile_qr_scan", "ios": "https://dc.lft.to/lastmile_qr_scan"}, "fusion_lat": 0.0}, {"type": "electric_scooter", "bike_id": "f510dc9b5fcd13c7d7bb5ccf5b5f62d8", "is_disabled": 0, "name": "f510dc9b5fcd13c7d7bb5ccf5b5f62d8", "lon": -77.01213516666667, "is_reserved": 0, "fusion_lon": 0.0, "lat": 38.91498266666667, "rental_uris": {"android": "https://dc.lft.to/lastmile_qr_scan", "ios": "https://dc.lft.to/lastmile_qr_scan"}, "fusion_lat": 0.0}, {"type": "electric_bike", "bike_id": "88b521c7c4fc52d8994265ad12f0871d", "is_disabled": 0, "name": "88b521c7c4fc52d8994265ad12f0871d", "lon": -76.97959416666667, "is_reserved": 0, "fusion_lon": 0.0, "lat": 38.920341, "rental_uris": {"android": "https://dc.lft.to/lastmile_qr_scan", "ios": "https://dc.lft.to/lastmile_qr_scan"}, "fusion_lat": 0.0}, {"type": "electric_scooter", "bike_id": "a2b650fa7d01f387acc0402b1b8d8c7e", "is_disabled": 0, "name": "a2b650fa7d01f387acc0402b1b8d8c7e", "lon": -76.93363316666667, "is_reserved": 0, "fusion_lon": 0.0, "lat": 38.89829733333333, "rental_uris": {"android": "https://dc.lft.to/lastmile_qr_scan", "ios": "https://dc.lft.to/lastmile_qr_scan"}, "fusion_lat": 0.0}, {"type": "electric_bike", "bike_id": "4e5bb8ae83a80eacc65039ec22113be0", "is_disabled": 0, "name": "4e5bb8ae83a80eacc65039ec22113be0", "lon": -77.10296133333334, "is_reserved": 0, "fusion_lon": 0.0, "lat": 38.852489166666665, "rental_uris": {"android": "https://dc.lft.to/lastmile_qr_scan", "ios": "https://dc.lft.to/lastmile_qr_scan"}, "fusion_lat": 0.0}, {"type": "electric_bike", "bike_id": "8a0c817aea26d73bfd8c2718e4036825", "is_disabled": 0, "name": "8a0c817aea26d73bfd8c2718e4036825", "lon": -77.07918183333334, "is_reserved": 0, "fusion_lon": 0.0, "lat": 38.83820216666667, "rental_uris": {"android": "https://dc.lft.to/lastmile_qr_scan", "ios": "https://dc.lft.to/lastmile_qr_scan"}, "fusion_lat": 0.0}, {"type": "electric_scooter", "bike_id": "f2ef273a59cd10df6e1630e4433f3a94", "is_disabled": 0, "name": "f2ef273a59cd10df6e1630e4433f3a94", "lon": -77.02208483333334, "is_reserved": 0, "fusion_lon": 0.0, "lat": 38.91047966666667, "rental_uris": {"android": "https://dc.lft.to/lastmile_qr_scan", "ios": "https://dc.lft.to/lastmile_qr_scan"}, "fusion_lat": 0.0}, {"type": "electric_scooter", "bike_id": "908e6ab1cbb3bd7d4b542ec5db707e59", "is_disabled": 0, "name": "908e6ab1cbb3bd7d4b542ec5db707e59", "lon": -77.03359033333334, "is_reserved": 0, "fusion_lon": 0.0, "lat": 38.93583316666667, "rental_uris": {"android": "https://dc.lft.to/lastmile_qr_scan", "ios": "https://dc.lft.to/lastmile_qr_scan"}, "fusion_lat": 0.0}, {"type": "electric_scooter", "bike_id": "bf51d17ca6b112259a765e12ba6371cc", "is_disabled": 0, "name": "bf51d17ca6b112259a765e12ba6371cc", "lon": -77.04478066666667, "is_reserved": 0, "fusion_lon": 0.0, "lat": 38.9135555, "rental_uris": {"android": "https://dc.lft.to/lastmile_qr_scan", "ios": "https://dc.lft.to/lastmile_qr_scan"}, "fusion_lat": 0.0}, {"type": "electric_scooter", "bike_id": "ff7f7c68b749fa83f12dbc2e7f76c995", "is_disabled": 0, "name": "ff7f7c68b749fa83f12dbc2e7f76c995", "lon": -77.01952766666666, "is_reserved": 0, "fusion_lon": 0.0, "lat": 38.9232605, "rental_uris": {"android": "https://dc.lft.to/lastmile_qr_scan", "ios": "https://dc.lft.to/lastmile_qr_scan"}, "fusion_lat": 0.0}, {"type": "electric_scooter", "bike_id": "9cb07ee091410a8de9502d5e6132ee32", "is_disabled": 0, "name": "9cb07ee091410a8de9502d5e6132ee32", "lon": -77.02569083333333, "is_reserved": 0, "fusion_lon": 0.0, "lat": 38.94843816666667, "rental_uris": {"android": "https://dc.lft.to/lastmile_qr_scan", "ios": "https://dc.lft.to/lastmile_qr_scan"}, "fusion_lat": 0.0}, {"type": "electric_bike", "bike_id": "e15234594c606133c494e390709c735f", "is_disabled": 0, "name": "e15234594c606133c494e390709c735f", "lon": -77.231788, "is_reserved": 0, "fusion_lon": 0.0, "lat": 38.92891433333333, "rental_uris": {"android": "https://dc.lft.to/lastmile_qr_scan", "ios": "https://dc.lft.to/lastmile_qr_scan"}, "fusion_lat": 0.0}, {"type": "electric_scooter", "bike_id": "3afaaf072300c5cda6d92ff1bb36f6dc", "is_disabled": 0, "name": "3afaaf072300c5cda6d92ff1bb36f6dc", "lon": -77.006567, "is_reserved": 0, "fusion_lon": 0.0, "lat": 38.9096935, "rental_uris": {"android": "https://dc.lft.to/lastmile_qr_scan", "ios": "https://dc.lft.to/lastmile_qr_scan"}, "fusion_lat": 0.0}, {"type": "electric_scooter", "bike_id": "09f2782ad00f7b054b3243f8c6494955", "is_disabled": 0, "name": "09f2782ad00f7b054b3243f8c6494955", "lon": -77.023891, "is_reserved": 0, "fusion_lon": 0.0, "lat": 38.920986, "rental_uris": {"android": "https://dc.lft.to/lastmile_qr_scan", "ios": "https://dc.lft.to/lastmile_qr_scan"}, "fusion_lat": 0.0}, {"type": "electric_scooter", "bike_id": "907b8145d0576dbfa339a3c04f0bd76a", "is_disabled": 0, "name": "907b8145d0576dbfa339a3c04f0bd76a", "lon": -77.03252266666667, "is_reserved": 0, "fusion_lon": 0.0, "lat": 38.91978733333333, "rental_uris": {"android": "https://dc.lft.to/lastmile_qr_scan", "ios": "https://dc.lft.to/lastmile_qr_scan"}, "fusion_lat": 0.0}, {"type": "electric_scooter", "bike_id": "d7fa67e819589b30f4cbfa02a02dc5f1", "is_disabled": 0, "name": "d7fa67e819589b30f4cbfa02a02dc5f1", "lon": -77.02183, "is_reserved": 0, "fusion_lon": 0.0, "lat": 38.909485833333335, "rental_uris": {"android": "https://dc.lft.to/lastmile_qr_scan", "ios": "https://dc.lft.to/lastmile_qr_scan"}, "fusion_lat": 0.0}, {"type": "electric_scooter", "bike_id": "4a80a7be9d1c904f771bf2ff32f81964", "is_disabled": 0, "name": "4a80a7be9d1c904f771bf2ff32f81964", "lon": -77.05328316666667, "is_reserved": 0, "fusion_lon": 0.0, "lat": 38.90517233333333, "rental_uris": {"android": "https://dc.lft.to/lastmile_qr_scan", "ios": "https://dc.lft.to/lastmile_qr_scan"}, "fusion_lat": 0.0}, {"type": "electric_scooter", "bike_id": "74f3ac2fd3607b4caa029b6c2e0ae82d", "is_disabled": 0, "name": "74f3ac2fd3607b4caa029b6c2e0ae82d", "lon": -77.00324716666667, "is_reserved": 0, "fusion_lon": 0.0, "lat": 38.902657833333336, "rental_uris": {"android": "https://dc.lft.to/lastmile_qr_scan", "ios": "https://dc.lft.to/lastmile_qr_scan"}, "fusion_lat": 0.0}, {"type": "electric_scooter", "bike_id": "74c9724383488ad06142cfcbe0a8ee4c", "is_disabled": 0, "name": "74c9724383488ad06142cfcbe0a8ee4c", "lon": -77.01854133333333, "is_reserved": 0, "fusion_lon": 0.0, "lat": 38.973683, "rental_uris": {"android": "https://dc.lft.to/lastmile_qr_scan", "ios": "https://dc.lft.to/lastmile_qr_scan"}, "fusion_lat": 0.0}, {"type": "electric_scooter", "bike_id": "e4add52bee1cd320ae338584564e5144", "is_disabled": 0, "name": "e4add52bee1cd320ae338584564e5144", "lon": -77.038093, "is_reserved": 0, "fusion_lon": 0.0, "lat": 38.93061616666667, "rental_uris": {"android": "https://dc.lft.to/lastmile_qr_scan", "ios": "https://dc.lft.to/lastmile_qr_scan"}, "fusion_lat": 0.0}, {"type": "electric_scooter", "bike_id": "ba0b4646ca957e971a8d0b2f3dea3390", "is_disabled": 0, "name": "ba0b4646ca957e971a8d0b2f3dea3390", "lon": -77.023849, "is_reserved": 0, "fusion_lon": 0.0, "lat": 38.952713833333334, "rental_uris": {"android": "https://dc.lft.to/lastmile_qr_scan", "ios": "https://dc.lft.to/lastmile_qr_scan"}, "fusion_lat": 0.0}, {"type": "electric_scooter", "bike_id": "f02d24c78ac19b273ed1077527cf96a0", "is_disabled": 0, "name": "f02d24c78ac19b273ed1077527cf96a0", "lon": -77.03444133333333, "is_reserved": 0, "fusion_lon": 0.0, "lat": 38.90267266666667, "rental_uris": {"android": "https://dc.lft.to/lastmile_qr_scan", "ios": "https://dc.lft.to/lastmile_qr_scan"}, "fusion_lat": 0.0}, {"type": "electric_scooter", "bike_id": "301f8f66fbb125dea48af6a01451bdc0", "is_disabled": 0, "name": "301f8f66fbb125dea48af6a01451bdc0", "lon": -77.04137216666666, "is_reserved": 0, "fusion_lon": 0.0, "lat": 38.909562666666666, "rental_uris": {"android": "https://dc.lft.to/lastmile_qr_scan", "ios": "https://dc.lft.to/lastmile_qr_scan"}, "fusion_lat": 0.0}, {"type": "electric_scooter", "bike_id": "f0474c395aad1ca9ed44346e6a854502", "is_disabled": 0, "name": "f0474c395aad1ca9ed44346e6a854502", "lon": -77.0406505, "is_reserved": 0, "fusion_lon": 0.0, "lat": 38.903509666666665, "rental_uris": {"android": "https://dc.lft.to/lastmile_qr_scan", "ios": "https://dc.lft.to/lastmile_qr_scan"}, "fusion_lat": 0.0}, {"type": "electric_scooter", "bike_id": "65aac4c85101d61fc917692fb5e1c33b", "is_disabled": 0, "name": "65aac4c85101d61fc917692fb5e1c33b", "lon": -76.94090166666666, "is_reserved": 0, "fusion_lon": 0.0, "lat": 38.891239166666665, "rental_uris": {"android": "https://dc.lft.to/lastmile_qr_scan", "ios": "https://dc.lft.to/lastmile_qr_scan"}, "fusion_lat": 0.0}, {"type": "electric_scooter", "bike_id": "3d5ac9a840cafb7777ba987af3a7b122", "is_disabled": 0, "name": "3d5ac9a840cafb7777ba987af3a7b122", "lon": -77.03189466666667, "is_reserved": 0, "fusion_lon": 0.0, "lat": 38.9191115, "rental_uris": {"android": "https://dc.lft.to/lastmile_qr_scan", "ios": "https://dc.lft.to/lastmile_qr_scan"}, "fusion_lat": 0.0}, {"type": "electric_scooter", "bike_id": "b759cc7c98cc6f83429b8e4a326a12ae", "is_disabled": 0, "name": "b759cc7c98cc6f83429b8e4a326a12ae", "lon": -77.04869683333334, "is_reserved": 0, "fusion_lon": 0.0, "lat": 38.90633016666666, "rental_uris": {"android": "https://dc.lft.to/lastmile_qr_scan", "ios": "https://dc.lft.to/lastmile_qr_scan"}, "fusion_lat": 0.0}, {"type": "electric_scooter", "bike_id": "8b134e64ea8d3dafadf6a30ded411403", "is_disabled": 0, "name": "8b134e64ea8d3dafadf6a30ded411403", "lon": -77.03269833333333, "is_reserved": 0, "fusion_lon": 0.0, "lat": 38.937330833333334, "rental_uris": {"android": "https://dc.lft.to/lastmile_qr_scan", "ios": "https://dc.lft.to/lastmile_qr_scan"}, "fusion_lat": 0.0}, {"type": "electric_scooter", "bike_id": "33b11a3c995fdca4235d77392ab79671", "is_disabled": 0, "name": "33b11a3c995fdca4235d77392ab79671", "lon": -77.05022166666667, "is_reserved": 0, "fusion_lon": 0.0, "lat": 38.90524166666667, "rental_uris": {"android": "https://dc.lft.to/lastmile_qr_scan", "ios": "https://dc.lft.to/lastmile_qr_scan"}, "fusion_lat": 0.0}, {"type": "electric_scooter", "bike_id": "86aa266932a617c22469443af830e4a5", "is_disabled": 0, "name": "86aa266932a617c22469443af830e4a5", "lon": -77.04335383333333, "is_reserved": 0, "fusion_lon": 0.0, "lat": 38.90426033333333, "rental_uris": {"android": "https://dc.lft.to/lastmile_qr_scan", "ios": "https://dc.lft.to/lastmile_qr_scan"}, "fusion_lat": 0.0}, {"type": "electric_scooter", "bike_id": "ea8c854826a3480c31965bc87de44d5c", "is_disabled": 0, "name": "ea8c854826a3480c31965bc87de44d5c", "lon": -77.00587366666667, "is_reserved": 0, "fusion_lon": 0.0, "lat": 38.90310083333333, "rental_uris": {"android": "https://dc.lft.to/lastmile_qr_scan", "ios": "https://dc.lft.to/lastmile_qr_scan"}, "fusion_lat": 0.0}, {"type": "electric_scooter", "bike_id": "731719487b274ff08a97838bc896fc66", "is_disabled": 0, "name": "731719487b274ff08a97838bc896fc66", "lon": -77.03457216666666, "is_reserved": 0, "fusion_lon": 0.0, "lat": 38.9079675, "rental_uris": {"android": "https://dc.lft.to/lastmile_qr_scan", "ios": "https://dc.lft.to/lastmile_qr_scan"}, "fusion_lat": 0.0}, {"type": "electric_scooter", "bike_id": "eb57153d3a30545545ef81a8df881020", "is_disabled": 0, "name": "eb57153d3a30545545ef81a8df881020", "lon": -77.031867, "is_reserved": 0, "fusion_lon": 0.0, "lat": 38.919085333333335, "rental_uris": {"android": "https://dc.lft.to/lastmile_qr_scan", "ios": "https://dc.lft.to/lastmile_qr_scan"}, "fusion_lat": 0.0}, {"type": "electric_scooter", "bike_id": "f8c040ba15bc4332e9ee8ebf5627d6de", "is_disabled": 0, "name": "f8c040ba15bc4332e9ee8ebf5627d6de", "lon": -77.0239055, "is_reserved": 0, "fusion_lon": 0.0, "lat": 38.90963216666667, "rental_uris": {"android": "https://dc.lft.to/lastmile_qr_scan", "ios": "https://dc.lft.to/lastmile_qr_scan"}, "fusion_lat": 0.0}, {"type": "electric_scooter", "bike_id": "b3360b544838e456cd9d44f652885e60", "is_disabled": 0, "name": "b3360b544838e456cd9d44f652885e60", "lon": -77.026477, "is_reserved": 0, "fusion_lon": 0.0, "lat": 38.930999, "rental_uris": {"android": "https://dc.lft.to/lastmile_qr_scan", "ios": "https://dc.lft.to/lastmile_qr_scan"}, "fusion_lat": 0.0}, {"type": "electric_bike", "bike_id": "b550ac8b89e7dadadc63644cc348779f", "is_disabled": 0, "name": "b550ac8b89e7dadadc63644cc348779f", "lon": -76.97436033333334, "is_reserved": 0, "fusion_lon": 0.0, "lat": 38.85576, "rental_uris": {"android": "https://dc.lft.to/lastmile_qr_scan", "ios": "https://dc.lft.to/lastmile_qr_scan"}, "fusion_lat": 0.0}, {"type": "electric_scooter", "bike_id": "687852dcb3f36e2717c113eed4c4265a", "is_disabled": 0, "name": "687852dcb3f36e2717c113eed4c4265a", "lon": -76.99448516666666, "is_reserved": 0, "fusion_lon": 0.0, "lat": 38.827641666666665, "rental_uris": {"android": "https://dc.lft.to/lastmile_qr_scan", "ios": "https://dc.lft.to/lastmile_qr_scan"}, "fusion_lat": 0.0}, {"type": "electric_scooter", "bike_id": "d772ed237a39e25ccbf8c3f8ee887f01", "is_disabled": 0, "name": "d772ed237a39e25ccbf8c3f8ee887f01", "lon": -77.0460115, "is_reserved": 0, "fusion_lon": 0.0, "lat": 38.902607833333334, "rental_uris": {"android": "https://dc.lft.to/lastmile_qr_scan", "ios": "https://dc.lft.to/lastmile_qr_scan"}, "fusion_lat": 0.0}, {"type": "electric_scooter", "bike_id": "7a622bafb628ff837b2a334bb4bbf47b", "is_disabled": 0, "name": "7a622bafb628ff837b2a334bb4bbf47b", "lon": -77.024027, "is_reserved": 0, "fusion_lon": 0.0, "lat": 38.89625933333333, "rental_uris": {"android": "https://dc.lft.to/lastmile_qr_scan", "ios": "https://dc.lft.to/lastmile_qr_scan"}, "fusion_lat": 0.0}, {"type": "electric_scooter", "bike_id": "664605a73cbe1b22eea340568bb47f05", "is_disabled": 0, "name": "664605a73cbe1b22eea340568bb47f05", "lon": -77.0219975, "is_reserved": 0, "fusion_lon": 0.0, "lat": 38.895134666666664, "rental_uris": {"android": "https://dc.lft.to/lastmile_qr_scan", "ios": "https://dc.lft.to/lastmile_qr_scan"}, "fusion_lat": 0.0}, {"type": "electric_scooter", "bike_id": "4120d1371abdf32a22340a86f59af72d", "is_disabled": 0, "name": "4120d1371abdf32a22340a86f59af72d", "lon": -76.95449933333333, "is_reserved": 0, "fusion_lon": 0.0, "lat": 38.8838725, "rental_uris": {"android": "https://dc.lft.to/lastmile_qr_scan", "ios": "https://dc.lft.to/lastmile_qr_scan"}, "fusion_lat": 0.0}, {"type": "electric_scooter", "bike_id": "e97216855d4e9be8b9e5fdca80051204", "is_disabled": 0, "name": "e97216855d4e9be8b9e5fdca80051204", "lon": -76.99601066666666, "is_reserved": 0, "fusion_lon": 0.0, "lat": 38.884294, "rental_uris": {"android": "https://dc.lft.to/lastmile_qr_scan", "ios": "https://dc.lft.to/lastmile_qr_scan"}, "fusion_lat": 0.0}, {"type": "electric_scooter", "bike_id": "18f89c58d7c475345ecf7cf5d0eff0ef", "is_disabled": 0, "name": "18f89c58d7c475345ecf7cf5d0eff0ef", "lon": -77.02990516666667, "is_reserved": 0, "fusion_lon": 0.0, "lat": 38.9012695, "rental_uris": {"android": "https://dc.lft.to/lastmile_qr_scan", "ios": "https://dc.lft.to/lastmile_qr_scan"}, "fusion_lat": 0.0}, {"type": "electric_scooter", "bike_id": "b3e1e824368a0705b9c506218c44b5d0", "is_disabled": 0, "name": "b3e1e824368a0705b9c506218c44b5d0", "lon": -77.02211866666667, "is_reserved": 0, "fusion_lon": 0.0, "lat": 38.905480833333336, "rental_uris": {"android": "https://dc.lft.to/lastmile_qr_scan", "ios": "https://dc.lft.to/lastmile_qr_scan"}, "fusion_lat": 0.0}, {"type": "electric_scooter", "bike_id": "d7cbef1802e7253efb4572b8b53fb55c", "is_disabled": 0, "name": "d7cbef1802e7253efb4572b8b53fb55c", "lon": -77.02987383333334, "is_reserved": 0, "fusion_lon": 0.0, "lat": 38.915474, "rental_uris": {"android": "https://dc.lft.to/lastmile_qr_scan", "ios": "https://dc.lft.to/lastmile_qr_scan"}, "fusion_lat": 0.0}, {"type": "electric_scooter", "bike_id": "4abd1bbacac92706a8e3502eeeca6a01", "is_disabled": 0, "name": "4abd1bbacac92706a8e3502eeeca6a01", "lon": -77.04511983333333, "is_reserved": 0, "fusion_lon": 0.0, "lat": 38.91589366666667, "rental_uris": {"android": "https://dc.lft.to/lastmile_qr_scan", "ios": "https://dc.lft.to/lastmile_qr_scan"}, "fusion_lat": 0.0}, {"type": "electric_scooter", "bike_id": "633fcba779484964e3662a4332c4364f", "is_disabled": 0, "name": "633fcba779484964e3662a4332c4364f", "lon": -76.97377, "is_reserved": 0, "fusion_lon": 0.0, "lat": 38.850031, "rental_uris": {"android": "https://dc.lft.to/lastmile_qr_scan", "ios": "https://dc.lft.to/lastmile_qr_scan"}, "fusion_lat": 0.0}, {"type": "electric_scooter", "bike_id": "121de76c2fcb5f251b50b29d1ac0784a", "is_disabled": 0, "name": "121de76c2fcb5f251b50b29d1ac0784a", "lon": -76.98703266666666, "is_reserved": 0, "fusion_lon": 0.0, "lat": 38.859635833333336, "rental_uris": {"android": "https://dc.lft.to/lastmile_qr_scan", "ios": "https://dc.lft.to/lastmile_qr_scan"}, "fusion_lat": 0.0}, {"type": "electric_scooter", "bike_id": "795961e83289795d18df2fe20b332812", "is_disabled": 0, "name": "795961e83289795d18df2fe20b332812", "lon": -77.0400715, "is_reserved": 0, "fusion_lon": 0.0, "lat": 38.899322833333336, "rental_uris": {"android": "https://dc.lft.to/lastmile_qr_scan", "ios": "https://dc.lft.to/lastmile_qr_scan"}, "fusion_lat": 0.0}, {"type": "electric_scooter", "bike_id": "89fe7f28401743923d96b43e5536e146", "is_disabled": 0, "name": "89fe7f28401743923d96b43e5536e146", "lon": -77.009733, "is_reserved": 0, "fusion_lon": 0.0, "lat": 38.916962166666664, "rental_uris": {"android": "https://dc.lft.to/lastmile_qr_scan", "ios": "https://dc.lft.to/lastmile_qr_scan"}, "fusion_lat": 0.0}, {"type": "electric_scooter", "bike_id": "7f00532fec7cd74eafc202d5bfeeaae8", "is_disabled": 0, "name": "7f00532fec7cd74eafc202d5bfeeaae8", "lon": -77.04370183333333, "is_reserved": 0, "fusion_lon": 0.0, "lat": 38.907091666666666, "rental_uris": {"android": "https://dc.lft.to/lastmile_qr_scan", "ios": "https://dc.lft.to/lastmile_qr_scan"}, "fusion_lat": 0.0}, {"type": "electric_scooter", "bike_id": "fe5036fd1c2f5a62c71d74e1b54a6447", "is_disabled": 0, "name": "fe5036fd1c2f5a62c71d74e1b54a6447", "lon": -77.04622766666667, "is_reserved": 0, "fusion_lon": 0.0, "lat": 38.9097775, "rental_uris": {"android": "https://dc.lft.to/lastmile_qr_scan", "ios": "https://dc.lft.to/lastmile_qr_scan"}, "fusion_lat": 0.0}, {"type": "electric_scooter", "bike_id": "9be589e47df701bd1fa133b9c64a72cf", "is_disabled": 0, "name": "9be589e47df701bd1fa133b9c64a72cf", "lon": -77.0282305, "is_reserved": 0, "fusion_lon": 0.0, "lat": 38.904572333333334, "rental_uris": {"android": "https://dc.lft.to/lastmile_qr_scan", "ios": "https://dc.lft.to/lastmile_qr_scan"}, "fusion_lat": 0.0}, {"type": "electric_scooter", "bike_id": "12a03a253ebae7d72a696f24ee5af967", "is_disabled": 0, "name": "12a03a253ebae7d72a696f24ee5af967", "lon": -77.0157395, "is_reserved": 0, "fusion_lon": 0.0, "lat": 38.9279165, "rental_uris": {"android": "https://dc.lft.to/lastmile_qr_scan", "ios": "https://dc.lft.to/lastmile_qr_scan"}, "fusion_lat": 0.0}, {"type": "electric_scooter", "bike_id": "91426ea1f9e21bd739bf34ae5708b2f1", "is_disabled": 0, "name": "91426ea1f9e21bd739bf34ae5708b2f1", "lon": -77.0227735, "is_reserved": 0, "fusion_lon": 0.0, "lat": 38.926850333333334, "rental_uris": {"android": "https://dc.lft.to/lastmile_qr_scan", "ios": "https://dc.lft.to/lastmile_qr_scan"}, "fusion_lat": 0.0}, {"type": "electric_scooter", "bike_id": "538db65e485f6e32993cddfb3c2951ed", "is_disabled": 0, "name": "538db65e485f6e32993cddfb3c2951ed", "lon": -77.02019216666666, "is_reserved": 0, "fusion_lon": 0.0, "lat": 38.924331, "rental_uris": {"android": "https://dc.lft.to/lastmile_qr_scan", "ios": "https://dc.lft.to/lastmile_qr_scan"}, "fusion_lat": 0.0}, {"type": "electric_scooter", "bike_id": "7cc69177cc0e91f46b71aac6bbdac0ad", "is_disabled": 0, "name": "7cc69177cc0e91f46b71aac6bbdac0ad", "lon": -77.03436716666667, "is_reserved": 0, "fusion_lon": 0.0, "lat": 38.90232233333333, "rental_uris": {"android": "https://dc.lft.to/lastmile_qr_scan", "ios": "https://dc.lft.to/lastmile_qr_scan"}, "fusion_lat": 0.0}, {"type": "electric_scooter", "bike_id": "e7f11e6edbe29c4e853c8a7622a822ce", "is_disabled": 0, "name": "e7f11e6edbe29c4e853c8a7622a822ce", "lon": -77.035666, "is_reserved": 0, "fusion_lon": 0.0, "lat": 38.9247125, "rental_uris": {"android": "https://dc.lft.to/lastmile_qr_scan", "ios": "https://dc.lft.to/lastmile_qr_scan"}, "fusion_lat": 0.0}, {"type": "electric_scooter", "bike_id": "5d4fc088d9d7e1d9b4d9b439c2f6f164", "is_disabled": 0, "name": "5d4fc088d9d7e1d9b4d9b439c2f6f164", "lon": -77.03369383333333, "is_reserved": 0, "fusion_lon": 0.0, "lat": 38.900263333333335, "rental_uris": {"android": "https://dc.lft.to/lastmile_qr_scan", "ios": "https://dc.lft.to/lastmile_qr_scan"}, "fusion_lat": 0.0}, {"type": "electric_bike", "bike_id": "a3684eb5280bb92f86c480fea7bd0469", "is_disabled": 0, "name": "a3684eb5280bb92f86c480fea7bd0469", "lon": -77.0995815, "is_reserved": 0, "fusion_lon": 0.0, "lat": 38.857831, "rental_uris": {"android": "https://dc.lft.to/lastmile_qr_scan", "ios": "https://dc.lft.to/lastmile_qr_scan"}, "fusion_lat": 0.0}, {"type": "electric_scooter", "bike_id": "2b4b07779120abfc8e8b2af0caceb3d9", "is_disabled": 0, "name": "2b4b07779120abfc8e8b2af0caceb3d9", "lon": -77.03896866666666, "is_reserved": 0, "fusion_lon": 0.0, "lat": 38.90658716666667, "rental_uris": {"android": "https://dc.lft.to/lastmile_qr_scan", "ios": "https://dc.lft.to/lastmile_qr_scan"}, "fusion_lat": 0.0}, {"type": "electric_scooter", "bike_id": "bacabd2331504f0fb4e37fa90bff0aa9", "is_disabled": 0, "name": "bacabd2331504f0fb4e37fa90bff0aa9", "lon": -77.07090816666667, "is_reserved": 0, "fusion_lon": 0.0, "lat": 38.919588, "rental_uris": {"android": "https://dc.lft.to/lastmile_qr_scan", "ios": "https://dc.lft.to/lastmile_qr_scan"}, "fusion_lat": 0.0}, {"type": "electric_scooter", "bike_id": "dfa0f8d8c055f6a1846ee6584a1382d6", "is_disabled": 0, "name": "dfa0f8d8c055f6a1846ee6584a1382d6", "lon": -76.9870135, "is_reserved": 0, "fusion_lon": 0.0, "lat": 38.888330333333336, "rental_uris": {"android": "https://dc.lft.to/lastmile_qr_scan", "ios": "https://dc.lft.to/lastmile_qr_scan"}, "fusion_lat": 0.0}, {"type": "electric_scooter", "bike_id": "da14eedc6ed4f023cf3a4a0d8865083f", "is_disabled": 0, "name": "da14eedc6ed4f023cf3a4a0d8865083f", "lon": -77.03298233333334, "is_reserved": 0, "fusion_lon": 0.0, "lat": 38.92625016666667, "rental_uris": {"android": "https://dc.lft.to/lastmile_qr_scan", "ios": "https://dc.lft.to/lastmile_qr_scan"}, "fusion_lat": 0.0}, {"type": "electric_bike", "bike_id": "3bf4e196ef84f2baa9a309eab1703e6f", "is_disabled": 0, "name": "3bf4e196ef84f2baa9a309eab1703e6f", "lon": -76.99640033333333, "is_reserved": 0, "fusion_lon": 0.0, "lat": 38.8987915, "rental_uris": {"android": "https://dc.lft.to/lastmile_qr_scan", "ios": "https://dc.lft.to/lastmile_qr_scan"}, "fusion_lat": 0.0}, {"type": "electric_scooter", "bike_id": "5979bbd1d609d2f086bfb7487867a501", "is_disabled": 0, "name": "5979bbd1d609d2f086bfb7487867a501", "lon": -77.03664716666667, "is_reserved": 0, "fusion_lon": 0.0, "lat": 38.922694666666665, "rental_uris": {"android": "https://dc.lft.to/lastmile_qr_scan", "ios": "https://dc.lft.to/lastmile_qr_scan"}, "fusion_lat": 0.0}, {"type": "electric_scooter", "bike_id": "bb5a77bc8e345e2dc8f34c7e69be648b", "is_disabled": 0, "name": "bb5a77bc8e345e2dc8f34c7e69be648b", "lon": -77.03542816666666, "is_reserved": 0, "fusion_lon": 0.0, "lat": 38.92473016666667, "rental_uris": {"android": "https://dc.lft.to/lastmile_qr_scan", "ios": "https://dc.lft.to/lastmile_qr_scan"}, "fusion_lat": 0.0}, {"type": "electric_scooter", "bike_id": "bf0bd5f9ae8a40019b543b0b6bee2e29", "is_disabled": 0, "name": "bf0bd5f9ae8a40019b543b0b6bee2e29", "lon": -76.942522, "is_reserved": 0, "fusion_lon": 0.0, "lat": 38.89846933333333, "rental_uris": {"android": "https://dc.lft.to/lastmile_qr_scan", "ios": "https://dc.lft.to/lastmile_qr_scan"}, "fusion_lat": 0.0}, {"type": "electric_scooter", "bike_id": "a87d6bfc75d22eb79dafd398a08c38c1", "is_disabled": 0, "name": "a87d6bfc75d22eb79dafd398a08c38c1", "lon": -77.03446833333334, "is_reserved": 0, "fusion_lon": 0.0, "lat": 38.9106765, "rental_uris": {"android": "https://dc.lft.to/lastmile_qr_scan", "ios": "https://dc.lft.to/lastmile_qr_scan"}, "fusion_lat": 0.0}, {"type": "electric_scooter", "bike_id": "f1be614a101c588ad785a43f0de75b44", "is_disabled": 0, "name": "f1be614a101c588ad785a43f0de75b44", "lon": -77.043404, "is_reserved": 0, "fusion_lon": 0.0, "lat": 38.896396833333334, "rental_uris": {"android": "https://dc.lft.to/lastmile_qr_scan", "ios": "https://dc.lft.to/lastmile_qr_scan"}, "fusion_lat": 0.0}, {"type": "electric_scooter", "bike_id": "e5524781a667b702eb865811a71ce070", "is_disabled": 0, "name": "e5524781a667b702eb865811a71ce070", "lon": -77.0034035, "is_reserved": 0, "fusion_lon": 0.0, "lat": 38.893533166666664, "rental_uris": {"android": "https://dc.lft.to/lastmile_qr_scan", "ios": "https://dc.lft.to/lastmile_qr_scan"}, "fusion_lat": 0.0}, {"type": "electric_scooter", "bike_id": "31b33ee983a619c38e4d809e8cc503dc", "is_disabled": 0, "name": "31b33ee983a619c38e4d809e8cc503dc", "lon": -77.03364083333334, "is_reserved": 0, "fusion_lon": 0.0, "lat": 38.92749533333333, "rental_uris": {"android": "https://dc.lft.to/lastmile_qr_scan", "ios": "https://dc.lft.to/lastmile_qr_scan"}, "fusion_lat": 0.0}, {"type": "electric_scooter", "bike_id": "a939045c57cd9cff2e2c89e75c59bca7", "is_disabled": 0, "name": "a939045c57cd9cff2e2c89e75c59bca7", "lon": -77.03749333333333, "is_reserved": 0, "fusion_lon": 0.0, "lat": 38.90549083333333, "rental_uris": {"android": "https://dc.lft.to/lastmile_qr_scan", "ios": "https://dc.lft.to/lastmile_qr_scan"}, "fusion_lat": 0.0}, {"type": "electric_scooter", "bike_id": "05797b3aa8649d52abd017537dd5ab45", "is_disabled": 0, "name": "05797b3aa8649d52abd017537dd5ab45", "lon": -77.03180666666667, "is_reserved": 0, "fusion_lon": 0.0, "lat": 38.90019216666666, "rental_uris": {"android": "https://dc.lft.to/lastmile_qr_scan", "ios": "https://dc.lft.to/lastmile_qr_scan"}, "fusion_lat": 0.0}, {"type": "electric_scooter", "bike_id": "b450868508976f2c05096344272bd227", "is_disabled": 0, "name": "b450868508976f2c05096344272bd227", "lon": -77.0352215, "is_reserved": 0, "fusion_lon": 0.0, "lat": 38.92232666666666, "rental_uris": {"android": "https://dc.lft.to/lastmile_qr_scan", "ios": "https://dc.lft.to/lastmile_qr_scan"}, "fusion_lat": 0.0}, {"type": "electric_scooter", "bike_id": "2f65af22877df55dec7084b58568712a", "is_disabled": 0, "name": "2f65af22877df55dec7084b58568712a", "lon": -77.03472233333333, "is_reserved": 0, "fusion_lon": 0.0, "lat": 38.917111, "rental_uris": {"android": "https://dc.lft.to/lastmile_qr_scan", "ios": "https://dc.lft.to/lastmile_qr_scan"}, "fusion_lat": 0.0}, {"type": "electric_scooter", "bike_id": "165621821ae3a02889cb0708e7272702", "is_disabled": 0, "name": "165621821ae3a02889cb0708e7272702", "lon": -77.025469, "is_reserved": 0, "fusion_lon": 0.0, "lat": 38.883475, "rental_uris": {"android": "https://dc.lft.to/lastmile_qr_scan", "ios": "https://dc.lft.to/lastmile_qr_scan"}, "fusion_lat": 0.0}, {"type": "electric_scooter", "bike_id": "43cace8fd827bed70aa9a3a4a0d275f6", "is_disabled": 0, "name": "43cace8fd827bed70aa9a3a4a0d275f6", "lon": -77.03837983333334, "is_reserved": 0, "fusion_lon": 0.0, "lat": 38.907923833333335, "rental_uris": {"android": "https://dc.lft.to/lastmile_qr_scan", "ios": "https://dc.lft.to/lastmile_qr_scan"}, "fusion_lat": 0.0}, {"type": "electric_scooter", "bike_id": "3266cb8e3f7881c6dae7af0093cf8d81", "is_disabled": 0, "name": "3266cb8e3f7881c6dae7af0093cf8d81", "lon": -76.98646183333334, "is_reserved": 0, "fusion_lon": 0.0, "lat": 38.85503766666667, "rental_uris": {"android": "https://dc.lft.to/lastmile_qr_scan", "ios": "https://dc.lft.to/lastmile_qr_scan"}, "fusion_lat": 0.0}, {"type": "electric_scooter", "bike_id": "fd21da716a5d164902f290df8ef627d6", "is_disabled": 0, "name": "fd21da716a5d164902f290df8ef627d6", "lon": -76.9857155, "is_reserved": 0, "fusion_lon": 0.0, "lat": 38.90011883333333, "rental_uris": {"android": "https://dc.lft.to/lastmile_qr_scan", "ios": "https://dc.lft.to/lastmile_qr_scan"}, "fusion_lat": 0.0}, {"type": "electric_scooter", "bike_id": "8e59f52571817ab032c83d811bbbeb2c", "is_disabled": 0, "name": "8e59f52571817ab032c83d811bbbeb2c", "lon": -77.043812, "is_reserved": 0, "fusion_lon": 0.0, "lat": 38.9056825, "rental_uris": {"android": "https://dc.lft.to/lastmile_qr_scan", "ios": "https://dc.lft.to/lastmile_qr_scan"}, "fusion_lat": 0.0}, {"type": "electric_scooter", "bike_id": "6379cf4381f7ba6f761fd43c169a8924", "is_disabled": 0, "name": "6379cf4381f7ba6f761fd43c169a8924", "lon": -77.01991766666667, "is_reserved": 0, "fusion_lon": 0.0, "lat": 38.9006715, "rental_uris": {"android": "https://dc.lft.to/lastmile_qr_scan", "ios": "https://dc.lft.to/lastmile_qr_scan"}, "fusion_lat": 0.0}, {"type": "electric_scooter", "bike_id": "7c7f5904d3a7c7bd5e48c3d493e496b3", "is_disabled": 0, "name": "7c7f5904d3a7c7bd5e48c3d493e496b3", "lon": -77.00910266666666, "is_reserved": 0, "fusion_lon": 0.0, "lat": 38.89545916666667, "rental_uris": {"android": "https://dc.lft.to/lastmile_qr_scan", "ios": "https://dc.lft.to/lastmile_qr_scan"}, "fusion_lat": 0.0}, {"type": "electric_scooter", "bike_id": "ef6cbb4ef83886cac9526b9ba8ce423e", "is_disabled": 0, "name": "ef6cbb4ef83886cac9526b9ba8ce423e", "lon": -77.007272, "is_reserved": 0, "fusion_lon": 0.0, "lat": 38.9118885, "rental_uris": {"android": "https://dc.lft.to/lastmile_qr_scan", "ios": "https://dc.lft.to/lastmile_qr_scan"}, "fusion_lat": 0.0}, {"type": "electric_scooter", "bike_id": "aa980f854f61200c80061c29492409aa", "is_disabled": 0, "name": "aa980f854f61200c80061c29492409aa", "lon": -77.04199566666666, "is_reserved": 0, "fusion_lon": 0.0, "lat": 38.91882533333333, "rental_uris": {"android": "https://dc.lft.to/lastmile_qr_scan", "ios": "https://dc.lft.to/lastmile_qr_scan"}, "fusion_lat": 0.0}, {"type": "electric_scooter", "bike_id": "91e055fe4de576d6e6c6f3d357133ff5", "is_disabled": 0, "name": "91e055fe4de576d6e6c6f3d357133ff5", "lon": -77.03371033333333, "is_reserved": 0, "fusion_lon": 0.0, "lat": 38.90026816666666, "rental_uris": {"android": "https://dc.lft.to/lastmile_qr_scan", "ios": "https://dc.lft.to/lastmile_qr_scan"}, "fusion_lat": 0.0}, {"type": "electric_scooter", "bike_id": "6ad033b5d60acc3f73abe9083f192956", "is_disabled": 0, "name": "6ad033b5d60acc3f73abe9083f192956", "lon": -77.00339433333333, "is_reserved": 0, "fusion_lon": 0.0, "lat": 38.899211, "rental_uris": {"android": "https://dc.lft.to/lastmile_qr_scan", "ios": "https://dc.lft.to/lastmile_qr_scan"}, "fusion_lat": 0.0}, {"type": "electric_scooter", "bike_id": "6f694abe43afece11507f1af87cb0c55", "is_disabled": 0, "name": "6f694abe43afece11507f1af87cb0c55", "lon": -77.032719, "is_reserved": 0, "fusion_lon": 0.0, "lat": 38.935058166666664, "rental_uris": {"android": "https://dc.lft.to/lastmile_qr_scan", "ios": "https://dc.lft.to/lastmile_qr_scan"}, "fusion_lat": 0.0}, {"type": "electric_scooter", "bike_id": "6693796788d6effc0df8c211fecd5e70", "is_disabled": 0, "name": "6693796788d6effc0df8c211fecd5e70", "lon": -76.98082983333333, "is_reserved": 0, "fusion_lon": 0.0, "lat": 38.894377666666664, "rental_uris": {"android": "https://dc.lft.to/lastmile_qr_scan", "ios": "https://dc.lft.to/lastmile_qr_scan"}, "fusion_lat": 0.0}, {"type": "electric_scooter", "bike_id": "443d8bc022b2be0732a8ae6e4f845b8a", "is_disabled": 0, "name": "443d8bc022b2be0732a8ae6e4f845b8a", "lon": -77.05912833333333, "is_reserved": 0, "fusion_lon": 0.0, "lat": 38.901371, "rental_uris": {"android": "https://dc.lft.to/lastmile_qr_scan", "ios": "https://dc.lft.to/lastmile_qr_scan"}, "fusion_lat": 0.0}, {"type": "electric_scooter", "bike_id": "e1a16822f961dd74337b0818b0c4b36c", "is_disabled": 0, "name": "e1a16822f961dd74337b0818b0c4b36c", "lon": -77.042306, "is_reserved": 0, "fusion_lon": 0.0, "lat": 38.91114683333333, "rental_uris": {"android": "https://dc.lft.to/lastmile_qr_scan", "ios": "https://dc.lft.to/lastmile_qr_scan"}, "fusion_lat": 0.0}, {"type": "electric_scooter", "bike_id": "68c691895f6b6177b8d7bb7da36fecbd", "is_disabled": 0, "name": "68c691895f6b6177b8d7bb7da36fecbd", "lon": -77.028961, "is_reserved": 0, "fusion_lon": 0.0, "lat": 38.936106833333334, "rental_uris": {"android": "https://dc.lft.to/lastmile_qr_scan", "ios": "https://dc.lft.to/lastmile_qr_scan"}, "fusion_lat": 0.0}, {"type": "electric_scooter", "bike_id": "4bde300d75f07c40de271edfb020421a", "is_disabled": 0, "name": "4bde300d75f07c40de271edfb020421a", "lon": -77.01813866666667, "is_reserved": 0, "fusion_lon": 0.0, "lat": 38.91402433333333, "rental_uris": {"android": "https://dc.lft.to/lastmile_qr_scan", "ios": "https://dc.lft.to/lastmile_qr_scan"}, "fusion_lat": 0.0}, {"type": "electric_scooter", "bike_id": "e6165f69cd9560939f70401cec33bee4", "is_disabled": 0, "name": "e6165f69cd9560939f70401cec33bee4", "lon": -77.03633066666667, "is_reserved": 0, "fusion_lon": 0.0, "lat": 38.90316416666667, "rental_uris": {"android": "https://dc.lft.to/lastmile_qr_scan", "ios": "https://dc.lft.to/lastmile_qr_scan"}, "fusion_lat": 0.0}, {"type": "electric_scooter", "bike_id": "a8f24846fffd97d5050c610874386b3a", "is_disabled": 0, "name": "a8f24846fffd97d5050c610874386b3a", "lon": -77.01629633333333, "is_reserved": 0, "fusion_lon": 0.0, "lat": 38.887354, "rental_uris": {"android": "https://dc.lft.to/lastmile_qr_scan", "ios": "https://dc.lft.to/lastmile_qr_scan"}, "fusion_lat": 0.0}, {"type": "electric_scooter", "bike_id": "f2c2562a6eaa3019fe7a6173c78c6c10", "is_disabled": 0, "name": "f2c2562a6eaa3019fe7a6173c78c6c10", "lon": -77.03449483333333, "is_reserved": 0, "fusion_lon": 0.0, "lat": 38.91395716666667, "rental_uris": {"android": "https://dc.lft.to/lastmile_qr_scan", "ios": "https://dc.lft.to/lastmile_qr_scan"}, "fusion_lat": 0.0}, {"type": "electric_scooter", "bike_id": "83a0819ad3cfed63ea33775b05eebbf1", "is_disabled": 0, "name": "83a0819ad3cfed63ea33775b05eebbf1", "lon": -77.03091483333333, "is_reserved": 0, "fusion_lon": 0.0, "lat": 38.91052666666667, "rental_uris": {"android": "https://dc.lft.to/lastmile_qr_scan", "ios": "https://dc.lft.to/lastmile_qr_scan"}, "fusion_lat": 0.0}, {"type": "electric_scooter", "bike_id": "cbcc5cca3d039712b00be8a2f63d82ed", "is_disabled": 0, "name": "cbcc5cca3d039712b00be8a2f63d82ed", "lon": -77.01104566666666, "is_reserved": 0, "fusion_lon": 0.0, "lat": 38.903080333333335, "rental_uris": {"android": "https://dc.lft.to/lastmile_qr_scan", "ios": "https://dc.lft.to/lastmile_qr_scan"}, "fusion_lat": 0.0}, {"type": "electric_scooter", "bike_id": "60863cd2d4abb08645fc5b2651771a5b", "is_disabled": 0, "name": "60863cd2d4abb08645fc5b2651771a5b", "lon": -76.9994005, "is_reserved": 0, "fusion_lon": 0.0, "lat": 38.89162916666667, "rental_uris": {"android": "https://dc.lft.to/lastmile_qr_scan", "ios": "https://dc.lft.to/lastmile_qr_scan"}, "fusion_lat": 0.0}, {"type": "electric_bike", "bike_id": "86ff9fd852918b418f8db404f72555ec", "is_disabled": 0, "name": "86ff9fd852918b418f8db404f72555ec", "lon": -77.0981725, "is_reserved": 0, "fusion_lon": 0.0, "lat": 38.85015216666667, "rental_uris": {"android": "https://dc.lft.to/lastmile_qr_scan", "ios": "https://dc.lft.to/lastmile_qr_scan"}, "fusion_lat": 0.0}, {"type": "electric_scooter", "bike_id": "729ba8c412d1276cd249f19be409ce61", "is_disabled": 0, "name": "729ba8c412d1276cd249f19be409ce61", "lon": -76.938186, "is_reserved": 0, "fusion_lon": 0.0, "lat": 38.898367, "rental_uris": {"android": "https://dc.lft.to/lastmile_qr_scan", "ios": "https://dc.lft.to/lastmile_qr_scan"}, "fusion_lat": 0.0}, {"type": "electric_scooter", "bike_id": "dcf0996f6fbfd8b59b562d88d722f8b7", "is_disabled": 0, "name": "dcf0996f6fbfd8b59b562d88d722f8b7", "lon": -77.01332666666667, "is_reserved": 0, "fusion_lon": 0.0, "lat": 38.896163333333334, "rental_uris": {"android": "https://dc.lft.to/lastmile_qr_scan", "ios": "https://dc.lft.to/lastmile_qr_scan"}, "fusion_lat": 0.0}, {"type": "electric_scooter", "bike_id": "9950c47d464a70d9a9f2a200e39f29a0", "is_disabled": 0, "name": "9950c47d464a70d9a9f2a200e39f29a0", "lon": -77.01744216666667, "is_reserved": 0, "fusion_lon": 0.0, "lat": 38.902749666666665, "rental_uris": {"android": "https://dc.lft.to/lastmile_qr_scan", "ios": "https://dc.lft.to/lastmile_qr_scan"}, "fusion_lat": 0.0}, {"type": "electric_scooter", "bike_id": "604705af36da4b0cb474b898a6c9dcce", "is_disabled": 0, "name": "604705af36da4b0cb474b898a6c9dcce", "lon": -77.03315083333334, "is_reserved": 0, "fusion_lon": 0.0, "lat": 38.921533333333336, "rental_uris": {"android": "https://dc.lft.to/lastmile_qr_scan", "ios": "https://dc.lft.to/lastmile_qr_scan"}, "fusion_lat": 0.0}, {"type": "electric_scooter", "bike_id": "e2672bb68770416d5821a314421a9edf", "is_disabled": 0, "name": "e2672bb68770416d5821a314421a9edf", "lon": -77.03383683333334, "is_reserved": 0, "fusion_lon": 0.0, "lat": 38.9215545, "rental_uris": {"android": "https://dc.lft.to/lastmile_qr_scan", "ios": "https://dc.lft.to/lastmile_qr_scan"}, "fusion_lat": 0.0}, {"type": "electric_bike", "bike_id": "c523a86268a69174c54b42a292ed6b34", "is_disabled": 0, "name": "c523a86268a69174c54b42a292ed6b34", "lon": -77.00403383333334, "is_reserved": 0, "fusion_lon": 0.0, "lat": 38.9854235, "rental_uris": {"android": "https://dc.lft.to/lastmile_qr_scan", "ios": "https://dc.lft.to/lastmile_qr_scan"}, "fusion_lat": 0.0}, {"type": "electric_bike", "bike_id": "170db62a9acc450d5404a53c2e79dbb9", "is_disabled": 0, "name": "170db62a9acc450d5404a53c2e79dbb9", "lon": -76.99098883333333, "is_reserved": 0, "fusion_lon": 0.0, "lat": 38.80474433333333, "rental_uris": {"android": "https://dc.lft.to/lastmile_qr_scan", "ios": "https://dc.lft.to/lastmile_qr_scan"}, "fusion_lat": 0.0}, {"type": "electric_scooter", "bike_id": "ed8b2b97a0d9b6787493ea2238154ac1", "is_disabled": 0, "name": "ed8b2b97a0d9b6787493ea2238154ac1", "lon": -77.04528766666667, "is_reserved": 0, "fusion_lon": 0.0, "lat": 38.899555, "rental_uris": {"android": "https://dc.lft.to/lastmile_qr_scan", "ios": "https://dc.lft.to/lastmile_qr_scan"}, "fusion_lat": 0.0}, {"type": "electric_scooter", "bike_id": "98e5cd53099e1286e32af429ed5f7be6", "is_disabled": 0, "name": "98e5cd53099e1286e32af429ed5f7be6", "lon": -77.03191333333334, "is_reserved": 0, "fusion_lon": 0.0, "lat": 38.916729, "rental_uris": {"android": "https://dc.lft.to/lastmile_qr_scan", "ios": "https://dc.lft.to/lastmile_qr_scan"}, "fusion_lat": 0.0}, {"type": "electric_scooter", "bike_id": "7812e2debe1242897d1eb21b9b95a448", "is_disabled": 0, "name": "7812e2debe1242897d1eb21b9b95a448", "lon": -77.01882516666667, "is_reserved": 0, "fusion_lon": 0.0, "lat": 38.90603633333333, "rental_uris": {"android": "https://dc.lft.to/lastmile_qr_scan", "ios": "https://dc.lft.to/lastmile_qr_scan"}, "fusion_lat": 0.0}, {"type": "electric_bike", "bike_id": "be2a2af7bbf50dcd96d84d30e18b0616", "is_disabled": 0, "name": "be2a2af7bbf50dcd96d84d30e18b0616", "lon": -77.03435316666666, "is_reserved": 0, "fusion_lon": 0.0, "lat": 38.966173, "rental_uris": {"android": "https://dc.lft.to/lastmile_qr_scan", "ios": "https://dc.lft.to/lastmile_qr_scan"}, "fusion_lat": 0.0}, {"type": "electric_scooter", "bike_id": "68650b9c3f53c3e09ec1f1027918d369", "is_disabled": 0, "name": "68650b9c3f53c3e09ec1f1027918d369", "lon": -77.00801383333334, "is_reserved": 0, "fusion_lon": 0.0, "lat": 38.898637, "rental_uris": {"android": "https://dc.lft.to/lastmile_qr_scan", "ios": "https://dc.lft.to/lastmile_qr_scan"}, "fusion_lat": 0.0}, {"type": "electric_scooter", "bike_id": "2dc17a7dce73f72e198264553aac09ef", "is_disabled": 0, "name": "2dc17a7dce73f72e198264553aac09ef", "lon": -77.04338416666667, "is_reserved": 0, "fusion_lon": 0.0, "lat": 38.898719166666666, "rental_uris": {"android": "https://dc.lft.to/lastmile_qr_scan", "ios": "https://dc.lft.to/lastmile_qr_scan"}, "fusion_lat": 0.0}, {"type": "electric_scooter", "bike_id": "e6f1e7d363a193c3141b7a23c84b8da4", "is_disabled": 0, "name": "e6f1e7d363a193c3141b7a23c84b8da4", "lon": -76.94579283333333, "is_reserved": 0, "fusion_lon": 0.0, "lat": 38.8992585, "rental_uris": {"android": "https://dc.lft.to/lastmile_qr_scan", "ios": "https://dc.lft.to/lastmile_qr_scan"}, "fusion_lat": 0.0}, {"type": "electric_scooter", "bike_id": "865bc191f41e94e4a264ca83657840ee", "is_disabled": 0, "name": "865bc191f41e94e4a264ca83657840ee", "lon": -77.02376016666666, "is_reserved": 0, "fusion_lon": 0.0, "lat": 38.906641666666665, "rental_uris": {"android": "https://dc.lft.to/lastmile_qr_scan", "ios": "https://dc.lft.to/lastmile_qr_scan"}, "fusion_lat": 0.0}, {"type": "electric_bike", "bike_id": "e61588233264e582350edf2a5d64d7b7", "is_disabled": 0, "name": "e61588233264e582350edf2a5d64d7b7", "lon": -77.03881366666667, "is_reserved": 0, "fusion_lon": 0.0, "lat": 39.02620316666667, "rental_uris": {"android": "https://dc.lft.to/lastmile_qr_scan", "ios": "https://dc.lft.to/lastmile_qr_scan"}, "fusion_lat": 0.0}, {"type": "electric_scooter", "bike_id": "1c579c4ff246e7c6d90015b38ab7a7ea", "is_disabled": 0, "name": "1c579c4ff246e7c6d90015b38ab7a7ea", "lon": -77.02714583333334, "is_reserved": 0, "fusion_lon": 0.0, "lat": 38.92234166666667, "rental_uris": {"android": "https://dc.lft.to/lastmile_qr_scan", "ios": "https://dc.lft.to/lastmile_qr_scan"}, "fusion_lat": 0.0}, {"type": "electric_scooter", "bike_id": "06e813450caba27746ed7d77ff5985c1", "is_disabled": 0, "name": "06e813450caba27746ed7d77ff5985c1", "lon": -77.02384983333333, "is_reserved": 0, "fusion_lon": 0.0, "lat": 38.89197683333333, "rental_uris": {"android": "https://dc.lft.to/lastmile_qr_scan", "ios": "https://dc.lft.to/lastmile_qr_scan"}, "fusion_lat": 0.0}, {"type": "electric_scooter", "bike_id": "62c35f9c749bb98c47fe572f8d413b5e", "is_disabled": 0, "name": "62c35f9c749bb98c47fe572f8d413b5e", "lon": -77.00382366666666, "is_reserved": 0, "fusion_lon": 0.0, "lat": 38.90760316666667, "rental_uris": {"android": "https://dc.lft.to/lastmile_qr_scan", "ios": "https://dc.lft.to/lastmile_qr_scan"}, "fusion_lat": 0.0}, {"type": "electric_scooter", "bike_id": "b1b96104546a69e41ab86f84a6f74caf", "is_disabled": 0, "name": "b1b96104546a69e41ab86f84a6f74caf", "lon": -77.01155766666666, "is_reserved": 0, "fusion_lon": 0.0, "lat": 38.896475833333334, "rental_uris": {"android": "https://dc.lft.to/lastmile_qr_scan", "ios": "https://dc.lft.to/lastmile_qr_scan"}, "fusion_lat": 0.0}, {"type": "electric_bike", "bike_id": "9671bd98329f816381d6b046302fad4c", "is_disabled": 0, "name": "9671bd98329f816381d6b046302fad4c", "lon": -77.12740866666667, "is_reserved": 0, "fusion_lon": 0.0, "lat": 38.895666, "rental_uris": {"android": "https://dc.lft.to/lastmile_qr_scan", "ios": "https://dc.lft.to/lastmile_qr_scan"}, "fusion_lat": 0.0}, {"type": "electric_scooter", "bike_id": "4de72e8ec1f3e308502bdd701f09dff9", "is_disabled": 0, "name": "4de72e8ec1f3e308502bdd701f09dff9", "lon": -77.0178795, "is_reserved": 0, "fusion_lon": 0.0, "lat": 38.919895833333335, "rental_uris": {"android": "https://dc.lft.to/lastmile_qr_scan", "ios": "https://dc.lft.to/lastmile_qr_scan"}, "fusion_lat": 0.0}, {"type": "electric_scooter", "bike_id": "65bcdc6cf8fce3c3124712a8e602a2ab", "is_disabled": 0, "name": "65bcdc6cf8fce3c3124712a8e602a2ab", "lon": -77.02207333333334, "is_reserved": 0, "fusion_lon": 0.0, "lat": 38.90547466666666, "rental_uris": {"android": "https://dc.lft.to/lastmile_qr_scan", "ios": "https://dc.lft.to/lastmile_qr_scan"}, "fusion_lat": 0.0}, {"type": "electric_scooter", "bike_id": "7942f3bcd2dc0384477ddbd7b81e00a9", "is_disabled": 0, "name": "7942f3bcd2dc0384477ddbd7b81e00a9", "lon": -76.98602216666667, "is_reserved": 0, "fusion_lon": 0.0, "lat": 38.906526, "rental_uris": {"android": "https://dc.lft.to/lastmile_qr_scan", "ios": "https://dc.lft.to/lastmile_qr_scan"}, "fusion_lat": 0.0}, {"type": "electric_bike", "bike_id": "fe792743458cc5d04eea46908d6886b7", "is_disabled": 0, "name": "fe792743458cc5d04eea46908d6886b7", "lon": -76.99716533333333, "is_reserved": 0, "fusion_lon": 0.0, "lat": 38.998532, "rental_uris": {"android": "https://dc.lft.to/lastmile_qr_scan", "ios": "https://dc.lft.to/lastmile_qr_scan"}, "fusion_lat": 0.0}, {"type": "electric_scooter", "bike_id": "a7e09900acd899a8efc0a8e1cefd4613", "is_disabled": 0, "name": "a7e09900acd899a8efc0a8e1cefd4613", "lon": -77.017981, "is_reserved": 0, "fusion_lon": 0.0, "lat": 38.919988333333336, "rental_uris": {"android": "https://dc.lft.to/lastmile_qr_scan", "ios": "https://dc.lft.to/lastmile_qr_scan"}, "fusion_lat": 0.0}, {"type": "electric_scooter", "bike_id": "02abe4ce8797ac383724fda63350bd6b", "is_disabled": 0, "name": "02abe4ce8797ac383724fda63350bd6b", "lon": -77.03281633333333, "is_reserved": 0, "fusion_lon": 0.0, "lat": 38.8988205, "rental_uris": {"android": "https://dc.lft.to/lastmile_qr_scan", "ios": "https://dc.lft.to/lastmile_qr_scan"}, "fusion_lat": 0.0}, {"type": "electric_scooter", "bike_id": "7f921ba34aed6d3723f0c083e6364a3d", "is_disabled": 0, "name": "7f921ba34aed6d3723f0c083e6364a3d", "lon": -77.0485745, "is_reserved": 0, "fusion_lon": 0.0, "lat": 38.89936083333333, "rental_uris": {"android": "https://dc.lft.to/lastmile_qr_scan", "ios": "https://dc.lft.to/lastmile_qr_scan"}, "fusion_lat": 0.0}, {"type": "electric_scooter", "bike_id": "ef31be0bdea0bb6f403e074ecbbb30a3", "is_disabled": 0, "name": "ef31be0bdea0bb6f403e074ecbbb30a3", "lon": -77.01615616666666, "is_reserved": 0, "fusion_lon": 0.0, "lat": 38.906028, "rental_uris": {"android": "https://dc.lft.to/lastmile_qr_scan", "ios": "https://dc.lft.to/lastmile_qr_scan"}, "fusion_lat": 0.0}, {"type": "electric_scooter", "bike_id": "8eae88e6f7fc88ec4d7b7c7b12a88e88", "is_disabled": 0, "name": "8eae88e6f7fc88ec4d7b7c7b12a88e88", "lon": -76.983116, "is_reserved": 0, "fusion_lon": 0.0, "lat": 38.86889133333333, "rental_uris": {"android": "https://dc.lft.to/lastmile_qr_scan", "ios": "https://dc.lft.to/lastmile_qr_scan"}, "fusion_lat": 0.0}, {"type": "electric_scooter", "bike_id": "fd41cd547e3803335752a56835a45453", "is_disabled": 0, "name": "fd41cd547e3803335752a56835a45453", "lon": -77.0341865, "is_reserved": 0, "fusion_lon": 0.0, "lat": 38.93081083333333, "rental_uris": {"android": "https://dc.lft.to/lastmile_qr_scan", "ios": "https://dc.lft.to/lastmile_qr_scan"}, "fusion_lat": 0.0}, {"type": "electric_scooter", "bike_id": "77f3975abc481f8963663a3627bd5e22", "is_disabled": 0, "name": "77f3975abc481f8963663a3627bd5e22", "lon": -77.0385545, "is_reserved": 0, "fusion_lon": 0.0, "lat": 38.91125, "rental_uris": {"android": "https://dc.lft.to/lastmile_qr_scan", "ios": "https://dc.lft.to/lastmile_qr_scan"}, "fusion_lat": 0.0}, {"type": "electric_scooter", "bike_id": "98515a002239f8b2c451f241acd14cab", "is_disabled": 0, "name": "98515a002239f8b2c451f241acd14cab", "lon": -76.989942, "is_reserved": 0, "fusion_lon": 0.0, "lat": 38.86434716666667, "rental_uris": {"android": "https://dc.lft.to/lastmile_qr_scan", "ios": "https://dc.lft.to/lastmile_qr_scan"}, "fusion_lat": 0.0}, {"type": "electric_scooter", "bike_id": "dc07685029e0bed8fb0293401bd2bf43", "is_disabled": 0, "name": "dc07685029e0bed8fb0293401bd2bf43", "lon": -77.03151683333333, "is_reserved": 0, "fusion_lon": 0.0, "lat": 38.916915333333336, "rental_uris": {"android": "https://dc.lft.to/lastmile_qr_scan", "ios": "https://dc.lft.to/lastmile_qr_scan"}, "fusion_lat": 0.0}, {"type": "electric_scooter", "bike_id": "66dbe7efd04facdbecd195e2d980c219", "is_disabled": 0, "name": "66dbe7efd04facdbecd195e2d980c219", "lon": -76.99515433333333, "is_reserved": 0, "fusion_lon": 0.0, "lat": 38.88780933333334, "rental_uris": {"android": "https://dc.lft.to/lastmile_qr_scan", "ios": "https://dc.lft.to/lastmile_qr_scan"}, "fusion_lat": 0.0}, {"type": "electric_scooter", "bike_id": "e4730ddc1e5e29caec868fd84e1de104", "is_disabled": 0, "name": "e4730ddc1e5e29caec868fd84e1de104", "lon": -77.05694516666667, "is_reserved": 0, "fusion_lon": 0.0, "lat": 38.906019, "rental_uris": {"android": "https://dc.lft.to/lastmile_qr_scan", "ios": "https://dc.lft.to/lastmile_qr_scan"}, "fusion_lat": 0.0}, {"type": "electric_scooter", "bike_id": "6042ac4acb6070c6a5ec158ae274bf2d", "is_disabled": 0, "name": "6042ac4acb6070c6a5ec158ae274bf2d", "lon": -77.0434815, "is_reserved": 0, "fusion_lon": 0.0, "lat": 38.905024, "rental_uris": {"android": "https://dc.lft.to/lastmile_qr_scan", "ios": "https://dc.lft.to/lastmile_qr_scan"}, "fusion_lat": 0.0}, {"type": "electric_scooter", "bike_id": "5b2eaf2df4aa74f33f12fc78035f45bb", "is_disabled": 0, "name": "5b2eaf2df4aa74f33f12fc78035f45bb", "lon": -77.03203116666667, "is_reserved": 0, "fusion_lon": 0.0, "lat": 38.91663, "rental_uris": {"android": "https://dc.lft.to/lastmile_qr_scan", "ios": "https://dc.lft.to/lastmile_qr_scan"}, "fusion_lat": 0.0}, {"type": "electric_scooter", "bike_id": "8e639f22d5f2b03d806bc5866af740fc", "is_disabled": 0, "name": "8e639f22d5f2b03d806bc5866af740fc", "lon": -77.02696083333333, "is_reserved": 0, "fusion_lon": 0.0, "lat": 38.90868433333333, "rental_uris": {"android": "https://dc.lft.to/lastmile_qr_scan", "ios": "https://dc.lft.to/lastmile_qr_scan"}, "fusion_lat": 0.0}, {"type": "electric_scooter", "bike_id": "3605c61e8546aa3d56ef9509bc318e20", "is_disabled": 0, "name": "3605c61e8546aa3d56ef9509bc318e20", "lon": -76.997402, "is_reserved": 0, "fusion_lon": 0.0, "lat": 38.9205585, "rental_uris": {"android": "https://dc.lft.to/lastmile_qr_scan", "ios": "https://dc.lft.to/lastmile_qr_scan"}, "fusion_lat": 0.0}, {"type": "electric_scooter", "bike_id": "aa1b075544305005b945dedf2b61b19e", "is_disabled": 0, "name": "aa1b075544305005b945dedf2b61b19e", "lon": -77.04515466666666, "is_reserved": 0, "fusion_lon": 0.0, "lat": 38.9055295, "rental_uris": {"android": "https://dc.lft.to/lastmile_qr_scan", "ios": "https://dc.lft.to/lastmile_qr_scan"}, "fusion_lat": 0.0}, {"type": "electric_scooter", "bike_id": "8b46f1b43de1e49600469e719f0fb17a", "is_disabled": 0, "name": "8b46f1b43de1e49600469e719f0fb17a", "lon": -76.93524433333333, "is_reserved": 0, "fusion_lon": 0.0, "lat": 38.87893833333333, "rental_uris": {"android": "https://dc.lft.to/lastmile_qr_scan", "ios": "https://dc.lft.to/lastmile_qr_scan"}, "fusion_lat": 0.0}, {"type": "electric_scooter", "bike_id": "cb2ab19772e455fe3fc38ae663ab3025", "is_disabled": 0, "name": "cb2ab19772e455fe3fc38ae663ab3025", "lon": -77.01203433333333, "is_reserved": 0, "fusion_lon": 0.0, "lat": 38.89763716666667, "rental_uris": {"android": "https://dc.lft.to/lastmile_qr_scan", "ios": "https://dc.lft.to/lastmile_qr_scan"}, "fusion_lat": 0.0}, {"type": "electric_scooter", "bike_id": "2f2799d26b7d97dc2830a4a3fa0c3a05", "is_disabled": 0, "name": "2f2799d26b7d97dc2830a4a3fa0c3a05", "lon": -77.02846883333333, "is_reserved": 0, "fusion_lon": 0.0, "lat": 38.930551333333334, "rental_uris": {"android": "https://dc.lft.to/lastmile_qr_scan", "ios": "https://dc.lft.to/lastmile_qr_scan"}, "fusion_lat": 0.0}, {"type": "electric_scooter", "bike_id": "6728786094b7ca3c3616be2b18e95373", "is_disabled": 0, "name": "6728786094b7ca3c3616be2b18e95373", "lon": -77.04016416666667, "is_reserved": 0, "fusion_lon": 0.0, "lat": 38.9071965, "rental_uris": {"android": "https://dc.lft.to/lastmile_qr_scan", "ios": "https://dc.lft.to/lastmile_qr_scan"}, "fusion_lat": 0.0}, {"type": "electric_scooter", "bike_id": "23383c802b0177acfcc44ecd627ed727", "is_disabled": 0, "name": "23383c802b0177acfcc44ecd627ed727", "lon": -77.03563966666667, "is_reserved": 0, "fusion_lon": 0.0, "lat": 38.90810316666666, "rental_uris": {"android": "https://dc.lft.to/lastmile_qr_scan", "ios": "https://dc.lft.to/lastmile_qr_scan"}, "fusion_lat": 0.0}, {"type": "electric_scooter", "bike_id": "7bcf95e64b1ada23fea813c7bb28c4e5", "is_disabled": 0, "name": "7bcf95e64b1ada23fea813c7bb28c4e5", "lon": -77.0240415, "is_reserved": 0, "fusion_lon": 0.0, "lat": 38.917038166666664, "rental_uris": {"android": "https://dc.lft.to/lastmile_qr_scan", "ios": "https://dc.lft.to/lastmile_qr_scan"}, "fusion_lat": 0.0}, {"type": "electric_bike", "bike_id": "7adaf907db74715fceebba9bdde03280", "is_disabled": 0, "name": "7adaf907db74715fceebba9bdde03280", "lon": -76.97703966666667, "is_reserved": 0, "fusion_lon": 0.0, "lat": 38.82207733333333, "rental_uris": {"android": "https://dc.lft.to/lastmile_qr_scan", "ios": "https://dc.lft.to/lastmile_qr_scan"}, "fusion_lat": 0.0}, {"type": "electric_scooter", "bike_id": "2580df599f70f487811b202160e45f5c", "is_disabled": 0, "name": "2580df599f70f487811b202160e45f5c", "lon": -77.04141116666666, "is_reserved": 0, "fusion_lon": 0.0, "lat": 38.9225255, "rental_uris": {"android": "https://dc.lft.to/lastmile_qr_scan", "ios": "https://dc.lft.to/lastmile_qr_scan"}, "fusion_lat": 0.0}, {"type": "electric_scooter", "bike_id": "bfd79726ac13079605e7fbf39eec4dfa", "is_disabled": 0, "name": "bfd79726ac13079605e7fbf39eec4dfa", "lon": -77.0118445, "is_reserved": 0, "fusion_lon": 0.0, "lat": 38.900257333333336, "rental_uris": {"android": "https://dc.lft.to/lastmile_qr_scan", "ios": "https://dc.lft.to/lastmile_qr_scan"}, "fusion_lat": 0.0}, {"type": "electric_bike", "bike_id": "4cfd93a48e812f1cb6c9757d22100517", "is_disabled": 0, "name": "4cfd93a48e812f1cb6c9757d22100517", "lon": -77.02009466666667, "is_reserved": 0, "fusion_lon": 0.0, "lat": 39.02621516666667, "rental_uris": {"android": "https://dc.lft.to/lastmile_qr_scan", "ios": "https://dc.lft.to/lastmile_qr_scan"}, "fusion_lat": 0.0}, {"type": "electric_scooter", "bike_id": "aa96a35073d935a851d961b660ff075d", "is_disabled": 0, "name": "aa96a35073d935a851d961b660ff075d", "lon": -77.0253405, "is_reserved": 0, "fusion_lon": 0.0, "lat": 38.929793833333335, "rental_uris": {"android": "https://dc.lft.to/lastmile_qr_scan", "ios": "https://dc.lft.to/lastmile_qr_scan"}, "fusion_lat": 0.0}, {"type": "electric_scooter", "bike_id": "4417908bde852f2ee611e68414a2c077", "is_disabled": 0, "name": "4417908bde852f2ee611e68414a2c077", "lon": -77.00819616666666, "is_reserved": 0, "fusion_lon": 0.0, "lat": 38.9156295, "rental_uris": {"android": "https://dc.lft.to/lastmile_qr_scan", "ios": "https://dc.lft.to/lastmile_qr_scan"}, "fusion_lat": 0.0}, {"type": "electric_bike", "bike_id": "c8331d7fd3eae427834189064243ffe6", "is_disabled": 0, "name": "c8331d7fd3eae427834189064243ffe6", "lon": -77.11288916666666, "is_reserved": 0, "fusion_lon": 0.0, "lat": 38.831032666666665, "rental_uris": {"android": "https://dc.lft.to/lastmile_qr_scan", "ios": "https://dc.lft.to/lastmile_qr_scan"}, "fusion_lat": 0.0}, {"type": "electric_bike", "bike_id": "1a6e936949f30f2e6955972d430fa983", "is_disabled": 0, "name": "1a6e936949f30f2e6955972d430fa983", "lon": -76.995493, "is_reserved": 0, "fusion_lon": 0.0, "lat": 38.862005333333336, "rental_uris": {"android": "https://dc.lft.to/lastmile_qr_scan", "ios": "https://dc.lft.to/lastmile_qr_scan"}, "fusion_lat": 0.0}, {"type": "electric_scooter", "bike_id": "feeab984910c25d51832fe9900fa884c", "is_disabled": 0, "name": "feeab984910c25d51832fe9900fa884c", "lon": -77.026901, "is_reserved": 0, "fusion_lon": 0.0, "lat": 38.93077383333333, "rental_uris": {"android": "https://dc.lft.to/lastmile_qr_scan", "ios": "https://dc.lft.to/lastmile_qr_scan"}, "fusion_lat": 0.0}, {"type": "electric_scooter", "bike_id": "c19db709a482bf0c5cb771bf928c4d56", "is_disabled": 0, "name": "c19db709a482bf0c5cb771bf928c4d56", "lon": -77.03659933333333, "is_reserved": 0, "fusion_lon": 0.0, "lat": 38.91798933333333, "rental_uris": {"android": "https://dc.lft.to/lastmile_qr_scan", "ios": "https://dc.lft.to/lastmile_qr_scan"}, "fusion_lat": 0.0}, {"type": "electric_scooter", "bike_id": "7ebdf9d06a7f34f2c7af442c40cabe08", "is_disabled": 0, "name": "7ebdf9d06a7f34f2c7af442c40cabe08", "lon": -77.0182465, "is_reserved": 0, "fusion_lon": 0.0, "lat": 38.921491833333334, "rental_uris": {"android": "https://dc.lft.to/lastmile_qr_scan", "ios": "https://dc.lft.to/lastmile_qr_scan"}, "fusion_lat": 0.0}, {"type": "electric_scooter", "bike_id": "e9cb6cac767a262a9685aab89bd1cc4f", "is_disabled": 0, "name": "e9cb6cac767a262a9685aab89bd1cc4f", "lon": -77.03427383333333, "is_reserved": 0, "fusion_lon": 0.0, "lat": 38.9140635, "rental_uris": {"android": "https://dc.lft.to/lastmile_qr_scan", "ios": "https://dc.lft.to/lastmile_qr_scan"}, "fusion_lat": 0.0}, {"type": "electric_scooter", "bike_id": "13d16c124b1725adba3447413b1ffa76", "is_disabled": 0, "name": "13d16c124b1725adba3447413b1ffa76", "lon": -77.0232305, "is_reserved": 0, "fusion_lon": 0.0, "lat": 38.89470433333334, "rental_uris": {"android": "https://dc.lft.to/lastmile_qr_scan", "ios": "https://dc.lft.to/lastmile_qr_scan"}, "fusion_lat": 0.0}, {"type": "electric_scooter", "bike_id": "93aaa1315b3721a2ffd9b5c1987c3def", "is_disabled": 0, "name": "93aaa1315b3721a2ffd9b5c1987c3def", "lon": -77.0269855, "is_reserved": 0, "fusion_lon": 0.0, "lat": 38.9493615, "rental_uris": {"android": "https://dc.lft.to/lastmile_qr_scan", "ios": "https://dc.lft.to/lastmile_qr_scan"}, "fusion_lat": 0.0}, {"type": "electric_bike", "bike_id": "943cfdb8c8b145596f1767236dc86f50", "is_disabled": 0, "name": "943cfdb8c8b145596f1767236dc86f50", "lon": -77.00875733333334, "is_reserved": 0, "fusion_lon": 0.0, "lat": 38.905758666666664, "rental_uris": {"android": "https://dc.lft.to/lastmile_qr_scan", "ios": "https://dc.lft.to/lastmile_qr_scan"}, "fusion_lat": 0.0}, {"type": "electric_scooter", "bike_id": "a9258c203d710b4b0763419173c084a3", "is_disabled": 0, "name": "a9258c203d710b4b0763419173c084a3", "lon": -77.044867, "is_reserved": 0, "fusion_lon": 0.0, "lat": 38.91930216666667, "rental_uris": {"android": "https://dc.lft.to/lastmile_qr_scan", "ios": "https://dc.lft.to/lastmile_qr_scan"}, "fusion_lat": 0.0}, {"type": "electric_scooter", "bike_id": "6b20a82a53357c9333de6c8ac4dd6390", "is_disabled": 0, "name": "6b20a82a53357c9333de6c8ac4dd6390", "lon": -77.0145225, "is_reserved": 0, "fusion_lon": 0.0, "lat": 38.899330166666665, "rental_uris": {"android": "https://dc.lft.to/lastmile_qr_scan", "ios": "https://dc.lft.to/lastmile_qr_scan"}, "fusion_lat": 0.0}, {"type": "electric_scooter", "bike_id": "60d1ece0ac4785220ae2c6d1c2acc4cd", "is_disabled": 0, "name": "60d1ece0ac4785220ae2c6d1c2acc4cd", "lon": -77.03848133333334, "is_reserved": 0, "fusion_lon": 0.0, "lat": 38.910051333333335, "rental_uris": {"android": "https://dc.lft.to/lastmile_qr_scan", "ios": "https://dc.lft.to/lastmile_qr_scan"}, "fusion_lat": 0.0}, {"type": "electric_scooter", "bike_id": "64082e941c8732540215b779c7d4b4b9", "is_disabled": 0, "name": "64082e941c8732540215b779c7d4b4b9", "lon": -77.02936383333333, "is_reserved": 0, "fusion_lon": 0.0, "lat": 38.90651883333334, "rental_uris": {"android": "https://dc.lft.to/lastmile_qr_scan", "ios": "https://dc.lft.to/lastmile_qr_scan"}, "fusion_lat": 0.0}, {"type": "electric_scooter", "bike_id": "1f5998d49e30d7a211f2fadf68f328fa", "is_disabled": 0, "name": "1f5998d49e30d7a211f2fadf68f328fa", "lon": -76.991592, "is_reserved": 0, "fusion_lon": 0.0, "lat": 38.9052535, "rental_uris": {"android": "https://dc.lft.to/lastmile_qr_scan", "ios": "https://dc.lft.to/lastmile_qr_scan"}, "fusion_lat": 0.0}, {"type": "electric_bike", "bike_id": "7e19492f7aaa2016aedfe56c64574d3c", "is_disabled": 0, "name": "7e19492f7aaa2016aedfe56c64574d3c", "lon": -77.08962933333333, "is_reserved": 0, "fusion_lon": 0.0, "lat": 38.84118316666667, "rental_uris": {"android": "https://dc.lft.to/lastmile_qr_scan", "ios": "https://dc.lft.to/lastmile_qr_scan"}, "fusion_lat": 0.0}, {"type": "electric_scooter", "bike_id": "48dd575865a24d2ac427a5fcb24e9076", "is_disabled": 0, "name": "48dd575865a24d2ac427a5fcb24e9076", "lon": -76.98364183333334, "is_reserved": 0, "fusion_lon": 0.0, "lat": 38.88725483333333, "rental_uris": {"android": "https://dc.lft.to/lastmile_qr_scan", "ios": "https://dc.lft.to/lastmile_qr_scan"}, "fusion_lat": 0.0}, {"type": "electric_scooter", "bike_id": "713420c96483323122f9db0271aab687", "is_disabled": 0, "name": "713420c96483323122f9db0271aab687", "lon": -76.94715466666666, "is_reserved": 0, "fusion_lon": 0.0, "lat": 38.89081133333333, "rental_uris": {"android": "https://dc.lft.to/lastmile_qr_scan", "ios": "https://dc.lft.to/lastmile_qr_scan"}, "fusion_lat": 0.0}, {"type": "electric_bike", "bike_id": "342a7461dd423d910d08650b33a83ab0", "is_disabled": 0, "name": "342a7461dd423d910d08650b33a83ab0", "lon": -76.95746866666667, "is_reserved": 0, "fusion_lon": 0.0, "lat": 38.888534666666665, "rental_uris": {"android": "https://dc.lft.to/lastmile_qr_scan", "ios": "https://dc.lft.to/lastmile_qr_scan"}, "fusion_lat": 0.0}, {"type": "electric_scooter", "bike_id": "f50deaaee272ae93b704e9b6eb0df4b9", "is_disabled": 0, "name": "f50deaaee272ae93b704e9b6eb0df4b9", "lon": -77.02510416666667, "is_reserved": 0, "fusion_lon": 0.0, "lat": 38.89451483333333, "rental_uris": {"android": "https://dc.lft.to/lastmile_qr_scan", "ios": "https://dc.lft.to/lastmile_qr_scan"}, "fusion_lat": 0.0}, {"type": "electric_scooter", "bike_id": "128bec729ac2182bd67c6f68673638e2", "is_disabled": 0, "name": "128bec729ac2182bd67c6f68673638e2", "lon": -77.03936183333333, "is_reserved": 0, "fusion_lon": 0.0, "lat": 38.924657333333336, "rental_uris": {"android": "https://dc.lft.to/lastmile_qr_scan", "ios": "https://dc.lft.to/lastmile_qr_scan"}, "fusion_lat": 0.0}, {"type": "electric_scooter", "bike_id": "deb5d703dc724e15093d23ec9441a2d0", "is_disabled": 0, "name": "deb5d703dc724e15093d23ec9441a2d0", "lon": -77.0280825, "is_reserved": 0, "fusion_lon": 0.0, "lat": 38.91099366666667, "rental_uris": {"android": "https://dc.lft.to/lastmile_qr_scan", "ios": "https://dc.lft.to/lastmile_qr_scan"}, "fusion_lat": 0.0}, {"type": "electric_scooter", "bike_id": "d0684304af0fb97827d9ddf20c6ab6de", "is_disabled": 0, "name": "d0684304af0fb97827d9ddf20c6ab6de", "lon": -77.04234866666667, "is_reserved": 0, "fusion_lon": 0.0, "lat": 38.92153483333333, "rental_uris": {"android": "https://dc.lft.to/lastmile_qr_scan", "ios": "https://dc.lft.to/lastmile_qr_scan"}, "fusion_lat": 0.0}, {"type": "electric_scooter", "bike_id": "20c7d0a762a25d2f26fd7102f875f8fe", "is_disabled": 0, "name": "20c7d0a762a25d2f26fd7102f875f8fe", "lon": -77.01563066666667, "is_reserved": 0, "fusion_lon": 0.0, "lat": 38.88594283333333, "rental_uris": {"android": "https://dc.lft.to/lastmile_qr_scan", "ios": "https://dc.lft.to/lastmile_qr_scan"}, "fusion_lat": 0.0}, {"type": "electric_scooter", "bike_id": "f87f278a2dad7766ccbd94b8f591b572", "is_disabled": 0, "name": "f87f278a2dad7766ccbd94b8f591b572", "lon": -77.051818, "is_reserved": 0, "fusion_lon": 0.0, "lat": 38.90313666666667, "rental_uris": {"android": "https://dc.lft.to/lastmile_qr_scan", "ios": "https://dc.lft.to/lastmile_qr_scan"}, "fusion_lat": 0.0}, {"type": "electric_scooter", "bike_id": "04b1148da8f430cf727b94bec7d3c6ea", "is_disabled": 0, "name": "04b1148da8f430cf727b94bec7d3c6ea", "lon": -77.01189216666667, "is_reserved": 0, "fusion_lon": 0.0, "lat": 38.90005566666667, "rental_uris": {"android": "https://dc.lft.to/lastmile_qr_scan", "ios": "https://dc.lft.to/lastmile_qr_scan"}, "fusion_lat": 0.0}, {"type": "electric_scooter", "bike_id": "9df3a6d197bf6fbae827e25e2b0e68d3", "is_disabled": 0, "name": "9df3a6d197bf6fbae827e25e2b0e68d3", "lon": -77.0185425, "is_reserved": 0, "fusion_lon": 0.0, "lat": 38.9053085, "rental_uris": {"android": "https://dc.lft.to/lastmile_qr_scan", "ios": "https://dc.lft.to/lastmile_qr_scan"}, "fusion_lat": 0.0}, {"type": "electric_scooter", "bike_id": "cbd82d8d200aff29c3513a6a6068ddba", "is_disabled": 0, "name": "cbd82d8d200aff29c3513a6a6068ddba", "lon": -77.03215616666667, "is_reserved": 0, "fusion_lon": 0.0, "lat": 38.9183855, "rental_uris": {"android": "https://dc.lft.to/lastmile_qr_scan", "ios": "https://dc.lft.to/lastmile_qr_scan"}, "fusion_lat": 0.0}, {"type": "electric_scooter", "bike_id": "a33694b0c4db86779e09fe8ed04198ec", "is_disabled": 0, "name": "a33694b0c4db86779e09fe8ed04198ec", "lon": -76.9965775, "is_reserved": 0, "fusion_lon": 0.0, "lat": 38.93237633333333, "rental_uris": {"android": "https://dc.lft.to/lastmile_qr_scan", "ios": "https://dc.lft.to/lastmile_qr_scan"}, "fusion_lat": 0.0}, {"type": "electric_scooter", "bike_id": "9d0a668762bd48caa90f84ae61598fe9", "is_disabled": 0, "name": "9d0a668762bd48caa90f84ae61598fe9", "lon": -77.047361, "is_reserved": 0, "fusion_lon": 0.0, "lat": 38.895490833333334, "rental_uris": {"android": "https://dc.lft.to/lastmile_qr_scan", "ios": "https://dc.lft.to/lastmile_qr_scan"}, "fusion_lat": 0.0}, {"type": "electric_scooter", "bike_id": "a93f794d74b03d4adf41d412d9f31c4f", "is_disabled": 0, "name": "a93f794d74b03d4adf41d412d9f31c4f", "lon": -77.0499315, "is_reserved": 0, "fusion_lon": 0.0, "lat": 38.90528416666667, "rental_uris": {"android": "https://dc.lft.to/lastmile_qr_scan", "ios": "https://dc.lft.to/lastmile_qr_scan"}, "fusion_lat": 0.0}, {"type": "electric_scooter", "bike_id": "2f175d190dd1cc28129a76c42eeac79f", "is_disabled": 0, "name": "2f175d190dd1cc28129a76c42eeac79f", "lon": -77.06987733333334, "is_reserved": 0, "fusion_lon": 0.0, "lat": 38.95525633333333, "rental_uris": {"android": "https://dc.lft.to/lastmile_qr_scan", "ios": "https://dc.lft.to/lastmile_qr_scan"}, "fusion_lat": 0.0}, {"type": "electric_scooter", "bike_id": "80e45290dab68f3ec1289394dffd726a", "is_disabled": 0, "name": "80e45290dab68f3ec1289394dffd726a", "lon": -77.0460945, "is_reserved": 0, "fusion_lon": 0.0, "lat": 38.90266616666667, "rental_uris": {"android": "https://dc.lft.to/lastmile_qr_scan", "ios": "https://dc.lft.to/lastmile_qr_scan"}, "fusion_lat": 0.0}, {"type": "electric_scooter", "bike_id": "ad33c0e4e15a7f7c740dc84268cd44f7", "is_disabled": 0, "name": "ad33c0e4e15a7f7c740dc84268cd44f7", "lon": -76.93189833333334, "is_reserved": 0, "fusion_lon": 0.0, "lat": 38.898563833333334, "rental_uris": {"android": "https://dc.lft.to/lastmile_qr_scan", "ios": "https://dc.lft.to/lastmile_qr_scan"}, "fusion_lat": 0.0}, {"type": "electric_scooter", "bike_id": "22c24145514d3e39ea98dc9516ad7a0f", "is_disabled": 0, "name": "22c24145514d3e39ea98dc9516ad7a0f", "lon": -77.03853066666667, "is_reserved": 0, "fusion_lon": 0.0, "lat": 38.909325, "rental_uris": {"android": "https://dc.lft.to/lastmile_qr_scan", "ios": "https://dc.lft.to/lastmile_qr_scan"}, "fusion_lat": 0.0}, {"type": "electric_scooter", "bike_id": "48d8e5876ee9c1ea9bc028428277930d", "is_disabled": 0, "name": "48d8e5876ee9c1ea9bc028428277930d", "lon": -77.05764483333333, "is_reserved": 0, "fusion_lon": 0.0, "lat": 38.92441316666667, "rental_uris": {"android": "https://dc.lft.to/lastmile_qr_scan", "ios": "https://dc.lft.to/lastmile_qr_scan"}, "fusion_lat": 0.0}, {"type": "electric_scooter", "bike_id": "eb990eadbaa0e3136fe25d63ee4c3a45", "is_disabled": 0, "name": "eb990eadbaa0e3136fe25d63ee4c3a45", "lon": -77.021726, "is_reserved": 0, "fusion_lon": 0.0, "lat": 38.94285766666667, "rental_uris": {"android": "https://dc.lft.to/lastmile_qr_scan", "ios": "https://dc.lft.to/lastmile_qr_scan"}, "fusion_lat": 0.0}, {"type": "electric_scooter", "bike_id": "c7443e23c92f7fd48bac159470e709e9", "is_disabled": 0, "name": "c7443e23c92f7fd48bac159470e709e9", "lon": -77.032187, "is_reserved": 0, "fusion_lon": 0.0, "lat": 38.928582666666664, "rental_uris": {"android": "https://dc.lft.to/lastmile_qr_scan", "ios": "https://dc.lft.to/lastmile_qr_scan"}, "fusion_lat": 0.0}, {"type": "electric_scooter", "bike_id": "0957a449ef4c1d37e7c616f02cd13fa8", "is_disabled": 0, "name": "0957a449ef4c1d37e7c616f02cd13fa8", "lon": -77.01017116666667, "is_reserved": 0, "fusion_lon": 0.0, "lat": 38.912517333333334, "rental_uris": {"android": "https://dc.lft.to/lastmile_qr_scan", "ios": "https://dc.lft.to/lastmile_qr_scan"}, "fusion_lat": 0.0}, {"type": "electric_scooter", "bike_id": "da7962df504dc6591c6d61d847aea98a", "is_disabled": 0, "name": "da7962df504dc6591c6d61d847aea98a", "lon": -76.97330516666666, "is_reserved": 0, "fusion_lon": 0.0, "lat": 38.9041205, "rental_uris": {"android": "https://dc.lft.to/lastmile_qr_scan", "ios": "https://dc.lft.to/lastmile_qr_scan"}, "fusion_lat": 0.0}, {"type": "electric_scooter", "bike_id": "f4fe4b78a36c3e8e72a6080668fd457c", "is_disabled": 0, "name": "f4fe4b78a36c3e8e72a6080668fd457c", "lon": -77.0582775, "is_reserved": 0, "fusion_lon": 0.0, "lat": 38.935288166666666, "rental_uris": {"android": "https://dc.lft.to/lastmile_qr_scan", "ios": "https://dc.lft.to/lastmile_qr_scan"}, "fusion_lat": 0.0}, {"type": "electric_bike", "bike_id": "1ecb9a112731d0c118095093b00e68ab", "is_disabled": 0, "name": "1ecb9a112731d0c118095093b00e68ab", "lon": -77.06953933333334, "is_reserved": 0, "fusion_lon": 0.0, "lat": 38.83630616666667, "rental_uris": {"android": "https://dc.lft.to/lastmile_qr_scan", "ios": "https://dc.lft.to/lastmile_qr_scan"}, "fusion_lat": 0.0}, {"type": "electric_scooter", "bike_id": "9bcc04f2728d9c8dfae1be20034d3cb8", "is_disabled": 0, "name": "9bcc04f2728d9c8dfae1be20034d3cb8", "lon": -77.04429, "is_reserved": 0, "fusion_lon": 0.0, "lat": 38.896074, "rental_uris": {"android": "https://dc.lft.to/lastmile_qr_scan", "ios": "https://dc.lft.to/lastmile_qr_scan"}, "fusion_lat": 0.0}, {"type": "electric_scooter", "bike_id": "1a870b1274999680793ff2d890bd2c13", "is_disabled": 0, "name": "1a870b1274999680793ff2d890bd2c13", "lon": -77.04156416666666, "is_reserved": 0, "fusion_lon": 0.0, "lat": 38.914172666666666, "rental_uris": {"android": "https://dc.lft.to/lastmile_qr_scan", "ios": "https://dc.lft.to/lastmile_qr_scan"}, "fusion_lat": 0.0}, {"type": "electric_scooter", "bike_id": "ff6b0f13da831acf402f754c6c70d559", "is_disabled": 0, "name": "ff6b0f13da831acf402f754c6c70d559", "lon": -77.02396083333333, "is_reserved": 0, "fusion_lon": 0.0, "lat": 38.90965416666667, "rental_uris": {"android": "https://dc.lft.to/lastmile_qr_scan", "ios": "https://dc.lft.to/lastmile_qr_scan"}, "fusion_lat": 0.0}, {"type": "electric_scooter", "bike_id": "871c0c3da4c7a340bc7e1922e0a6448d", "is_disabled": 0, "name": "871c0c3da4c7a340bc7e1922e0a6448d", "lon": -77.03627033333333, "is_reserved": 0, "fusion_lon": 0.0, "lat": 38.936744, "rental_uris": {"android": "https://dc.lft.to/lastmile_qr_scan", "ios": "https://dc.lft.to/lastmile_qr_scan"}, "fusion_lat": 0.0}, {"type": "electric_scooter", "bike_id": "db221707ecb9d0d26dfdc98e243d067b", "is_disabled": 0, "name": "db221707ecb9d0d26dfdc98e243d067b", "lon": -77.04141666666666, "is_reserved": 0, "fusion_lon": 0.0, "lat": 38.907267, "rental_uris": {"android": "https://dc.lft.to/lastmile_qr_scan", "ios": "https://dc.lft.to/lastmile_qr_scan"}, "fusion_lat": 0.0}, {"type": "electric_scooter", "bike_id": "818c13f20f9f8092594718ac3955b5de", "is_disabled": 0, "name": "818c13f20f9f8092594718ac3955b5de", "lon": -77.0354105, "is_reserved": 0, "fusion_lon": 0.0, "lat": 38.91697033333333, "rental_uris": {"android": "https://dc.lft.to/lastmile_qr_scan", "ios": "https://dc.lft.to/lastmile_qr_scan"}, "fusion_lat": 0.0}, {"type": "electric_scooter", "bike_id": "9fdab87251c09b8bc059a4ec4d987450", "is_disabled": 0, "name": "9fdab87251c09b8bc059a4ec4d987450", "lon": -77.03817, "is_reserved": 0, "fusion_lon": 0.0, "lat": 38.90685033333333, "rental_uris": {"android": "https://dc.lft.to/lastmile_qr_scan", "ios": "https://dc.lft.to/lastmile_qr_scan"}, "fusion_lat": 0.0}, {"type": "electric_scooter", "bike_id": "f001ba1a71ac7919e7fa170ebba81b71", "is_disabled": 0, "name": "f001ba1a71ac7919e7fa170ebba81b71", "lon": -77.03174466666667, "is_reserved": 0, "fusion_lon": 0.0, "lat": 38.90108216666667, "rental_uris": {"android": "https://dc.lft.to/lastmile_qr_scan", "ios": "https://dc.lft.to/lastmile_qr_scan"}, "fusion_lat": 0.0}, {"type": "electric_scooter", "bike_id": "3138f1cbb8754d7ad26fbaacfabb595e", "is_disabled": 0, "name": "3138f1cbb8754d7ad26fbaacfabb595e", "lon": -77.01839733333334, "is_reserved": 0, "fusion_lon": 0.0, "lat": 38.921386166666665, "rental_uris": {"android": "https://dc.lft.to/lastmile_qr_scan", "ios": "https://dc.lft.to/lastmile_qr_scan"}, "fusion_lat": 0.0}, {"type": "electric_scooter", "bike_id": "70cf3f37473337755a4a7fa39c8d946c", "is_disabled": 0, "name": "70cf3f37473337755a4a7fa39c8d946c", "lon": -77.003322, "is_reserved": 0, "fusion_lon": 0.0, "lat": 38.895004, "rental_uris": {"android": "https://dc.lft.to/lastmile_qr_scan", "ios": "https://dc.lft.to/lastmile_qr_scan"}, "fusion_lat": 0.0}, {"type": "electric_scooter", "bike_id": "6eaccbe0fe1ea9f1a3d23ec8ddc11963", "is_disabled": 0, "name": "6eaccbe0fe1ea9f1a3d23ec8ddc11963", "lon": -76.98615833333334, "is_reserved": 0, "fusion_lon": 0.0, "lat": 38.907245333333336, "rental_uris": {"android": "https://dc.lft.to/lastmile_qr_scan", "ios": "https://dc.lft.to/lastmile_qr_scan"}, "fusion_lat": 0.0}, {"type": "electric_scooter", "bike_id": "595ead1a127657162e4be5dce9c053c5", "is_disabled": 0, "name": "595ead1a127657162e4be5dce9c053c5", "lon": -77.03348916666667, "is_reserved": 0, "fusion_lon": 0.0, "lat": 38.93510366666667, "rental_uris": {"android": "https://dc.lft.to/lastmile_qr_scan", "ios": "https://dc.lft.to/lastmile_qr_scan"}, "fusion_lat": 0.0}, {"type": "electric_scooter", "bike_id": "a29bf5974ff5fe927ae943563abd2d2a", "is_disabled": 0, "name": "a29bf5974ff5fe927ae943563abd2d2a", "lon": -77.034789, "is_reserved": 0, "fusion_lon": 0.0, "lat": 38.92474883333333, "rental_uris": {"android": "https://dc.lft.to/lastmile_qr_scan", "ios": "https://dc.lft.to/lastmile_qr_scan"}, "fusion_lat": 0.0}, {"type": "electric_scooter", "bike_id": "31d8facdb1c24df0ee40c03c86d1abc5", "is_disabled": 0, "name": "31d8facdb1c24df0ee40c03c86d1abc5", "lon": -77.04427616666666, "is_reserved": 0, "fusion_lon": 0.0, "lat": 38.896061333333336, "rental_uris": {"android": "https://dc.lft.to/lastmile_qr_scan", "ios": "https://dc.lft.to/lastmile_qr_scan"}, "fusion_lat": 0.0}, {"type": "electric_scooter", "bike_id": "639a7859c515273c5dc4dd789f449633", "is_disabled": 0, "name": "639a7859c515273c5dc4dd789f449633", "lon": -77.03653316666667, "is_reserved": 0, "fusion_lon": 0.0, "lat": 38.93594866666667, "rental_uris": {"android": "https://dc.lft.to/lastmile_qr_scan", "ios": "https://dc.lft.to/lastmile_qr_scan"}, "fusion_lat": 0.0}, {"type": "electric_scooter", "bike_id": "7e268b599f2cef221df1209d3f1d4d26", "is_disabled": 0, "name": "7e268b599f2cef221df1209d3f1d4d26", "lon": -77.07331666666667, "is_reserved": 0, "fusion_lon": 0.0, "lat": 38.92605483333333, "rental_uris": {"android": "https://dc.lft.to/lastmile_qr_scan", "ios": "https://dc.lft.to/lastmile_qr_scan"}, "fusion_lat": 0.0}, {"type": "electric_scooter", "bike_id": "1cdf42a1cb3ef984b07c60d9275cc573", "is_disabled": 0, "name": "1cdf42a1cb3ef984b07c60d9275cc573", "lon": -77.00770033333333, "is_reserved": 0, "fusion_lon": 0.0, "lat": 38.92670533333333, "rental_uris": {"android": "https://dc.lft.to/lastmile_qr_scan", "ios": "https://dc.lft.to/lastmile_qr_scan"}, "fusion_lat": 0.0}, {"type": "electric_scooter", "bike_id": "0afae707d9aeb7ef4371716e4fd1b0e4", "is_disabled": 0, "name": "0afae707d9aeb7ef4371716e4fd1b0e4", "lon": -77.01912316666666, "is_reserved": 0, "fusion_lon": 0.0, "lat": 38.91722883333333, "rental_uris": {"android": "https://dc.lft.to/lastmile_qr_scan", "ios": "https://dc.lft.to/lastmile_qr_scan"}, "fusion_lat": 0.0}, {"type": "electric_scooter", "bike_id": "7eb3efae692572ac99f193f31049c7e3", "is_disabled": 0, "name": "7eb3efae692572ac99f193f31049c7e3", "lon": -77.03522516666666, "is_reserved": 0, "fusion_lon": 0.0, "lat": 38.9358815, "rental_uris": {"android": "https://dc.lft.to/lastmile_qr_scan", "ios": "https://dc.lft.to/lastmile_qr_scan"}, "fusion_lat": 0.0}, {"type": "electric_bike", "bike_id": "491e0a85e73c98e8918c046514bc727b", "is_disabled": 0, "name": "491e0a85e73c98e8918c046514bc727b", "lon": -76.95064933333333, "is_reserved": 0, "fusion_lon": 0.0, "lat": 39.0850635, "rental_uris": {"android": "https://dc.lft.to/lastmile_qr_scan", "ios": "https://dc.lft.to/lastmile_qr_scan"}, "fusion_lat": 0.0}, {"type": "electric_scooter", "bike_id": "b49afafe6f041fd6f5d55b5d69e070d1", "is_disabled": 0, "name": "b49afafe6f041fd6f5d55b5d69e070d1", "lon": -77.034932, "is_reserved": 0, "fusion_lon": 0.0, "lat": 38.9213585, "rental_uris": {"android": "https://dc.lft.to/lastmile_qr_scan", "ios": "https://dc.lft.to/lastmile_qr_scan"}, "fusion_lat": 0.0}, {"type": "electric_scooter", "bike_id": "daa47692432b96103a96236c8e04e3cb", "is_disabled": 0, "name": "daa47692432b96103a96236c8e04e3cb", "lon": -77.01562266666667, "is_reserved": 0, "fusion_lon": 0.0, "lat": 38.883260166666666, "rental_uris": {"android": "https://dc.lft.to/lastmile_qr_scan", "ios": "https://dc.lft.to/lastmile_qr_scan"}, "fusion_lat": 0.0}, {"type": "electric_scooter", "bike_id": "be2034dd1c7ff1162f76db579f721d37", "is_disabled": 0, "name": "be2034dd1c7ff1162f76db579f721d37", "lon": -77.013143, "is_reserved": 0, "fusion_lon": 0.0, "lat": 38.897378333333336, "rental_uris": {"android": "https://dc.lft.to/lastmile_qr_scan", "ios": "https://dc.lft.to/lastmile_qr_scan"}, "fusion_lat": 0.0}, {"type": "electric_scooter", "bike_id": "d39007c99dc5b12c92744cbb396c741e", "is_disabled": 0, "name": "d39007c99dc5b12c92744cbb396c741e", "lon": -77.0185765, "is_reserved": 0, "fusion_lon": 0.0, "lat": 38.9491895, "rental_uris": {"android": "https://dc.lft.to/lastmile_qr_scan", "ios": "https://dc.lft.to/lastmile_qr_scan"}, "fusion_lat": 0.0}, {"type": "electric_bike", "bike_id": "2ee6be93fd107515067c01ede728e1a9", "is_disabled": 0, "name": "2ee6be93fd107515067c01ede728e1a9", "lon": -77.0037835, "is_reserved": 0, "fusion_lon": 0.0, "lat": 38.8360135, "rental_uris": {"android": "https://dc.lft.to/lastmile_qr_scan", "ios": "https://dc.lft.to/lastmile_qr_scan"}, "fusion_lat": 0.0}, {"type": "electric_scooter", "bike_id": "0a4eb02952416530f8cb91a31d11ea63", "is_disabled": 0, "name": "0a4eb02952416530f8cb91a31d11ea63", "lon": -77.02076483333333, "is_reserved": 0, "fusion_lon": 0.0, "lat": 38.93016016666667, "rental_uris": {"android": "https://dc.lft.to/lastmile_qr_scan", "ios": "https://dc.lft.to/lastmile_qr_scan"}, "fusion_lat": 0.0}, {"type": "electric_scooter", "bike_id": "3e06e3376fa614d79da43724fcf2d520", "is_disabled": 0, "name": "3e06e3376fa614d79da43724fcf2d520", "lon": -77.037289, "is_reserved": 0, "fusion_lon": 0.0, "lat": 38.920269166666664, "rental_uris": {"android": "https://dc.lft.to/lastmile_qr_scan", "ios": "https://dc.lft.to/lastmile_qr_scan"}, "fusion_lat": 0.0}, {"type": "electric_bike", "bike_id": "9110099cc05ed28e2011a9fda3a0187b", "is_disabled": 0, "name": "9110099cc05ed28e2011a9fda3a0187b", "lon": -76.96328483333333, "is_reserved": 0, "fusion_lon": 0.0, "lat": 38.9389135, "rental_uris": {"android": "https://dc.lft.to/lastmile_qr_scan", "ios": "https://dc.lft.to/lastmile_qr_scan"}, "fusion_lat": 0.0}, {"type": "electric_scooter", "bike_id": "ee14e51f5577e05fd80739f253bf1ff7", "is_disabled": 0, "name": "ee14e51f5577e05fd80739f253bf1ff7", "lon": -77.02095066666666, "is_reserved": 0, "fusion_lon": 0.0, "lat": 38.921494, "rental_uris": {"android": "https://dc.lft.to/lastmile_qr_scan", "ios": "https://dc.lft.to/lastmile_qr_scan"}, "fusion_lat": 0.0}, {"type": "electric_scooter", "bike_id": "17a8cafed5790e6b8315bf1e59aeddc3", "is_disabled": 0, "name": "17a8cafed5790e6b8315bf1e59aeddc3", "lon": -77.01902783333334, "is_reserved": 0, "fusion_lon": 0.0, "lat": 38.9186575, "rental_uris": {"android": "https://dc.lft.to/lastmile_qr_scan", "ios": "https://dc.lft.to/lastmile_qr_scan"}, "fusion_lat": 0.0}, {"type": "electric_bike", "bike_id": "700e844e449ea8dab400498785baad43", "is_disabled": 0, "name": "700e844e449ea8dab400498785baad43", "lon": -77.05695966666667, "is_reserved": 0, "fusion_lon": 0.0, "lat": 38.905506833333334, "rental_uris": {"android": "https://dc.lft.to/lastmile_qr_scan", "ios": "https://dc.lft.to/lastmile_qr_scan"}, "fusion_lat": 0.0}, {"type": "electric_scooter", "bike_id": "102948f8d1da22035a41678aaee565c4", "is_disabled": 0, "name": "102948f8d1da22035a41678aaee565c4", "lon": -76.98699316666666, "is_reserved": 0, "fusion_lon": 0.0, "lat": 38.900142833333334, "rental_uris": {"android": "https://dc.lft.to/lastmile_qr_scan", "ios": "https://dc.lft.to/lastmile_qr_scan"}, "fusion_lat": 0.0}, {"type": "electric_scooter", "bike_id": "8da69f0b771f2b3bea8fd02e5d5b759f", "is_disabled": 0, "name": "8da69f0b771f2b3bea8fd02e5d5b759f", "lon": -77.00047216666667, "is_reserved": 0, "fusion_lon": 0.0, "lat": 38.881233333333334, "rental_uris": {"android": "https://dc.lft.to/lastmile_qr_scan", "ios": "https://dc.lft.to/lastmile_qr_scan"}, "fusion_lat": 0.0}, {"type": "electric_scooter", "bike_id": "d13a5c8914185db283e285f023ad2da8", "is_disabled": 0, "name": "d13a5c8914185db283e285f023ad2da8", "lon": -77.01388433333334, "is_reserved": 0, "fusion_lon": 0.0, "lat": 38.87599383333333, "rental_uris": {"android": "https://dc.lft.to/lastmile_qr_scan", "ios": "https://dc.lft.to/lastmile_qr_scan"}, "fusion_lat": 0.0}, {"type": "electric_scooter", "bike_id": "9c7ab1661b2bf98e87051bc21151f4bc", "is_disabled": 0, "name": "9c7ab1661b2bf98e87051bc21151f4bc", "lon": -77.0346655, "is_reserved": 0, "fusion_lon": 0.0, "lat": 38.921605166666666, "rental_uris": {"android": "https://dc.lft.to/lastmile_qr_scan", "ios": "https://dc.lft.to/lastmile_qr_scan"}, "fusion_lat": 0.0}, {"type": "electric_scooter", "bike_id": "36b02fc659ea1f229670695c24c51331", "is_disabled": 0, "name": "36b02fc659ea1f229670695c24c51331", "lon": -77.031678, "is_reserved": 0, "fusion_lon": 0.0, "lat": 38.916380833333335, "rental_uris": {"android": "https://dc.lft.to/lastmile_qr_scan", "ios": "https://dc.lft.to/lastmile_qr_scan"}, "fusion_lat": 0.0}, {"type": "electric_bike", "bike_id": "438e8c23cc4a45da05a7a2978a0ce2f1", "is_disabled": 0, "name": "438e8c23cc4a45da05a7a2978a0ce2f1", "lon": -77.00283133333333, "is_reserved": 0, "fusion_lon": 0.0, "lat": 38.8383145, "rental_uris": {"android": "https://dc.lft.to/lastmile_qr_scan", "ios": "https://dc.lft.to/lastmile_qr_scan"}, "fusion_lat": 0.0}, {"type": "electric_scooter", "bike_id": "5dcc53be1600394d93d5743bd2102288", "is_disabled": 0, "name": "5dcc53be1600394d93d5743bd2102288", "lon": -77.028203, "is_reserved": 0, "fusion_lon": 0.0, "lat": 38.8992345, "rental_uris": {"android": "https://dc.lft.to/lastmile_qr_scan", "ios": "https://dc.lft.to/lastmile_qr_scan"}, "fusion_lat": 0.0}, {"type": "electric_scooter", "bike_id": "f39385ae3907f9721ec75c9d1858e39f", "is_disabled": 0, "name": "f39385ae3907f9721ec75c9d1858e39f", "lon": -77.02177916666666, "is_reserved": 0, "fusion_lon": 0.0, "lat": 38.919751833333336, "rental_uris": {"android": "https://dc.lft.to/lastmile_qr_scan", "ios": "https://dc.lft.to/lastmile_qr_scan"}, "fusion_lat": 0.0}, {"type": "electric_bike", "bike_id": "6ab57b490f80b6d7da55a3934cbf1aae", "is_disabled": 0, "name": "6ab57b490f80b6d7da55a3934cbf1aae", "lon": -77.09690933333333, "is_reserved": 0, "fusion_lon": 0.0, "lat": 38.88687733333333, "rental_uris": {"android": "https://dc.lft.to/lastmile_qr_scan", "ios": "https://dc.lft.to/lastmile_qr_scan"}, "fusion_lat": 0.0}, {"type": "electric_scooter", "bike_id": "d3f8d5f8afd624beb24db0c69cbf4888", "is_disabled": 0, "name": "d3f8d5f8afd624beb24db0c69cbf4888", "lon": -77.04698566666667, "is_reserved": 0, "fusion_lon": 0.0, "lat": 38.9022235, "rental_uris": {"android": "https://dc.lft.to/lastmile_qr_scan", "ios": "https://dc.lft.to/lastmile_qr_scan"}, "fusion_lat": 0.0}, {"type": "electric_scooter", "bike_id": "382051d06726cf02c2c35b6251316a08", "is_disabled": 0, "name": "382051d06726cf02c2c35b6251316a08", "lon": -77.0363515, "is_reserved": 0, "fusion_lon": 0.0, "lat": 38.90373833333334, "rental_uris": {"android": "https://dc.lft.to/lastmile_qr_scan", "ios": "https://dc.lft.to/lastmile_qr_scan"}, "fusion_lat": 0.0}, {"type": "electric_scooter", "bike_id": "dd49c7b9cd402aaed1dd0fc18a9c907c", "is_disabled": 0, "name": "dd49c7b9cd402aaed1dd0fc18a9c907c", "lon": -77.0256875, "is_reserved": 0, "fusion_lon": 0.0, "lat": 38.94189166666666, "rental_uris": {"android": "https://dc.lft.to/lastmile_qr_scan", "ios": "https://dc.lft.to/lastmile_qr_scan"}, "fusion_lat": 0.0}, {"type": "electric_scooter", "bike_id": "869fca5dd8d61d9b6daacb19469aab6e", "is_disabled": 0, "name": "869fca5dd8d61d9b6daacb19469aab6e", "lon": -77.0532265, "is_reserved": 0, "fusion_lon": 0.0, "lat": 38.915506, "rental_uris": {"android": "https://dc.lft.to/lastmile_qr_scan", "ios": "https://dc.lft.to/lastmile_qr_scan"}, "fusion_lat": 0.0}, {"type": "electric_scooter", "bike_id": "aa0543dfd53d4fa02f3d4cd6b0aacbec", "is_disabled": 0, "name": "aa0543dfd53d4fa02f3d4cd6b0aacbec", "lon": -77.03980933333334, "is_reserved": 0, "fusion_lon": 0.0, "lat": 38.89862883333333, "rental_uris": {"android": "https://dc.lft.to/lastmile_qr_scan", "ios": "https://dc.lft.to/lastmile_qr_scan"}, "fusion_lat": 0.0}, {"type": "electric_scooter", "bike_id": "4b0c6244bd4d4da03311d19d02c51537", "is_disabled": 0, "name": "4b0c6244bd4d4da03311d19d02c51537", "lon": -77.03627966666667, "is_reserved": 0, "fusion_lon": 0.0, "lat": 38.927027, "rental_uris": {"android": "https://dc.lft.to/lastmile_qr_scan", "ios": "https://dc.lft.to/lastmile_qr_scan"}, "fusion_lat": 0.0}, {"type": "electric_scooter", "bike_id": "638f6b529fb1e774eb018386cacb2259", "is_disabled": 0, "name": "638f6b529fb1e774eb018386cacb2259", "lon": -77.03271083333334, "is_reserved": 0, "fusion_lon": 0.0, "lat": 38.93309683333333, "rental_uris": {"android": "https://dc.lft.to/lastmile_qr_scan", "ios": "https://dc.lft.to/lastmile_qr_scan"}, "fusion_lat": 0.0}, {"type": "electric_scooter", "bike_id": "78d2c720c260881fbeb2756dbc2c766d", "is_disabled": 0, "name": "78d2c720c260881fbeb2756dbc2c766d", "lon": -77.0275665, "is_reserved": 0, "fusion_lon": 0.0, "lat": 38.94129316666667, "rental_uris": {"android": "https://dc.lft.to/lastmile_qr_scan", "ios": "https://dc.lft.to/lastmile_qr_scan"}, "fusion_lat": 0.0}, {"type": "electric_scooter", "bike_id": "4cc993742c649a0307e876000d700289", "is_disabled": 0, "name": "4cc993742c649a0307e876000d700289", "lon": -77.01410983333334, "is_reserved": 0, "fusion_lon": 0.0, "lat": 38.92852466666667, "rental_uris": {"android": "https://dc.lft.to/lastmile_qr_scan", "ios": "https://dc.lft.to/lastmile_qr_scan"}, "fusion_lat": 0.0}, {"type": "electric_bike", "bike_id": "f674b3ce67dacf64624824b47b51b4be", "is_disabled": 0, "name": "f674b3ce67dacf64624824b47b51b4be", "lon": -76.9884445, "is_reserved": 0, "fusion_lon": 0.0, "lat": 38.84276833333333, "rental_uris": {"android": "https://dc.lft.to/lastmile_qr_scan", "ios": "https://dc.lft.to/lastmile_qr_scan"}, "fusion_lat": 0.0}, {"type": "electric_bike", "bike_id": "840b33feeeb718ace720a493e86fa2af", "is_disabled": 0, "name": "840b33feeeb718ace720a493e86fa2af", "lon": -77.02029666666667, "is_reserved": 0, "fusion_lon": 0.0, "lat": 38.96553316666667, "rental_uris": {"android": "https://dc.lft.to/lastmile_qr_scan", "ios": "https://dc.lft.to/lastmile_qr_scan"}, "fusion_lat": 0.0}, {"type": "electric_scooter", "bike_id": "622c172172aafac859a1b41e5616d0b8", "is_disabled": 0, "name": "622c172172aafac859a1b41e5616d0b8", "lon": -77.012297, "is_reserved": 0, "fusion_lon": 0.0, "lat": 38.89324033333333, "rental_uris": {"android": "https://dc.lft.to/lastmile_qr_scan", "ios": "https://dc.lft.to/lastmile_qr_scan"}, "fusion_lat": 0.0}, {"type": "electric_scooter", "bike_id": "a7032d7d84cd1dd973d09550cace4493", "is_disabled": 0, "name": "a7032d7d84cd1dd973d09550cace4493", "lon": -77.02189183333333, "is_reserved": 0, "fusion_lon": 0.0, "lat": 38.909456166666665, "rental_uris": {"android": "https://dc.lft.to/lastmile_qr_scan", "ios": "https://dc.lft.to/lastmile_qr_scan"}, "fusion_lat": 0.0}, {"type": "electric_scooter", "bike_id": "559c21ab09434fdc01c4df523afae186", "is_disabled": 0, "name": "559c21ab09434fdc01c4df523afae186", "lon": -77.04014116666667, "is_reserved": 0, "fusion_lon": 0.0, "lat": 38.924501166666666, "rental_uris": {"android": "https://dc.lft.to/lastmile_qr_scan", "ios": "https://dc.lft.to/lastmile_qr_scan"}, "fusion_lat": 0.0}, {"type": "electric_scooter", "bike_id": "b6fa7a3867f89d2b6804ec963d9487c1", "is_disabled": 0, "name": "b6fa7a3867f89d2b6804ec963d9487c1", "lon": -77.03927933333334, "is_reserved": 0, "fusion_lon": 0.0, "lat": 38.913933166666666, "rental_uris": {"android": "https://dc.lft.to/lastmile_qr_scan", "ios": "https://dc.lft.to/lastmile_qr_scan"}, "fusion_lat": 0.0}, {"type": "electric_scooter", "bike_id": "82311a5168f3817192462d9a54a03ec3", "is_disabled": 0, "name": "82311a5168f3817192462d9a54a03ec3", "lon": -77.03625333333333, "is_reserved": 0, "fusion_lon": 0.0, "lat": 38.93673233333333, "rental_uris": {"android": "https://dc.lft.to/lastmile_qr_scan", "ios": "https://dc.lft.to/lastmile_qr_scan"}, "fusion_lat": 0.0},