{"data": {"bikes": [{"is_reserved": 0, "type": "electric_scooter", "bike_id": "2112f04b332cd96e502de4e4db2f2992", "lat": 38.92372666666667, "lon": -77.01915983333333, "rental_uris": {"android": "https://dc.lft.to/lastmile_qr_scan", "ios": "https://dc.lft.to/lastmile_qr_scan"}, "is_disabled": 0, "fusion_lat": 0.0, "name": "2112f04b332cd96e502de4e4db2f2992", "fusion_lon": 0.0}, {"is_reserved": 0, "type": "electric_scooter", "bike_id": "80ba12ac79629b5e4be456e74aa97f11", "lat": 38.91567966666667, "lon": -77.03114416666666, "rental_uris": {"android": "https://dc.lft.to/lastmile_qr_scan", "ios": "https://dc.lft.to/lastmile_qr_scan"}, "is_disabled": 0, "fusion_lat": 0.0, "name": "80ba12ac79629b5e4be456e74aa97f11", "fusion_lon": 0.0}, {"is_reserved": 0, "type": "electric_scooter", "bike_id": "f379ce23b663dd0767ea53495077d94b", "lat": 38.972337, "lon": -77.02715516666666, "rental_uris": {"android": "https://dc.lft.to/lastmile_qr_scan", "ios": "https://dc.lft.to/lastmile_qr_scan"}, "is_disabled": 0, "fusion_lat": 0.0, "name": "f379ce23b663dd0767ea53495077d94b", "fusion_lon": 0.0}, {"is_reserved": 0, "type": "electric_bike", "bike_id": "a72b95e6d5c58f31f9b9b17890c15bdc", "lat": 38.80253866666666, "lon": -77.1143705, "rental_uris": {"android": "https://dc.lft.to/lastmile_qr_scan", "ios": "https://dc.lft.to/lastmile_qr_scan"}, "is_disabled": 0, "fusion_lat": 0.0, "name": "a72b95e6d5c58f31f9b9b17890c15bdc", "fusion_lon": 0.0}, {"is_reserved": 0, "type": "electric_scooter", "bike_id": "d439832d5658f747571c8bbce2cf0122", "lat": 38.918744833333335, "lon": -77.04716383333333, "rental_uris": {"android": "https://dc.lft.to/lastmile_qr_scan", "ios": "https://dc.lft.to/lastmile_qr_scan"}, "is_disabled": 0, "fusion_lat": 0.0, "name": "d439832d5658f747571c8bbce2cf0122", "fusion_lon": 0.0}, {"is_reserved": 0, "type": "electric_scooter", "bike_id": "8159e12b94a98d81bf79e9918b0b720d", "lat": 38.913491, "lon": -77.03202366666666, "rental_uris": {"android": "https://dc.lft.to/lastmile_qr_scan", "ios": "https://dc.lft.to/lastmile_qr_scan"}, "is_disabled": 0, "fusion_lat": 0.0, "name": "8159e12b94a98d81bf79e9918b0b720d", "fusion_lon": 0.0}, {"is_reserved": 0, "type": "electric_scooter", "bike_id": "42768f63d0edd9aae5fe91ac9177eefc", "lat": 38.92506316666667, "lon": -77.038695, "rental_uris": {"android": "https://dc.lft.to/lastmile_qr_scan", "ios": "https://dc.lft.to/lastmile_qr_scan"}, "is_disabled": 0, "fusion_lat": 0.0, "name": "42768f63d0edd9aae5fe91ac9177eefc", "fusion_lon": 0.0}, {"is_reserved": 0, "type": "electric_scooter", "bike_id": "bac9fede50fd19f0303ad08b0fdb7756", "lat": 38.89615416666667, "lon": -77.0440095, "rental_uris": {"android": "https://dc.lft.to/lastmile_qr_scan", "ios": "https://dc.lft.to/lastmile_qr_scan"}, "is_disabled": 0, "fusion_lat": 0.0, "name": "bac9fede50fd19f0303ad08b0fdb7756", "fusion_lon": 0.0}, {"is_reserved": 0, "type": "electric_scooter", "bike_id": "9dd4916f6ff7dd3140efaeae947e1ae2", "lat": 38.865272166666664, "lon": -76.96908183333333, "rental_uris": {"android": "https://dc.lft.to/lastmile_qr_scan", "ios": "https://dc.lft.to/lastmile_qr_scan"}, "is_disabled": 0, "fusion_lat": 0.0, "name": "9dd4916f6ff7dd3140efaeae947e1ae2", "fusion_lon": 0.0}, {"is_reserved": 0, "type": "electric_scooter", "bike_id": "ec0c2066742485f4e54d3ff1eed46f0f", "lat": 38.932232, "lon": -77.02661016666667, "rental_uris": {"android": "https://dc.lft.to/lastmile_qr_scan", "ios": "https://dc.lft.to/lastmile_qr_scan"}, "is_disabled": 0, "fusion_lat": 0.0, "name": "ec0c2066742485f4e54d3ff1eed46f0f", "fusion_lon": 0.0}, {"is_reserved": 0, "type": "electric_scooter", "bike_id": "5ab4f404e04b1b684943e8d58470715c", "lat": 38.917723, "lon": -77.0406055, "rental_uris": {"android": "https://dc.lft.to/lastmile_qr_scan", "ios": "https://dc.lft.to/lastmile_qr_scan"}, "is_disabled": 0, "fusion_lat": 0.0, "name": "5ab4f404e04b1b684943e8d58470715c", "fusion_lon": 0.0}, {"is_reserved": 0, "type": "electric_scooter", "bike_id": "93f5daa50b66a19b96c09e9d2c0a3aef", "lat": 38.8963335, "lon": -77.01151833333333, "rental_uris": {"android": "https://dc.lft.to/lastmile_qr_scan", "ios": "https://dc.lft.to/lastmile_qr_scan"}, "is_disabled": 0, "fusion_lat": 0.0, "name": "93f5daa50b66a19b96c09e9d2c0a3aef", "fusion_lon": 0.0}, {"is_reserved": 0, "type": "electric_scooter", "bike_id": "2ff3800c8536e1f4ec82dfd54258af4a", "lat": 38.95091866666667, "lon": -77.02532533333333, "rental_uris": {"android": "https://dc.lft.to/lastmile_qr_scan", "ios": "https://dc.lft.to/lastmile_qr_scan"}, "is_disabled": 0, "fusion_lat": 0.0, "name": "2ff3800c8536e1f4ec82dfd54258af4a", "fusion_lon": 0.0}, {"is_reserved": 0, "type": "electric_scooter", "bike_id": "9e4cd6e7809109ce5e945e5630b92694", "lat": 38.88512083333333, "lon": -77.01116333333333, "rental_uris": {"android": "https://dc.lft.to/lastmile_qr_scan", "ios": "https://dc.lft.to/lastmile_qr_scan"}, "is_disabled": 0, "fusion_lat": 0.0, "name": "9e4cd6e7809109ce5e945e5630b92694", "fusion_lon": 0.0}, {"is_reserved": 0, "type": "electric_scooter", "bike_id": "96f867ef5ea37a7ce54443933b80cd44", "lat": 38.92986366666667, "lon": -77.03473866666667, "rental_uris": {"android": "https://dc.lft.to/lastmile_qr_scan", "ios": "https://dc.lft.to/lastmile_qr_scan"}, "is_disabled": 0, "fusion_lat": 0.0, "name": "96f867ef5ea37a7ce54443933b80cd44", "fusion_lon": 0.0}, {"is_reserved": 0, "type": "electric_scooter", "bike_id": "e191adc6170e49b8a2cad8bbc10b077e", "lat": 38.911838, "lon": -77.02200716666667, "rental_uris": {"android": "https://dc.lft.to/lastmile_qr_scan", "ios": "https://dc.lft.to/lastmile_qr_scan"}, "is_disabled": 0, "fusion_lat": 0.0, "name": "e191adc6170e49b8a2cad8bbc10b077e", "fusion_lon": 0.0}, {"is_reserved": 0, "type": "electric_scooter", "bike_id": "7037b299f28b3ca41c31df34427512dd", "lat": 38.89788033333333, "lon": -77.02706183333333, "rental_uris": {"android": "https://dc.lft.to/lastmile_qr_scan", "ios": "https://dc.lft.to/lastmile_qr_scan"}, "is_disabled": 0, "fusion_lat": 0.0, "name": "7037b299f28b3ca41c31df34427512dd", "fusion_lon": 0.0}, {"is_reserved": 0, "type": "electric_scooter", "bike_id": "502d5753c55d4ad433f8be31e0a96d04", "lat": 38.92051133333333, "lon": -77.02578266666667, "rental_uris": {"android": "https://dc.lft.to/lastmile_qr_scan", "ios": "https://dc.lft.to/lastmile_qr_scan"}, "is_disabled": 0, "fusion_lat": 0.0, "name": "502d5753c55d4ad433f8be31e0a96d04", "fusion_lon": 0.0}, {"is_reserved": 0, "type": "electric_scooter", "bike_id": "b7100650b23b6667d99ab15a4c6bf6d6", "lat": 38.915683, "lon": -77.029699, "rental_uris": {"android": "https://dc.lft.to/lastmile_qr_scan", "ios": "https://dc.lft.to/lastmile_qr_scan"}, "is_disabled": 0, "fusion_lat": 0.0, "name": "b7100650b23b6667d99ab15a4c6bf6d6", "fusion_lon": 0.0}, {"is_reserved": 0, "type": "electric_scooter", "bike_id": "fd418f3d2056944e71285938fda56aff", "lat": 38.9288995, "lon": -77.02613533333333, "rental_uris": {"android": "https://dc.lft.to/lastmile_qr_scan", "ios": "https://dc.lft.to/lastmile_qr_scan"}, "is_disabled": 0, "fusion_lat": 0.0, "name": "fd418f3d2056944e71285938fda56aff", "fusion_lon": 0.0}, {"is_reserved": 0, "type": "electric_scooter", "bike_id": "c2d81e260cad697be506415ff59233ca", "lat": 38.897110833333336, "lon": -77.05357133333334, "rental_uris": {"android": "https://dc.lft.to/lastmile_qr_scan", "ios": "https://dc.lft.to/lastmile_qr_scan"}, "is_disabled": 0, "fusion_lat": 0.0, "name": "c2d81e260cad697be506415ff59233ca", "fusion_lon": 0.0}, {"is_reserved": 0, "type": "electric_bike", "bike_id": "63263ed97eeb1fd7a5ef5f59d420f55f", "lat": 38.8883435, "lon": -76.95748516666667, "rental_uris": {"android": "https://dc.lft.to/lastmile_qr_scan", "ios": "https://dc.lft.to/lastmile_qr_scan"}, "is_disabled": 0, "fusion_lat": 0.0, "name": "63263ed97eeb1fd7a5ef5f59d420f55f", "fusion_lon": 0.0}, {"is_reserved": 0, "type": "electric_scooter", "bike_id": "dc339d7883a1a23b2dbc0b6b005a49a1", "lat": 38.89993366666667, "lon": -77.027296, "rental_uris": {"android": "https://dc.lft.to/lastmile_qr_scan", "ios": "https://dc.lft.to/lastmile_qr_scan"}, "is_disabled": 0, "fusion_lat": 0.0, "name": "dc339d7883a1a23b2dbc0b6b005a49a1", "fusion_lon": 0.0}, {"is_reserved": 0, "type": "electric_scooter", "bike_id": "558fd9f3733c8b558205152e5c8a44d8", "lat": 38.94651366666667, "lon": -77.065608, "rental_uris": {"android": "https://dc.lft.to/lastmile_qr_scan", "ios": "https://dc.lft.to/lastmile_qr_scan"}, "is_disabled": 0, "fusion_lat": 0.0, "name": "558fd9f3733c8b558205152e5c8a44d8", "fusion_lon": 0.0}, {"is_reserved": 0, "type": "electric_scooter", "bike_id": "547404b19d29a877151148d4e717580b", "lat": 38.901793833333336, "lon": -76.92893616666667, "rental_uris": {"android": "https://dc.lft.to/lastmile_qr_scan", "ios": "https://dc.lft.to/lastmile_qr_scan"}, "is_disabled": 0, "fusion_lat": 0.0, "name": "547404b19d29a877151148d4e717580b", "fusion_lon": 0.0}, {"is_reserved": 0, "type": "electric_scooter", "bike_id": "42e0777287259c276ff10e3127475a0f", "lat": 38.916677166666666, "lon": -77.02716633333333, "rental_uris": {"android": "https://dc.lft.to/lastmile_qr_scan", "ios": "https://dc.lft.to/lastmile_qr_scan"}, "is_disabled": 0, "fusion_lat": 0.0, "name": "42e0777287259c276ff10e3127475a0f", "fusion_lon": 0.0}, {"is_reserved": 0, "type": "electric_scooter", "bike_id": "364766aaed4bf232017e9b24a4a22577", "lat": 38.92146533333333, "lon": -77.036575, "rental_uris": {"android": "https://dc.lft.to/lastmile_qr_scan", "ios": "https://dc.lft.to/lastmile_qr_scan"}, "is_disabled": 0, "fusion_lat": 0.0, "name": "364766aaed4bf232017e9b24a4a22577", "fusion_lon": 0.0}, {"is_reserved": 0, "type": "electric_scooter", "bike_id": "58672e9cafeee6f5be0c516086de54d7", "lat": 38.90544883333333, "lon": -77.0628935, "rental_uris": {"android": "https://dc.lft.to/lastmile_qr_scan", "ios": "https://dc.lft.to/lastmile_qr_scan"}, "is_disabled": 0, "fusion_lat": 0.0, "name": "58672e9cafeee6f5be0c516086de54d7", "fusion_lon": 0.0}, {"is_reserved": 0, "type": "electric_bike", "bike_id": "47bf1ce2d3cee7e4918c216ca6222f6c", "lat": 38.807307333333334, "lon": -76.99257366666667, "rental_uris": {"android": "https://dc.lft.to/lastmile_qr_scan", "ios": "https://dc.lft.to/lastmile_qr_scan"}, "is_disabled": 0, "fusion_lat": 0.0, "name": "47bf1ce2d3cee7e4918c216ca6222f6c", "fusion_lon": 0.0}, {"is_reserved": 0, "type": "electric_scooter", "bike_id": "77453cc2a9ae467e53f202b7aed50000", "lat": 38.92746116666667, "lon": -77.021442, "rental_uris": {"android": "https://dc.lft.to/lastmile_qr_scan", "ios": "https://dc.lft.to/lastmile_qr_scan"}, "is_disabled": 0, "fusion_lat": 0.0, "name": "77453cc2a9ae467e53f202b7aed50000", "fusion_lon": 0.0}, {"is_reserved": 0, "type": "electric_scooter", "bike_id": "934545d71a8193419b27678a518c7d12", "lat": 38.9224995, "lon": -77.02879633333333, "rental_uris": {"android": "https://dc.lft.to/lastmile_qr_scan", "ios": "https://dc.lft.to/lastmile_qr_scan"}, "is_disabled": 0, "fusion_lat": 0.0, "name": "934545d71a8193419b27678a518c7d12", "fusion_lon": 0.0}, {"is_reserved": 0, "type": "electric_scooter", "bike_id": "be7feba0603b36a6fd66aaebac908027", "lat": 38.895372333333334, "lon": -77.03013133333333, "rental_uris": {"android": "https://dc.lft.to/lastmile_qr_scan", "ios": "https://dc.lft.to/lastmile_qr_scan"}, "is_disabled": 0, "fusion_lat": 0.0, "name": "be7feba0603b36a6fd66aaebac908027", "fusion_lon": 0.0}, {"is_reserved": 0, "type": "electric_scooter", "bike_id": "836b51fd5e1bea0f816a9735214daa69", "lat": 38.8977495, "lon": -77.03198683333333, "rental_uris": {"android": "https://dc.lft.to/lastmile_qr_scan", "ios": "https://dc.lft.to/lastmile_qr_scan"}, "is_disabled": 0, "fusion_lat": 0.0, "name": "836b51fd5e1bea0f816a9735214daa69", "fusion_lon": 0.0}, {"is_reserved": 0, "type": "electric_scooter", "bike_id": "a3e27334e7904f6341b818c3114823c1", "lat": 38.914767833333336, "lon": -77.031894, "rental_uris": {"android": "https://dc.lft.to/lastmile_qr_scan", "ios": "https://dc.lft.to/lastmile_qr_scan"}, "is_disabled": 0, "fusion_lat": 0.0, "name": "a3e27334e7904f6341b818c3114823c1", "fusion_lon": 0.0}, {"is_reserved": 0, "type": "electric_scooter", "bike_id": "eaf1c6f5741c1235b4b96ed056a4f983", "lat": 38.89666783333333, "lon": -77.011935, "rental_uris": {"android": "https://dc.lft.to/lastmile_qr_scan", "ios": "https://dc.lft.to/lastmile_qr_scan"}, "is_disabled": 0, "fusion_lat": 0.0, "name": "eaf1c6f5741c1235b4b96ed056a4f983", "fusion_lon": 0.0}, {"is_reserved": 0, "type": "electric_scooter", "bike_id": "5dca5f678d0c71395cbbe9d81e095a0e", "lat": 38.914171333333336, "lon": -77.02244966666666, "rental_uris": {"android": "https://dc.lft.to/lastmile_qr_scan", "ios": "https://dc.lft.to/lastmile_qr_scan"}, "is_disabled": 0, "fusion_lat": 0.0, "name": "5dca5f678d0c71395cbbe9d81e095a0e", "fusion_lon": 0.0}, {"is_reserved": 0, "type": "electric_scooter", "bike_id": "8241dcaa8addca0ada6c5bba2fa79995", "lat": 38.9359075, "lon": -77.03369433333333, "rental_uris": {"android": "https://dc.lft.to/lastmile_qr_scan", "ios": "https://dc.lft.to/lastmile_qr_scan"}, "is_disabled": 0, "fusion_lat": 0.0, "name": "8241dcaa8addca0ada6c5bba2fa79995", "fusion_lon": 0.0}, {"is_reserved": 0, "type": "electric_scooter", "bike_id": "363043e17e51f9c607a26b4150ca7344", "lat": 38.898858, "lon": -76.980047, "rental_uris": {"android": "https://dc.lft.to/lastmile_qr_scan", "ios": "https://dc.lft.to/lastmile_qr_scan"}, "is_disabled": 0, "fusion_lat": 0.0, "name": "363043e17e51f9c607a26b4150ca7344", "fusion_lon": 0.0}, {"is_reserved": 0, "type": "electric_scooter", "bike_id": "c300d4d013459a3fffef0e5cdf956591", "lat": 38.90681816666667, "lon": -77.03477966666667, "rental_uris": {"android": "https://dc.lft.to/lastmile_qr_scan", "ios": "https://dc.lft.to/lastmile_qr_scan"}, "is_disabled": 0, "fusion_lat": 0.0, "name": "c300d4d013459a3fffef0e5cdf956591", "fusion_lon": 0.0}, {"is_reserved": 0, "type": "electric_bike", "bike_id": "fd507dab7c445e7d6d3fd5761d7b1c5f", "lat": 38.97310566666667, "lon": -76.99492183333334, "rental_uris": {"android": "https://dc.lft.to/lastmile_qr_scan", "ios": "https://dc.lft.to/lastmile_qr_scan"}, "is_disabled": 0, "fusion_lat": 0.0, "name": "fd507dab7c445e7d6d3fd5761d7b1c5f", "fusion_lon": 0.0}, {"is_reserved": 0, "type": "electric_scooter", "bike_id": "b72f18d52c73ce5f114236676bfe1502", "lat": 38.920950500000004, "lon": -77.02392833333333, "rental_uris": {"android": "https://dc.lft.to/lastmile_qr_scan", "ios": "https://dc.lft.to/lastmile_qr_scan"}, "is_disabled": 0, "fusion_lat": 0.0, "name": "b72f18d52c73ce5f114236676bfe1502", "fusion_lon": 0.0}, {"is_reserved": 0, "type": "electric_scooter", "bike_id": "7e5b3f52105ff6210f8a76bdc2242e07", "lat": 38.89718416666667, "lon": -77.0080045, "rental_uris": {"android": "https://dc.lft.to/lastmile_qr_scan", "ios": "https://dc.lft.to/lastmile_qr_scan"}, "is_disabled": 0, "fusion_lat": 0.0, "name": "7e5b3f52105ff6210f8a76bdc2242e07", "fusion_lon": 0.0}, {"is_reserved": 0, "type": "electric_scooter", "bike_id": "b7a5685851e629941a407e0a6b502cca", "lat": 38.89257116666667, "lon": -76.94137366666666, "rental_uris": {"android": "https://dc.lft.to/lastmile_qr_scan", "ios": "https://dc.lft.to/lastmile_qr_scan"}, "is_disabled": 0, "fusion_lat": 0.0, "name": "b7a5685851e629941a407e0a6b502cca", "fusion_lon": 0.0}, {"is_reserved": 0, "type": "electric_scooter", "bike_id": "0de286a2aa3bc69949685aff32b0658f", "lat": 38.915582, "lon": -77.02118, "rental_uris": {"android": "https://dc.lft.to/lastmile_qr_scan", "ios": "https://dc.lft.to/lastmile_qr_scan"}, "is_disabled": 0, "fusion_lat": 0.0, "name": "0de286a2aa3bc69949685aff32b0658f", "fusion_lon": 0.0}, {"is_reserved": 0, "type": "electric_scooter", "bike_id": "fa4a4349b1260d5adcd9aaefd602553c", "lat": 38.931885666666666, "lon": -77.0235345, "rental_uris": {"android": "https://dc.lft.to/lastmile_qr_scan", "ios": "https://dc.lft.to/lastmile_qr_scan"}, "is_disabled": 0, "fusion_lat": 0.0, "name": "fa4a4349b1260d5adcd9aaefd602553c", "fusion_lon": 0.0}, {"is_reserved": 0, "type": "electric_scooter", "bike_id": "4fb0e008e7d8575dcc72db352ab25bc6", "lat": 38.886358666666666, "lon": -77.01286833333333, "rental_uris": {"android": "https://dc.lft.to/lastmile_qr_scan", "ios": "https://dc.lft.to/lastmile_qr_scan"}, "is_disabled": 0, "fusion_lat": 0.0, "name": "4fb0e008e7d8575dcc72db352ab25bc6", "fusion_lon": 0.0}, {"is_reserved": 0, "type": "electric_scooter", "bike_id": "8f55cfd9776181f1340b7eeb6e870a54", "lat": 38.905614, "lon": -77.01766433333333, "rental_uris": {"android": "https://dc.lft.to/lastmile_qr_scan", "ios": "https://dc.lft.to/lastmile_qr_scan"}, "is_disabled": 0, "fusion_lat": 0.0, "name": "8f55cfd9776181f1340b7eeb6e870a54", "fusion_lon": 0.0}, {"is_reserved": 0, "type": "electric_scooter", "bike_id": "b426a0100801967c74662775e4ac3f35", "lat": 38.918389, "lon": -77.022902, "rental_uris": {"android": "https://dc.lft.to/lastmile_qr_scan", "ios": "https://dc.lft.to/lastmile_qr_scan"}, "is_disabled": 0, "fusion_lat": 0.0, "name": "b426a0100801967c74662775e4ac3f35", "fusion_lon": 0.0}, {"is_reserved": 0, "type": "electric_scooter", "bike_id": "2cdc3417c92c2081d01a98f1a8282617", "lat": 38.90144333333333, "lon": -77.04185766666667, "rental_uris": {"android": "https://dc.lft.to/lastmile_qr_scan", "ios": "https://dc.lft.to/lastmile_qr_scan"}, "is_disabled": 0, "fusion_lat": 0.0, "name": "2cdc3417c92c2081d01a98f1a8282617", "fusion_lon": 0.0}, {"is_reserved": 0, "type": "electric_scooter", "bike_id": "7947334c917efcda19bd8d3b06d6d68a", "lat": 38.885070166666665, "lon": -77.02095116666666, "rental_uris": {"android": "https://dc.lft.to/lastmile_qr_scan", "ios": "https://dc.lft.to/lastmile_qr_scan"}, "is_disabled": 0, "fusion_lat": 0.0, "name": "7947334c917efcda19bd8d3b06d6d68a", "fusion_lon": 0.0}, {"is_reserved": 0, "type": "electric_scooter", "bike_id": "fa0c6320cd72267fea5d974c63640be5", "lat": 38.898490833333334, "lon": -76.98172216666667, "rental_uris": {"android": "https://dc.lft.to/lastmile_qr_scan", "ios": "https://dc.lft.to/lastmile_qr_scan"}, "is_disabled": 0, "fusion_lat": 0.0, "name": "fa0c6320cd72267fea5d974c63640be5", "fusion_lon": 0.0}, {"is_reserved": 0, "type": "electric_scooter", "bike_id": "070d1faff0c119272ae149f24474ad75", "lat": 38.887411, "lon": -77.01353733333333, "rental_uris": {"android": "https://dc.lft.to/lastmile_qr_scan", "ios": "https://dc.lft.to/lastmile_qr_scan"}, "is_disabled": 0, "fusion_lat": 0.0, "name": "070d1faff0c119272ae149f24474ad75", "fusion_lon": 0.0}, {"is_reserved": 0, "type": "electric_scooter", "bike_id": "e65edfe3de89452177091c4a20ec668f", "lat": 38.93040116666667, "lon": -77.08320083333334, "rental_uris": {"android": "https://dc.lft.to/lastmile_qr_scan", "ios": "https://dc.lft.to/lastmile_qr_scan"}, "is_disabled": 0, "fusion_lat": 0.0, "name": "e65edfe3de89452177091c4a20ec668f", "fusion_lon": 0.0}, {"is_reserved": 0, "type": "electric_scooter", "bike_id": "22adf3b6ace6abf5fdc0627ed8d69362", "lat": 38.90617, "lon": -77.032982, "rental_uris": {"android": "https://dc.lft.to/lastmile_qr_scan", "ios": "https://dc.lft.to/lastmile_qr_scan"}, "is_disabled": 0, "fusion_lat": 0.0, "name": "22adf3b6ace6abf5fdc0627ed8d69362", "fusion_lon": 0.0}, {"is_reserved": 0, "type": "electric_scooter", "bike_id": "bd94675c4578d95413edad3d4394a3cf", "lat": 38.974963833333334, "lon": -77.0169395, "rental_uris": {"android": "https://dc.lft.to/lastmile_qr_scan", "ios": "https://dc.lft.to/lastmile_qr_scan"}, "is_disabled": 0, "fusion_lat": 0.0, "name": "bd94675c4578d95413edad3d4394a3cf", "fusion_lon": 0.0}, {"is_reserved": 0, "type": "electric_scooter", "bike_id": "cfd414bb3562e293b6e9450e9a251164", "lat": 38.91790866666667, "lon": -77.02309916666667, "rental_uris": {"android": "https://dc.lft.to/lastmile_qr_scan", "ios": "https://dc.lft.to/lastmile_qr_scan"}, "is_disabled": 0, "fusion_lat": 0.0, "name": "cfd414bb3562e293b6e9450e9a251164", "fusion_lon": 0.0}, {"is_reserved": 0, "type": "electric_scooter", "bike_id": "5bece26f0f02b855b8d82a76615df83c", "lat": 38.90121283333333, "lon": -77.03389466666667, "rental_uris": {"android": "https://dc.lft.to/lastmile_qr_scan", "ios": "https://dc.lft.to/lastmile_qr_scan"}, "is_disabled": 0, "fusion_lat": 0.0, "name": "5bece26f0f02b855b8d82a76615df83c", "fusion_lon": 0.0}, {"is_reserved": 0, "type": "electric_scooter", "bike_id": "21d0e75293ab93ddd37f380d5b043e6b", "lat": 38.9100755, "lon": -77.03014466666667, "rental_uris": {"android": "https://dc.lft.to/lastmile_qr_scan", "ios": "https://dc.lft.to/lastmile_qr_scan"}, "is_disabled": 0, "fusion_lat": 0.0, "name": "21d0e75293ab93ddd37f380d5b043e6b", "fusion_lon": 0.0}, {"is_reserved": 0, "type": "electric_scooter", "bike_id": "9a229514a9a6e7ee2a043994735251de", "lat": 38.896076, "lon": -77.00527466666666, "rental_uris": {"android": "https://dc.lft.to/lastmile_qr_scan", "ios": "https://dc.lft.to/lastmile_qr_scan"}, "is_disabled": 0, "fusion_lat": 0.0, "name": "9a229514a9a6e7ee2a043994735251de", "fusion_lon": 0.0}, {"is_reserved": 0, "type": "electric_scooter", "bike_id": "4fe3bbbb2a61892ef382969586ec5619", "lat": 38.8982855, "lon": -77.04823183333333, "rental_uris": {"android": "https://dc.lft.to/lastmile_qr_scan", "ios": "https://dc.lft.to/lastmile_qr_scan"}, "is_disabled": 0, "fusion_lat": 0.0, "name": "4fe3bbbb2a61892ef382969586ec5619", "fusion_lon": 0.0}, {"is_reserved": 0, "type": "electric_scooter", "bike_id": "f1ab3cdace8e038c86865013ceb8af5a", "lat": 38.936325, "lon": -77.064797, "rental_uris": {"android": "https://dc.lft.to/lastmile_qr_scan", "ios": "https://dc.lft.to/lastmile_qr_scan"}, "is_disabled": 0, "fusion_lat": 0.0, "name": "f1ab3cdace8e038c86865013ceb8af5a", "fusion_lon": 0.0}, {"is_reserved": 0, "type": "electric_scooter", "bike_id": "3cd20066bc0fc1d0d56fc4f069aca1a3", "lat": 38.8845645, "lon": -77.024923, "rental_uris": {"android": "https://dc.lft.to/lastmile_qr_scan", "ios": "https://dc.lft.to/lastmile_qr_scan"}, "is_disabled": 0, "fusion_lat": 0.0, "name": "3cd20066bc0fc1d0d56fc4f069aca1a3", "fusion_lon": 0.0}, {"is_reserved": 0, "type": "electric_scooter", "bike_id": "3278067df83ed68c16e9816d507da177", "lat": 38.91033783333334, "lon": -77.0334735, "rental_uris": {"android": "https://dc.lft.to/lastmile_qr_scan", "ios": "https://dc.lft.to/lastmile_qr_scan"}, "is_disabled": 0, "fusion_lat": 0.0, "name": "3278067df83ed68c16e9816d507da177", "fusion_lon": 0.0}, {"is_reserved": 0, "type": "electric_scooter", "bike_id": "9d2d53182bb152abde1154c272c18de4", "lat": 38.89608833333333, "lon": -77.0467775, "rental_uris": {"android": "https://dc.lft.to/lastmile_qr_scan", "ios": "https://dc.lft.to/lastmile_qr_scan"}, "is_disabled": 0, "fusion_lat": 0.0, "name": "9d2d53182bb152abde1154c272c18de4", "fusion_lon": 0.0}, {"is_reserved": 0, "type": "electric_scooter", "bike_id": "d9635b64b779a0223be908f9b8ae5dcb", "lat": 38.920558166666666, "lon": -76.98089616666667, "rental_uris": {"android": "https://dc.lft.to/lastmile_qr_scan", "ios": "https://dc.lft.to/lastmile_qr_scan"}, "is_disabled": 0, "fusion_lat": 0.0, "name": "d9635b64b779a0223be908f9b8ae5dcb", "fusion_lon": 0.0}, {"is_reserved": 0, "type": "electric_scooter", "bike_id": "c10e3a8215ac6b27dfbc614ce1437943", "lat": 38.974992666666665, "lon": -77.0169645, "rental_uris": {"android": "https://dc.lft.to/lastmile_qr_scan", "ios": "https://dc.lft.to/lastmile_qr_scan"}, "is_disabled": 0, "fusion_lat": 0.0, "name": "c10e3a8215ac6b27dfbc614ce1437943", "fusion_lon": 0.0}, {"is_reserved": 0, "type": "electric_bike", "bike_id": "834f6c8375424c08b5d0190e0c32786a", "lat": 38.887893, "lon": -76.92343066666666, "rental_uris": {"android": "https://dc.lft.to/lastmile_qr_scan", "ios": "https://dc.lft.to/lastmile_qr_scan"}, "is_disabled": 0, "fusion_lat": 0.0, "name": "834f6c8375424c08b5d0190e0c32786a", "fusion_lon": 0.0}, {"is_reserved": 0, "type": "electric_scooter", "bike_id": "569487af1ec27ed840be07ef2e13d8dc", "lat": 38.91333233333334, "lon": -77.048002, "rental_uris": {"android": "https://dc.lft.to/lastmile_qr_scan", "ios": "https://dc.lft.to/lastmile_qr_scan"}, "is_disabled": 0, "fusion_lat": 0.0, "name": "569487af1ec27ed840be07ef2e13d8dc", "fusion_lon": 0.0}, {"is_reserved": 0, "type": "electric_scooter", "bike_id": "4e1b0b41ca54c2cebcd4fa35a0fd9d35", "lat": 38.897308, "lon": -77.054729, "rental_uris": {"android": "https://dc.lft.to/lastmile_qr_scan", "ios": "https://dc.lft.to/lastmile_qr_scan"}, "is_disabled": 0, "fusion_lat": 0.0, "name": "4e1b0b41ca54c2cebcd4fa35a0fd9d35", "fusion_lon": 0.0}, {"is_reserved": 0, "type": "electric_scooter", "bike_id": "96677048948e20070cf26b882e5783a3", "lat": 38.90254066666667, "lon": -77.02931483333333, "rental_uris": {"android": "https://dc.lft.to/lastmile_qr_scan", "ios": "https://dc.lft.to/lastmile_qr_scan"}, "is_disabled": 0, "fusion_lat": 0.0, "name": "96677048948e20070cf26b882e5783a3", "fusion_lon": 0.0}, {"is_reserved": 0, "type": "electric_scooter", "bike_id": "db0a26843b6a49f0e09235ee4e7f5a57", "lat": 38.90065516666667, "lon": -77.04534633333333, "rental_uris": {"android": "https://dc.lft.to/lastmile_qr_scan", "ios": "https://dc.lft.to/lastmile_qr_scan"}, "is_disabled": 0, "fusion_lat": 0.0, "name": "db0a26843b6a49f0e09235ee4e7f5a57", "fusion_lon": 0.0}, {"is_reserved": 0, "type": "electric_scooter", "bike_id": "8101cb3df8c7e92bfe0dff90cfc21d1d", "lat": 38.906589, "lon": -77.02712016666666, "rental_uris": {"android": "https://dc.lft.to/lastmile_qr_scan", "ios": "https://dc.lft.to/lastmile_qr_scan"}, "is_disabled": 0, "fusion_lat": 0.0, "name": "8101cb3df8c7e92bfe0dff90cfc21d1d", "fusion_lon": 0.0}, {"is_reserved": 0, "type": "electric_scooter", "bike_id": "6d013d8a27aea9e2a34c927cf0f5b0e6", "lat": 38.914949166666666, "lon": -77.01855016666667, "rental_uris": {"android": "https://dc.lft.to/lastmile_qr_scan", "ios": "https://dc.lft.to/lastmile_qr_scan"}, "is_disabled": 0, "fusion_lat": 0.0, "name": "6d013d8a27aea9e2a34c927cf0f5b0e6", "fusion_lon": 0.0}, {"is_reserved": 0, "type": "electric_scooter", "bike_id": "076d0fd2b35921976abf97ac6b639d9c", "lat": 38.90237666666667, "lon": -77.05891366666667, "rental_uris": {"android": "https://dc.lft.to/lastmile_qr_scan", "ios": "https://dc.lft.to/lastmile_qr_scan"}, "is_disabled": 0, "fusion_lat": 0.0, "name": "076d0fd2b35921976abf97ac6b639d9c", "fusion_lon": 0.0}, {"is_reserved": 0, "type": "electric_scooter", "bike_id": "2a3a25d72683878334875b21c2a6a8a2", "lat": 38.917632, "lon": -77.01162566666666, "rental_uris": {"android": "https://dc.lft.to/lastmile_qr_scan", "ios": "https://dc.lft.to/lastmile_qr_scan"}, "is_disabled": 0, "fusion_lat": 0.0, "name": "2a3a25d72683878334875b21c2a6a8a2", "fusion_lon": 0.0}, {"is_reserved": 0, "type": "electric_bike", "bike_id": "904e09d8af8bd07170ef568a9baefaab", "lat": 38.901124333333335, "lon": -77.020005, "rental_uris": {"android": "https://dc.lft.to/lastmile_qr_scan", "ios": "https://dc.lft.to/lastmile_qr_scan"}, "is_disabled": 0, "fusion_lat": 0.0, "name": "904e09d8af8bd07170ef568a9baefaab", "fusion_lon": 0.0}, {"is_reserved": 0, "type": "electric_scooter", "bike_id": "5cb8496fbe85f5d61085edb5ec8f05bb", "lat": 38.88755483333333, "lon": -76.99617433333333, "rental_uris": {"android": "https://dc.lft.to/lastmile_qr_scan", "ios": "https://dc.lft.to/lastmile_qr_scan"}, "is_disabled": 0, "fusion_lat": 0.0, "name": "5cb8496fbe85f5d61085edb5ec8f05bb", "fusion_lon": 0.0}, {"is_reserved": 0, "type": "electric_scooter", "bike_id": "afc5186983689206c63cc4a8e361e337", "lat": 38.8968725, "lon": -77.026992, "rental_uris": {"android": "https://dc.lft.to/lastmile_qr_scan", "ios": "https://dc.lft.to/lastmile_qr_scan"}, "is_disabled": 0, "fusion_lat": 0.0, "name": "afc5186983689206c63cc4a8e361e337", "fusion_lon": 0.0}, {"is_reserved": 0, "type": "electric_scooter", "bike_id": "77652896c958e714f2dfb3d5f2327985", "lat": 38.9418335, "lon": -77.02564216666667, "rental_uris": {"android": "https://dc.lft.to/lastmile_qr_scan", "ios": "https://dc.lft.to/lastmile_qr_scan"}, "is_disabled": 0, "fusion_lat": 0.0, "name": "77652896c958e714f2dfb3d5f2327985", "fusion_lon": 0.0}, {"is_reserved": 0, "type": "electric_scooter", "bike_id": "dd8e982a9c01e8fd31a03245827fa6c0", "lat": 38.924316, "lon": -77.0194345, "rental_uris": {"android": "https://dc.lft.to/lastmile_qr_scan", "ios": "https://dc.lft.to/lastmile_qr_scan"}, "is_disabled": 0, "fusion_lat": 0.0, "name": "dd8e982a9c01e8fd31a03245827fa6c0", "fusion_lon": 0.0}, {"is_reserved": 0, "type": "electric_scooter", "bike_id": "3a1edd3dc2a37dc59fb9176fc73f67d4", "lat": 38.907157833333336, "lon": -77.0075895, "rental_uris": {"android": "https://dc.lft.to/lastmile_qr_scan", "ios": "https://dc.lft.to/lastmile_qr_scan"}, "is_disabled": 0, "fusion_lat": 0.0, "name": "3a1edd3dc2a37dc59fb9176fc73f67d4", "fusion_lon": 0.0}, {"is_reserved": 0, "type": "electric_scooter", "bike_id": "b30834ea5415a1603b6c8634d769e13c", "lat": 38.924318, "lon": -77.02035933333333, "rental_uris": {"android": "https://dc.lft.to/lastmile_qr_scan", "ios": "https://dc.lft.to/lastmile_qr_scan"}, "is_disabled": 0, "fusion_lat": 0.0, "name": "b30834ea5415a1603b6c8634d769e13c", "fusion_lon": 0.0}, {"is_reserved": 0, "type": "electric_scooter", "bike_id": "011b403bb33367538b122178631c33c3", "lat": 38.92315516666667, "lon": -77.04454616666666, "rental_uris": {"android": "https://dc.lft.to/lastmile_qr_scan", "ios": "https://dc.lft.to/lastmile_qr_scan"}, "is_disabled": 0, "fusion_lat": 0.0, "name": "011b403bb33367538b122178631c33c3", "fusion_lon": 0.0}, {"is_reserved": 0, "type": "electric_scooter", "bike_id": "c57337fc26c55bf5e6e93706899e6016", "lat": 38.911069166666664, "lon": -77.03858316666667, "rental_uris": {"android": "https://dc.lft.to/lastmile_qr_scan", "ios": "https://dc.lft.to/lastmile_qr_scan"}, "is_disabled": 0, "fusion_lat": 0.0, "name": "c57337fc26c55bf5e6e93706899e6016", "fusion_lon": 0.0}, {"is_reserved": 0, "type": "electric_scooter", "bike_id": "0571beb92d17d802a26221ca46d1aeba", "lat": 38.87867216666667, "lon": -76.96262933333334, "rental_uris": {"android": "https://dc.lft.to/lastmile_qr_scan", "ios": "https://dc.lft.to/lastmile_qr_scan"}, "is_disabled": 0, "fusion_lat": 0.0, "name": "0571beb92d17d802a26221ca46d1aeba", "fusion_lon": 0.0}, {"is_reserved": 0, "type": "electric_bike", "bike_id": "228abe1c0b3c00e894d7132864d02d47", "lat": 38.9584425, "lon": -76.9860585, "rental_uris": {"android": "https://dc.lft.to/lastmile_qr_scan", "ios": "https://dc.lft.to/lastmile_qr_scan"}, "is_disabled": 0, "fusion_lat": 0.0, "name": "228abe1c0b3c00e894d7132864d02d47", "fusion_lon": 0.0}, {"is_reserved": 0, "type": "electric_bike", "bike_id": "305a9263f88b82076e176b22fac52f49", "lat": 38.921171666666666, "lon": -76.98882233333333, "rental_uris": {"android": "https://dc.lft.to/lastmile_qr_scan", "ios": "https://dc.lft.to/lastmile_qr_scan"}, "is_disabled": 0, "fusion_lat": 0.0, "name": "305a9263f88b82076e176b22fac52f49", "fusion_lon": 0.0}, {"is_reserved": 0, "type": "electric_scooter", "bike_id": "1ffab561a146685ea0b824b2e625f030", "lat": 38.91038566666667, "lon": -77.0434555, "rental_uris": {"android": "https://dc.lft.to/lastmile_qr_scan", "ios": "https://dc.lft.to/lastmile_qr_scan"}, "is_disabled": 0, "fusion_lat": 0.0, "name": "1ffab561a146685ea0b824b2e625f030", "fusion_lon": 0.0}, {"is_reserved": 0, "type": "electric_scooter", "bike_id": "e5c7c0d68158bdbe644a019d3fe1f02a", "lat": 38.91020116666667, "lon": -77.03857766666667, "rental_uris": {"android": "https://dc.lft.to/lastmile_qr_scan", "ios": "https://dc.lft.to/lastmile_qr_scan"}, "is_disabled": 0, "fusion_lat": 0.0, "name": "e5c7c0d68158bdbe644a019d3fe1f02a", "fusion_lon": 0.0}, {"is_reserved": 0, "type": "electric_scooter", "bike_id": "6774b2ceae13d697a7c5c1ea83055795", "lat": 38.85222133333333, "lon": -76.99425316666667, "rental_uris": {"android": "https://dc.lft.to/lastmile_qr_scan", "ios": "https://dc.lft.to/lastmile_qr_scan"}, "is_disabled": 0, "fusion_lat": 0.0, "name": "6774b2ceae13d697a7c5c1ea83055795", "fusion_lon": 0.0}, {"is_reserved": 0, "type": "electric_scooter", "bike_id": "104e275f85b156ea6143791e86ef5403", "lat": 38.90614166666667, "lon": -77.00918083333333, "rental_uris": {"android": "https://dc.lft.to/lastmile_qr_scan", "ios": "https://dc.lft.to/lastmile_qr_scan"}, "is_disabled": 0, "fusion_lat": 0.0, "name": "104e275f85b156ea6143791e86ef5403", "fusion_lon": 0.0}, {"is_reserved": 0, "type": "electric_scooter", "bike_id": "9f838f72b6c63beb4a134779ffb52e71", "lat": 38.946602666666664, "lon": -77.0328375, "rental_uris": {"android": "https://dc.lft.to/lastmile_qr_scan", "ios": "https://dc.lft.to/lastmile_qr_scan"}, "is_disabled": 0, "fusion_lat": 0.0, "name": "9f838f72b6c63beb4a134779ffb52e71", "fusion_lon": 0.0}, {"is_reserved": 0, "type": "electric_scooter", "bike_id": "7181c6beed9d6ccfd468057e8e5dca5a", "lat": 38.900413, "lon": -76.99169566666667, "rental_uris": {"android": "https://dc.lft.to/lastmile_qr_scan", "ios": "https://dc.lft.to/lastmile_qr_scan"}, "is_disabled": 0, "fusion_lat": 0.0, "name": "7181c6beed9d6ccfd468057e8e5dca5a", "fusion_lon": 0.0}, {"is_reserved": 0, "type": "electric_scooter", "bike_id": "874175d8d8cf2abaf871d46b9bc6264c", "lat": 38.908503, "lon": -77.06342683333334, "rental_uris": {"android": "https://dc.lft.to/lastmile_qr_scan", "ios": "https://dc.lft.to/lastmile_qr_scan"}, "is_disabled": 0, "fusion_lat": 0.0, "name": "874175d8d8cf2abaf871d46b9bc6264c", "fusion_lon": 0.0}, {"is_reserved": 0, "type": "electric_scooter", "bike_id": "f0a6922c28917ee702861ea2d67432b3", "lat": 38.874679, "lon": -77.00560666666667, "rental_uris": {"android": "https://dc.lft.to/lastmile_qr_scan", "ios": "https://dc.lft.to/lastmile_qr_scan"}, "is_disabled": 0, "fusion_lat": 0.0, "name": "f0a6922c28917ee702861ea2d67432b3", "fusion_lon": 0.0}, {"is_reserved": 0, "type": "electric_scooter", "bike_id": "0f28a6cbca6bbfd8ccda5a459ab3f845", "lat": 38.89908583333333, "lon": -76.93363033333333, "rental_uris": {"android": "https://dc.lft.to/lastmile_qr_scan", "ios": "https://dc.lft.to/lastmile_qr_scan"}, "is_disabled": 0, "fusion_lat": 0.0, "name": "0f28a6cbca6bbfd8ccda5a459ab3f845", "fusion_lon": 0.0}, {"is_reserved": 0, "type": "electric_scooter", "bike_id": "447a618a6266652922db0706a5c5a753", "lat": 38.90295883333334, "lon": -77.00245833333334, "rental_uris": {"android": "https://dc.lft.to/lastmile_qr_scan", "ios": "https://dc.lft.to/lastmile_qr_scan"}, "is_disabled": 0, "fusion_lat": 0.0, "name": "447a618a6266652922db0706a5c5a753", "fusion_lon": 0.0}, {"is_reserved": 0, "type": "electric_scooter", "bike_id": "f155ef0dddb1cbadb9fafd734966b0b7", "lat": 38.904976166666664, "lon": -77.02956, "rental_uris": {"android": "https://dc.lft.to/lastmile_qr_scan", "ios": "https://dc.lft.to/lastmile_qr_scan"}, "is_disabled": 0, "fusion_lat": 0.0, "name": "f155ef0dddb1cbadb9fafd734966b0b7", "fusion_lon": 0.0}, {"is_reserved": 0, "type": "electric_scooter", "bike_id": "985da4f0048eeec734f13d0e267081ad", "lat": 38.938885, "lon": -77.03257716666667, "rental_uris": {"android": "https://dc.lft.to/lastmile_qr_scan", "ios": "https://dc.lft.to/lastmile_qr_scan"}, "is_disabled": 0, "fusion_lat": 0.0, "name": "985da4f0048eeec734f13d0e267081ad", "fusion_lon": 0.0}, {"is_reserved": 0, "type": "electric_scooter", "bike_id": "62bbaca665fe7e54845292bf25c845d6", "lat": 38.883002833333336, "lon": -77.023836, "rental_uris": {"android": "https://dc.lft.to/lastmile_qr_scan", "ios": "https://dc.lft.to/lastmile_qr_scan"}, "is_disabled": 0, "fusion_lat": 0.0, "name": "62bbaca665fe7e54845292bf25c845d6", "fusion_lon": 0.0}, {"is_reserved": 0, "type": "electric_scooter", "bike_id": "778b5e37531328f2f97cbf17faab117b", "lat": 38.87535316666666, "lon": -77.005532, "rental_uris": {"android": "https://dc.lft.to/lastmile_qr_scan", "ios": "https://dc.lft.to/lastmile_qr_scan"}, "is_disabled": 0, "fusion_lat": 0.0, "name": "778b5e37531328f2f97cbf17faab117b", "fusion_lon": 0.0}, {"is_reserved": 0, "type": "electric_scooter", "bike_id": "b7a15726dcbb97016b20bb8b2b89c9a8", "lat": 38.916311, "lon": -77.04626233333333, "rental_uris": {"android": "https://dc.lft.to/lastmile_qr_scan", "ios": "https://dc.lft.to/lastmile_qr_scan"}, "is_disabled": 0, "fusion_lat": 0.0, "name": "b7a15726dcbb97016b20bb8b2b89c9a8", "fusion_lon": 0.0}, {"is_reserved": 0, "type": "electric_scooter", "bike_id": "fde169347d4f7f4e6f8af0e16fb7b9f0", "lat": 38.91367966666667, "lon": -77.02005466666667, "rental_uris": {"android": "https://dc.lft.to/lastmile_qr_scan", "ios": "https://dc.lft.to/lastmile_qr_scan"}, "is_disabled": 0, "fusion_lat": 0.0, "name": "fde169347d4f7f4e6f8af0e16fb7b9f0", "fusion_lon": 0.0}, {"is_reserved": 0, "type": "electric_scooter", "bike_id": "e8d1344ee103d37da1b21a0d55e457cb", "lat": 38.917053833333334, "lon": -77.04181816666667, "rental_uris": {"android": "https://dc.lft.to/lastmile_qr_scan", "ios": "https://dc.lft.to/lastmile_qr_scan"}, "is_disabled": 0, "fusion_lat": 0.0, "name": "e8d1344ee103d37da1b21a0d55e457cb", "fusion_lon": 0.0}, {"is_reserved": 0, "type": "electric_scooter", "bike_id": "3e9093fcbc17b07fcfaaac3c3fcb8618", "lat": 38.91119183333333, "lon": -77.03835166666667, "rental_uris": {"android": "https://dc.lft.to/lastmile_qr_scan", "ios": "https://dc.lft.to/lastmile_qr_scan"}, "is_disabled": 0, "fusion_lat": 0.0, "name": "3e9093fcbc17b07fcfaaac3c3fcb8618", "fusion_lon": 0.0}, {"is_reserved": 0, "type": "electric_scooter", "bike_id": "7fe0878984859b6219fe3adc5e091bc4", "lat": 38.92422633333334, "lon": -77.02013566666666, "rental_uris": {"android": "https://dc.lft.to/lastmile_qr_scan", "ios": "https://dc.lft.to/lastmile_qr_scan"}, "is_disabled": 0, "fusion_lat": 0.0, "name": "7fe0878984859b6219fe3adc5e091bc4", "fusion_lon": 0.0}, {"is_reserved": 0, "type": "electric_scooter", "bike_id": "198abb661e8b45bb429b34926e0eb1b9", "lat": 38.9395455, "lon": -77.02755183333333, "rental_uris": {"android": "https://dc.lft.to/lastmile_qr_scan", "ios": "https://dc.lft.to/lastmile_qr_scan"}, "is_disabled": 0, "fusion_lat": 0.0, "name": "198abb661e8b45bb429b34926e0eb1b9", "fusion_lon": 0.0}, {"is_reserved": 0, "type": "electric_bike", "bike_id": "185d09e75c5e9732f660f65cf8e8390d", "lat": 38.92066416666667, "lon": -76.9958625, "rental_uris": {"android": "https://dc.lft.to/lastmile_qr_scan", "ios": "https://dc.lft.to/lastmile_qr_scan"}, "is_disabled": 0, "fusion_lat": 0.0, "name": "185d09e75c5e9732f660f65cf8e8390d", "fusion_lon": 0.0}, {"is_reserved": 0, "type": "electric_scooter", "bike_id": "d9c35420d023598a449af1f4e8a80443", "lat": 38.91759833333333, "lon": -77.0045545, "rental_uris": {"android": "https://dc.lft.to/lastmile_qr_scan", "ios": "https://dc.lft.to/lastmile_qr_scan"}, "is_disabled": 0, "fusion_lat": 0.0, "name": "d9c35420d023598a449af1f4e8a80443", "fusion_lon": 0.0}, {"is_reserved": 0, "type": "electric_bike", "bike_id": "906552b887f44f7809ee006e72cb8012", "lat": 38.91703116666667, "lon": -77.05720366666667, "rental_uris": {"android": "https://dc.lft.to/lastmile_qr_scan", "ios": "https://dc.lft.to/lastmile_qr_scan"}, "is_disabled": 0, "fusion_lat": 0.0, "name": "906552b887f44f7809ee006e72cb8012", "fusion_lon": 0.0}, {"is_reserved": 0, "type": "electric_scooter", "bike_id": "9a47e32a74191db8e64f389ea291c9d3", "lat": 38.865808333333334, "lon": -76.99032533333333, "rental_uris": {"android": "https://dc.lft.to/lastmile_qr_scan", "ios": "https://dc.lft.to/lastmile_qr_scan"}, "is_disabled": 0, "fusion_lat": 0.0, "name": "9a47e32a74191db8e64f389ea291c9d3", "fusion_lon": 0.0}, {"is_reserved": 0, "type": "electric_scooter", "bike_id": "33b4d238ece10fe214098ae1a3e6692b", "lat": 38.91546833333334, "lon": -77.03838233333333, "rental_uris": {"android": "https://dc.lft.to/lastmile_qr_scan", "ios": "https://dc.lft.to/lastmile_qr_scan"}, "is_disabled": 0, "fusion_lat": 0.0, "name": "33b4d238ece10fe214098ae1a3e6692b", "fusion_lon": 0.0}, {"is_reserved": 0, "type": "electric_scooter", "bike_id": "7c8202e40eb6135bfebc811d33ebf4de", "lat": 38.91681916666667, "lon": -77.029666, "rental_uris": {"android": "https://dc.lft.to/lastmile_qr_scan", "ios": "https://dc.lft.to/lastmile_qr_scan"}, "is_disabled": 0, "fusion_lat": 0.0, "name": "7c8202e40eb6135bfebc811d33ebf4de", "fusion_lon": 0.0}, {"is_reserved": 0, "type": "electric_scooter", "bike_id": "82fc4494180dcb1cb6e3de3f1a02de4c", "lat": 38.90726333333333, "lon": -77.04734083333334, "rental_uris": {"android": "https://dc.lft.to/lastmile_qr_scan", "ios": "https://dc.lft.to/lastmile_qr_scan"}, "is_disabled": 0, "fusion_lat": 0.0, "name": "82fc4494180dcb1cb6e3de3f1a02de4c", "fusion_lon": 0.0}, {"is_reserved": 0, "type": "electric_scooter", "bike_id": "149cdeeb1914dd8ae0f382bdfda09364", "lat": 38.91970883333333, "lon": -77.02194516666667, "rental_uris": {"android": "https://dc.lft.to/lastmile_qr_scan", "ios": "https://dc.lft.to/lastmile_qr_scan"}, "is_disabled": 0, "fusion_lat": 0.0, "name": "149cdeeb1914dd8ae0f382bdfda09364", "fusion_lon": 0.0}, {"is_reserved": 0, "type": "electric_scooter", "bike_id": "1471c4770931ddff2715ff8a4d03cd5c", "lat": 38.90335616666667, "lon": -77.01068516666666, "rental_uris": {"android": "https://dc.lft.to/lastmile_qr_scan", "ios": "https://dc.lft.to/lastmile_qr_scan"}, "is_disabled": 0, "fusion_lat": 0.0, "name": "1471c4770931ddff2715ff8a4d03cd5c", "fusion_lon": 0.0}, {"is_reserved": 0, "type": "electric_scooter", "bike_id": "633faa9e3599aecf3331e53aa76acaa9", "lat": 38.89487583333333, "lon": -77.02243266666666, "rental_uris": {"android": "https://dc.lft.to/lastmile_qr_scan", "ios": "https://dc.lft.to/lastmile_qr_scan"}, "is_disabled": 0, "fusion_lat": 0.0, "name": "633faa9e3599aecf3331e53aa76acaa9", "fusion_lon": 0.0}, {"is_reserved": 0, "type": "electric_bike", "bike_id": "0e1f002a17b0d2c8de2c54be360d22b0", "lat": 38.886563333333335, "lon": -77.16239016666667, "rental_uris": {"android": "https://dc.lft.to/lastmile_qr_scan", "ios": "https://dc.lft.to/lastmile_qr_scan"}, "is_disabled": 0, "fusion_lat": 0.0, "name": "0e1f002a17b0d2c8de2c54be360d22b0", "fusion_lon": 0.0}, {"is_reserved": 0, "type": "electric_scooter", "bike_id": "5164cd0b0436fe959b1a48799f2d06a3", "lat": 38.93763333333333, "lon": -77.03148716666666, "rental_uris": {"android": "https://dc.lft.to/lastmile_qr_scan", "ios": "https://dc.lft.to/lastmile_qr_scan"}, "is_disabled": 0, "fusion_lat": 0.0, "name": "5164cd0b0436fe959b1a48799f2d06a3", "fusion_lon": 0.0}, {"is_reserved": 0, "type": "electric_scooter", "bike_id": "39b2a60d66343ccf61fbbf4a614f0529", "lat": 38.923001666666664, "lon": -76.983633, "rental_uris": {"android": "https://dc.lft.to/lastmile_qr_scan", "ios": "https://dc.lft.to/lastmile_qr_scan"}, "is_disabled": 0, "fusion_lat": 0.0, "name": "39b2a60d66343ccf61fbbf4a614f0529", "fusion_lon": 0.0}, {"is_reserved": 0, "type": "electric_scooter", "bike_id": "8750c974abe5a3cd93fe80446985f47e", "lat": 38.93174633333334, "lon": -77.023469, "rental_uris": {"android": "https://dc.lft.to/lastmile_qr_scan", "ios": "https://dc.lft.to/lastmile_qr_scan"}, "is_disabled": 0, "fusion_lat": 0.0, "name": "8750c974abe5a3cd93fe80446985f47e", "fusion_lon": 0.0}, {"is_reserved": 0, "type": "electric_scooter", "bike_id": "4be6719d218f1ec9ebe283e1e0ee3f50", "lat": 38.90064383333333, "lon": -76.9865545, "rental_uris": {"android": "https://dc.lft.to/lastmile_qr_scan", "ios": "https://dc.lft.to/lastmile_qr_scan"}, "is_disabled": 0, "fusion_lat": 0.0, "name": "4be6719d218f1ec9ebe283e1e0ee3f50", "fusion_lon": 0.0}, {"is_reserved": 0, "type": "electric_bike", "bike_id": "082ee88f6c9532051cc68ce6e1b83ff7", "lat": 38.902519833333336, "lon": -77.02917583333333, "rental_uris": {"android": "https://dc.lft.to/lastmile_qr_scan", "ios": "https://dc.lft.to/lastmile_qr_scan"}, "is_disabled": 0, "fusion_lat": 0.0, "name": "082ee88f6c9532051cc68ce6e1b83ff7", "fusion_lon": 0.0}, {"is_reserved": 0, "type": "electric_scooter", "bike_id": "f049941f38e613a457516a9551f8c3d7", "lat": 38.916845, "lon": -77.02800633333334, "rental_uris": {"android": "https://dc.lft.to/lastmile_qr_scan", "ios": "https://dc.lft.to/lastmile_qr_scan"}, "is_disabled": 0, "fusion_lat": 0.0, "name": "f049941f38e613a457516a9551f8c3d7", "fusion_lon": 0.0}, {"is_reserved": 0, "type": "electric_scooter", "bike_id": "e42e48d6d1a16a7b5fe022f5bc1de34e", "lat": 38.94031583333334, "lon": -77.026395, "rental_uris": {"android": "https://dc.lft.to/lastmile_qr_scan", "ios": "https://dc.lft.to/lastmile_qr_scan"}, "is_disabled": 0, "fusion_lat": 0.0, "name": "e42e48d6d1a16a7b5fe022f5bc1de34e", "fusion_lon": 0.0}, {"is_reserved": 0, "type": "electric_scooter", "bike_id": "42c542d9302d4e415abfd3d938a90b47", "lat": 38.86432166666667, "lon": -76.9986185, "rental_uris": {"android": "https://dc.lft.to/lastmile_qr_scan", "ios": "https://dc.lft.to/lastmile_qr_scan"}, "is_disabled": 0, "fusion_lat": 0.0, "name": "42c542d9302d4e415abfd3d938a90b47", "fusion_lon": 0.0}, {"is_reserved": 0, "type": "electric_scooter", "bike_id": "0f0a515d53165a9a634ea0731138984b", "lat": 38.93462866666667, "lon": -77.02241883333333, "rental_uris": {"android": "https://dc.lft.to/lastmile_qr_scan", "ios": "https://dc.lft.to/lastmile_qr_scan"}, "is_disabled": 0, "fusion_lat": 0.0, "name": "0f0a515d53165a9a634ea0731138984b", "fusion_lon": 0.0}, {"is_reserved": 0, "type": "electric_scooter", "bike_id": "3b7eb43cea0da5f58e2aa60013e50307", "lat": 38.89932183333333, "lon": -77.0321705, "rental_uris": {"android": "https://dc.lft.to/lastmile_qr_scan", "ios": "https://dc.lft.to/lastmile_qr_scan"}, "is_disabled": 0, "fusion_lat": 0.0, "name": "3b7eb43cea0da5f58e2aa60013e50307", "fusion_lon": 0.0}, {"is_reserved": 0, "type": "electric_scooter", "bike_id": "5c2edd085027589bf795953e40e2a538", "lat": 38.9111185, "lon": -77.0324975, "rental_uris": {"android": "https://dc.lft.to/lastmile_qr_scan", "ios": "https://dc.lft.to/lastmile_qr_scan"}, "is_disabled": 0, "fusion_lat": 0.0, "name": "5c2edd085027589bf795953e40e2a538", "fusion_lon": 0.0}, {"is_reserved": 0, "type": "electric_bike", "bike_id": "9ed3d0ef13345a74c3811e4ef6afc89f", "lat": 38.867572333333335, "lon": -76.94529366666667, "rental_uris": {"android": "https://dc.lft.to/lastmile_qr_scan", "ios": "https://dc.lft.to/lastmile_qr_scan"}, "is_disabled": 0, "fusion_lat": 0.0, "name": "9ed3d0ef13345a74c3811e4ef6afc89f", "fusion_lon": 0.0}, {"is_reserved": 0, "type": "electric_scooter", "bike_id": "447de042534a8277b3d80344abeffe14", "lat": 38.905334333333336, "lon": -77.0609025, "rental_uris": {"android": "https://dc.lft.to/lastmile_qr_scan", "ios": "https://dc.lft.to/lastmile_qr_scan"}, "is_disabled": 0, "fusion_lat": 0.0, "name": "447de042534a8277b3d80344abeffe14", "fusion_lon": 0.0}, {"is_reserved": 0, "type": "electric_scooter", "bike_id": "c30e86402af8a54e7ce799a89079ea68", "lat": 38.88771916666666, "lon": -76.9326245, "rental_uris": {"android": "https://dc.lft.to/lastmile_qr_scan", "ios": "https://dc.lft.to/lastmile_qr_scan"}, "is_disabled": 0, "fusion_lat": 0.0, "name": "c30e86402af8a54e7ce799a89079ea68", "fusion_lon": 0.0}, {"is_reserved": 0, "type": "electric_scooter", "bike_id": "9427fa49685c30323a63bdc58823b1d9", "lat": 38.92030183333333, "lon": -76.98543516666666, "rental_uris": {"android": "https://dc.lft.to/lastmile_qr_scan", "ios": "https://dc.lft.to/lastmile_qr_scan"}, "is_disabled": 0, "fusion_lat": 0.0, "name": "9427fa49685c30323a63bdc58823b1d9", "fusion_lon": 0.0}, {"is_reserved": 0, "type": "electric_bike", "bike_id": "b9beb8f087f97940f83c53e692b2640c", "lat": 38.93205183333333, "lon": -77.02339466666666, "rental_uris": {"android": "https://dc.lft.to/lastmile_qr_scan", "ios": "https://dc.lft.to/lastmile_qr_scan"}, "is_disabled": 0, "fusion_lat": 0.0, "name": "b9beb8f087f97940f83c53e692b2640c", "fusion_lon": 0.0}, {"is_reserved": 0, "type": "electric_scooter", "bike_id": "f002ecbf31dc018a04c46c725ce1f1d9", "lat": 38.92152683333333, "lon": -77.03868533333333, "rental_uris": {"android": "https://dc.lft.to/lastmile_qr_scan", "ios": "https://dc.lft.to/lastmile_qr_scan"}, "is_disabled": 0, "fusion_lat": 0.0, "name": "f002ecbf31dc018a04c46c725ce1f1d9", "fusion_lon": 0.0}, {"is_reserved": 0, "type": "electric_scooter", "bike_id": "0e26e95ba1d046f32fcbc28eac6e7ca7", "lat": 38.90531216666667, "lon": -77.0270685, "rental_uris": {"android": "https://dc.lft.to/lastmile_qr_scan", "ios": "https://dc.lft.to/lastmile_qr_scan"}, "is_disabled": 0, "fusion_lat": 0.0, "name": "0e26e95ba1d046f32fcbc28eac6e7ca7", "fusion_lon": 0.0}, {"is_reserved": 0, "type": "electric_scooter", "bike_id": "40bed3640a258032d0e0e83ee2783a6d", "lat": 38.895295, "lon": -77.044732, "rental_uris": {"android": "https://dc.lft.to/lastmile_qr_scan", "ios": "https://dc.lft.to/lastmile_qr_scan"}, "is_disabled": 0, "fusion_lat": 0.0, "name": "40bed3640a258032d0e0e83ee2783a6d", "fusion_lon": 0.0}, {"is_reserved": 0, "type": "electric_scooter", "bike_id": "c5b9781d8b71e9670971adbea8ca5f64", "lat": 38.90983583333333, "lon": -77.02402266666667, "rental_uris": {"android": "https://dc.lft.to/lastmile_qr_scan", "ios": "https://dc.lft.to/lastmile_qr_scan"}, "is_disabled": 0, "fusion_lat": 0.0, "name": "c5b9781d8b71e9670971adbea8ca5f64", "fusion_lon": 0.0}, {"is_reserved": 0, "type": "electric_scooter", "bike_id": "5fe6eb815e84dd2beb629be8dfd87e99", "lat": 38.8949655, "lon": -77.0269125, "rental_uris": {"android": "https://dc.lft.to/lastmile_qr_scan", "ios": "https://dc.lft.to/lastmile_qr_scan"}, "is_disabled": 0, "fusion_lat": 0.0, "name": "5fe6eb815e84dd2beb629be8dfd87e99", "fusion_lon": 0.0}, {"is_reserved": 0, "type": "electric_scooter", "bike_id": "45ebe21a1007fb199ee982c54199cb9d", "lat": 38.9224425, "lon": -77.0313165, "rental_uris": {"android": "https://dc.lft.to/lastmile_qr_scan", "ios": "https://dc.lft.to/lastmile_qr_scan"}, "is_disabled": 0, "fusion_lat": 0.0, "name": "45ebe21a1007fb199ee982c54199cb9d", "fusion_lon": 0.0}, {"is_reserved": 0, "type": "electric_bike", "bike_id": "6c4f714085a279e202c243ba0f3ec424", "lat": 39.08493883333333, "lon": -76.95060283333333, "rental_uris": {"android": "https://dc.lft.to/lastmile_qr_scan", "ios": "https://dc.lft.to/lastmile_qr_scan"}, "is_disabled": 0, "fusion_lat": 0.0, "name": "6c4f714085a279e202c243ba0f3ec424", "fusion_lon": 0.0}, {"is_reserved": 0, "type": "electric_scooter", "bike_id": "1296a1a05b3d8026726218bc967b3a62", "lat": 38.9443445, "lon": -76.9796075, "rental_uris": {"android": "https://dc.lft.to/lastmile_qr_scan", "ios": "https://dc.lft.to/lastmile_qr_scan"}, "is_disabled": 0, "fusion_lat": 0.0, "name": "1296a1a05b3d8026726218bc967b3a62", "fusion_lon": 0.0}, {"is_reserved": 0, "type": "electric_scooter", "bike_id": "d8871d5505a07e263e7987468ffc29f1", "lat": 38.9262325, "lon": -77.043314, "rental_uris": {"android": "https://dc.lft.to/lastmile_qr_scan", "ios": "https://dc.lft.to/lastmile_qr_scan"}, "is_disabled": 0, "fusion_lat": 0.0, "name": "d8871d5505a07e263e7987468ffc29f1", "fusion_lon": 0.0}, {"is_reserved": 0, "type": "electric_scooter", "bike_id": "550aeb43767d47e8a6d3643d800383d0", "lat": 38.9399455, "lon": -77.01953183333333, "rental_uris": {"android": "https://dc.lft.to/lastmile_qr_scan", "ios": "https://dc.lft.to/lastmile_qr_scan"}, "is_disabled": 0, "fusion_lat": 0.0, "name": "550aeb43767d47e8a6d3643d800383d0", "fusion_lon": 0.0}, {"is_reserved": 0, "type": "electric_scooter", "bike_id": "9fe7bce40fa38c58e6a694511a9d3309", "lat": 38.918199333333334, "lon": -77.04178216666666, "rental_uris": {"android": "https://dc.lft.to/lastmile_qr_scan", "ios": "https://dc.lft.to/lastmile_qr_scan"}, "is_disabled": 0, "fusion_lat": 0.0, "name": "9fe7bce40fa38c58e6a694511a9d3309", "fusion_lon": 0.0}, {"is_reserved": 0, "type": "electric_bike", "bike_id": "b8a63425a749160c3ff6111a659872ee", "lat": 38.887102666666664, "lon": -77.00360966666666, "rental_uris": {"android": "https://dc.lft.to/lastmile_qr_scan", "ios": "https://dc.lft.to/lastmile_qr_scan"}, "is_disabled": 0, "fusion_lat": 0.0, "name": "b8a63425a749160c3ff6111a659872ee", "fusion_lon": 0.0}, {"is_reserved": 0, "type": "electric_scooter", "bike_id": "a0553073a5ce61815a045450620e07ab", "lat": 38.91482416666667, "lon": -77.032366, "rental_uris": {"android": "https://dc.lft.to/lastmile_qr_scan", "ios": "https://dc.lft.to/lastmile_qr_scan"}, "is_disabled": 0, "fusion_lat": 0.0, "name": "a0553073a5ce61815a045450620e07ab", "fusion_lon": 0.0}, {"is_reserved": 0, "type": "electric_scooter", "bike_id": "71463e0b844181b1eaf9345f4bfabf52", "lat": 38.933565333333334, "lon": -77.02418233333333, "rental_uris": {"android": "https://dc.lft.to/lastmile_qr_scan", "ios": "https://dc.lft.to/lastmile_qr_scan"}, "is_disabled": 0, "fusion_lat": 0.0, "name": "71463e0b844181b1eaf9345f4bfabf52", "fusion_lon": 0.0}, {"is_reserved": 0, "type": "electric_bike", "bike_id": "feea535f9f1a07e4040c072423993346", "lat": 39.094500833333335, "lon": -77.13461333333333, "rental_uris": {"android": "https://dc.lft.to/lastmile_qr_scan", "ios": "https://dc.lft.to/lastmile_qr_scan"}, "is_disabled": 0, "fusion_lat": 0.0, "name": "feea535f9f1a07e4040c072423993346", "fusion_lon": 0.0}, {"is_reserved": 0, "type": "electric_scooter", "bike_id": "3ed4bd1ca44e37a5d62d2427ecd80f45", "lat": 38.90567583333333, "lon": -77.028031, "rental_uris": {"android": "https://dc.lft.to/lastmile_qr_scan", "ios": "https://dc.lft.to/lastmile_qr_scan"}, "is_disabled": 0, "fusion_lat": 0.0, "name": "3ed4bd1ca44e37a5d62d2427ecd80f45", "fusion_lon": 0.0}, {"is_reserved": 0, "type": "electric_scooter", "bike_id": "4160956082d570357e9285cc6de0f33d", "lat": 38.931371666666664, "lon": -77.03350983333333, "rental_uris": {"android": "https://dc.lft.to/lastmile_qr_scan", "ios": "https://dc.lft.to/lastmile_qr_scan"}, "is_disabled": 0, "fusion_lat": 0.0, "name": "4160956082d570357e9285cc6de0f33d", "fusion_lon": 0.0}, {"is_reserved": 0, "type": "electric_scooter", "bike_id": "d60069828d74b5f80272c6a4fc376f9d", "lat": 38.930189666666664, "lon": -77.03789933333333, "rental_uris": {"android": "https://dc.lft.to/lastmile_qr_scan", "ios": "https://dc.lft.to/lastmile_qr_scan"}, "is_disabled": 0, "fusion_lat": 0.0, "name": "d60069828d74b5f80272c6a4fc376f9d", "fusion_lon": 0.0}, {"is_reserved": 0, "type": "electric_scooter", "bike_id": "f06ebdfc19ef25f8504a59806ced2843", "lat": 38.927839166666665, "lon": -77.03603083333333, "rental_uris": {"android": "https://dc.lft.to/lastmile_qr_scan", "ios": "https://dc.lft.to/lastmile_qr_scan"}, "is_disabled": 0, "fusion_lat": 0.0, "name": "f06ebdfc19ef25f8504a59806ced2843", "fusion_lon": 0.0}, {"is_reserved": 0, "type": "electric_scooter", "bike_id": "c8bd727693f5dfe91fd87fde3cd25a98", "lat": 38.8644875, "lon": -76.991209, "rental_uris": {"android": "https://dc.lft.to/lastmile_qr_scan", "ios": "https://dc.lft.to/lastmile_qr_scan"}, "is_disabled": 0, "fusion_lat": 0.0, "name": "c8bd727693f5dfe91fd87fde3cd25a98", "fusion_lon": 0.0}, {"is_reserved": 0, "type": "electric_scooter", "bike_id": "c4d162007b00f158a697f8838d8f26f9", "lat": 38.929050333333336, "lon": -77.0322785, "rental_uris": {"android": "https://dc.lft.to/lastmile_qr_scan", "ios": "https://dc.lft.to/lastmile_qr_scan"}, "is_disabled": 0, "fusion_lat": 0.0, "name": "c4d162007b00f158a697f8838d8f26f9", "fusion_lon": 0.0}, {"is_reserved": 0, "type": "electric_scooter", "bike_id": "fd472a4a7936753db0b01b97cfaa9e9f", "lat": 38.900771, "lon": -77.05024033333333, "rental_uris": {"android": "https://dc.lft.to/lastmile_qr_scan", "ios": "https://dc.lft.to/lastmile_qr_scan"}, "is_disabled": 0, "fusion_lat": 0.0, "name": "fd472a4a7936753db0b01b97cfaa9e9f", "fusion_lon": 0.0}, {"is_reserved": 0, "type": "electric_scooter", "bike_id": "5d49d807d1680056fc1e821a3028e587", "lat": 38.923759, "lon": -77.08053716666667, "rental_uris": {"android": "https://dc.lft.to/lastmile_qr_scan", "ios": "https://dc.lft.to/lastmile_qr_scan"}, "is_disabled": 0, "fusion_lat": 0.0, "name": "5d49d807d1680056fc1e821a3028e587", "fusion_lon": 0.0}, {"is_reserved": 0, "type": "electric_scooter", "bike_id": "e2e67b7357d004de48027fa42be05fed", "lat": 38.9248595, "lon": -77.02816233333333, "rental_uris": {"android": "https://dc.lft.to/lastmile_qr_scan", "ios": "https://dc.lft.to/lastmile_qr_scan"}, "is_disabled": 0, "fusion_lat": 0.0, "name": "e2e67b7357d004de48027fa42be05fed", "fusion_lon": 0.0}, {"is_reserved": 0, "type": "electric_scooter", "bike_id": "8158affec0ec65a91698a49c391d3d0c", "lat": 38.895318, "lon": -77.033522, "rental_uris": {"android": "https://dc.lft.to/lastmile_qr_scan", "ios": "https://dc.lft.to/lastmile_qr_scan"}, "is_disabled": 0, "fusion_lat": 0.0, "name": "8158affec0ec65a91698a49c391d3d0c", "fusion_lon": 0.0}, {"is_reserved": 0, "type": "electric_scooter", "bike_id": "d9d44137528d02c2a47ee6f16be191a4", "lat": 38.905311, "lon": -77.06147333333334, "rental_uris": {"android": "https://dc.lft.to/lastmile_qr_scan", "ios": "https://dc.lft.to/lastmile_qr_scan"}, "is_disabled": 0, "fusion_lat": 0.0, "name": "d9d44137528d02c2a47ee6f16be191a4", "fusion_lon": 0.0}, {"is_reserved": 0, "type": "electric_scooter", "bike_id": "46db67a9dcd39eb11acd5bd124cbc2d5", "lat": 38.936454166666664, "lon": -77.06009933333333, "rental_uris": {"android": "https://dc.lft.to/lastmile_qr_scan", "ios": "https://dc.lft.to/lastmile_qr_scan"}, "is_disabled": 0, "fusion_lat": 0.0, "name": "46db67a9dcd39eb11acd5bd124cbc2d5", "fusion_lon": 0.0}, {"is_reserved": 0, "type": "electric_scooter", "bike_id": "bfd28805e3215b719865fee227cc303d", "lat": 38.97297233333333, "lon": -77.0362905, "rental_uris": {"android": "https://dc.lft.to/lastmile_qr_scan", "ios": "https://dc.lft.to/lastmile_qr_scan"}, "is_disabled": 0, "fusion_lat": 0.0, "name": "bfd28805e3215b719865fee227cc303d", "fusion_lon": 0.0}, {"is_reserved": 0, "type": "electric_scooter", "bike_id": "a950d1dbdd5b64cf4f47fd5c0770ba87", "lat": 38.91797316666667, "lon": -77.03436183333334, "rental_uris": {"android": "https://dc.lft.to/lastmile_qr_scan", "ios": "https://dc.lft.to/lastmile_qr_scan"}, "is_disabled": 0, "fusion_lat": 0.0, "name": "a950d1dbdd5b64cf4f47fd5c0770ba87", "fusion_lon": 0.0}, {"is_reserved": 0, "type": "electric_scooter", "bike_id": "97495262415cb6654eaa2fe1993f5229", "lat": 38.919291666666666, "lon": -77.019771, "rental_uris": {"android": "https://dc.lft.to/lastmile_qr_scan", "ios": "https://dc.lft.to/lastmile_qr_scan"}, "is_disabled": 0, "fusion_lat": 0.0, "name": "97495262415cb6654eaa2fe1993f5229", "fusion_lon": 0.0}, {"is_reserved": 0, "type": "electric_scooter", "bike_id": "806f82c5015968904d42c452bbb7bd65", "lat": 38.899149, "lon": -77.0338025, "rental_uris": {"android": "https://dc.lft.to/lastmile_qr_scan", "ios": "https://dc.lft.to/lastmile_qr_scan"}, "is_disabled": 0, "fusion_lat": 0.0, "name": "806f82c5015968904d42c452bbb7bd65", "fusion_lon": 0.0}, {"is_reserved": 0, "type": "electric_scooter", "bike_id": "64afc26ec6925c843af069f64c2fdf2c", "lat": 38.89604283333333, "lon": -77.044807, "rental_uris": {"android": "https://dc.lft.to/lastmile_qr_scan", "ios": "https://dc.lft.to/lastmile_qr_scan"}, "is_disabled": 0, "fusion_lat": 0.0, "name": "64afc26ec6925c843af069f64c2fdf2c", "fusion_lon": 0.0}, {"is_reserved": 0, "type": "electric_scooter", "bike_id": "f5f748a7baa35c76b73bb883c5c4f386", "lat": 38.936467666666665, "lon": -77.024509, "rental_uris": {"android": "https://dc.lft.to/lastmile_qr_scan", "ios": "https://dc.lft.to/lastmile_qr_scan"}, "is_disabled": 0, "fusion_lat": 0.0, "name": "f5f748a7baa35c76b73bb883c5c4f386", "fusion_lon": 0.0}, {"is_reserved": 0, "type": "electric_bike", "bike_id": "e6ee7a41c52ef0553cf816fc3d7724c7", "lat": 38.9211865, "lon": -77.00953433333333, "rental_uris": {"android": "https://dc.lft.to/lastmile_qr_scan", "ios": "https://dc.lft.to/lastmile_qr_scan"}, "is_disabled": 0, "fusion_lat": 0.0, "name": "e6ee7a41c52ef0553cf816fc3d7724c7", "fusion_lon": 0.0}, {"is_reserved": 0, "type": "electric_scooter", "bike_id": "97a43add0eacdc3a2f1a04e9dc2b915a", "lat": 38.9126625, "lon": -77.04843416666667, "rental_uris": {"android": "https://dc.lft.to/lastmile_qr_scan", "ios": "https://dc.lft.to/lastmile_qr_scan"}, "is_disabled": 0, "fusion_lat": 0.0, "name": "97a43add0eacdc3a2f1a04e9dc2b915a", "fusion_lon": 0.0}, {"is_reserved": 0, "type": "electric_scooter", "bike_id": "b4bad4b7d28da00ec8821290b332223e", "lat": 38.907277, "lon": -77.00706733333334, "rental_uris": {"android": "https://dc.lft.to/lastmile_qr_scan", "ios": "https://dc.lft.to/lastmile_qr_scan"}, "is_disabled": 0, "fusion_lat": 0.0, "name": "b4bad4b7d28da00ec8821290b332223e", "fusion_lon": 0.0}, {"is_reserved": 0, "type": "electric_scooter", "bike_id": "191b28c0f2cd17dc4adad9cc395c55a7", "lat": 38.936393333333335, "lon": -77.08320583333334, "rental_uris": {"android": "https://dc.lft.to/lastmile_qr_scan", "ios": "https://dc.lft.to/lastmile_qr_scan"}, "is_disabled": 0, "fusion_lat": 0.0, "name": "191b28c0f2cd17dc4adad9cc395c55a7", "fusion_lon": 0.0}, {"is_reserved": 0, "type": "electric_scooter", "bike_id": "ca89b718385b234c3ac765febdf20716", "lat": 38.92410183333333, "lon": -77.04032233333334, "rental_uris": {"android": "https://dc.lft.to/lastmile_qr_scan", "ios": "https://dc.lft.to/lastmile_qr_scan"}, "is_disabled": 0, "fusion_lat": 0.0, "name": "ca89b718385b234c3ac765febdf20716", "fusion_lon": 0.0}, {"is_reserved": 0, "type": "electric_scooter", "bike_id": "cfc037013662686bda8c1965f7f59204", "lat": 38.905458833333334, "lon": -77.0591675, "rental_uris": {"android": "https://dc.lft.to/lastmile_qr_scan", "ios": "https://dc.lft.to/lastmile_qr_scan"}, "is_disabled": 0, "fusion_lat": 0.0, "name": "cfc037013662686bda8c1965f7f59204", "fusion_lon": 0.0}, {"is_reserved": 0, "type": "electric_scooter", "bike_id": "d576473cc92451d5380c173ce1b5e0a2", "lat": 38.905403, "lon": -77.058102, "rental_uris": {"android": "https://dc.lft.to/lastmile_qr_scan", "ios": "https://dc.lft.to/lastmile_qr_scan"}, "is_disabled": 0, "fusion_lat": 0.0, "name": "d576473cc92451d5380c173ce1b5e0a2", "fusion_lon": 0.0}, {"is_reserved": 0, "type": "electric_scooter", "bike_id": "ea89a6847fb1e91972778592f8fe17c4", "lat": 38.9014985, "lon": -77.05937083333333, "rental_uris": {"android": "https://dc.lft.to/lastmile_qr_scan", "ios": "https://dc.lft.to/lastmile_qr_scan"}, "is_disabled": 0, "fusion_lat": 0.0, "name": "ea89a6847fb1e91972778592f8fe17c4", "fusion_lon": 0.0}, {"is_reserved": 0, "type": "electric_scooter", "bike_id": "e64f51cbf318a686ec3fb02362526c3c", "lat": 38.906412, "lon": -77.04867, "rental_uris": {"android": "https://dc.lft.to/lastmile_qr_scan", "ios": "https://dc.lft.to/lastmile_qr_scan"}, "is_disabled": 0, "fusion_lat": 0.0, "name": "e64f51cbf318a686ec3fb02362526c3c", "fusion_lon": 0.0}, {"is_reserved": 0, "type": "electric_scooter", "bike_id": "f5107aaf02a761c6245afe0e4ce7bec2", "lat": 38.9128845, "lon": -77.02303383333333, "rental_uris": {"android": "https://dc.lft.to/lastmile_qr_scan", "ios": "https://dc.lft.to/lastmile_qr_scan"}, "is_disabled": 0, "fusion_lat": 0.0, "name": "f5107aaf02a761c6245afe0e4ce7bec2", "fusion_lon": 0.0}, {"is_reserved": 0, "type": "electric_scooter", "bike_id": "6a4c4b74d38b214dade896f63eae1c03", "lat": 38.91631816666667, "lon": -77.00644833333334, "rental_uris": {"android": "https://dc.lft.to/lastmile_qr_scan", "ios": "https://dc.lft.to/lastmile_qr_scan"}, "is_disabled": 0, "fusion_lat": 0.0, "name": "6a4c4b74d38b214dade896f63eae1c03", "fusion_lon": 0.0}, {"is_reserved": 0, "type": "electric_scooter", "bike_id": "d174c225df20bdc7b08c999c6694138c", "lat": 38.93699516666667, "lon": -77.0559825, "rental_uris": {"android": "https://dc.lft.to/lastmile_qr_scan", "ios": "https://dc.lft.to/lastmile_qr_scan"}, "is_disabled": 0, "fusion_lat": 0.0, "name": "d174c225df20bdc7b08c999c6694138c", "fusion_lon": 0.0}, {"is_reserved": 0, "type": "electric_scooter", "bike_id": "773a94c43125a7823793fa662ec4bf8a", "lat": 38.90872516666667, "lon": -77.03462516666667, "rental_uris": {"android": "https://dc.lft.to/lastmile_qr_scan", "ios": "https://dc.lft.to/lastmile_qr_scan"}, "is_disabled": 0, "fusion_lat": 0.0, "name": "773a94c43125a7823793fa662ec4bf8a", "fusion_lon": 0.0}, {"is_reserved": 0, "type": "electric_scooter", "bike_id": "9f9b01ac0775deadd4fc971f905f4af0", "lat": 38.905447333333335, "lon": -77.05920683333333, "rental_uris": {"android": "https://dc.lft.to/lastmile_qr_scan", "ios": "https://dc.lft.to/lastmile_qr_scan"}, "is_disabled": 0, "fusion_lat": 0.0, "name": "9f9b01ac0775deadd4fc971f905f4af0", "fusion_lon": 0.0}, {"is_reserved": 0, "type": "electric_scooter", "bike_id": "c6f102499a3974f42185c5857e46c33d", "lat": 38.8979655, "lon": -77.048779, "rental_uris": {"android": "https://dc.lft.to/lastmile_qr_scan", "ios": "https://dc.lft.to/lastmile_qr_scan"}, "is_disabled": 0, "fusion_lat": 0.0, "name": "c6f102499a3974f42185c5857e46c33d", "fusion_lon": 0.0}, {"is_reserved": 0, "type": "electric_scooter", "bike_id": "401c76b527b70c63550f66e8e6a22cc4", "lat": 38.9261985, "lon": -77.05655166666666, "rental_uris": {"android": "https://dc.lft.to/lastmile_qr_scan", "ios": "https://dc.lft.to/lastmile_qr_scan"}, "is_disabled": 0, "fusion_lat": 0.0, "name": "401c76b527b70c63550f66e8e6a22cc4", "fusion_lon": 0.0}, {"is_reserved": 0, "type": "electric_scooter", "bike_id": "daf0bc119841c836703fbb63f85e4381", "lat": 38.9222635, "lon": -77.04331383333333, "rental_uris": {"android": "https://dc.lft.to/lastmile_qr_scan", "ios": "https://dc.lft.to/lastmile_qr_scan"}, "is_disabled": 0, "fusion_lat": 0.0, "name": "daf0bc119841c836703fbb63f85e4381", "fusion_lon": 0.0}, {"is_reserved": 0, "type": "electric_scooter", "bike_id": "a487a72a766fcb9984fc31958464f4a0", "lat": 38.898989, "lon": -77.03954566666667, "rental_uris": {"android": "https://dc.lft.to/lastmile_qr_scan", "ios": "https://dc.lft.to/lastmile_qr_scan"}, "is_disabled": 0, "fusion_lat": 0.0, "name": "a487a72a766fcb9984fc31958464f4a0", "fusion_lon": 0.0}, {"is_reserved": 0, "type": "electric_scooter", "bike_id": "bc952d2fa718992d7f120a1d98ebbe2a", "lat": 38.910781166666666, "lon": -77.016238, "rental_uris": {"android": "https://dc.lft.to/lastmile_qr_scan", "ios": "https://dc.lft.to/lastmile_qr_scan"}, "is_disabled": 0, "fusion_lat": 0.0, "name": "bc952d2fa718992d7f120a1d98ebbe2a", "fusion_lon": 0.0}, {"is_reserved": 0, "type": "electric_scooter", "bike_id": "556611c208889b92408d42119bdd3f03", "lat": 38.895194833333335, "lon": -76.9920905, "rental_uris": {"android": "https://dc.lft.to/lastmile_qr_scan", "ios": "https://dc.lft.to/lastmile_qr_scan"}, "is_disabled": 0, "fusion_lat": 0.0, "name": "556611c208889b92408d42119bdd3f03", "fusion_lon": 0.0}, {"is_reserved": 0, "type": "electric_scooter", "bike_id": "04e35a97e2139fc683bbb908c1deae83", "lat": 38.896331, "lon": -77.00211966666667, "rental_uris": {"android": "https://dc.lft.to/lastmile_qr_scan", "ios": "https://dc.lft.to/lastmile_qr_scan"}, "is_disabled": 0, "fusion_lat": 0.0, "name": "04e35a97e2139fc683bbb908c1deae83", "fusion_lon": 0.0}, {"is_reserved": 0, "type": "electric_scooter", "bike_id": "6fdecb103bc728ee83583abb36ab9b3c", "lat": 38.899932, "lon": -77.0287755, "rental_uris": {"android": "https://dc.lft.to/lastmile_qr_scan", "ios": "https://dc.lft.to/lastmile_qr_scan"}, "is_disabled": 0, "fusion_lat": 0.0, "name": "6fdecb103bc728ee83583abb36ab9b3c", "fusion_lon": 0.0}, {"is_reserved": 0, "type": "electric_scooter", "bike_id": "589e0081fa5a6f265a4e5de1a6869c50", "lat": 38.89889566666667, "lon": -77.01624516666666, "rental_uris": {"android": "https://dc.lft.to/lastmile_qr_scan", "ios": "https://dc.lft.to/lastmile_qr_scan"}, "is_disabled": 0, "fusion_lat": 0.0, "name": "589e0081fa5a6f265a4e5de1a6869c50", "fusion_lon": 0.0}, {"is_reserved": 0, "type": "electric_scooter", "bike_id": "85b76f42fc6ef2f14328c9976f20a9fc", "lat": 38.8973675, "lon": -77.017656, "rental_uris": {"android": "https://dc.lft.to/lastmile_qr_scan", "ios": "https://dc.lft.to/lastmile_qr_scan"}, "is_disabled": 0, "fusion_lat": 0.0, "name": "85b76f42fc6ef2f14328c9976f20a9fc", "fusion_lon": 0.0}, {"is_reserved": 0, "type": "electric_scooter", "bike_id": "5d7b023452542b11ba743ac0c7bf563b", "lat": 38.898823, "lon": -77.04886616666667, "rental_uris": {"android": "https://dc.lft.to/lastmile_qr_scan", "ios": "https://dc.lft.to/lastmile_qr_scan"}, "is_disabled": 0, "fusion_lat": 0.0, "name": "5d7b023452542b11ba743ac0c7bf563b", "fusion_lon": 0.0}, {"is_reserved": 0, "type": "electric_scooter", "bike_id": "df4c76f577c70ed1d848c70206eecd4e", "lat": 38.928041666666665, "lon": -77.03647866666667, "rental_uris": {"android": "https://dc.lft.to/lastmile_qr_scan", "ios": "https://dc.lft.to/lastmile_qr_scan"}, "is_disabled": 0, "fusion_lat": 0.0, "name": "df4c76f577c70ed1d848c70206eecd4e", "fusion_lon": 0.0}, {"is_reserved": 0, "type": "electric_scooter", "bike_id": "e49f5fd69118c30cd4a4ddddc43fc1d4", "lat": 38.892230833333336, "lon": -77.01602616666666, "rental_uris": {"android": "https://dc.lft.to/lastmile_qr_scan", "ios": "https://dc.lft.to/lastmile_qr_scan"}, "is_disabled": 0, "fusion_lat": 0.0, "name": "e49f5fd69118c30cd4a4ddddc43fc1d4", "fusion_lon": 0.0}, {"is_reserved": 0, "type": "electric_scooter", "bike_id": "fb14038a06550174dea0d3846eff50a4", "lat": 38.90037933333333, "lon": -76.99041733333334, "rental_uris": {"android": "https://dc.lft.to/lastmile_qr_scan", "ios": "https://dc.lft.to/lastmile_qr_scan"}, "is_disabled": 0, "fusion_lat": 0.0, "name": "fb14038a06550174dea0d3846eff50a4", "fusion_lon": 0.0}, {"is_reserved": 0, "type": "electric_scooter", "bike_id": "2b58c1b016ef63779cbd04c967fb86b6", "lat": 38.9126415, "lon": -77.0339075, "rental_uris": {"android": "https://dc.lft.to/lastmile_qr_scan", "ios": "https://dc.lft.to/lastmile_qr_scan"}, "is_disabled": 0, "fusion_lat": 0.0, "name": "2b58c1b016ef63779cbd04c967fb86b6", "fusion_lon": 0.0}, {"is_reserved": 0, "type": "electric_scooter", "bike_id": "c63c631f3a5ac8beb4f041d0e9bbd25b", "lat": 38.9240315, "lon": -76.95157716666667, "rental_uris": {"android": "https://dc.lft.to/lastmile_qr_scan", "ios": "https://dc.lft.to/lastmile_qr_scan"}, "is_disabled": 0, "fusion_lat": 0.0, "name": "c63c631f3a5ac8beb4f041d0e9bbd25b", "fusion_lon": 0.0}, {"is_reserved": 0, "type": "electric_scooter", "bike_id": "a8a5cf15d81a52bd7d6876295ad40cb8", "lat": 38.95960316666667, "lon": -77.07263233333333, "rental_uris": {"android": "https://dc.lft.to/lastmile_qr_scan", "ios": "https://dc.lft.to/lastmile_qr_scan"}, "is_disabled": 0, "fusion_lat": 0.0, "name": "a8a5cf15d81a52bd7d6876295ad40cb8", "fusion_lon": 0.0}, {"is_reserved": 0, "type": "electric_scooter", "bike_id": "9bb4e74c56d3df13edf3473f0b2bf961", "lat": 38.876463, "lon": -77.00671966666667, "rental_uris": {"android": "https://dc.lft.to/lastmile_qr_scan", "ios": "https://dc.lft.to/lastmile_qr_scan"}, "is_disabled": 0, "fusion_lat": 0.0, "name": "9bb4e74c56d3df13edf3473f0b2bf961", "fusion_lon": 0.0}, {"is_reserved": 0, "type": "electric_scooter", "bike_id": "c8e49c5a7c9933b8698f3768ce6432ab", "lat": 38.924905833333334, "lon": -77.02710133333333, "rental_uris": {"android": "https://dc.lft.to/lastmile_qr_scan", "ios": "https://dc.lft.to/lastmile_qr_scan"}, "is_disabled": 0, "fusion_lat": 0.0, "name": "c8e49c5a7c9933b8698f3768ce6432ab", "fusion_lon": 0.0}, {"is_reserved": 0, "type": "electric_scooter", "bike_id": "ba90ff81683cbee39bfb67a3bf1e1f7d", "lat": 38.8953575, "lon": -77.0398575, "rental_uris": {"android": "https://dc.lft.to/lastmile_qr_scan", "ios": "https://dc.lft.to/lastmile_qr_scan"}, "is_disabled": 0, "fusion_lat": 0.0, "name": "ba90ff81683cbee39bfb67a3bf1e1f7d", "fusion_lon": 0.0}, {"is_reserved": 0, "type": "electric_scooter", "bike_id": "2401bda6b2c64cc398ae6d14e19b724b", "lat": 38.896261, "lon": -77.026236, "rental_uris": {"android": "https://dc.lft.to/lastmile_qr_scan", "ios": "https://dc.lft.to/lastmile_qr_scan"}, "is_disabled": 0, "fusion_lat": 0.0, "name": "2401bda6b2c64cc398ae6d14e19b724b", "fusion_lon": 0.0}, {"is_reserved": 0, "type": "electric_scooter", "bike_id": "1a4352062f4749175ea3bf2df66d5b8e", "lat": 38.89655, "lon": -77.032992, "rental_uris": {"android": "https://dc.lft.to/lastmile_qr_scan", "ios": "https://dc.lft.to/lastmile_qr_scan"}, "is_disabled": 0, "fusion_lat": 0.0, "name": "1a4352062f4749175ea3bf2df66d5b8e", "fusion_lon": 0.0}, {"is_reserved": 0, "type": "electric_scooter", "bike_id": "958b2c9e09b6fab75023410407e35a12", "lat": 38.919143, "lon": -76.998598, "rental_uris": {"android": "https://dc.lft.to/lastmile_qr_scan", "ios": "https://dc.lft.to/lastmile_qr_scan"}, "is_disabled": 0, "fusion_lat": 0.0, "name": "958b2c9e09b6fab75023410407e35a12", "fusion_lon": 0.0}, {"is_reserved": 0, "type": "electric_bike", "bike_id": "11482bb4ddd93bd28555f86016863b01", "lat": 38.898573999999996, "lon": -77.01967333333333, "rental_uris": {"android": "https://dc.lft.to/lastmile_qr_scan", "ios": "https://dc.lft.to/lastmile_qr_scan"}, "is_disabled": 0, "fusion_lat": 0.0, "name": "11482bb4ddd93bd28555f86016863b01", "fusion_lon": 0.0}, {"is_reserved": 0, "type": "electric_scooter", "bike_id": "bdd407496e0d76d2aa4ffeea99e12c5c", "lat": 38.88700766666667, "lon": -77.020001, "rental_uris": {"android": "https://dc.lft.to/lastmile_qr_scan", "ios": "https://dc.lft.to/lastmile_qr_scan"}, "is_disabled": 0, "fusion_lat": 0.0, "name": "bdd407496e0d76d2aa4ffeea99e12c5c", "fusion_lon": 0.0}, {"is_reserved": 0, "type": "electric_scooter", "bike_id": "295705fa5b086fa6241cfc3c3dec1c3e", "lat": 38.87714833333333, "lon": -77.017542, "rental_uris": {"android": "https://dc.lft.to/lastmile_qr_scan", "ios": "https://dc.lft.to/lastmile_qr_scan"}, "is_disabled": 0, "fusion_lat": 0.0, "name": "295705fa5b086fa6241cfc3c3dec1c3e", "fusion_lon": 0.0}, {"is_reserved": 0, "type": "electric_scooter", "bike_id": "434115b9fe99ab8e96b9f953800b25f1", "lat": 38.9108565, "lon": -77.02191866666666, "rental_uris": {"android": "https://dc.lft.to/lastmile_qr_scan", "ios": "https://dc.lft.to/lastmile_qr_scan"}, "is_disabled": 0, "fusion_lat": 0.0, "name": "434115b9fe99ab8e96b9f953800b25f1", "fusion_lon": 0.0}, {"is_reserved": 0, "type": "electric_scooter", "bike_id": "c11121b8d649774b3ee76cdf6b4b3639", "lat": 38.959108, "lon": -77.0002525, "rental_uris": {"android": "https://dc.lft.to/lastmile_qr_scan", "ios": "https://dc.lft.to/lastmile_qr_scan"}, "is_disabled": 0, "fusion_lat": 0.0, "name": "c11121b8d649774b3ee76cdf6b4b3639", "fusion_lon": 0.0}, {"is_reserved": 0, "type": "electric_scooter", "bike_id": "c9ac81b15fd0b29bfa1590b40590ff4b", "lat": 38.945944, "lon": -77.02030033333334, "rental_uris": {"android": "https://dc.lft.to/lastmile_qr_scan", "ios": "https://dc.lft.to/lastmile_qr_scan"}, "is_disabled": 0, "fusion_lat": 0.0, "name": "c9ac81b15fd0b29bfa1590b40590ff4b", "fusion_lon": 0.0}, {"is_reserved": 0, "type": "electric_scooter", "bike_id": "6b8c44dd2f2d90be3e4445e08497a578", "lat": 38.90091983333333, "lon": -77.05787416666666, "rental_uris": {"android": "https://dc.lft.to/lastmile_qr_scan", "ios": "https://dc.lft.to/lastmile_qr_scan"}, "is_disabled": 0, "fusion_lat": 0.0, "name": "6b8c44dd2f2d90be3e4445e08497a578", "fusion_lon": 0.0}, {"is_reserved": 0, "type": "electric_scooter", "bike_id": "1e47b71ef487d8b85b0b585319e9a1f5", "lat": 38.926848166666666, "lon": -77.0319785, "rental_uris": {"android": "https://dc.lft.to/lastmile_qr_scan", "ios": "https://dc.lft.to/lastmile_qr_scan"}, "is_disabled": 0, "fusion_lat": 0.0, "name": "1e47b71ef487d8b85b0b585319e9a1f5", "fusion_lon": 0.0}, {"is_reserved": 0, "type": "electric_scooter", "bike_id": "e27ce3f5e99098edf3014eb6d9f4a6d2", "lat": 38.896424833333334, "lon": -77.009268, "rental_uris": {"android": "https://dc.lft.to/lastmile_qr_scan", "ios": "https://dc.lft.to/lastmile_qr_scan"}, "is_disabled": 0, "fusion_lat": 0.0, "name": "e27ce3f5e99098edf3014eb6d9f4a6d2", "fusion_lon": 0.0}, {"is_reserved": 0, "type": "electric_scooter", "bike_id": "2da7850f93174d66a694bdc980ba0c39", "lat": 38.893209666666664, "lon": -77.01229083333334, "rental_uris": {"android": "https://dc.lft.to/lastmile_qr_scan", "ios": "https://dc.lft.to/lastmile_qr_scan"}, "is_disabled": 0, "fusion_lat": 0.0, "name": "2da7850f93174d66a694bdc980ba0c39", "fusion_lon": 0.0}, {"is_reserved": 0, "type": "electric_scooter", "bike_id": "02dfd9b09cc6d5a1a487bdc68a817831", "lat": 38.89342283333333, "lon": -77.0487335, "rental_uris": {"android": "https://dc.lft.to/lastmile_qr_scan", "ios": "https://dc.lft.to/lastmile_qr_scan"}, "is_disabled": 0, "fusion_lat": 0.0, "name": "02dfd9b09cc6d5a1a487bdc68a817831", "fusion_lon": 0.0}, {"is_reserved": 0, "type": "electric_scooter", "bike_id": "2d844e23e9215f874c4a4a1db4e31049", "lat": 38.89640633333333, "lon": -76.92801033333333, "rental_uris": {"android": "https://dc.lft.to/lastmile_qr_scan", "ios": "https://dc.lft.to/lastmile_qr_scan"}, "is_disabled": 0, "fusion_lat": 0.0, "name": "2d844e23e9215f874c4a4a1db4e31049", "fusion_lon": 0.0}, {"is_reserved": 0, "type": "electric_bike", "bike_id": "6452c28cad3f0d3cb58a1a9c45efb2b1", "lat": 38.87334833333333, "lon": -77.01849433333334, "rental_uris": {"android": "https://dc.lft.to/lastmile_qr_scan", "ios": "https://dc.lft.to/lastmile_qr_scan"}, "is_disabled": 0, "fusion_lat": 0.0, "name": "6452c28cad3f0d3cb58a1a9c45efb2b1", "fusion_lon": 0.0}, {"is_reserved": 0, "type": "electric_bike", "bike_id": "c713bc2b55d6fba640212eab41cff5aa", "lat": 38.9426225, "lon": -76.99073233333333, "rental_uris": {"android": "https://dc.lft.to/lastmile_qr_scan", "ios": "https://dc.lft.to/lastmile_qr_scan"}, "is_disabled": 0, "fusion_lat": 0.0, "name": "c713bc2b55d6fba640212eab41cff5aa", "fusion_lon": 0.0}, {"is_reserved": 0, "type": "electric_scooter", "bike_id": "c6ecfb502baaed54653dff98bc4ae4b2", "lat": 38.90192916666667, "lon": -77.02192533333333, "rental_uris": {"android": "https://dc.lft.to/lastmile_qr_scan", "ios": "https://dc.lft.to/lastmile_qr_scan"}, "is_disabled": 0, "fusion_lat": 0.0, "name": "c6ecfb502baaed54653dff98bc4ae4b2", "fusion_lon": 0.0}, {"is_reserved": 0, "type": "electric_scooter", "bike_id": "6dcf4a69ca4e7ff15778ec708132ca9e", "lat": 38.922063333333334, "lon": -77.020339, "rental_uris": {"android": "https://dc.lft.to/lastmile_qr_scan", "ios": "https://dc.lft.to/lastmile_qr_scan"}, "is_disabled": 0, "fusion_lat": 0.0, "name": "6dcf4a69ca4e7ff15778ec708132ca9e", "fusion_lon": 0.0}, {"is_reserved": 0, "type": "electric_scooter", "bike_id": "20984755c268e4d1a4f2c5997d83d2fc", "lat": 38.923805333333334, "lon": -77.0276165, "rental_uris": {"android": "https://dc.lft.to/lastmile_qr_scan", "ios": "https://dc.lft.to/lastmile_qr_scan"}, "is_disabled": 0, "fusion_lat": 0.0, "name": "20984755c268e4d1a4f2c5997d83d2fc", "fusion_lon": 0.0}, {"is_reserved": 0, "type": "electric_scooter", "bike_id": "f9ec575f67e0a0e8698f241c4330a8f3", "lat": 38.9042975, "lon": -77.04908416666666, "rental_uris": {"android": "https://dc.lft.to/lastmile_qr_scan", "ios": "https://dc.lft.to/lastmile_qr_scan"}, "is_disabled": 0, "fusion_lat": 0.0, "name": "f9ec575f67e0a0e8698f241c4330a8f3", "fusion_lon": 0.0}, {"is_reserved": 0, "type": "electric_scooter", "bike_id": "2ce478669dd175be6008db5dc1336871", "lat": 38.91259266666667, "lon": -77.00829816666666, "rental_uris": {"android": "https://dc.lft.to/lastmile_qr_scan", "ios": "https://dc.lft.to/lastmile_qr_scan"}, "is_disabled": 0, "fusion_lat": 0.0, "name": "2ce478669dd175be6008db5dc1336871", "fusion_lon": 0.0}, {"is_reserved": 0, "type": "electric_scooter", "bike_id": "314374ffaa2d671f13a09f2b633f1b9f", "lat": 38.9057525, "lon": -77.00893116666667, "rental_uris": {"android": "https://dc.lft.to/lastmile_qr_scan", "ios": "https://dc.lft.to/lastmile_qr_scan"}, "is_disabled": 0, "fusion_lat": 0.0, "name": "314374ffaa2d671f13a09f2b633f1b9f", "fusion_lon": 0.0}, {"is_reserved": 0, "type": "electric_scooter", "bike_id": "681501726ca1669f7f78aedcbf6eee03", "lat": 38.910225833333335, "lon": -76.99373483333333, "rental_uris": {"android": "https://dc.lft.to/lastmile_qr_scan", "ios": "https://dc.lft.to/lastmile_qr_scan"}, "is_disabled": 0, "fusion_lat": 0.0, "name": "681501726ca1669f7f78aedcbf6eee03", "fusion_lon": 0.0}, {"is_reserved": 0, "type": "electric_scooter", "bike_id": "a9dcbe281c0f3bd84d101d15b7f878bd", "lat": 38.935127333333334, "lon": -77.03656433333333, "rental_uris": {"android": "https://dc.lft.to/lastmile_qr_scan", "ios": "https://dc.lft.to/lastmile_qr_scan"}, "is_disabled": 0, "fusion_lat": 0.0, "name": "a9dcbe281c0f3bd84d101d15b7f878bd", "fusion_lon": 0.0}, {"is_reserved": 0, "type": "electric_scooter", "bike_id": "694ccb038da53e597f1aadb8f620b21d", "lat": 38.919720833333336, "lon": -77.0414475, "rental_uris": {"android": "https://dc.lft.to/lastmile_qr_scan", "ios": "https://dc.lft.to/lastmile_qr_scan"}, "is_disabled": 0, "fusion_lat": 0.0, "name": "694ccb038da53e597f1aadb8f620b21d", "fusion_lon": 0.0}, {"is_reserved": 0, "type": "electric_scooter", "bike_id": "7cd3b06d5366793b638f2a687b7408c2", "lat": 38.927967, "lon": -77.02539116666667, "rental_uris": {"android": "https://dc.lft.to/lastmile_qr_scan", "ios": "https://dc.lft.to/lastmile_qr_scan"}, "is_disabled": 0, "fusion_lat": 0.0, "name": "7cd3b06d5366793b638f2a687b7408c2", "fusion_lon": 0.0}, {"is_reserved": 0, "type": "electric_bike", "bike_id": "7434442e7442184c2fe9897634e192a3", "lat": 38.9356275, "lon": -77.03694416666667, "rental_uris": {"android": "https://dc.lft.to/lastmile_qr_scan", "ios": "https://dc.lft.to/lastmile_qr_scan"}, "is_disabled": 0, "fusion_lat": 0.0, "name": "7434442e7442184c2fe9897634e192a3", "fusion_lon": 0.0}, {"is_reserved": 0, "type": "electric_scooter", "bike_id": "c6db757c8228a99f3d40917b1d349dbc", "lat": 38.876675, "lon": -77.00640483333333, "rental_uris": {"android": "https://dc.lft.to/lastmile_qr_scan", "ios": "https://dc.lft.to/lastmile_qr_scan"}, "is_disabled": 0, "fusion_lat": 0.0, "name": "c6db757c8228a99f3d40917b1d349dbc", "fusion_lon": 0.0}, {"is_reserved": 0, "type": "electric_bike", "bike_id": "1f6ab687fea7ad4146ddce3e70166f67", "lat": 38.922528, "lon": -77.030643, "rental_uris": {"android": "https://dc.lft.to/lastmile_qr_scan", "ios": "https://dc.lft.to/lastmile_qr_scan"}, "is_disabled": 0, "fusion_lat": 0.0, "name": "1f6ab687fea7ad4146ddce3e70166f67", "fusion_lon": 0.0}, {"is_reserved": 0, "type": "electric_scooter", "bike_id": "9293b088965d0f8dce6f613290cdfc5f", "lat": 38.91341, "lon": -77.03203283333333, "rental_uris": {"android": "https://dc.lft.to/lastmile_qr_scan", "ios": "https://dc.lft.to/lastmile_qr_scan"}, "is_disabled": 0, "fusion_lat": 0.0, "name": "9293b088965d0f8dce6f613290cdfc5f", "fusion_lon": 0.0}, {"is_reserved": 0, "type": "electric_scooter", "bike_id": "94b8283864a67e0e00c4be55a94eaeba", "lat": 38.92039883333333, "lon": -77.04201883333333, "rental_uris": {"android": "https://dc.lft.to/lastmile_qr_scan", "ios": "https://dc.lft.to/lastmile_qr_scan"}, "is_disabled": 0, "fusion_lat": 0.0, "name": "94b8283864a67e0e00c4be55a94eaeba", "fusion_lon": 0.0}, {"is_reserved": 0, "type": "electric_scooter", "bike_id": "633bf0b48b4ce31eb401ccdb06d41459", "lat": 38.9311345, "lon": -77.02094416666667, "rental_uris": {"android": "https://dc.lft.to/lastmile_qr_scan", "ios": "https://dc.lft.to/lastmile_qr_scan"}, "is_disabled": 0, "fusion_lat": 0.0, "name": "633bf0b48b4ce31eb401ccdb06d41459", "fusion_lon": 0.0}, {"is_reserved": 0, "type": "electric_bike", "bike_id": "417a6106e90167dbbc10102f7c9068ae", "lat": 38.85871266666667, "lon": -77.09561366666667, "rental_uris": {"android": "https://dc.lft.to/lastmile_qr_scan", "ios": "https://dc.lft.to/lastmile_qr_scan"}, "is_disabled": 0, "fusion_lat": 0.0, "name": "417a6106e90167dbbc10102f7c9068ae", "fusion_lon": 0.0}, {"is_reserved": 0, "type": "electric_scooter", "bike_id": "f8bf7cdea11dfca5c3ec788dbf97ac39", "lat": 38.921525, "lon": -77.07215883333333, "rental_uris": {"android": "https://dc.lft.to/lastmile_qr_scan", "ios": "https://dc.lft.to/lastmile_qr_scan"}, "is_disabled": 0, "fusion_lat": 0.0, "name": "f8bf7cdea11dfca5c3ec788dbf97ac39", "fusion_lon": 0.0}, {"is_reserved": 0, "type": "electric_scooter", "bike_id": "d07cc8e4efe050ebb34abe745c8037cf", "lat": 38.90186766666667, "lon": -76.93001916666667, "rental_uris": {"android": "https://dc.lft.to/lastmile_qr_scan", "ios": "https://dc.lft.to/lastmile_qr_scan"}, "is_disabled": 0, "fusion_lat": 0.0, "name": "d07cc8e4efe050ebb34abe745c8037cf", "fusion_lon": 0.0}, {"is_reserved": 0, "type": "electric_scooter", "bike_id": "3dbeb03c676fad8191474916389f2e7b", "lat": 38.93533333333333, "lon": -77.023544, "rental_uris": {"android": "https://dc.lft.to/lastmile_qr_scan", "ios": "https://dc.lft.to/lastmile_qr_scan"}, "is_disabled": 0, "fusion_lat": 0.0, "name": "3dbeb03c676fad8191474916389f2e7b", "fusion_lon": 0.0}, {"is_reserved": 0, "type": "electric_scooter", "bike_id": "f16ab80ff92c193b0c633aee6daf1f0f", "lat": 38.931277333333334, "lon": -77.03876416666667, "rental_uris": {"android": "https://dc.lft.to/lastmile_qr_scan", "ios": "https://dc.lft.to/lastmile_qr_scan"}, "is_disabled": 0, "fusion_lat": 0.0, "name": "f16ab80ff92c193b0c633aee6daf1f0f", "fusion_lon": 0.0}, {"is_reserved": 0, "type": "electric_scooter", "bike_id": "efbf74e7ed58e7afe2c5cce2110c6081", "lat": 38.904641166666664, "lon": -77.062967, "rental_uris": {"android": "https://dc.lft.to/lastmile_qr_scan", "ios": "https://dc.lft.to/lastmile_qr_scan"}, "is_disabled": 0, "fusion_lat": 0.0, "name": "efbf74e7ed58e7afe2c5cce2110c6081", "fusion_lon": 0.0}, {"is_reserved": 0, "type": "electric_scooter", "bike_id": "c50d23282e25c1ac7234a887cf08d7be", "lat": 38.92964583333333, "lon": -77.02108116666666, "rental_uris": {"android": "https://dc.lft.to/lastmile_qr_scan", "ios": "https://dc.lft.to/lastmile_qr_scan"}, "is_disabled": 0, "fusion_lat": 0.0, "name": "c50d23282e25c1ac7234a887cf08d7be", "fusion_lon": 0.0}, {"is_reserved": 0, "type": "electric_scooter", "bike_id": "85cf533a33b165dc2e34487eb1ead297", "lat": 38.95329516666666, "lon": -77.0693415, "rental_uris": {"android": "https://dc.lft.to/lastmile_qr_scan", "ios": "https://dc.lft.to/lastmile_qr_scan"}, "is_disabled": 0, "fusion_lat": 0.0, "name": "85cf533a33b165dc2e34487eb1ead297", "fusion_lon": 0.0}, {"is_reserved": 0, "type": "electric_scooter", "bike_id": "b515158438c415c3bdba247f0f1586fc", "lat": 38.875334, "lon": -77.00055383333333, "rental_uris": {"android": "https://dc.lft.to/lastmile_qr_scan", "ios": "https://dc.lft.to/lastmile_qr_scan"}, "is_disabled": 0, "fusion_lat": 0.0, "name": "b515158438c415c3bdba247f0f1586fc", "fusion_lon": 0.0}, {"is_reserved": 0, "type": "electric_scooter", "bike_id": "c5c059b9932fc0946850ae5d8361ba38", "lat": 38.886286166666665, "lon": -77.02228733333334, "rental_uris": {"android": "https://dc.lft.to/lastmile_qr_scan", "ios": "https://dc.lft.to/lastmile_qr_scan"}, "is_disabled": 0, "fusion_lat": 0.0, "name": "c5c059b9932fc0946850ae5d8361ba38", "fusion_lon": 0.0}, {"is_reserved": 0, "type": "electric_scooter", "bike_id": "5c5f47584eb9932830a2cfb601114687", "lat": 38.92521583333333, "lon": -77.05065216666667, "rental_uris": {"android": "https://dc.lft.to/lastmile_qr_scan", "ios": "https://dc.lft.to/lastmile_qr_scan"}, "is_disabled": 0, "fusion_lat": 0.0, "name": "5c5f47584eb9932830a2cfb601114687", "fusion_lon": 0.0}, {"is_reserved": 0, "type": "electric_bike", "bike_id": "372af80052279fe7c9ac108b20d60f6d", "lat": 38.87005966666667, "lon": -77.23004633333333, "rental_uris": {"android": "https://dc.lft.to/lastmile_qr_scan", "ios": "https://dc.lft.to/lastmile_qr_scan"}, "is_disabled": 0, "fusion_lat": 0.0, "name": "372af80052279fe7c9ac108b20d60f6d", "fusion_lon": 0.0}, {"is_reserved": 0, "type": "electric_scooter", "bike_id": "8e3ad28a5fb41e77c14705912a82d1e8", "lat": 38.896237, "lon": -77.04471066666666, "rental_uris": {"android": "https://dc.lft.to/lastmile_qr_scan", "ios": "https://dc.lft.to/lastmile_qr_scan"}, "is_disabled": 0, "fusion_lat": 0.0, "name": "8e3ad28a5fb41e77c14705912a82d1e8", "fusion_lon": 0.0}, {"is_reserved": 0, "type": "electric_bike", "bike_id": "a70af476551527507776f83650397a6e", "lat": 38.900211166666665, "lon": -76.997443, "rental_uris": {"android": "https://dc.lft.to/lastmile_qr_scan", "ios": "https://dc.lft.to/lastmile_qr_scan"}, "is_disabled": 0, "fusion_lat": 0.0, "name": "a70af476551527507776f83650397a6e", "fusion_lon": 0.0}, {"is_reserved": 0, "type": "electric_scooter", "bike_id": "c45f430e14ec7506d418c6c59089e333", "lat": 38.90017733333333, "lon": -76.9967175, "rental_uris": {"android": "https://dc.lft.to/lastmile_qr_scan", "ios": "https://dc.lft.to/lastmile_qr_scan"}, "is_disabled": 0, "fusion_lat": 0.0, "name": "c45f430e14ec7506d418c6c59089e333", "fusion_lon": 0.0}, {"is_reserved": 0, "type": "electric_scooter", "bike_id": "f06edf0e8729d9a085dc9e3989f477a1", "lat": 38.88530733333333, "lon": -76.98090583333334, "rental_uris": {"android": "https://dc.lft.to/lastmile_qr_scan", "ios": "https://dc.lft.to/lastmile_qr_scan"}, "is_disabled": 0, "fusion_lat": 0.0, "name": "f06edf0e8729d9a085dc9e3989f477a1", "fusion_lon": 0.0}, {"is_reserved": 0, "type": "electric_scooter", "bike_id": "26ca6e59c67e7c69e8a66a7e54e55db9", "lat": 38.86632816666667, "lon": -76.982872, "rental_uris": {"android": "https://dc.lft.to/lastmile_qr_scan", "ios": "https://dc.lft.to/lastmile_qr_scan"}, "is_disabled": 0, "fusion_lat": 0.0, "name": "26ca6e59c67e7c69e8a66a7e54e55db9", "fusion_lon": 0.0}, {"is_reserved": 0, "type": "electric_scooter", "bike_id": "6e5d95126a53f98c4f22469c70d069a3", "lat": 38.9235405, "lon": -77.04151083333333, "rental_uris": {"android": "https://dc.lft.to/lastmile_qr_scan", "ios": "https://dc.lft.to/lastmile_qr_scan"}, "is_disabled": 0, "fusion_lat": 0.0, "name": "6e5d95126a53f98c4f22469c70d069a3", "fusion_lon": 0.0}, {"is_reserved": 0, "type": "electric_bike", "bike_id": "2c160e4519404b73a62a363eb8873f4f", "lat": 38.854205, "lon": -77.0836905, "rental_uris": {"android": "https://dc.lft.to/lastmile_qr_scan", "ios": "https://dc.lft.to/lastmile_qr_scan"}, "is_disabled": 0, "fusion_lat": 0.0, "name": "2c160e4519404b73a62a363eb8873f4f", "fusion_lon": 0.0}, {"is_reserved": 0, "type": "electric_scooter", "bike_id": "9bb8dc000fe6e44a0a31974c12c7067a", "lat": 38.909574166666665, "lon": -77.0315575, "rental_uris": {"android": "https://dc.lft.to/lastmile_qr_scan", "ios": "https://dc.lft.to/lastmile_qr_scan"}, "is_disabled": 0, "fusion_lat": 0.0, "name": "9bb8dc000fe6e44a0a31974c12c7067a", "fusion_lon": 0.0}, {"is_reserved": 0, "type": "electric_scooter", "bike_id": "1ab7592300e59b4439ca7e2f8094953e", "lat": 38.9269055, "lon": -77.0258755, "rental_uris": {"android": "https://dc.lft.to/lastmile_qr_scan", "ios": "https://dc.lft.to/lastmile_qr_scan"}, "is_disabled": 0, "fusion_lat": 0.0, "name": "1ab7592300e59b4439ca7e2f8094953e", "fusion_lon": 0.0}, {"is_reserved": 0, "type": "electric_scooter", "bike_id": "a0526c62a5e36e73b744b8b00649eb85", "lat": 38.9206185, "lon": -77.02355483333334, "rental_uris": {"android": "https://dc.lft.to/lastmile_qr_scan", "ios": "https://dc.lft.to/lastmile_qr_scan"}, "is_disabled": 0, "fusion_lat": 0.0, "name": "a0526c62a5e36e73b744b8b00649eb85", "fusion_lon": 0.0}, {"is_reserved": 0, "type": "electric_scooter", "bike_id": "308185c34151bb390283e1686aa08933", "lat": 38.89701816666667, "lon": -77.004894, "rental_uris": {"android": "https://dc.lft.to/lastmile_qr_scan", "ios": "https://dc.lft.to/lastmile_qr_scan"}, "is_disabled": 0, "fusion_lat": 0.0, "name": "308185c34151bb390283e1686aa08933", "fusion_lon": 0.0}, {"is_reserved": 0, "type": "electric_scooter", "bike_id": "889fc68e552c70c70b8090a558920d29", "lat": 38.900775833333334, "lon": -77.048742, "rental_uris": {"android": "https://dc.lft.to/lastmile_qr_scan", "ios": "https://dc.lft.to/lastmile_qr_scan"}, "is_disabled": 0, "fusion_lat": 0.0, "name": "889fc68e552c70c70b8090a558920d29", "fusion_lon": 0.0}, {"is_reserved": 0, "type": "electric_scooter", "bike_id": "505189572b8a0a2d50296e97e0002e0d", "lat": 38.925998, "lon": -77.02490583333334, "rental_uris": {"android": "https://dc.lft.to/lastmile_qr_scan", "ios": "https://dc.lft.to/lastmile_qr_scan"}, "is_disabled": 0, "fusion_lat": 0.0, "name": "505189572b8a0a2d50296e97e0002e0d", "fusion_lon": 0.0}, {"is_reserved": 0, "type": "electric_scooter", "bike_id": "d7f3c7e394cbe8459da6a98f719b7dc8", "lat": 38.8968, "lon": -77.05045733333333, "rental_uris": {"android": "https://dc.lft.to/lastmile_qr_scan", "ios": "https://dc.lft.to/lastmile_qr_scan"}, "is_disabled": 0, "fusion_lat": 0.0, "name": "d7f3c7e394cbe8459da6a98f719b7dc8", "fusion_lon": 0.0}, {"is_reserved": 0, "type": "electric_scooter", "bike_id": "d992b2bd59cba1b5350e7818aa2aa498", "lat": 38.93918883333333, "lon": -77.0326395, "rental_uris": {"android": "https://dc.lft.to/lastmile_qr_scan", "ios": "https://dc.lft.to/lastmile_qr_scan"}, "is_disabled": 0, "fusion_lat": 0.0, "name": "d992b2bd59cba1b5350e7818aa2aa498", "fusion_lon": 0.0}, {"is_reserved": 0, "type": "electric_bike", "bike_id": "3521c4e804b6515dcc49f3c16716d81d", "lat": 38.84537866666667, "lon": -77.07638233333333, "rental_uris": {"android": "https://dc.lft.to/lastmile_qr_scan", "ios": "https://dc.lft.to/lastmile_qr_scan"}, "is_disabled": 0, "fusion_lat": 0.0, "name": "3521c4e804b6515dcc49f3c16716d81d", "fusion_lon": 0.0}, {"is_reserved": 0, "type": "electric_bike", "bike_id": "9e04f73a81474ae9a4d4a69016f1605c", "lat": 38.90542, "lon": -77.0418955, "rental_uris": {"android": "https://dc.lft.to/lastmile_qr_scan", "ios": "https://dc.lft.to/lastmile_qr_scan"}, "is_disabled": 0, "fusion_lat": 0.0, "name": "9e04f73a81474ae9a4d4a69016f1605c", "fusion_lon": 0.0}, {"is_reserved": 0, "type": "electric_bike", "bike_id": "ffe09f1ebf72ec72af04569328fc0e32", "lat": 38.941592166666666, "lon": -77.00188833333333, "rental_uris": {"android": "https://dc.lft.to/lastmile_qr_scan", "ios": "https://dc.lft.to/lastmile_qr_scan"}, "is_disabled": 0, "fusion_lat": 0.0, "name": "ffe09f1ebf72ec72af04569328fc0e32", "fusion_lon": 0.0}, {"is_reserved": 0, "type": "electric_scooter", "bike_id": "104cbd70ad825daf2e63844e7e8e05d9", "lat": 38.9004075, "lon": -76.9974395, "rental_uris": {"android": "https://dc.lft.to/lastmile_qr_scan", "ios": "https://dc.lft.to/lastmile_qr_scan"}, "is_disabled": 0, "fusion_lat": 0.0, "name": "104cbd70ad825daf2e63844e7e8e05d9", "fusion_lon": 0.0}, {"is_reserved": 0, "type": "electric_scooter", "bike_id": "35582283f19985e9b680716f8f83f14d", "lat": 38.914026, "lon": -77.033177, "rental_uris": {"android": "https://dc.lft.to/lastmile_qr_scan", "ios": "https://dc.lft.to/lastmile_qr_scan"}, "is_disabled": 0, "fusion_lat": 0.0, "name": "35582283f19985e9b680716f8f83f14d", "fusion_lon": 0.0}, {"is_reserved": 0, "type": "electric_scooter", "bike_id": "9dcfb8d50bf0def7ee6302ea89cb44bf", "lat": 38.9278455, "lon": -77.03724833333334, "rental_uris": {"android": "https://dc.lft.to/lastmile_qr_scan", "ios": "https://dc.lft.to/lastmile_qr_scan"}, "is_disabled": 0, "fusion_lat": 0.0, "name": "9dcfb8d50bf0def7ee6302ea89cb44bf", "fusion_lon": 0.0}, {"is_reserved": 0, "type": "electric_scooter", "bike_id": "6a2f8ad52c7b7a36bffbd1501c53646d", "lat": 38.883019, "lon": -76.92924816666667, "rental_uris": {"android": "https://dc.lft.to/lastmile_qr_scan", "ios": "https://dc.lft.to/lastmile_qr_scan"}, "is_disabled": 0, "fusion_lat": 0.0, "name": "6a2f8ad52c7b7a36bffbd1501c53646d", "fusion_lon": 0.0}, {"is_reserved": 0, "type": "electric_bike", "bike_id": "19df823e7586e4a3331605a34d7ed2c2", "lat": 38.803828, "lon": -76.98809316666667, "rental_uris": {"android": "https://dc.lft.to/lastmile_qr_scan", "ios": "https://dc.lft.to/lastmile_qr_scan"}, "is_disabled": 0, "fusion_lat": 0.0, "name": "19df823e7586e4a3331605a34d7ed2c2", "fusion_lon": 0.0}, {"is_reserved": 0, "type": "electric_scooter", "bike_id": "ea3d4240d512dc61d396471287f5891a", "lat": 38.93143166666667, "lon": -77.03316033333333, "rental_uris": {"android": "https://dc.lft.to/lastmile_qr_scan", "ios": "https://dc.lft.to/lastmile_qr_scan"}, "is_disabled": 0, "fusion_lat": 0.0, "name": "ea3d4240d512dc61d396471287f5891a", "fusion_lon": 0.0}, {"is_reserved": 0, "type": "electric_scooter", "bike_id": "56dc1188bb30786f470bd1dfb53bc015", "lat": 38.902733166666664, "lon": -77.0539905, "rental_uris": {"android": "https://dc.lft.to/lastmile_qr_scan", "ios": "https://dc.lft.to/lastmile_qr_scan"}, "is_disabled": 0, "fusion_lat": 0.0, "name": "56dc1188bb30786f470bd1dfb53bc015", "fusion_lon": 0.0}, {"is_reserved": 0, "type": "electric_scooter", "bike_id": "e59e722437d88a576e3aec7114002802", "lat": 38.935089166666664, "lon": -77.02430983333333, "rental_uris": {"android": "https://dc.lft.to/lastmile_qr_scan", "ios": "https://dc.lft.to/lastmile_qr_scan"}, "is_disabled": 0, "fusion_lat": 0.0, "name": "e59e722437d88a576e3aec7114002802", "fusion_lon": 0.0}, {"is_reserved": 0, "type": "electric_scooter", "bike_id": "434c4ba06f7ed9e29b16566be70f7aa4", "lat": 38.86722316666667, "lon": -76.9790665, "rental_uris": {"android": "https://dc.lft.to/lastmile_qr_scan", "ios": "https://dc.lft.to/lastmile_qr_scan"}, "is_disabled": 0, "fusion_lat": 0.0, "name": "434c4ba06f7ed9e29b16566be70f7aa4", "fusion_lon": 0.0}, {"is_reserved": 0, "type": "electric_scooter", "bike_id": "7acf71194ab7bf85eab55f811d3c557b", "lat": 38.87896766666667, "lon": -77.02206883333334, "rental_uris": {"android": "https://dc.lft.to/lastmile_qr_scan", "ios": "https://dc.lft.to/lastmile_qr_scan"}, "is_disabled": 0, "fusion_lat": 0.0, "name": "7acf71194ab7bf85eab55f811d3c557b", "fusion_lon": 0.0}, {"is_reserved": 0, "type": "electric_scooter", "bike_id": "163fe109894f3c40d0731face366964f", "lat": 38.926255166666664, "lon": -77.03782733333334, "rental_uris": {"android": "https://dc.lft.to/lastmile_qr_scan", "ios": "https://dc.lft.to/lastmile_qr_scan"}, "is_disabled": 0, "fusion_lat": 0.0, "name": "163fe109894f3c40d0731face366964f", "fusion_lon": 0.0}, {"is_reserved": 0, "type": "electric_scooter", "bike_id": "51fc585211e0f3db0fef793f23a22574", "lat": 38.94733983333333, "lon": -77.02459166666667, "rental_uris": {"android": "https://dc.lft.to/lastmile_qr_scan", "ios": "https://dc.lft.to/lastmile_qr_scan"}, "is_disabled": 0, "fusion_lat": 0.0, "name": "51fc585211e0f3db0fef793f23a22574", "fusion_lon": 0.0}, {"is_reserved": 0, "type": "electric_scooter", "bike_id": "765cc1d1fe3ffe7e5a72ca81de6e228b", "lat": 38.930801, "lon": -77.035054, "rental_uris": {"android": "https://dc.lft.to/lastmile_qr_scan", "ios": "https://dc.lft.to/lastmile_qr_scan"}, "is_disabled": 0, "fusion_lat": 0.0, "name": "765cc1d1fe3ffe7e5a72ca81de6e228b", "fusion_lon": 0.0}, {"is_reserved": 0, "type": "electric_scooter", "bike_id": "39308696f2484ffb280f07c9477d5b40", "lat": 38.93375983333333, "lon": -77.05730933333334, "rental_uris": {"android": "https://dc.lft.to/lastmile_qr_scan", "ios": "https://dc.lft.to/lastmile_qr_scan"}, "is_disabled": 0, "fusion_lat": 0.0, "name": "39308696f2484ffb280f07c9477d5b40", "fusion_lon": 0.0}, {"is_reserved": 0, "type": "electric_scooter", "bike_id": "cd58e4affca0f270f57b69744cb55183", "lat": 38.8988965, "lon": -77.01609383333333, "rental_uris": {"android": "https://dc.lft.to/lastmile_qr_scan", "ios": "https://dc.lft.to/lastmile_qr_scan"}, "is_disabled": 0, "fusion_lat": 0.0, "name": "cd58e4affca0f270f57b69744cb55183", "fusion_lon": 0.0}, {"is_reserved": 0, "type": "electric_scooter", "bike_id": "73b7ce942691a5e0aacdfb28b9e09506", "lat": 38.89263716666667, "lon": -77.041971, "rental_uris": {"android": "https://dc.lft.to/lastmile_qr_scan", "ios": "https://dc.lft.to/lastmile_qr_scan"}, "is_disabled": 0, "fusion_lat": 0.0, "name": "73b7ce942691a5e0aacdfb28b9e09506", "fusion_lon": 0.0}, {"is_reserved": 0, "type": "electric_scooter", "bike_id": "218db5db77b4f75be6a3476adfaa6b1f", "lat": 38.925665333333335, "lon": -76.9700225, "rental_uris": {"android": "https://dc.lft.to/lastmile_qr_scan", "ios": "https://dc.lft.to/lastmile_qr_scan"}, "is_disabled": 0, "fusion_lat": 0.0, "name": "218db5db77b4f75be6a3476adfaa6b1f", "fusion_lon": 0.0}, {"is_reserved": 0, "type": "electric_scooter", "bike_id": "93f9f2c9f3397e972253439c59342ce3", "lat": 38.929656333333334, "lon": -77.0233775, "rental_uris": {"android": "https://dc.lft.to/lastmile_qr_scan", "ios": "https://dc.lft.to/lastmile_qr_scan"}, "is_disabled": 0, "fusion_lat": 0.0, "name": "93f9f2c9f3397e972253439c59342ce3", "fusion_lon": 0.0}, {"is_reserved": 0, "type": "electric_scooter", "bike_id": "95490dba14c38888697b8672cdda367d", "lat": 38.92077466666667, "lon": -77.02437066666667, "rental_uris": {"android": "https://dc.lft.to/lastmile_qr_scan", "ios": "https://dc.lft.to/lastmile_qr_scan"}, "is_disabled": 0, "fusion_lat": 0.0, "name": "95490dba14c38888697b8672cdda367d", "fusion_lon": 0.0},