{"data": {"bikes": [{"fusion_lon": 0.0, "bike_id": "7af943a3baa7d5e488cc8988d84579ff", "is_disabled": 0, "is_reserved": 0, "lat": 38.913455, "name": "7af943a3baa7d5e488cc8988d84579ff", "rental_uris": {"ios": "https://dc.lft.to/lastmile_qr_scan", "android": "https://dc.lft.to/lastmile_qr_scan"}, "type": "electric_scooter", "fusion_lat": 0.0, "lon": -77.01217566666666}, {"fusion_lon": 0.0, "bike_id": "0c45449ddf075e02270205cec76cfbee", "is_disabled": 0, "is_reserved": 0, "lat": 38.926139, "name": "0c45449ddf075e02270205cec76cfbee", "rental_uris": {"ios": "https://dc.lft.to/lastmile_qr_scan", "android": "https://dc.lft.to/lastmile_qr_scan"}, "type": "electric_scooter", "fusion_lat": 0.0, "lon": -77.0215905}, {"fusion_lon": 0.0, "bike_id": "5277f6256a5c3f893bc554d04edcaf5b", "is_disabled": 0, "is_reserved": 0, "lat": 38.91074666666667, "name": "5277f6256a5c3f893bc554d04edcaf5b", "rental_uris": {"ios": "https://dc.lft.to/lastmile_qr_scan", "android": "https://dc.lft.to/lastmile_qr_scan"}, "type": "electric_scooter", "fusion_lat": 0.0, "lon": -77.01605583333334}, {"fusion_lon": 0.0, "bike_id": "99ef128904c3848509327c269b5ccda0", "is_disabled": 0, "is_reserved": 0, "lat": 38.916686166666665, "name": "99ef128904c3848509327c269b5ccda0", "rental_uris": {"ios": "https://dc.lft.to/lastmile_qr_scan", "android": "https://dc.lft.to/lastmile_qr_scan"}, "type": "electric_scooter", "fusion_lat": 0.0, "lon": -77.0345545}, {"fusion_lon": 0.0, "bike_id": "a66daa38dc07c650c3ad16c022886588", "is_disabled": 0, "is_reserved": 0, "lat": 38.91751716666667, "name": "a66daa38dc07c650c3ad16c022886588", "rental_uris": {"ios": "https://dc.lft.to/lastmile_qr_scan", "android": "https://dc.lft.to/lastmile_qr_scan"}, "type": "electric_scooter", "fusion_lat": 0.0, "lon": -77.02813716666667}, {"fusion_lon": 0.0, "bike_id": "9a1b2af7b82eb996bb5cc9361959673c", "is_disabled": 0, "is_reserved": 0, "lat": 38.92012616666667, "name": "9a1b2af7b82eb996bb5cc9361959673c", "rental_uris": {"ios": "https://dc.lft.to/lastmile_qr_scan", "android": "https://dc.lft.to/lastmile_qr_scan"}, "type": "electric_scooter", "fusion_lat": 0.0, "lon": -77.07164816666666}, {"fusion_lon": 0.0, "bike_id": "e581060002a25ff55b69f9521e897a39", "is_disabled": 0, "is_reserved": 0, "lat": 38.911406, "name": "e581060002a25ff55b69f9521e897a39", "rental_uris": {"ios": "https://dc.lft.to/lastmile_qr_scan", "android": "https://dc.lft.to/lastmile_qr_scan"}, "type": "electric_scooter", "fusion_lat": 0.0, "lon": -77.02800116666667}, {"fusion_lon": 0.0, "bike_id": "332efec3ee0fd268e736037dda9e2f93", "is_disabled": 0, "is_reserved": 0, "lat": 38.918922333333335, "name": "332efec3ee0fd268e736037dda9e2f93", "rental_uris": {"ios": "https://dc.lft.to/lastmile_qr_scan", "android": "https://dc.lft.to/lastmile_qr_scan"}, "type": "electric_scooter", "fusion_lat": 0.0, "lon": -77.04128133333333}, {"fusion_lon": 0.0, "bike_id": "4d4e7b38f5d390836b33b40507e73447", "is_disabled": 0, "is_reserved": 0, "lat": 38.865527166666666, "name": "4d4e7b38f5d390836b33b40507e73447", "rental_uris": {"ios": "https://dc.lft.to/lastmile_qr_scan", "android": "https://dc.lft.to/lastmile_qr_scan"}, "type": "electric_bike", "fusion_lat": 0.0, "lon": -76.94151333333333}, {"fusion_lon": 0.0, "bike_id": "59fe33c6c267326c9f15fc4572dc6de1", "is_disabled": 0, "is_reserved": 0, "lat": 38.918746166666665, "name": "59fe33c6c267326c9f15fc4572dc6de1", "rental_uris": {"ios": "https://dc.lft.to/lastmile_qr_scan", "android": "https://dc.lft.to/lastmile_qr_scan"}, "type": "electric_scooter", "fusion_lat": 0.0, "lon": -77.03498983333333}, {"fusion_lon": 0.0, "bike_id": "e012e8617b9742eb9cb1726f395c03bc", "is_disabled": 0, "is_reserved": 0, "lat": 38.93058533333333, "name": "e012e8617b9742eb9cb1726f395c03bc", "rental_uris": {"ios": "https://dc.lft.to/lastmile_qr_scan", "android": "https://dc.lft.to/lastmile_qr_scan"}, "type": "electric_scooter", "fusion_lat": 0.0, "lon": -77.02983716666667}, {"fusion_lon": 0.0, "bike_id": "87fb67d8e0973b81aac6c98571d462ad", "is_disabled": 0, "is_reserved": 0, "lat": 38.906966833333335, "name": "87fb67d8e0973b81aac6c98571d462ad", "rental_uris": {"ios": "https://dc.lft.to/lastmile_qr_scan", "android": "https://dc.lft.to/lastmile_qr_scan"}, "type": "electric_scooter", "fusion_lat": 0.0, "lon": -77.03595533333333}, {"fusion_lon": 0.0, "bike_id": "af8bb898b6542fdaf8eac4636df76b85", "is_disabled": 0, "is_reserved": 0, "lat": 38.9308465, "name": "af8bb898b6542fdaf8eac4636df76b85", "rental_uris": {"ios": "https://dc.lft.to/lastmile_qr_scan", "android": "https://dc.lft.to/lastmile_qr_scan"}, "type": "electric_scooter", "fusion_lat": 0.0, "lon": -77.02792333333333}, {"fusion_lon": 0.0, "bike_id": "07e2f9228b626e64956115d4b531cd32", "is_disabled": 0, "is_reserved": 0, "lat": 38.813370666666664, "name": "07e2f9228b626e64956115d4b531cd32", "rental_uris": {"ios": "https://dc.lft.to/lastmile_qr_scan", "android": "https://dc.lft.to/lastmile_qr_scan"}, "type": "electric_bike", "fusion_lat": 0.0, "lon": -77.05112183333334}, {"fusion_lon": 0.0, "bike_id": "c957a9b56483b4d4c13069cbecc50722", "is_disabled": 0, "is_reserved": 0, "lat": 38.89861666666667, "name": "c957a9b56483b4d4c13069cbecc50722", "rental_uris": {"ios": "https://dc.lft.to/lastmile_qr_scan", "android": "https://dc.lft.to/lastmile_qr_scan"}, "type": "electric_scooter", "fusion_lat": 0.0, "lon": -77.0257915}, {"fusion_lon": 0.0, "bike_id": "57a35422876aa157954532575d46851e", "is_disabled": 0, "is_reserved": 0, "lat": 38.915981333333335, "name": "57a35422876aa157954532575d46851e", "rental_uris": {"ios": "https://dc.lft.to/lastmile_qr_scan", "android": "https://dc.lft.to/lastmile_qr_scan"}, "type": "electric_scooter", "fusion_lat": 0.0, "lon": -77.01133433333334}, {"fusion_lon": 0.0, "bike_id": "cabc348f11fec3301978436431035e65", "is_disabled": 0, "is_reserved": 0, "lat": 38.9282755, "name": "cabc348f11fec3301978436431035e65", "rental_uris": {"ios": "https://dc.lft.to/lastmile_qr_scan", "android": "https://dc.lft.to/lastmile_qr_scan"}, "type": "electric_scooter", "fusion_lat": 0.0, "lon": -77.02156383333333}, {"fusion_lon": 0.0, "bike_id": "abecc7ba396eda35d83838a00a374458", "is_disabled": 0, "is_reserved": 0, "lat": 38.927178833333336, "name": "abecc7ba396eda35d83838a00a374458", "rental_uris": {"ios": "https://dc.lft.to/lastmile_qr_scan", "android": "https://dc.lft.to/lastmile_qr_scan"}, "type": "electric_scooter", "fusion_lat": 0.0, "lon": -77.02281816666667}, {"fusion_lon": 0.0, "bike_id": "63c595f42258182994ab0e53c8a27505", "is_disabled": 0, "is_reserved": 0, "lat": 38.94204933333333, "name": "63c595f42258182994ab0e53c8a27505", "rental_uris": {"ios": "https://dc.lft.to/lastmile_qr_scan", "android": "https://dc.lft.to/lastmile_qr_scan"}, "type": "electric_scooter", "fusion_lat": 0.0, "lon": -77.02500016666667}, {"fusion_lon": 0.0, "bike_id": "d0e56375c5b76931a4a263d99c93702c", "is_disabled": 0, "is_reserved": 0, "lat": 38.9397125, "name": "d0e56375c5b76931a4a263d99c93702c", "rental_uris": {"ios": "https://dc.lft.to/lastmile_qr_scan", "android": "https://dc.lft.to/lastmile_qr_scan"}, "type": "electric_scooter", "fusion_lat": 0.0, "lon": -77.02941483333333}, {"fusion_lon": 0.0, "bike_id": "7ad4ad66a2a00409d4bbca22088a2eb2", "is_disabled": 0, "is_reserved": 0, "lat": 38.90978966666667, "name": "7ad4ad66a2a00409d4bbca22088a2eb2", "rental_uris": {"ios": "https://dc.lft.to/lastmile_qr_scan", "android": "https://dc.lft.to/lastmile_qr_scan"}, "type": "electric_scooter", "fusion_lat": 0.0, "lon": -77.04875716666666}, {"fusion_lon": 0.0, "bike_id": "079a418d8d48576b6cb0b2ee33fb836a", "is_disabled": 0, "is_reserved": 0, "lat": 38.886081833333336, "name": "079a418d8d48576b6cb0b2ee33fb836a", "rental_uris": {"ios": "https://dc.lft.to/lastmile_qr_scan", "android": "https://dc.lft.to/lastmile_qr_scan"}, "type": "electric_scooter", "fusion_lat": 0.0, "lon": -77.02181716666666}, {"fusion_lon": 0.0, "bike_id": "ee0af1f7f6a01ae23faec928bb37a8b9", "is_disabled": 0, "is_reserved": 0, "lat": 38.90486, "name": "ee0af1f7f6a01ae23faec928bb37a8b9", "rental_uris": {"ios": "https://dc.lft.to/lastmile_qr_scan", "android": "https://dc.lft.to/lastmile_qr_scan"}, "type": "electric_scooter", "fusion_lat": 0.0, "lon": -77.06012883333334}, {"fusion_lon": 0.0, "bike_id": "e1792d261881c86e942a882e5bc428aa", "is_disabled": 0, "is_reserved": 0, "lat": 38.911891833333335, "name": "e1792d261881c86e942a882e5bc428aa", "rental_uris": {"ios": "https://dc.lft.to/lastmile_qr_scan", "android": "https://dc.lft.to/lastmile_qr_scan"}, "type": "electric_scooter", "fusion_lat": 0.0, "lon": -77.00782916666667}, {"fusion_lon": 0.0, "bike_id": "76456a31e3d76d22d0086abe70965020", "is_disabled": 0, "is_reserved": 0, "lat": 38.924785, "name": "76456a31e3d76d22d0086abe70965020", "rental_uris": {"ios": "https://dc.lft.to/lastmile_qr_scan", "android": "https://dc.lft.to/lastmile_qr_scan"}, "type": "electric_scooter", "fusion_lat": 0.0, "lon": -77.03496216666667}, {"fusion_lon": 0.0, "bike_id": "951661efb8189ac3d3e3f1bf26945825", "is_disabled": 0, "is_reserved": 0, "lat": 38.822029, "name": "951661efb8189ac3d3e3f1bf26945825", "rental_uris": {"ios": "https://dc.lft.to/lastmile_qr_scan", "android": "https://dc.lft.to/lastmile_qr_scan"}, "type": "electric_bike", "fusion_lat": 0.0, "lon": -76.9770215}, {"fusion_lon": 0.0, "bike_id": "9e50099f8deb96a322f2925e6e9e0d75", "is_disabled": 0, "is_reserved": 0, "lat": 38.9451415, "name": "9e50099f8deb96a322f2925e6e9e0d75", "rental_uris": {"ios": "https://dc.lft.to/lastmile_qr_scan", "android": "https://dc.lft.to/lastmile_qr_scan"}, "type": "electric_bike", "fusion_lat": 0.0, "lon": -77.00673866666666}, {"fusion_lon": 0.0, "bike_id": "f995debd4ce9166af690d653aa0619c0", "is_disabled": 0, "is_reserved": 0, "lat": 38.93192283333333, "name": "f995debd4ce9166af690d653aa0619c0", "rental_uris": {"ios": "https://dc.lft.to/lastmile_qr_scan", "android": "https://dc.lft.to/lastmile_qr_scan"}, "type": "electric_scooter", "fusion_lat": 0.0, "lon": -77.03749533333334}, {"fusion_lon": 0.0, "bike_id": "0f75cf70c1a5a0bdfcba93353c3b6a61", "is_disabled": 0, "is_reserved": 0, "lat": 38.91753383333333, "name": "0f75cf70c1a5a0bdfcba93353c3b6a61", "rental_uris": {"ios": "https://dc.lft.to/lastmile_qr_scan", "android": "https://dc.lft.to/lastmile_qr_scan"}, "type": "electric_scooter", "fusion_lat": 0.0, "lon": -77.02386333333334}, {"fusion_lon": 0.0, "bike_id": "38a11e472e2f06bb99445445c7f49a2a", "is_disabled": 0, "is_reserved": 0, "lat": 38.9673225, "name": "38a11e472e2f06bb99445445c7f49a2a", "rental_uris": {"ios": "https://dc.lft.to/lastmile_qr_scan", "android": "https://dc.lft.to/lastmile_qr_scan"}, "type": "electric_scooter", "fusion_lat": 0.0, "lon": -77.02529816666667}, {"fusion_lon": 0.0, "bike_id": "c70dacc86c2282e5731f3d39cf2c1ab9", "is_disabled": 0, "is_reserved": 0, "lat": 38.958421333333334, "name": "c70dacc86c2282e5731f3d39cf2c1ab9", "rental_uris": {"ios": "https://dc.lft.to/lastmile_qr_scan", "android": "https://dc.lft.to/lastmile_qr_scan"}, "type": "electric_scooter", "fusion_lat": 0.0, "lon": -77.07173016666667}, {"fusion_lon": 0.0, "bike_id": "cc10b57f4551e3c624a176311b9af4cd", "is_disabled": 0, "is_reserved": 0, "lat": 38.90517083333334, "name": "cc10b57f4551e3c624a176311b9af4cd", "rental_uris": {"ios": "https://dc.lft.to/lastmile_qr_scan", "android": "https://dc.lft.to/lastmile_qr_scan"}, "type": "electric_scooter", "fusion_lat": 0.0, "lon": -76.98399983333333}, {"fusion_lon": 0.0, "bike_id": "253f3743a8bd6408acf1294fcb94a221", "is_disabled": 0, "is_reserved": 0, "lat": 38.924933, "name": "253f3743a8bd6408acf1294fcb94a221", "rental_uris": {"ios": "https://dc.lft.to/lastmile_qr_scan", "android": "https://dc.lft.to/lastmile_qr_scan"}, "type": "electric_scooter", "fusion_lat": 0.0, "lon": -77.03929466666666}, {"fusion_lon": 0.0, "bike_id": "431492b09d005f2edfd03b739fa8aa81", "is_disabled": 0, "is_reserved": 0, "lat": 38.8923005, "name": "431492b09d005f2edfd03b739fa8aa81", "rental_uris": {"ios": "https://dc.lft.to/lastmile_qr_scan", "android": "https://dc.lft.to/lastmile_qr_scan"}, "type": "electric_scooter", "fusion_lat": 0.0, "lon": -77.02415633333334}, {"fusion_lon": 0.0, "bike_id": "41a2bcd843a9172e1d0ecd544d1626b6", "is_disabled": 0, "is_reserved": 0, "lat": 38.897404, "name": "41a2bcd843a9172e1d0ecd544d1626b6", "rental_uris": {"ios": "https://dc.lft.to/lastmile_qr_scan", "android": "https://dc.lft.to/lastmile_qr_scan"}, "type": "electric_scooter", "fusion_lat": 0.0, "lon": -76.99215483333333}, {"fusion_lon": 0.0, "bike_id": "4d87401e924738bc0b46f3b74f57df87", "is_disabled": 0, "is_reserved": 0, "lat": 38.91415333333333, "name": "4d87401e924738bc0b46f3b74f57df87", "rental_uris": {"ios": "https://dc.lft.to/lastmile_qr_scan", "android": "https://dc.lft.to/lastmile_qr_scan"}, "type": "electric_scooter", "fusion_lat": 0.0, "lon": -77.0221515}, {"fusion_lon": 0.0, "bike_id": "3315ac74b956961a9f14f10da8638e6d", "is_disabled": 0, "is_reserved": 0, "lat": 38.914766666666665, "name": "3315ac74b956961a9f14f10da8638e6d", "rental_uris": {"ios": "https://dc.lft.to/lastmile_qr_scan", "android": "https://dc.lft.to/lastmile_qr_scan"}, "type": "electric_scooter", "fusion_lat": 0.0, "lon": -77.0089085}, {"fusion_lon": 0.0, "bike_id": "2c43c87ea5e0615d294ab37cc132725e", "is_disabled": 0, "is_reserved": 0, "lat": 38.90031416666667, "name": "2c43c87ea5e0615d294ab37cc132725e", "rental_uris": {"ios": "https://dc.lft.to/lastmile_qr_scan", "android": "https://dc.lft.to/lastmile_qr_scan"}, "type": "electric_scooter", "fusion_lat": 0.0, "lon": -77.0169475}, {"fusion_lon": 0.0, "bike_id": "077959877d18c7025572a43db5407ff6", "is_disabled": 0, "is_reserved": 0, "lat": 38.90804883333333, "name": "077959877d18c7025572a43db5407ff6", "rental_uris": {"ios": "https://dc.lft.to/lastmile_qr_scan", "android": "https://dc.lft.to/lastmile_qr_scan"}, "type": "electric_scooter", "fusion_lat": 0.0, "lon": -77.03932666666667}, {"fusion_lon": 0.0, "bike_id": "6b385d7ef905372c86121b6022222712", "is_disabled": 0, "is_reserved": 0, "lat": 38.899626833333336, "name": "6b385d7ef905372c86121b6022222712", "rental_uris": {"ios": "https://dc.lft.to/lastmile_qr_scan", "android": "https://dc.lft.to/lastmile_qr_scan"}, "type": "electric_scooter", "fusion_lat": 0.0, "lon": -77.02628816666666}, {"fusion_lon": 0.0, "bike_id": "5e596b1f3d5888e31cae2252c3d49e17", "is_disabled": 0, "is_reserved": 0, "lat": 38.89995583333334, "name": "5e596b1f3d5888e31cae2252c3d49e17", "rental_uris": {"ios": "https://dc.lft.to/lastmile_qr_scan", "android": "https://dc.lft.to/lastmile_qr_scan"}, "type": "electric_scooter", "fusion_lat": 0.0, "lon": -76.990138}, {"fusion_lon": 0.0, "bike_id": "39e715a6d0af76b88da9e6357b9a7a32", "is_disabled": 0, "is_reserved": 0, "lat": 38.897516333333336, "name": "39e715a6d0af76b88da9e6357b9a7a32", "rental_uris": {"ios": "https://dc.lft.to/lastmile_qr_scan", "android": "https://dc.lft.to/lastmile_qr_scan"}, "type": "electric_scooter", "fusion_lat": 0.0, "lon": -77.0246815}, {"fusion_lon": 0.0, "bike_id": "73a18589e7c27b91d32dd3a593584006", "is_disabled": 0, "is_reserved": 0, "lat": 38.9270015, "name": "73a18589e7c27b91d32dd3a593584006", "rental_uris": {"ios": "https://dc.lft.to/lastmile_qr_scan", "android": "https://dc.lft.to/lastmile_qr_scan"}, "type": "electric_scooter", "fusion_lat": 0.0, "lon": -76.99504683333333}, {"fusion_lon": 0.0, "bike_id": "d9fe3961933a3e85215be1f468500f6f", "is_disabled": 0, "is_reserved": 0, "lat": 39.00646616666667, "name": "d9fe3961933a3e85215be1f468500f6f", "rental_uris": {"ios": "https://dc.lft.to/lastmile_qr_scan", "android": "https://dc.lft.to/lastmile_qr_scan"}, "type": "electric_bike", "fusion_lat": 0.0, "lon": -76.90022916666666}, {"fusion_lon": 0.0, "bike_id": "08343408d5ab31cf89c91a028e07dcf9", "is_disabled": 0, "is_reserved": 0, "lat": 38.90129833333334, "name": "08343408d5ab31cf89c91a028e07dcf9", "rental_uris": {"ios": "https://dc.lft.to/lastmile_qr_scan", "android": "https://dc.lft.to/lastmile_qr_scan"}, "type": "electric_scooter", "fusion_lat": 0.0, "lon": -77.00253716666667}, {"fusion_lon": 0.0, "bike_id": "9737d43ca2d428f82f669860be1c9e8a", "is_disabled": 0, "is_reserved": 0, "lat": 38.90523533333333, "name": "9737d43ca2d428f82f669860be1c9e8a", "rental_uris": {"ios": "https://dc.lft.to/lastmile_qr_scan", "android": "https://dc.lft.to/lastmile_qr_scan"}, "type": "electric_scooter", "fusion_lat": 0.0, "lon": -77.017206}, {"fusion_lon": 0.0, "bike_id": "1d638c48c171bfc5bb6d46d2a6da00e4", "is_disabled": 0, "is_reserved": 0, "lat": 38.88006566666667, "name": "1d638c48c171bfc5bb6d46d2a6da00e4", "rental_uris": {"ios": "https://dc.lft.to/lastmile_qr_scan", "android": "https://dc.lft.to/lastmile_qr_scan"}, "type": "electric_scooter", "fusion_lat": 0.0, "lon": -76.99834933333334}, {"fusion_lon": 0.0, "bike_id": "9f81df3d6670fc9e3b88e5ad84ad31d6", "is_disabled": 0, "is_reserved": 0, "lat": 38.927214666666664, "name": "9f81df3d6670fc9e3b88e5ad84ad31d6", "rental_uris": {"ios": "https://dc.lft.to/lastmile_qr_scan", "android": "https://dc.lft.to/lastmile_qr_scan"}, "type": "electric_scooter", "fusion_lat": 0.0, "lon": -77.02283183333333}, {"fusion_lon": 0.0, "bike_id": "bbcdc522b571f72612307f0d8a547a30", "is_disabled": 0, "is_reserved": 0, "lat": 38.896036333333335, "name": "bbcdc522b571f72612307f0d8a547a30", "rental_uris": {"ios": "https://dc.lft.to/lastmile_qr_scan", "android": "https://dc.lft.to/lastmile_qr_scan"}, "type": "electric_scooter", "fusion_lat": 0.0, "lon": -76.99962166666667}, {"fusion_lon": 0.0, "bike_id": "fc2cb468495b7d1799b49b555e55040e", "is_disabled": 0, "is_reserved": 0, "lat": 38.903962666666665, "name": "fc2cb468495b7d1799b49b555e55040e", "rental_uris": {"ios": "https://dc.lft.to/lastmile_qr_scan", "android": "https://dc.lft.to/lastmile_qr_scan"}, "type": "electric_scooter", "fusion_lat": 0.0, "lon": -77.0042725}, {"fusion_lon": 0.0, "bike_id": "4a8ff6a2170eb96dddbf9c3663a5be33", "is_disabled": 0, "is_reserved": 0, "lat": 38.852473833333335, "name": "4a8ff6a2170eb96dddbf9c3663a5be33", "rental_uris": {"ios": "https://dc.lft.to/lastmile_qr_scan", "android": "https://dc.lft.to/lastmile_qr_scan"}, "type": "electric_bike", "fusion_lat": 0.0, "lon": -77.11409333333333}, {"fusion_lon": 0.0, "bike_id": "a8484e25fa710f74d1ae06b87f10c9b5", "is_disabled": 0, "is_reserved": 0, "lat": 38.87646616666667, "name": "a8484e25fa710f74d1ae06b87f10c9b5", "rental_uris": {"ios": "https://dc.lft.to/lastmile_qr_scan", "android": "https://dc.lft.to/lastmile_qr_scan"}, "type": "electric_scooter", "fusion_lat": 0.0, "lon": -77.00676766666666}, {"fusion_lon": 0.0, "bike_id": "d964eee6fa1b72d0c6ee408596005b47", "is_disabled": 0, "is_reserved": 0, "lat": 38.902643833333336, "name": "d964eee6fa1b72d0c6ee408596005b47", "rental_uris": {"ios": "https://dc.lft.to/lastmile_qr_scan", "android": "https://dc.lft.to/lastmile_qr_scan"}, "type": "electric_scooter", "fusion_lat": 0.0, "lon": -77.00326683333333}, {"fusion_lon": 0.0, "bike_id": "380cd91f552e8b33592cc8f6acb844d1", "is_disabled": 0, "is_reserved": 0, "lat": 38.919388833333336, "name": "380cd91f552e8b33592cc8f6acb844d1", "rental_uris": {"ios": "https://dc.lft.to/lastmile_qr_scan", "android": "https://dc.lft.to/lastmile_qr_scan"}, "type": "electric_scooter", "fusion_lat": 0.0, "lon": -77.02498133333333}, {"fusion_lon": 0.0, "bike_id": "c1de8fb4e1d4c3b8a7f5ce3764070d95", "is_disabled": 0, "is_reserved": 0, "lat": 38.92413283333333, "name": "c1de8fb4e1d4c3b8a7f5ce3764070d95", "rental_uris": {"ios": "https://dc.lft.to/lastmile_qr_scan", "android": "https://dc.lft.to/lastmile_qr_scan"}, "type": "electric_scooter", "fusion_lat": 0.0, "lon": -77.021272}, {"fusion_lon": 0.0, "bike_id": "ff997d8db637c7d5bda8e8d85bb25a70", "is_disabled": 0, "is_reserved": 0, "lat": 38.922265, "name": "ff997d8db637c7d5bda8e8d85bb25a70", "rental_uris": {"ios": "https://dc.lft.to/lastmile_qr_scan", "android": "https://dc.lft.to/lastmile_qr_scan"}, "type": "electric_scooter", "fusion_lat": 0.0, "lon": -77.018143}, {"fusion_lon": 0.0, "bike_id": "6c32f927e221cbc1f900428ce3c500ea", "is_disabled": 0, "is_reserved": 0, "lat": 38.908328, "name": "6c32f927e221cbc1f900428ce3c500ea", "rental_uris": {"ios": "https://dc.lft.to/lastmile_qr_scan", "android": "https://dc.lft.to/lastmile_qr_scan"}, "type": "electric_scooter", "fusion_lat": 0.0, "lon": -76.934736}, {"fusion_lon": 0.0, "bike_id": "9c9175ad8cfc4cd9767c940fefbb4811", "is_disabled": 0, "is_reserved": 0, "lat": 38.90715616666667, "name": "9c9175ad8cfc4cd9767c940fefbb4811", "rental_uris": {"ios": "https://dc.lft.to/lastmile_qr_scan", "android": "https://dc.lft.to/lastmile_qr_scan"}, "type": "electric_bike", "fusion_lat": 0.0, "lon": -77.01997416666667}, {"fusion_lon": 0.0, "bike_id": "d6a54a1aac0d78b0c329a6e22cc84418", "is_disabled": 0, "is_reserved": 0, "lat": 38.8827615, "name": "d6a54a1aac0d78b0c329a6e22cc84418", "rental_uris": {"ios": "https://dc.lft.to/lastmile_qr_scan", "android": "https://dc.lft.to/lastmile_qr_scan"}, "type": "electric_scooter", "fusion_lat": 0.0, "lon": -76.93559233333333}, {"fusion_lon": 0.0, "bike_id": "b4d45d2f3f64433a314e1905cc00c191", "is_disabled": 0, "is_reserved": 0, "lat": 38.92078633333333, "name": "b4d45d2f3f64433a314e1905cc00c191", "rental_uris": {"ios": "https://dc.lft.to/lastmile_qr_scan", "android": "https://dc.lft.to/lastmile_qr_scan"}, "type": "electric_scooter", "fusion_lat": 0.0, "lon": -77.0387985}, {"fusion_lon": 0.0, "bike_id": "509083efe7f919b0ba59ada6998eb1ec", "is_disabled": 0, "is_reserved": 0, "lat": 38.92720116666667, "name": "509083efe7f919b0ba59ada6998eb1ec", "rental_uris": {"ios": "https://dc.lft.to/lastmile_qr_scan", "android": "https://dc.lft.to/lastmile_qr_scan"}, "type": "electric_scooter", "fusion_lat": 0.0, "lon": -77.05998583333333}, {"fusion_lon": 0.0, "bike_id": "db024339a5fc2bd2c3f70952edcc8025", "is_disabled": 0, "is_reserved": 0, "lat": 38.92544066666667, "name": "db024339a5fc2bd2c3f70952edcc8025", "rental_uris": {"ios": "https://dc.lft.to/lastmile_qr_scan", "android": "https://dc.lft.to/lastmile_qr_scan"}, "type": "electric_bike", "fusion_lat": 0.0, "lon": -77.073407}, {"fusion_lon": 0.0, "bike_id": "35d162d61c1973710e8a8101a6f821a1", "is_disabled": 0, "is_reserved": 0, "lat": 38.91118383333333, "name": "35d162d61c1973710e8a8101a6f821a1", "rental_uris": {"ios": "https://dc.lft.to/lastmile_qr_scan", "android": "https://dc.lft.to/lastmile_qr_scan"}, "type": "electric_scooter", "fusion_lat": 0.0, "lon": -77.0386685}, {"fusion_lon": 0.0, "bike_id": "61a989de924aac459d96cae628bb458b", "is_disabled": 0, "is_reserved": 0, "lat": 38.90402816666667, "name": "61a989de924aac459d96cae628bb458b", "rental_uris": {"ios": "https://dc.lft.to/lastmile_qr_scan", "android": "https://dc.lft.to/lastmile_qr_scan"}, "type": "electric_scooter", "fusion_lat": 0.0, "lon": -77.02058766666667}, {"fusion_lon": 0.0, "bike_id": "b3b46dba65f0d9599c6dfe7a668e1287", "is_disabled": 0, "is_reserved": 0, "lat": 38.919497666666665, "name": "b3b46dba65f0d9599c6dfe7a668e1287", "rental_uris": {"ios": "https://dc.lft.to/lastmile_qr_scan", "android": "https://dc.lft.to/lastmile_qr_scan"}, "type": "electric_scooter", "fusion_lat": 0.0, "lon": -77.01396533333333}, {"fusion_lon": 0.0, "bike_id": "3d50d5e29ec5f969817b7caf7853ac82", "is_disabled": 0, "is_reserved": 0, "lat": 38.927889, "name": "3d50d5e29ec5f969817b7caf7853ac82", "rental_uris": {"ios": "https://dc.lft.to/lastmile_qr_scan", "android": "https://dc.lft.to/lastmile_qr_scan"}, "type": "electric_scooter", "fusion_lat": 0.0, "lon": -77.03777166666667}, {"fusion_lon": 0.0, "bike_id": "aac5c7e7bf6df70aefd434bd62fadda2", "is_disabled": 0, "is_reserved": 0, "lat": 38.96627483333333, "name": "aac5c7e7bf6df70aefd434bd62fadda2", "rental_uris": {"ios": "https://dc.lft.to/lastmile_qr_scan", "android": "https://dc.lft.to/lastmile_qr_scan"}, "type": "electric_scooter", "fusion_lat": 0.0, "lon": -77.027466}, {"fusion_lon": 0.0, "bike_id": "31477bc6af6cbe2d90d25f3eca86c2b7", "is_disabled": 0, "is_reserved": 0, "lat": 38.897834, "name": "31477bc6af6cbe2d90d25f3eca86c2b7", "rental_uris": {"ios": "https://dc.lft.to/lastmile_qr_scan", "android": "https://dc.lft.to/lastmile_qr_scan"}, "type": "electric_scooter", "fusion_lat": 0.0, "lon": -77.0497155}, {"fusion_lon": 0.0, "bike_id": "373738a2aab6af3888f7345028a1bf06", "is_disabled": 0, "is_reserved": 0, "lat": 38.8633325, "name": "373738a2aab6af3888f7345028a1bf06", "rental_uris": {"ios": "https://dc.lft.to/lastmile_qr_scan", "android": "https://dc.lft.to/lastmile_qr_scan"}, "type": "electric_bike", "fusion_lat": 0.0, "lon": -76.98722433333333}, {"fusion_lon": 0.0, "bike_id": "ce5bfd3b75d067c99141f923982b665d", "is_disabled": 0, "is_reserved": 0, "lat": 38.91766633333334, "name": "ce5bfd3b75d067c99141f923982b665d", "rental_uris": {"ios": "https://dc.lft.to/lastmile_qr_scan", "android": "https://dc.lft.to/lastmile_qr_scan"}, "type": "electric_scooter", "fusion_lat": 0.0, "lon": -77.003533}, {"fusion_lon": 0.0, "bike_id": "973860207bb4e96f83b926807bab4278", "is_disabled": 0, "is_reserved": 0, "lat": 38.80482933333333, "name": "973860207bb4e96f83b926807bab4278", "rental_uris": {"ios": "https://dc.lft.to/lastmile_qr_scan", "android": "https://dc.lft.to/lastmile_qr_scan"}, "type": "electric_bike", "fusion_lat": 0.0, "lon": -76.99098216666667}, {"fusion_lon": 0.0, "bike_id": "b5094ff1e281641d1cbf51f7f3754f69", "is_disabled": 0, "is_reserved": 0, "lat": 38.948937666666666, "name": "b5094ff1e281641d1cbf51f7f3754f69", "rental_uris": {"ios": "https://dc.lft.to/lastmile_qr_scan", "android": "https://dc.lft.to/lastmile_qr_scan"}, "type": "electric_scooter", "fusion_lat": 0.0, "lon": -77.018578}, {"fusion_lon": 0.0, "bike_id": "1f1f3ab9b48526e80d7ed7ae12190a87", "is_disabled": 0, "is_reserved": 0, "lat": 38.8726945, "name": "1f1f3ab9b48526e80d7ed7ae12190a87", "rental_uris": {"ios": "https://dc.lft.to/lastmile_qr_scan", "android": "https://dc.lft.to/lastmile_qr_scan"}, "type": "electric_bike", "fusion_lat": 0.0, "lon": -76.97565333333333}, {"fusion_lon": 0.0, "bike_id": "1242b613bf1e4e5d499d244b70e859d3", "is_disabled": 0, "is_reserved": 0, "lat": 38.924195, "name": "1242b613bf1e4e5d499d244b70e859d3", "rental_uris": {"ios": "https://dc.lft.to/lastmile_qr_scan", "android": "https://dc.lft.to/lastmile_qr_scan"}, "type": "electric_bike", "fusion_lat": 0.0, "lon": -77.0504385}, {"fusion_lon": 0.0, "bike_id": "e21b7d138e79fad027cb925755041111", "is_disabled": 0, "is_reserved": 0, "lat": 38.909310833333336, "name": "e21b7d138e79fad027cb925755041111", "rental_uris": {"ios": "https://dc.lft.to/lastmile_qr_scan", "android": "https://dc.lft.to/lastmile_qr_scan"}, "type": "electric_scooter", "fusion_lat": 0.0, "lon": -77.0420515}, {"fusion_lon": 0.0, "bike_id": "91161e3a6b59ab6343c7645d3e259648", "is_disabled": 0, "is_reserved": 0, "lat": 38.917850333333334, "name": "91161e3a6b59ab6343c7645d3e259648", "rental_uris": {"ios": "https://dc.lft.to/lastmile_qr_scan", "android": "https://dc.lft.to/lastmile_qr_scan"}, "type": "electric_scooter", "fusion_lat": 0.0, "lon": -77.03161733333333}, {"fusion_lon": 0.0, "bike_id": "a054d6cb87c7e98ec1f7bce69b598313", "is_disabled": 0, "is_reserved": 0, "lat": 38.91148183333333, "name": "a054d6cb87c7e98ec1f7bce69b598313", "rental_uris": {"ios": "https://dc.lft.to/lastmile_qr_scan", "android": "https://dc.lft.to/lastmile_qr_scan"}, "type": "electric_scooter", "fusion_lat": 0.0, "lon": -76.98723733333334}, {"fusion_lon": 0.0, "bike_id": "a8fae3c847ee44daa40d7b492fad0b00", "is_disabled": 0, "is_reserved": 0, "lat": 38.91183983333333, "name": "a8fae3c847ee44daa40d7b492fad0b00", "rental_uris": {"ios": "https://dc.lft.to/lastmile_qr_scan", "android": "https://dc.lft.to/lastmile_qr_scan"}, "type": "electric_scooter", "fusion_lat": 0.0, "lon": -77.066112}, {"fusion_lon": 0.0, "bike_id": "6aac881d3df5bf4260cba3cd8af6c14a", "is_disabled": 0, "is_reserved": 0, "lat": 38.941505, "name": "6aac881d3df5bf4260cba3cd8af6c14a", "rental_uris": {"ios": "https://dc.lft.to/lastmile_qr_scan", "android": "https://dc.lft.to/lastmile_qr_scan"}, "type": "electric_bike", "fusion_lat": 0.0, "lon": -77.001976}, {"fusion_lon": 0.0, "bike_id": "52ad39aa1d6c5e2194bbf1f93ecbcb09", "is_disabled": 0, "is_reserved": 0, "lat": 38.914204166666664, "name": "52ad39aa1d6c5e2194bbf1f93ecbcb09", "rental_uris": {"ios": "https://dc.lft.to/lastmile_qr_scan", "android": "https://dc.lft.to/lastmile_qr_scan"}, "type": "electric_scooter", "fusion_lat": 0.0, "lon": -77.06690416666666}, {"fusion_lon": 0.0, "bike_id": "0f426a3afa0de755c28468fd2997bc0d", "is_disabled": 0, "is_reserved": 0, "lat": 38.9147145, "name": "0f426a3afa0de755c28468fd2997bc0d", "rental_uris": {"ios": "https://dc.lft.to/lastmile_qr_scan", "android": "https://dc.lft.to/lastmile_qr_scan"}, "type": "electric_scooter", "fusion_lat": 0.0, "lon": -77.03884866666667}, {"fusion_lon": 0.0, "bike_id": "e0992c06172c979cc84867548eb2611b", "is_disabled": 0, "is_reserved": 0, "lat": 38.92105166666666, "name": "e0992c06172c979cc84867548eb2611b", "rental_uris": {"ios": "https://dc.lft.to/lastmile_qr_scan", "android": "https://dc.lft.to/lastmile_qr_scan"}, "type": "electric_scooter", "fusion_lat": 0.0, "lon": -77.04668916666667}, {"fusion_lon": 0.0, "bike_id": "b1163873e98e4cfb0d62a2847db0de68", "is_disabled": 0, "is_reserved": 0, "lat": 38.9081385, "name": "b1163873e98e4cfb0d62a2847db0de68", "rental_uris": {"ios": "https://dc.lft.to/lastmile_qr_scan", "android": "https://dc.lft.to/lastmile_qr_scan"}, "type": "electric_scooter", "fusion_lat": 0.0, "lon": -77.0296735}, {"fusion_lon": 0.0, "bike_id": "15734ac213dae7cfadd528212c8169d6", "is_disabled": 0, "is_reserved": 0, "lat": 38.99904166666666, "name": "15734ac213dae7cfadd528212c8169d6", "rental_uris": {"ios": "https://dc.lft.to/lastmile_qr_scan", "android": "https://dc.lft.to/lastmile_qr_scan"}, "type": "electric_bike", "fusion_lat": 0.0, "lon": -76.91074166666667}, {"fusion_lon": 0.0, "bike_id": "439394bc108590deda8723c270f4ec60", "is_disabled": 0, "is_reserved": 0, "lat": 38.92119066666667, "name": "439394bc108590deda8723c270f4ec60", "rental_uris": {"ios": "https://dc.lft.to/lastmile_qr_scan", "android": "https://dc.lft.to/lastmile_qr_scan"}, "type": "electric_scooter", "fusion_lat": 0.0, "lon": -77.01782483333334}, {"fusion_lon": 0.0, "bike_id": "bc217ea6def0f870f35e86867c7626d2", "is_disabled": 0, "is_reserved": 0, "lat": 38.90497666666667, "name": "bc217ea6def0f870f35e86867c7626d2", "rental_uris": {"ios": "https://dc.lft.to/lastmile_qr_scan", "android": "https://dc.lft.to/lastmile_qr_scan"}, "type": "electric_scooter", "fusion_lat": 0.0, "lon": -77.051289}, {"fusion_lon": 0.0, "bike_id": "f5db9d9214ab6cbdf88c7b918b08678d", "is_disabled": 0, "is_reserved": 0, "lat": 38.924137, "name": "f5db9d9214ab6cbdf88c7b918b08678d", "rental_uris": {"ios": "https://dc.lft.to/lastmile_qr_scan", "android": "https://dc.lft.to/lastmile_qr_scan"}, "type": "electric_scooter", "fusion_lat": 0.0, "lon": -77.02126866666667}, {"fusion_lon": 0.0, "bike_id": "218980e73cf7ffba757fefd9c4e83bbf", "is_disabled": 0, "is_reserved": 0, "lat": 38.866271, "name": "218980e73cf7ffba757fefd9c4e83bbf", "rental_uris": {"ios": "https://dc.lft.to/lastmile_qr_scan", "android": "https://dc.lft.to/lastmile_qr_scan"}, "type": "electric_bike", "fusion_lat": 0.0, "lon": -76.9456865}, {"fusion_lon": 0.0, "bike_id": "b53ec3683c90ee73c70d956180dfbdcd", "is_disabled": 0, "is_reserved": 0, "lat": 38.91537316666667, "name": "b53ec3683c90ee73c70d956180dfbdcd", "rental_uris": {"ios": "https://dc.lft.to/lastmile_qr_scan", "android": "https://dc.lft.to/lastmile_qr_scan"}, "type": "electric_scooter", "fusion_lat": 0.0, "lon": -77.0754435}, {"fusion_lon": 0.0, "bike_id": "aff5699c27905e09c3d3c19e60a4f406", "is_disabled": 0, "is_reserved": 0, "lat": 38.885468333333336, "name": "aff5699c27905e09c3d3c19e60a4f406", "rental_uris": {"ios": "https://dc.lft.to/lastmile_qr_scan", "android": "https://dc.lft.to/lastmile_qr_scan"}, "type": "electric_scooter", "fusion_lat": 0.0, "lon": -77.019951}, {"fusion_lon": 0.0, "bike_id": "ec8e55b108f00a8b02b16776241ad2bb", "is_disabled": 0, "is_reserved": 0, "lat": 38.88331433333333, "name": "ec8e55b108f00a8b02b16776241ad2bb", "rental_uris": {"ios": "https://dc.lft.to/lastmile_qr_scan", "android": "https://dc.lft.to/lastmile_qr_scan"}, "type": "electric_scooter", "fusion_lat": 0.0, "lon": -77.0153245}, {"fusion_lon": 0.0, "bike_id": "182cf9fa208fa514feec312237d1c53f", "is_disabled": 0, "is_reserved": 0, "lat": 38.936856166666665, "name": "182cf9fa208fa514feec312237d1c53f", "rental_uris": {"ios": "https://dc.lft.to/lastmile_qr_scan", "android": "https://dc.lft.to/lastmile_qr_scan"}, "type": "electric_scooter", "fusion_lat": 0.0, "lon": -77.0843195}, {"fusion_lon": 0.0, "bike_id": "33d7bdae2b9bb9b654e620f7f63decd8", "is_disabled": 0, "is_reserved": 0, "lat": 38.88433416666667, "name": "33d7bdae2b9bb9b654e620f7f63decd8", "rental_uris": {"ios": "https://dc.lft.to/lastmile_qr_scan", "android": "https://dc.lft.to/lastmile_qr_scan"}, "type": "electric_scooter", "fusion_lat": 0.0, "lon": -77.03047066666667}, {"fusion_lon": 0.0, "bike_id": "7b9e04837151fbef91c7b2b66fc0ff69", "is_disabled": 0, "is_reserved": 0, "lat": 38.901557833333335, "name": "7b9e04837151fbef91c7b2b66fc0ff69", "rental_uris": {"ios": "https://dc.lft.to/lastmile_qr_scan", "android": "https://dc.lft.to/lastmile_qr_scan"}, "type": "electric_scooter", "fusion_lat": 0.0, "lon": -76.98634733333333}, {"fusion_lon": 0.0, "bike_id": "a15ca9b13354cf5e0f593f698c90e3b0", "is_disabled": 0, "is_reserved": 0, "lat": 38.876552833333335, "name": "a15ca9b13354cf5e0f593f698c90e3b0", "rental_uris": {"ios": "https://dc.lft.to/lastmile_qr_scan", "android": "https://dc.lft.to/lastmile_qr_scan"}, "type": "electric_scooter", "fusion_lat": 0.0, "lon": -77.00748383333334}, {"fusion_lon": 0.0, "bike_id": "837f54f210ad174bb59987f51b67c6d5", "is_disabled": 0, "is_reserved": 0, "lat": 38.87476083333333, "name": "837f54f210ad174bb59987f51b67c6d5", "rental_uris": {"ios": "https://dc.lft.to/lastmile_qr_scan", "android": "https://dc.lft.to/lastmile_qr_scan"}, "type": "electric_scooter", "fusion_lat": 0.0, "lon": -77.00524266666666}, {"fusion_lon": 0.0, "bike_id": "2f5d38097e8132c4b8a8d720687a1c33", "is_disabled": 0, "is_reserved": 0, "lat": 38.904794333333335, "name": "2f5d38097e8132c4b8a8d720687a1c33", "rental_uris": {"ios": "https://dc.lft.to/lastmile_qr_scan", "android": "https://dc.lft.to/lastmile_qr_scan"}, "type": "electric_scooter", "fusion_lat": 0.0, "lon": -77.03558833333334}, {"fusion_lon": 0.0, "bike_id": "05c8cc7ff9aeb4815f1586000f3fb9be", "is_disabled": 0, "is_reserved": 0, "lat": 38.985035833333335, "name": "05c8cc7ff9aeb4815f1586000f3fb9be", "rental_uris": {"ios": "https://dc.lft.to/lastmile_qr_scan", "android": "https://dc.lft.to/lastmile_qr_scan"}, "type": "electric_bike", "fusion_lat": 0.0, "lon": -76.98204033333333}, {"fusion_lon": 0.0, "bike_id": "7c0128cf57b35082285998ecf5e92978", "is_disabled": 0, "is_reserved": 0, "lat": 38.9206145, "name": "7c0128cf57b35082285998ecf5e92978", "rental_uris": {"ios": "https://dc.lft.to/lastmile_qr_scan", "android": "https://dc.lft.to/lastmile_qr_scan"}, "type": "electric_scooter", "fusion_lat": 0.0, "lon": -77.017179}, {"fusion_lon": 0.0, "bike_id": "a3871e761a1f257602104745aa2b5c5a", "is_disabled": 0, "is_reserved": 0, "lat": 38.91386583333333, "name": "a3871e761a1f257602104745aa2b5c5a", "rental_uris": {"ios": "https://dc.lft.to/lastmile_qr_scan", "android": "https://dc.lft.to/lastmile_qr_scan"}, "type": "electric_scooter", "fusion_lat": 0.0, "lon": -77.017049}, {"fusion_lon": 0.0, "bike_id": "07df86c42deecabdc6f0c972150c1414", "is_disabled": 0, "is_reserved": 0, "lat": 38.8773345, "name": "07df86c42deecabdc6f0c972150c1414", "rental_uris": {"ios": "https://dc.lft.to/lastmile_qr_scan", "android": "https://dc.lft.to/lastmile_qr_scan"}, "type": "electric_bike", "fusion_lat": 0.0, "lon": -77.11846366666667}, {"fusion_lon": 0.0, "bike_id": "32358cf5d85457aa75e5576923369d51", "is_disabled": 0, "is_reserved": 0, "lat": 38.91004433333333, "name": "32358cf5d85457aa75e5576923369d51", "rental_uris": {"ios": "https://dc.lft.to/lastmile_qr_scan", "android": "https://dc.lft.to/lastmile_qr_scan"}, "type": "electric_bike", "fusion_lat": 0.0, "lon": -76.98423633333333}, {"fusion_lon": 0.0, "bike_id": "806d6b4b75b9d2e0410a587ae3bf4b94", "is_disabled": 0, "is_reserved": 0, "lat": 38.9083075, "name": "806d6b4b75b9d2e0410a587ae3bf4b94", "rental_uris": {"ios": "https://dc.lft.to/lastmile_qr_scan", "android": "https://dc.lft.to/lastmile_qr_scan"}, "type": "electric_scooter", "fusion_lat": 0.0, "lon": -77.000517}, {"fusion_lon": 0.0, "bike_id": "38b4e6e7d9b9ec6b5599b339a70357c2", "is_disabled": 0, "is_reserved": 0, "lat": 38.93185166666667, "name": "38b4e6e7d9b9ec6b5599b339a70357c2", "rental_uris": {"ios": "https://dc.lft.to/lastmile_qr_scan", "android": "https://dc.lft.to/lastmile_qr_scan"}, "type": "electric_scooter", "fusion_lat": 0.0, "lon": -77.034451}, {"fusion_lon": 0.0, "bike_id": "cf85156f3c16260235923acb7e82098e", "is_disabled": 0, "is_reserved": 0, "lat": 38.9115235, "name": "cf85156f3c16260235923acb7e82098e", "rental_uris": {"ios": "https://dc.lft.to/lastmile_qr_scan", "android": "https://dc.lft.to/lastmile_qr_scan"}, "type": "electric_scooter", "fusion_lat": 0.0, "lon": -77.01079916666667}, {"fusion_lon": 0.0, "bike_id": "cc41615905c8bf01e6fddc96e512c1fa", "is_disabled": 0, "is_reserved": 0, "lat": 38.92045533333334, "name": "cc41615905c8bf01e6fddc96e512c1fa", "rental_uris": {"ios": "https://dc.lft.to/lastmile_qr_scan", "android": "https://dc.lft.to/lastmile_qr_scan"}, "type": "electric_scooter", "fusion_lat": 0.0, "lon": -77.02363283333334}, {"fusion_lon": 0.0, "bike_id": "473515e603a20034b389e5c4607d6e77", "is_disabled": 0, "is_reserved": 0, "lat": 38.9228685, "name": "473515e603a20034b389e5c4607d6e77", "rental_uris": {"ios": "https://dc.lft.to/lastmile_qr_scan", "android": "https://dc.lft.to/lastmile_qr_scan"}, "type": "electric_scooter", "fusion_lat": 0.0, "lon": -77.03658216666666}, {"fusion_lon": 0.0, "bike_id": "c974539297a89e6a82b17373d3d91862", "is_disabled": 0, "is_reserved": 0, "lat": 38.91366683333333, "name": "c974539297a89e6a82b17373d3d91862", "rental_uris": {"ios": "https://dc.lft.to/lastmile_qr_scan", "android": "https://dc.lft.to/lastmile_qr_scan"}, "type": "electric_scooter", "fusion_lat": 0.0, "lon": -77.02053216666667}, {"fusion_lon": 0.0, "bike_id": "ff5775e9411096b235a0f83bc534bd16", "is_disabled": 0, "is_reserved": 0, "lat": 38.892536166666666, "name": "ff5775e9411096b235a0f83bc534bd16", "rental_uris": {"ios": "https://dc.lft.to/lastmile_qr_scan", "android": "https://dc.lft.to/lastmile_qr_scan"}, "type": "electric_scooter", "fusion_lat": 0.0, "lon": -77.04501183333333}, {"fusion_lon": 0.0, "bike_id": "96697da22fd676e0eaf10db3e1ead462", "is_disabled": 0, "is_reserved": 0, "lat": 38.93109533333333, "name": "96697da22fd676e0eaf10db3e1ead462", "rental_uris": {"ios": "https://dc.lft.to/lastmile_qr_scan", "android": "https://dc.lft.to/lastmile_qr_scan"}, "type": "electric_scooter", "fusion_lat": 0.0, "lon": -77.02117816666667}, {"fusion_lon": 0.0, "bike_id": "4477ee18474a93d741f162929e9b59cd", "is_disabled": 0, "is_reserved": 0, "lat": 38.80461233333333, "name": "4477ee18474a93d741f162929e9b59cd", "rental_uris": {"ios": "https://dc.lft.to/lastmile_qr_scan", "android": "https://dc.lft.to/lastmile_qr_scan"}, "type": "electric_bike", "fusion_lat": 0.0, "lon": -77.06086116666667}, {"fusion_lon": 0.0, "bike_id": "b08028903293b2a9f8867d0b2a623640", "is_disabled": 0, "is_reserved": 0, "lat": 38.946348666666665, "name": "b08028903293b2a9f8867d0b2a623640", "rental_uris": {"ios": "https://dc.lft.to/lastmile_qr_scan", "android": "https://dc.lft.to/lastmile_qr_scan"}, "type": "electric_bike", "fusion_lat": 0.0, "lon": -76.99310383333334}, {"fusion_lon": 0.0, "bike_id": "c33b5c8ba04334f35616735ea42211b3", "is_disabled": 0, "is_reserved": 0, "lat": 38.96489116666667, "name": "c33b5c8ba04334f35616735ea42211b3", "rental_uris": {"ios": "https://dc.lft.to/lastmile_qr_scan", "android": "https://dc.lft.to/lastmile_qr_scan"}, "type": "electric_bike", "fusion_lat": 0.0, "lon": -77.0285545}, {"fusion_lon": 0.0, "bike_id": "a58df50483b50342291d5b5e50fe1d4b", "is_disabled": 0, "is_reserved": 0, "lat": 38.917676, "name": "a58df50483b50342291d5b5e50fe1d4b", "rental_uris": {"ios": "https://dc.lft.to/lastmile_qr_scan", "android": "https://dc.lft.to/lastmile_qr_scan"}, "type": "electric_scooter", "fusion_lat": 0.0, "lon": -77.0475005}, {"fusion_lon": 0.0, "bike_id": "cb691c971b6a90e7fc9e5299e4d69389", "is_disabled": 0, "is_reserved": 0, "lat": 38.89943683333333, "name": "cb691c971b6a90e7fc9e5299e4d69389", "rental_uris": {"ios": "https://dc.lft.to/lastmile_qr_scan", "android": "https://dc.lft.to/lastmile_qr_scan"}, "type": "electric_scooter", "fusion_lat": 0.0, "lon": -77.04510983333333}, {"fusion_lon": 0.0, "bike_id": "f94f2fe911677db8eb98ba7c6f4d6849", "is_disabled": 0, "is_reserved": 0, "lat": 38.903336333333336, "name": "f94f2fe911677db8eb98ba7c6f4d6849", "rental_uris": {"ios": "https://dc.lft.to/lastmile_qr_scan", "android": "https://dc.lft.to/lastmile_qr_scan"}, "type": "electric_scooter", "fusion_lat": 0.0, "lon": -77.0491735}, {"fusion_lon": 0.0, "bike_id": "d8fa11572aa1ea37c27289d24ae7d244", "is_disabled": 0, "is_reserved": 0, "lat": 38.91657, "name": "d8fa11572aa1ea37c27289d24ae7d244", "rental_uris": {"ios": "https://dc.lft.to/lastmile_qr_scan", "android": "https://dc.lft.to/lastmile_qr_scan"}, "type": "electric_scooter", "fusion_lat": 0.0, "lon": -77.01025183333333}, {"fusion_lon": 0.0, "bike_id": "64262c717d2fe2fc33f6619db77fedc8", "is_disabled": 0, "is_reserved": 0, "lat": 38.9237025, "name": "64262c717d2fe2fc33f6619db77fedc8", "rental_uris": {"ios": "https://dc.lft.to/lastmile_qr_scan", "android": "https://dc.lft.to/lastmile_qr_scan"}, "type": "electric_scooter", "fusion_lat": 0.0, "lon": -77.01956183333333}, {"fusion_lon": 0.0, "bike_id": "2e5dc2f67f4e0deac02ccb265af62812", "is_disabled": 0, "is_reserved": 0, "lat": 38.919202, "name": "2e5dc2f67f4e0deac02ccb265af62812", "rental_uris": {"ios": "https://dc.lft.to/lastmile_qr_scan", "android": "https://dc.lft.to/lastmile_qr_scan"}, "type": "electric_scooter", "fusion_lat": 0.0, "lon": -77.03420466666667}, {"fusion_lon": 0.0, "bike_id": "8793023ff939b3fb9f91c65efa306128", "is_disabled": 0, "is_reserved": 0, "lat": 38.923394333333334, "name": "8793023ff939b3fb9f91c65efa306128", "rental_uris": {"ios": "https://dc.lft.to/lastmile_qr_scan", "android": "https://dc.lft.to/lastmile_qr_scan"}, "type": "electric_scooter", "fusion_lat": 0.0, "lon": -77.02131683333333}, {"fusion_lon": 0.0, "bike_id": "2c36fe49ae61518646542681e311c370", "is_disabled": 0, "is_reserved": 0, "lat": 38.919992, "name": "2c36fe49ae61518646542681e311c370", "rental_uris": {"ios": "https://dc.lft.to/lastmile_qr_scan", "android": "https://dc.lft.to/lastmile_qr_scan"}, "type": "electric_scooter", "fusion_lat": 0.0, "lon": -77.0327575}, {"fusion_lon": 0.0, "bike_id": "068428f2f692754dfb4b9869ae991037", "is_disabled": 0, "is_reserved": 0, "lat": 38.9194025, "name": "068428f2f692754dfb4b9869ae991037", "rental_uris": {"ios": "https://dc.lft.to/lastmile_qr_scan", "android": "https://dc.lft.to/lastmile_qr_scan"}, "type": "electric_scooter", "fusion_lat": 0.0, "lon": -77.030586}, {"fusion_lon": 0.0, "bike_id": "905fd1a85de4f0637f5e6a2f1f003a9c", "is_disabled": 0, "is_reserved": 0, "lat": 38.930565666666666, "name": "905fd1a85de4f0637f5e6a2f1f003a9c", "rental_uris": {"ios": "https://dc.lft.to/lastmile_qr_scan", "android": "https://dc.lft.to/lastmile_qr_scan"}, "type": "electric_scooter", "fusion_lat": 0.0, "lon": -77.0394155}, {"fusion_lon": 0.0, "bike_id": "e9b28a172086254417913bfd2a61abea", "is_disabled": 0, "is_reserved": 0, "lat": 38.922364, "name": "e9b28a172086254417913bfd2a61abea", "rental_uris": {"ios": "https://dc.lft.to/lastmile_qr_scan", "android": "https://dc.lft.to/lastmile_qr_scan"}, "type": "electric_scooter", "fusion_lat": 0.0, "lon": -77.04250216666667}, {"fusion_lon": 0.0, "bike_id": "ace70eb5e31480f84f2cad2a1ffd0968", "is_disabled": 0, "is_reserved": 0, "lat": 38.90734283333333, "name": "ace70eb5e31480f84f2cad2a1ffd0968", "rental_uris": {"ios": "https://dc.lft.to/lastmile_qr_scan", "android": "https://dc.lft.to/lastmile_qr_scan"}, "type": "electric_scooter", "fusion_lat": 0.0, "lon": -77.03444283333333}, {"fusion_lon": 0.0, "bike_id": "d0e491a49cdbce3e671ca27f2262ea1b", "is_disabled": 0, "is_reserved": 0, "lat": 38.952620333333336, "name": "d0e491a49cdbce3e671ca27f2262ea1b", "rental_uris": {"ios": "https://dc.lft.to/lastmile_qr_scan", "android": "https://dc.lft.to/lastmile_qr_scan"}, "type": "electric_scooter", "fusion_lat": 0.0, "lon": -77.02074916666666}, {"fusion_lon": 0.0, "bike_id": "1162ec29f8b13a9bf840d72ab0b26abf", "is_disabled": 0, "is_reserved": 0, "lat": 38.9174965, "name": "1162ec29f8b13a9bf840d72ab0b26abf", "rental_uris": {"ios": "https://dc.lft.to/lastmile_qr_scan", "android": "https://dc.lft.to/lastmile_qr_scan"}, "type": "electric_scooter", "fusion_lat": 0.0, "lon": -77.02116833333334}, {"fusion_lon": 0.0, "bike_id": "d7f1383dd6bc9598ffd95255f969a888", "is_disabled": 0, "is_reserved": 0, "lat": 38.8982195, "name": "d7f1383dd6bc9598ffd95255f969a888", "rental_uris": {"ios": "https://dc.lft.to/lastmile_qr_scan", "android": "https://dc.lft.to/lastmile_qr_scan"}, "type": "electric_scooter", "fusion_lat": 0.0, "lon": -77.04611583333333}, {"fusion_lon": 0.0, "bike_id": "8bd398e15c189943a1eb06165872e4db", "is_disabled": 0, "is_reserved": 0, "lat": 38.905166333333334, "name": "8bd398e15c189943a1eb06165872e4db", "rental_uris": {"ios": "https://dc.lft.to/lastmile_qr_scan", "android": "https://dc.lft.to/lastmile_qr_scan"}, "type": "electric_scooter", "fusion_lat": 0.0, "lon": -77.06523033333333}, {"fusion_lon": 0.0, "bike_id": "87998116ca1f086265381c8220a3952e", "is_disabled": 0, "is_reserved": 0, "lat": 38.899005833333334, "name": "87998116ca1f086265381c8220a3952e", "rental_uris": {"ios": "https://dc.lft.to/lastmile_qr_scan", "android": "https://dc.lft.to/lastmile_qr_scan"}, "type": "electric_scooter", "fusion_lat": 0.0, "lon": -77.02294733333333}, {"fusion_lon": 0.0, "bike_id": "12ee4580df23f4996205d639780caac3", "is_disabled": 0, "is_reserved": 0, "lat": 38.910542666666665, "name": "12ee4580df23f4996205d639780caac3", "rental_uris": {"ios": "https://dc.lft.to/lastmile_qr_scan", "android": "https://dc.lft.to/lastmile_qr_scan"}, "type": "electric_scooter", "fusion_lat": 0.0, "lon": -77.04086933333333}, {"fusion_lon": 0.0, "bike_id": "a4384f4818994b83e85c85649fda5d4d", "is_disabled": 0, "is_reserved": 0, "lat": 38.912581333333335, "name": "a4384f4818994b83e85c85649fda5d4d", "rental_uris": {"ios": "https://dc.lft.to/lastmile_qr_scan", "android": "https://dc.lft.to/lastmile_qr_scan"}, "type": "electric_scooter", "fusion_lat": 0.0, "lon": -77.02812483333334}, {"fusion_lon": 0.0, "bike_id": "992dd0a34bfb96b3f7c04170fb6f0b47", "is_disabled": 0, "is_reserved": 0, "lat": 38.90090766666667, "name": "992dd0a34bfb96b3f7c04170fb6f0b47", "rental_uris": {"ios": "https://dc.lft.to/lastmile_qr_scan", "android": "https://dc.lft.to/lastmile_qr_scan"}, "type": "electric_scooter", "fusion_lat": 0.0, "lon": -77.04775183333334}, {"fusion_lon": 0.0, "bike_id": "4625a7a138f7f99367445ba5a3a8a0a2", "is_disabled": 0, "is_reserved": 0, "lat": 38.906457333333336, "name": "4625a7a138f7f99367445ba5a3a8a0a2", "rental_uris": {"ios": "https://dc.lft.to/lastmile_qr_scan", "android": "https://dc.lft.to/lastmile_qr_scan"}, "type": "electric_scooter", "fusion_lat": 0.0, "lon": -77.0141765}, {"fusion_lon": 0.0, "bike_id": "4c66b99b24d0d1374568e0641ae95ef0", "is_disabled": 0, "is_reserved": 0, "lat": 38.81546916666667, "name": "4c66b99b24d0d1374568e0641ae95ef0", "rental_uris": {"ios": "https://dc.lft.to/lastmile_qr_scan", "android": "https://dc.lft.to/lastmile_qr_scan"}, "type": "electric_bike", "fusion_lat": 0.0, "lon": -77.04646833333334}, {"fusion_lon": 0.0, "bike_id": "d92d2b1dc12ae4683be6d5c3d5caf670", "is_disabled": 0, "is_reserved": 0, "lat": 38.9001835, "name": "d92d2b1dc12ae4683be6d5c3d5caf670", "rental_uris": {"ios": "https://dc.lft.to/lastmile_qr_scan", "android": "https://dc.lft.to/lastmile_qr_scan"}, "type": "electric_scooter", "fusion_lat": 0.0, "lon": -77.04480533333333}, {"fusion_lon": 0.0, "bike_id": "4d451e982fd9914390e42fb66070d284", "is_disabled": 0, "is_reserved": 0, "lat": 38.91421183333333, "name": "4d451e982fd9914390e42fb66070d284", "rental_uris": {"ios": "https://dc.lft.to/lastmile_qr_scan", "android": "https://dc.lft.to/lastmile_qr_scan"}, "type": "electric_scooter", "fusion_lat": 0.0, "lon": -77.01842533333334}, {"fusion_lon": 0.0, "bike_id": "4bf73dd10eb39a5fb64c9f13ab9f32ec", "is_disabled": 0, "is_reserved": 0, "lat": 38.897244666666666, "name": "4bf73dd10eb39a5fb64c9f13ab9f32ec", "rental_uris": {"ios": "https://dc.lft.to/lastmile_qr_scan", "android": "https://dc.lft.to/lastmile_qr_scan"}, "type": "electric_scooter", "fusion_lat": 0.0, "lon": -76.97860266666666}, {"fusion_lon": 0.0, "bike_id": "e4bb05bd5ec16fb8e669a5a5f1b28cbd", "is_disabled": 0, "is_reserved": 0, "lat": 38.9149225, "name": "e4bb05bd5ec16fb8e669a5a5f1b28cbd", "rental_uris": {"ios": "https://dc.lft.to/lastmile_qr_scan", "android": "https://dc.lft.to/lastmile_qr_scan"}, "type": "electric_scooter", "fusion_lat": 0.0, "lon": -77.02179533333333}, {"fusion_lon": 0.0, "bike_id": "f7f6877cd974d0a1b1da6e49b7ff0281", "is_disabled": 0, "is_reserved": 0, "lat": 38.9367085, "name": "f7f6877cd974d0a1b1da6e49b7ff0281", "rental_uris": {"ios": "https://dc.lft.to/lastmile_qr_scan", "android": "https://dc.lft.to/lastmile_qr_scan"}, "type": "electric_scooter", "fusion_lat": 0.0, "lon": -77.032759}, {"fusion_lon": 0.0, "bike_id": "f6478165314c018c08e6a39144d697a8", "is_disabled": 0, "is_reserved": 0, "lat": 38.925522, "name": "f6478165314c018c08e6a39144d697a8", "rental_uris": {"ios": "https://dc.lft.to/lastmile_qr_scan", "android": "https://dc.lft.to/lastmile_qr_scan"}, "type": "electric_scooter", "fusion_lat": 0.0, "lon": -77.0417365}, {"fusion_lon": 0.0, "bike_id": "91a080bc0be2ed9cee4e1dfa1ffe92d7", "is_disabled": 0, "is_reserved": 0, "lat": 38.922438166666666, "name": "91a080bc0be2ed9cee4e1dfa1ffe92d7", "rental_uris": {"ios": "https://dc.lft.to/lastmile_qr_scan", "android": "https://dc.lft.to/lastmile_qr_scan"}, "type": "electric_scooter", "fusion_lat": 0.0, "lon": -77.03359316666666}, {"fusion_lon": 0.0, "bike_id": "0a8a6e6c254fcd77154f78654bd8dc4e", "is_disabled": 0, "is_reserved": 0, "lat": 38.980072, "name": "0a8a6e6c254fcd77154f78654bd8dc4e", "rental_uris": {"ios": "https://dc.lft.to/lastmile_qr_scan", "android": "https://dc.lft.to/lastmile_qr_scan"}, "type": "electric_bike", "fusion_lat": 0.0, "lon": -77.06413633333334}, {"fusion_lon": 0.0, "bike_id": "714beee97c57d89dcc9877e86ff38629", "is_disabled": 0, "is_reserved": 0, "lat": 38.889883166666664, "name": "714beee97c57d89dcc9877e86ff38629", "rental_uris": {"ios": "https://dc.lft.to/lastmile_qr_scan", "android": "https://dc.lft.to/lastmile_qr_scan"}, "type": "electric_scooter", "fusion_lat": 0.0, "lon": -76.988131}, {"fusion_lon": 0.0, "bike_id": "4671ad8ab49145123c9ba1ac25eeaa68", "is_disabled": 0, "is_reserved": 0, "lat": 38.92004333333333, "name": "4671ad8ab49145123c9ba1ac25eeaa68", "rental_uris": {"ios": "https://dc.lft.to/lastmile_qr_scan", "android": "https://dc.lft.to/lastmile_qr_scan"}, "type": "electric_scooter", "fusion_lat": 0.0, "lon": -77.03277216666666}, {"fusion_lon": 0.0, "bike_id": "da898388da65174cfd23a0c87217392f", "is_disabled": 0, "is_reserved": 0, "lat": 38.85787233333333, "name": "da898388da65174cfd23a0c87217392f", "rental_uris": {"ios": "https://dc.lft.to/lastmile_qr_scan", "android": "https://dc.lft.to/lastmile_qr_scan"}, "type": "electric_bike", "fusion_lat": 0.0, "lon": -76.98753016666667}, {"fusion_lon": 0.0, "bike_id": "5bd18eedb1d2f5ce20d468dde0782c2b", "is_disabled": 0, "is_reserved": 0, "lat": 38.94719383333333, "name": "5bd18eedb1d2f5ce20d468dde0782c2b", "rental_uris": {"ios": "https://dc.lft.to/lastmile_qr_scan", "android": "https://dc.lft.to/lastmile_qr_scan"}, "type": "electric_bike", "fusion_lat": 0.0, "lon": -77.09875983333333}, {"fusion_lon": 0.0, "bike_id": "76b107af99996014354d495fedf4219f", "is_disabled": 0, "is_reserved": 0, "lat": 38.8368955, "name": "76b107af99996014354d495fedf4219f", "rental_uris": {"ios": "https://dc.lft.to/lastmile_qr_scan", "android": "https://dc.lft.to/lastmile_qr_scan"}, "type": "electric_bike", "fusion_lat": 0.0, "lon": -77.10306283333334}, {"fusion_lon": 0.0, "bike_id": "3b482340675b88e4ce2567746d8e8479", "is_disabled": 0, "is_reserved": 0, "lat": 38.92754383333333, "name": "3b482340675b88e4ce2567746d8e8479", "rental_uris": {"ios": "https://dc.lft.to/lastmile_qr_scan", "android": "https://dc.lft.to/lastmile_qr_scan"}, "type": "electric_scooter", "fusion_lat": 0.0, "lon": -77.03357616666666}, {"fusion_lon": 0.0, "bike_id": "36f9691e1395ff4b67c41dd0d57ce677", "is_disabled": 0, "is_reserved": 0, "lat": 38.90374166666667, "name": "36f9691e1395ff4b67c41dd0d57ce677", "rental_uris": {"ios": "https://dc.lft.to/lastmile_qr_scan", "android": "https://dc.lft.to/lastmile_qr_scan"}, "type": "electric_scooter", "fusion_lat": 0.0, "lon": -77.00747066666666}, {"fusion_lon": 0.0, "bike_id": "c53e21a1813561302f4c9a71ab48d649", "is_disabled": 0, "is_reserved": 0, "lat": 38.92634483333333, "name": "c53e21a1813561302f4c9a71ab48d649", "rental_uris": {"ios": "https://dc.lft.to/lastmile_qr_scan", "android": "https://dc.lft.to/lastmile_qr_scan"}, "type": "electric_scooter", "fusion_lat": 0.0, "lon": -77.027108}, {"fusion_lon": 0.0, "bike_id": "4626cb0f5627bfb61ef9d7526895f830", "is_disabled": 0, "is_reserved": 0, "lat": 38.866758, "name": "4626cb0f5627bfb61ef9d7526895f830", "rental_uris": {"ios": "https://dc.lft.to/lastmile_qr_scan", "android": "https://dc.lft.to/lastmile_qr_scan"}, "type": "electric_scooter", "fusion_lat": 0.0, "lon": -76.98523616666667}, {"fusion_lon": 0.0, "bike_id": "21b1cfd86ba9b1a3b9a98a1c8624f4c4", "is_disabled": 0, "is_reserved": 0, "lat": 39.085088166666665, "name": "21b1cfd86ba9b1a3b9a98a1c8624f4c4", "rental_uris": {"ios": "https://dc.lft.to/lastmile_qr_scan", "android": "https://dc.lft.to/lastmile_qr_scan"}, "type": "electric_bike", "fusion_lat": 0.0, "lon": -76.95064666666667}, {"fusion_lon": 0.0, "bike_id": "5e18115d1bb381e7a07992cddeae233f", "is_disabled": 0, "is_reserved": 0, "lat": 38.892242, "name": "5e18115d1bb381e7a07992cddeae233f", "rental_uris": {"ios": "https://dc.lft.to/lastmile_qr_scan", "android": "https://dc.lft.to/lastmile_qr_scan"}, "type": "electric_scooter", "fusion_lat": 0.0, "lon": -77.0320255}, {"fusion_lon": 0.0, "bike_id": "badb4c0f27e8f5e2cb26908539792f22", "is_disabled": 0, "is_reserved": 0, "lat": 38.89887383333333, "name": "badb4c0f27e8f5e2cb26908539792f22", "rental_uris": {"ios": "https://dc.lft.to/lastmile_qr_scan", "android": "https://dc.lft.to/lastmile_qr_scan"}, "type": "electric_scooter", "fusion_lat": 0.0, "lon": -76.93176083333333}, {"fusion_lon": 0.0, "bike_id": "cfadaefba6e39e29f895e285b5ce2de7", "is_disabled": 0, "is_reserved": 0, "lat": 38.925836333333336, "name": "cfadaefba6e39e29f895e285b5ce2de7", "rental_uris": {"ios": "https://dc.lft.to/lastmile_qr_scan", "android": "https://dc.lft.to/lastmile_qr_scan"}, "type": "electric_scooter", "fusion_lat": 0.0, "lon": -77.0281235}, {"fusion_lon": 0.0, "bike_id": "bee759147ecf4de7299d0ae23b1ef848", "is_disabled": 0, "is_reserved": 0, "lat": 38.92112366666667, "name": "bee759147ecf4de7299d0ae23b1ef848", "rental_uris": {"ios": "https://dc.lft.to/lastmile_qr_scan", "android": "https://dc.lft.to/lastmile_qr_scan"}, "type": "electric_scooter", "fusion_lat": 0.0, "lon": -77.04205066666667}, {"fusion_lon": 0.0, "bike_id": "4c5caff9bbd88d67a2b3ae53f9026ac4", "is_disabled": 0, "is_reserved": 0, "lat": 38.887486, "name": "4c5caff9bbd88d67a2b3ae53f9026ac4", "rental_uris": {"ios": "https://dc.lft.to/lastmile_qr_scan", "android": "https://dc.lft.to/lastmile_qr_scan"}, "type": "electric_scooter", "fusion_lat": 0.0, "lon": -77.00322633333333}, {"fusion_lon": 0.0, "bike_id": "1910f0865cbf55f842125b7d07f23dea", "is_disabled": 0, "is_reserved": 0, "lat": 38.89995833333333, "name": "1910f0865cbf55f842125b7d07f23dea", "rental_uris": {"ios": "https://dc.lft.to/lastmile_qr_scan", "android": "https://dc.lft.to/lastmile_qr_scan"}, "type": "electric_scooter", "fusion_lat": 0.0, "lon": -77.02219066666666}, {"fusion_lon": 0.0, "bike_id": "65bcde5a43c0d48c87c25e67738f7b9d", "is_disabled": 0, "is_reserved": 0, "lat": 39.025184333333335, "name": "65bcde5a43c0d48c87c25e67738f7b9d", "rental_uris": {"ios": "https://dc.lft.to/lastmile_qr_scan", "android": "https://dc.lft.to/lastmile_qr_scan"}, "type": "electric_bike", "fusion_lat": 0.0, "lon": -77.01968766666667}, {"fusion_lon": 0.0, "bike_id": "4a43baf1801f5cd4179c897f2ae95ae7", "is_disabled": 0, "is_reserved": 0, "lat": 38.867466, "name": "4a43baf1801f5cd4179c897f2ae95ae7", "rental_uris": {"ios": "https://dc.lft.to/lastmile_qr_scan", "android": "https://dc.lft.to/lastmile_qr_scan"}, "type": "electric_scooter", "fusion_lat": 0.0, "lon": -77.00146566666666}, {"fusion_lon": 0.0, "bike_id": "c6dbf76ee6761bc830922f6d46891455", "is_disabled": 0, "is_reserved": 0, "lat": 38.924847666666665, "name": "c6dbf76ee6761bc830922f6d46891455", "rental_uris": {"ios": "https://dc.lft.to/lastmile_qr_scan", "android": "https://dc.lft.to/lastmile_qr_scan"}, "type": "electric_scooter", "fusion_lat": 0.0, "lon": -77.02226316666666}, {"fusion_lon": 0.0, "bike_id": "9daea077a0b275ca7d89afa81cc18a9b", "is_disabled": 0, "is_reserved": 0, "lat": 38.90562, "name": "9daea077a0b275ca7d89afa81cc18a9b", "rental_uris": {"ios": "https://dc.lft.to/lastmile_qr_scan", "android": "https://dc.lft.to/lastmile_qr_scan"}, "type": "electric_scooter", "fusion_lat": 0.0, "lon": -77.0346055}, {"fusion_lon": 0.0, "bike_id": "0ef4b3c750a2cfdb7a852969b6042c41", "is_disabled": 0, "is_reserved": 0, "lat": 38.91268433333333, "name": "0ef4b3c750a2cfdb7a852969b6042c41", "rental_uris": {"ios": "https://dc.lft.to/lastmile_qr_scan", "android": "https://dc.lft.to/lastmile_qr_scan"}, "type": "electric_scooter", "fusion_lat": 0.0, "lon": -77.03874683333333}, {"fusion_lon": 0.0, "bike_id": "e779dd41d9860708a26491ea1b15f4a3", "is_disabled": 0, "is_reserved": 0, "lat": 38.85648033333333, "name": "e779dd41d9860708a26491ea1b15f4a3", "rental_uris": {"ios": "https://dc.lft.to/lastmile_qr_scan", "android": "https://dc.lft.to/lastmile_qr_scan"}, "type": "electric_bike", "fusion_lat": 0.0, "lon": -77.085283}, {"fusion_lon": 0.0, "bike_id": "2db4691a435db03a9720f1ac5a9b82a2", "is_disabled": 0, "is_reserved": 0, "lat": 38.8715255, "name": "2db4691a435db03a9720f1ac5a9b82a2", "rental_uris": {"ios": "https://dc.lft.to/lastmile_qr_scan", "android": "https://dc.lft.to/lastmile_qr_scan"}, "type": "electric_scooter", "fusion_lat": 0.0, "lon": -77.00581766666667}, {"fusion_lon": 0.0, "bike_id": "a2261326fb189f8c9a541a185b7cd152", "is_disabled": 0, "is_reserved": 0, "lat": 38.89972366666667, "name": "a2261326fb189f8c9a541a185b7cd152", "rental_uris": {"ios": "https://dc.lft.to/lastmile_qr_scan", "android": "https://dc.lft.to/lastmile_qr_scan"}, "type": "electric_scooter", "fusion_lat": 0.0, "lon": -77.03344516666667}, {"fusion_lon": 0.0, "bike_id": "41c5d93c07f19db8b3076f0a47741976", "is_disabled": 0, "is_reserved": 0, "lat": 38.925956666666664, "name": "41c5d93c07f19db8b3076f0a47741976", "rental_uris": {"ios": "https://dc.lft.to/lastmile_qr_scan", "android": "https://dc.lft.to/lastmile_qr_scan"}, "type": "electric_scooter", "fusion_lat": 0.0, "lon": -77.02493166666666}, {"fusion_lon": 0.0, "bike_id": "aa624d13a5f7f7accf68cfd8fc59b4d5", "is_disabled": 0, "is_reserved": 0, "lat": 38.894743166666665, "name": "aa624d13a5f7f7accf68cfd8fc59b4d5", "rental_uris": {"ios": "https://dc.lft.to/lastmile_qr_scan", "android": "https://dc.lft.to/lastmile_qr_scan"}, "type": "electric_scooter", "fusion_lat": 0.0, "lon": -76.98594266666667}, {"fusion_lon": 0.0, "bike_id": "13ae69ea16c24c8867bc5338d7998330", "is_disabled": 0, "is_reserved": 0, "lat": 38.91687866666667, "name": "13ae69ea16c24c8867bc5338d7998330", "rental_uris": {"ios": "https://dc.lft.to/lastmile_qr_scan", "android": "https://dc.lft.to/lastmile_qr_scan"}, "type": "electric_scooter", "fusion_lat": 0.0, "lon": -77.036327}, {"fusion_lon": 0.0, "bike_id": "3f3bcc22ada968b19badb12c8e7c84ca", "is_disabled": 0, "is_reserved": 0, "lat": 38.9248205, "name": "3f3bcc22ada968b19badb12c8e7c84ca", "rental_uris": {"ios": "https://dc.lft.to/lastmile_qr_scan", "android": "https://dc.lft.to/lastmile_qr_scan"}, "type": "electric_scooter", "fusion_lat": 0.0, "lon": -77.02221866666666}, {"fusion_lon": 0.0, "bike_id": "990331d80ac1605006982aae211f948f", "is_disabled": 0, "is_reserved": 0, "lat": 38.87535966666667, "name": "990331d80ac1605006982aae211f948f", "rental_uris": {"ios": "https://dc.lft.to/lastmile_qr_scan", "android": "https://dc.lft.to/lastmile_qr_scan"}, "type": "electric_scooter", "fusion_lat": 0.0, "lon": -77.0050475}, {"fusion_lon": 0.0, "bike_id": "94a0bc84205d70d1a4ca3aaabf2f0463", "is_disabled": 0, "is_reserved": 0, "lat": 38.93089916666667, "name": "94a0bc84205d70d1a4ca3aaabf2f0463", "rental_uris": {"ios": "https://dc.lft.to/lastmile_qr_scan", "android": "https://dc.lft.to/lastmile_qr_scan"}, "type": "electric_scooter", "fusion_lat": 0.0, "lon": -77.03446}, {"fusion_lon": 0.0, "bike_id": "00f2a9c2b8072e6eb0ac593eea312175", "is_disabled": 0, "is_reserved": 0, "lat": 38.916835666666664, "name": "00f2a9c2b8072e6eb0ac593eea312175", "rental_uris": {"ios": "https://dc.lft.to/lastmile_qr_scan", "android": "https://dc.lft.to/lastmile_qr_scan"}, "type": "electric_scooter", "fusion_lat": 0.0, "lon": -77.01576216666666}, {"fusion_lon": 0.0, "bike_id": "d764f21e663e456d5cc3b4b455e7b7fd", "is_disabled": 0, "is_reserved": 0, "lat": 38.842820833333334, "name": "d764f21e663e456d5cc3b4b455e7b7fd", "rental_uris": {"ios": "https://dc.lft.to/lastmile_qr_scan", "android": "https://dc.lft.to/lastmile_qr_scan"}, "type": "electric_bike", "fusion_lat": 0.0, "lon": -76.988416}, {"fusion_lon": 0.0, "bike_id": "bd688ac9f76e29b6eedb82f4ec9fe7a3", "is_disabled": 0, "is_reserved": 0, "lat": 38.921926, "name": "bd688ac9f76e29b6eedb82f4ec9fe7a3", "rental_uris": {"ios": "https://dc.lft.to/lastmile_qr_scan", "android": "https://dc.lft.to/lastmile_qr_scan"}, "type": "electric_scooter", "fusion_lat": 0.0, "lon": -77.099428}, {"fusion_lon": 0.0, "bike_id": "bfc9d4d82f72be331a921a27a1b9d5af", "is_disabled": 0, "is_reserved": 0, "lat": 38.90060316666667, "name": "bfc9d4d82f72be331a921a27a1b9d5af", "rental_uris": {"ios": "https://dc.lft.to/lastmile_qr_scan", "android": "https://dc.lft.to/lastmile_qr_scan"}, "type": "electric_scooter", "fusion_lat": 0.0, "lon": -77.04455783333333}, {"fusion_lon": 0.0, "bike_id": "794950f7ac1cb635f853f705893185a1", "is_disabled": 0, "is_reserved": 0, "lat": 38.914147666666665, "name": "794950f7ac1cb635f853f705893185a1", "rental_uris": {"ios": "https://dc.lft.to/lastmile_qr_scan", "android": "https://dc.lft.to/lastmile_qr_scan"}, "type": "electric_scooter", "fusion_lat": 0.0, "lon": -77.012983}, {"fusion_lon": 0.0, "bike_id": "4adfacf82c284ddf09dbe8db799b0c80", "is_disabled": 0, "is_reserved": 0, "lat": 38.9197815, "name": "4adfacf82c284ddf09dbe8db799b0c80", "rental_uris": {"ios": "https://dc.lft.to/lastmile_qr_scan", "android": "https://dc.lft.to/lastmile_qr_scan"}, "type": "electric_scooter", "fusion_lat": 0.0, "lon": -77.04091933333333}, {"fusion_lon": 0.0, "bike_id": "b22259b007b020bed921ea2404598495", "is_disabled": 0, "is_reserved": 0, "lat": 38.913078666666664, "name": "b22259b007b020bed921ea2404598495", "rental_uris": {"ios": "https://dc.lft.to/lastmile_qr_scan", "android": "https://dc.lft.to/lastmile_qr_scan"}, "type": "electric_scooter", "fusion_lat": 0.0, "lon": -77.0364665}, {"fusion_lon": 0.0, "bike_id": "004d51b64b184c53e7788775bd6f4907", "is_disabled": 0, "is_reserved": 0, "lat": 38.957353166666664, "name": "004d51b64b184c53e7788775bd6f4907", "rental_uris": {"ios": "https://dc.lft.to/lastmile_qr_scan", "android": "https://dc.lft.to/lastmile_qr_scan"}, "type": "electric_scooter", "fusion_lat": 0.0, "lon": -77.02421716666667}, {"fusion_lon": 0.0, "bike_id": "19bd5746bf0180f5bfd9064863e798ab", "is_disabled": 0, "is_reserved": 0, "lat": 38.890994166666665, "name": "19bd5746bf0180f5bfd9064863e798ab", "rental_uris": {"ios": "https://dc.lft.to/lastmile_qr_scan", "android": "https://dc.lft.to/lastmile_qr_scan"}, "type": "electric_scooter", "fusion_lat": 0.0, "lon": -76.9882345}, {"fusion_lon": 0.0, "bike_id": "c68387d21266cf63bb415c1909d25d8d", "is_disabled": 0, "is_reserved": 0, "lat": 38.876342666666666, "name": "c68387d21266cf63bb415c1909d25d8d", "rental_uris": {"ios": "https://dc.lft.to/lastmile_qr_scan", "android": "https://dc.lft.to/lastmile_qr_scan"}, "type": "electric_scooter", "fusion_lat": 0.0, "lon": -77.00954283333333}, {"fusion_lon": 0.0, "bike_id": "bfe10d7ab5741fa0a7b3e8d0e5e4237c", "is_disabled": 0, "is_reserved": 0, "lat": 38.886446666666664, "name": "bfe10d7ab5741fa0a7b3e8d0e5e4237c", "rental_uris": {"ios": "https://dc.lft.to/lastmile_qr_scan", "android": "https://dc.lft.to/lastmile_qr_scan"}, "type": "electric_scooter", "fusion_lat": 0.0, "lon": -76.982104}, {"fusion_lon": 0.0, "bike_id": "56418c45984d51783c204ee153e60ba7", "is_disabled": 0, "is_reserved": 0, "lat": 38.89369466666667, "name": "56418c45984d51783c204ee153e60ba7", "rental_uris": {"ios": "https://dc.lft.to/lastmile_qr_scan", "android": "https://dc.lft.to/lastmile_qr_scan"}, "type": "electric_scooter", "fusion_lat": 0.0, "lon": -77.03954616666667}, {"fusion_lon": 0.0, "bike_id": "99f3fcc58dd418723e3a476636d30117", "is_disabled": 0, "is_reserved": 0, "lat": 38.910021666666665, "name": "99f3fcc58dd418723e3a476636d30117", "rental_uris": {"ios": "https://dc.lft.to/lastmile_qr_scan", "android": "https://dc.lft.to/lastmile_qr_scan"}, "type": "electric_scooter", "fusion_lat": 0.0, "lon": -76.99396716666666}, {"fusion_lon": 0.0, "bike_id": "6e024af4ae00bce433f8674b5bf483a5", "is_disabled": 0, "is_reserved": 0, "lat": 38.92423383333333, "name": "6e024af4ae00bce433f8674b5bf483a5", "rental_uris": {"ios": "https://dc.lft.to/lastmile_qr_scan", "android": "https://dc.lft.to/lastmile_qr_scan"}, "type": "electric_scooter", "fusion_lat": 0.0, "lon": -77.02129833333333}, {"fusion_lon": 0.0, "bike_id": "1e6b8a2f3dd020de0a3feb0c907843fc", "is_disabled": 0, "is_reserved": 0, "lat": 38.846689833333336, "name": "1e6b8a2f3dd020de0a3feb0c907843fc", "rental_uris": {"ios": "https://dc.lft.to/lastmile_qr_scan", "android": "https://dc.lft.to/lastmile_qr_scan"}, "type": "electric_bike", "fusion_lat": 0.0, "lon": -77.13928866666667}, {"fusion_lon": 0.0, "bike_id": "f9f2d83d28ab0f95b7d444408f21dab2", "is_disabled": 0, "is_reserved": 0, "lat": 38.893755, "name": "f9f2d83d28ab0f95b7d444408f21dab2", "rental_uris": {"ios": "https://dc.lft.to/lastmile_qr_scan", "android": "https://dc.lft.to/lastmile_qr_scan"}, "type": "electric_scooter", "fusion_lat": 0.0, "lon": -77.01559983333334}, {"fusion_lon": 0.0, "bike_id": "22239e5b29d8a59e760d1b06e1d36f50", "is_disabled": 0, "is_reserved": 0, "lat": 38.94316, "name": "22239e5b29d8a59e760d1b06e1d36f50", "rental_uris": {"ios": "https://dc.lft.to/lastmile_qr_scan", "android": "https://dc.lft.to/lastmile_qr_scan"}, "type": "electric_scooter", "fusion_lat": 0.0, "lon": -77.0252315}, {"fusion_lon": 0.0, "bike_id": "d0c8558d6ebb965e919bb81923d260b2", "is_disabled": 0, "is_reserved": 0, "lat": 38.918776, "name": "d0c8558d6ebb965e919bb81923d260b2", "rental_uris": {"ios": "https://dc.lft.to/lastmile_qr_scan", "android": "https://dc.lft.to/lastmile_qr_scan"}, "type": "electric_scooter", "fusion_lat": 0.0, "lon": -77.041771}, {"fusion_lon": 0.0, "bike_id": "8da4b28fa2e92d1b76b0cdf436d1ea82", "is_disabled": 0, "is_reserved": 0, "lat": 38.905694833333335, "name": "8da4b28fa2e92d1b76b0cdf436d1ea82", "rental_uris": {"ios": "https://dc.lft.to/lastmile_qr_scan", "android": "https://dc.lft.to/lastmile_qr_scan"}, "type": "electric_scooter", "fusion_lat": 0.0, "lon": -77.04185833333334}, {"fusion_lon": 0.0, "bike_id": "a0a613703bbc68b20e91529c27ab13ff", "is_disabled": 0, "is_reserved": 0, "lat": 38.905742000000004, "name": "a0a613703bbc68b20e91529c27ab13ff", "rental_uris": {"ios": "https://dc.lft.to/lastmile_qr_scan", "android": "https://dc.lft.to/lastmile_qr_scan"}, "type": "electric_scooter", "fusion_lat": 0.0, "lon": -77.00710933333333}, {"fusion_lon": 0.0, "bike_id": "bb6196b2aba3fe34b947706fb48e9bc6", "is_disabled": 0, "is_reserved": 0, "lat": 38.87661333333333, "name": "bb6196b2aba3fe34b947706fb48e9bc6", "rental_uris": {"ios": "https://dc.lft.to/lastmile_qr_scan", "android": "https://dc.lft.to/lastmile_qr_scan"}, "type": "electric_scooter", "fusion_lat": 0.0, "lon": -77.00720416666667}, {"fusion_lon": 0.0, "bike_id": "2161e6ccbf7687cfa52ec1fbdd891f20", "is_disabled": 0, "is_reserved": 0, "lat": 38.92655666666667, "name": "2161e6ccbf7687cfa52ec1fbdd891f20", "rental_uris": {"ios": "https://dc.lft.to/lastmile_qr_scan", "android": "https://dc.lft.to/lastmile_qr_scan"}, "type": "electric_scooter", "fusion_lat": 0.0, "lon": -77.022846}, {"fusion_lon": 0.0, "bike_id": "2931f4b881043cee86c73d3e8ecd07ba", "is_disabled": 0, "is_reserved": 0, "lat": 38.89078633333333, "name": "2931f4b881043cee86c73d3e8ecd07ba", "rental_uris": {"ios": "https://dc.lft.to/lastmile_qr_scan", "android": "https://dc.lft.to/lastmile_qr_scan"}, "type": "electric_scooter", "fusion_lat": 0.0, "lon": -76.98822816666667}, {"fusion_lon": 0.0, "bike_id": "d64d5c672866988120e6285e6710b43d", "is_disabled": 0, "is_reserved": 0, "lat": 38.914964, "name": "d64d5c672866988120e6285e6710b43d", "rental_uris": {"ios": "https://dc.lft.to/lastmile_qr_scan", "android": "https://dc.lft.to/lastmile_qr_scan"}, "type": "electric_scooter", "fusion_lat": 0.0, "lon": -77.02268583333333}, {"fusion_lon": 0.0, "bike_id": "8de940c7f58f26cc8b82cf9ea9c406e7", "is_disabled": 0, "is_reserved": 0, "lat": 38.91371216666667, "name": "8de940c7f58f26cc8b82cf9ea9c406e7", "rental_uris": {"ios": "https://dc.lft.to/lastmile_qr_scan", "android": "https://dc.lft.to/lastmile_qr_scan"}, "type": "electric_scooter", "fusion_lat": 0.0, "lon": -77.02205116666667}, {"fusion_lon": 0.0, "bike_id": "e0773b8bc896edee76053d34a41c8920", "is_disabled": 0, "is_reserved": 0, "lat": 38.936097833333335, "name": "e0773b8bc896edee76053d34a41c8920", "rental_uris": {"ios": "https://dc.lft.to/lastmile_qr_scan", "android": "https://dc.lft.to/lastmile_qr_scan"}, "type": "electric_bike", "fusion_lat": 0.0, "lon": -77.00221733333333}, {"fusion_lon": 0.0, "bike_id": "4bb1e51ebf56a1e21e92635bdb7a1a1f", "is_disabled": 0, "is_reserved": 0, "lat": 38.95248183333333, "name": "4bb1e51ebf56a1e21e92635bdb7a1a1f", "rental_uris": {"ios": "https://dc.lft.to/lastmile_qr_scan", "android": "https://dc.lft.to/lastmile_qr_scan"}, "type": "electric_bike", "fusion_lat": 0.0, "lon": -77.0962485}, {"fusion_lon": 0.0, "bike_id": "9c5144840eedb2a2206dc848467e0047", "is_disabled": 0, "is_reserved": 0, "lat": 38.920392, "name": "9c5144840eedb2a2206dc848467e0047", "rental_uris": {"ios": "https://dc.lft.to/lastmile_qr_scan", "android": "https://dc.lft.to/lastmile_qr_scan"}, "type": "electric_bike", "fusion_lat": 0.0, "lon": -76.97956083333334}, {"fusion_lon": 0.0, "bike_id": "ad689779ed148315cec236e007f72b95", "is_disabled": 0, "is_reserved": 0, "lat": 38.842896833333334, "name": "ad689779ed148315cec236e007f72b95", "rental_uris": {"ios": "https://dc.lft.to/lastmile_qr_scan", "android": "https://dc.lft.to/lastmile_qr_scan"}, "type": "electric_bike", "fusion_lat": 0.0, "lon": -77.06358166666666}, {"fusion_lon": 0.0, "bike_id": "15d18ca902a63a19e8bff3234be32aec", "is_disabled": 0, "is_reserved": 0, "lat": 38.921193333333335, "name": "15d18ca902a63a19e8bff3234be32aec", "rental_uris": {"ios": "https://dc.lft.to/lastmile_qr_scan", "android": "https://dc.lft.to/lastmile_qr_scan"}, "type": "electric_scooter", "fusion_lat": 0.0, "lon": -77.04200566666667}, {"fusion_lon": 0.0, "bike_id": "7fa234a9388de33c3d7617ae72ee56a6", "is_disabled": 0, "is_reserved": 0, "lat": 38.96529533333333, "name": "7fa234a9388de33c3d7617ae72ee56a6", "rental_uris": {"ios": "https://dc.lft.to/lastmile_qr_scan", "android": "https://dc.lft.to/lastmile_qr_scan"}, "type": "electric_bike", "fusion_lat": 0.0, "lon": -77.03424166666667}, {"fusion_lon": 0.0, "bike_id": "2fa4b5970c57260a91f61993d7916182", "is_disabled": 0, "is_reserved": 0, "lat": 38.90560966666666, "name": "2fa4b5970c57260a91f61993d7916182", "rental_uris": {"ios": "https://dc.lft.to/lastmile_qr_scan", "android": "https://dc.lft.to/lastmile_qr_scan"}, "type": "electric_scooter", "fusion_lat": 0.0, "lon": -77.03482966666667}, {"fusion_lon": 0.0, "bike_id": "e763f274c2e76e3493c7a27ea8e07d93", "is_disabled": 0, "is_reserved": 0, "lat": 38.85448233333334, "name": "e763f274c2e76e3493c7a27ea8e07d93", "rental_uris": {"ios": "https://dc.lft.to/lastmile_qr_scan", "android": "https://dc.lft.to/lastmile_qr_scan"}, "type": "electric_scooter", "fusion_lat": 0.0, "lon": -76.98609333333333}, {"fusion_lon": 0.0, "bike_id": "1de39fc07a04005a7c3e7ddfea92c6b5", "is_disabled": 0, "is_reserved": 0, "lat": 38.97440433333333, "name": "1de39fc07a04005a7c3e7ddfea92c6b5", "rental_uris": {"ios": "https://dc.lft.to/lastmile_qr_scan", "android": "https://dc.lft.to/lastmile_qr_scan"}, "type": "electric_bike", "fusion_lat": 0.0, "lon": -77.09610583333334}, {"fusion_lon": 0.0, "bike_id": "a84478396ecf47607b448e44f1b27d83", "is_disabled": 0, "is_reserved": 0, "lat": 38.92420216666667, "name": "a84478396ecf47607b448e44f1b27d83", "rental_uris": {"ios": "https://dc.lft.to/lastmile_qr_scan", "android": "https://dc.lft.to/lastmile_qr_scan"}, "type": "electric_scooter", "fusion_lat": 0.0, "lon": -77.02004866666667}, {"fusion_lon": 0.0, "bike_id": "06426395747fab42b09c1e79fc056913", "is_disabled": 0, "is_reserved": 0, "lat": 38.9329035, "name": "06426395747fab42b09c1e79fc056913", "rental_uris": {"ios": "https://dc.lft.to/lastmile_qr_scan", "android": "https://dc.lft.to/lastmile_qr_scan"}, "type": "electric_scooter", "fusion_lat": 0.0, "lon": -76.98644883333333}, {"fusion_lon": 0.0, "bike_id": "d015b50b33ea60f510d4681871def587", "is_disabled": 0, "is_reserved": 0, "lat": 38.9191905, "name": "d015b50b33ea60f510d4681871def587", "rental_uris": {"ios": "https://dc.lft.to/lastmile_qr_scan", "android": "https://dc.lft.to/lastmile_qr_scan"}, "type": "electric_scooter", "fusion_lat": 0.0, "lon": -77.034241}, {"fusion_lon": 0.0, "bike_id": "0dbe53d53713d20fdcf9584bf9ffb312", "is_disabled": 0, "is_reserved": 0, "lat": 38.921396, "name": "0dbe53d53713d20fdcf9584bf9ffb312", "rental_uris": {"ios": "https://dc.lft.to/lastmile_qr_scan", "android": "https://dc.lft.to/lastmile_qr_scan"}, "type": "electric_scooter", "fusion_lat": 0.0, "lon": -77.01780316666667}, {"fusion_lon": 0.0, "bike_id": "9cdba096eabfb385247eb64a49761842", "is_disabled": 0, "is_reserved": 0, "lat": 38.924840333333336, "name": "9cdba096eabfb385247eb64a49761842", "rental_uris": {"ios": "https://dc.lft.to/lastmile_qr_scan", "android": "https://dc.lft.to/lastmile_qr_scan"}, "type": "electric_scooter", "fusion_lat": 0.0, "lon": -77.0089105}, {"fusion_lon": 0.0, "bike_id": "0c6b28c62228112b5aa6b6af25422cd5", "is_disabled": 0, "is_reserved": 0, "lat": 38.939573, "name": "0c6b28c62228112b5aa6b6af25422cd5", "rental_uris": {"ios": "https://dc.lft.to/lastmile_qr_scan", "android": "https://dc.lft.to/lastmile_qr_scan"}, "type": "electric_scooter", "fusion_lat": 0.0, "lon": -77.07243466666667}, {"fusion_lon": 0.0, "bike_id": "e54a0eaaca2e7926a184461fd018d2c3", "is_disabled": 0, "is_reserved": 0, "lat": 38.910493, "name": "e54a0eaaca2e7926a184461fd018d2c3", "rental_uris": {"ios": "https://dc.lft.to/lastmile_qr_scan", "android": "https://dc.lft.to/lastmile_qr_scan"}, "type": "electric_scooter", "fusion_lat": 0.0, "lon": -77.0275915}, {"fusion_lon": 0.0, "bike_id": "d20f177be96a8e0f47c6c0d258c0e361", "is_disabled": 0, "is_reserved": 0, "lat": 38.930831833333336, "name": "d20f177be96a8e0f47c6c0d258c0e361", "rental_uris": {"ios": "https://dc.lft.to/lastmile_qr_scan", "android": "https://dc.lft.to/lastmile_qr_scan"}, "type": "electric_scooter", "fusion_lat": 0.0, "lon": -77.0279315}, {"fusion_lon": 0.0, "bike_id": "43bedc260ff14f98b3c2a5b37e1bad3d", "is_disabled": 0, "is_reserved": 0, "lat": 38.92095483333333, "name": "43bedc260ff14f98b3c2a5b37e1bad3d", "rental_uris": {"ios": "https://dc.lft.to/lastmile_qr_scan", "android": "https://dc.lft.to/lastmile_qr_scan"}, "type": "electric_scooter", "fusion_lat": 0.0, "lon": -77.06270216666667}, {"fusion_lon": 0.0, "bike_id": "d479fd9b3ce4fc504d46153ea0c59102", "is_disabled": 0, "is_reserved": 0, "lat": 38.929134166666664, "name": "d479fd9b3ce4fc504d46153ea0c59102", "rental_uris": {"ios": "https://dc.lft.to/lastmile_qr_scan", "android": "https://dc.lft.to/lastmile_qr_scan"}, "type": "electric_scooter", "fusion_lat": 0.0, "lon": -77.02343166666667}, {"fusion_lon": 0.0, "bike_id": "602beb9d32a073aededf3a19d6e71a52", "is_disabled": 0, "is_reserved": 0, "lat": 38.921229833333335, "name": "602beb9d32a073aededf3a19d6e71a52", "rental_uris": {"ios": "https://dc.lft.to/lastmile_qr_scan", "android": "https://dc.lft.to/lastmile_qr_scan"}, "type": "electric_scooter", "fusion_lat": 0.0, "lon": -77.01212233333334}, {"fusion_lon": 0.0, "bike_id": "f2d23320e812e42a7f990fdeeba07f9c", "is_disabled": 0, "is_reserved": 0, "lat": 38.8993975, "name": "f2d23320e812e42a7f990fdeeba07f9c", "rental_uris": {"ios": "https://dc.lft.to/lastmile_qr_scan", "android": "https://dc.lft.to/lastmile_qr_scan"}, "type": "electric_scooter", "fusion_lat": 0.0, "lon": -77.02543}, {"fusion_lon": 0.0, "bike_id": "83d17c8bfe5dbd90e80fec4cf8fc4b18", "is_disabled": 0, "is_reserved": 0, "lat": 38.904182166666665, "name": "83d17c8bfe5dbd90e80fec4cf8fc4b18", "rental_uris": {"ios": "https://dc.lft.to/lastmile_qr_scan", "android": "https://dc.lft.to/lastmile_qr_scan"}, "type": "electric_scooter", "fusion_lat": 0.0, "lon": -77.02529}, {"fusion_lon": 0.0, "bike_id": "af6cbd228eafa4c7d766fbf8d5d3b4bd", "is_disabled": 0, "is_reserved": 0, "lat": 38.92101683333333, "name": "af6cbd228eafa4c7d766fbf8d5d3b4bd", "rental_uris": {"ios": "https://dc.lft.to/lastmile_qr_scan", "android": "https://dc.lft.to/lastmile_qr_scan"}, "type": "electric_scooter", "fusion_lat": 0.0, "lon": -77.0319135}, {"fusion_lon": 0.0, "bike_id": "60f42b0165033decbfacd7957e750692", "is_disabled": 0, "is_reserved": 0, "lat": 38.920996833333334, "name": "60f42b0165033decbfacd7957e750692", "rental_uris": {"ios": "https://dc.lft.to/lastmile_qr_scan", "android": "https://dc.lft.to/lastmile_qr_scan"}, "type": "electric_scooter", "fusion_lat": 0.0, "lon": -76.9991325}, {"fusion_lon": 0.0, "bike_id": "b473fad96652522bf78532d88b1a340b", "is_disabled": 0, "is_reserved": 0, "lat": 38.901307333333335, "name": "b473fad96652522bf78532d88b1a340b", "rental_uris": {"ios": "https://dc.lft.to/lastmile_qr_scan", "android": "https://dc.lft.to/lastmile_qr_scan"}, "type": "electric_scooter", "fusion_lat": 0.0, "lon": -76.9910315}, {"fusion_lon": 0.0, "bike_id": "e3e68eb6563838ca41a88d29f8bcac2c", "is_disabled": 0, "is_reserved": 0, "lat": 38.90269283333333, "name": "e3e68eb6563838ca41a88d29f8bcac2c", "rental_uris": {"ios": "https://dc.lft.to/lastmile_qr_scan", "android": "https://dc.lft.to/lastmile_qr_scan"}, "type": "electric_scooter", "fusion_lat": 0.0, "lon": -77.01761316666666}, {"fusion_lon": 0.0, "bike_id": "33d999cd7c385b371ad12f191565568f", "is_disabled": 0, "is_reserved": 0, "lat": 38.85598383333333, "name": "33d999cd7c385b371ad12f191565568f", "rental_uris": {"ios": "https://dc.lft.to/lastmile_qr_scan", "android": "https://dc.lft.to/lastmile_qr_scan"}, "type": "electric_bike", "fusion_lat": 0.0, "lon": -76.9726705}, {"fusion_lon": 0.0, "bike_id": "a4662eff0946787a066def39af4607d6", "is_disabled": 0, "is_reserved": 0, "lat": 38.9211, "name": "a4662eff0946787a066def39af4607d6", "rental_uris": {"ios": "https://dc.lft.to/lastmile_qr_scan", "android": "https://dc.lft.to/lastmile_qr_scan"}, "type": "electric_scooter", "fusion_lat": 0.0, "lon": -77.020462}, {"fusion_lon": 0.0, "bike_id": "6454042980693d6f75e96e30afd642d9", "is_disabled": 0, "is_reserved": 0, "lat": 38.906881, "name": "6454042980693d6f75e96e30afd642d9", "rental_uris": {"ios": "https://dc.lft.to/lastmile_qr_scan", "android": "https://dc.lft.to/lastmile_qr_scan"}, "type": "electric_scooter", "fusion_lat": 0.0, "lon": -77.010158}, {"fusion_lon": 0.0, "bike_id": "f7742ed49b010d525ce240eb0866df50", "is_disabled": 0, "is_reserved": 0, "lat": 38.88123066666667, "name": "f7742ed49b010d525ce240eb0866df50", "rental_uris": {"ios": "https://dc.lft.to/lastmile_qr_scan", "android": "https://dc.lft.to/lastmile_qr_scan"}, "type": "electric_scooter", "fusion_lat": 0.0, "lon": -77.01504933333334}, {"fusion_lon": 0.0, "bike_id": "2bdfa819406fb2c9a82377a236c5eb5d", "is_disabled": 0, "is_reserved": 0, "lat": 38.92368416666667, "name": "2bdfa819406fb2c9a82377a236c5eb5d", "rental_uris": {"ios": "https://dc.lft.to/lastmile_qr_scan", "android": "https://dc.lft.to/lastmile_qr_scan"}, "type": "electric_scooter", "fusion_lat": 0.0, "lon": -77.02122433333334}, {"fusion_lon": 0.0, "bike_id": "1c360252c9c70146f6d7f438b170fb8c", "is_disabled": 0, "is_reserved": 0, "lat": 38.92903116666667, "name": "1c360252c9c70146f6d7f438b170fb8c", "rental_uris": {"ios": "https://dc.lft.to/lastmile_qr_scan", "android": "https://dc.lft.to/lastmile_qr_scan"}, "type": "electric_scooter", "fusion_lat": 0.0, "lon": -77.02169233333333}, {"fusion_lon": 0.0, "bike_id": "3ec908d6940285d08a2e1745ba91a11b", "is_disabled": 0, "is_reserved": 0, "lat": 38.89230833333333, "name": "3ec908d6940285d08a2e1745ba91a11b", "rental_uris": {"ios": "https://dc.lft.to/lastmile_qr_scan", "android": "https://dc.lft.to/lastmile_qr_scan"}, "type": "electric_scooter", "fusion_lat": 0.0, "lon": -77.0241525}, {"fusion_lon": 0.0, "bike_id": "82199ba46561a78e89b50a56ccc71459", "is_disabled": 0, "is_reserved": 0, "lat": 38.88533983333333, "name": "82199ba46561a78e89b50a56ccc71459", "rental_uris": {"ios": "https://dc.lft.to/lastmile_qr_scan", "android": "https://dc.lft.to/lastmile_qr_scan"}, "type": "electric_scooter", "fusion_lat": 0.0, "lon": -76.98056683333333}, {"fusion_lon": 0.0, "bike_id": "0f6bc25a80182a3e217805b57aba1fa9", "is_disabled": 0, "is_reserved": 0, "lat": 38.90146983333333, "name": "0f6bc25a80182a3e217805b57aba1fa9", "rental_uris": {"ios": "https://dc.lft.to/lastmile_qr_scan", "android": "https://dc.lft.to/lastmile_qr_scan"}, "type": "electric_scooter", "fusion_lat": 0.0, "lon": -77.02213033333334}, {"fusion_lon": 0.0, "bike_id": "ef38ea599d1151779959140b4a51a2a6", "is_disabled": 0, "is_reserved": 0, "lat": 38.91044083333333, "name": "ef38ea599d1151779959140b4a51a2a6", "rental_uris": {"ios": "https://dc.lft.to/lastmile_qr_scan", "android": "https://dc.lft.to/lastmile_qr_scan"}, "type": "electric_scooter", "fusion_lat": 0.0, "lon": -76.985647}, {"fusion_lon": 0.0, "bike_id": "3d66f25ff673d6499770e7e3f5e71a42", "is_disabled": 0, "is_reserved": 0, "lat": 38.9353175, "name": "3d66f25ff673d6499770e7e3f5e71a42", "rental_uris": {"ios": "https://dc.lft.to/lastmile_qr_scan", "android": "https://dc.lft.to/lastmile_qr_scan"}, "type": "electric_scooter", "fusion_lat": 0.0, "lon": -77.03477733333334}, {"fusion_lon": 0.0, "bike_id": "aae278c8b59e302a9dd67793d257880e", "is_disabled": 0, "is_reserved": 0, "lat": 38.896217166666666, "name": "aae278c8b59e302a9dd67793d257880e", "rental_uris": {"ios": "https://dc.lft.to/lastmile_qr_scan", "android": "https://dc.lft.to/lastmile_qr_scan"}, "type": "electric_bike", "fusion_lat": 0.0, "lon": -76.907495}, {"fusion_lon": 0.0, "bike_id": "a9fa812b4bc4bd6be8a959555d944297", "is_disabled": 0, "is_reserved": 0, "lat": 38.92425583333333, "name": "a9fa812b4bc4bd6be8a959555d944297", "rental_uris": {"ios": "https://dc.lft.to/lastmile_qr_scan", "android": "https://dc.lft.to/lastmile_qr_scan"}, "type": "electric_scooter", "fusion_lat": 0.0, "lon": -77.02007083333334}, {"fusion_lon": 0.0, "bike_id": "2d1a2d041c2f7eae640e89cac85297d6", "is_disabled": 0, "is_reserved": 0, "lat": 38.885154666666665, "name": "2d1a2d041c2f7eae640e89cac85297d6", "rental_uris": {"ios": "https://dc.lft.to/lastmile_qr_scan", "android": "https://dc.lft.to/lastmile_qr_scan"}, "type": "electric_scooter", "fusion_lat": 0.0, "lon": -76.924403}, {"fusion_lon": 0.0, "bike_id": "9150a7ca9735a618645fb41e1860a532", "is_disabled": 0, "is_reserved": 0, "lat": 38.9025505, "name": "9150a7ca9735a618645fb41e1860a532", "rental_uris": {"ios": "https://dc.lft.to/lastmile_qr_scan", "android": "https://dc.lft.to/lastmile_qr_scan"}, "type": "electric_scooter", "fusion_lat": 0.0, "lon": -76.97705633333334}, {"fusion_lon": 0.0, "bike_id": "c229d36ea444ce812995879143a018ae", "is_disabled": 0, "is_reserved": 0, "lat": 38.91405566666667, "name": "c229d36ea444ce812995879143a018ae", "rental_uris": {"ios": "https://dc.lft.to/lastmile_qr_scan", "android": "https://dc.lft.to/lastmile_qr_scan"}, "type": "electric_scooter", "fusion_lat": 0.0, "lon": -77.018002}, {"fusion_lon": 0.0, "bike_id": "a5c00802ab7c106eab99ea365801e191", "is_disabled": 0, "is_reserved": 0, "lat": 38.92170766666667, "name": "a5c00802ab7c106eab99ea365801e191", "rental_uris": {"ios": "https://dc.lft.to/lastmile_qr_scan", "android": "https://dc.lft.to/lastmile_qr_scan"}, "type": "electric_scooter", "fusion_lat": 0.0, "lon": -77.0401655}, {"fusion_lon": 0.0, "bike_id": "d2c5c3b34d04b105f55ae0aa27fa4027", "is_disabled": 0, "is_reserved": 0, "lat": 38.90593483333333, "name": "d2c5c3b34d04b105f55ae0aa27fa4027", "rental_uris": {"ios": "https://dc.lft.to/lastmile_qr_scan", "android": "https://dc.lft.to/lastmile_qr_scan"}, "type": "electric_scooter", "fusion_lat": 0.0, "lon": -77.07008033333334}, {"fusion_lon": 0.0, "bike_id": "d767ebe18305e6f165855930f0acde46", "is_disabled": 0, "is_reserved": 0, "lat": 38.914739833333336, "name": "d767ebe18305e6f165855930f0acde46", "rental_uris": {"ios": "https://dc.lft.to/lastmile_qr_scan", "android": "https://dc.lft.to/lastmile_qr_scan"}, "type": "electric_scooter", "fusion_lat": 0.0, "lon": -77.00213616666667}, {"fusion_lon": 0.0, "bike_id": "163f9312d5941e4e18dbcc3c43803a98", "is_disabled": 0, "is_reserved": 0, "lat": 38.9133595, "name": "163f9312d5941e4e18dbcc3c43803a98", "rental_uris": {"ios": "https://dc.lft.to/lastmile_qr_scan", "android": "https://dc.lft.to/lastmile_qr_scan"}, "type": "electric_scooter", "fusion_lat": 0.0, "lon": -77.00329383333333}, {"fusion_lon": 0.0, "bike_id": "85dde6ae649dd08d413a18da7803f865", "is_disabled": 0, "is_reserved": 0, "lat": 38.81942016666667, "name": "85dde6ae649dd08d413a18da7803f865", "rental_uris": {"ios": "https://dc.lft.to/lastmile_qr_scan", "android": "https://dc.lft.to/lastmile_qr_scan"}, "type": "electric_bike", "fusion_lat": 0.0, "lon": -77.00203983333333}, {"fusion_lon": 0.0, "bike_id": "86192934f11b85fb31488e58e21a45b8", "is_disabled": 0, "is_reserved": 0, "lat": 38.899831666666664, "name": "86192934f11b85fb31488e58e21a45b8", "rental_uris": {"ios": "https://dc.lft.to/lastmile_qr_scan", "android": "https://dc.lft.to/lastmile_qr_scan"}, "type": "electric_scooter", "fusion_lat": 0.0, "lon": -77.02624666666667}, {"fusion_lon": 0.0, "bike_id": "014c246c86025671af39be6972dd5173", "is_disabled": 0, "is_reserved": 0, "lat": 38.903915833333336, "name": "014c246c86025671af39be6972dd5173", "rental_uris": {"ios": "https://dc.lft.to/lastmile_qr_scan", "android": "https://dc.lft.to/lastmile_qr_scan"}, "type": "electric_scooter", "fusion_lat": 0.0, "lon": -77.04827083333333}, {"fusion_lon": 0.0, "bike_id": "1570944bfe8c268270057847394fa4ae", "is_disabled": 0, "is_reserved": 0, "lat": 38.91547116666667, "name": "1570944bfe8c268270057847394fa4ae", "rental_uris": {"ios": "https://dc.lft.to/lastmile_qr_scan", "android": "https://dc.lft.to/lastmile_qr_scan"}, "type": "electric_scooter", "fusion_lat": 0.0, "lon": -77.0441995}, {"fusion_lon": 0.0, "bike_id": "c49acf2a0b9787e21723f424b80b7c1c", "is_disabled": 0, "is_reserved": 0, "lat": 38.93206166666667, "name": "c49acf2a0b9787e21723f424b80b7c1c", "rental_uris": {"ios": "https://dc.lft.to/lastmile_qr_scan", "android": "https://dc.lft.to/lastmile_qr_scan"}, "type": "electric_scooter", "fusion_lat": 0.0, "lon": -77.01879383333333}, {"fusion_lon": 0.0, "bike_id": "c7e7d1709adf44ed21e00ef31f115d7b", "is_disabled": 0, "is_reserved": 0, "lat": 38.8903025, "name": "c7e7d1709adf44ed21e00ef31f115d7b", "rental_uris": {"ios": "https://dc.lft.to/lastmile_qr_scan", "android": "https://dc.lft.to/lastmile_qr_scan"}, "type": "electric_scooter", "fusion_lat": 0.0, "lon": -76.9446845}, {"fusion_lon": 0.0, "bike_id": "38f6ffd5a46c9fb36aff541882cc37b3", "is_disabled": 0, "is_reserved": 0, "lat": 38.9020505, "name": "38f6ffd5a46c9fb36aff541882cc37b3", "rental_uris": {"ios": "https://dc.lft.to/lastmile_qr_scan", "android": "https://dc.lft.to/lastmile_qr_scan"}, "type": "electric_scooter", "fusion_lat": 0.0, "lon": -77.04820916666667}, {"fusion_lon": 0.0, "bike_id": "e9f5614a550a20e18657df8d66fd3a49", "is_disabled": 0, "is_reserved": 0, "lat": 38.916756666666664, "name": "e9f5614a550a20e18657df8d66fd3a49", "rental_uris": {"ios": "https://dc.lft.to/lastmile_qr_scan", "android": "https://dc.lft.to/lastmile_qr_scan"}, "type": "electric_scooter", "fusion_lat": 0.0, "lon": -77.026145}, {"fusion_lon": 0.0, "bike_id": "fe17ba4d39d03839c565bc0c87da6f38", "is_disabled": 0, "is_reserved": 0, "lat": 38.926126, "name": "fe17ba4d39d03839c565bc0c87da6f38", "rental_uris": {"ios": "https://dc.lft.to/lastmile_qr_scan", "android": "https://dc.lft.to/lastmile_qr_scan"}, "type": "electric_scooter", "fusion_lat": 0.0, "lon": -77.02158683333333}, {"fusion_lon": 0.0, "bike_id": "d3b9e99f7eded9ba4fe8e5d9c5f0bf72", "is_disabled": 0, "is_reserved": 0, "lat": 38.898478, "name": "d3b9e99f7eded9ba4fe8e5d9c5f0bf72", "rental_uris": {"ios": "https://dc.lft.to/lastmile_qr_scan", "android": "https://dc.lft.to/lastmile_qr_scan"}, "type": "electric_scooter", "fusion_lat": 0.0, "lon": -76.99024366666667}, {"fusion_lon": 0.0, "bike_id": "29424332ac574913ff3b8e54e2a29d93", "is_disabled": 0, "is_reserved": 0, "lat": 38.924579666666666, "name": "29424332ac574913ff3b8e54e2a29d93", "rental_uris": {"ios": "https://dc.lft.to/lastmile_qr_scan", "android": "https://dc.lft.to/lastmile_qr_scan"}, "type": "electric_scooter", "fusion_lat": 0.0, "lon": -76.99907983333334}, {"fusion_lon": 0.0, "bike_id": "b95afac86688caf4d343333f0b18febd", "is_disabled": 0, "is_reserved": 0, "lat": 38.922571, "name": "b95afac86688caf4d343333f0b18febd", "rental_uris": {"ios": "https://dc.lft.to/lastmile_qr_scan", "android": "https://dc.lft.to/lastmile_qr_scan"}, "type": "electric_scooter", "fusion_lat": 0.0, "lon": -77.01949616666667}, {"fusion_lon": 0.0, "bike_id": "59172157e6f732c25d94d00d87d02df9", "is_disabled": 0, "is_reserved": 0, "lat": 38.92124916666667, "name": "59172157e6f732c25d94d00d87d02df9", "rental_uris": {"ios": "https://dc.lft.to/lastmile_qr_scan", "android": "https://dc.lft.to/lastmile_qr_scan"}, "type": "electric_scooter", "fusion_lat": 0.0, "lon": -77.04427066666666}, {"fusion_lon": 0.0, "bike_id": "9b5dbab3641ccb2f5e5132123af3983a", "is_disabled": 0, "is_reserved": 0, "lat": 38.8992915, "name": "9b5dbab3641ccb2f5e5132123af3983a", "rental_uris": {"ios": "https://dc.lft.to/lastmile_qr_scan", "android": "https://dc.lft.to/lastmile_qr_scan"}, "type": "electric_bike", "fusion_lat": 0.0, "lon": -77.00155166666667}, {"fusion_lon": 0.0, "bike_id": "512a139c97e35115fa4409bd0722294b", "is_disabled": 0, "is_reserved": 0, "lat": 38.900410666666666, "name": "512a139c97e35115fa4409bd0722294b", "rental_uris": {"ios": "https://dc.lft.to/lastmile_qr_scan", "android": "https://dc.lft.to/lastmile_qr_scan"}, "type": "electric_scooter", "fusion_lat": 0.0, "lon": -77.01176833333334}, {"fusion_lon": 0.0, "bike_id": "21148decd257a566279f35b3cdeb58eb", "is_disabled": 0, "is_reserved": 0, "lat": 38.923575666666665, "name": "21148decd257a566279f35b3cdeb58eb", "rental_uris": {"ios": "https://dc.lft.to/lastmile_qr_scan", "android": "https://dc.lft.to/lastmile_qr_scan"}, "type": "electric_scooter", "fusion_lat": 0.0, "lon": -77.03537316666667}, {"fusion_lon": 0.0, "bike_id": "25970740a03ae517ed20fc191548a667", "is_disabled": 0, "is_reserved": 0, "lat": 38.95740283333333, "name": "25970740a03ae517ed20fc191548a667", "rental_uris": {"ios": "https://dc.lft.to/lastmile_qr_scan", "android": "https://dc.lft.to/lastmile_qr_scan"}, "type": "electric_scooter", "fusion_lat": 0.0, "lon": -77.00220816666666}, {"fusion_lon": 0.0, "bike_id": "f2e98bff8cb982c635f5a451d54b3c67", "is_disabled": 0, "is_reserved": 0, "lat": 38.8835755, "name": "f2e98bff8cb982c635f5a451d54b3c67", "rental_uris": {"ios": "https://dc.lft.to/lastmile_qr_scan", "android": "https://dc.lft.to/lastmile_qr_scan"}, "type": "electric_scooter", "fusion_lat": 0.0, "lon": -76.95769233333333}, {"fusion_lon": 0.0, "bike_id": "4d4db6a0d8f24026551a28d0669787a6", "is_disabled": 0, "is_reserved": 0, "lat": 38.899906333333334, "name": "4d4db6a0d8f24026551a28d0669787a6", "rental_uris": {"ios": "https://dc.lft.to/lastmile_qr_scan", "android": "https://dc.lft.to/lastmile_qr_scan"}, "type": "electric_scooter", "fusion_lat": 0.0, "lon": -77.05569983333334}, {"fusion_lon": 0.0, "bike_id": "07165fabc37922b44241169698442269", "is_disabled": 0, "is_reserved": 0, "lat": 38.90389566666666, "name": "07165fabc37922b44241169698442269", "rental_uris": {"ios": "https://dc.lft.to/lastmile_qr_scan", "android": "https://dc.lft.to/lastmile_qr_scan"}, "type": "electric_scooter", "fusion_lat": 0.0, "lon": -77.04244933333334}, {"fusion_lon": 0.0, "bike_id": "c7b37f8ddaa22110f06fced2f5b9afa7", "is_disabled": 0, "is_reserved": 0, "lat": 38.89727033333333, "name": "c7b37f8ddaa22110f06fced2f5b9afa7", "rental_uris": {"ios": "https://dc.lft.to/lastmile_qr_scan", "android": "https://dc.lft.to/lastmile_qr_scan"}, "type": "electric_scooter", "fusion_lat": 0.0, "lon": -76.92585616666666}, {"fusion_lon": 0.0, "bike_id": "f6b08f5f18b92600d4431d75013d2c70", "is_disabled": 0, "is_reserved": 0, "lat": 38.91816083333333, "name": "f6b08f5f18b92600d4431d75013d2c70", "rental_uris": {"ios": "https://dc.lft.to/lastmile_qr_scan", "android": "https://dc.lft.to/lastmile_qr_scan"}, "type": "electric_scooter", "fusion_lat": 0.0, "lon": -77.02526816666666}, {"fusion_lon": 0.0, "bike_id": "7a1416baefa5d3bbcc33e64013fdc1c6", "is_disabled": 0, "is_reserved": 0, "lat": 38.914356833333336, "name": "7a1416baefa5d3bbcc33e64013fdc1c6", "rental_uris": {"ios": "https://dc.lft.to/lastmile_qr_scan", "android": "https://dc.lft.to/lastmile_qr_scan"}, "type": "electric_scooter", "fusion_lat": 0.0, "lon": -77.06684033333333}, {"fusion_lon": 0.0, "bike_id": "1bd52104f9549f2a7bb809fb4c842671", "is_disabled": 0, "is_reserved": 0, "lat": 38.9146295, "name": "1bd52104f9549f2a7bb809fb4c842671", "rental_uris": {"ios": "https://dc.lft.to/lastmile_qr_scan", "android": "https://dc.lft.to/lastmile_qr_scan"}, "type": "electric_scooter", "fusion_lat": 0.0, "lon": -77.00206816666666}, {"fusion_lon": 0.0, "bike_id": "39d956bc1b4bc60c9f60a7ae2563c3a9", "is_disabled": 0, "is_reserved": 0, "lat": 38.9224425, "name": "39d956bc1b4bc60c9f60a7ae2563c3a9", "rental_uris": {"ios": "https://dc.lft.to/lastmile_qr_scan", "android": "https://dc.lft.to/lastmile_qr_scan"}, "type": "electric_scooter", "fusion_lat": 0.0, "lon": -77.0308165}, {"fusion_lon": 0.0, "bike_id": "e44fdef2c49f31e21aaa9af9fdb5a36b", "is_disabled": 0, "is_reserved": 0, "lat": 38.918900666666666, "name": "e44fdef2c49f31e21aaa9af9fdb5a36b", "rental_uris": {"ios": "https://dc.lft.to/lastmile_qr_scan", "android": "https://dc.lft.to/lastmile_qr_scan"}, "type": "electric_scooter", "fusion_lat": 0.0, "lon": -77.037422}, {"fusion_lon": 0.0, "bike_id": "43da085ac423eb1717c8b3b18849cde2", "is_disabled": 0, "is_reserved": 0, "lat": 38.91709866666667, "name": "43da085ac423eb1717c8b3b18849cde2", "rental_uris": {"ios": "https://dc.lft.to/lastmile_qr_scan", "android": "https://dc.lft.to/lastmile_qr_scan"}, "type": "electric_scooter", "fusion_lat": 0.0, "lon": -77.01102366666667}, {"fusion_lon": 0.0, "bike_id": "50c787fa1fbf06728e882ad1fb4c33c3", "is_disabled": 0, "is_reserved": 0, "lat": 38.92466566666667, "name": "50c787fa1fbf06728e882ad1fb4c33c3", "rental_uris": {"ios": "https://dc.lft.to/lastmile_qr_scan", "android": "https://dc.lft.to/lastmile_qr_scan"}, "type": "electric_scooter", "fusion_lat": 0.0, "lon": -77.030532}, {"fusion_lon": 0.0, "bike_id": "e3923a5e678d298d647125fc165e8cfa", "is_disabled": 0, "is_reserved": 0, "lat": 38.927384333333336, "name": "e3923a5e678d298d647125fc165e8cfa", "rental_uris": {"ios": "https://dc.lft.to/lastmile_qr_scan", "android": "https://dc.lft.to/lastmile_qr_scan"}, "type": "electric_scooter", "fusion_lat": 0.0, "lon": -77.03557416666666}, {"fusion_lon": 0.0, "bike_id": "3a67d8ff138114f628bbc6e28b5348a2", "is_disabled": 0, "is_reserved": 0, "lat": 38.94979033333333, "name": "3a67d8ff138114f628bbc6e28b5348a2", "rental_uris": {"ios": "https://dc.lft.to/lastmile_qr_scan", "android": "https://dc.lft.to/lastmile_qr_scan"}, "type": "electric_scooter", "fusion_lat": 0.0, "lon": -77.02448833333334}, {"fusion_lon": 0.0, "bike_id": "72c9d2fe4103f46b817cd4a92170a164", "is_disabled": 0, "is_reserved": 0, "lat": 38.88246383333333, "name": "72c9d2fe4103f46b817cd4a92170a164", "rental_uris": {"ios": "https://dc.lft.to/lastmile_qr_scan", "android": "https://dc.lft.to/lastmile_qr_scan"}, "type": "electric_bike", "fusion_lat": 0.0, "lon": -76.96259816666667}, {"fusion_lon": 0.0, "bike_id": "f417e7368af3d4035c62d41b0328d553", "is_disabled": 0, "is_reserved": 0, "lat": 38.92237766666667, "name": "f417e7368af3d4035c62d41b0328d553", "rental_uris": {"ios": "https://dc.lft.to/lastmile_qr_scan", "android": "https://dc.lft.to/lastmile_qr_scan"}, "type": "electric_scooter", "fusion_lat": 0.0, "lon": -77.02830466666667}, {"fusion_lon": 0.0, "bike_id": "a40967da0a839dbf31a50f619e8f3220", "is_disabled": 0, "is_reserved": 0, "lat": 38.914533, "name": "a40967da0a839dbf31a50f619e8f3220", "rental_uris": {"ios": "https://dc.lft.to/lastmile_qr_scan", "android": "https://dc.lft.to/lastmile_qr_scan"}, "type": "electric_bike", "fusion_lat": 0.0, "lon": -76.97233883333334}, {"fusion_lon": 0.0, "bike_id": "2efeaba8c3f896ae1b554bc6819ff346", "is_disabled": 0, "is_reserved": 0, "lat": 38.93258266666667, "name": "2efeaba8c3f896ae1b554bc6819ff346", "rental_uris": {"ios": "https://dc.lft.to/lastmile_qr_scan", "android": "https://dc.lft.to/lastmile_qr_scan"}, "type": "electric_scooter", "fusion_lat": 0.0, "lon": -76.98873966666666}, {"fusion_lon": 0.0, "bike_id": "ebcafd5e88d4c517e354abccba17f562", "is_disabled": 0, "is_reserved": 0, "lat": 38.89719766666666, "name": "ebcafd5e88d4c517e354abccba17f562", "rental_uris": {"ios": "https://dc.lft.to/lastmile_qr_scan", "android": "https://dc.lft.to/lastmile_qr_scan"}, "type": "electric_bike", "fusion_lat": 0.0, "lon": -77.00698383333334}, {"fusion_lon": 0.0, "bike_id": "09d713fb4ae3ce2b7c12b6b2860f7a54", "is_disabled": 0, "is_reserved": 0, "lat": 38.887730833333336, "name": "09d713fb4ae3ce2b7c12b6b2860f7a54", "rental_uris": {"ios": "https://dc.lft.to/lastmile_qr_scan", "android": "https://dc.lft.to/lastmile_qr_scan"}, "type": "electric_scooter", "fusion_lat": 0.0, "lon": -76.97734433333333}, {"fusion_lon": 0.0, "bike_id": "4b4acce4b4312929de012ba9c2027bd9", "is_disabled": 0, "is_reserved": 0, "lat": 38.917394, "name": "4b4acce4b4312929de012ba9c2027bd9", "rental_uris": {"ios": "https://dc.lft.to/lastmile_qr_scan", "android": "https://dc.lft.to/lastmile_qr_scan"}, "type": "electric_scooter", "fusion_lat": 0.0, "lon": -77.0279875}, {"fusion_lon": 0.0, "bike_id": "79f8570840618f3db922ccfa26a11423", "is_disabled": 0, "is_reserved": 0, "lat": 38.967345333333334, "name": "79f8570840618f3db922ccfa26a11423", "rental_uris": {"ios": "https://dc.lft.to/lastmile_qr_scan", "android": "https://dc.lft.to/lastmile_qr_scan"}, "type": "electric_bike", "fusion_lat": 0.0, "lon": -77.08913116666666},