{"data": {"bikes": [{"lat": 38.871823, "is_disabled": 0, "lon": -77.00603166666667, "is_reserved": 0, "fusion_lon": 0.0, "fusion_lat": 0.0, "name": "0c917971a1143c46046abc116ab5e620", "type": "electric_scooter", "rental_uris": {"ios": "https://dc.lft.to/lastmile_qr_scan", "android": "https://dc.lft.to/lastmile_qr_scan"}, "bike_id": "0c917971a1143c46046abc116ab5e620"}, {"lat": 38.904091, "is_disabled": 0, "lon": -76.9733185, "is_reserved": 0, "fusion_lon": 0.0, "fusion_lat": 0.0, "name": "aad179afad32ac2a95a28f9134dde616", "type": "electric_scooter", "rental_uris": {"ios": "https://dc.lft.to/lastmile_qr_scan", "android": "https://dc.lft.to/lastmile_qr_scan"}, "bike_id": "aad179afad32ac2a95a28f9134dde616"}, {"lat": 38.90651166666667, "is_disabled": 0, "lon": -77.00542183333333, "is_reserved": 0, "fusion_lon": 0.0, "fusion_lat": 0.0, "name": "f1cadb7f47d0fdddc8e78a0a9741a459", "type": "electric_scooter", "rental_uris": {"ios": "https://dc.lft.to/lastmile_qr_scan", "android": "https://dc.lft.to/lastmile_qr_scan"}, "bike_id": "f1cadb7f47d0fdddc8e78a0a9741a459"}, {"lat": 38.903970666666666, "is_disabled": 0, "lon": -77.06585083333333, "is_reserved": 0, "fusion_lon": 0.0, "fusion_lat": 0.0, "name": "e6169ee17a4766fbcaf06b64b7ccc7b6", "type": "electric_scooter", "rental_uris": {"ios": "https://dc.lft.to/lastmile_qr_scan", "android": "https://dc.lft.to/lastmile_qr_scan"}, "bike_id": "e6169ee17a4766fbcaf06b64b7ccc7b6"}, {"lat": 38.92060033333333, "is_disabled": 0, "lon": -77.02352716666667, "is_reserved": 0, "fusion_lon": 0.0, "fusion_lat": 0.0, "name": "f2bc51ce197955e14b2d3d6062ceac71", "type": "electric_scooter", "rental_uris": {"ios": "https://dc.lft.to/lastmile_qr_scan", "android": "https://dc.lft.to/lastmile_qr_scan"}, "bike_id": "f2bc51ce197955e14b2d3d6062ceac71"}, {"lat": 38.9009905, "is_disabled": 0, "lon": -76.98332483333333, "is_reserved": 0, "fusion_lon": 0.0, "fusion_lat": 0.0, "name": "51f56ab2e2454fa31f4578cae671c037", "type": "electric_scooter", "rental_uris": {"ios": "https://dc.lft.to/lastmile_qr_scan", "android": "https://dc.lft.to/lastmile_qr_scan"}, "bike_id": "51f56ab2e2454fa31f4578cae671c037"}, {"lat": 38.91234683333333, "is_disabled": 0, "lon": -77.0189145, "is_reserved": 0, "fusion_lon": 0.0, "fusion_lat": 0.0, "name": "cab5f826b90c0fe07d8f5f06fe835e94", "type": "electric_scooter", "rental_uris": {"ios": "https://dc.lft.to/lastmile_qr_scan", "android": "https://dc.lft.to/lastmile_qr_scan"}, "bike_id": "cab5f826b90c0fe07d8f5f06fe835e94"}, {"lat": 38.903845833333335, "is_disabled": 0, "lon": -77.048305, "is_reserved": 0, "fusion_lon": 0.0, "fusion_lat": 0.0, "name": "e09fb27aa2ecaf7bc9312f5a2619fa7a", "type": "electric_scooter", "rental_uris": {"ios": "https://dc.lft.to/lastmile_qr_scan", "android": "https://dc.lft.to/lastmile_qr_scan"}, "bike_id": "e09fb27aa2ecaf7bc9312f5a2619fa7a"}, {"lat": 38.902815833333335, "is_disabled": 0, "lon": -77.00192883333334, "is_reserved": 0, "fusion_lon": 0.0, "fusion_lat": 0.0, "name": "90fa618f33d1610d270942affb679abc", "type": "electric_scooter", "rental_uris": {"ios": "https://dc.lft.to/lastmile_qr_scan", "android": "https://dc.lft.to/lastmile_qr_scan"}, "bike_id": "90fa618f33d1610d270942affb679abc"}, {"lat": 38.89758416666667, "is_disabled": 0, "lon": -77.0502225, "is_reserved": 0, "fusion_lon": 0.0, "fusion_lat": 0.0, "name": "6142464cf2a06585d699f91350dd10c9", "type": "electric_scooter", "rental_uris": {"ios": "https://dc.lft.to/lastmile_qr_scan", "android": "https://dc.lft.to/lastmile_qr_scan"}, "bike_id": "6142464cf2a06585d699f91350dd10c9"}, {"lat": 38.944146, "is_disabled": 0, "lon": -77.055197, "is_reserved": 0, "fusion_lon": 0.0, "fusion_lat": 0.0, "name": "5fc67ec2b548964e2e2c9fcc1178232c", "type": "electric_scooter", "rental_uris": {"ios": "https://dc.lft.to/lastmile_qr_scan", "android": "https://dc.lft.to/lastmile_qr_scan"}, "bike_id": "5fc67ec2b548964e2e2c9fcc1178232c"}, {"lat": 38.915667166666665, "is_disabled": 0, "lon": -77.03187166666666, "is_reserved": 0, "fusion_lon": 0.0, "fusion_lat": 0.0, "name": "6527cea55465f0d39ee2dfef56ae1437", "type": "electric_scooter", "rental_uris": {"ios": "https://dc.lft.to/lastmile_qr_scan", "android": "https://dc.lft.to/lastmile_qr_scan"}, "bike_id": "6527cea55465f0d39ee2dfef56ae1437"}, {"lat": 38.91924816666667, "is_disabled": 0, "lon": -77.07995966666667, "is_reserved": 0, "fusion_lon": 0.0, "fusion_lat": 0.0, "name": "48a7654f78d249fae9f903df261f6351", "type": "electric_scooter", "rental_uris": {"ios": "https://dc.lft.to/lastmile_qr_scan", "android": "https://dc.lft.to/lastmile_qr_scan"}, "bike_id": "48a7654f78d249fae9f903df261f6351"}, {"lat": 38.876426333333335, "is_disabled": 0, "lon": -77.00105283333333, "is_reserved": 0, "fusion_lon": 0.0, "fusion_lat": 0.0, "name": "02ebd7661724674508f7e3f9193faac1", "type": "electric_scooter", "rental_uris": {"ios": "https://dc.lft.to/lastmile_qr_scan", "android": "https://dc.lft.to/lastmile_qr_scan"}, "bike_id": "02ebd7661724674508f7e3f9193faac1"}, {"lat": 38.901376, "is_disabled": 0, "lon": -77.033783, "is_reserved": 0, "fusion_lon": 0.0, "fusion_lat": 0.0, "name": "1df8954da0787ad336b826e5484f53c0", "type": "electric_scooter", "rental_uris": {"ios": "https://dc.lft.to/lastmile_qr_scan", "android": "https://dc.lft.to/lastmile_qr_scan"}, "bike_id": "1df8954da0787ad336b826e5484f53c0"}, {"lat": 38.897591166666665, "is_disabled": 0, "lon": -76.94182, "is_reserved": 0, "fusion_lon": 0.0, "fusion_lat": 0.0, "name": "b1aaaab0046ebc95ad1481b1b6eeca52", "type": "electric_scooter", "rental_uris": {"ios": "https://dc.lft.to/lastmile_qr_scan", "android": "https://dc.lft.to/lastmile_qr_scan"}, "bike_id": "b1aaaab0046ebc95ad1481b1b6eeca52"}, {"lat": 38.919307333333336, "is_disabled": 0, "lon": -77.01966083333333, "is_reserved": 0, "fusion_lon": 0.0, "fusion_lat": 0.0, "name": "a08262fea298cc747f0dbaa2c5e56256", "type": "electric_scooter", "rental_uris": {"ios": "https://dc.lft.to/lastmile_qr_scan", "android": "https://dc.lft.to/lastmile_qr_scan"}, "bike_id": "a08262fea298cc747f0dbaa2c5e56256"}, {"lat": 38.924914333333334, "is_disabled": 0, "lon": -77.02175966666667, "is_reserved": 0, "fusion_lon": 0.0, "fusion_lat": 0.0, "name": "157fb04460ef2d53f8a4eb3a30cce216", "type": "electric_scooter", "rental_uris": {"ios": "https://dc.lft.to/lastmile_qr_scan", "android": "https://dc.lft.to/lastmile_qr_scan"}, "bike_id": "157fb04460ef2d53f8a4eb3a30cce216"}, {"lat": 38.92564333333333, "is_disabled": 0, "lon": -77.03783483333333, "is_reserved": 0, "fusion_lon": 0.0, "fusion_lat": 0.0, "name": "6e24bf9ed9b9f9defbf5f51c727729ad", "type": "electric_scooter", "rental_uris": {"ios": "https://dc.lft.to/lastmile_qr_scan", "android": "https://dc.lft.to/lastmile_qr_scan"}, "bike_id": "6e24bf9ed9b9f9defbf5f51c727729ad"}, {"lat": 38.89396966666666, "is_disabled": 0, "lon": -76.9782065, "is_reserved": 0, "fusion_lon": 0.0, "fusion_lat": 0.0, "name": "8971efcff0a0aa4859a0359ccc618215", "type": "electric_scooter", "rental_uris": {"ios": "https://dc.lft.to/lastmile_qr_scan", "android": "https://dc.lft.to/lastmile_qr_scan"}, "bike_id": "8971efcff0a0aa4859a0359ccc618215"}, {"lat": 38.88114783333333, "is_disabled": 0, "lon": -77.01659166666667, "is_reserved": 0, "fusion_lon": 0.0, "fusion_lat": 0.0, "name": "881910fe506634afbdd93280505ae6c6", "type": "electric_scooter", "rental_uris": {"ios": "https://dc.lft.to/lastmile_qr_scan", "android": "https://dc.lft.to/lastmile_qr_scan"}, "bike_id": "881910fe506634afbdd93280505ae6c6"}, {"lat": 38.919265333333335, "is_disabled": 0, "lon": -77.03430233333333, "is_reserved": 0, "fusion_lon": 0.0, "fusion_lat": 0.0, "name": "34a653ba26295eb42c4ac49ee6d44310", "type": "electric_scooter", "rental_uris": {"ios": "https://dc.lft.to/lastmile_qr_scan", "android": "https://dc.lft.to/lastmile_qr_scan"}, "bike_id": "34a653ba26295eb42c4ac49ee6d44310"}, {"lat": 38.89794283333333, "is_disabled": 0, "lon": -77.04886133333333, "is_reserved": 0, "fusion_lon": 0.0, "fusion_lat": 0.0, "name": "634ad4cd1f6cacc1d134bf633f8c914f", "type": "electric_scooter", "rental_uris": {"ios": "https://dc.lft.to/lastmile_qr_scan", "android": "https://dc.lft.to/lastmile_qr_scan"}, "bike_id": "634ad4cd1f6cacc1d134bf633f8c914f"}, {"lat": 38.924766166666664, "is_disabled": 0, "lon": -77.029978, "is_reserved": 0, "fusion_lon": 0.0, "fusion_lat": 0.0, "name": "0a0c95c133a0938322d12f2c5b58172d", "type": "electric_scooter", "rental_uris": {"ios": "https://dc.lft.to/lastmile_qr_scan", "android": "https://dc.lft.to/lastmile_qr_scan"}, "bike_id": "0a0c95c133a0938322d12f2c5b58172d"}, {"lat": 38.9263155, "is_disabled": 0, "lon": -77.0370825, "is_reserved": 0, "fusion_lon": 0.0, "fusion_lat": 0.0, "name": "50c673d8f5bf58d429bb54d5e3710cd8", "type": "electric_scooter", "rental_uris": {"ios": "https://dc.lft.to/lastmile_qr_scan", "android": "https://dc.lft.to/lastmile_qr_scan"}, "bike_id": "50c673d8f5bf58d429bb54d5e3710cd8"}, {"lat": 38.892459833333334, "is_disabled": 0, "lon": -77.04869866666667, "is_reserved": 0, "fusion_lon": 0.0, "fusion_lat": 0.0, "name": "322ff8a9515e1c050c92fdf25e626eb1", "type": "electric_scooter", "rental_uris": {"ios": "https://dc.lft.to/lastmile_qr_scan", "android": "https://dc.lft.to/lastmile_qr_scan"}, "bike_id": "322ff8a9515e1c050c92fdf25e626eb1"}, {"lat": 38.924206166666664, "is_disabled": 0, "lon": -77.02293116666667, "is_reserved": 0, "fusion_lon": 0.0, "fusion_lat": 0.0, "name": "e1d696d059d914bf0eed06548ba2c91f", "type": "electric_scooter", "rental_uris": {"ios": "https://dc.lft.to/lastmile_qr_scan", "android": "https://dc.lft.to/lastmile_qr_scan"}, "bike_id": "e1d696d059d914bf0eed06548ba2c91f"}, {"lat": 38.92483033333333, "is_disabled": 0, "lon": -77.03550516666667, "is_reserved": 0, "fusion_lon": 0.0, "fusion_lat": 0.0, "name": "f0bce262c584089b103a293c784f5f90", "type": "electric_scooter", "rental_uris": {"ios": "https://dc.lft.to/lastmile_qr_scan", "android": "https://dc.lft.to/lastmile_qr_scan"}, "bike_id": "f0bce262c584089b103a293c784f5f90"}, {"lat": 38.80978, "is_disabled": 0, "lon": -77.07660716666666, "is_reserved": 0, "fusion_lon": 0.0, "fusion_lat": 0.0, "name": "1a95e3513947c9a4e74ebdaf59ab2bf4", "type": "electric_bike", "rental_uris": {"ios": "https://dc.lft.to/lastmile_qr_scan", "android": "https://dc.lft.to/lastmile_qr_scan"}, "bike_id": "1a95e3513947c9a4e74ebdaf59ab2bf4"}, {"lat": 38.90499483333333, "is_disabled": 0, "lon": -77.02949066666666, "is_reserved": 0, "fusion_lon": 0.0, "fusion_lat": 0.0, "name": "8f01d9a2b06350a8b6fac8f09511f633", "type": "electric_scooter", "rental_uris": {"ios": "https://dc.lft.to/lastmile_qr_scan", "android": "https://dc.lft.to/lastmile_qr_scan"}, "bike_id": "8f01d9a2b06350a8b6fac8f09511f633"}, {"lat": 38.98944616666667, "is_disabled": 0, "lon": -77.10099116666666, "is_reserved": 0, "fusion_lon": 0.0, "fusion_lat": 0.0, "name": "ea74390b1c546c9126767ca4e465ac0f", "type": "electric_bike", "rental_uris": {"ios": "https://dc.lft.to/lastmile_qr_scan", "android": "https://dc.lft.to/lastmile_qr_scan"}, "bike_id": "ea74390b1c546c9126767ca4e465ac0f"}, {"lat": 38.87881733333333, "is_disabled": 0, "lon": -77.0005845, "is_reserved": 0, "fusion_lon": 0.0, "fusion_lat": 0.0, "name": "bbcfca35b033b8edbe24939d46f049bd", "type": "electric_scooter", "rental_uris": {"ios": "https://dc.lft.to/lastmile_qr_scan", "android": "https://dc.lft.to/lastmile_qr_scan"}, "bike_id": "bbcfca35b033b8edbe24939d46f049bd"}, {"lat": 38.912664666666664, "is_disabled": 0, "lon": -77.02410716666667, "is_reserved": 0, "fusion_lon": 0.0, "fusion_lat": 0.0, "name": "e56e3bfc4264c0badfb0eb840f4d432d", "type": "electric_scooter", "rental_uris": {"ios": "https://dc.lft.to/lastmile_qr_scan", "android": "https://dc.lft.to/lastmile_qr_scan"}, "bike_id": "e56e3bfc4264c0badfb0eb840f4d432d"}, {"lat": 38.86556866666667, "is_disabled": 0, "lon": -76.97338466666666, "is_reserved": 0, "fusion_lon": 0.0, "fusion_lat": 0.0, "name": "f979bbc7a7fbf2ee3151ef2c1e1b1a28", "type": "electric_bike", "rental_uris": {"ios": "https://dc.lft.to/lastmile_qr_scan", "android": "https://dc.lft.to/lastmile_qr_scan"}, "bike_id": "f979bbc7a7fbf2ee3151ef2c1e1b1a28"}, {"lat": 38.90427116666667, "is_disabled": 0, "lon": -77.0345705, "is_reserved": 0, "fusion_lon": 0.0, "fusion_lat": 0.0, "name": "b0386832344657dd83d0225ffc7f369a", "type": "electric_scooter", "rental_uris": {"ios": "https://dc.lft.to/lastmile_qr_scan", "android": "https://dc.lft.to/lastmile_qr_scan"}, "bike_id": "b0386832344657dd83d0225ffc7f369a"}, {"lat": 38.93581266666666, "is_disabled": 0, "lon": -77.02441816666666, "is_reserved": 0, "fusion_lon": 0.0, "fusion_lat": 0.0, "name": "4cf655b5ca34328bcc216d4e949035bb", "type": "electric_scooter", "rental_uris": {"ios": "https://dc.lft.to/lastmile_qr_scan", "android": "https://dc.lft.to/lastmile_qr_scan"}, "bike_id": "4cf655b5ca34328bcc216d4e949035bb"}, {"lat": 38.89562166666666, "is_disabled": 0, "lon": -77.04678066666666, "is_reserved": 0, "fusion_lon": 0.0, "fusion_lat": 0.0, "name": "1d4fe564163df97cba3a398ed1aefaf1", "type": "electric_scooter", "rental_uris": {"ios": "https://dc.lft.to/lastmile_qr_scan", "android": "https://dc.lft.to/lastmile_qr_scan"}, "bike_id": "1d4fe564163df97cba3a398ed1aefaf1"}, {"lat": 38.872819, "is_disabled": 0, "lon": -77.2332105, "is_reserved": 0, "fusion_lon": 0.0, "fusion_lat": 0.0, "name": "e0fe24a9d5eba8d95cac3a9b741c96b6", "type": "electric_bike", "rental_uris": {"ios": "https://dc.lft.to/lastmile_qr_scan", "android": "https://dc.lft.to/lastmile_qr_scan"}, "bike_id": "e0fe24a9d5eba8d95cac3a9b741c96b6"}, {"lat": 38.876433166666665, "is_disabled": 0, "lon": -77.007381, "is_reserved": 0, "fusion_lon": 0.0, "fusion_lat": 0.0, "name": "f60cb4d69c8d637dc2589c6719308f79", "type": "electric_scooter", "rental_uris": {"ios": "https://dc.lft.to/lastmile_qr_scan", "android": "https://dc.lft.to/lastmile_qr_scan"}, "bike_id": "f60cb4d69c8d637dc2589c6719308f79"}, {"lat": 38.901541333333334, "is_disabled": 0, "lon": -77.03475566666667, "is_reserved": 0, "fusion_lon": 0.0, "fusion_lat": 0.0, "name": "27664f77fbabf90eea7a83b7ea6fca55", "type": "electric_scooter", "rental_uris": {"ios": "https://dc.lft.to/lastmile_qr_scan", "android": "https://dc.lft.to/lastmile_qr_scan"}, "bike_id": "27664f77fbabf90eea7a83b7ea6fca55"}, {"lat": 38.91664816666667, "is_disabled": 0, "lon": -77.0385235, "is_reserved": 0, "fusion_lon": 0.0, "fusion_lat": 0.0, "name": "bf25a3dccb87e9fea2b39cda304fc637", "type": "electric_scooter", "rental_uris": {"ios": "https://dc.lft.to/lastmile_qr_scan", "android": "https://dc.lft.to/lastmile_qr_scan"}, "bike_id": "bf25a3dccb87e9fea2b39cda304fc637"}, {"lat": 38.92445766666667, "is_disabled": 0, "lon": -77.02027533333333, "is_reserved": 0, "fusion_lon": 0.0, "fusion_lat": 0.0, "name": "bca0d254b43e14d3a118b06a8d8406df", "type": "electric_scooter", "rental_uris": {"ios": "https://dc.lft.to/lastmile_qr_scan", "android": "https://dc.lft.to/lastmile_qr_scan"}, "bike_id": "bca0d254b43e14d3a118b06a8d8406df"}, {"lat": 38.89230416666667, "is_disabled": 0, "lon": -77.02798416666667, "is_reserved": 0, "fusion_lon": 0.0, "fusion_lat": 0.0, "name": "ccd95222fc81702c9e059f7295131ddc", "type": "electric_scooter", "rental_uris": {"ios": "https://dc.lft.to/lastmile_qr_scan", "android": "https://dc.lft.to/lastmile_qr_scan"}, "bike_id": "ccd95222fc81702c9e059f7295131ddc"}, {"lat": 38.90432333333333, "is_disabled": 0, "lon": -77.04349066666667, "is_reserved": 0, "fusion_lon": 0.0, "fusion_lat": 0.0, "name": "aba99bb2ab14d67a906627c975d417e3", "type": "electric_scooter", "rental_uris": {"ios": "https://dc.lft.to/lastmile_qr_scan", "android": "https://dc.lft.to/lastmile_qr_scan"}, "bike_id": "aba99bb2ab14d67a906627c975d417e3"}, {"lat": 38.89075716666667, "is_disabled": 0, "lon": -77.18298633333333, "is_reserved": 0, "fusion_lon": 0.0, "fusion_lat": 0.0, "name": "24275b9389f35a0ceb0139ff9d859330", "type": "electric_bike", "rental_uris": {"ios": "https://dc.lft.to/lastmile_qr_scan", "android": "https://dc.lft.to/lastmile_qr_scan"}, "bike_id": "24275b9389f35a0ceb0139ff9d859330"}, {"lat": 39.02620483333333, "is_disabled": 0, "lon": -77.03882783333333, "is_reserved": 0, "fusion_lon": 0.0, "fusion_lat": 0.0, "name": "df7ead05d4838a26bcb3cb7708759d5f", "type": "electric_bike", "rental_uris": {"ios": "https://dc.lft.to/lastmile_qr_scan", "android": "https://dc.lft.to/lastmile_qr_scan"}, "bike_id": "df7ead05d4838a26bcb3cb7708759d5f"}, {"lat": 38.901361333333334, "is_disabled": 0, "lon": -77.04542583333334, "is_reserved": 0, "fusion_lon": 0.0, "fusion_lat": 0.0, "name": "7c16e250abe834e1721ae2c4591fe149", "type": "electric_scooter", "rental_uris": {"ios": "https://dc.lft.to/lastmile_qr_scan", "android": "https://dc.lft.to/lastmile_qr_scan"}, "bike_id": "7c16e250abe834e1721ae2c4591fe149"}, {"lat": 38.891966833333335, "is_disabled": 0, "lon": -77.02383883333333, "is_reserved": 0, "fusion_lon": 0.0, "fusion_lat": 0.0, "name": "38ee1fdedc575e040a1641e199c54b09", "type": "electric_scooter", "rental_uris": {"ios": "https://dc.lft.to/lastmile_qr_scan", "android": "https://dc.lft.to/lastmile_qr_scan"}, "bike_id": "38ee1fdedc575e040a1641e199c54b09"}, {"lat": 38.90229566666667, "is_disabled": 0, "lon": -77.05912716666667, "is_reserved": 0, "fusion_lon": 0.0, "fusion_lat": 0.0, "name": "35049cb151511bcbf74f08d203bf4967", "type": "electric_scooter", "rental_uris": {"ios": "https://dc.lft.to/lastmile_qr_scan", "android": "https://dc.lft.to/lastmile_qr_scan"}, "bike_id": "35049cb151511bcbf74f08d203bf4967"}, {"lat": 38.898548, "is_disabled": 0, "lon": -77.022731, "is_reserved": 0, "fusion_lon": 0.0, "fusion_lat": 0.0, "name": "721ed2a5e32a99941d6dc5764e0ccbac", "type": "electric_scooter", "rental_uris": {"ios": "https://dc.lft.to/lastmile_qr_scan", "android": "https://dc.lft.to/lastmile_qr_scan"}, "bike_id": "721ed2a5e32a99941d6dc5764e0ccbac"}, {"lat": 38.8992725, "is_disabled": 0, "lon": -76.94579783333333, "is_reserved": 0, "fusion_lon": 0.0, "fusion_lat": 0.0, "name": "c0c1f1ce5c092b984a43b33253c7d064", "type": "electric_scooter", "rental_uris": {"ios": "https://dc.lft.to/lastmile_qr_scan", "android": "https://dc.lft.to/lastmile_qr_scan"}, "bike_id": "c0c1f1ce5c092b984a43b33253c7d064"}, {"lat": 38.89514616666666, "is_disabled": 0, "lon": -77.02199216666666, "is_reserved": 0, "fusion_lon": 0.0, "fusion_lat": 0.0, "name": "77db6ddf426da29a927e844267c0720a", "type": "electric_scooter", "rental_uris": {"ios": "https://dc.lft.to/lastmile_qr_scan", "android": "https://dc.lft.to/lastmile_qr_scan"}, "bike_id": "77db6ddf426da29a927e844267c0720a"}, {"lat": 38.90479416666667, "is_disabled": 0, "lon": -77.00206533333333, "is_reserved": 0, "fusion_lon": 0.0, "fusion_lat": 0.0, "name": "c3da33815710d73b3b57511172875c7b", "type": "electric_scooter", "rental_uris": {"ios": "https://dc.lft.to/lastmile_qr_scan", "android": "https://dc.lft.to/lastmile_qr_scan"}, "bike_id": "c3da33815710d73b3b57511172875c7b"}, {"lat": 38.89566216666667, "is_disabled": 0, "lon": -77.12739066666667, "is_reserved": 0, "fusion_lon": 0.0, "fusion_lat": 0.0, "name": "78f56a6da7c21b579be0c9b86779cbde", "type": "electric_bike", "rental_uris": {"ios": "https://dc.lft.to/lastmile_qr_scan", "android": "https://dc.lft.to/lastmile_qr_scan"}, "bike_id": "78f56a6da7c21b579be0c9b86779cbde"}, {"lat": 38.924443833333335, "is_disabled": 0, "lon": -77.0520755, "is_reserved": 0, "fusion_lon": 0.0, "fusion_lat": 0.0, "name": "5f437b6182f6b4dac889f5d35c0c3fca", "type": "electric_scooter", "rental_uris": {"ios": "https://dc.lft.to/lastmile_qr_scan", "android": "https://dc.lft.to/lastmile_qr_scan"}, "bike_id": "5f437b6182f6b4dac889f5d35c0c3fca"}, {"lat": 38.922414333333336, "is_disabled": 0, "lon": -77.02827316666666, "is_reserved": 0, "fusion_lon": 0.0, "fusion_lat": 0.0, "name": "61d33b50723b18fc16cb954203f864e1", "type": "electric_scooter", "rental_uris": {"ios": "https://dc.lft.to/lastmile_qr_scan", "android": "https://dc.lft.to/lastmile_qr_scan"}, "bike_id": "61d33b50723b18fc16cb954203f864e1"}, {"lat": 38.917658, "is_disabled": 0, "lon": -77.04769933333333, "is_reserved": 0, "fusion_lon": 0.0, "fusion_lat": 0.0, "name": "082f65d79b578ca9f9e34902f84b6637", "type": "electric_scooter", "rental_uris": {"ios": "https://dc.lft.to/lastmile_qr_scan", "android": "https://dc.lft.to/lastmile_qr_scan"}, "bike_id": "082f65d79b578ca9f9e34902f84b6637"}, {"lat": 38.909306, "is_disabled": 0, "lon": -77.05932933333334, "is_reserved": 0, "fusion_lon": 0.0, "fusion_lat": 0.0, "name": "8e69c54459226802e87584a542ccca0e", "type": "electric_scooter", "rental_uris": {"ios": "https://dc.lft.to/lastmile_qr_scan", "android": "https://dc.lft.to/lastmile_qr_scan"}, "bike_id": "8e69c54459226802e87584a542ccca0e"}, {"lat": 38.90349916666667, "is_disabled": 0, "lon": -76.92944683333333, "is_reserved": 0, "fusion_lon": 0.0, "fusion_lat": 0.0, "name": "027536a6e54fc5bb508e17eafacfcc12", "type": "electric_scooter", "rental_uris": {"ios": "https://dc.lft.to/lastmile_qr_scan", "android": "https://dc.lft.to/lastmile_qr_scan"}, "bike_id": "027536a6e54fc5bb508e17eafacfcc12"}, {"lat": 38.9186265, "is_disabled": 0, "lon": -76.960869, "is_reserved": 0, "fusion_lon": 0.0, "fusion_lat": 0.0, "name": "0ee84f48b3a3d4f5ee457e4e4fdc93c8", "type": "electric_bike", "rental_uris": {"ios": "https://dc.lft.to/lastmile_qr_scan", "android": "https://dc.lft.to/lastmile_qr_scan"}, "bike_id": "0ee84f48b3a3d4f5ee457e4e4fdc93c8"}, {"lat": 38.9192345, "is_disabled": 0, "lon": -77.0449245, "is_reserved": 0, "fusion_lon": 0.0, "fusion_lat": 0.0, "name": "b48b0d5011f64237ae46eb3f9c493361", "type": "electric_scooter", "rental_uris": {"ios": "https://dc.lft.to/lastmile_qr_scan", "android": "https://dc.lft.to/lastmile_qr_scan"}, "bike_id": "b48b0d5011f64237ae46eb3f9c493361"}, {"lat": 38.901831, "is_disabled": 0, "lon": -77.04327383333333, "is_reserved": 0, "fusion_lon": 0.0, "fusion_lat": 0.0, "name": "13e81c0366c46416d55acb0ca4838a5f", "type": "electric_scooter", "rental_uris": {"ios": "https://dc.lft.to/lastmile_qr_scan", "android": "https://dc.lft.to/lastmile_qr_scan"}, "bike_id": "13e81c0366c46416d55acb0ca4838a5f"}, {"lat": 38.896531333333336, "is_disabled": 0, "lon": -77.00261066666667, "is_reserved": 0, "fusion_lon": 0.0, "fusion_lat": 0.0, "name": "f2a17ce6283d5c8dd3e2efb5ea6b47f5", "type": "electric_bike", "rental_uris": {"ios": "https://dc.lft.to/lastmile_qr_scan", "android": "https://dc.lft.to/lastmile_qr_scan"}, "bike_id": "f2a17ce6283d5c8dd3e2efb5ea6b47f5"}, {"lat": 38.892292833333336, "is_disabled": 0, "lon": -77.02180633333333, "is_reserved": 0, "fusion_lon": 0.0, "fusion_lat": 0.0, "name": "cdfd280e81f2c7b8dd8c12060c023d0d", "type": "electric_scooter", "rental_uris": {"ios": "https://dc.lft.to/lastmile_qr_scan", "android": "https://dc.lft.to/lastmile_qr_scan"}, "bike_id": "cdfd280e81f2c7b8dd8c12060c023d0d"}, {"lat": 38.90246066666667, "is_disabled": 0, "lon": -77.034821, "is_reserved": 0, "fusion_lon": 0.0, "fusion_lat": 0.0, "name": "dfc906fade2a0d229f0e10ee799dfb72", "type": "electric_scooter", "rental_uris": {"ios": "https://dc.lft.to/lastmile_qr_scan", "android": "https://dc.lft.to/lastmile_qr_scan"}, "bike_id": "dfc906fade2a0d229f0e10ee799dfb72"}, {"lat": 38.9063555, "is_disabled": 0, "lon": -77.034588, "is_reserved": 0, "fusion_lon": 0.0, "fusion_lat": 0.0, "name": "1fd66cbe7070c4b947fe349a4558f915", "type": "electric_scooter", "rental_uris": {"ios": "https://dc.lft.to/lastmile_qr_scan", "android": "https://dc.lft.to/lastmile_qr_scan"}, "bike_id": "1fd66cbe7070c4b947fe349a4558f915"}, {"lat": 38.902236333333335, "is_disabled": 0, "lon": -77.02129483333333, "is_reserved": 0, "fusion_lon": 0.0, "fusion_lat": 0.0, "name": "9bbb8b7995162e5b1d894590f1a4dd48", "type": "electric_scooter", "rental_uris": {"ios": "https://dc.lft.to/lastmile_qr_scan", "android": "https://dc.lft.to/lastmile_qr_scan"}, "bike_id": "9bbb8b7995162e5b1d894590f1a4dd48"}, {"lat": 38.9234525, "is_disabled": 0, "lon": -77.05332133333333, "is_reserved": 0, "fusion_lon": 0.0, "fusion_lat": 0.0, "name": "1941b484662e0afac1523cfdca18cc8d", "type": "electric_scooter", "rental_uris": {"ios": "https://dc.lft.to/lastmile_qr_scan", "android": "https://dc.lft.to/lastmile_qr_scan"}, "bike_id": "1941b484662e0afac1523cfdca18cc8d"}, {"lat": 38.9077205, "is_disabled": 0, "lon": -77.0421125, "is_reserved": 0, "fusion_lon": 0.0, "fusion_lat": 0.0, "name": "423296c4d7cf82c7dabcf2081a50f024", "type": "electric_scooter", "rental_uris": {"ios": "https://dc.lft.to/lastmile_qr_scan", "android": "https://dc.lft.to/lastmile_qr_scan"}, "bike_id": "423296c4d7cf82c7dabcf2081a50f024"}, {"lat": 38.910604166666666, "is_disabled": 0, "lon": -77.03091716666667, "is_reserved": 0, "fusion_lon": 0.0, "fusion_lat": 0.0, "name": "30d83df5a873a39a0b69de522e681780", "type": "electric_scooter", "rental_uris": {"ios": "https://dc.lft.to/lastmile_qr_scan", "android": "https://dc.lft.to/lastmile_qr_scan"}, "bike_id": "30d83df5a873a39a0b69de522e681780"}, {"lat": 38.93776866666666, "is_disabled": 0, "lon": -77.01908616666667, "is_reserved": 0, "fusion_lon": 0.0, "fusion_lat": 0.0, "name": "5979cdb597cb11e00dfe81181079e67b", "type": "electric_bike", "rental_uris": {"ios": "https://dc.lft.to/lastmile_qr_scan", "android": "https://dc.lft.to/lastmile_qr_scan"}, "bike_id": "5979cdb597cb11e00dfe81181079e67b"}, {"lat": 38.881372999999996, "is_disabled": 0, "lon": -76.99624183333333, "is_reserved": 0, "fusion_lon": 0.0, "fusion_lat": 0.0, "name": "fe47ab48935f60437ca134babf3818b2", "type": "electric_scooter", "rental_uris": {"ios": "https://dc.lft.to/lastmile_qr_scan", "android": "https://dc.lft.to/lastmile_qr_scan"}, "bike_id": "fe47ab48935f60437ca134babf3818b2"}, {"lat": 38.9026085, "is_disabled": 0, "lon": -76.99850883333333, "is_reserved": 0, "fusion_lon": 0.0, "fusion_lat": 0.0, "name": "4d9462c3e80650b1ceb95641b84b1b18", "type": "electric_scooter", "rental_uris": {"ios": "https://dc.lft.to/lastmile_qr_scan", "android": "https://dc.lft.to/lastmile_qr_scan"}, "bike_id": "4d9462c3e80650b1ceb95641b84b1b18"}, {"lat": 38.906666, "is_disabled": 0, "lon": -76.9860255, "is_reserved": 0, "fusion_lon": 0.0, "fusion_lat": 0.0, "name": "92997b95eaa5d74ec5f4ea8fd1c2193f", "type": "electric_scooter", "rental_uris": {"ios": "https://dc.lft.to/lastmile_qr_scan", "android": "https://dc.lft.to/lastmile_qr_scan"}, "bike_id": "92997b95eaa5d74ec5f4ea8fd1c2193f"}, {"lat": 38.92206916666667, "is_disabled": 0, "lon": -77.03202033333334, "is_reserved": 0, "fusion_lon": 0.0, "fusion_lat": 0.0, "name": "0553d0736a0ebf491c2bfc5d253d2d85", "type": "electric_scooter", "rental_uris": {"ios": "https://dc.lft.to/lastmile_qr_scan", "android": "https://dc.lft.to/lastmile_qr_scan"}, "bike_id": "0553d0736a0ebf491c2bfc5d253d2d85"}, {"lat": 38.924942, "is_disabled": 0, "lon": -77.02173533333334, "is_reserved": 0, "fusion_lon": 0.0, "fusion_lat": 0.0, "name": "624044eae52999ddeef1c174ba704025", "type": "electric_scooter", "rental_uris": {"ios": "https://dc.lft.to/lastmile_qr_scan", "android": "https://dc.lft.to/lastmile_qr_scan"}, "bike_id": "624044eae52999ddeef1c174ba704025"}, {"lat": 38.998275166666666, "is_disabled": 0, "lon": -76.9976805, "is_reserved": 0, "fusion_lon": 0.0, "fusion_lat": 0.0, "name": "73351b92b93fc60a188ce7790129bd6c", "type": "electric_bike", "rental_uris": {"ios": "https://dc.lft.to/lastmile_qr_scan", "android": "https://dc.lft.to/lastmile_qr_scan"}, "bike_id": "73351b92b93fc60a188ce7790129bd6c"}, {"lat": 38.9309495, "is_disabled": 0, "lon": -77.0248145, "is_reserved": 0, "fusion_lon": 0.0, "fusion_lat": 0.0, "name": "dfa1c6b4ad46da47839df3492a047861", "type": "electric_scooter", "rental_uris": {"ios": "https://dc.lft.to/lastmile_qr_scan", "android": "https://dc.lft.to/lastmile_qr_scan"}, "bike_id": "dfa1c6b4ad46da47839df3492a047861"}, {"lat": 38.819135833333334, "is_disabled": 0, "lon": -77.126554, "is_reserved": 0, "fusion_lon": 0.0, "fusion_lat": 0.0, "name": "9c64794619c7be29b67f025c89a4daae", "type": "electric_bike", "rental_uris": {"ios": "https://dc.lft.to/lastmile_qr_scan", "android": "https://dc.lft.to/lastmile_qr_scan"}, "bike_id": "9c64794619c7be29b67f025c89a4daae"}, {"lat": 38.91836633333333, "is_disabled": 0, "lon": -77.03438783333333, "is_reserved": 0, "fusion_lon": 0.0, "fusion_lat": 0.0, "name": "57824a14d569de31e6cc00c88685674a", "type": "electric_scooter", "rental_uris": {"ios": "https://dc.lft.to/lastmile_qr_scan", "android": "https://dc.lft.to/lastmile_qr_scan"}, "bike_id": "57824a14d569de31e6cc00c88685674a"}, {"lat": 38.898783, "is_disabled": 0, "lon": -77.0327395, "is_reserved": 0, "fusion_lon": 0.0, "fusion_lat": 0.0, "name": "79dd522c667c916f44c6dad28feb3ce3", "type": "electric_scooter", "rental_uris": {"ios": "https://dc.lft.to/lastmile_qr_scan", "android": "https://dc.lft.to/lastmile_qr_scan"}, "bike_id": "79dd522c667c916f44c6dad28feb3ce3"}, {"lat": 38.92157533333334, "is_disabled": 0, "lon": -77.020921, "is_reserved": 0, "fusion_lon": 0.0, "fusion_lat": 0.0, "name": "51bbc9f7848a3accde8531a950186797", "type": "electric_scooter", "rental_uris": {"ios": "https://dc.lft.to/lastmile_qr_scan", "android": "https://dc.lft.to/lastmile_qr_scan"}, "bike_id": "51bbc9f7848a3accde8531a950186797"}, {"lat": 38.9209445, "is_disabled": 0, "lon": -77.02407016666666, "is_reserved": 0, "fusion_lon": 0.0, "fusion_lat": 0.0, "name": "8c360a0108baf3970456ac5904681a56", "type": "electric_scooter", "rental_uris": {"ios": "https://dc.lft.to/lastmile_qr_scan", "android": "https://dc.lft.to/lastmile_qr_scan"}, "bike_id": "8c360a0108baf3970456ac5904681a56"}, {"lat": 38.924179, "is_disabled": 0, "lon": -77.022571, "is_reserved": 0, "fusion_lon": 0.0, "fusion_lat": 0.0, "name": "91451c530d56ad07b5771fe138366154", "type": "electric_scooter", "rental_uris": {"ios": "https://dc.lft.to/lastmile_qr_scan", "android": "https://dc.lft.to/lastmile_qr_scan"}, "bike_id": "91451c530d56ad07b5771fe138366154"}, {"lat": 38.90201783333333, "is_disabled": 0, "lon": -77.04814333333333, "is_reserved": 0, "fusion_lon": 0.0, "fusion_lat": 0.0, "name": "7b3c6114f70a2368f8afaf3299091f7b", "type": "electric_scooter", "rental_uris": {"ios": "https://dc.lft.to/lastmile_qr_scan", "android": "https://dc.lft.to/lastmile_qr_scan"}, "bike_id": "7b3c6114f70a2368f8afaf3299091f7b"}, {"lat": 38.883837, "is_disabled": 0, "lon": -76.99514766666667, "is_reserved": 0, "fusion_lon": 0.0, "fusion_lat": 0.0, "name": "071140075d8d2390f95a66537905fbe5", "type": "electric_scooter", "rental_uris": {"ios": "https://dc.lft.to/lastmile_qr_scan", "android": "https://dc.lft.to/lastmile_qr_scan"}, "bike_id": "071140075d8d2390f95a66537905fbe5"}, {"lat": 38.903712666666664, "is_disabled": 0, "lon": -77.03459216666667, "is_reserved": 0, "fusion_lon": 0.0, "fusion_lat": 0.0, "name": "0fadccca3f46d88a9eb94a255a0048cb", "type": "electric_scooter", "rental_uris": {"ios": "https://dc.lft.to/lastmile_qr_scan", "android": "https://dc.lft.to/lastmile_qr_scan"}, "bike_id": "0fadccca3f46d88a9eb94a255a0048cb"}, {"lat": 38.90044266666666, "is_disabled": 0, "lon": -76.98826966666667, "is_reserved": 0, "fusion_lon": 0.0, "fusion_lat": 0.0, "name": "586874bd7390a24c9ca73cb86f669f4c", "type": "electric_scooter", "rental_uris": {"ios": "https://dc.lft.to/lastmile_qr_scan", "android": "https://dc.lft.to/lastmile_qr_scan"}, "bike_id": "586874bd7390a24c9ca73cb86f669f4c"}, {"lat": 38.939301666666665, "is_disabled": 0, "lon": -77.0258385, "is_reserved": 0, "fusion_lon": 0.0, "fusion_lat": 0.0, "name": "3cd03149efb917b47a1ff208684a6c0b", "type": "electric_scooter", "rental_uris": {"ios": "https://dc.lft.to/lastmile_qr_scan", "android": "https://dc.lft.to/lastmile_qr_scan"}, "bike_id": "3cd03149efb917b47a1ff208684a6c0b"}, {"lat": 38.890307166666666, "is_disabled": 0, "lon": -76.94465916666667, "is_reserved": 0, "fusion_lon": 0.0, "fusion_lat": 0.0, "name": "b5c451edc721ebeb00af11caba9c27e4", "type": "electric_scooter", "rental_uris": {"ios": "https://dc.lft.to/lastmile_qr_scan", "android": "https://dc.lft.to/lastmile_qr_scan"}, "bike_id": "b5c451edc721ebeb00af11caba9c27e4"}, {"lat": 38.95614483333333, "is_disabled": 0, "lon": -77.032996, "is_reserved": 0, "fusion_lon": 0.0, "fusion_lat": 0.0, "name": "8c13fddb369a455d7e366393d457c9dc", "type": "electric_scooter", "rental_uris": {"ios": "https://dc.lft.to/lastmile_qr_scan", "android": "https://dc.lft.to/lastmile_qr_scan"}, "bike_id": "8c13fddb369a455d7e366393d457c9dc"}, {"lat": 38.8963695, "is_disabled": 0, "lon": -77.02388383333333, "is_reserved": 0, "fusion_lon": 0.0, "fusion_lat": 0.0, "name": "2cd74a28850218506c9ed27fec43250f", "type": "electric_scooter", "rental_uris": {"ios": "https://dc.lft.to/lastmile_qr_scan", "android": "https://dc.lft.to/lastmile_qr_scan"}, "bike_id": "2cd74a28850218506c9ed27fec43250f"}, {"lat": 38.9232985, "is_disabled": 0, "lon": -77.01950266666667, "is_reserved": 0, "fusion_lon": 0.0, "fusion_lat": 0.0, "name": "bd1e3980d8f6bbc68686791c51f05bae", "type": "electric_scooter", "rental_uris": {"ios": "https://dc.lft.to/lastmile_qr_scan", "android": "https://dc.lft.to/lastmile_qr_scan"}, "bike_id": "bd1e3980d8f6bbc68686791c51f05bae"}, {"lat": 38.901467333333336, "is_disabled": 0, "lon": -77.04384933333333, "is_reserved": 0, "fusion_lon": 0.0, "fusion_lat": 0.0, "name": "e538c1e40500aa5efb04a3baf4418198", "type": "electric_bike", "rental_uris": {"ios": "https://dc.lft.to/lastmile_qr_scan", "android": "https://dc.lft.to/lastmile_qr_scan"}, "bike_id": "e538c1e40500aa5efb04a3baf4418198"}, {"lat": 38.900143666666665, "is_disabled": 0, "lon": -76.9987265, "is_reserved": 0, "fusion_lon": 0.0, "fusion_lat": 0.0, "name": "999b047f9c33a27966c1cf699c18ada6", "type": "electric_scooter", "rental_uris": {"ios": "https://dc.lft.to/lastmile_qr_scan", "android": "https://dc.lft.to/lastmile_qr_scan"}, "bike_id": "999b047f9c33a27966c1cf699c18ada6"}, {"lat": 38.90021816666667, "is_disabled": 0, "lon": -76.99873033333333, "is_reserved": 0, "fusion_lon": 0.0, "fusion_lat": 0.0, "name": "1ee28610a20e32a230cc0c2443778b00", "type": "electric_scooter", "rental_uris": {"ios": "https://dc.lft.to/lastmile_qr_scan", "android": "https://dc.lft.to/lastmile_qr_scan"}, "bike_id": "1ee28610a20e32a230cc0c2443778b00"}, {"lat": 38.91793883333333, "is_disabled": 0, "lon": -77.02115133333334, "is_reserved": 0, "fusion_lon": 0.0, "fusion_lat": 0.0, "name": "4f79f3c763cade430c1033021d2ed74e", "type": "electric_scooter", "rental_uris": {"ios": "https://dc.lft.to/lastmile_qr_scan", "android": "https://dc.lft.to/lastmile_qr_scan"}, "bike_id": "4f79f3c763cade430c1033021d2ed74e"}, {"lat": 38.88580283333334, "is_disabled": 0, "lon": -77.01997016666667, "is_reserved": 0, "fusion_lon": 0.0, "fusion_lat": 0.0, "name": "b27214e779babc88ed3df3cdf0b7ecaf", "type": "electric_scooter", "rental_uris": {"ios": "https://dc.lft.to/lastmile_qr_scan", "android": "https://dc.lft.to/lastmile_qr_scan"}, "bike_id": "b27214e779babc88ed3df3cdf0b7ecaf"}, {"lat": 38.89246766666667, "is_disabled": 0, "lon": -76.92367166666666, "is_reserved": 0, "fusion_lon": 0.0, "fusion_lat": 0.0, "name": "384f62d8f88e62b483b3bbad3d273d4c", "type": "electric_scooter", "rental_uris": {"ios": "https://dc.lft.to/lastmile_qr_scan", "android": "https://dc.lft.to/lastmile_qr_scan"}, "bike_id": "384f62d8f88e62b483b3bbad3d273d4c"}, {"lat": 38.91811333333333, "is_disabled": 0, "lon": -77.02480216666666, "is_reserved": 0, "fusion_lon": 0.0, "fusion_lat": 0.0, "name": "143f1ed968054766f7876b978ebea189", "type": "electric_scooter", "rental_uris": {"ios": "https://dc.lft.to/lastmile_qr_scan", "android": "https://dc.lft.to/lastmile_qr_scan"}, "bike_id": "143f1ed968054766f7876b978ebea189"}, {"lat": 38.9002835, "is_disabled": 0, "lon": -76.9878835, "is_reserved": 0, "fusion_lon": 0.0, "fusion_lat": 0.0, "name": "d77a99ecd2bb8c4edafd3c35b8ccf5bc", "type": "electric_scooter", "rental_uris": {"ios": "https://dc.lft.to/lastmile_qr_scan", "android": "https://dc.lft.to/lastmile_qr_scan"}, "bike_id": "d77a99ecd2bb8c4edafd3c35b8ccf5bc"}, {"lat": 38.92259966666667, "is_disabled": 0, "lon": -77.019506, "is_reserved": 0, "fusion_lon": 0.0, "fusion_lat": 0.0, "name": "fce4c76eeaa6c8926c25c42dcf99a65b", "type": "electric_scooter", "rental_uris": {"ios": "https://dc.lft.to/lastmile_qr_scan", "android": "https://dc.lft.to/lastmile_qr_scan"}, "bike_id": "fce4c76eeaa6c8926c25c42dcf99a65b"}, {"lat": 38.90544083333333, "is_disabled": 0, "lon": -77.04803666666666, "is_reserved": 0, "fusion_lon": 0.0, "fusion_lat": 0.0, "name": "d6969ce5a34e96330cf62504d20cf595", "type": "electric_scooter", "rental_uris": {"ios": "https://dc.lft.to/lastmile_qr_scan", "android": "https://dc.lft.to/lastmile_qr_scan"}, "bike_id": "d6969ce5a34e96330cf62504d20cf595"}, {"lat": 38.85067016666667, "is_disabled": 0, "lon": -76.95829866666666, "is_reserved": 0, "fusion_lon": 0.0, "fusion_lat": 0.0, "name": "1f422f059420ba62595ddb130be34998", "type": "electric_bike", "rental_uris": {"ios": "https://dc.lft.to/lastmile_qr_scan", "android": "https://dc.lft.to/lastmile_qr_scan"}, "bike_id": "1f422f059420ba62595ddb130be34998"}, {"lat": 38.921070666666665, "is_disabled": 0, "lon": -77.04012783333333, "is_reserved": 0, "fusion_lon": 0.0, "fusion_lat": 0.0, "name": "cfdc4f841ac1d15177d55bbef18a2fda", "type": "electric_scooter", "rental_uris": {"ios": "https://dc.lft.to/lastmile_qr_scan", "android": "https://dc.lft.to/lastmile_qr_scan"}, "bike_id": "cfdc4f841ac1d15177d55bbef18a2fda"}, {"lat": 38.920814666666665, "is_disabled": 0, "lon": -77.02193716666666, "is_reserved": 0, "fusion_lon": 0.0, "fusion_lat": 0.0, "name": "9882f3ee088812f0dfe499ec911fcfb8", "type": "electric_scooter", "rental_uris": {"ios": "https://dc.lft.to/lastmile_qr_scan", "android": "https://dc.lft.to/lastmile_qr_scan"}, "bike_id": "9882f3ee088812f0dfe499ec911fcfb8"}, {"lat": 38.904100666666665, "is_disabled": 0, "lon": -77.046698, "is_reserved": 0, "fusion_lon": 0.0, "fusion_lat": 0.0, "name": "b72257af7dc9879e29a58f7c1456eb5e", "type": "electric_scooter", "rental_uris": {"ios": "https://dc.lft.to/lastmile_qr_scan", "android": "https://dc.lft.to/lastmile_qr_scan"}, "bike_id": "b72257af7dc9879e29a58f7c1456eb5e"}, {"lat": 38.92132683333333, "is_disabled": 0, "lon": -77.028687, "is_reserved": 0, "fusion_lon": 0.0, "fusion_lat": 0.0, "name": "a214941a29b87b783b46ad01d1a8b45c", "type": "electric_bike", "rental_uris": {"ios": "https://dc.lft.to/lastmile_qr_scan", "android": "https://dc.lft.to/lastmile_qr_scan"}, "bike_id": "a214941a29b87b783b46ad01d1a8b45c"}, {"lat": 38.90034333333333, "is_disabled": 0, "lon": -77.00911183333334, "is_reserved": 0, "fusion_lon": 0.0, "fusion_lat": 0.0, "name": "90003579600b72822f1e5ae5424507f3", "type": "electric_scooter", "rental_uris": {"ios": "https://dc.lft.to/lastmile_qr_scan", "android": "https://dc.lft.to/lastmile_qr_scan"}, "bike_id": "90003579600b72822f1e5ae5424507f3"}, {"lat": 38.997849333333335, "is_disabled": 0, "lon": -77.00757733333333, "is_reserved": 0, "fusion_lon": 0.0, "fusion_lat": 0.0, "name": "369134a9cfeae0e621ac1dbac6e9fa85", "type": "electric_bike", "rental_uris": {"ios": "https://dc.lft.to/lastmile_qr_scan", "android": "https://dc.lft.to/lastmile_qr_scan"}, "bike_id": "369134a9cfeae0e621ac1dbac6e9fa85"}, {"lat": 38.896320833333334, "is_disabled": 0, "lon": -77.02645616666666, "is_reserved": 0, "fusion_lon": 0.0, "fusion_lat": 0.0, "name": "810639ab8465d74e25286ffa5f3e8b45", "type": "electric_scooter", "rental_uris": {"ios": "https://dc.lft.to/lastmile_qr_scan", "android": "https://dc.lft.to/lastmile_qr_scan"}, "bike_id": "810639ab8465d74e25286ffa5f3e8b45"}, {"lat": 38.876971, "is_disabled": 0, "lon": -77.01666983333334, "is_reserved": 0, "fusion_lon": 0.0, "fusion_lat": 0.0, "name": "f60ab192a964fb66e1b3337fde308764", "type": "electric_scooter", "rental_uris": {"ios": "https://dc.lft.to/lastmile_qr_scan", "android": "https://dc.lft.to/lastmile_qr_scan"}, "bike_id": "f60ab192a964fb66e1b3337fde308764"}, {"lat": 38.884662166666665, "is_disabled": 0, "lon": -76.952511, "is_reserved": 0, "fusion_lon": 0.0, "fusion_lat": 0.0, "name": "3389daa1b89c43f76ee2fd5c2c1a5175", "type": "electric_bike", "rental_uris": {"ios": "https://dc.lft.to/lastmile_qr_scan", "android": "https://dc.lft.to/lastmile_qr_scan"}, "bike_id": "3389daa1b89c43f76ee2fd5c2c1a5175"}, {"lat": 38.89830416666667, "is_disabled": 0, "lon": -77.0401505, "is_reserved": 0, "fusion_lon": 0.0, "fusion_lat": 0.0, "name": "cf8f6c381433f8c577e935c45465e130", "type": "electric_scooter", "rental_uris": {"ios": "https://dc.lft.to/lastmile_qr_scan", "android": "https://dc.lft.to/lastmile_qr_scan"}, "bike_id": "cf8f6c381433f8c577e935c45465e130"}, {"lat": 38.9612955, "is_disabled": 0, "lon": -77.0327305, "is_reserved": 0, "fusion_lon": 0.0, "fusion_lat": 0.0, "name": "2f071ce65269b92c66f3b0fd02448784", "type": "electric_bike", "rental_uris": {"ios": "https://dc.lft.to/lastmile_qr_scan", "android": "https://dc.lft.to/lastmile_qr_scan"}, "bike_id": "2f071ce65269b92c66f3b0fd02448784"}, {"lat": 38.91407366666667, "is_disabled": 0, "lon": -77.02894033333334, "is_reserved": 0, "fusion_lon": 0.0, "fusion_lat": 0.0, "name": "8f6ed3938a7c5a0571965f71156819e8", "type": "electric_scooter", "rental_uris": {"ios": "https://dc.lft.to/lastmile_qr_scan", "android": "https://dc.lft.to/lastmile_qr_scan"}, "bike_id": "8f6ed3938a7c5a0571965f71156819e8"}, {"lat": 38.89553083333333, "is_disabled": 0, "lon": -77.00907233333334, "is_reserved": 0, "fusion_lon": 0.0, "fusion_lat": 0.0, "name": "6d397494baeb6425515a53d7ef899814", "type": "electric_scooter", "rental_uris": {"ios": "https://dc.lft.to/lastmile_qr_scan", "android": "https://dc.lft.to/lastmile_qr_scan"}, "bike_id": "6d397494baeb6425515a53d7ef899814"}, {"lat": 38.90398833333333, "is_disabled": 0, "lon": -77.06295, "is_reserved": 0, "fusion_lon": 0.0, "fusion_lat": 0.0, "name": "9933f021e3baf4a9c3c62ae0e0826c19", "type": "electric_scooter", "rental_uris": {"ios": "https://dc.lft.to/lastmile_qr_scan", "android": "https://dc.lft.to/lastmile_qr_scan"}, "bike_id": "9933f021e3baf4a9c3c62ae0e0826c19"}, {"lat": 38.918773333333334, "is_disabled": 0, "lon": -77.041954, "is_reserved": 0, "fusion_lon": 0.0, "fusion_lat": 0.0, "name": "658098dafd06f60b6fc99ff8ce1aa206", "type": "electric_scooter", "rental_uris": {"ios": "https://dc.lft.to/lastmile_qr_scan", "android": "https://dc.lft.to/lastmile_qr_scan"}, "bike_id": "658098dafd06f60b6fc99ff8ce1aa206"}, {"lat": 38.89748, "is_disabled": 0, "lon": -77.028749, "is_reserved": 0, "fusion_lon": 0.0, "fusion_lat": 0.0, "name": "e4c3498c4da3fdd1a63676a9a0854182", "type": "electric_scooter", "rental_uris": {"ios": "https://dc.lft.to/lastmile_qr_scan", "android": "https://dc.lft.to/lastmile_qr_scan"}, "bike_id": "e4c3498c4da3fdd1a63676a9a0854182"}, {"lat": 38.887452, "is_disabled": 0, "lon": -77.01623766666667, "is_reserved": 0, "fusion_lon": 0.0, "fusion_lat": 0.0, "name": "b34deaeb1c4be8cc1e42a158bddd74bc", "type": "electric_scooter", "rental_uris": {"ios": "https://dc.lft.to/lastmile_qr_scan", "android": "https://dc.lft.to/lastmile_qr_scan"}, "bike_id": "b34deaeb1c4be8cc1e42a158bddd74bc"}, {"lat": 38.897211666666664, "is_disabled": 0, "lon": -76.98358116666667, "is_reserved": 0, "fusion_lon": 0.0, "fusion_lat": 0.0, "name": "d4729eb96849f1dd3b1426730dbb0ecc", "type": "electric_scooter", "rental_uris": {"ios": "https://dc.lft.to/lastmile_qr_scan", "android": "https://dc.lft.to/lastmile_qr_scan"}, "bike_id": "d4729eb96849f1dd3b1426730dbb0ecc"}, {"lat": 38.89359366666667, "is_disabled": 0, "lon": -77.00336083333333, "is_reserved": 0, "fusion_lon": 0.0, "fusion_lat": 0.0, "name": "edfcbc60858e954e93ad8fe62e3f2403", "type": "electric_scooter", "rental_uris": {"ios": "https://dc.lft.to/lastmile_qr_scan", "android": "https://dc.lft.to/lastmile_qr_scan"}, "bike_id": "edfcbc60858e954e93ad8fe62e3f2403"}, {"lat": 38.911906, "is_disabled": 0, "lon": -77.0072815, "is_reserved": 0, "fusion_lon": 0.0, "fusion_lat": 0.0, "name": "7f67f881fbee8a65921768b7d312afdd", "type": "electric_scooter", "rental_uris": {"ios": "https://dc.lft.to/lastmile_qr_scan", "android": "https://dc.lft.to/lastmile_qr_scan"}, "bike_id": "7f67f881fbee8a65921768b7d312afdd"}, {"lat": 38.92043533333333, "is_disabled": 0, "lon": -77.01678216666667, "is_reserved": 0, "fusion_lon": 0.0, "fusion_lat": 0.0, "name": "7f81fb8e01983de2277ae0ce67ca1412", "type": "electric_scooter", "rental_uris": {"ios": "https://dc.lft.to/lastmile_qr_scan", "android": "https://dc.lft.to/lastmile_qr_scan"}, "bike_id": "7f81fb8e01983de2277ae0ce67ca1412"}, {"lat": 38.921555833333336, "is_disabled": 0, "lon": -77.0332425, "is_reserved": 0, "fusion_lon": 0.0, "fusion_lat": 0.0, "name": "1f88bdaaabee19b87608139f347e1f40", "type": "electric_scooter", "rental_uris": {"ios": "https://dc.lft.to/lastmile_qr_scan", "android": "https://dc.lft.to/lastmile_qr_scan"}, "bike_id": "1f88bdaaabee19b87608139f347e1f40"}, {"lat": 38.88953866666667, "is_disabled": 0, "lon": -76.95358966666667, "is_reserved": 0, "fusion_lon": 0.0, "fusion_lat": 0.0, "name": "eb15c4824c67427aff7109bdc58d73c8", "type": "electric_scooter", "rental_uris": {"ios": "https://dc.lft.to/lastmile_qr_scan", "android": "https://dc.lft.to/lastmile_qr_scan"}, "bike_id": "eb15c4824c67427aff7109bdc58d73c8"}, {"lat": 38.876959166666666, "is_disabled": 0, "lon": -77.01771066666667, "is_reserved": 0, "fusion_lon": 0.0, "fusion_lat": 0.0, "name": "2d266648ded8977d552564a477fc519b", "type": "electric_scooter", "rental_uris": {"ios": "https://dc.lft.to/lastmile_qr_scan", "android": "https://dc.lft.to/lastmile_qr_scan"}, "bike_id": "2d266648ded8977d552564a477fc519b"}, {"lat": 38.901464, "is_disabled": 0, "lon": -77.05918316666667, "is_reserved": 0, "fusion_lon": 0.0, "fusion_lat": 0.0, "name": "0cdf36c8db49a160ebf77d568f6b2c21", "type": "electric_scooter", "rental_uris": {"ios": "https://dc.lft.to/lastmile_qr_scan", "android": "https://dc.lft.to/lastmile_qr_scan"}, "bike_id": "0cdf36c8db49a160ebf77d568f6b2c21"}, {"lat": 38.906945, "is_disabled": 0, "lon": -76.952551, "is_reserved": 0, "fusion_lon": 0.0, "fusion_lat": 0.0, "name": "ce4b739fc49c0f2233e9a1a4a7142657", "type": "electric_bike", "rental_uris": {"ios": "https://dc.lft.to/lastmile_qr_scan", "android": "https://dc.lft.to/lastmile_qr_scan"}, "bike_id": "ce4b739fc49c0f2233e9a1a4a7142657"}, {"lat": 38.9230225, "is_disabled": 0, "lon": -76.98848183333334, "is_reserved": 0, "fusion_lon": 0.0, "fusion_lat": 0.0, "name": "57915994f0eed644e273fdf121635be8", "type": "electric_scooter", "rental_uris": {"ios": "https://dc.lft.to/lastmile_qr_scan", "android": "https://dc.lft.to/lastmile_qr_scan"}, "bike_id": "57915994f0eed644e273fdf121635be8"}, {"lat": 38.900277333333335, "is_disabled": 0, "lon": -77.030112, "is_reserved": 0, "fusion_lon": 0.0, "fusion_lat": 0.0, "name": "810d8a93171de586b954003eeffbe3b9", "type": "electric_bike", "rental_uris": {"ios": "https://dc.lft.to/lastmile_qr_scan", "android": "https://dc.lft.to/lastmile_qr_scan"}, "bike_id": "810d8a93171de586b954003eeffbe3b9"}, {"lat": 38.90317266666667, "is_disabled": 0, "lon": -77.03860033333333, "is_reserved": 0, "fusion_lon": 0.0, "fusion_lat": 0.0, "name": "ac33e40af4a051027338fee1ea3118b2", "type": "electric_scooter", "rental_uris": {"ios": "https://dc.lft.to/lastmile_qr_scan", "android": "https://dc.lft.to/lastmile_qr_scan"}, "bike_id": "ac33e40af4a051027338fee1ea3118b2"}, {"lat": 38.9100535, "is_disabled": 0, "lon": -77.04006783333334, "is_reserved": 0, "fusion_lon": 0.0, "fusion_lat": 0.0, "name": "5841e19f9beb1fdc6c8e92e806d19335", "type": "electric_scooter", "rental_uris": {"ios": "https://dc.lft.to/lastmile_qr_scan", "android": "https://dc.lft.to/lastmile_qr_scan"}, "bike_id": "5841e19f9beb1fdc6c8e92e806d19335"}, {"lat": 38.925418, "is_disabled": 0, "lon": -77.00210083333333, "is_reserved": 0, "fusion_lon": 0.0, "fusion_lat": 0.0, "name": "25a5cb9fa300d50fc3fc89d959019a71", "type": "electric_scooter", "rental_uris": {"ios": "https://dc.lft.to/lastmile_qr_scan", "android": "https://dc.lft.to/lastmile_qr_scan"}, "bike_id": "25a5cb9fa300d50fc3fc89d959019a71"}, {"lat": 38.92184866666667, "is_disabled": 0, "lon": -77.02094316666667, "is_reserved": 0, "fusion_lon": 0.0, "fusion_lat": 0.0, "name": "8f65d7ede990e0a6124d507bfb9f82b6", "type": "electric_scooter", "rental_uris": {"ios": "https://dc.lft.to/lastmile_qr_scan", "android": "https://dc.lft.to/lastmile_qr_scan"}, "bike_id": "8f65d7ede990e0a6124d507bfb9f82b6"}, {"lat": 38.915893833333335, "is_disabled": 0, "lon": -77.03214866666667, "is_reserved": 0, "fusion_lon": 0.0, "fusion_lat": 0.0, "name": "1600d4c4c39cfcd6412f2b85c9d0eb35", "type": "electric_scooter", "rental_uris": {"ios": "https://dc.lft.to/lastmile_qr_scan", "android": "https://dc.lft.to/lastmile_qr_scan"}, "bike_id": "1600d4c4c39cfcd6412f2b85c9d0eb35"}, {"lat": 38.887358, "is_disabled": 0, "lon": -77.031818, "is_reserved": 0, "fusion_lon": 0.0, "fusion_lat": 0.0, "name": "1282a17cb9ca163eb1067ab12125301a", "type": "electric_scooter", "rental_uris": {"ios": "https://dc.lft.to/lastmile_qr_scan", "android": "https://dc.lft.to/lastmile_qr_scan"}, "bike_id": "1282a17cb9ca163eb1067ab12125301a"}, {"lat": 38.90026483333333, "is_disabled": 0, "lon": -77.04366766666666, "is_reserved": 0, "fusion_lon": 0.0, "fusion_lat": 0.0, "name": "8aa8a238b21b1b2ebdc4fc56fedcf51e", "type": "electric_scooter", "rental_uris": {"ios": "https://dc.lft.to/lastmile_qr_scan", "android": "https://dc.lft.to/lastmile_qr_scan"}, "bike_id": "8aa8a238b21b1b2ebdc4fc56fedcf51e"}, {"lat": 38.91609833333333, "is_disabled": 0, "lon": -77.04171066666666, "is_reserved": 0, "fusion_lon": 0.0, "fusion_lat": 0.0, "name": "57da6e3e9d8bd30a4008c5f422b2d2ed", "type": "electric_scooter", "rental_uris": {"ios": "https://dc.lft.to/lastmile_qr_scan", "android": "https://dc.lft.to/lastmile_qr_scan"}, "bike_id": "57da6e3e9d8bd30a4008c5f422b2d2ed"}, {"lat": 38.9064175, "is_disabled": 0, "lon": -77.05153716666666, "is_reserved": 0, "fusion_lon": 0.0, "fusion_lat": 0.0, "name": "0ea1f2149a8b194d1dacadac42c0affe", "type": "electric_scooter", "rental_uris": {"ios": "https://dc.lft.to/lastmile_qr_scan", "android": "https://dc.lft.to/lastmile_qr_scan"}, "bike_id": "0ea1f2149a8b194d1dacadac42c0affe"}, {"lat": 38.904835, "is_disabled": 0, "lon": -77.0214295, "is_reserved": 0, "fusion_lon": 0.0, "fusion_lat": 0.0, "name": "75c78c4ccdcbcafe93bdff5375e83ffc", "type": "electric_scooter", "rental_uris": {"ios": "https://dc.lft.to/lastmile_qr_scan", "android": "https://dc.lft.to/lastmile_qr_scan"}, "bike_id": "75c78c4ccdcbcafe93bdff5375e83ffc"}, {"lat": 38.85814083333333, "is_disabled": 0, "lon": -76.99002433333334, "is_reserved": 0, "fusion_lon": 0.0, "fusion_lat": 0.0, "name": "56a539ab8e194487f47fb28789f55920", "type": "electric_scooter", "rental_uris": {"ios": "https://dc.lft.to/lastmile_qr_scan", "android": "https://dc.lft.to/lastmile_qr_scan"}, "bike_id": "56a539ab8e194487f47fb28789f55920"}, {"lat": 38.949799166666665, "is_disabled": 0, "lon": -77.02701666666667, "is_reserved": 0, "fusion_lon": 0.0, "fusion_lat": 0.0, "name": "e2693158451b79a054a0e8f5292e9c34", "type": "electric_scooter", "rental_uris": {"ios": "https://dc.lft.to/lastmile_qr_scan", "android": "https://dc.lft.to/lastmile_qr_scan"}, "bike_id": "e2693158451b79a054a0e8f5292e9c34"}, {"lat": 38.896278333333335, "is_disabled": 0, "lon": -77.02203333333334, "is_reserved": 0, "fusion_lon": 0.0, "fusion_lat": 0.0, "name": "f6e75da2ab6945d9a3f262e77fc5771c", "type": "electric_scooter", "rental_uris": {"ios": "https://dc.lft.to/lastmile_qr_scan", "android": "https://dc.lft.to/lastmile_qr_scan"}, "bike_id": "f6e75da2ab6945d9a3f262e77fc5771c"}, {"lat": 38.942922333333335, "is_disabled": 0, "lon": -77.03618183333333, "is_reserved": 0, "fusion_lon": 0.0, "fusion_lat": 0.0, "name": "ff9c09b6012d23df7b3bc268e49f6bdf", "type": "electric_scooter", "rental_uris": {"ios": "https://dc.lft.to/lastmile_qr_scan", "android": "https://dc.lft.to/lastmile_qr_scan"}, "bike_id": "ff9c09b6012d23df7b3bc268e49f6bdf"}, {"lat": 38.88501566666667, "is_disabled": 0, "lon": -77.00567933333333, "is_reserved": 0, "fusion_lon": 0.0, "fusion_lat": 0.0, "name": "ab06dd932afd88ae8719f1865ed1333e", "type": "electric_scooter", "rental_uris": {"ios": "https://dc.lft.to/lastmile_qr_scan", "android": "https://dc.lft.to/lastmile_qr_scan"}, "bike_id": "ab06dd932afd88ae8719f1865ed1333e"}, {"lat": 38.900051833333336, "is_disabled": 0, "lon": -77.03292533333334, "is_reserved": 0, "fusion_lon": 0.0, "fusion_lat": 0.0, "name": "3d45770f97fe99c4964ebc29407413fa", "type": "electric_scooter", "rental_uris": {"ios": "https://dc.lft.to/lastmile_qr_scan", "android": "https://dc.lft.to/lastmile_qr_scan"}, "bike_id": "3d45770f97fe99c4964ebc29407413fa"}, {"lat": 38.91291583333334, "is_disabled": 0, "lon": -77.03181916666666, "is_reserved": 0, "fusion_lon": 0.0, "fusion_lat": 0.0, "name": "ae8a12982f8a6be86bda39739ff8a8ac", "type": "electric_scooter", "rental_uris": {"ios": "https://dc.lft.to/lastmile_qr_scan", "android": "https://dc.lft.to/lastmile_qr_scan"}, "bike_id": "ae8a12982f8a6be86bda39739ff8a8ac"}, {"lat": 38.90060233333333, "is_disabled": 0, "lon": -77.04658833333333, "is_reserved": 0, "fusion_lon": 0.0, "fusion_lat": 0.0, "name": "460cff71b0f6a744fc32f6af7aa342a1", "type": "electric_scooter", "rental_uris": {"ios": "https://dc.lft.to/lastmile_qr_scan", "android": "https://dc.lft.to/lastmile_qr_scan"}, "bike_id": "460cff71b0f6a744fc32f6af7aa342a1"}, {"lat": 38.90245, "is_disabled": 0, "lon": -77.036268, "is_reserved": 0, "fusion_lon": 0.0, "fusion_lat": 0.0, "name": "171099801e5e32f01d01a0f2adea650e", "type": "electric_scooter", "rental_uris": {"ios": "https://dc.lft.to/lastmile_qr_scan", "android": "https://dc.lft.to/lastmile_qr_scan"}, "bike_id": "171099801e5e32f01d01a0f2adea650e"}, {"lat": 38.89361916666667, "is_disabled": 0, "lon": -76.98802733333333, "is_reserved": 0, "fusion_lon": 0.0, "fusion_lat": 0.0, "name": "a6aabab638c994e18f73d76076a38038", "type": "electric_scooter", "rental_uris": {"ios": "https://dc.lft.to/lastmile_qr_scan", "android": "https://dc.lft.to/lastmile_qr_scan"}, "bike_id": "a6aabab638c994e18f73d76076a38038"}, {"lat": 38.8954575, "is_disabled": 0, "lon": -76.98338383333333, "is_reserved": 0, "fusion_lon": 0.0, "fusion_lat": 0.0, "name": "dd1bdd02becce2018134802e67e23d9c", "type": "electric_scooter", "rental_uris": {"ios": "https://dc.lft.to/lastmile_qr_scan", "android": "https://dc.lft.to/lastmile_qr_scan"}, "bike_id": "dd1bdd02becce2018134802e67e23d9c"}, {"lat": 38.9095705, "is_disabled": 0, "lon": -77.00763533333334, "is_reserved": 0, "fusion_lon": 0.0, "fusion_lat": 0.0, "name": "0de17c130e69c04513c85129dacbde13", "type": "electric_scooter", "rental_uris": {"ios": "https://dc.lft.to/lastmile_qr_scan", "android": "https://dc.lft.to/lastmile_qr_scan"}, "bike_id": "0de17c130e69c04513c85129dacbde13"}, {"lat": 38.905784, "is_disabled": 0, "lon": -77.0403605, "is_reserved": 0, "fusion_lon": 0.0, "fusion_lat": 0.0, "name": "0026641a96eaafea5cf3013bef787321", "type": "electric_scooter", "rental_uris": {"ios": "https://dc.lft.to/lastmile_qr_scan", "android": "https://dc.lft.to/lastmile_qr_scan"}, "bike_id": "0026641a96eaafea5cf3013bef787321"}, {"lat": 38.926023, "is_disabled": 0, "lon": -77.021591, "is_reserved": 0, "fusion_lon": 0.0, "fusion_lat": 0.0, "name": "58b7de1f1047b75d5e6ec5db0606f91f", "type": "electric_scooter", "rental_uris": {"ios": "https://dc.lft.to/lastmile_qr_scan", "android": "https://dc.lft.to/lastmile_qr_scan"}, "bike_id": "58b7de1f1047b75d5e6ec5db0606f91f"}, {"lat": 38.95202966666667, "is_disabled": 0, "lon": -77.02738533333333, "is_reserved": 0, "fusion_lon": 0.0, "fusion_lat": 0.0, "name": "60bafdecb0ef800742c23177c2900844", "type": "electric_scooter", "rental_uris": {"ios": "https://dc.lft.to/lastmile_qr_scan", "android": "https://dc.lft.to/lastmile_qr_scan"}, "bike_id": "60bafdecb0ef800742c23177c2900844"}, {"lat": 38.895913666666665, "is_disabled": 0, "lon": -77.02191416666666, "is_reserved": 0, "fusion_lon": 0.0, "fusion_lat": 0.0, "name": "327829e03942e357ffe3e77bc27dd6ec", "type": "electric_scooter", "rental_uris": {"ios": "https://dc.lft.to/lastmile_qr_scan", "android": "https://dc.lft.to/lastmile_qr_scan"}, "bike_id": "327829e03942e357ffe3e77bc27dd6ec"}, {"lat": 38.879988833333336, "is_disabled": 0, "lon": -76.985431, "is_reserved": 0, "fusion_lon": 0.0, "fusion_lat": 0.0, "name": "3e3af666c0dde85f7c9b992711d3ae76", "type": "electric_scooter", "rental_uris": {"ios": "https://dc.lft.to/lastmile_qr_scan", "android": "https://dc.lft.to/lastmile_qr_scan"}, "bike_id": "3e3af666c0dde85f7c9b992711d3ae76"}, {"lat": 38.916982, "is_disabled": 0, "lon": -77.03747, "is_reserved": 0, "fusion_lon": 0.0, "fusion_lat": 0.0, "name": "57b3cd29c5ee4ef701465b9657198377", "type": "electric_scooter", "rental_uris": {"ios": "https://dc.lft.to/lastmile_qr_scan", "android": "https://dc.lft.to/lastmile_qr_scan"}, "bike_id": "57b3cd29c5ee4ef701465b9657198377"}, {"lat": 38.883771, "is_disabled": 0, "lon": -76.99517233333333, "is_reserved": 0, "fusion_lon": 0.0, "fusion_lat": 0.0, "name": "49e61daa4cdb9a4e07f9fc1891d8c6bb", "type": "electric_scooter", "rental_uris": {"ios": "https://dc.lft.to/lastmile_qr_scan", "android": "https://dc.lft.to/lastmile_qr_scan"}, "bike_id": "49e61daa4cdb9a4e07f9fc1891d8c6bb"}, {"lat": 38.91972166666667, "is_disabled": 0, "lon": -77.0320985, "is_reserved": 0, "fusion_lon": 0.0, "fusion_lat": 0.0, "name": "b231345663c35092f06626f0642b67fc", "type": "electric_scooter", "rental_uris": {"ios": "https://dc.lft.to/lastmile_qr_scan", "android": "https://dc.lft.to/lastmile_qr_scan"}, "bike_id": "b231345663c35092f06626f0642b67fc"}, {"lat": 38.906653666666664, "is_disabled": 0, "lon": -77.00576566666666, "is_reserved": 0, "fusion_lon": 0.0, "fusion_lat": 0.0, "name": "2bc7282076115e2bc949fb294e4190fc", "type": "electric_scooter", "rental_uris": {"ios": "https://dc.lft.to/lastmile_qr_scan", "android": "https://dc.lft.to/lastmile_qr_scan"}, "bike_id": "2bc7282076115e2bc949fb294e4190fc"}, {"lat": 38.89803416666667, "is_disabled": 0, "lon": -76.97933583333334, "is_reserved": 0, "fusion_lon": 0.0, "fusion_lat": 0.0, "name": "4206e144c0d23ac42a591938dfa82fa4", "type": "electric_scooter", "rental_uris": {"ios": "https://dc.lft.to/lastmile_qr_scan", "android": "https://dc.lft.to/lastmile_qr_scan"}, "bike_id": "4206e144c0d23ac42a591938dfa82fa4"}, {"lat": 38.8154525, "is_disabled": 0, "lon": -77.0464625, "is_reserved": 0, "fusion_lon": 0.0, "fusion_lat": 0.0, "name": "d5bdb84c1c8ce3355aeac44a0fdf403e", "type": "electric_bike", "rental_uris": {"ios": "https://dc.lft.to/lastmile_qr_scan", "android": "https://dc.lft.to/lastmile_qr_scan"}, "bike_id": "d5bdb84c1c8ce3355aeac44a0fdf403e"}, {"lat": 38.902788, "is_disabled": 0, "lon": -77.04450966666667, "is_reserved": 0, "fusion_lon": 0.0, "fusion_lat": 0.0, "name": "95cc166e0368281be8ab2e17ed60f7d5", "type": "electric_scooter", "rental_uris": {"ios": "https://dc.lft.to/lastmile_qr_scan", "android": "https://dc.lft.to/lastmile_qr_scan"}, "bike_id": "95cc166e0368281be8ab2e17ed60f7d5"}, {"lat": 38.89989966666667, "is_disabled": 0, "lon": -77.02301133333333, "is_reserved": 0, "fusion_lon": 0.0, "fusion_lat": 0.0, "name": "81efeb4b1e170a3f42381c793b386b72", "type": "electric_scooter", "rental_uris": {"ios": "https://dc.lft.to/lastmile_qr_scan", "android": "https://dc.lft.to/lastmile_qr_scan"}, "bike_id": "81efeb4b1e170a3f42381c793b386b72"}, {"lat": 38.9061925, "is_disabled": 0, "lon": -77.01491216666666, "is_reserved": 0, "fusion_lon": 0.0, "fusion_lat": 0.0, "name": "366d99705c1c4ab1d202eb916ef7f065", "type": "electric_scooter", "rental_uris": {"ios": "https://dc.lft.to/lastmile_qr_scan", "android": "https://dc.lft.to/lastmile_qr_scan"}, "bike_id": "366d99705c1c4ab1d202eb916ef7f065"}, {"lat": 38.895527, "is_disabled": 0, "lon": -76.93057216666666, "is_reserved": 0, "fusion_lon": 0.0, "fusion_lat": 0.0, "name": "8959909705b58d31b57a7ad4269f00a2", "type": "electric_scooter", "rental_uris": {"ios": "https://dc.lft.to/lastmile_qr_scan", "android": "https://dc.lft.to/lastmile_qr_scan"}, "bike_id": "8959909705b58d31b57a7ad4269f00a2"}, {"lat": 38.9190175, "is_disabled": 0, "lon": -77.02380083333334, "is_reserved": 0, "fusion_lon": 0.0, "fusion_lat": 0.0, "name": "ec5003e710108e2ae4621fb108702d90", "type": "electric_scooter", "rental_uris": {"ios": "https://dc.lft.to/lastmile_qr_scan", "android": "https://dc.lft.to/lastmile_qr_scan"}, "bike_id": "ec5003e710108e2ae4621fb108702d90"}, {"lat": 38.90728416666666, "is_disabled": 0, "lon": -77.027285, "is_reserved": 0, "fusion_lon": 0.0, "fusion_lat": 0.0, "name": "1424899c2c6d1a9380271a736ce03f43", "type": "electric_scooter", "rental_uris": {"ios": "https://dc.lft.to/lastmile_qr_scan", "android": "https://dc.lft.to/lastmile_qr_scan"}, "bike_id": "1424899c2c6d1a9380271a736ce03f43"}, {"lat": 38.92171, "is_disabled": 0, "lon": -77.021943, "is_reserved": 0, "fusion_lon": 0.0, "fusion_lat": 0.0, "name": "86c5d9bf62f6af2c1d414da939ddd343", "type": "electric_scooter", "rental_uris": {"ios": "https://dc.lft.to/lastmile_qr_scan", "android": "https://dc.lft.to/lastmile_qr_scan"}, "bike_id": "86c5d9bf62f6af2c1d414da939ddd343"}, {"lat": 38.911250333333335, "is_disabled": 0, "lon": -77.0435775, "is_reserved": 0, "fusion_lon": 0.0, "fusion_lat": 0.0, "name": "1953c3b590aef0343e72f88e75283e22", "type": "electric_scooter", "rental_uris": {"ios": "https://dc.lft.to/lastmile_qr_scan", "android": "https://dc.lft.to/lastmile_qr_scan"}, "bike_id": "1953c3b590aef0343e72f88e75283e22"}, {"lat": 38.90074166666667, "is_disabled": 0, "lon": -77.05409766666666, "is_reserved": 0, "fusion_lon": 0.0, "fusion_lat": 0.0, "name": "57cae9ca2c08c84daa31b1a1aef31716", "type": "electric_scooter", "rental_uris": {"ios": "https://dc.lft.to/lastmile_qr_scan", "android": "https://dc.lft.to/lastmile_qr_scan"}, "bike_id": "57cae9ca2c08c84daa31b1a1aef31716"}, {"lat": 38.9249255, "is_disabled": 0, "lon": -77.039265, "is_reserved": 0, "fusion_lon": 0.0, "fusion_lat": 0.0, "name": "aee90402e4431bf7640f8dfd92230969", "type": "electric_scooter", "rental_uris": {"ios": "https://dc.lft.to/lastmile_qr_scan", "android": "https://dc.lft.to/lastmile_qr_scan"}, "bike_id": "aee90402e4431bf7640f8dfd92230969"}, {"lat": 38.89224016666667, "is_disabled": 0, "lon": -77.04867033333333, "is_reserved": 0, "fusion_lon": 0.0, "fusion_lat": 0.0, "name": "5f2b3b042eb7d79fc2245f2b96995ab5", "type": "electric_scooter", "rental_uris": {"ios": "https://dc.lft.to/lastmile_qr_scan", "android": "https://dc.lft.to/lastmile_qr_scan"}, "bike_id": "5f2b3b042eb7d79fc2245f2b96995ab5"}, {"lat": 38.926922, "is_disabled": 0, "lon": -77.02575916666666, "is_reserved": 0, "fusion_lon": 0.0, "fusion_lat": 0.0, "name": "47874eede6d17d39282b10e86ab5f29a", "type": "electric_scooter", "rental_uris": {"ios": "https://dc.lft.to/lastmile_qr_scan", "android": "https://dc.lft.to/lastmile_qr_scan"}, "bike_id": "47874eede6d17d39282b10e86ab5f29a"}, {"lat": 38.878809333333336, "is_disabled": 0, "lon": -77.000574, "is_reserved": 0, "fusion_lon": 0.0, "fusion_lat": 0.0, "name": "21a29ef4c5fc1a46026fdbe56269aaf4", "type": "electric_scooter", "rental_uris": {"ios": "https://dc.lft.to/lastmile_qr_scan", "android": "https://dc.lft.to/lastmile_qr_scan"}, "bike_id": "21a29ef4c5fc1a46026fdbe56269aaf4"}, {"lat": 38.90265983333333, "is_disabled": 0, "lon": -77.05207, "is_reserved": 0, "fusion_lon": 0.0, "fusion_lat": 0.0, "name": "e01735f31a7cb0912cf34d9ba8c5e46d", "type": "electric_scooter", "rental_uris": {"ios": "https://dc.lft.to/lastmile_qr_scan", "android": "https://dc.lft.to/lastmile_qr_scan"}, "bike_id": "e01735f31a7cb0912cf34d9ba8c5e46d"}, {"lat": 38.926532, "is_disabled": 0, "lon": -77.03729166666666, "is_reserved": 0, "fusion_lon": 0.0, "fusion_lat": 0.0, "name": "5977f7059856f0b1ad970f340d5170db", "type": "electric_scooter", "rental_uris": {"ios": "https://dc.lft.to/lastmile_qr_scan", "android": "https://dc.lft.to/lastmile_qr_scan"}, "bike_id": "5977f7059856f0b1ad970f340d5170db"}, {"lat": 38.9326305, "is_disabled": 0, "lon": -77.06567966666667, "is_reserved": 0, "fusion_lon": 0.0, "fusion_lat": 0.0, "name": "b3077cfabb597d9a88b6b6014680466d", "type": "electric_bike", "rental_uris": {"ios": "https://dc.lft.to/lastmile_qr_scan", "android": "https://dc.lft.to/lastmile_qr_scan"}, "bike_id": "b3077cfabb597d9a88b6b6014680466d"}, {"lat": 38.89753183333333, "is_disabled": 0, "lon": -77.03205133333333, "is_reserved": 0, "fusion_lon": 0.0, "fusion_lat": 0.0, "name": "692c2a6fe3e4b2e1b70c0696c879b726", "type": "electric_scooter", "rental_uris": {"ios": "https://dc.lft.to/lastmile_qr_scan", "android": "https://dc.lft.to/lastmile_qr_scan"}, "bike_id": "692c2a6fe3e4b2e1b70c0696c879b726"}, {"lat": 38.93031033333333, "is_disabled": 0, "lon": -77.026331, "is_reserved": 0, "fusion_lon": 0.0, "fusion_lat": 0.0, "name": "257fb402b7e3ef807b8f8b8aa7de73a6", "type": "electric_scooter", "rental_uris": {"ios": "https://dc.lft.to/lastmile_qr_scan", "android": "https://dc.lft.to/lastmile_qr_scan"}, "bike_id": "257fb402b7e3ef807b8f8b8aa7de73a6"}, {"lat": 38.927607, "is_disabled": 0, "lon": -77.03658966666667, "is_reserved": 0, "fusion_lon": 0.0, "fusion_lat": 0.0, "name": "934574322f02bbd497d9b2cea707247d", "type": "electric_scooter", "rental_uris": {"ios": "https://dc.lft.to/lastmile_qr_scan", "android": "https://dc.lft.to/lastmile_qr_scan"}, "bike_id": "934574322f02bbd497d9b2cea707247d"}, {"lat": 38.903911, "is_disabled": 0, "lon": -77.04500866666666, "is_reserved": 0, "fusion_lon": 0.0, "fusion_lat": 0.0, "name": "256d7abe8bd470a5067e3ed9454aa485", "type": "electric_scooter", "rental_uris": {"ios": "https://dc.lft.to/lastmile_qr_scan", "android": "https://dc.lft.to/lastmile_qr_scan"}, "bike_id": "256d7abe8bd470a5067e3ed9454aa485"}, {"lat": 38.89823916666667, "is_disabled": 0, "lon": -77.04375883333333, "is_reserved": 0, "fusion_lon": 0.0, "fusion_lat": 0.0, "name": "b623370e68750d12bf9db65fcd9e588f", "type": "electric_scooter", "rental_uris": {"ios": "https://dc.lft.to/lastmile_qr_scan", "android": "https://dc.lft.to/lastmile_qr_scan"}, "bike_id": "b623370e68750d12bf9db65fcd9e588f"}, {"lat": 38.903535, "is_disabled": 0, "lon": -77.03129166666666, "is_reserved": 0, "fusion_lon": 0.0, "fusion_lat": 0.0, "name": "393a054f189fff2cebf363d58f67720e", "type": "electric_scooter", "rental_uris": {"ios": "https://dc.lft.to/lastmile_qr_scan", "android": "https://dc.lft.to/lastmile_qr_scan"}, "bike_id": "393a054f189fff2cebf363d58f67720e"}, {"lat": 38.924786, "is_disabled": 0, "lon": -77.02834483333334, "is_reserved": 0, "fusion_lon": 0.0, "fusion_lat": 0.0, "name": "2c3596710ae816b3cf12c0cdd5b70879", "type": "electric_scooter", "rental_uris": {"ios": "https://dc.lft.to/lastmile_qr_scan", "android": "https://dc.lft.to/lastmile_qr_scan"}, "bike_id": "2c3596710ae816b3cf12c0cdd5b70879"}, {"lat": 38.90355116666667, "is_disabled": 0, "lon": -77.05903933333333, "is_reserved": 0, "fusion_lon": 0.0, "fusion_lat": 0.0, "name": "9b97af396af9b8d784d86432bf5ea155", "type": "electric_scooter", "rental_uris": {"ios": "https://dc.lft.to/lastmile_qr_scan", "android": "https://dc.lft.to/lastmile_qr_scan"}, "bike_id": "9b97af396af9b8d784d86432bf5ea155"}, {"lat": 38.91805266666667, "is_disabled": 0, "lon": -77.0344115, "is_reserved": 0, "fusion_lon": 0.0, "fusion_lat": 0.0, "name": "edc8a3573a012f09e2da5ab1f3ddd05e", "type": "electric_scooter", "rental_uris": {"ios": "https://dc.lft.to/lastmile_qr_scan", "android": "https://dc.lft.to/lastmile_qr_scan"}, "bike_id": "edc8a3573a012f09e2da5ab1f3ddd05e"}, {"lat": 38.922405833333336, "is_disabled": 0, "lon": -77.03912066666666, "is_reserved": 0, "fusion_lon": 0.0, "fusion_lat": 0.0, "name": "ee99937196f3935e7608bf85cecd5254", "type": "electric_scooter", "rental_uris": {"ios": "https://dc.lft.to/lastmile_qr_scan", "android": "https://dc.lft.to/lastmile_qr_scan"}, "bike_id": "ee99937196f3935e7608bf85cecd5254"}, {"lat": 38.898304833333334, "is_disabled": 0, "lon": -77.04547016666666, "is_reserved": 0, "fusion_lon": 0.0, "fusion_lat": 0.0, "name": "7ddabdf4ee10d114d227c54c7a8f9a1f", "type": "electric_scooter", "rental_uris": {"ios": "https://dc.lft.to/lastmile_qr_scan", "android": "https://dc.lft.to/lastmile_qr_scan"}, "bike_id": "7ddabdf4ee10d114d227c54c7a8f9a1f"}, {"lat": 38.8962125, "is_disabled": 0, "lon": -76.99846683333334, "is_reserved": 0, "fusion_lon": 0.0, "fusion_lat": 0.0, "name": "9188c5a3fbdadcc43af4f0033c5c90bb", "type": "electric_scooter", "rental_uris": {"ios": "https://dc.lft.to/lastmile_qr_scan", "android": "https://dc.lft.to/lastmile_qr_scan"}, "bike_id": "9188c5a3fbdadcc43af4f0033c5c90bb"}, {"lat": 38.899494833333335, "is_disabled": 0, "lon": -77.03142633333333, "is_reserved": 0, "fusion_lon": 0.0, "fusion_lat": 0.0, "name": "05a5b3051cf9f5bfe7062e4eb554c761", "type": "electric_scooter", "rental_uris": {"ios": "https://dc.lft.to/lastmile_qr_scan", "android": "https://dc.lft.to/lastmile_qr_scan"}, "bike_id": "05a5b3051cf9f5bfe7062e4eb554c761"}, {"lat": 38.906159, "is_disabled": 0, "lon": -77.008678, "is_reserved": 0, "fusion_lon": 0.0, "fusion_lat": 0.0, "name": "42655a1d4b424f6eccba1508e933198a", "type": "electric_scooter", "rental_uris": {"ios": "https://dc.lft.to/lastmile_qr_scan", "android": "https://dc.lft.to/lastmile_qr_scan"}, "bike_id": "42655a1d4b424f6eccba1508e933198a"}, {"lat": 38.898429, "is_disabled": 0, "lon": -77.01293266666667, "is_reserved": 0, "fusion_lon": 0.0, "fusion_lat": 0.0, "name": "f2e3d233dee3da3279f163797bb24a5a", "type": "electric_scooter", "rental_uris": {"ios": "https://dc.lft.to/lastmile_qr_scan", "android": "https://dc.lft.to/lastmile_qr_scan"}, "bike_id": "f2e3d233dee3da3279f163797bb24a5a"}, {"lat": 39.0109355, "is_disabled": 0, "lon": -76.91068516666667, "is_reserved": 0, "fusion_lon": 0.0, "fusion_lat": 0.0, "name": "3ee3fcdd0dc1d2f664b64452669908c2", "type": "electric_bike", "rental_uris": {"ios": "https://dc.lft.to/lastmile_qr_scan", "android": "https://dc.lft.to/lastmile_qr_scan"}, "bike_id": "3ee3fcdd0dc1d2f664b64452669908c2"}, {"lat": 38.892279333333335, "is_disabled": 0, "lon": -77.0296725, "is_reserved": 0, "fusion_lon": 0.0, "fusion_lat": 0.0, "name": "5a8a59f86c981756e5c1309ab68019b6", "type": "electric_scooter", "rental_uris": {"ios": "https://dc.lft.to/lastmile_qr_scan", "android": "https://dc.lft.to/lastmile_qr_scan"}, "bike_id": "5a8a59f86c981756e5c1309ab68019b6"}, {"lat": 38.99526733333333, "is_disabled": 0, "lon": -77.0289125, "is_reserved": 0, "fusion_lon": 0.0, "fusion_lat": 0.0, "name": "80c3f1c3bd82a06c58e90e6fc1cd71de", "type": "electric_bike", "rental_uris": {"ios": "https://dc.lft.to/lastmile_qr_scan", "android": "https://dc.lft.to/lastmile_qr_scan"}, "bike_id": "80c3f1c3bd82a06c58e90e6fc1cd71de"}, {"lat": 38.939523, "is_disabled": 0, "lon": -77.07241433333333, "is_reserved": 0, "fusion_lon": 0.0, "fusion_lat": 0.0, "name": "26e0321c8bddf57affe485d324b209e7", "type": "electric_scooter", "rental_uris": {"ios": "https://dc.lft.to/lastmile_qr_scan", "android": "https://dc.lft.to/lastmile_qr_scan"}, "bike_id": "26e0321c8bddf57affe485d324b209e7"}, {"lat": 38.90029916666667, "is_disabled": 0, "lon": -77.00217316666667, "is_reserved": 0, "fusion_lon": 0.0, "fusion_lat": 0.0, "name": "438beaef17fa0955214729f021a1d001", "type": "electric_scooter", "rental_uris": {"ios": "https://dc.lft.to/lastmile_qr_scan", "android": "https://dc.lft.to/lastmile_qr_scan"}, "bike_id": "438beaef17fa0955214729f021a1d001"}, {"lat": 38.89961666666667, "is_disabled": 0, "lon": -77.03379616666666, "is_reserved": 0, "fusion_lon": 0.0, "fusion_lat": 0.0, "name": "86b43e3109e4bf14255579e8ade2d2ad", "type": "electric_scooter", "rental_uris": {"ios": "https://dc.lft.to/lastmile_qr_scan", "android": "https://dc.lft.to/lastmile_qr_scan"}, "bike_id": "86b43e3109e4bf14255579e8ade2d2ad"}, {"lat": 38.92377783333333, "is_disabled": 0, "lon": -77.0515045, "is_reserved": 0, "fusion_lon": 0.0, "fusion_lat": 0.0, "name": "3cf7de7e1b919d2954d5a48a4b9bfbf8", "type": "electric_scooter", "rental_uris": {"ios": "https://dc.lft.to/lastmile_qr_scan", "android": "https://dc.lft.to/lastmile_qr_scan"}, "bike_id": "3cf7de7e1b919d2954d5a48a4b9bfbf8"}, {"lat": 38.92348466666667, "is_disabled": 0, "lon": -77.0329485, "is_reserved": 0, "fusion_lon": 0.0, "fusion_lat": 0.0, "name": "5258d55f2618884dc349521441aa1420", "type": "electric_scooter", "rental_uris": {"ios": "https://dc.lft.to/lastmile_qr_scan", "android": "https://dc.lft.to/lastmile_qr_scan"}, "bike_id": "5258d55f2618884dc349521441aa1420"}, {"lat": 38.91721233333333, "is_disabled": 0, "lon": -77.04176133333333, "is_reserved": 0, "fusion_lon": 0.0, "fusion_lat": 0.0, "name": "910f18e9b7ba19fd89cbad73cc1537ba", "type": "electric_scooter", "rental_uris": {"ios": "https://dc.lft.to/lastmile_qr_scan", "android": "https://dc.lft.to/lastmile_qr_scan"}, "bike_id": "910f18e9b7ba19fd89cbad73cc1537ba"}, {"lat": 38.91747316666667, "is_disabled": 0, "lon": -77.01722233333334, "is_reserved": 0, "fusion_lon": 0.0, "fusion_lat": 0.0, "name": "056a464a0bd2d33bfc6bd6b6ac1b0dce", "type": "electric_scooter", "rental_uris": {"ios": "https://dc.lft.to/lastmile_qr_scan", "android": "https://dc.lft.to/lastmile_qr_scan"}, "bike_id": "056a464a0bd2d33bfc6bd6b6ac1b0dce"}, {"lat": 38.955975, "is_disabled": 0, "lon": -77.010217, "is_reserved": 0, "fusion_lon": 0.0, "fusion_lat": 0.0, "name": "b5dc171fef8b7a8ded59a0f6cdcf2d87", "type": "electric_bike", "rental_uris": {"ios": "https://dc.lft.to/lastmile_qr_scan", "android": "https://dc.lft.to/lastmile_qr_scan"}, "bike_id": "b5dc171fef8b7a8ded59a0f6cdcf2d87"}, {"lat": 38.96217583333333, "is_disabled": 0, "lon": -77.0277505, "is_reserved": 0, "fusion_lon": 0.0, "fusion_lat": 0.0, "name": "85502e96a3415f497f0672b4a2100c1b", "type": "electric_scooter", "rental_uris": {"ios": "https://dc.lft.to/lastmile_qr_scan", "android": "https://dc.lft.to/lastmile_qr_scan"}, "bike_id": "85502e96a3415f497f0672b4a2100c1b"}, {"lat": 38.89728733333333, "is_disabled": 0, "lon": -77.003288, "is_reserved": 0, "fusion_lon": 0.0, "fusion_lat": 0.0, "name": "f326f5bb6430d004f2e079fed5cbd74a", "type": "electric_scooter", "rental_uris": {"ios": "https://dc.lft.to/lastmile_qr_scan", "android": "https://dc.lft.to/lastmile_qr_scan"}, "bike_id": "f326f5bb6430d004f2e079fed5cbd74a"}, {"lat": 38.9051735, "is_disabled": 0, "lon": -77.04186633333333, "is_reserved": 0, "fusion_lon": 0.0, "fusion_lat": 0.0, "name": "22a0f06f13e2f082065c94180e6c6c05", "type": "electric_scooter", "rental_uris": {"ios": "https://dc.lft.to/lastmile_qr_scan", "android": "https://dc.lft.to/lastmile_qr_scan"}, "bike_id": "22a0f06f13e2f082065c94180e6c6c05"}, {"lat": 38.907608333333336, "is_disabled": 0, "lon": -77.07185883333334, "is_reserved": 0, "fusion_lon": 0.0, "fusion_lat": 0.0, "name": "ebf5b6d98bc50b285a27a4780f647fea", "type": "electric_scooter", "rental_uris": {"ios": "https://dc.lft.to/lastmile_qr_scan", "android": "https://dc.lft.to/lastmile_qr_scan"}, "bike_id": "ebf5b6d98bc50b285a27a4780f647fea"}, {"lat": 38.90080733333333, "is_disabled": 0, "lon": -77.0473345, "is_reserved": 0, "fusion_lon": 0.0, "fusion_lat": 0.0, "name": "e7dca7bbd6ffd38dd031a9211f37e93f", "type": "electric_scooter", "rental_uris": {"ios": "https://dc.lft.to/lastmile_qr_scan", "android": "https://dc.lft.to/lastmile_qr_scan"}, "bike_id": "e7dca7bbd6ffd38dd031a9211f37e93f"}, {"lat": 38.887491, "is_disabled": 0, "lon": -77.021312, "is_reserved": 0, "fusion_lon": 0.0, "fusion_lat": 0.0, "name": "629980dd10dc09886f29033f345ed63a", "type": "electric_scooter", "rental_uris": {"ios": "https://dc.lft.to/lastmile_qr_scan", "android": "https://dc.lft.to/lastmile_qr_scan"}, "bike_id": "629980dd10dc09886f29033f345ed63a"}, {"lat": 38.906053666666665, "is_disabled": 0, "lon": -77.02111433333333, "is_reserved": 0, "fusion_lon": 0.0, "fusion_lat": 0.0, "name": "1a451a60542de3bf8b05885a4dbda29e", "type": "electric_scooter", "rental_uris": {"ios": "https://dc.lft.to/lastmile_qr_scan", "android": "https://dc.lft.to/lastmile_qr_scan"}, "bike_id": "1a451a60542de3bf8b05885a4dbda29e"}, {"lat": 38.903875166666666, "is_disabled": 0, "lon": -77.04351233333334, "is_reserved": 0, "fusion_lon": 0.0, "fusion_lat": 0.0, "name": "ede6cd4a2a182d09512e92bf4626f887", "type": "electric_scooter", "rental_uris": {"ios": "https://dc.lft.to/lastmile_qr_scan", "android": "https://dc.lft.to/lastmile_qr_scan"}, "bike_id": "ede6cd4a2a182d09512e92bf4626f887"}, {"lat": 38.912885833333334, "is_disabled": 0, "lon": -77.02305566666666, "is_reserved": 0, "fusion_lon": 0.0, "fusion_lat": 0.0, "name": "195c7d6b12d1718c958cb4a9e464f1cf", "type": "electric_scooter", "rental_uris": {"ios": "https://dc.lft.to/lastmile_qr_scan", "android": "https://dc.lft.to/lastmile_qr_scan"}, "bike_id": "195c7d6b12d1718c958cb4a9e464f1cf"}, {"lat": 38.900207, "is_disabled": 0, "lon": -77.04470433333333, "is_reserved": 0, "fusion_lon": 0.0, "fusion_lat": 0.0, "name": "26385776cd45760e5bcb71006a462ed8", "type": "electric_scooter", "rental_uris": {"ios": "https://dc.lft.to/lastmile_qr_scan", "android": "https://dc.lft.to/lastmile_qr_scan"}, "bike_id": "26385776cd45760e5bcb71006a462ed8"}, {"lat": 38.90149683333333, "is_disabled": 0, "lon": -77.043796, "is_reserved": 0, "fusion_lon": 0.0, "fusion_lat": 0.0, "name": "e35c4c62a61f36e0ad0ab0c31d83b0e8", "type": "electric_scooter", "rental_uris": {"ios": "https://dc.lft.to/lastmile_qr_scan", "android": "https://dc.lft.to/lastmile_qr_scan"}, "bike_id": "e35c4c62a61f36e0ad0ab0c31d83b0e8"}, {"lat": 38.92891016666667, "is_disabled": 0, "lon": -77.03309283333333, "is_reserved": 0, "fusion_lon": 0.0, "fusion_lat": 0.0, "name": "78790bbd032c122caa65f7c61d40d839", "type": "electric_scooter", "rental_uris": {"ios": "https://dc.lft.to/lastmile_qr_scan", "android": "https://dc.lft.to/lastmile_qr_scan"}, "bike_id": "78790bbd032c122caa65f7c61d40d839"}, {"lat": 38.90022833333333, "is_disabled": 0, "lon": -76.99874683333333, "is_reserved": 0, "fusion_lon": 0.0, "fusion_lat": 0.0, "name": "0a4c7d34f2e324711e05cb2293f07694", "type": "electric_scooter", "rental_uris": {"ios": "https://dc.lft.to/lastmile_qr_scan", "android": "https://dc.lft.to/lastmile_qr_scan"}, "bike_id": "0a4c7d34f2e324711e05cb2293f07694"}, {"lat": 38.934486666666665, "is_disabled": 0, "lon": -77.02977566666667, "is_reserved": 0, "fusion_lon": 0.0, "fusion_lat": 0.0, "name": "084b000e9375cbbc373bfce7afec5a01", "type": "electric_scooter", "rental_uris": {"ios": "https://dc.lft.to/lastmile_qr_scan", "android": "https://dc.lft.to/lastmile_qr_scan"}, "bike_id": "084b000e9375cbbc373bfce7afec5a01"}, {"lat": 38.90118616666667, "is_disabled": 0, "lon": -77.04349483333333, "is_reserved": 0, "fusion_lon": 0.0, "fusion_lat": 0.0, "name": "e1e3d129bc107febc7414940a8672926", "type": "electric_scooter", "rental_uris": {"ios": "https://dc.lft.to/lastmile_qr_scan", "android": "https://dc.lft.to/lastmile_qr_scan"}, "bike_id": "e1e3d129bc107febc7414940a8672926"}, {"lat": 38.8912275, "is_disabled": 0, "lon": -76.943809, "is_reserved": 0, "fusion_lon": 0.0, "fusion_lat": 0.0, "name": "b3f53ddeadde20916c05b1e33c9584f7", "type": "electric_scooter", "rental_uris": {"ios": "https://dc.lft.to/lastmile_qr_scan", "android": "https://dc.lft.to/lastmile_qr_scan"}, "bike_id": "b3f53ddeadde20916c05b1e33c9584f7"}, {"lat": 38.83810366666667, "is_disabled": 0, "lon": -77.0951825, "is_reserved": 0, "fusion_lon": 0.0, "fusion_lat": 0.0, "name": "e71f0a7d1899f0b865749b2346e4d4d2", "type": "electric_bike", "rental_uris": {"ios": "https://dc.lft.to/lastmile_qr_scan", "android": "https://dc.lft.to/lastmile_qr_scan"}, "bike_id": "e71f0a7d1899f0b865749b2346e4d4d2"}, {"lat": 38.9061625, "is_disabled": 0, "lon": -77.0466965, "is_reserved": 0, "fusion_lon": 0.0, "fusion_lat": 0.0, "name": "d4c2315b7380d1c7989a4da323d5edf9", "type": "electric_scooter", "rental_uris": {"ios": "https://dc.lft.to/lastmile_qr_scan", "android": "https://dc.lft.to/lastmile_qr_scan"}, "bike_id": "d4c2315b7380d1c7989a4da323d5edf9"}, {"lat": 38.910677666666665, "is_disabled": 0, "lon": -77.00460283333334, "is_reserved": 0, "fusion_lon": 0.0, "fusion_lat": 0.0, "name": "2b000f18337c3a45511269b53eb3fafc", "type": "electric_scooter", "rental_uris": {"ios": "https://dc.lft.to/lastmile_qr_scan", "android": "https://dc.lft.to/lastmile_qr_scan"}, "bike_id": "2b000f18337c3a45511269b53eb3fafc"}, {"lat": 38.900392, "is_disabled": 0, "lon": -76.972205, "is_reserved": 0, "fusion_lon": 0.0, "fusion_lat": 0.0, "name": "efcce4103197594ebd1eea6168ebce7d", "type": "electric_bike", "rental_uris": {"ios": "https://dc.lft.to/lastmile_qr_scan", "android": "https://dc.lft.to/lastmile_qr_scan"}, "bike_id": "efcce4103197594ebd1eea6168ebce7d"}, {"lat": 38.89113616666667, "is_disabled": 0, "lon": -77.01509133333333, "is_reserved": 0, "fusion_lon": 0.0, "fusion_lat": 0.0, "name": "e65951c0bb685927715a1f3f475bb3d3", "type": "electric_scooter", "rental_uris": {"ios": "https://dc.lft.to/lastmile_qr_scan", "android": "https://dc.lft.to/lastmile_qr_scan"}, "bike_id": "e65951c0bb685927715a1f3f475bb3d3"}, {"lat": 38.9003655, "is_disabled": 0, "lon": -77.03147283333334, "is_reserved": 0, "fusion_lon": 0.0, "fusion_lat": 0.0, "name": "f603bab3c4761c94b5293d49d7fe19ce", "type": "electric_scooter", "rental_uris": {"ios": "https://dc.lft.to/lastmile_qr_scan", "android": "https://dc.lft.to/lastmile_qr_scan"}, "bike_id": "f603bab3c4761c94b5293d49d7fe19ce"}, {"lat": 38.903842, "is_disabled": 0, "lon": -77.02576083333334, "is_reserved": 0, "fusion_lon": 0.0, "fusion_lat": 0.0, "name": "4e3b4710ff6a84a388a92a4a23dd03cd", "type": "electric_scooter", "rental_uris": {"ios": "https://dc.lft.to/lastmile_qr_scan", "android": "https://dc.lft.to/lastmile_qr_scan"}, "bike_id": "4e3b4710ff6a84a388a92a4a23dd03cd"}, {"lat": 38.9017715, "is_disabled": 0, "lon": -77.02178066666667, "is_reserved": 0, "fusion_lon": 0.0, "fusion_lat": 0.0, "name": "920b67e2034a7ecd605e187fcbcb6b6b", "type": "electric_scooter", "rental_uris": {"ios": "https://dc.lft.to/lastmile_qr_scan", "android": "https://dc.lft.to/lastmile_qr_scan"}, "bike_id": "920b67e2034a7ecd605e187fcbcb6b6b"}, {"lat": 38.897315666666664, "is_disabled": 0, "lon": -77.0075675, "is_reserved": 0, "fusion_lon": 0.0, "fusion_lat": 0.0, "name": "19b732b7996a08e05f11624799f3fb8c", "type": "electric_scooter", "rental_uris": {"ios": "https://dc.lft.to/lastmile_qr_scan", "android": "https://dc.lft.to/lastmile_qr_scan"}, "bike_id": "19b732b7996a08e05f11624799f3fb8c"}, {"lat": 38.898377333333336, "is_disabled": 0, "lon": -77.02655916666667, "is_reserved": 0, "fusion_lon": 0.0, "fusion_lat": 0.0, "name": "3d3939cead659a58a40e2ee37d6a8256", "type": "electric_scooter", "rental_uris": {"ios": "https://dc.lft.to/lastmile_qr_scan", "android": "https://dc.lft.to/lastmile_qr_scan"}, "bike_id": "3d3939cead659a58a40e2ee37d6a8256"}, {"lat": 38.90497333333333, "is_disabled": 0, "lon": -77.029507, "is_reserved": 0, "fusion_lon": 0.0, "fusion_lat": 0.0, "name": "10606486a6dc6b3dc4700ac3b86bd02c", "type": "electric_scooter", "rental_uris": {"ios": "https://dc.lft.to/lastmile_qr_scan", "android": "https://dc.lft.to/lastmile_qr_scan"}, "bike_id": "10606486a6dc6b3dc4700ac3b86bd02c"}, {"lat": 38.90246583333333, "is_disabled": 0, "lon": -77.0178775, "is_reserved": 0, "fusion_lon": 0.0, "fusion_lat": 0.0, "name": "334ead3a67c401098d58066f1a99ab99", "type": "electric_scooter", "rental_uris": {"ios": "https://dc.lft.to/lastmile_qr_scan", "android": "https://dc.lft.to/lastmile_qr_scan"}, "bike_id": "334ead3a67c401098d58066f1a99ab99"}, {"lat": 38.931172333333336, "is_disabled": 0, "lon": -77.05607583333334, "is_reserved": 0, "fusion_lon": 0.0, "fusion_lat": 0.0, "name": "c40b21c0b72b081a614fc32f63cc7931", "type": "electric_scooter", "rental_uris": {"ios": "https://dc.lft.to/lastmile_qr_scan", "android": "https://dc.lft.to/lastmile_qr_scan"}, "bike_id": "c40b21c0b72b081a614fc32f63cc7931"}, {"lat": 38.887111166666664, "is_disabled": 0, "lon": -77.02204333333333, "is_reserved": 0, "fusion_lon": 0.0, "fusion_lat": 0.0, "name": "03823f15ad37004ea1caf0c77075c211", "type": "electric_scooter", "rental_uris": {"ios": "https://dc.lft.to/lastmile_qr_scan", "android": "https://dc.lft.to/lastmile_qr_scan"}, "bike_id": "03823f15ad37004ea1caf0c77075c211"}, {"lat": 38.92038683333333, "is_disabled": 0, "lon": -77.017284, "is_reserved": 0, "fusion_lon": 0.0, "fusion_lat": 0.0, "name": "2a585b23f10387a795a9cbd605d3a55b", "type": "electric_scooter", "rental_uris": {"ios": "https://dc.lft.to/lastmile_qr_scan", "android": "https://dc.lft.to/lastmile_qr_scan"}, "bike_id": "2a585b23f10387a795a9cbd605d3a55b"}, {"lat": 38.885146166666665, "is_disabled": 0, "lon": -76.92440866666666, "is_reserved": 0, "fusion_lon": 0.0, "fusion_lat": 0.0, "name": "7ab5ada540091c83a9e80a1e35c9169f", "type": "electric_scooter", "rental_uris": {"ios": "https://dc.lft.to/lastmile_qr_scan", "android": "https://dc.lft.to/lastmile_qr_scan"}, "bike_id": "7ab5ada540091c83a9e80a1e35c9169f"}, {"lat": 38.920525833333336, "is_disabled": 0, "lon": -77.0298525, "is_reserved": 0, "fusion_lon": 0.0, "fusion_lat": 0.0, "name": "b2869db6f79f2668586646de536e9ab2", "type": "electric_scooter", "rental_uris": {"ios": "https://dc.lft.to/lastmile_qr_scan", "android": "https://dc.lft.to/lastmile_qr_scan"}, "bike_id": "b2869db6f79f2668586646de536e9ab2"}, {"lat": 38.8962085, "is_disabled": 0, "lon": -76.907488, "is_reserved": 0, "fusion_lon": 0.0, "fusion_lat": 0.0, "name": "479a6d49185775b6cf0f87bcad7984f2", "type": "electric_bike", "rental_uris": {"ios": "https://dc.lft.to/lastmile_qr_scan", "android": "https://dc.lft.to/lastmile_qr_scan"}, "bike_id": "479a6d49185775b6cf0f87bcad7984f2"}, {"lat": 38.9157175, "is_disabled": 0, "lon": -77.03186033333333, "is_reserved": 0, "fusion_lon": 0.0, "fusion_lat": 0.0, "name": "374eef4ba26266ad1c7a51d2ec94ced9", "type": "electric_scooter", "rental_uris": {"ios": "https://dc.lft.to/lastmile_qr_scan", "android": "https://dc.lft.to/lastmile_qr_scan"}, "bike_id": "374eef4ba26266ad1c7a51d2ec94ced9"}, {"lat": 38.92327, "is_disabled": 0, "lon": -77.01961016666667, "is_reserved": 0, "fusion_lon": 0.0, "fusion_lat": 0.0, "name": "a494e3b5569ddd631523449a6641f82c", "type": "electric_scooter", "rental_uris": {"ios": "https://dc.lft.to/lastmile_qr_scan", "android": "https://dc.lft.to/lastmile_qr_scan"}, "bike_id": "a494e3b5569ddd631523449a6641f82c"}, {"lat": 38.9524765, "is_disabled": 0, "lon": -77.00794083333334, "is_reserved": 0, "fusion_lon": 0.0, "fusion_lat": 0.0, "name": "7a56d7c371eac9b9b0f39f2f7e1960e1", "type": "electric_scooter", "rental_uris": {"ios": "https://dc.lft.to/lastmile_qr_scan", "android": "https://dc.lft.to/lastmile_qr_scan"}, "bike_id": "7a56d7c371eac9b9b0f39f2f7e1960e1"}, {"lat": 38.924775, "is_disabled": 0, "lon": -77.022318, "is_reserved": 0, "fusion_lon": 0.0, "fusion_lat": 0.0, "name": "3085e6c3754547056dfd7a7baa769708", "type": "electric_scooter", "rental_uris": {"ios": "https://dc.lft.to/lastmile_qr_scan", "android": "https://dc.lft.to/lastmile_qr_scan"}, "bike_id": "3085e6c3754547056dfd7a7baa769708"}, {"lat": 38.9039265, "is_disabled": 0, "lon": -77.04503866666667, "is_reserved": 0, "fusion_lon": 0.0, "fusion_lat": 0.0, "name": "c618a8b5a9ddcab47e833cc8d8b3c081", "type": "electric_scooter", "rental_uris": {"ios": "https://dc.lft.to/lastmile_qr_scan", "android": "https://dc.lft.to/lastmile_qr_scan"}, "bike_id": "c618a8b5a9ddcab47e833cc8d8b3c081"}, {"lat": 38.80054116666667, "is_disabled": 0, "lon": -77.1284045, "is_reserved": 0, "fusion_lon": 0.0, "fusion_lat": 0.0, "name": "c41307fe7823d5d118e2543d1bd2dcc2", "type": "electric_bike", "rental_uris": {"ios": "https://dc.lft.to/lastmile_qr_scan", "android": "https://dc.lft.to/lastmile_qr_scan"}, "bike_id": "c41307fe7823d5d118e2543d1bd2dcc2"}, {"lat": 38.909616666666665, "is_disabled": 0, "lon": -77.0118, "is_reserved": 0, "fusion_lon": 0.0, "fusion_lat": 0.0, "name": "573b7c4e2e4430da054395a3dce9cc0b", "type": "electric_scooter", "rental_uris": {"ios": "https://dc.lft.to/lastmile_qr_scan", "android": "https://dc.lft.to/lastmile_qr_scan"}, "bike_id": "573b7c4e2e4430da054395a3dce9cc0b"}, {"lat": 38.897364333333336, "is_disabled": 0, "lon": -77.03199583333334, "is_reserved": 0, "fusion_lon": 0.0, "fusion_lat": 0.0, "name": "2b6a2cabec2c2af6e53c8c1f9e720781", "type": "electric_scooter", "rental_uris": {"ios": "https://dc.lft.to/lastmile_qr_scan", "android": "https://dc.lft.to/lastmile_qr_scan"}, "bike_id": "2b6a2cabec2c2af6e53c8c1f9e720781"}, {"lat": 38.91141983333333, "is_disabled": 0, "lon": -77.02203116666666, "is_reserved": 0, "fusion_lon": 0.0, "fusion_lat": 0.0, "name": "347ab6e57c618fa1608db9a4355b9481", "type": "electric_scooter", "rental_uris": {"ios": "https://dc.lft.to/lastmile_qr_scan", "android": "https://dc.lft.to/lastmile_qr_scan"}, "bike_id": "347ab6e57c618fa1608db9a4355b9481"}, {"lat": 38.924997833333336, "is_disabled": 0, "lon": -77.0392745, "is_reserved": 0, "fusion_lon": 0.0, "fusion_lat": 0.0, "name": "a5f57555565a0e825902b0eda43ff697", "type": "electric_scooter", "rental_uris": {"ios": "https://dc.lft.to/lastmile_qr_scan", "android": "https://dc.lft.to/lastmile_qr_scan"}, "bike_id": "a5f57555565a0e825902b0eda43ff697"}, {"lat": 38.918143666666666, "is_disabled": 0, "lon": -77.02479283333334, "is_reserved": 0, "fusion_lon": 0.0, "fusion_lat": 0.0, "name": "b689a0b33dc06118b644a4c3f184e03a", "type": "electric_scooter", "rental_uris": {"ios": "https://dc.lft.to/lastmile_qr_scan", "android": "https://dc.lft.to/lastmile_qr_scan"}, "bike_id": "b689a0b33dc06118b644a4c3f184e03a"}, {"lat": 38.922094, "is_disabled": 0, "lon": -77.04243533333333, "is_reserved": 0, "fusion_lon": 0.0, "fusion_lat": 0.0, "name": "7dbce9c161038b7de1d45a0faac053be", "type": "electric_scooter", "rental_uris": {"ios": "https://dc.lft.to/lastmile_qr_scan", "android": "https://dc.lft.to/lastmile_qr_scan"}, "bike_id": "7dbce9c161038b7de1d45a0faac053be"}, {"lat": 38.909690833333336, "is_disabled": 0, "lon": -77.046235, "is_reserved": 0, "fusion_lon": 0.0, "fusion_lat": 0.0, "name": "cd1e5871a66e9159ac145b06ff150e18", "type": "electric_scooter", "rental_uris": {"ios": "https://dc.lft.to/lastmile_qr_scan", "android": "https://dc.lft.to/lastmile_qr_scan"}, "bike_id": "cd1e5871a66e9159ac145b06ff150e18"}, {"lat": 38.9126945, "is_disabled": 0, "lon": -77.04422433333333, "is_reserved": 0, "fusion_lon": 0.0, "fusion_lat": 0.0, "name": "809c09cffabe71e32c686c155c98a3b3", "type": "electric_scooter", "rental_uris": {"ios": "https://dc.lft.to/lastmile_qr_scan", "android": "https://dc.lft.to/lastmile_qr_scan"}, "bike_id": "809c09cffabe71e32c686c155c98a3b3"}, {"lat": 38.89843583333333, "is_disabled": 0, "lon": -77.01768333333334, "is_reserved": 0, "fusion_lon": 0.0, "fusion_lat": 0.0, "name": "fffcaf353d582d4bfe5c27f3505f05a0", "type": "electric_scooter", "rental_uris": {"ios": "https://dc.lft.to/lastmile_qr_scan", "android": "https://dc.lft.to/lastmile_qr_scan"}, "bike_id": "fffcaf353d582d4bfe5c27f3505f05a0"}, {"lat": 38.924114833333334, "is_disabled": 0, "lon": -77.021393, "is_reserved": 0, "fusion_lon": 0.0, "fusion_lat": 0.0, "name": "95831a1700b478f0e61feb8cee41f9ae", "type": "electric_scooter", "rental_uris": {"ios": "https://dc.lft.to/lastmile_qr_scan", "android": "https://dc.lft.to/lastmile_qr_scan"}, "bike_id": "95831a1700b478f0e61feb8cee41f9ae"}, {"lat": 38.9221195, "is_disabled": 0, "lon": -77.020337, "is_reserved": 0, "fusion_lon": 0.0, "fusion_lat": 0.0, "name": "381bdcfdb191f22c83de5d29006b1f16", "type": "electric_scooter", "rental_uris": {"ios": "https://dc.lft.to/lastmile_qr_scan", "android": "https://dc.lft.to/lastmile_qr_scan"}, "bike_id": "381bdcfdb191f22c83de5d29006b1f16"}, {"lat": 38.91416433333333, "is_disabled": 0, "lon": -77.04183583333334, "is_reserved": 0, "fusion_lon": 0.0, "fusion_lat": 0.0, "name": "3bd2e308e077873b2ef501228fb94cdb", "type": "electric_scooter", "rental_uris": {"ios": "https://dc.lft.to/lastmile_qr_scan", "android": "https://dc.lft.to/lastmile_qr_scan"}, "bike_id": "3bd2e308e077873b2ef501228fb94cdb"}, {"lat": 38.953024, "is_disabled": 0, "lon": -77.02770566666666, "is_reserved": 0, "fusion_lon": 0.0, "fusion_lat": 0.0, "name": "ad65624a208856399a39e86f56c21b97", "type": "electric_scooter", "rental_uris": {"ios": "https://dc.lft.to/lastmile_qr_scan", "android": "https://dc.lft.to/lastmile_qr_scan"}, "bike_id": "ad65624a208856399a39e86f56c21b97"}, {"lat": 38.90764716666666, "is_disabled": 0, "lon": -77.04237416666666, "is_reserved": 0, "fusion_lon": 0.0, "fusion_lat": 0.0, "name": "187b3525abda25057264ef4e860007be", "type": "electric_scooter", "rental_uris": {"ios": "https://dc.lft.to/lastmile_qr_scan", "android": "https://dc.lft.to/lastmile_qr_scan"}, "bike_id": "187b3525abda25057264ef4e860007be"}, {"lat": 38.961294, "is_disabled": 0, "lon": -77.027907, "is_reserved": 0, "fusion_lon": 0.0, "fusion_lat": 0.0, "name": "84b20712f81a1d76e1d1688da369f9db", "type": "electric_scooter", "rental_uris": {"ios": "https://dc.lft.to/lastmile_qr_scan", "android": "https://dc.lft.to/lastmile_qr_scan"}, "bike_id": "84b20712f81a1d76e1d1688da369f9db"}, {"lat": 38.896086, "is_disabled": 0, "lon": -77.0468895, "is_reserved": 0, "fusion_lon": 0.0, "fusion_lat": 0.0, "name": "928bbb4a4bdab8e81a9cbd55e68d86f7", "type": "electric_scooter", "rental_uris": {"ios": "https://dc.lft.to/lastmile_qr_scan", "android": "https://dc.lft.to/lastmile_qr_scan"}, "bike_id": "928bbb4a4bdab8e81a9cbd55e68d86f7"}, {"lat": 38.887485, "is_disabled": 0, "lon": -77.0257665, "is_reserved": 0, "fusion_lon": 0.0, "fusion_lat": 0.0, "name": "80ca386661092cd22e85923422441ae7", "type": "electric_scooter", "rental_uris": {"ios": "https://dc.lft.to/lastmile_qr_scan", "android": "https://dc.lft.to/lastmile_qr_scan"}, "bike_id": "80ca386661092cd22e85923422441ae7"}, {"lat": 38.9310015, "is_disabled": 0, "lon": -77.09099616666667, "is_reserved": 0, "fusion_lon": 0.0, "fusion_lat": 0.0, "name": "bfcd06610344e5dca597509f9d58c9eb", "type": "electric_scooter", "rental_uris": {"ios": "https://dc.lft.to/lastmile_qr_scan", "android": "https://dc.lft.to/lastmile_qr_scan"}, "bike_id": "bfcd06610344e5dca597509f9d58c9eb"}, {"lat": 38.90161116666667, "is_disabled": 0, "lon": -77.03340416666667, "is_reserved": 0, "fusion_lon": 0.0, "fusion_lat": 0.0, "name": "03fd55d5f865e6fef11df4e05e825cf2", "type": "electric_scooter", "rental_uris": {"ios": "https://dc.lft.to/lastmile_qr_scan", "android": "https://dc.lft.to/lastmile_qr_scan"}, "bike_id": "03fd55d5f865e6fef11df4e05e825cf2"}, {"lat": 38.93101866666667, "is_disabled": 0, "lon": -77.0248125, "is_reserved": 0, "fusion_lon": 0.0, "fusion_lat": 0.0, "name": "c4bd56744f873986dd87cd5182b27eb7", "type": "electric_scooter", "rental_uris": {"ios": "https://dc.lft.to/lastmile_qr_scan", "android": "https://dc.lft.to/lastmile_qr_scan"}, "bike_id": "c4bd56744f873986dd87cd5182b27eb7"}, {"lat": 38.8986895, "is_disabled": 0, "lon": -76.9466735, "is_reserved": 0, "fusion_lon": 0.0, "fusion_lat": 0.0, "name": "7a1da96b6ce30a3fa2715c05ef55ff07", "type": "electric_scooter", "rental_uris": {"ios": "https://dc.lft.to/lastmile_qr_scan", "android": "https://dc.lft.to/lastmile_qr_scan"}, "bike_id": "7a1da96b6ce30a3fa2715c05ef55ff07"}, {"lat": 38.892303, "is_disabled": 0, "lon": -77.028018, "is_reserved": 0, "fusion_lon": 0.0, "fusion_lat": 0.0, "name": "ece2d177cc03138747855f3592beaf07", "type": "electric_scooter", "rental_uris": {"ios": "https://dc.lft.to/lastmile_qr_scan", "android": "https://dc.lft.to/lastmile_qr_scan"}, "bike_id": "ece2d177cc03138747855f3592beaf07"}, {"lat": 38.90645166666667, "is_disabled": 0, "lon": -77.05339433333333, "is_reserved": 0, "fusion_lon": 0.0, "fusion_lat": 0.0, "name": "f253f3c6b9db0d523768045932e4917a", "type": "electric_scooter", "rental_uris": {"ios": "https://dc.lft.to/lastmile_qr_scan", "android": "https://dc.lft.to/lastmile_qr_scan"}, "bike_id": "f253f3c6b9db0d523768045932e4917a"}, {"lat": 38.941322666666665, "is_disabled": 0, "lon": -77.0215365, "is_reserved": 0, "fusion_lon": 0.0, "fusion_lat": 0.0, "name": "55079e87e3c235015f780c02b6cf8be0", "type": "electric_scooter", "rental_uris": {"ios": "https://dc.lft.to/lastmile_qr_scan", "android": "https://dc.lft.to/lastmile_qr_scan"}, "bike_id": "55079e87e3c235015f780c02b6cf8be0"}, {"lat": 38.92241766666667, "is_disabled": 0, "lon": -77.02086283333334, "is_reserved": 0, "fusion_lon": 0.0, "fusion_lat": 0.0, "name": "8d0f04d3a6afc76cdbae69dda66fbe02", "type": "electric_scooter", "rental_uris": {"ios": "https://dc.lft.to/lastmile_qr_scan", "android": "https://dc.lft.to/lastmile_qr_scan"}, "bike_id": "8d0f04d3a6afc76cdbae69dda66fbe02"}, {"lat": 38.90004966666667, "is_disabled": 0, "lon": -77.04224966666666, "is_reserved": 0, "fusion_lon": 0.0, "fusion_lat": 0.0, "name": "d4c5ead97e94a50fe4531d83273c06ae", "type": "electric_scooter", "rental_uris": {"ios": "https://dc.lft.to/lastmile_qr_scan", "android": "https://dc.lft.to/lastmile_qr_scan"}, "bike_id": "d4c5ead97e94a50fe4531d83273c06ae"}, {"lat": 38.9342735, "is_disabled": 0, "lon": -77.04004633333334, "is_reserved": 0, "fusion_lon": 0.0, "fusion_lat": 0.0, "name": "f76b5c0a9533b6872fb3b722a817cc3b", "type": "electric_scooter", "rental_uris": {"ios": "https://dc.lft.to/lastmile_qr_scan", "android": "https://dc.lft.to/lastmile_qr_scan"}, "bike_id": "f76b5c0a9533b6872fb3b722a817cc3b"}, {"lat": 38.90152666666667, "is_disabled": 0, "lon": -77.05331016666666, "is_reserved": 0, "fusion_lon": 0.0, "fusion_lat": 0.0, "name": "c61e9ef505de076b0dce89ffc4b5bdff", "type": "electric_scooter", "rental_uris": {"ios": "https://dc.lft.to/lastmile_qr_scan", "android": "https://dc.lft.to/lastmile_qr_scan"}, "bike_id": "c61e9ef505de076b0dce89ffc4b5bdff"}, {"lat": 38.902595, "is_disabled": 0, "lon": -77.03461916666667, "is_reserved": 0, "fusion_lon": 0.0, "fusion_lat": 0.0, "name": "f5135693a6af903e8792d62a285b1083", "type": "electric_scooter", "rental_uris": {"ios": "https://dc.lft.to/lastmile_qr_scan", "android": "https://dc.lft.to/lastmile_qr_scan"}, "bike_id": "f5135693a6af903e8792d62a285b1083"}, {"lat": 38.912311833333334, "is_disabled": 0, "lon": -77.0448535, "is_reserved": 0, "fusion_lon": 0.0, "fusion_lat": 0.0, "name": "a562d46b807e8132567b4e60429b421a", "type": "electric_scooter", "rental_uris": {"ios": "https://dc.lft.to/lastmile_qr_scan", "android": "https://dc.lft.to/lastmile_qr_scan"}, "bike_id": "a562d46b807e8132567b4e60429b421a"}, {"lat": 38.88349, "is_disabled": 0, "lon": -76.93631866666666, "is_reserved": 0, "fusion_lon": 0.0, "fusion_lat": 0.0, "name": "ee1fee53966cf3d3dbddc840b85e7d45", "type": "electric_scooter", "rental_uris": {"ios": "https://dc.lft.to/lastmile_qr_scan", "android": "https://dc.lft.to/lastmile_qr_scan"}, "bike_id": "ee1fee53966cf3d3dbddc840b85e7d45"}, {"lat": 38.89887566666667, "is_disabled": 0, "lon": -77.03325466666666, "is_reserved": 0, "fusion_lon": 0.0, "fusion_lat": 0.0, "name": "8455bfe8273a5e69312fb5eca35516f9", "type": "electric_scooter", "rental_uris": {"ios": "https://dc.lft.to/lastmile_qr_scan", "android": "https://dc.lft.to/lastmile_qr_scan"}, "bike_id": "8455bfe8273a5e69312fb5eca35516f9"}, {"lat": 38.99096683333333, "is_disabled": 0, "lon": -76.99372233333334, "is_reserved": 0, "fusion_lon": 0.0, "fusion_lat": 0.0, "name": "e6b910bd972c5b2f33244a8d89f4c744", "type": "electric_bike", "rental_uris": {"ios": "https://dc.lft.to/lastmile_qr_scan", "android": "https://dc.lft.to/lastmile_qr_scan"}, "bike_id": "e6b910bd972c5b2f33244a8d89f4c744"}, {"lat": 38.892185166666664, "is_disabled": 0, "lon": -77.04329266666667, "is_reserved": 0, "fusion_lon": 0.0, "fusion_lat": 0.0, "name": "4d3483e1cc7168ecdba714bb51657c27", "type": "electric_scooter", "rental_uris": {"ios": "https://dc.lft.to/lastmile_qr_scan", "android": "https://dc.lft.to/lastmile_qr_scan"}, "bike_id": "4d3483e1cc7168ecdba714bb51657c27"}, {"lat": 38.89847916666667, "is_disabled": 0, "lon": -77.03325883333333, "is_reserved": 0, "fusion_lon": 0.0, "fusion_lat": 0.0, "name": "43794374b4c5703287984c50021301c1", "type": "electric_scooter", "rental_uris": {"ios": "https://dc.lft.to/lastmile_qr_scan", "android": "https://dc.lft.to/lastmile_qr_scan"}, "bike_id": "43794374b4c5703287984c50021301c1"},