{"data": {"bikes": [{"lon": -76.99699933333333, "fusion_lon": 0.0, "bike_id": "1a3ad45bbfcd7eb9aea8c8d65af27967", "type": "electric_scooter", "name": "1a3ad45bbfcd7eb9aea8c8d65af27967", "rental_uris": {"android": "https://dc.lft.to/lastmile_qr_scan", "ios": "https://dc.lft.to/lastmile_qr_scan"}, "is_disabled": 0, "fusion_lat": 0.0, "lat": 38.88422933333333, "is_reserved": 0}, {"lon": -77.02250066666667, "fusion_lon": 0.0, "bike_id": "461b829054f5778820473c309bb2b864", "type": "electric_scooter", "name": "461b829054f5778820473c309bb2b864", "rental_uris": {"android": "https://dc.lft.to/lastmile_qr_scan", "ios": "https://dc.lft.to/lastmile_qr_scan"}, "is_disabled": 0, "fusion_lat": 0.0, "lat": 38.89613516666667, "is_reserved": 0}, {"lon": -77.0385345, "fusion_lon": 0.0, "bike_id": "d7f58538eb0c6427379f80ef7d95b0be", "type": "electric_scooter", "name": "d7f58538eb0c6427379f80ef7d95b0be", "rental_uris": {"android": "https://dc.lft.to/lastmile_qr_scan", "ios": "https://dc.lft.to/lastmile_qr_scan"}, "is_disabled": 0, "fusion_lat": 0.0, "lat": 38.9264465, "is_reserved": 0}, {"lon": -76.93557866666667, "fusion_lon": 0.0, "bike_id": "4f31eee1069e272f688f011d34d81ffb", "type": "electric_scooter", "name": "4f31eee1069e272f688f011d34d81ffb", "rental_uris": {"android": "https://dc.lft.to/lastmile_qr_scan", "ios": "https://dc.lft.to/lastmile_qr_scan"}, "is_disabled": 0, "fusion_lat": 0.0, "lat": 38.88264683333333, "is_reserved": 0}, {"lon": -77.02376883333334, "fusion_lon": 0.0, "bike_id": "de7ae573cf3fe447dcbd122d17e33513", "type": "electric_scooter", "name": "de7ae573cf3fe447dcbd122d17e33513", "rental_uris": {"android": "https://dc.lft.to/lastmile_qr_scan", "ios": "https://dc.lft.to/lastmile_qr_scan"}, "is_disabled": 0, "fusion_lat": 0.0, "lat": 38.907277666666666, "is_reserved": 0}, {"lon": -77.02368483333333, "fusion_lon": 0.0, "bike_id": "7640bf9ff31bfe0b0c8bd499dcc7b807", "type": "electric_scooter", "name": "7640bf9ff31bfe0b0c8bd499dcc7b807", "rental_uris": {"android": "https://dc.lft.to/lastmile_qr_scan", "ios": "https://dc.lft.to/lastmile_qr_scan"}, "is_disabled": 0, "fusion_lat": 0.0, "lat": 38.92064, "is_reserved": 0}, {"lon": -76.99808683333333, "fusion_lon": 0.0, "bike_id": "5ece5f0e7556ff3fa5d29fcc40316815", "type": "electric_scooter", "name": "5ece5f0e7556ff3fa5d29fcc40316815", "rental_uris": {"android": "https://dc.lft.to/lastmile_qr_scan", "ios": "https://dc.lft.to/lastmile_qr_scan"}, "is_disabled": 0, "fusion_lat": 0.0, "lat": 38.9085315, "is_reserved": 0}, {"lon": -77.02367583333333, "fusion_lon": 0.0, "bike_id": "94fe3bc6dfad54eb0f2d6a5be1a40b4f", "type": "electric_scooter", "name": "94fe3bc6dfad54eb0f2d6a5be1a40b4f", "rental_uris": {"android": "https://dc.lft.to/lastmile_qr_scan", "ios": "https://dc.lft.to/lastmile_qr_scan"}, "is_disabled": 0, "fusion_lat": 0.0, "lat": 38.9205915, "is_reserved": 0}, {"lon": -77.0571275, "fusion_lon": 0.0, "bike_id": "76e4fe432b1c191918ad69970bc12d84", "type": "electric_scooter", "name": "76e4fe432b1c191918ad69970bc12d84", "rental_uris": {"android": "https://dc.lft.to/lastmile_qr_scan", "ios": "https://dc.lft.to/lastmile_qr_scan"}, "is_disabled": 0, "fusion_lat": 0.0, "lat": 38.90587816666667, "is_reserved": 0}, {"lon": -77.01806483333333, "fusion_lon": 0.0, "bike_id": "adc920dbeb5fee1732e00f24ce9ac5d3", "type": "electric_scooter", "name": "adc920dbeb5fee1732e00f24ce9ac5d3", "rental_uris": {"android": "https://dc.lft.to/lastmile_qr_scan", "ios": "https://dc.lft.to/lastmile_qr_scan"}, "is_disabled": 0, "fusion_lat": 0.0, "lat": 38.92142716666667, "is_reserved": 0}, {"lon": -76.99661916666666, "fusion_lon": 0.0, "bike_id": "fc417bde785e86dc76e0e3fd847003a3", "type": "electric_scooter", "name": "fc417bde785e86dc76e0e3fd847003a3", "rental_uris": {"android": "https://dc.lft.to/lastmile_qr_scan", "ios": "https://dc.lft.to/lastmile_qr_scan"}, "is_disabled": 0, "fusion_lat": 0.0, "lat": 38.86007216666667, "is_reserved": 0}, {"lon": -77.00044466666667, "fusion_lon": 0.0, "bike_id": "a428f943b84afc567a253fa2bd540168", "type": "electric_scooter", "name": "a428f943b84afc567a253fa2bd540168", "rental_uris": {"android": "https://dc.lft.to/lastmile_qr_scan", "ios": "https://dc.lft.to/lastmile_qr_scan"}, "is_disabled": 0, "fusion_lat": 0.0, "lat": 38.875396, "is_reserved": 0}, {"lon": -77.031913, "fusion_lon": 0.0, "bike_id": "a602427f2f4aa68752a3dbaf9aa6f817", "type": "electric_scooter", "name": "a602427f2f4aa68752a3dbaf9aa6f817", "rental_uris": {"android": "https://dc.lft.to/lastmile_qr_scan", "ios": "https://dc.lft.to/lastmile_qr_scan"}, "is_disabled": 0, "fusion_lat": 0.0, "lat": 38.9156895, "is_reserved": 0}, {"lon": -76.93340983333333, "fusion_lon": 0.0, "bike_id": "c496171af1c5e1e4ff62605b8350d259", "type": "electric_scooter", "name": "c496171af1c5e1e4ff62605b8350d259", "rental_uris": {"android": "https://dc.lft.to/lastmile_qr_scan", "ios": "https://dc.lft.to/lastmile_qr_scan"}, "is_disabled": 0, "fusion_lat": 0.0, "lat": 38.9086825, "is_reserved": 0}, {"lon": -77.033007, "fusion_lon": 0.0, "bike_id": "bcb0c14680c43f9211d55a6617e6bf54", "type": "electric_scooter", "name": "bcb0c14680c43f9211d55a6617e6bf54", "rental_uris": {"android": "https://dc.lft.to/lastmile_qr_scan", "ios": "https://dc.lft.to/lastmile_qr_scan"}, "is_disabled": 0, "fusion_lat": 0.0, "lat": 38.907295833333336, "is_reserved": 0}, {"lon": -77.03664633333334, "fusion_lon": 0.0, "bike_id": "c07982c5a7f11a07808da025c498d1bc", "type": "electric_scooter", "name": "c07982c5a7f11a07808da025c498d1bc", "rental_uris": {"android": "https://dc.lft.to/lastmile_qr_scan", "ios": "https://dc.lft.to/lastmile_qr_scan"}, "is_disabled": 0, "fusion_lat": 0.0, "lat": 38.90836616666667, "is_reserved": 0}, {"lon": -77.00465533333333, "fusion_lon": 0.0, "bike_id": "490cee86c9fcfa489db461d20e9f1ab2", "type": "electric_scooter", "name": "490cee86c9fcfa489db461d20e9f1ab2", "rental_uris": {"android": "https://dc.lft.to/lastmile_qr_scan", "ios": "https://dc.lft.to/lastmile_qr_scan"}, "is_disabled": 0, "fusion_lat": 0.0, "lat": 38.876636166666664, "is_reserved": 0}, {"lon": -77.02946683333333, "fusion_lon": 0.0, "bike_id": "eb91b644cf1cc0875a8e6fd4a78f4b9f", "type": "electric_scooter", "name": "eb91b644cf1cc0875a8e6fd4a78f4b9f", "rental_uris": {"android": "https://dc.lft.to/lastmile_qr_scan", "ios": "https://dc.lft.to/lastmile_qr_scan"}, "is_disabled": 0, "fusion_lat": 0.0, "lat": 38.898262333333335, "is_reserved": 0}, {"lon": -76.9985125, "fusion_lon": 0.0, "bike_id": "ebe02389560a1f309cb99d02991de50a", "type": "electric_scooter", "name": "ebe02389560a1f309cb99d02991de50a", "rental_uris": {"android": "https://dc.lft.to/lastmile_qr_scan", "ios": "https://dc.lft.to/lastmile_qr_scan"}, "is_disabled": 0, "fusion_lat": 0.0, "lat": 38.90028083333333, "is_reserved": 0}, {"lon": -77.010278, "fusion_lon": 0.0, "bike_id": "81e043d4c4269dba3c1437f1ee326d65", "type": "electric_scooter", "name": "81e043d4c4269dba3c1437f1ee326d65", "rental_uris": {"android": "https://dc.lft.to/lastmile_qr_scan", "ios": "https://dc.lft.to/lastmile_qr_scan"}, "is_disabled": 0, "fusion_lat": 0.0, "lat": 38.92025116666667, "is_reserved": 0}, {"lon": -77.01468266666667, "fusion_lon": 0.0, "bike_id": "71e51d3eb09327a861a9320a42749f67", "type": "electric_scooter", "name": "71e51d3eb09327a861a9320a42749f67", "rental_uris": {"android": "https://dc.lft.to/lastmile_qr_scan", "ios": "https://dc.lft.to/lastmile_qr_scan"}, "is_disabled": 0, "fusion_lat": 0.0, "lat": 38.9071825, "is_reserved": 0}, {"lon": -77.03362683333333, "fusion_lon": 0.0, "bike_id": "7e143f8000241189ac8377a7fb70f657", "type": "electric_scooter", "name": "7e143f8000241189ac8377a7fb70f657", "rental_uris": {"android": "https://dc.lft.to/lastmile_qr_scan", "ios": "https://dc.lft.to/lastmile_qr_scan"}, "is_disabled": 0, "fusion_lat": 0.0, "lat": 38.92053633333333, "is_reserved": 0}, {"lon": -77.011959, "fusion_lon": 0.0, "bike_id": "d1a02ed0f8b2b052bc38ee99c0b89d6c", "type": "electric_scooter", "name": "d1a02ed0f8b2b052bc38ee99c0b89d6c", "rental_uris": {"android": "https://dc.lft.to/lastmile_qr_scan", "ios": "https://dc.lft.to/lastmile_qr_scan"}, "is_disabled": 0, "fusion_lat": 0.0, "lat": 38.9169475, "is_reserved": 0}, {"lon": -77.0280235, "fusion_lon": 0.0, "bike_id": "a874fb276c429ee56b8f1e47ccda2d11", "type": "electric_scooter", "name": "a874fb276c429ee56b8f1e47ccda2d11", "rental_uris": {"android": "https://dc.lft.to/lastmile_qr_scan", "ios": "https://dc.lft.to/lastmile_qr_scan"}, "is_disabled": 0, "fusion_lat": 0.0, "lat": 38.899361999999996, "is_reserved": 0}, {"lon": -77.02464283333333, "fusion_lon": 0.0, "bike_id": "3c9a23d22aca5473487f60ae619c208f", "type": "electric_scooter", "name": "3c9a23d22aca5473487f60ae619c208f", "rental_uris": {"android": "https://dc.lft.to/lastmile_qr_scan", "ios": "https://dc.lft.to/lastmile_qr_scan"}, "is_disabled": 0, "fusion_lat": 0.0, "lat": 38.91702733333333, "is_reserved": 0}, {"lon": -76.98249, "fusion_lon": 0.0, "bike_id": "6973ee0a196a8561e8d23ae31a07e834", "type": "electric_scooter", "name": "6973ee0a196a8561e8d23ae31a07e834", "rental_uris": {"android": "https://dc.lft.to/lastmile_qr_scan", "ios": "https://dc.lft.to/lastmile_qr_scan"}, "is_disabled": 0, "fusion_lat": 0.0, "lat": 38.89546383333333, "is_reserved": 0}, {"lon": -77.02158983333334, "fusion_lon": 0.0, "bike_id": "a62bbdba767df289535e8efdf756fb29", "type": "electric_scooter", "name": "a62bbdba767df289535e8efdf756fb29", "rental_uris": {"android": "https://dc.lft.to/lastmile_qr_scan", "ios": "https://dc.lft.to/lastmile_qr_scan"}, "is_disabled": 0, "fusion_lat": 0.0, "lat": 38.958056166666665, "is_reserved": 0}, {"lon": -77.01950983333333, "fusion_lon": 0.0, "bike_id": "82c96ba4fdef5e99b51ec795c5a5e28e", "type": "electric_scooter", "name": "82c96ba4fdef5e99b51ec795c5a5e28e", "rental_uris": {"android": "https://dc.lft.to/lastmile_qr_scan", "ios": "https://dc.lft.to/lastmile_qr_scan"}, "is_disabled": 0, "fusion_lat": 0.0, "lat": 38.9236765, "is_reserved": 0}, {"lon": -77.02704883333334, "fusion_lon": 0.0, "bike_id": "0a4a6f687c4334f12bff95641ee24ba3", "type": "electric_scooter", "name": "0a4a6f687c4334f12bff95641ee24ba3", "rental_uris": {"android": "https://dc.lft.to/lastmile_qr_scan", "ios": "https://dc.lft.to/lastmile_qr_scan"}, "is_disabled": 0, "fusion_lat": 0.0, "lat": 38.900770666666666, "is_reserved": 0}, {"lon": -77.00208166666667, "fusion_lon": 0.0, "bike_id": "972f122c52d0ee0cabcf5c52ce640f2f", "type": "electric_scooter", "name": "972f122c52d0ee0cabcf5c52ce640f2f", "rental_uris": {"android": "https://dc.lft.to/lastmile_qr_scan", "ios": "https://dc.lft.to/lastmile_qr_scan"}, "is_disabled": 0, "fusion_lat": 0.0, "lat": 38.90021083333333, "is_reserved": 0}, {"lon": -76.92657216666667, "fusion_lon": 0.0, "bike_id": "ef26b6efd9019ce1b3d23254c7837838", "type": "electric_scooter", "name": "ef26b6efd9019ce1b3d23254c7837838", "rental_uris": {"android": "https://dc.lft.to/lastmile_qr_scan", "ios": "https://dc.lft.to/lastmile_qr_scan"}, "is_disabled": 0, "fusion_lat": 0.0, "lat": 38.90169616666667, "is_reserved": 0}, {"lon": -77.01850766666666, "fusion_lon": 0.0, "bike_id": "e06e01def607004d01aae93308e629f4", "type": "electric_scooter", "name": "e06e01def607004d01aae93308e629f4", "rental_uris": {"android": "https://dc.lft.to/lastmile_qr_scan", "ios": "https://dc.lft.to/lastmile_qr_scan"}, "is_disabled": 0, "fusion_lat": 0.0, "lat": 38.97368, "is_reserved": 0}, {"lon": -77.02835716666667, "fusion_lon": 0.0, "bike_id": "b71db10e60dc2cddd20da7c2b9a5964f", "type": "electric_scooter", "name": "b71db10e60dc2cddd20da7c2b9a5964f", "rental_uris": {"android": "https://dc.lft.to/lastmile_qr_scan", "ios": "https://dc.lft.to/lastmile_qr_scan"}, "is_disabled": 0, "fusion_lat": 0.0, "lat": 38.886265, "is_reserved": 0}, {"lon": -77.046901, "fusion_lon": 0.0, "bike_id": "8837d3692e000eb6cbd413104a8a5482", "type": "electric_scooter", "name": "8837d3692e000eb6cbd413104a8a5482", "rental_uris": {"android": "https://dc.lft.to/lastmile_qr_scan", "ios": "https://dc.lft.to/lastmile_qr_scan"}, "is_disabled": 0, "fusion_lat": 0.0, "lat": 38.89224566666667, "is_reserved": 0}, {"lon": -77.03585566666666, "fusion_lon": 0.0, "bike_id": "4734b1a531be9a8170338097dbe7db6b", "type": "electric_scooter", "name": "4734b1a531be9a8170338097dbe7db6b", "rental_uris": {"android": "https://dc.lft.to/lastmile_qr_scan", "ios": "https://dc.lft.to/lastmile_qr_scan"}, "is_disabled": 0, "fusion_lat": 0.0, "lat": 38.92809333333334, "is_reserved": 0}, {"lon": -76.94734316666667, "fusion_lon": 0.0, "bike_id": "b7be55bec5409d4f9db95f771a110963", "type": "electric_scooter", "name": "b7be55bec5409d4f9db95f771a110963", "rental_uris": {"android": "https://dc.lft.to/lastmile_qr_scan", "ios": "https://dc.lft.to/lastmile_qr_scan"}, "is_disabled": 0, "fusion_lat": 0.0, "lat": 38.897378333333336, "is_reserved": 0}, {"lon": -77.03226233333334, "fusion_lon": 0.0, "bike_id": "73fdd6c752bc5a14d4d7d19a1e762714", "type": "electric_scooter", "name": "73fdd6c752bc5a14d4d7d19a1e762714", "rental_uris": {"android": "https://dc.lft.to/lastmile_qr_scan", "ios": "https://dc.lft.to/lastmile_qr_scan"}, "is_disabled": 0, "fusion_lat": 0.0, "lat": 38.928743, "is_reserved": 0}, {"lon": -77.03867416666667, "fusion_lon": 0.0, "bike_id": "46950ee88e7a2309a3d426578289f45b", "type": "electric_scooter", "name": "46950ee88e7a2309a3d426578289f45b", "rental_uris": {"android": "https://dc.lft.to/lastmile_qr_scan", "ios": "https://dc.lft.to/lastmile_qr_scan"}, "is_disabled": 0, "fusion_lat": 0.0, "lat": 38.92150916666667, "is_reserved": 0}, {"lon": -77.03274266666666, "fusion_lon": 0.0, "bike_id": "1cf17fa604e36784ddc1ceb097c27567", "type": "electric_scooter", "name": "1cf17fa604e36784ddc1ceb097c27567", "rental_uris": {"android": "https://dc.lft.to/lastmile_qr_scan", "ios": "https://dc.lft.to/lastmile_qr_scan"}, "is_disabled": 0, "fusion_lat": 0.0, "lat": 38.92753366666667, "is_reserved": 0}, {"lon": -77.01476616666666, "fusion_lon": 0.0, "bike_id": "dbeebaeefc2911aea28e41789696b396", "type": "electric_scooter", "name": "dbeebaeefc2911aea28e41789696b396", "rental_uris": {"android": "https://dc.lft.to/lastmile_qr_scan", "ios": "https://dc.lft.to/lastmile_qr_scan"}, "is_disabled": 0, "fusion_lat": 0.0, "lat": 38.918727833333335, "is_reserved": 0}, {"lon": -77.069325, "fusion_lon": 0.0, "bike_id": "7370e82c83a1a14beb24c9be31bd2a49", "type": "electric_scooter", "name": "7370e82c83a1a14beb24c9be31bd2a49", "rental_uris": {"android": "https://dc.lft.to/lastmile_qr_scan", "ios": "https://dc.lft.to/lastmile_qr_scan"}, "is_disabled": 0, "fusion_lat": 0.0, "lat": 38.9157645, "is_reserved": 0}, {"lon": -77.03318616666667, "fusion_lon": 0.0, "bike_id": "86813e269d27e6990a36e7538329554c", "type": "electric_scooter", "name": "86813e269d27e6990a36e7538329554c", "rental_uris": {"android": "https://dc.lft.to/lastmile_qr_scan", "ios": "https://dc.lft.to/lastmile_qr_scan"}, "is_disabled": 0, "fusion_lat": 0.0, "lat": 38.921627, "is_reserved": 0}, {"lon": -77.02707783333334, "fusion_lon": 0.0, "bike_id": "6c9c9d64584c306a5b5d9018fc3e1a07", "type": "electric_scooter", "name": "6c9c9d64584c306a5b5d9018fc3e1a07", "rental_uris": {"android": "https://dc.lft.to/lastmile_qr_scan", "ios": "https://dc.lft.to/lastmile_qr_scan"}, "is_disabled": 0, "fusion_lat": 0.0, "lat": 38.928771833333336, "is_reserved": 0}, {"lon": -77.02480483333333, "fusion_lon": 0.0, "bike_id": "0e460a39c22a7a20449cd348843527dd", "type": "electric_scooter", "name": "0e460a39c22a7a20449cd348843527dd", "rental_uris": {"android": "https://dc.lft.to/lastmile_qr_scan", "ios": "https://dc.lft.to/lastmile_qr_scan"}, "is_disabled": 0, "fusion_lat": 0.0, "lat": 38.938795999999996, "is_reserved": 0}, {"lon": -77.01675733333333, "fusion_lon": 0.0, "bike_id": "0bdc812e966265ec2a0848b91b568ac0", "type": "electric_bike", "name": "0bdc812e966265ec2a0848b91b568ac0", "rental_uris": {"android": "https://dc.lft.to/lastmile_qr_scan", "ios": "https://dc.lft.to/lastmile_qr_scan"}, "is_disabled": 0, "fusion_lat": 0.0, "lat": 38.881211, "is_reserved": 0}, {"lon": -77.03574783333333, "fusion_lon": 0.0, "bike_id": "1becf96190123f28b1bc5e4f721b26c2", "type": "electric_scooter", "name": "1becf96190123f28b1bc5e4f721b26c2", "rental_uris": {"android": "https://dc.lft.to/lastmile_qr_scan", "ios": "https://dc.lft.to/lastmile_qr_scan"}, "is_disabled": 0, "fusion_lat": 0.0, "lat": 38.90372133333334, "is_reserved": 0}, {"lon": -77.042514, "fusion_lon": 0.0, "bike_id": "513cc093a503981a7b74318a2e643f03", "type": "electric_scooter", "name": "513cc093a503981a7b74318a2e643f03", "rental_uris": {"android": "https://dc.lft.to/lastmile_qr_scan", "ios": "https://dc.lft.to/lastmile_qr_scan"}, "is_disabled": 0, "fusion_lat": 0.0, "lat": 38.922521, "is_reserved": 0}, {"lon": -77.03158383333333, "fusion_lon": 0.0, "bike_id": "937bc65c1d054c5f5bed8ffd77c2d978", "type": "electric_scooter", "name": "937bc65c1d054c5f5bed8ffd77c2d978", "rental_uris": {"android": "https://dc.lft.to/lastmile_qr_scan", "ios": "https://dc.lft.to/lastmile_qr_scan"}, "is_disabled": 0, "fusion_lat": 0.0, "lat": 38.897339, "is_reserved": 0}, {"lon": -77.03367616666667, "fusion_lon": 0.0, "bike_id": "255bedca058cb93a060e3b9765913f44", "type": "electric_scooter", "name": "255bedca058cb93a060e3b9765913f44", "rental_uris": {"android": "https://dc.lft.to/lastmile_qr_scan", "ios": "https://dc.lft.to/lastmile_qr_scan"}, "is_disabled": 0, "fusion_lat": 0.0, "lat": 38.923576833333335, "is_reserved": 0}, {"lon": -77.02796283333333, "fusion_lon": 0.0, "bike_id": "782914e5d2109736a67927a171ab1a57", "type": "electric_scooter", "name": "782914e5d2109736a67927a171ab1a57", "rental_uris": {"android": "https://dc.lft.to/lastmile_qr_scan", "ios": "https://dc.lft.to/lastmile_qr_scan"}, "is_disabled": 0, "fusion_lat": 0.0, "lat": 38.960462, "is_reserved": 0}, {"lon": -77.0320315, "fusion_lon": 0.0, "bike_id": "1c0cbe1f01f419b04490f96efb45e474", "type": "electric_scooter", "name": "1c0cbe1f01f419b04490f96efb45e474", "rental_uris": {"android": "https://dc.lft.to/lastmile_qr_scan", "ios": "https://dc.lft.to/lastmile_qr_scan"}, "is_disabled": 0, "fusion_lat": 0.0, "lat": 38.91270266666667, "is_reserved": 0}, {"lon": -77.0118225, "fusion_lon": 0.0, "bike_id": "fca7883a892ed190c2923357b8249cf1", "type": "electric_scooter", "name": "fca7883a892ed190c2923357b8249cf1", "rental_uris": {"android": "https://dc.lft.to/lastmile_qr_scan", "ios": "https://dc.lft.to/lastmile_qr_scan"}, "is_disabled": 0, "fusion_lat": 0.0, "lat": 38.89796066666667, "is_reserved": 0}, {"lon": -77.03171733333333, "fusion_lon": 0.0, "bike_id": "03656ae6410e7fcad54bd8cb2830a57c", "type": "electric_scooter", "name": "03656ae6410e7fcad54bd8cb2830a57c", "rental_uris": {"android": "https://dc.lft.to/lastmile_qr_scan", "ios": "https://dc.lft.to/lastmile_qr_scan"}, "is_disabled": 0, "fusion_lat": 0.0, "lat": 38.9142425, "is_reserved": 0}, {"lon": -77.02981366666667, "fusion_lon": 0.0, "bike_id": "d31971e91c1026bed88ab75e3f496128", "type": "electric_scooter", "name": "d31971e91c1026bed88ab75e3f496128", "rental_uris": {"android": "https://dc.lft.to/lastmile_qr_scan", "ios": "https://dc.lft.to/lastmile_qr_scan"}, "is_disabled": 0, "fusion_lat": 0.0, "lat": 38.896142, "is_reserved": 0}, {"lon": -77.0164255, "fusion_lon": 0.0, "bike_id": "b4a9503ae91b3fdf25872d14152649fd", "type": "electric_scooter", "name": "b4a9503ae91b3fdf25872d14152649fd", "rental_uris": {"android": "https://dc.lft.to/lastmile_qr_scan", "ios": "https://dc.lft.to/lastmile_qr_scan"}, "is_disabled": 0, "fusion_lat": 0.0, "lat": 38.903756333333334, "is_reserved": 0}, {"lon": -77.036622, "fusion_lon": 0.0, "bike_id": "67b6e64f03acd0aa584352a18aaee204", "type": "electric_scooter", "name": "67b6e64f03acd0aa584352a18aaee204", "rental_uris": {"android": "https://dc.lft.to/lastmile_qr_scan", "ios": "https://dc.lft.to/lastmile_qr_scan"}, "is_disabled": 0, "fusion_lat": 0.0, "lat": 38.9212415, "is_reserved": 0}, {"lon": -77.02274583333333, "fusion_lon": 0.0, "bike_id": "f28173602966f50a7c6adc38da95dd97", "type": "electric_scooter", "name": "f28173602966f50a7c6adc38da95dd97", "rental_uris": {"android": "https://dc.lft.to/lastmile_qr_scan", "ios": "https://dc.lft.to/lastmile_qr_scan"}, "is_disabled": 0, "fusion_lat": 0.0, "lat": 38.94611366666667, "is_reserved": 0}, {"lon": -77.02853233333333, "fusion_lon": 0.0, "bike_id": "bdb7da0c6bf79d4d852683fdabe83b25", "type": "electric_scooter", "name": "bdb7da0c6bf79d4d852683fdabe83b25", "rental_uris": {"android": "https://dc.lft.to/lastmile_qr_scan", "ios": "https://dc.lft.to/lastmile_qr_scan"}, "is_disabled": 0, "fusion_lat": 0.0, "lat": 38.88735233333333, "is_reserved": 0}, {"lon": -76.9901055, "fusion_lon": 0.0, "bike_id": "1dc1f4dae27885466bfa92cfb2b773de", "type": "electric_scooter", "name": "1dc1f4dae27885466bfa92cfb2b773de", "rental_uris": {"android": "https://dc.lft.to/lastmile_qr_scan", "ios": "https://dc.lft.to/lastmile_qr_scan"}, "is_disabled": 0, "fusion_lat": 0.0, "lat": 38.86507866666667, "is_reserved": 0}, {"lon": -77.08303733333334, "fusion_lon": 0.0, "bike_id": "e289068078e182c983d402f63870a312", "type": "electric_scooter", "name": "e289068078e182c983d402f63870a312", "rental_uris": {"android": "https://dc.lft.to/lastmile_qr_scan", "ios": "https://dc.lft.to/lastmile_qr_scan"}, "is_disabled": 0, "fusion_lat": 0.0, "lat": 38.92852583333333, "is_reserved": 0}, {"lon": -77.0152695, "fusion_lon": 0.0, "bike_id": "8270495a4f3ce4209823bdc0650e8871", "type": "electric_bike", "name": "8270495a4f3ce4209823bdc0650e8871", "rental_uris": {"android": "https://dc.lft.to/lastmile_qr_scan", "ios": "https://dc.lft.to/lastmile_qr_scan"}, "is_disabled": 0, "fusion_lat": 0.0, "lat": 38.95123133333333, "is_reserved": 0}, {"lon": -77.03231433333333, "fusion_lon": 0.0, "bike_id": "a5855e01f91fcf8acbd5353e349a7ebd", "type": "electric_scooter", "name": "a5855e01f91fcf8acbd5353e349a7ebd", "rental_uris": {"android": "https://dc.lft.to/lastmile_qr_scan", "ios": "https://dc.lft.to/lastmile_qr_scan"}, "is_disabled": 0, "fusion_lat": 0.0, "lat": 38.92590333333333, "is_reserved": 0}, {"lon": -77.03450966666666, "fusion_lon": 0.0, "bike_id": "dd34e1c585e38685e549f1b107b8ec1c", "type": "electric_scooter", "name": "dd34e1c585e38685e549f1b107b8ec1c", "rental_uris": {"android": "https://dc.lft.to/lastmile_qr_scan", "ios": "https://dc.lft.to/lastmile_qr_scan"}, "is_disabled": 0, "fusion_lat": 0.0, "lat": 38.904276833333334, "is_reserved": 0}, {"lon": -77.03643516666666, "fusion_lon": 0.0, "bike_id": "a7708c2314c3bfd30c68c6865ca8c2fc", "type": "electric_scooter", "name": "a7708c2314c3bfd30c68c6865ca8c2fc", "rental_uris": {"android": "https://dc.lft.to/lastmile_qr_scan", "ios": "https://dc.lft.to/lastmile_qr_scan"}, "is_disabled": 0, "fusion_lat": 0.0, "lat": 38.907957833333334, "is_reserved": 0}, {"lon": -77.02628, "fusion_lon": 0.0, "bike_id": "6b22e46ac189355e55296296129f136d", "type": "electric_scooter", "name": "6b22e46ac189355e55296296129f136d", "rental_uris": {"android": "https://dc.lft.to/lastmile_qr_scan", "ios": "https://dc.lft.to/lastmile_qr_scan"}, "is_disabled": 0, "fusion_lat": 0.0, "lat": 38.928292666666664, "is_reserved": 0}, {"lon": -77.04692933333334, "fusion_lon": 0.0, "bike_id": "2c5ac1606926451959dbac545c772288", "type": "electric_scooter", "name": "2c5ac1606926451959dbac545c772288", "rental_uris": {"android": "https://dc.lft.to/lastmile_qr_scan", "ios": "https://dc.lft.to/lastmile_qr_scan"}, "is_disabled": 0, "fusion_lat": 0.0, "lat": 38.897321833333336, "is_reserved": 0}, {"lon": -77.00143716666666, "fusion_lon": 0.0, "bike_id": "2cf64994c1e8e375ac63cce377f51d90", "type": "electric_scooter", "name": "2cf64994c1e8e375ac63cce377f51d90", "rental_uris": {"android": "https://dc.lft.to/lastmile_qr_scan", "ios": "https://dc.lft.to/lastmile_qr_scan"}, "is_disabled": 0, "fusion_lat": 0.0, "lat": 38.87315233333333, "is_reserved": 0}, {"lon": -77.014046, "fusion_lon": 0.0, "bike_id": "7472f257242f25b58abb0ee05400ed52", "type": "electric_scooter", "name": "7472f257242f25b58abb0ee05400ed52", "rental_uris": {"android": "https://dc.lft.to/lastmile_qr_scan", "ios": "https://dc.lft.to/lastmile_qr_scan"}, "is_disabled": 0, "fusion_lat": 0.0, "lat": 38.94233883333333, "is_reserved": 0}, {"lon": -77.016935, "fusion_lon": 0.0, "bike_id": "bb3b98fd36426acac2f8ce331b46f1f4", "type": "electric_scooter", "name": "bb3b98fd36426acac2f8ce331b46f1f4", "rental_uris": {"android": "https://dc.lft.to/lastmile_qr_scan", "ios": "https://dc.lft.to/lastmile_qr_scan"}, "is_disabled": 0, "fusion_lat": 0.0, "lat": 38.974944666666666, "is_reserved": 0}, {"lon": -77.03586016666667, "fusion_lon": 0.0, "bike_id": "d91bc08a4fa60d8b90a35fb38b03deda", "type": "electric_scooter", "name": "d91bc08a4fa60d8b90a35fb38b03deda", "rental_uris": {"android": "https://dc.lft.to/lastmile_qr_scan", "ios": "https://dc.lft.to/lastmile_qr_scan"}, "is_disabled": 0, "fusion_lat": 0.0, "lat": 38.9038205, "is_reserved": 0}, {"lon": -76.97365066666667, "fusion_lon": 0.0, "bike_id": "56345a81bbd92e5e3e302110acb07240", "type": "electric_bike", "name": "56345a81bbd92e5e3e302110acb07240", "rental_uris": {"android": "https://dc.lft.to/lastmile_qr_scan", "ios": "https://dc.lft.to/lastmile_qr_scan"}, "is_disabled": 0, "fusion_lat": 0.0, "lat": 38.9631315, "is_reserved": 0}, {"lon": -76.97256233333333, "fusion_lon": 0.0, "bike_id": "c8ab46ed57fdba63f04b1606d2adf76a", "type": "electric_bike", "name": "c8ab46ed57fdba63f04b1606d2adf76a", "rental_uris": {"android": "https://dc.lft.to/lastmile_qr_scan", "ios": "https://dc.lft.to/lastmile_qr_scan"}, "is_disabled": 0, "fusion_lat": 0.0, "lat": 38.9574775, "is_reserved": 0}, {"lon": -77.02633566666667, "fusion_lon": 0.0, "bike_id": "87d7df1785d923bfc3569e86de5e8a24", "type": "electric_scooter", "name": "87d7df1785d923bfc3569e86de5e8a24", "rental_uris": {"android": "https://dc.lft.to/lastmile_qr_scan", "ios": "https://dc.lft.to/lastmile_qr_scan"}, "is_disabled": 0, "fusion_lat": 0.0, "lat": 38.8944, "is_reserved": 0}, {"lon": -77.010762, "fusion_lon": 0.0, "bike_id": "e123c89f8500f9c35ac343866ae1d3d8", "type": "electric_scooter", "name": "e123c89f8500f9c35ac343866ae1d3d8", "rental_uris": {"android": "https://dc.lft.to/lastmile_qr_scan", "ios": "https://dc.lft.to/lastmile_qr_scan"}, "is_disabled": 0, "fusion_lat": 0.0, "lat": 38.90959183333333, "is_reserved": 0}, {"lon": -77.0385935, "fusion_lon": 0.0, "bike_id": "80dd09e5dbab86ed354bb7c2df631c6d", "type": "electric_scooter", "name": "80dd09e5dbab86ed354bb7c2df631c6d", "rental_uris": {"android": "https://dc.lft.to/lastmile_qr_scan", "ios": "https://dc.lft.to/lastmile_qr_scan"}, "is_disabled": 0, "fusion_lat": 0.0, "lat": 38.911895666666666, "is_reserved": 0}, {"lon": -77.01984666666667, "fusion_lon": 0.0, "bike_id": "a0425a553cb24feef90c205abaae36f0", "type": "electric_scooter", "name": "a0425a553cb24feef90c205abaae36f0", "rental_uris": {"android": "https://dc.lft.to/lastmile_qr_scan", "ios": "https://dc.lft.to/lastmile_qr_scan"}, "is_disabled": 0, "fusion_lat": 0.0, "lat": 38.88723733333333, "is_reserved": 0}, {"lon": -76.93022016666667, "fusion_lon": 0.0, "bike_id": "ae320c931821f60db3f66baa55b417a8", "type": "electric_scooter", "name": "ae320c931821f60db3f66baa55b417a8", "rental_uris": {"android": "https://dc.lft.to/lastmile_qr_scan", "ios": "https://dc.lft.to/lastmile_qr_scan"}, "is_disabled": 0, "fusion_lat": 0.0, "lat": 38.90168, "is_reserved": 0}, {"lon": -77.0352055, "fusion_lon": 0.0, "bike_id": "2b0965f66f02080a97a263569bc0b580", "type": "electric_scooter", "name": "2b0965f66f02080a97a263569bc0b580", "rental_uris": {"android": "https://dc.lft.to/lastmile_qr_scan", "ios": "https://dc.lft.to/lastmile_qr_scan"}, "is_disabled": 0, "fusion_lat": 0.0, "lat": 38.925358333333335, "is_reserved": 0}, {"lon": -77.0011595, "fusion_lon": 0.0, "bike_id": "65054a47429f27f5a6aef823bbeebe97", "type": "electric_scooter", "name": "65054a47429f27f5a6aef823bbeebe97", "rental_uris": {"android": "https://dc.lft.to/lastmile_qr_scan", "ios": "https://dc.lft.to/lastmile_qr_scan"}, "is_disabled": 0, "fusion_lat": 0.0, "lat": 38.87365483333333, "is_reserved": 0}, {"lon": -77.018252, "fusion_lon": 0.0, "bike_id": "115b6a33259114a9dbc5a749d882d411", "type": "electric_scooter", "name": "115b6a33259114a9dbc5a749d882d411", "rental_uris": {"android": "https://dc.lft.to/lastmile_qr_scan", "ios": "https://dc.lft.to/lastmile_qr_scan"}, "is_disabled": 0, "fusion_lat": 0.0, "lat": 38.90251, "is_reserved": 0}, {"lon": -77.03637316666666, "fusion_lon": 0.0, "bike_id": "8dfe369d0e6ce129b4f117268297b6d8", "type": "electric_scooter", "name": "8dfe369d0e6ce129b4f117268297b6d8", "rental_uris": {"android": "https://dc.lft.to/lastmile_qr_scan", "ios": "https://dc.lft.to/lastmile_qr_scan"}, "is_disabled": 0, "fusion_lat": 0.0, "lat": 38.91303333333333, "is_reserved": 0}, {"lon": -77.07659733333334, "fusion_lon": 0.0, "bike_id": "58fbbe733086145176666229429ee017", "type": "electric_scooter", "name": "58fbbe733086145176666229429ee017", "rental_uris": {"android": "https://dc.lft.to/lastmile_qr_scan", "ios": "https://dc.lft.to/lastmile_qr_scan"}, "is_disabled": 0, "fusion_lat": 0.0, "lat": 38.943261666666665, "is_reserved": 0}, {"lon": -77.02381216666667, "fusion_lon": 0.0, "bike_id": "572bcaebd273612d5cde68024e77db40", "type": "electric_scooter", "name": "572bcaebd273612d5cde68024e77db40", "rental_uris": {"android": "https://dc.lft.to/lastmile_qr_scan", "ios": "https://dc.lft.to/lastmile_qr_scan"}, "is_disabled": 0, "fusion_lat": 0.0, "lat": 38.91985233333333, "is_reserved": 0}, {"lon": -77.041103, "fusion_lon": 0.0, "bike_id": "0b14b06dac4801f4c53d6ed7fa6369b5", "type": "electric_scooter", "name": "0b14b06dac4801f4c53d6ed7fa6369b5", "rental_uris": {"android": "https://dc.lft.to/lastmile_qr_scan", "ios": "https://dc.lft.to/lastmile_qr_scan"}, "is_disabled": 0, "fusion_lat": 0.0, "lat": 38.916939, "is_reserved": 0}, {"lon": -77.025279, "fusion_lon": 0.0, "bike_id": "7308c0da7ff36da17c7d1d536784a21f", "type": "electric_scooter", "name": "7308c0da7ff36da17c7d1d536784a21f", "rental_uris": {"android": "https://dc.lft.to/lastmile_qr_scan", "ios": "https://dc.lft.to/lastmile_qr_scan"}, "is_disabled": 0, "fusion_lat": 0.0, "lat": 38.916858166666664, "is_reserved": 0}, {"lon": -77.03212683333334, "fusion_lon": 0.0, "bike_id": "3faac469c4f2293d6e064cf0164a7e4d", "type": "electric_scooter", "name": "3faac469c4f2293d6e064cf0164a7e4d", "rental_uris": {"android": "https://dc.lft.to/lastmile_qr_scan", "ios": "https://dc.lft.to/lastmile_qr_scan"}, "is_disabled": 0, "fusion_lat": 0.0, "lat": 38.91924183333333, "is_reserved": 0}, {"lon": -76.986931, "fusion_lon": 0.0, "bike_id": "81b11163e064e7113055d5da0605a74f", "type": "electric_scooter", "name": "81b11163e064e7113055d5da0605a74f", "rental_uris": {"android": "https://dc.lft.to/lastmile_qr_scan", "ios": "https://dc.lft.to/lastmile_qr_scan"}, "is_disabled": 0, "fusion_lat": 0.0, "lat": 38.877592, "is_reserved": 0}, {"lon": -77.04111983333334, "fusion_lon": 0.0, "bike_id": "76605c5358175bf2dc3b11f6ecb8e4de", "type": "electric_scooter", "name": "76605c5358175bf2dc3b11f6ecb8e4de", "rental_uris": {"android": "https://dc.lft.to/lastmile_qr_scan", "ios": "https://dc.lft.to/lastmile_qr_scan"}, "is_disabled": 0, "fusion_lat": 0.0, "lat": 38.91698133333333, "is_reserved": 0}, {"lon": -76.94630783333334, "fusion_lon": 0.0, "bike_id": "4787c67978d344f9d2e82d263663f0a8", "type": "electric_bike", "name": "4787c67978d344f9d2e82d263663f0a8", "rental_uris": {"android": "https://dc.lft.to/lastmile_qr_scan", "ios": "https://dc.lft.to/lastmile_qr_scan"}, "is_disabled": 0, "fusion_lat": 0.0, "lat": 38.832449833333335, "is_reserved": 0}, {"lon": -77.03789083333334, "fusion_lon": 0.0, "bike_id": "94d7e6bdef21a00b643d64dd74f89714", "type": "electric_scooter", "name": "94d7e6bdef21a00b643d64dd74f89714", "rental_uris": {"android": "https://dc.lft.to/lastmile_qr_scan", "ios": "https://dc.lft.to/lastmile_qr_scan"}, "is_disabled": 0, "fusion_lat": 0.0, "lat": 38.9022075, "is_reserved": 0}, {"lon": -77.02979083333334, "fusion_lon": 0.0, "bike_id": "a815870defd70d9b4f68fd6b22795e3f", "type": "electric_scooter", "name": "a815870defd70d9b4f68fd6b22795e3f", "rental_uris": {"android": "https://dc.lft.to/lastmile_qr_scan", "ios": "https://dc.lft.to/lastmile_qr_scan"}, "is_disabled": 0, "fusion_lat": 0.0, "lat": 38.89731066666667, "is_reserved": 0}, {"lon": -77.04314533333333, "fusion_lon": 0.0, "bike_id": "ec4bb62c4acb97194772b2744625cba7", "type": "electric_bike", "name": "ec4bb62c4acb97194772b2744625cba7", "rental_uris": {"android": "https://dc.lft.to/lastmile_qr_scan", "ios": "https://dc.lft.to/lastmile_qr_scan"}, "is_disabled": 0, "fusion_lat": 0.0, "lat": 39.034273666666664, "is_reserved": 0}, {"lon": -76.95663183333333, "fusion_lon": 0.0, "bike_id": "d6ac1a1e8e8325ade5ad6c139a71701d", "type": "electric_bike", "name": "d6ac1a1e8e8325ade5ad6c139a71701d", "rental_uris": {"android": "https://dc.lft.to/lastmile_qr_scan", "ios": "https://dc.lft.to/lastmile_qr_scan"}, "is_disabled": 0, "fusion_lat": 0.0, "lat": 38.88469166666667, "is_reserved": 0}, {"lon": -77.03638883333333, "fusion_lon": 0.0, "bike_id": "2e0ffb210e15b3b5d2672ca73594f91f", "type": "electric_scooter", "name": "2e0ffb210e15b3b5d2672ca73594f91f", "rental_uris": {"android": "https://dc.lft.to/lastmile_qr_scan", "ios": "https://dc.lft.to/lastmile_qr_scan"}, "is_disabled": 0, "fusion_lat": 0.0, "lat": 38.92442633333334, "is_reserved": 0}, {"lon": -76.99944183333334, "fusion_lon": 0.0, "bike_id": "8a35545e436fd8e04b417301b36feafe", "type": "electric_scooter", "name": "8a35545e436fd8e04b417301b36feafe", "rental_uris": {"android": "https://dc.lft.to/lastmile_qr_scan", "ios": "https://dc.lft.to/lastmile_qr_scan"}, "is_disabled": 0, "fusion_lat": 0.0, "lat": 38.891644166666666, "is_reserved": 0}, {"lon": -77.02307216666667, "fusion_lon": 0.0, "bike_id": "50e09929502c95e09d39e8be4900ab4d", "type": "electric_scooter", "name": "50e09929502c95e09d39e8be4900ab4d", "rental_uris": {"android": "https://dc.lft.to/lastmile_qr_scan", "ios": "https://dc.lft.to/lastmile_qr_scan"}, "is_disabled": 0, "fusion_lat": 0.0, "lat": 38.927542333333335, "is_reserved": 0}, {"lon": -77.029641, "fusion_lon": 0.0, "bike_id": "f4913edc947183c3b4e1da3b51ed1b91", "type": "electric_scooter", "name": "f4913edc947183c3b4e1da3b51ed1b91", "rental_uris": {"android": "https://dc.lft.to/lastmile_qr_scan", "ios": "https://dc.lft.to/lastmile_qr_scan"}, "is_disabled": 0, "fusion_lat": 0.0, "lat": 38.92264483333334, "is_reserved": 0}, {"lon": -77.00060083333334, "fusion_lon": 0.0, "bike_id": "e07b20e04431fa66dc1568546163daaa", "type": "electric_scooter", "name": "e07b20e04431fa66dc1568546163daaa", "rental_uris": {"android": "https://dc.lft.to/lastmile_qr_scan", "ios": "https://dc.lft.to/lastmile_qr_scan"}, "is_disabled": 0, "fusion_lat": 0.0, "lat": 38.87685466666667, "is_reserved": 0}, {"lon": -77.021818, "fusion_lon": 0.0, "bike_id": "1cc9bb243b0c597ac5c9bdcd7f447bf9", "type": "electric_scooter", "name": "1cc9bb243b0c597ac5c9bdcd7f447bf9", "rental_uris": {"android": "https://dc.lft.to/lastmile_qr_scan", "ios": "https://dc.lft.to/lastmile_qr_scan"}, "is_disabled": 0, "fusion_lat": 0.0, "lat": 38.9097905, "is_reserved": 0}, {"lon": -77.04384166666667, "fusion_lon": 0.0, "bike_id": "296f454cdac5f150c0d931f35fc1b382", "type": "electric_scooter", "name": "296f454cdac5f150c0d931f35fc1b382", "rental_uris": {"android": "https://dc.lft.to/lastmile_qr_scan", "ios": "https://dc.lft.to/lastmile_qr_scan"}, "is_disabled": 0, "fusion_lat": 0.0, "lat": 38.90508583333333, "is_reserved": 0}, {"lon": -76.97780983333334, "fusion_lon": 0.0, "bike_id": "98a97a2bdc9c8a423b4fa6778fc5a17c", "type": "electric_scooter", "name": "98a97a2bdc9c8a423b4fa6778fc5a17c", "rental_uris": {"android": "https://dc.lft.to/lastmile_qr_scan", "ios": "https://dc.lft.to/lastmile_qr_scan"}, "is_disabled": 0, "fusion_lat": 0.0, "lat": 38.9056915, "is_reserved": 0}, {"lon": -77.03387383333333, "fusion_lon": 0.0, "bike_id": "b0cd9785fc12aaafa94e12d6d35ca608", "type": "electric_scooter", "name": "b0cd9785fc12aaafa94e12d6d35ca608", "rental_uris": {"android": "https://dc.lft.to/lastmile_qr_scan", "ios": "https://dc.lft.to/lastmile_qr_scan"}, "is_disabled": 0, "fusion_lat": 0.0, "lat": 38.92159133333333, "is_reserved": 0}, {"lon": -77.04351433333333, "fusion_lon": 0.0, "bike_id": "e52b8cbda1b095704edddf68dd98437b", "type": "electric_scooter", "name": "e52b8cbda1b095704edddf68dd98437b", "rental_uris": {"android": "https://dc.lft.to/lastmile_qr_scan", "ios": "https://dc.lft.to/lastmile_qr_scan"}, "is_disabled": 0, "fusion_lat": 0.0, "lat": 38.90412216666667, "is_reserved": 0}, {"lon": -77.05028616666667, "fusion_lon": 0.0, "bike_id": "d78f1865dbfe86c24ee2ea4fc588aeef", "type": "electric_scooter", "name": "d78f1865dbfe86c24ee2ea4fc588aeef", "rental_uris": {"android": "https://dc.lft.to/lastmile_qr_scan", "ios": "https://dc.lft.to/lastmile_qr_scan"}, "is_disabled": 0, "fusion_lat": 0.0, "lat": 38.892454, "is_reserved": 0}, {"lon": -77.038912, "fusion_lon": 0.0, "bike_id": "878e307af37dbfe1b72109ca61d5cf49", "type": "electric_scooter", "name": "878e307af37dbfe1b72109ca61d5cf49", "rental_uris": {"android": "https://dc.lft.to/lastmile_qr_scan", "ios": "https://dc.lft.to/lastmile_qr_scan"}, "is_disabled": 0, "fusion_lat": 0.0, "lat": 38.9225755, "is_reserved": 0}, {"lon": -77.02957283333333, "fusion_lon": 0.0, "bike_id": "5c2681eee35aa34f6bf0f36717f4a4f0", "type": "electric_scooter", "name": "5c2681eee35aa34f6bf0f36717f4a4f0", "rental_uris": {"android": "https://dc.lft.to/lastmile_qr_scan", "ios": "https://dc.lft.to/lastmile_qr_scan"}, "is_disabled": 0, "fusion_lat": 0.0, "lat": 38.93563566666667, "is_reserved": 0}, {"lon": -77.0363, "fusion_lon": 0.0, "bike_id": "c9fff11b322679df1d0047ae6aa0f5b4", "type": "electric_scooter", "name": "c9fff11b322679df1d0047ae6aa0f5b4", "rental_uris": {"android": "https://dc.lft.to/lastmile_qr_scan", "ios": "https://dc.lft.to/lastmile_qr_scan"}, "is_disabled": 0, "fusion_lat": 0.0, "lat": 38.92704366666667, "is_reserved": 0}, {"lon": -76.99560466666667, "fusion_lon": 0.0, "bike_id": "7005cd55b46c6a622347ab9795aff4b3", "type": "electric_scooter", "name": "7005cd55b46c6a622347ab9795aff4b3", "rental_uris": {"android": "https://dc.lft.to/lastmile_qr_scan", "ios": "https://dc.lft.to/lastmile_qr_scan"}, "is_disabled": 0, "fusion_lat": 0.0, "lat": 38.92738716666667, "is_reserved": 0}, {"lon": -77.07058683333334, "fusion_lon": 0.0, "bike_id": "60d1c126df210c00ea2e77397f5fcac1", "type": "electric_scooter", "name": "60d1c126df210c00ea2e77397f5fcac1", "rental_uris": {"android": "https://dc.lft.to/lastmile_qr_scan", "ios": "https://dc.lft.to/lastmile_qr_scan"}, "is_disabled": 0, "fusion_lat": 0.0, "lat": 38.9010685, "is_reserved": 0}, {"lon": -76.99802816666667, "fusion_lon": 0.0, "bike_id": "07265684d697a51a9f497aa7706d63a1", "type": "electric_scooter", "name": "07265684d697a51a9f497aa7706d63a1", "rental_uris": {"android": "https://dc.lft.to/lastmile_qr_scan", "ios": "https://dc.lft.to/lastmile_qr_scan"}, "is_disabled": 0, "fusion_lat": 0.0, "lat": 38.90145866666667, "is_reserved": 0}, {"lon": -76.986725, "fusion_lon": 0.0, "bike_id": "e70eaf7ed99d0b2f9d45c6aa9985dbf8", "type": "electric_scooter", "name": "e70eaf7ed99d0b2f9d45c6aa9985dbf8", "rental_uris": {"android": "https://dc.lft.to/lastmile_qr_scan", "ios": "https://dc.lft.to/lastmile_qr_scan"}, "is_disabled": 0, "fusion_lat": 0.0, "lat": 38.90675516666667, "is_reserved": 0}, {"lon": -76.955888, "fusion_lon": 0.0, "bike_id": "3b4eb6ec251283b092d13d6d7d0e9585", "type": "electric_scooter", "name": "3b4eb6ec251283b092d13d6d7d0e9585", "rental_uris": {"android": "https://dc.lft.to/lastmile_qr_scan", "ios": "https://dc.lft.to/lastmile_qr_scan"}, "is_disabled": 0, "fusion_lat": 0.0, "lat": 38.88613316666667, "is_reserved": 0}, {"lon": -77.04482916666667, "fusion_lon": 0.0, "bike_id": "4357d7440441039c812d6eaf64eae60e", "type": "electric_scooter", "name": "4357d7440441039c812d6eaf64eae60e", "rental_uris": {"android": "https://dc.lft.to/lastmile_qr_scan", "ios": "https://dc.lft.to/lastmile_qr_scan"}, "is_disabled": 0, "fusion_lat": 0.0, "lat": 38.8952065, "is_reserved": 0}, {"lon": -77.0220685, "fusion_lon": 0.0, "bike_id": "baf7e4770bd4975872e301bef8df703e", "type": "electric_scooter", "name": "baf7e4770bd4975872e301bef8df703e", "rental_uris": {"android": "https://dc.lft.to/lastmile_qr_scan", "ios": "https://dc.lft.to/lastmile_qr_scan"}, "is_disabled": 0, "fusion_lat": 0.0, "lat": 38.94798983333333, "is_reserved": 0}, {"lon": -77.04175333333333, "fusion_lon": 0.0, "bike_id": "880c1830a28845e36fedacc3a4cf2fab", "type": "electric_scooter", "name": "880c1830a28845e36fedacc3a4cf2fab", "rental_uris": {"android": "https://dc.lft.to/lastmile_qr_scan", "ios": "https://dc.lft.to/lastmile_qr_scan"}, "is_disabled": 0, "fusion_lat": 0.0, "lat": 38.918363, "is_reserved": 0}, {"lon": -77.02025816666666, "fusion_lon": 0.0, "bike_id": "9c424a4ddd0d5e648e69d60182a9a17c", "type": "electric_scooter", "name": "9c424a4ddd0d5e648e69d60182a9a17c", "rental_uris": {"android": "https://dc.lft.to/lastmile_qr_scan", "ios": "https://dc.lft.to/lastmile_qr_scan"}, "is_disabled": 0, "fusion_lat": 0.0, "lat": 38.895486166666664, "is_reserved": 0}, {"lon": -77.04370516666667, "fusion_lon": 0.0, "bike_id": "98eacc5c85e63b8f96b5a9121af5567e", "type": "electric_scooter", "name": "98eacc5c85e63b8f96b5a9121af5567e", "rental_uris": {"android": "https://dc.lft.to/lastmile_qr_scan", "ios": "https://dc.lft.to/lastmile_qr_scan"}, "is_disabled": 0, "fusion_lat": 0.0, "lat": 38.892242833333334, "is_reserved": 0}, {"lon": -77.0072125, "fusion_lon": 0.0, "bike_id": "06270eb9b37b6890136e5fac82a0591c", "type": "electric_scooter", "name": "06270eb9b37b6890136e5fac82a0591c", "rental_uris": {"android": "https://dc.lft.to/lastmile_qr_scan", "ios": "https://dc.lft.to/lastmile_qr_scan"}, "is_disabled": 0, "fusion_lat": 0.0, "lat": 38.87762566666667, "is_reserved": 0}, {"lon": -77.027978, "fusion_lon": 0.0, "bike_id": "95aa658aa9e4c2d77c939910d5058306", "type": "electric_scooter", "name": "95aa658aa9e4c2d77c939910d5058306", "rental_uris": {"android": "https://dc.lft.to/lastmile_qr_scan", "ios": "https://dc.lft.to/lastmile_qr_scan"}, "is_disabled": 0, "fusion_lat": 0.0, "lat": 38.916481833333336, "is_reserved": 0}, {"lon": -77.04032766666667, "fusion_lon": 0.0, "bike_id": "53a6b575b755caa129cb0976dab31217", "type": "electric_scooter", "name": "53a6b575b755caa129cb0976dab31217", "rental_uris": {"android": "https://dc.lft.to/lastmile_qr_scan", "ios": "https://dc.lft.to/lastmile_qr_scan"}, "is_disabled": 0, "fusion_lat": 0.0, "lat": 38.9240905, "is_reserved": 0}, {"lon": -77.03285633333333, "fusion_lon": 0.0, "bike_id": "f186e9340683fa5108f07f3f4843873b", "type": "electric_scooter", "name": "f186e9340683fa5108f07f3f4843873b", "rental_uris": {"android": "https://dc.lft.to/lastmile_qr_scan", "ios": "https://dc.lft.to/lastmile_qr_scan"}, "is_disabled": 0, "fusion_lat": 0.0, "lat": 38.9096145, "is_reserved": 0}, {"lon": -77.05317533333333, "fusion_lon": 0.0, "bike_id": "c45cd7ac82dd72620ae0f773372b4223", "type": "electric_scooter", "name": "c45cd7ac82dd72620ae0f773372b4223", "rental_uris": {"android": "https://dc.lft.to/lastmile_qr_scan", "ios": "https://dc.lft.to/lastmile_qr_scan"}, "is_disabled": 0, "fusion_lat": 0.0, "lat": 38.906422166666665, "is_reserved": 0}, {"lon": -76.97621366666667, "fusion_lon": 0.0, "bike_id": "855b3dcd3b1a36fd9f97a43c957aa07a", "type": "electric_scooter", "name": "855b3dcd3b1a36fd9f97a43c957aa07a", "rental_uris": {"android": "https://dc.lft.to/lastmile_qr_scan", "ios": "https://dc.lft.to/lastmile_qr_scan"}, "is_disabled": 0, "fusion_lat": 0.0, "lat": 38.892821, "is_reserved": 0}, {"lon": -77.0745775, "fusion_lon": 0.0, "bike_id": "6b0b3980c6c8ace644ef412f8682bc56", "type": "electric_scooter", "name": "6b0b3980c6c8ace644ef412f8682bc56", "rental_uris": {"android": "https://dc.lft.to/lastmile_qr_scan", "ios": "https://dc.lft.to/lastmile_qr_scan"}, "is_disabled": 0, "fusion_lat": 0.0, "lat": 38.93553416666666, "is_reserved": 0}, {"lon": -77.00731833333333, "fusion_lon": 0.0, "bike_id": "97213bf6500f32b49aa5897d8240b084", "type": "electric_scooter", "name": "97213bf6500f32b49aa5897d8240b084", "rental_uris": {"android": "https://dc.lft.to/lastmile_qr_scan", "ios": "https://dc.lft.to/lastmile_qr_scan"}, "is_disabled": 0, "fusion_lat": 0.0, "lat": 38.87681583333333, "is_reserved": 0}, {"lon": -76.951859, "fusion_lon": 0.0, "bike_id": "692edf0698be7db8df7dd3d2ad81140e", "type": "electric_scooter", "name": "692edf0698be7db8df7dd3d2ad81140e", "rental_uris": {"android": "https://dc.lft.to/lastmile_qr_scan", "ios": "https://dc.lft.to/lastmile_qr_scan"}, "is_disabled": 0, "fusion_lat": 0.0, "lat": 38.891346, "is_reserved": 0}, {"lon": -77.04045466666666, "fusion_lon": 0.0, "bike_id": "08d6015205094f9dfc33b4e1c88e7c6e", "type": "electric_scooter", "name": "08d6015205094f9dfc33b4e1c88e7c6e", "rental_uris": {"android": "https://dc.lft.to/lastmile_qr_scan", "ios": "https://dc.lft.to/lastmile_qr_scan"}, "is_disabled": 0, "fusion_lat": 0.0, "lat": 38.90605133333333, "is_reserved": 0}, {"lon": -77.03710983333333, "fusion_lon": 0.0, "bike_id": "fc780949aeb8997bec93aa2e4fab5f51", "type": "electric_scooter", "name": "fc780949aeb8997bec93aa2e4fab5f51", "rental_uris": {"android": "https://dc.lft.to/lastmile_qr_scan", "ios": "https://dc.lft.to/lastmile_qr_scan"}, "is_disabled": 0, "fusion_lat": 0.0, "lat": 38.903748, "is_reserved": 0}, {"lon": -77.0428545, "fusion_lon": 0.0, "bike_id": "19385f5d9e3b7cd4a680dfa6e6589b5e", "type": "electric_scooter", "name": "19385f5d9e3b7cd4a680dfa6e6589b5e", "rental_uris": {"android": "https://dc.lft.to/lastmile_qr_scan", "ios": "https://dc.lft.to/lastmile_qr_scan"}, "is_disabled": 0, "fusion_lat": 0.0, "lat": 38.906512666666664, "is_reserved": 0}, {"lon": -77.03377616666667, "fusion_lon": 0.0, "bike_id": "063a47521440c2681482b8c55b15052e", "type": "electric_scooter", "name": "063a47521440c2681482b8c55b15052e", "rental_uris": {"android": "https://dc.lft.to/lastmile_qr_scan", "ios": "https://dc.lft.to/lastmile_qr_scan"}, "is_disabled": 0, "fusion_lat": 0.0, "lat": 38.921532666666664, "is_reserved": 0}, {"lon": -77.0366405, "fusion_lon": 0.0, "bike_id": "dcb3336674b6441d880a09af2ea0706b", "type": "electric_scooter", "name": "dcb3336674b6441d880a09af2ea0706b", "rental_uris": {"android": "https://dc.lft.to/lastmile_qr_scan", "ios": "https://dc.lft.to/lastmile_qr_scan"}, "is_disabled": 0, "fusion_lat": 0.0, "lat": 38.92211016666667, "is_reserved": 0}, {"lon": -77.02383516666667, "fusion_lon": 0.0, "bike_id": "9322fd28d6dfa0acbdf6242fe7d2b3be", "type": "electric_scooter", "name": "9322fd28d6dfa0acbdf6242fe7d2b3be", "rental_uris": {"android": "https://dc.lft.to/lastmile_qr_scan", "ios": "https://dc.lft.to/lastmile_qr_scan"}, "is_disabled": 0, "fusion_lat": 0.0, "lat": 38.89731166666667, "is_reserved": 0}, {"lon": -77.0265815, "fusion_lon": 0.0, "bike_id": "00afb668c7b8e7cf23f4ba4df6bf4bbc", "type": "electric_scooter", "name": "00afb668c7b8e7cf23f4ba4df6bf4bbc", "rental_uris": {"android": "https://dc.lft.to/lastmile_qr_scan", "ios": "https://dc.lft.to/lastmile_qr_scan"}, "is_disabled": 0, "fusion_lat": 0.0, "lat": 38.9170285, "is_reserved": 0}, {"lon": -77.02758066666667, "fusion_lon": 0.0, "bike_id": "86fe3679b59c155aefe284fe9997931e", "type": "electric_scooter", "name": "86fe3679b59c155aefe284fe9997931e", "rental_uris": {"android": "https://dc.lft.to/lastmile_qr_scan", "ios": "https://dc.lft.to/lastmile_qr_scan"}, "is_disabled": 0, "fusion_lat": 0.0, "lat": 38.91700816666667, "is_reserved": 0}, {"lon": -77.000709, "fusion_lon": 0.0, "bike_id": "e8e82c0a3e35d5ea90e057a87331f172", "type": "electric_scooter", "name": "e8e82c0a3e35d5ea90e057a87331f172", "rental_uris": {"android": "https://dc.lft.to/lastmile_qr_scan", "ios": "https://dc.lft.to/lastmile_qr_scan"}, "is_disabled": 0, "fusion_lat": 0.0, "lat": 38.876840333333334, "is_reserved": 0}, {"lon": -77.00627383333334, "fusion_lon": 0.0, "bike_id": "53a9e6de44336d8fa3003fdfc0b8b3eb", "type": "electric_scooter", "name": "53a9e6de44336d8fa3003fdfc0b8b3eb", "rental_uris": {"android": "https://dc.lft.to/lastmile_qr_scan", "ios": "https://dc.lft.to/lastmile_qr_scan"}, "is_disabled": 0, "fusion_lat": 0.0, "lat": 38.8717955, "is_reserved": 0}, {"lon": -77.02651866666666, "fusion_lon": 0.0, "bike_id": "5ec5b1dff891aa0ac7545817818fd1b7", "type": "electric_scooter", "name": "5ec5b1dff891aa0ac7545817818fd1b7", "rental_uris": {"android": "https://dc.lft.to/lastmile_qr_scan", "ios": "https://dc.lft.to/lastmile_qr_scan"}, "is_disabled": 0, "fusion_lat": 0.0, "lat": 38.93862566666667, "is_reserved": 0}, {"lon": -77.04177366666667, "fusion_lon": 0.0, "bike_id": "8dfa6c9c408db42794955adf8e1e9409", "type": "electric_scooter", "name": "8dfa6c9c408db42794955adf8e1e9409", "rental_uris": {"android": "https://dc.lft.to/lastmile_qr_scan", "ios": "https://dc.lft.to/lastmile_qr_scan"}, "is_disabled": 0, "fusion_lat": 0.0, "lat": 38.906487166666665, "is_reserved": 0}, {"lon": -76.95411666666666, "fusion_lon": 0.0, "bike_id": "f5b74ca51ebac01d309045480efbaf4e", "type": "electric_bike", "name": "f5b74ca51ebac01d309045480efbaf4e", "rental_uris": {"android": "https://dc.lft.to/lastmile_qr_scan", "ios": "https://dc.lft.to/lastmile_qr_scan"}, "is_disabled": 0, "fusion_lat": 0.0, "lat": 38.8840255, "is_reserved": 0}, {"lon": -77.029559, "fusion_lon": 0.0, "bike_id": "6a5e0bfc4ccbceb3809410f779774562", "type": "electric_scooter", "name": "6a5e0bfc4ccbceb3809410f779774562", "rental_uris": {"android": "https://dc.lft.to/lastmile_qr_scan", "ios": "https://dc.lft.to/lastmile_qr_scan"}, "is_disabled": 0, "fusion_lat": 0.0, "lat": 38.91664516666667, "is_reserved": 0}, {"lon": -77.06186583333333, "fusion_lon": 0.0, "bike_id": "7943ddc86f761b186c23ccf31d1c098c", "type": "electric_scooter", "name": "7943ddc86f761b186c23ccf31d1c098c", "rental_uris": {"android": "https://dc.lft.to/lastmile_qr_scan", "ios": "https://dc.lft.to/lastmile_qr_scan"}, "is_disabled": 0, "fusion_lat": 0.0, "lat": 38.90336416666667, "is_reserved": 0}, {"lon": -77.017515, "fusion_lon": 0.0, "bike_id": "b380c19dd65a0f7164567d93bd58d59c", "type": "electric_scooter", "name": "b380c19dd65a0f7164567d93bd58d59c", "rental_uris": {"android": "https://dc.lft.to/lastmile_qr_scan", "ios": "https://dc.lft.to/lastmile_qr_scan"}, "is_disabled": 0, "fusion_lat": 0.0, "lat": 38.91924816666667, "is_reserved": 0}, {"lon": -77.03272166666666, "fusion_lon": 0.0, "bike_id": "bc2d278835151e2f3b1d296f58ac4bb0", "type": "electric_scooter", "name": "bc2d278835151e2f3b1d296f58ac4bb0", "rental_uris": {"android": "https://dc.lft.to/lastmile_qr_scan", "ios": "https://dc.lft.to/lastmile_qr_scan"}, "is_disabled": 0, "fusion_lat": 0.0, "lat": 38.909538, "is_reserved": 0}, {"lon": -77.00885466666666, "fusion_lon": 0.0, "bike_id": "eeefb1d7e37b3828f3ae05dedaa95b15", "type": "electric_scooter", "name": "eeefb1d7e37b3828f3ae05dedaa95b15", "rental_uris": {"android": "https://dc.lft.to/lastmile_qr_scan", "ios": "https://dc.lft.to/lastmile_qr_scan"}, "is_disabled": 0, "fusion_lat": 0.0, "lat": 38.8794565, "is_reserved": 0}, {"lon": -76.9978835, "fusion_lon": 0.0, "bike_id": "a7b1e8602c42a92cbe998cff930ee211", "type": "electric_scooter", "name": "a7b1e8602c42a92cbe998cff930ee211", "rental_uris": {"android": "https://dc.lft.to/lastmile_qr_scan", "ios": "https://dc.lft.to/lastmile_qr_scan"}, "is_disabled": 0, "fusion_lat": 0.0, "lat": 38.9087335, "is_reserved": 0}, {"lon": -77.02096533333334, "fusion_lon": 0.0, "bike_id": "85e80cd388e01f8782c9250823294700", "type": "electric_scooter", "name": "85e80cd388e01f8782c9250823294700", "rental_uris": {"android": "https://dc.lft.to/lastmile_qr_scan", "ios": "https://dc.lft.to/lastmile_qr_scan"}, "is_disabled": 0, "fusion_lat": 0.0, "lat": 38.8850965, "is_reserved": 0}, {"lon": -77.05841516666666, "fusion_lon": 0.0, "bike_id": "e1f3cf74a98f2d279ddbb2fa105d83fa", "type": "electric_scooter", "name": "e1f3cf74a98f2d279ddbb2fa105d83fa", "rental_uris": {"android": "https://dc.lft.to/lastmile_qr_scan", "ios": "https://dc.lft.to/lastmile_qr_scan"}, "is_disabled": 0, "fusion_lat": 0.0, "lat": 38.930567833333335, "is_reserved": 0}, {"lon": -77.038579, "fusion_lon": 0.0, "bike_id": "9a210faa027a4464b24d40a65268d800", "type": "electric_scooter", "name": "9a210faa027a4464b24d40a65268d800", "rental_uris": {"android": "https://dc.lft.to/lastmile_qr_scan", "ios": "https://dc.lft.to/lastmile_qr_scan"}, "is_disabled": 0, "fusion_lat": 0.0, "lat": 38.910174166666664, "is_reserved": 0}, {"lon": -77.02463666666667, "fusion_lon": 0.0, "bike_id": "8929e89ab9c8f6209adb63856fb7e26a", "type": "electric_scooter", "name": "8929e89ab9c8f6209adb63856fb7e26a", "rental_uris": {"android": "https://dc.lft.to/lastmile_qr_scan", "ios": "https://dc.lft.to/lastmile_qr_scan"}, "is_disabled": 0, "fusion_lat": 0.0, "lat": 38.897276, "is_reserved": 0}, {"lon": -76.98064, "fusion_lon": 0.0, "bike_id": "828664138c2c7a1cf31b82c95d4e37f6", "type": "electric_bike", "name": "828664138c2c7a1cf31b82c95d4e37f6", "rental_uris": {"android": "https://dc.lft.to/lastmile_qr_scan", "ios": "https://dc.lft.to/lastmile_qr_scan"}, "is_disabled": 0, "fusion_lat": 0.0, "lat": 38.901197, "is_reserved": 0}, {"lon": -77.041769, "fusion_lon": 0.0, "bike_id": "e6cb5be75cf30b25fb2ae61e099a4a85", "type": "electric_scooter", "name": "e6cb5be75cf30b25fb2ae61e099a4a85", "rental_uris": {"android": "https://dc.lft.to/lastmile_qr_scan", "ios": "https://dc.lft.to/lastmile_qr_scan"}, "is_disabled": 0, "fusion_lat": 0.0, "lat": 38.91903816666667, "is_reserved": 0}, {"lon": -77.03535133333334, "fusion_lon": 0.0, "bike_id": "951a63ce6af16e5e0f2b3715622d9cd4", "type": "electric_scooter", "name": "951a63ce6af16e5e0f2b3715622d9cd4", "rental_uris": {"android": "https://dc.lft.to/lastmile_qr_scan", "ios": "https://dc.lft.to/lastmile_qr_scan"}, "is_disabled": 0, "fusion_lat": 0.0, "lat": 38.92537516666667, "is_reserved": 0}, {"lon": -77.0414265, "fusion_lon": 0.0, "bike_id": "5cd520c9f0a81afb0718d966811558f8", "type": "electric_scooter", "name": "5cd520c9f0a81afb0718d966811558f8", "rental_uris": {"android": "https://dc.lft.to/lastmile_qr_scan", "ios": "https://dc.lft.to/lastmile_qr_scan"}, "is_disabled": 0, "fusion_lat": 0.0, "lat": 38.91682816666667, "is_reserved": 0}, {"lon": -77.01948966666667, "fusion_lon": 0.0, "bike_id": "c8011a07a5a658a87c3b548a187ae06b", "type": "electric_scooter", "name": "c8011a07a5a658a87c3b548a187ae06b", "rental_uris": {"android": "https://dc.lft.to/lastmile_qr_scan", "ios": "https://dc.lft.to/lastmile_qr_scan"}, "is_disabled": 0, "fusion_lat": 0.0, "lat": 38.924212833333335, "is_reserved": 0}, {"lon": -77.03628666666667, "fusion_lon": 0.0, "bike_id": "dac262fa1753b568bd6ba721f1aff986", "type": "electric_scooter", "name": "dac262fa1753b568bd6ba721f1aff986", "rental_uris": {"android": "https://dc.lft.to/lastmile_qr_scan", "ios": "https://dc.lft.to/lastmile_qr_scan"}, "is_disabled": 0, "fusion_lat": 0.0, "lat": 38.96552833333333, "is_reserved": 0}, {"lon": -77.039666, "fusion_lon": 0.0, "bike_id": "b84266b5a678dc4357de2dcdf343037a", "type": "electric_scooter", "name": "b84266b5a678dc4357de2dcdf343037a", "rental_uris": {"android": "https://dc.lft.to/lastmile_qr_scan", "ios": "https://dc.lft.to/lastmile_qr_scan"}, "is_disabled": 0, "fusion_lat": 0.0, "lat": 38.903766166666664, "is_reserved": 0}, {"lon": -77.0706805, "fusion_lon": 0.0, "bike_id": "36dd5b4d506fb139e0897d7406c665c1", "type": "electric_scooter", "name": "36dd5b4d506fb139e0897d7406c665c1", "rental_uris": {"android": "https://dc.lft.to/lastmile_qr_scan", "ios": "https://dc.lft.to/lastmile_qr_scan"}, "is_disabled": 0, "fusion_lat": 0.0, "lat": 38.919371, "is_reserved": 0}, {"lon": -76.99411433333333, "fusion_lon": 0.0, "bike_id": "df742cedda0a535782566c5735551fe5", "type": "electric_bike", "name": "df742cedda0a535782566c5735551fe5", "rental_uris": {"android": "https://dc.lft.to/lastmile_qr_scan", "ios": "https://dc.lft.to/lastmile_qr_scan"}, "is_disabled": 0, "fusion_lat": 0.0, "lat": 38.921791166666665, "is_reserved": 0}, {"lon": -77.04601616666666, "fusion_lon": 0.0, "bike_id": "a012c7cfe8b41cf07780a636535efa48", "type": "electric_scooter", "name": "a012c7cfe8b41cf07780a636535efa48", "rental_uris": {"android": "https://dc.lft.to/lastmile_qr_scan", "ios": "https://dc.lft.to/lastmile_qr_scan"}, "is_disabled": 0, "fusion_lat": 0.0, "lat": 38.915136, "is_reserved": 0}, {"lon": -76.99509066666667, "fusion_lon": 0.0, "bike_id": "008df2537975369b20b8ae8a9cac8d0b", "type": "electric_scooter", "name": "008df2537975369b20b8ae8a9cac8d0b", "rental_uris": {"android": "https://dc.lft.to/lastmile_qr_scan", "ios": "https://dc.lft.to/lastmile_qr_scan"}, "is_disabled": 0, "fusion_lat": 0.0, "lat": 38.883683833333336, "is_reserved": 0}, {"lon": -77.03642566666667, "fusion_lon": 0.0, "bike_id": "1fdbe6b6ac62b22bba3e9d424ea26156", "type": "electric_scooter", "name": "1fdbe6b6ac62b22bba3e9d424ea26156", "rental_uris": {"android": "https://dc.lft.to/lastmile_qr_scan", "ios": "https://dc.lft.to/lastmile_qr_scan"}, "is_disabled": 0, "fusion_lat": 0.0, "lat": 38.9173945, "is_reserved": 0}, {"lon": -77.00606216666667, "fusion_lon": 0.0, "bike_id": "1e25efba18505de61ad7fa4db8267469", "type": "electric_scooter", "name": "1e25efba18505de61ad7fa4db8267469", "rental_uris": {"android": "https://dc.lft.to/lastmile_qr_scan", "ios": "https://dc.lft.to/lastmile_qr_scan"}, "is_disabled": 0, "fusion_lat": 0.0, "lat": 38.906269, "is_reserved": 0}, {"lon": -77.04194883333334, "fusion_lon": 0.0, "bike_id": "a267b42148342525e178657c15561a99", "type": "electric_bike", "name": "a267b42148342525e178657c15561a99", "rental_uris": {"android": "https://dc.lft.to/lastmile_qr_scan", "ios": "https://dc.lft.to/lastmile_qr_scan"}, "is_disabled": 0, "fusion_lat": 0.0, "lat": 38.92220616666667, "is_reserved": 0}, {"lon": -77.01243533333333, "fusion_lon": 0.0, "bike_id": "78f82540a14bb6e36413471f5d1de667", "type": "electric_scooter", "name": "78f82540a14bb6e36413471f5d1de667", "rental_uris": {"android": "https://dc.lft.to/lastmile_qr_scan", "ios": "https://dc.lft.to/lastmile_qr_scan"}, "is_disabled": 0, "fusion_lat": 0.0, "lat": 38.90718416666667, "is_reserved": 0}, {"lon": -77.03664216666667, "fusion_lon": 0.0, "bike_id": "68ff1b7e4a1c80bc0089e1ac260b1c60", "type": "electric_scooter", "name": "68ff1b7e4a1c80bc0089e1ac260b1c60", "rental_uris": {"android": "https://dc.lft.to/lastmile_qr_scan", "ios": "https://dc.lft.to/lastmile_qr_scan"}, "is_disabled": 0, "fusion_lat": 0.0, "lat": 38.91799833333334, "is_reserved": 0}, {"lon": -77.09453033333334, "fusion_lon": 0.0, "bike_id": "6a61db738650e5a23bd19535906ecfed", "type": "electric_bike", "name": "6a61db738650e5a23bd19535906ecfed", "rental_uris": {"android": "https://dc.lft.to/lastmile_qr_scan", "ios": "https://dc.lft.to/lastmile_qr_scan"}, "is_disabled": 0, "fusion_lat": 0.0, "lat": 38.80753583333333, "is_reserved": 0}, {"lon": -76.98713266666667, "fusion_lon": 0.0, "bike_id": "b3693824b96470afdcf883236678dab2", "type": "electric_scooter", "name": "b3693824b96470afdcf883236678dab2", "rental_uris": {"android": "https://dc.lft.to/lastmile_qr_scan", "ios": "https://dc.lft.to/lastmile_qr_scan"}, "is_disabled": 0, "fusion_lat": 0.0, "lat": 38.867052666666666, "is_reserved": 0}, {"lon": -77.0177355, "fusion_lon": 0.0, "bike_id": "f277c43c22c36d31336adc3ff81d7289", "type": "electric_scooter", "name": "f277c43c22c36d31336adc3ff81d7289", "rental_uris": {"android": "https://dc.lft.to/lastmile_qr_scan", "ios": "https://dc.lft.to/lastmile_qr_scan"}, "is_disabled": 0, "fusion_lat": 0.0, "lat": 38.90463183333333, "is_reserved": 0}, {"lon": -77.04558866666666, "fusion_lon": 0.0, "bike_id": "cc6041da90340628e3dd39e568770c1a", "type": "electric_scooter", "name": "cc6041da90340628e3dd39e568770c1a", "rental_uris": {"android": "https://dc.lft.to/lastmile_qr_scan", "ios": "https://dc.lft.to/lastmile_qr_scan"}, "is_disabled": 0, "fusion_lat": 0.0, "lat": 38.91475466666667, "is_reserved": 0}, {"lon": -77.02390866666667, "fusion_lon": 0.0, "bike_id": "e4468006e739b24fec67e7951a07a943", "type": "electric_scooter", "name": "e4468006e739b24fec67e7951a07a943", "rental_uris": {"android": "https://dc.lft.to/lastmile_qr_scan", "ios": "https://dc.lft.to/lastmile_qr_scan"}, "is_disabled": 0, "fusion_lat": 0.0, "lat": 38.907033, "is_reserved": 0}, {"lon": -76.9386995, "fusion_lon": 0.0, "bike_id": "1d3929a4c778e01895313b5a4847713b", "type": "electric_bike", "name": "1d3929a4c778e01895313b5a4847713b", "rental_uris": {"android": "https://dc.lft.to/lastmile_qr_scan", "ios": "https://dc.lft.to/lastmile_qr_scan"}, "is_disabled": 0, "fusion_lat": 0.0, "lat": 38.956362666666664, "is_reserved": 0}, {"lon": -77.03368416666666, "fusion_lon": 0.0, "bike_id": "7029a89b84e4dfb50a91ca3782f22194", "type": "electric_scooter", "name": "7029a89b84e4dfb50a91ca3782f22194", "rental_uris": {"android": "https://dc.lft.to/lastmile_qr_scan", "ios": "https://dc.lft.to/lastmile_qr_scan"}, "is_disabled": 0, "fusion_lat": 0.0, "lat": 38.9028815, "is_reserved": 0}, {"lon": -77.00201783333333, "fusion_lon": 0.0, "bike_id": "558f5e079d1befd70095774d5752f4b1", "type": "electric_scooter", "name": "558f5e079d1befd70095774d5752f4b1", "rental_uris": {"android": "https://dc.lft.to/lastmile_qr_scan", "ios": "https://dc.lft.to/lastmile_qr_scan"}, "is_disabled": 0, "fusion_lat": 0.0, "lat": 38.902366666666666, "is_reserved": 0}, {"lon": -77.03241966666667, "fusion_lon": 0.0, "bike_id": "f303a71e9c353a22a3b88eec0b5a7db0", "type": "electric_scooter", "name": "f303a71e9c353a22a3b88eec0b5a7db0", "rental_uris": {"android": "https://dc.lft.to/lastmile_qr_scan", "ios": "https://dc.lft.to/lastmile_qr_scan"}, "is_disabled": 0, "fusion_lat": 0.0, "lat": 38.928742666666665, "is_reserved": 0}, {"lon": -77.04828383333333, "fusion_lon": 0.0, "bike_id": "86e8593c5e3eca345df4d2bebe1e2c45", "type": "electric_scooter", "name": "86e8593c5e3eca345df4d2bebe1e2c45", "rental_uris": {"android": "https://dc.lft.to/lastmile_qr_scan", "ios": "https://dc.lft.to/lastmile_qr_scan"}, "is_disabled": 0, "fusion_lat": 0.0, "lat": 38.90069183333333, "is_reserved": 0}, {"lon": -77.00283816666666, "fusion_lon": 0.0, "bike_id": "1b6371986f1cec53aceee9b0bfc5e89d", "type": "electric_bike", "name": "1b6371986f1cec53aceee9b0bfc5e89d", "rental_uris": {"android": "https://dc.lft.to/lastmile_qr_scan", "ios": "https://dc.lft.to/lastmile_qr_scan"}, "is_disabled": 0, "fusion_lat": 0.0, "lat": 38.95710716666667, "is_reserved": 0}, {"lon": -77.05973266666666, "fusion_lon": 0.0, "bike_id": "dc8ab7691e1d969a0280e3ab236f326b", "type": "electric_scooter", "name": "dc8ab7691e1d969a0280e3ab236f326b", "rental_uris": {"android": "https://dc.lft.to/lastmile_qr_scan", "ios": "https://dc.lft.to/lastmile_qr_scan"}, "is_disabled": 0, "fusion_lat": 0.0, "lat": 38.90110133333334, "is_reserved": 0}, {"lon": -77.03335066666666, "fusion_lon": 0.0, "bike_id": "0b5f0907d985e02f705ed7ac1e50b36f", "type": "electric_scooter", "name": "0b5f0907d985e02f705ed7ac1e50b36f", "rental_uris": {"android": "https://dc.lft.to/lastmile_qr_scan", "ios": "https://dc.lft.to/lastmile_qr_scan"}, "is_disabled": 0, "fusion_lat": 0.0, "lat": 38.921578833333335, "is_reserved": 0}, {"lon": -77.02977083333333, "fusion_lon": 0.0, "bike_id": "a89a52b30081d4226697f22c941c8005", "type": "electric_bike", "name": "a89a52b30081d4226697f22c941c8005", "rental_uris": {"android": "https://dc.lft.to/lastmile_qr_scan", "ios": "https://dc.lft.to/lastmile_qr_scan"}, "is_disabled": 0, "fusion_lat": 0.0, "lat": 38.92412516666667, "is_reserved": 0}, {"lon": -77.024123, "fusion_lon": 0.0, "bike_id": "f5402c137729c50ed1a1de2dfa79f23c", "type": "electric_scooter", "name": "f5402c137729c50ed1a1de2dfa79f23c", "rental_uris": {"android": "https://dc.lft.to/lastmile_qr_scan", "ios": "https://dc.lft.to/lastmile_qr_scan"}, "is_disabled": 0, "fusion_lat": 0.0, "lat": 38.91399716666667, "is_reserved": 0}, {"lon": -77.0237345, "fusion_lon": 0.0, "bike_id": "36f58d31361db3ab7b5453ef1f4caafc", "type": "electric_scooter", "name": "36f58d31361db3ab7b5453ef1f4caafc", "rental_uris": {"android": "https://dc.lft.to/lastmile_qr_scan", "ios": "https://dc.lft.to/lastmile_qr_scan"}, "is_disabled": 0, "fusion_lat": 0.0, "lat": 38.919953666666665, "is_reserved": 0}, {"lon": -77.063492, "fusion_lon": 0.0, "bike_id": "e21fdbe599b2abed2923ac80413a2e10", "type": "electric_scooter", "name": "e21fdbe599b2abed2923ac80413a2e10", "rental_uris": {"android": "https://dc.lft.to/lastmile_qr_scan", "ios": "https://dc.lft.to/lastmile_qr_scan"}, "is_disabled": 0, "fusion_lat": 0.0, "lat": 38.906824666666665, "is_reserved": 0}, {"lon": -76.97333416666666, "fusion_lon": 0.0, "bike_id": "918d6669581b6ad0c9550f5bd3ce2137", "type": "electric_scooter", "name": "918d6669581b6ad0c9550f5bd3ce2137", "rental_uris": {"android": "https://dc.lft.to/lastmile_qr_scan", "ios": "https://dc.lft.to/lastmile_qr_scan"}, "is_disabled": 0, "fusion_lat": 0.0, "lat": 38.90411616666667, "is_reserved": 0}, {"lon": -77.01904566666667, "fusion_lon": 0.0, "bike_id": "e61891bb6b9839d8bc2ae87a55be6ba4", "type": "electric_scooter", "name": "e61891bb6b9839d8bc2ae87a55be6ba4", "rental_uris": {"android": "https://dc.lft.to/lastmile_qr_scan", "ios": "https://dc.lft.to/lastmile_qr_scan"}, "is_disabled": 0, "fusion_lat": 0.0, "lat": 38.90913116666667, "is_reserved": 0}, {"lon": -77.01262233333334, "fusion_lon": 0.0, "bike_id": "0fefba51d178aef915dd3cb07443b7e3", "type": "electric_scooter", "name": "0fefba51d178aef915dd3cb07443b7e3", "rental_uris": {"android": "https://dc.lft.to/lastmile_qr_scan", "ios": "https://dc.lft.to/lastmile_qr_scan"}, "is_disabled": 0, "fusion_lat": 0.0, "lat": 38.91539266666667, "is_reserved": 0}, {"lon": -77.0281305, "fusion_lon": 0.0, "bike_id": "3051879a647888c35d3001f2d4deb8eb", "type": "electric_scooter", "name": "3051879a647888c35d3001f2d4deb8eb", "rental_uris": {"android": "https://dc.lft.to/lastmile_qr_scan", "ios": "https://dc.lft.to/lastmile_qr_scan"}, "is_disabled": 0, "fusion_lat": 0.0, "lat": 38.93079133333333, "is_reserved": 0}, {"lon": -77.02294516666667, "fusion_lon": 0.0, "bike_id": "5fdfb35a0ba58f9d1eec0ec455ece888", "type": "electric_scooter", "name": "5fdfb35a0ba58f9d1eec0ec455ece888", "rental_uris": {"android": "https://dc.lft.to/lastmile_qr_scan", "ios": "https://dc.lft.to/lastmile_qr_scan"}, "is_disabled": 0, "fusion_lat": 0.0, "lat": 38.91569666666667, "is_reserved": 0}, {"lon": -77.16234916666667, "fusion_lon": 0.0, "bike_id": "a034993d7add4664fb516a576632016b", "type": "electric_bike", "name": "a034993d7add4664fb516a576632016b", "rental_uris": {"android": "https://dc.lft.to/lastmile_qr_scan", "ios": "https://dc.lft.to/lastmile_qr_scan"}, "is_disabled": 0, "fusion_lat": 0.0, "lat": 38.886585333333336, "is_reserved": 0}, {"lon": -77.1297805, "fusion_lon": 0.0, "bike_id": "aec2d2ee63116c547a8d9fb84a176489", "type": "electric_bike", "name": "aec2d2ee63116c547a8d9fb84a176489", "rental_uris": {"android": "https://dc.lft.to/lastmile_qr_scan", "ios": "https://dc.lft.to/lastmile_qr_scan"}, "is_disabled": 0, "fusion_lat": 0.0, "lat": 38.799856166666665, "is_reserved": 0}, {"lon": -77.04115766666666, "fusion_lon": 0.0, "bike_id": "a883860b06c83e1b8dc574b4ec89abdf", "type": "electric_scooter", "name": "a883860b06c83e1b8dc574b4ec89abdf", "rental_uris": {"android": "https://dc.lft.to/lastmile_qr_scan", "ios": "https://dc.lft.to/lastmile_qr_scan"}, "is_disabled": 0, "fusion_lat": 0.0, "lat": 38.93356433333334, "is_reserved": 0}, {"lon": -76.99463633333333, "fusion_lon": 0.0, "bike_id": "78c81c2e10694b9c924713af067ec975", "type": "electric_scooter", "name": "78c81c2e10694b9c924713af067ec975", "rental_uris": {"android": "https://dc.lft.to/lastmile_qr_scan", "ios": "https://dc.lft.to/lastmile_qr_scan"}, "is_disabled": 0, "fusion_lat": 0.0, "lat": 38.8622005, "is_reserved": 0}, {"lon": -77.02834516666667, "fusion_lon": 0.0, "bike_id": "4598ae9df75b7fbf49d3a1fd00d01751", "type": "electric_scooter", "name": "4598ae9df75b7fbf49d3a1fd00d01751", "rental_uris": {"android": "https://dc.lft.to/lastmile_qr_scan", "ios": "https://dc.lft.to/lastmile_qr_scan"}, "is_disabled": 0, "fusion_lat": 0.0, "lat": 38.93203883333334, "is_reserved": 0}, {"lon": -77.02392316666666, "fusion_lon": 0.0, "bike_id": "c5fa50d0df90db6b4aaf68f458ebd52a", "type": "electric_scooter", "name": "c5fa50d0df90db6b4aaf68f458ebd52a", "rental_uris": {"android": "https://dc.lft.to/lastmile_qr_scan", "ios": "https://dc.lft.to/lastmile_qr_scan"}, "is_disabled": 0, "fusion_lat": 0.0, "lat": 38.91671516666667, "is_reserved": 0}, {"lon": -77.045632, "fusion_lon": 0.0, "bike_id": "7d07107dfecf23b33de91e16503346e5", "type": "electric_scooter", "name": "7d07107dfecf23b33de91e16503346e5", "rental_uris": {"android": "https://dc.lft.to/lastmile_qr_scan", "ios": "https://dc.lft.to/lastmile_qr_scan"}, "is_disabled": 0, "fusion_lat": 0.0, "lat": 38.917736833333336, "is_reserved": 0}, {"lon": -77.00779333333334, "fusion_lon": 0.0, "bike_id": "8c6523c1679449849bc8a212cfe88df6", "type": "electric_scooter", "name": "8c6523c1679449849bc8a212cfe88df6", "rental_uris": {"android": "https://dc.lft.to/lastmile_qr_scan", "ios": "https://dc.lft.to/lastmile_qr_scan"}, "is_disabled": 0, "fusion_lat": 0.0, "lat": 38.9174, "is_reserved": 0}, {"lon": -77.02959633333333, "fusion_lon": 0.0, "bike_id": "59bd5e40702c2b25764a39a2a695e0f2", "type": "electric_scooter", "name": "59bd5e40702c2b25764a39a2a695e0f2", "rental_uris": {"android": "https://dc.lft.to/lastmile_qr_scan", "ios": "https://dc.lft.to/lastmile_qr_scan"}, "is_disabled": 0, "fusion_lat": 0.0, "lat": 38.91714183333333, "is_reserved": 0}, {"lon": -77.01739383333333, "fusion_lon": 0.0, "bike_id": "1911dc803849ffeb70d887d70774f2e8", "type": "electric_scooter", "name": "1911dc803849ffeb70d887d70774f2e8", "rental_uris": {"android": "https://dc.lft.to/lastmile_qr_scan", "ios": "https://dc.lft.to/lastmile_qr_scan"}, "is_disabled": 0, "fusion_lat": 0.0, "lat": 38.902459666666665, "is_reserved": 0}, {"lon": -77.0217515, "fusion_lon": 0.0, "bike_id": "d59ea55cb4f07c15bda89bb287e285f9", "type": "electric_scooter", "name": "d59ea55cb4f07c15bda89bb287e285f9", "rental_uris": {"android": "https://dc.lft.to/lastmile_qr_scan", "ios": "https://dc.lft.to/lastmile_qr_scan"}, "is_disabled": 0, "fusion_lat": 0.0, "lat": 38.94294133333333, "is_reserved": 0}, {"lon": -77.01988783333333, "fusion_lon": 0.0, "bike_id": "3dda0a55696a36b1c910e6fea58af93b", "type": "electric_scooter", "name": "3dda0a55696a36b1c910e6fea58af93b", "rental_uris": {"android": "https://dc.lft.to/lastmile_qr_scan", "ios": "https://dc.lft.to/lastmile_qr_scan"}, "is_disabled": 0, "fusion_lat": 0.0, "lat": 38.93079683333333, "is_reserved": 0}, {"lon": -77.06334283333334, "fusion_lon": 0.0, "bike_id": "78f6d819ae84176bb73669c341c4e66c", "type": "electric_bike", "name": "78f6d819ae84176bb73669c341c4e66c", "rental_uris": {"android": "https://dc.lft.to/lastmile_qr_scan", "ios": "https://dc.lft.to/lastmile_qr_scan"}, "is_disabled": 0, "fusion_lat": 0.0, "lat": 38.800308, "is_reserved": 0}, {"lon": -77.017609, "fusion_lon": 0.0, "bike_id": "1bacea4dc017f7ac5f65d558e4e8b8d7", "type": "electric_scooter", "name": "1bacea4dc017f7ac5f65d558e4e8b8d7", "rental_uris": {"android": "https://dc.lft.to/lastmile_qr_scan", "ios": "https://dc.lft.to/lastmile_qr_scan"}, "is_disabled": 0, "fusion_lat": 0.0, "lat": 38.900955, "is_reserved": 0}, {"lon": -77.02411416666666, "fusion_lon": 0.0, "bike_id": "aa6f8f357875924cc06549f27a786a1f", "type": "electric_scooter", "name": "aa6f8f357875924cc06549f27a786a1f", "rental_uris": {"android": "https://dc.lft.to/lastmile_qr_scan", "ios": "https://dc.lft.to/lastmile_qr_scan"}, "is_disabled": 0, "fusion_lat": 0.0, "lat": 38.913999, "is_reserved": 0}, {"lon": -77.044964, "fusion_lon": 0.0, "bike_id": "241440acc839ebe358e65d21b7af1f7b", "type": "electric_scooter", "name": "241440acc839ebe358e65d21b7af1f7b", "rental_uris": {"android": "https://dc.lft.to/lastmile_qr_scan", "ios": "https://dc.lft.to/lastmile_qr_scan"}, "is_disabled": 0, "fusion_lat": 0.0, "lat": 38.91512683333333, "is_reserved": 0}, {"lon": -77.00593583333334, "fusion_lon": 0.0, "bike_id": "96ea39141ec6776c0ef6929fa1d0b6d1", "type": "electric_scooter", "name": "96ea39141ec6776c0ef6929fa1d0b6d1", "rental_uris": {"android": "https://dc.lft.to/lastmile_qr_scan", "ios": "https://dc.lft.to/lastmile_qr_scan"}, "is_disabled": 0, "fusion_lat": 0.0, "lat": 38.906097, "is_reserved": 0}, {"lon": -77.033873, "fusion_lon": 0.0, "bike_id": "b831fdbfb6f15ac51ca5b5ca5a26bbe1", "type": "electric_scooter", "name": "b831fdbfb6f15ac51ca5b5ca5a26bbe1", "rental_uris": {"android": "https://dc.lft.to/lastmile_qr_scan", "ios": "https://dc.lft.to/lastmile_qr_scan"}, "is_disabled": 0, "fusion_lat": 0.0, "lat": 38.925377166666664, "is_reserved": 0}, {"lon": -77.00069916666666, "fusion_lon": 0.0, "bike_id": "a07b9f5b0bd1754cb107a0248c38e1e4", "type": "electric_bike", "name": "a07b9f5b0bd1754cb107a0248c38e1e4", "rental_uris": {"android": "https://dc.lft.to/lastmile_qr_scan", "ios": "https://dc.lft.to/lastmile_qr_scan"}, "is_disabled": 0, "fusion_lat": 0.0, "lat": 38.919041, "is_reserved": 0}, {"lon": -77.0049645, "fusion_lon": 0.0, "bike_id": "40ed360bcef36410df1f13dcbb1f007a", "type": "electric_scooter", "name": "40ed360bcef36410df1f13dcbb1f007a", "rental_uris": {"android": "https://dc.lft.to/lastmile_qr_scan", "ios": "https://dc.lft.to/lastmile_qr_scan"}, "is_disabled": 0, "fusion_lat": 0.0, "lat": 38.8746485, "is_reserved": 0}, {"lon": -77.032798, "fusion_lon": 0.0, "bike_id": "d3d092ac5f17fad7a1a04841ed6af348", "type": "electric_scooter", "name": "d3d092ac5f17fad7a1a04841ed6af348", "rental_uris": {"android": "https://dc.lft.to/lastmile_qr_scan", "ios": "https://dc.lft.to/lastmile_qr_scan"}, "is_disabled": 0, "fusion_lat": 0.0, "lat": 38.92905783333333, "is_reserved": 0}, {"lon": -77.03851733333333, "fusion_lon": 0.0, "bike_id": "27acc8308b7071c821267cd437a6c0fa", "type": "electric_scooter", "name": "27acc8308b7071c821267cd437a6c0fa", "rental_uris": {"android": "https://dc.lft.to/lastmile_qr_scan", "ios": "https://dc.lft.to/lastmile_qr_scan"}, "is_disabled": 0, "fusion_lat": 0.0, "lat": 38.9027175, "is_reserved": 0}, {"lon": -77.086463, "fusion_lon": 0.0, "bike_id": "3fc51870a5ee5c07292bd3338387fd90", "type": "electric_scooter", "name": "3fc51870a5ee5c07292bd3338387fd90", "rental_uris": {"android": "https://dc.lft.to/lastmile_qr_scan", "ios": "https://dc.lft.to/lastmile_qr_scan"}, "is_disabled": 0, "fusion_lat": 0.0, "lat": 38.93478116666667, "is_reserved": 0}, {"lon": -77.04693116666667, "fusion_lon": 0.0, "bike_id": "c8f6f4079ff9800f1e85351c9a9001bf", "type": "electric_scooter", "name": "c8f6f4079ff9800f1e85351c9a9001bf", "rental_uris": {"android": "https://dc.lft.to/lastmile_qr_scan", "ios": "https://dc.lft.to/lastmile_qr_scan"}, "is_disabled": 0, "fusion_lat": 0.0, "lat": 38.897292, "is_reserved": 0}, {"lon": -76.97028583333334, "fusion_lon": 0.0, "bike_id": "a0ce8d3c5f33a2b3522e3508839b1f8b", "type": "electric_scooter", "name": "a0ce8d3c5f33a2b3522e3508839b1f8b", "rental_uris": {"android": "https://dc.lft.to/lastmile_qr_scan", "ios": "https://dc.lft.to/lastmile_qr_scan"}, "is_disabled": 0, "fusion_lat": 0.0, "lat": 38.87359033333333, "is_reserved": 0}, {"lon": -77.00610033333334, "fusion_lon": 0.0, "bike_id": "e487078e0733774fb41aa0a26491514a", "type": "electric_scooter", "name": "e487078e0733774fb41aa0a26491514a", "rental_uris": {"android": "https://dc.lft.to/lastmile_qr_scan", "ios": "https://dc.lft.to/lastmile_qr_scan"}, "is_disabled": 0, "fusion_lat": 0.0, "lat": 38.875515666666665, "is_reserved": 0}, {"lon": -77.02294966666666, "fusion_lon": 0.0, "bike_id": "43a8e89499d1add2c1457f6104ce7c50", "type": "electric_scooter", "name": "43a8e89499d1add2c1457f6104ce7c50", "rental_uris": {"android": "https://dc.lft.to/lastmile_qr_scan", "ios": "https://dc.lft.to/lastmile_qr_scan"}, "is_disabled": 0, "fusion_lat": 0.0, "lat": 38.89493366666667, "is_reserved": 0}, {"lon": -77.0806575, "fusion_lon": 0.0, "bike_id": "21113f68ec3df52c17cfd0e1ffff889d", "type": "electric_bike", "name": "21113f68ec3df52c17cfd0e1ffff889d", "rental_uris": {"android": "https://dc.lft.to/lastmile_qr_scan", "ios": "https://dc.lft.to/lastmile_qr_scan"}, "is_disabled": 0, "fusion_lat": 0.0, "lat": 39.05256133333334, "is_reserved": 0}, {"lon": -77.0372875, "fusion_lon": 0.0, "bike_id": "e769625df80bef183941712223c946d3", "type": "electric_scooter", "name": "e769625df80bef183941712223c946d3", "rental_uris": {"android": "https://dc.lft.to/lastmile_qr_scan", "ios": "https://dc.lft.to/lastmile_qr_scan"}, "is_disabled": 0, "fusion_lat": 0.0, "lat": 38.92662466666667, "is_reserved": 0}, {"lon": -77.024879, "fusion_lon": 0.0, "bike_id": "ceea980432e10c9399833806bcbdb5e3", "type": "electric_scooter", "name": "ceea980432e10c9399833806bcbdb5e3", "rental_uris": {"android": "https://dc.lft.to/lastmile_qr_scan", "ios": "https://dc.lft.to/lastmile_qr_scan"}, "is_disabled": 0, "fusion_lat": 0.0, "lat": 38.957817, "is_reserved": 0}, {"lon": -77.041256, "fusion_lon": 0.0, "bike_id": "9f62dae0a3f92714a281d9e33f582518", "type": "electric_scooter", "name": "9f62dae0a3f92714a281d9e33f582518", "rental_uris": {"android": "https://dc.lft.to/lastmile_qr_scan", "ios": "https://dc.lft.to/lastmile_qr_scan"}, "is_disabled": 0, "fusion_lat": 0.0, "lat": 38.921345333333335, "is_reserved": 0}, {"lon": -77.027232, "fusion_lon": 0.0, "bike_id": "d91bcda79c50030d492a0df38ea835a5", "type": "electric_scooter", "name": "d91bcda79c50030d492a0df38ea835a5", "rental_uris": {"android": "https://dc.lft.to/lastmile_qr_scan", "ios": "https://dc.lft.to/lastmile_qr_scan"}, "is_disabled": 0, "fusion_lat": 0.0, "lat": 38.92790516666667, "is_reserved": 0}, {"lon": -77.0256905, "fusion_lon": 0.0, "bike_id": "cd6bcecc28762b24dd8b1ebd5871f8ff", "type": "electric_scooter", "name": "cd6bcecc28762b24dd8b1ebd5871f8ff", "rental_uris": {"android": "https://dc.lft.to/lastmile_qr_scan", "ios": "https://dc.lft.to/lastmile_qr_scan"}, "is_disabled": 0, "fusion_lat": 0.0, "lat": 38.88750366666667, "is_reserved": 0}, {"lon": -76.946426, "fusion_lon": 0.0, "bike_id": "0f2656cb8412901977bfa572abcf79a7", "type": "electric_scooter", "name": "0f2656cb8412901977bfa572abcf79a7", "rental_uris": {"android": "https://dc.lft.to/lastmile_qr_scan", "ios": "https://dc.lft.to/lastmile_qr_scan"}, "is_disabled": 0, "fusion_lat": 0.0, "lat": 38.898681833333335, "is_reserved": 0}, {"lon": -77.03281583333333, "fusion_lon": 0.0, "bike_id": "b45df6c804b52163a688f79520946f06", "type": "electric_scooter", "name": "b45df6c804b52163a688f79520946f06", "rental_uris": {"android": "https://dc.lft.to/lastmile_qr_scan", "ios": "https://dc.lft.to/lastmile_qr_scan"}, "is_disabled": 0, "fusion_lat": 0.0, "lat": 38.909714666666666, "is_reserved": 0}, {"lon": -77.03578966666667, "fusion_lon": 0.0, "bike_id": "1ca77282b8a556617fc527c6a7fb9b6e", "type": "electric_scooter", "name": "1ca77282b8a556617fc527c6a7fb9b6e", "rental_uris": {"android": "https://dc.lft.to/lastmile_qr_scan", "ios": "https://dc.lft.to/lastmile_qr_scan"}, "is_disabled": 0, "fusion_lat": 0.0, "lat": 38.91119533333333, "is_reserved": 0}, {"lon": -77.03179783333333, "fusion_lon": 0.0, "bike_id": "16bcd013fb79478c6c1b179fc7f6c8b8", "type": "electric_scooter", "name": "16bcd013fb79478c6c1b179fc7f6c8b8", "rental_uris": {"android": "https://dc.lft.to/lastmile_qr_scan", "ios": "https://dc.lft.to/lastmile_qr_scan"}, "is_disabled": 0, "fusion_lat": 0.0, "lat": 38.91922916666667, "is_reserved": 0}, {"lon": -77.02128483333334, "fusion_lon": 0.0, "bike_id": "004ee66a0b9fd44cf2ff84384eb6acff", "type": "electric_scooter", "name": "004ee66a0b9fd44cf2ff84384eb6acff", "rental_uris": {"android": "https://dc.lft.to/lastmile_qr_scan", "ios": "https://dc.lft.to/lastmile_qr_scan"}, "is_disabled": 0, "fusion_lat": 0.0, "lat": 38.92363233333333, "is_reserved": 0}, {"lon": -77.02817333333333, "fusion_lon": 0.0, "bike_id": "e30e7fbdb04404541f88a5a43837701b", "type": "electric_scooter", "name": "e30e7fbdb04404541f88a5a43837701b", "rental_uris": {"android": "https://dc.lft.to/lastmile_qr_scan", "ios": "https://dc.lft.to/lastmile_qr_scan"}, "is_disabled": 0, "fusion_lat": 0.0, "lat": 38.89909883333333, "is_reserved": 0}, {"lon": -77.02605583333333, "fusion_lon": 0.0, "bike_id": "f790340ebf7cc9f6aa08ba715cab262e", "type": "electric_scooter", "name": "f790340ebf7cc9f6aa08ba715cab262e", "rental_uris": {"android": "https://dc.lft.to/lastmile_qr_scan", "ios": "https://dc.lft.to/lastmile_qr_scan"}, "is_disabled": 0, "fusion_lat": 0.0, "lat": 38.92900783333333, "is_reserved": 0}, {"lon": -77.06297316666667, "fusion_lon": 0.0, "bike_id": "6aaed3a4e9324c305fa29c9691b6ba42", "type": "electric_scooter", "name": "6aaed3a4e9324c305fa29c9691b6ba42", "rental_uris": {"android": "https://dc.lft.to/lastmile_qr_scan", "ios": "https://dc.lft.to/lastmile_qr_scan"}, "is_disabled": 0, "fusion_lat": 0.0, "lat": 38.903986833333335, "is_reserved": 0}, {"lon": -76.99990316666667, "fusion_lon": 0.0, "bike_id": "fa3e7d81a720a0644fb8d4454dd43c7b", "type": "electric_bike", "name": "fa3e7d81a720a0644fb8d4454dd43c7b", "rental_uris": {"android": "https://dc.lft.to/lastmile_qr_scan", "ios": "https://dc.lft.to/lastmile_qr_scan"}, "is_disabled": 0, "fusion_lat": 0.0, "lat": 38.964055, "is_reserved": 0}, {"lon": -77.0448425, "fusion_lon": 0.0, "bike_id": "edce5a1c3e7eaab89589752fabcff019", "type": "electric_scooter", "name": "edce5a1c3e7eaab89589752fabcff019", "rental_uris": {"android": "https://dc.lft.to/lastmile_qr_scan", "ios": "https://dc.lft.to/lastmile_qr_scan"}, "is_disabled": 0, "fusion_lat": 0.0, "lat": 38.90941083333333, "is_reserved": 0}, {"lon": -77.0384, "fusion_lon": 0.0, "bike_id": "12d8868bdcfc44d9724056e807145939", "type": "electric_scooter", "name": "12d8868bdcfc44d9724056e807145939", "rental_uris": {"android": "https://dc.lft.to/lastmile_qr_scan", "ios": "https://dc.lft.to/lastmile_qr_scan"}, "is_disabled": 0, "fusion_lat": 0.0, "lat": 38.911501, "is_reserved": 0}, {"lon": -76.9690115, "fusion_lon": 0.0, "bike_id": "1390e17b1306ad4b2f7005b017a55641", "type": "electric_bike", "name": "1390e17b1306ad4b2f7005b017a55641", "rental_uris": {"android": "https://dc.lft.to/lastmile_qr_scan", "ios": "https://dc.lft.to/lastmile_qr_scan"}, "is_disabled": 0, "fusion_lat": 0.0, "lat": 38.959945166666664, "is_reserved": 0}, {"lon": -77.0408695, "fusion_lon": 0.0, "bike_id": "0dcf5b9dd77af6bfe41056d7bcc982fe", "type": "electric_scooter", "name": "0dcf5b9dd77af6bfe41056d7bcc982fe", "rental_uris": {"android": "https://dc.lft.to/lastmile_qr_scan", "ios": "https://dc.lft.to/lastmile_qr_scan"}, "is_disabled": 0, "fusion_lat": 0.0, "lat": 38.90380566666666, "is_reserved": 0}, {"lon": -77.046996, "fusion_lon": 0.0, "bike_id": "bbaea07052a615cff416ac756e1cf89d", "type": "electric_scooter", "name": "bbaea07052a615cff416ac756e1cf89d", "rental_uris": {"android": "https://dc.lft.to/lastmile_qr_scan", "ios": "https://dc.lft.to/lastmile_qr_scan"}, "is_disabled": 0, "fusion_lat": 0.0, "lat": 38.92179983333333, "is_reserved": 0}, {"lon": -77.016935, "fusion_lon": 0.0, "bike_id": "98a6678678cdfb0746b3b3b42af507a7", "type": "electric_scooter", "name": "98a6678678cdfb0746b3b3b42af507a7", "rental_uris": {"android": "https://dc.lft.to/lastmile_qr_scan", "ios": "https://dc.lft.to/lastmile_qr_scan"}, "is_disabled": 0, "fusion_lat": 0.0, "lat": 38.92040433333333, "is_reserved": 0}, {"lon": -77.046837, "fusion_lon": 0.0, "bike_id": "f35a59aad201f8c2359f34399243b2a2", "type": "electric_scooter", "name": "f35a59aad201f8c2359f34399243b2a2", "rental_uris": {"android": "https://dc.lft.to/lastmile_qr_scan", "ios": "https://dc.lft.to/lastmile_qr_scan"}, "is_disabled": 0, "fusion_lat": 0.0, "lat": 38.8955245, "is_reserved": 0}, {"lon": -77.02470333333333, "fusion_lon": 0.0, "bike_id": "c6237090465852dd79cde5714e0ff5df", "type": "electric_scooter", "name": "c6237090465852dd79cde5714e0ff5df", "rental_uris": {"android": "https://dc.lft.to/lastmile_qr_scan", "ios": "https://dc.lft.to/lastmile_qr_scan"}, "is_disabled": 0, "fusion_lat": 0.0, "lat": 38.91944783333334, "is_reserved": 0}, {"lon": -77.0327395, "fusion_lon": 0.0, "bike_id": "7026a06206a3a874f2be215d1c0898c7", "type": "electric_scooter", "name": "7026a06206a3a874f2be215d1c0898c7", "rental_uris": {"android": "https://dc.lft.to/lastmile_qr_scan", "ios": "https://dc.lft.to/lastmile_qr_scan"}, "is_disabled": 0, "fusion_lat": 0.0, "lat": 38.927514, "is_reserved": 0}, {"lon": -76.99944683333334, "fusion_lon": 0.0, "bike_id": "9d5ac032ec37e89dc6aa4f4bb234d8a1", "type": "electric_scooter", "name": "9d5ac032ec37e89dc6aa4f4bb234d8a1", "rental_uris": {"android": "https://dc.lft.to/lastmile_qr_scan", "ios": "https://dc.lft.to/lastmile_qr_scan"}, "is_disabled": 0, "fusion_lat": 0.0, "lat": 38.89088066666667, "is_reserved": 0}, {"lon": -77.003457, "fusion_lon": 0.0, "bike_id": "ac4608b8057f32aad751e24e345afe42", "type": "electric_scooter", "name": "ac4608b8057f32aad751e24e345afe42", "rental_uris": {"android": "https://dc.lft.to/lastmile_qr_scan", "ios": "https://dc.lft.to/lastmile_qr_scan"}, "is_disabled": 0, "fusion_lat": 0.0, "lat": 38.9176275, "is_reserved": 0}, {"lon": -77.0115585, "fusion_lon": 0.0, "bike_id": "8a207fee8571061c8e094333d7bc9600", "type": "electric_scooter", "name": "8a207fee8571061c8e094333d7bc9600", "rental_uris": {"android": "https://dc.lft.to/lastmile_qr_scan", "ios": "https://dc.lft.to/lastmile_qr_scan"}, "is_disabled": 0, "fusion_lat": 0.0, "lat": 38.95638783333333, "is_reserved": 0}, {"lon": -77.02383083333334, "fusion_lon": 0.0, "bike_id": "3111fa31fe80aa6a1420189e1d7d4681", "type": "electric_scooter", "name": "3111fa31fe80aa6a1420189e1d7d4681", "rental_uris": {"android": "https://dc.lft.to/lastmile_qr_scan", "ios": "https://dc.lft.to/lastmile_qr_scan"}, "is_disabled": 0, "fusion_lat": 0.0, "lat": 38.90953783333333, "is_reserved": 0}, {"lon": -77.02288633333333, "fusion_lon": 0.0, "bike_id": "933061b8c0599dc59b044ead4662646b", "type": "electric_scooter", "name": "933061b8c0599dc59b044ead4662646b", "rental_uris": {"android": "https://dc.lft.to/lastmile_qr_scan", "ios": "https://dc.lft.to/lastmile_qr_scan"}, "is_disabled": 0, "fusion_lat": 0.0, "lat": 38.895162666666664, "is_reserved": 0}, {"lon": -77.0097995, "fusion_lon": 0.0, "bike_id": "8245374641ab6dfbbb9cc44a3b21403b", "type": "electric_scooter", "name": "8245374641ab6dfbbb9cc44a3b21403b", "rental_uris": {"android": "https://dc.lft.to/lastmile_qr_scan", "ios": "https://dc.lft.to/lastmile_qr_scan"}, "is_disabled": 0, "fusion_lat": 0.0, "lat": 38.919244166666665, "is_reserved": 0}, {"lon": -77.02198516666667, "fusion_lon": 0.0, "bike_id": "a0326293c7f714fd22f85a6f7a828213", "type": "electric_scooter", "name": "a0326293c7f714fd22f85a6f7a828213", "rental_uris": {"android": "https://dc.lft.to/lastmile_qr_scan", "ios": "https://dc.lft.to/lastmile_qr_scan"}, "is_disabled": 0, "fusion_lat": 0.0, "lat": 38.914844, "is_reserved": 0}, {"lon": -76.96534066666666, "fusion_lon": 0.0, "bike_id": "220ff7b6e0365cfa17c3c8ebe2424c05", "type": "electric_bike", "name": "220ff7b6e0365cfa17c3c8ebe2424c05", "rental_uris": {"android": "https://dc.lft.to/lastmile_qr_scan", "ios": "https://dc.lft.to/lastmile_qr_scan"}, "is_disabled": 0, "fusion_lat": 0.0, "lat": 38.874813333333336, "is_reserved": 0}, {"lon": -77.05437866666666, "fusion_lon": 0.0, "bike_id": "9e199f3301bd4ee74de768af9b3cefbb", "type": "electric_scooter", "name": "9e199f3301bd4ee74de768af9b3cefbb", "rental_uris": {"android": "https://dc.lft.to/lastmile_qr_scan", "ios": "https://dc.lft.to/lastmile_qr_scan"}, "is_disabled": 0, "fusion_lat": 0.0, "lat": 38.89603183333333, "is_reserved": 0}, {"lon": -77.07871066666667, "fusion_lon": 0.0, "bike_id": "b2d60ffcca850785df003e5200d94f06", "type": "electric_scooter", "name": "b2d60ffcca850785df003e5200d94f06", "rental_uris": {"android": "https://dc.lft.to/lastmile_qr_scan", "ios": "https://dc.lft.to/lastmile_qr_scan"}, "is_disabled": 0, "fusion_lat": 0.0, "lat": 38.9315025, "is_reserved": 0}, {"lon": -77.06307366666667, "fusion_lon": 0.0, "bike_id": "4cd9b1d71f6feac771cf2eb6ba73c2fa", "type": "electric_bike", "name": "4cd9b1d71f6feac771cf2eb6ba73c2fa", "rental_uris": {"android": "https://dc.lft.to/lastmile_qr_scan", "ios": "https://dc.lft.to/lastmile_qr_scan"}, "is_disabled": 0, "fusion_lat": 0.0, "lat": 38.798552666666666, "is_reserved": 0}, {"lon": -77.01446016666667, "fusion_lon": 0.0, "bike_id": "d212059b66447302bf2498cae11cec27", "type": "electric_scooter", "name": "d212059b66447302bf2498cae11cec27", "rental_uris": {"android": "https://dc.lft.to/lastmile_qr_scan", "ios": "https://dc.lft.to/lastmile_qr_scan"}, "is_disabled": 0, "fusion_lat": 0.0, "lat": 38.942296166666665, "is_reserved": 0}, {"lon": -77.0279015, "fusion_lon": 0.0, "bike_id": "bb741da61f811014c2b94bda7b07019e", "type": "electric_scooter", "name": "bb741da61f811014c2b94bda7b07019e", "rental_uris": {"android": "https://dc.lft.to/lastmile_qr_scan", "ios": "https://dc.lft.to/lastmile_qr_scan"}, "is_disabled": 0, "fusion_lat": 0.0, "lat": 38.917226, "is_reserved": 0}, {"lon": -76.9485675, "fusion_lon": 0.0, "bike_id": "1836963e7301a6f477e2d4aa30508ff1", "type": "electric_scooter", "name": "1836963e7301a6f477e2d4aa30508ff1", "rental_uris": {"android": "https://dc.lft.to/lastmile_qr_scan", "ios": "https://dc.lft.to/lastmile_qr_scan"}, "is_disabled": 0, "fusion_lat": 0.0, "lat": 38.88304133333333, "is_reserved": 0}, {"lon": -77.03190933333333, "fusion_lon": 0.0, "bike_id": "fa33f0d9e4fb2a057b4c2115aecb156d", "type": "electric_scooter", "name": "fa33f0d9e4fb2a057b4c2115aecb156d", "rental_uris": {"android": "https://dc.lft.to/lastmile_qr_scan", "ios": "https://dc.lft.to/lastmile_qr_scan"}, "is_disabled": 0, "fusion_lat": 0.0, "lat": 38.892467, "is_reserved": 0}, {"lon": -76.915979, "fusion_lon": 0.0, "bike_id": "625b73217cd21347c0c70586d5b59f69", "type": "electric_bike", "name": "625b73217cd21347c0c70586d5b59f69", "rental_uris": {"android": "https://dc.lft.to/lastmile_qr_scan", "ios": "https://dc.lft.to/lastmile_qr_scan"}, "is_disabled": 0, "fusion_lat": 0.0, "lat": 38.87986016666667, "is_reserved": 0}, {"lon": -77.05258, "fusion_lon": 0.0, "bike_id": "2a33dcc1aa25c4f031828b1b36bcf3c4", "type": "electric_scooter", "name": "2a33dcc1aa25c4f031828b1b36bcf3c4", "rental_uris": {"android": "https://dc.lft.to/lastmile_qr_scan", "ios": "https://dc.lft.to/lastmile_qr_scan"}, "is_disabled": 0, "fusion_lat": 0.0, "lat": 38.92774566666667, "is_reserved": 0}, {"lon": -77.04001683333334, "fusion_lon": 0.0, "bike_id": "9bc9a8eabb54d0267fa713a87927637f", "type": "electric_scooter", "name": "9bc9a8eabb54d0267fa713a87927637f", "rental_uris": {"android": "https://dc.lft.to/lastmile_qr_scan", "ios": "https://dc.lft.to/lastmile_qr_scan"}, "is_disabled": 0, "fusion_lat": 0.0, "lat": 38.93425166666667, "is_reserved": 0}, {"lon": -76.94896383333334, "fusion_lon": 0.0, "bike_id": "6ba24502a8594843f848673801ec9795", "type": "electric_scooter", "name": "6ba24502a8594843f848673801ec9795", "rental_uris": {"android": "https://dc.lft.to/lastmile_qr_scan", "ios": "https://dc.lft.to/lastmile_qr_scan"}, "is_disabled": 0, "fusion_lat": 0.0, "lat": 38.89536416666667, "is_reserved": 0}, {"lon": -77.03428866666667, "fusion_lon": 0.0, "bike_id": "540a0d5b6aaf8b87076e291b6676df1c", "type": "electric_scooter", "name": "540a0d5b6aaf8b87076e291b6676df1c", "rental_uris": {"android": "https://dc.lft.to/lastmile_qr_scan", "ios": "https://dc.lft.to/lastmile_qr_scan"}, "is_disabled": 0, "fusion_lat": 0.0, "lat": 38.90960916666667, "is_reserved": 0}, {"lon": -77.04162433333333, "fusion_lon": 0.0, "bike_id": "b3c0550911edbdbfa683137a752954fe", "type": "electric_scooter", "name": "b3c0550911edbdbfa683137a752954fe", "rental_uris": {"android": "https://dc.lft.to/lastmile_qr_scan", "ios": "https://dc.lft.to/lastmile_qr_scan"}, "is_disabled": 0, "fusion_lat": 0.0, "lat": 38.89235583333333, "is_reserved": 0}, {"lon": -77.06452183333333, "fusion_lon": 0.0, "bike_id": "0cc8880a9b768c9f09712c9688d9b802", "type": "electric_scooter", "name": "0cc8880a9b768c9f09712c9688d9b802", "rental_uris": {"android": "https://dc.lft.to/lastmile_qr_scan", "ios": "https://dc.lft.to/lastmile_qr_scan"}, "is_disabled": 0, "fusion_lat": 0.0, "lat": 38.905173, "is_reserved": 0}, {"lon": -76.9948195, "fusion_lon": 0.0, "bike_id": "7bd6cb74836c2df8c69ef5a642cf7c6d", "type": "electric_scooter", "name": "7bd6cb74836c2df8c69ef5a642cf7c6d", "rental_uris": {"android": "https://dc.lft.to/lastmile_qr_scan", "ios": "https://dc.lft.to/lastmile_qr_scan"}, "is_disabled": 0, "fusion_lat": 0.0, "lat": 38.89184866666667, "is_reserved": 0}, {"lon": -76.98462383333333, "fusion_lon": 0.0, "bike_id": "684dd95f31a71b576423ae4d0aeb5ceb", "type": "electric_scooter", "name": "684dd95f31a71b576423ae4d0aeb5ceb", "rental_uris": {"android": "https://dc.lft.to/lastmile_qr_scan", "ios": "https://dc.lft.to/lastmile_qr_scan"}, "is_disabled": 0, "fusion_lat": 0.0, "lat": 38.90397383333333, "is_reserved": 0}, {"lon": -77.040011, "fusion_lon": 0.0, "bike_id": "2340f9d979160a87d1a815f966ce2267", "type": "electric_scooter", "name": "2340f9d979160a87d1a815f966ce2267", "rental_uris": {"android": "https://dc.lft.to/lastmile_qr_scan", "ios": "https://dc.lft.to/lastmile_qr_scan"}, "is_disabled": 0, "fusion_lat": 0.0, "lat": 38.92449966666667, "is_reserved": 0}, {"lon": -76.997396, "fusion_lon": 0.0, "bike_id": "8e66d2c9c9610507ebecd487c916e189", "type": "electric_bike", "name": "8e66d2c9c9610507ebecd487c916e189", "rental_uris": {"android": "https://dc.lft.to/lastmile_qr_scan", "ios": "https://dc.lft.to/lastmile_qr_scan"}, "is_disabled": 0, "fusion_lat": 0.0, "lat": 39.042356166666664, "is_reserved": 0}, {"lon": -77.03471216666667, "fusion_lon": 0.0, "bike_id": "3beff1555d3a6abb6fc397053ab8ae89", "type": "electric_scooter", "name": "3beff1555d3a6abb6fc397053ab8ae89", "rental_uris": {"android": "https://dc.lft.to/lastmile_qr_scan", "ios": "https://dc.lft.to/lastmile_qr_scan"}, "is_disabled": 0, "fusion_lat": 0.0, "lat": 38.90879116666667, "is_reserved": 0}, {"lon": -76.9962325, "fusion_lon": 0.0, "bike_id": "8b91613fcc168e92c2afc04c5028c23f", "type": "electric_scooter", "name": "8b91613fcc168e92c2afc04c5028c23f", "rental_uris": {"android": "https://dc.lft.to/lastmile_qr_scan", "ios": "https://dc.lft.to/lastmile_qr_scan"}, "is_disabled": 0, "fusion_lat": 0.0, "lat": 38.900628833333336, "is_reserved": 0}, {"lon": -77.03214316666667, "fusion_lon": 0.0, "bike_id": "208a85d51e1d508318f1dc3e31c30a0d", "type": "electric_scooter", "name": "208a85d51e1d508318f1dc3e31c30a0d", "rental_uris": {"android": "https://dc.lft.to/lastmile_qr_scan", "ios": "https://dc.lft.to/lastmile_qr_scan"}, "is_disabled": 0, "fusion_lat": 0.0, "lat": 38.914255833333335, "is_reserved": 0}, {"lon": -77.03165666666666, "fusion_lon": 0.0, "bike_id": "7206b37a66f00bd5ee2d5dd8b6ab4d2f", "type": "electric_scooter", "name": "7206b37a66f00bd5ee2d5dd8b6ab4d2f", "rental_uris": {"android": "https://dc.lft.to/lastmile_qr_scan", "ios": "https://dc.lft.to/lastmile_qr_scan"}, "is_disabled": 0, "fusion_lat": 0.0, "lat": 38.92014133333333, "is_reserved": 0}, {"lon": -77.028129, "fusion_lon": 0.0, "bike_id": "5cd6257b702d43132e2dd148d76aee0d", "type": "electric_scooter", "name": "5cd6257b702d43132e2dd148d76aee0d", "rental_uris": {"android": "https://dc.lft.to/lastmile_qr_scan", "ios": "https://dc.lft.to/lastmile_qr_scan"}, "is_disabled": 0, "fusion_lat": 0.0, "lat": 38.904714, "is_reserved": 0}, {"lon": -77.0374865, "fusion_lon": 0.0, "bike_id": "d4610a684da84fe2f71595f6e98e4c38", "type": "electric_scooter", "name": "d4610a684da84fe2f71595f6e98e4c38", "rental_uris": {"android": "https://dc.lft.to/lastmile_qr_scan", "ios": "https://dc.lft.to/lastmile_qr_scan"}, "is_disabled": 0, "fusion_lat": 0.0, "lat": 38.9168875, "is_reserved": 0}, {"lon": -77.01354866666667, "fusion_lon": 0.0, "bike_id": "6533291191284a0c26f0748139a1bfc1", "type": "electric_scooter", "name": "6533291191284a0c26f0748139a1bfc1", "rental_uris": {"android": "https://dc.lft.to/lastmile_qr_scan", "ios": "https://dc.lft.to/lastmile_qr_scan"}, "is_disabled": 0, "fusion_lat": 0.0, "lat": 38.8716115, "is_reserved": 0}, {"lon": -77.0230005, "fusion_lon": 0.0, "bike_id": "84358ae3570edd7741dd207c6d7d6bf6", "type": "electric_scooter", "name": "84358ae3570edd7741dd207c6d7d6bf6", "rental_uris": {"android": "https://dc.lft.to/lastmile_qr_scan", "ios": "https://dc.lft.to/lastmile_qr_scan"}, "is_disabled": 0, "fusion_lat": 0.0, "lat": 38.91602533333333, "is_reserved": 0}, {"lon": -77.0136825, "fusion_lon": 0.0, "bike_id": "fe2d95537ff24ad17b1cd32e4e3d5d4f", "type": "electric_scooter", "name": "fe2d95537ff24ad17b1cd32e4e3d5d4f", "rental_uris": {"android": "https://dc.lft.to/lastmile_qr_scan", "ios": "https://dc.lft.to/lastmile_qr_scan"}, "is_disabled": 0, "fusion_lat": 0.0, "lat": 38.919139333333334, "is_reserved": 0}, {"lon": -77.0249825, "fusion_lon": 0.0, "bike_id": "8251196f8c183a97028446cf7ba084e1", "type": "electric_scooter", "name": "8251196f8c183a97028446cf7ba084e1", "rental_uris": {"android": "https://dc.lft.to/lastmile_qr_scan", "ios": "https://dc.lft.to/lastmile_qr_scan"}, "is_disabled": 0, "fusion_lat": 0.0, "lat": 38.91808966666667, "is_reserved": 0}, {"lon": -77.0278865, "fusion_lon": 0.0, "bike_id": "ae389938d40224b4c495db89d67bde6c", "type": "electric_scooter", "name": "ae389938d40224b4c495db89d67bde6c", "rental_uris": {"android": "https://dc.lft.to/lastmile_qr_scan", "ios": "https://dc.lft.to/lastmile_qr_scan"}, "is_disabled": 0, "fusion_lat": 0.0, "lat": 38.917107666666666, "is_reserved": 0}, {"lon": -77.04134583333334, "fusion_lon": 0.0, "bike_id": "ac92e89729a95822d6725bacaea7a615", "type": "electric_scooter", "name": "ac92e89729a95822d6725bacaea7a615", "rental_uris": {"android": "https://dc.lft.to/lastmile_qr_scan", "ios": "https://dc.lft.to/lastmile_qr_scan"}, "is_disabled": 0, "fusion_lat": 0.0, "lat": 38.92493916666667, "is_reserved": 0}, {"lon": -77.0245585, "fusion_lon": 0.0, "bike_id": "65600ccdec3877ffca6226113dbaa2bb", "type": "electric_scooter", "name": "65600ccdec3877ffca6226113dbaa2bb", "rental_uris": {"android": "https://dc.lft.to/lastmile_qr_scan", "ios": "https://dc.lft.to/lastmile_qr_scan"}, "is_disabled": 0, "fusion_lat": 0.0, "lat": 38.93974133333333, "is_reserved": 0}, {"lon": -76.99294533333334, "fusion_lon": 0.0, "bike_id": "501258f4861bd9bf05b628277d5dc755", "type": "electric_scooter", "name": "501258f4861bd9bf05b628277d5dc755", "rental_uris": {"android": "https://dc.lft.to/lastmile_qr_scan", "ios": "https://dc.lft.to/lastmile_qr_scan"}, "is_disabled": 0, "fusion_lat": 0.0, "lat": 38.857590333333334, "is_reserved": 0}, {"lon": -77.051352, "fusion_lon": 0.0, "bike_id": "3f4d00cb01c7bcd87a06251283120f9f", "type": "electric_scooter", "name": "3f4d00cb01c7bcd87a06251283120f9f", "rental_uris": {"android": "https://dc.lft.to/lastmile_qr_scan", "ios": "https://dc.lft.to/lastmile_qr_scan"}, "is_disabled": 0, "fusion_lat": 0.0, "lat": 38.905288666666664, "is_reserved": 0}, {"lon": -77.043785, "fusion_lon": 0.0, "bike_id": "3197da8762939373473ac02ce8c8920c", "type": "electric_scooter", "name": "3197da8762939373473ac02ce8c8920c", "rental_uris": {"android": "https://dc.lft.to/lastmile_qr_scan", "ios": "https://dc.lft.to/lastmile_qr_scan"}, "is_disabled": 0, "fusion_lat": 0.0, "lat": 38.9002665, "is_reserved": 0}, {"lon": -77.02305033333333, "fusion_lon": 0.0, "bike_id": "6a366343c4dcafddb87cc0d019696126", "type": "electric_scooter", "name": "6a366343c4dcafddb87cc0d019696126", "rental_uris": {"android": "https://dc.lft.to/lastmile_qr_scan", "ios": "https://dc.lft.to/lastmile_qr_scan"}, "is_disabled": 0, "fusion_lat": 0.0, "lat": 38.89493483333333, "is_reserved": 0}, {"lon": -77.03210333333334, "fusion_lon": 0.0, "bike_id": "c314ad5c1153fad229f65944494f854d", "type": "electric_scooter", "name": "c314ad5c1153fad229f65944494f854d", "rental_uris": {"android": "https://dc.lft.to/lastmile_qr_scan", "ios": "https://dc.lft.to/lastmile_qr_scan"}, "is_disabled": 0, "fusion_lat": 0.0, "lat": 38.908966, "is_reserved": 0},