{"data": {"bikes": [{"lat": 38.8670715, "is_disabled": 0, "type": "electric_scooter", "lon": -76.9871395, "bike_id": "128c5624bb5448a0b5e53dd451d97ea1", "fusion_lat": 0.0, "name": "128c5624bb5448a0b5e53dd451d97ea1", "is_reserved": 0, "rental_uris": {"android": "https://dc.lft.to/lastmile_qr_scan", "ios": "https://dc.lft.to/lastmile_qr_scan"}, "fusion_lon": 0.0}, {"lat": 38.902725333333336, "is_disabled": 0, "type": "electric_scooter", "lon": -77.0185725, "bike_id": "4d5fc0587668b873a4955ff77c90c335", "fusion_lat": 0.0, "name": "4d5fc0587668b873a4955ff77c90c335", "is_reserved": 0, "rental_uris": {"android": "https://dc.lft.to/lastmile_qr_scan", "ios": "https://dc.lft.to/lastmile_qr_scan"}, "fusion_lon": 0.0}, {"lat": 38.93259583333333, "is_disabled": 0, "type": "electric_scooter", "lon": -77.066604, "bike_id": "9e5bc4bfdf9c87e23823fce4137706b2", "fusion_lat": 0.0, "name": "9e5bc4bfdf9c87e23823fce4137706b2", "is_reserved": 0, "rental_uris": {"android": "https://dc.lft.to/lastmile_qr_scan", "ios": "https://dc.lft.to/lastmile_qr_scan"}, "fusion_lon": 0.0}, {"lat": 38.90269883333333, "is_disabled": 0, "type": "electric_scooter", "lon": -77.00213166666667, "bike_id": "b9d368dc5bea3894c65627ba3c3161f3", "fusion_lat": 0.0, "name": "b9d368dc5bea3894c65627ba3c3161f3", "is_reserved": 0, "rental_uris": {"android": "https://dc.lft.to/lastmile_qr_scan", "ios": "https://dc.lft.to/lastmile_qr_scan"}, "fusion_lon": 0.0}, {"lat": 38.879959166666666, "is_disabled": 0, "type": "electric_scooter", "lon": -76.98685733333333, "bike_id": "636946fe5cecac8b4577441d5feb6aa2", "fusion_lat": 0.0, "name": "636946fe5cecac8b4577441d5feb6aa2", "is_reserved": 0, "rental_uris": {"android": "https://dc.lft.to/lastmile_qr_scan", "ios": "https://dc.lft.to/lastmile_qr_scan"}, "fusion_lon": 0.0}, {"lat": 38.92516616666666, "is_disabled": 0, "type": "electric_scooter", "lon": -77.07641283333334, "bike_id": "81509966b8649dfbfd4a43e5b6c73318", "fusion_lat": 0.0, "name": "81509966b8649dfbfd4a43e5b6c73318", "is_reserved": 0, "rental_uris": {"android": "https://dc.lft.to/lastmile_qr_scan", "ios": "https://dc.lft.to/lastmile_qr_scan"}, "fusion_lon": 0.0}, {"lat": 38.936263333333336, "is_disabled": 0, "type": "electric_scooter", "lon": -77.05752333333334, "bike_id": "93a2006399b446a354acd4d0271491c0", "fusion_lat": 0.0, "name": "93a2006399b446a354acd4d0271491c0", "is_reserved": 0, "rental_uris": {"android": "https://dc.lft.to/lastmile_qr_scan", "ios": "https://dc.lft.to/lastmile_qr_scan"}, "fusion_lon": 0.0}, {"lat": 38.902066833333336, "is_disabled": 0, "type": "electric_scooter", "lon": -77.0232595, "bike_id": "3097dbb3f650d47849336ba5e5be643b", "fusion_lat": 0.0, "name": "3097dbb3f650d47849336ba5e5be643b", "is_reserved": 0, "rental_uris": {"android": "https://dc.lft.to/lastmile_qr_scan", "ios": "https://dc.lft.to/lastmile_qr_scan"}, "fusion_lon": 0.0}, {"lat": 38.9077915, "is_disabled": 0, "type": "electric_scooter", "lon": -77.03858783333334, "bike_id": "f7355cdf05d38218a5ffd1844eb7e4f4", "fusion_lat": 0.0, "name": "f7355cdf05d38218a5ffd1844eb7e4f4", "is_reserved": 0, "rental_uris": {"android": "https://dc.lft.to/lastmile_qr_scan", "ios": "https://dc.lft.to/lastmile_qr_scan"}, "fusion_lon": 0.0}, {"lat": 38.9175615, "is_disabled": 0, "type": "electric_scooter", "lon": -77.036058, "bike_id": "17e86492a4fe73b27b9fbfb6c46ac254", "fusion_lat": 0.0, "name": "17e86492a4fe73b27b9fbfb6c46ac254", "is_reserved": 0, "rental_uris": {"android": "https://dc.lft.to/lastmile_qr_scan", "ios": "https://dc.lft.to/lastmile_qr_scan"}, "fusion_lon": 0.0}, {"lat": 38.89612, "is_disabled": 0, "type": "electric_scooter", "lon": -77.05470966666667, "bike_id": "bbe6d57eb4845f935a94a3be57ff19d1", "fusion_lat": 0.0, "name": "bbe6d57eb4845f935a94a3be57ff19d1", "is_reserved": 0, "rental_uris": {"android": "https://dc.lft.to/lastmile_qr_scan", "ios": "https://dc.lft.to/lastmile_qr_scan"}, "fusion_lon": 0.0}, {"lat": 38.91271716666667, "is_disabled": 0, "type": "electric_scooter", "lon": -77.02877666666667, "bike_id": "b169be700c7ef4ce8fcf379b44a37994", "fusion_lat": 0.0, "name": "b169be700c7ef4ce8fcf379b44a37994", "is_reserved": 0, "rental_uris": {"android": "https://dc.lft.to/lastmile_qr_scan", "ios": "https://dc.lft.to/lastmile_qr_scan"}, "fusion_lon": 0.0}, {"lat": 38.90155, "is_disabled": 0, "type": "electric_scooter", "lon": -77.00070916666667, "bike_id": "ffc96883ce917434bf8de2741fc9e1da", "fusion_lat": 0.0, "name": "ffc96883ce917434bf8de2741fc9e1da", "is_reserved": 0, "rental_uris": {"android": "https://dc.lft.to/lastmile_qr_scan", "ios": "https://dc.lft.to/lastmile_qr_scan"}, "fusion_lon": 0.0}, {"lat": 38.9462945, "is_disabled": 0, "type": "electric_scooter", "lon": -77.02523816666667, "bike_id": "28f246a84a8de8b9f2ead3959718f5b7", "fusion_lat": 0.0, "name": "28f246a84a8de8b9f2ead3959718f5b7", "is_reserved": 0, "rental_uris": {"android": "https://dc.lft.to/lastmile_qr_scan", "ios": "https://dc.lft.to/lastmile_qr_scan"}, "fusion_lon": 0.0}, {"lat": 38.91190683333333, "is_disabled": 0, "type": "electric_scooter", "lon": -77.04457516666666, "bike_id": "83687881f17f2d9f78e96d589f869f46", "fusion_lat": 0.0, "name": "83687881f17f2d9f78e96d589f869f46", "is_reserved": 0, "rental_uris": {"android": "https://dc.lft.to/lastmile_qr_scan", "ios": "https://dc.lft.to/lastmile_qr_scan"}, "fusion_lon": 0.0}, {"lat": 38.9573765, "is_disabled": 0, "type": "electric_scooter", "lon": -77.02405116666667, "bike_id": "4c170d4f211d11da178c8180f74d9456", "fusion_lat": 0.0, "name": "4c170d4f211d11da178c8180f74d9456", "is_reserved": 0, "rental_uris": {"android": "https://dc.lft.to/lastmile_qr_scan", "ios": "https://dc.lft.to/lastmile_qr_scan"}, "fusion_lon": 0.0}, {"lat": 38.902563666666666, "is_disabled": 0, "type": "electric_scooter", "lon": -77.03944783333333, "bike_id": "13ea74e0af92eb0a927ff3697364cf72", "fusion_lat": 0.0, "name": "13ea74e0af92eb0a927ff3697364cf72", "is_reserved": 0, "rental_uris": {"android": "https://dc.lft.to/lastmile_qr_scan", "ios": "https://dc.lft.to/lastmile_qr_scan"}, "fusion_lon": 0.0}, {"lat": 38.865096, "is_disabled": 0, "type": "electric_scooter", "lon": -76.990087, "bike_id": "7bc5c93617449861c5991e040dc1578a", "fusion_lat": 0.0, "name": "7bc5c93617449861c5991e040dc1578a", "is_reserved": 0, "rental_uris": {"android": "https://dc.lft.to/lastmile_qr_scan", "ios": "https://dc.lft.to/lastmile_qr_scan"}, "fusion_lon": 0.0}, {"lat": 38.86717183333333, "is_disabled": 0, "type": "electric_scooter", "lon": -76.98725216666666, "bike_id": "7ab4aa59aa4c9524151614c5495fce28", "fusion_lat": 0.0, "name": "7ab4aa59aa4c9524151614c5495fce28", "is_reserved": 0, "rental_uris": {"android": "https://dc.lft.to/lastmile_qr_scan", "ios": "https://dc.lft.to/lastmile_qr_scan"}, "fusion_lon": 0.0}, {"lat": 38.8811905, "is_disabled": 0, "type": "electric_scooter", "lon": -77.01640133333333, "bike_id": "ea24900ce2ee3639a7d46cf2067ac088", "fusion_lat": 0.0, "name": "ea24900ce2ee3639a7d46cf2067ac088", "is_reserved": 0, "rental_uris": {"android": "https://dc.lft.to/lastmile_qr_scan", "ios": "https://dc.lft.to/lastmile_qr_scan"}, "fusion_lon": 0.0}, {"lat": 38.91269233333333, "is_disabled": 0, "type": "electric_scooter", "lon": -77.02254066666667, "bike_id": "21aa61cdf253cfd1720e31ce2908e3fe", "fusion_lat": 0.0, "name": "21aa61cdf253cfd1720e31ce2908e3fe", "is_reserved": 0, "rental_uris": {"android": "https://dc.lft.to/lastmile_qr_scan", "ios": "https://dc.lft.to/lastmile_qr_scan"}, "fusion_lon": 0.0}, {"lat": 38.90021866666667, "is_disabled": 0, "type": "electric_scooter", "lon": -77.01203266666667, "bike_id": "cbd55ff3a301dce308c4c69a15cb71f7", "fusion_lat": 0.0, "name": "cbd55ff3a301dce308c4c69a15cb71f7", "is_reserved": 0, "rental_uris": {"android": "https://dc.lft.to/lastmile_qr_scan", "ios": "https://dc.lft.to/lastmile_qr_scan"}, "fusion_lon": 0.0}, {"lat": 38.884744833333336, "is_disabled": 0, "type": "electric_scooter", "lon": -77.023822, "bike_id": "ccfce885876cab1110175b95f5a025e4", "fusion_lat": 0.0, "name": "ccfce885876cab1110175b95f5a025e4", "is_reserved": 0, "rental_uris": {"android": "https://dc.lft.to/lastmile_qr_scan", "ios": "https://dc.lft.to/lastmile_qr_scan"}, "fusion_lon": 0.0}, {"lat": 38.900127499999996, "is_disabled": 0, "type": "electric_scooter", "lon": -76.92231166666667, "bike_id": "d2424487297431ab648334decd12069a", "fusion_lat": 0.0, "name": "d2424487297431ab648334decd12069a", "is_reserved": 0, "rental_uris": {"android": "https://dc.lft.to/lastmile_qr_scan", "ios": "https://dc.lft.to/lastmile_qr_scan"}, "fusion_lon": 0.0}, {"lat": 38.9315175, "is_disabled": 0, "type": "electric_scooter", "lon": -77.02151183333334, "bike_id": "61b64bae545106cee7c7dfc100a26006", "fusion_lat": 0.0, "name": "61b64bae545106cee7c7dfc100a26006", "is_reserved": 0, "rental_uris": {"android": "https://dc.lft.to/lastmile_qr_scan", "ios": "https://dc.lft.to/lastmile_qr_scan"}, "fusion_lon": 0.0}, {"lat": 38.900675166666666, "is_disabled": 0, "type": "electric_scooter", "lon": -77.02598283333333, "bike_id": "4f0bcb59c637bcdb30e9cd8bd423d181", "fusion_lat": 0.0, "name": "4f0bcb59c637bcdb30e9cd8bd423d181", "is_reserved": 0, "rental_uris": {"android": "https://dc.lft.to/lastmile_qr_scan", "ios": "https://dc.lft.to/lastmile_qr_scan"}, "fusion_lon": 0.0}, {"lat": 38.901289166666665, "is_disabled": 0, "type": "electric_scooter", "lon": -76.98631933333333, "bike_id": "17522190d77080483df54621b24ad9eb", "fusion_lat": 0.0, "name": "17522190d77080483df54621b24ad9eb", "is_reserved": 0, "rental_uris": {"android": "https://dc.lft.to/lastmile_qr_scan", "ios": "https://dc.lft.to/lastmile_qr_scan"}, "fusion_lon": 0.0}, {"lat": 38.9144995, "is_disabled": 0, "type": "electric_scooter", "lon": -77.02973466666667, "bike_id": "12abacf56cfd271ef4fcd6132a8c4cf2", "fusion_lat": 0.0, "name": "12abacf56cfd271ef4fcd6132a8c4cf2", "is_reserved": 0, "rental_uris": {"android": "https://dc.lft.to/lastmile_qr_scan", "ios": "https://dc.lft.to/lastmile_qr_scan"}, "fusion_lon": 0.0}, {"lat": 38.922428833333335, "is_disabled": 0, "type": "electric_scooter", "lon": -77.042564, "bike_id": "d97cb659e9333252f6a2a78041e659df", "fusion_lat": 0.0, "name": "d97cb659e9333252f6a2a78041e659df", "is_reserved": 0, "rental_uris": {"android": "https://dc.lft.to/lastmile_qr_scan", "ios": "https://dc.lft.to/lastmile_qr_scan"}, "fusion_lon": 0.0}, {"lat": 38.88501933333333, "is_disabled": 0, "type": "electric_scooter", "lon": -77.00732783333333, "bike_id": "b76d47593af2d76eb2c7bf83e5da0c93", "fusion_lat": 0.0, "name": "b76d47593af2d76eb2c7bf83e5da0c93", "is_reserved": 0, "rental_uris": {"android": "https://dc.lft.to/lastmile_qr_scan", "ios": "https://dc.lft.to/lastmile_qr_scan"}, "fusion_lon": 0.0}, {"lat": 38.91561683333333, "is_disabled": 0, "type": "electric_scooter", "lon": -77.02432833333333, "bike_id": "ad66897b824cbd2aa83d393b030cee24", "fusion_lat": 0.0, "name": "ad66897b824cbd2aa83d393b030cee24", "is_reserved": 0, "rental_uris": {"android": "https://dc.lft.to/lastmile_qr_scan", "ios": "https://dc.lft.to/lastmile_qr_scan"}, "fusion_lon": 0.0}, {"lat": 38.93343733333333, "is_disabled": 0, "type": "electric_scooter", "lon": -76.99316033333334, "bike_id": "b007bd0950e6ab89f037b90ac8a5289b", "fusion_lat": 0.0, "name": "b007bd0950e6ab89f037b90ac8a5289b", "is_reserved": 0, "rental_uris": {"android": "https://dc.lft.to/lastmile_qr_scan", "ios": "https://dc.lft.to/lastmile_qr_scan"}, "fusion_lon": 0.0}, {"lat": 38.868966666666665, "is_disabled": 0, "type": "electric_scooter", "lon": -76.98312066666666, "bike_id": "da0530bdd31f5d373d7855b7cbc77afa", "fusion_lat": 0.0, "name": "da0530bdd31f5d373d7855b7cbc77afa", "is_reserved": 0, "rental_uris": {"android": "https://dc.lft.to/lastmile_qr_scan", "ios": "https://dc.lft.to/lastmile_qr_scan"}, "fusion_lon": 0.0}, {"lat": 38.88257266666667, "is_disabled": 0, "type": "electric_scooter", "lon": -77.004322, "bike_id": "5364eb608fc5a20072de075af97060d1", "fusion_lat": 0.0, "name": "5364eb608fc5a20072de075af97060d1", "is_reserved": 0, "rental_uris": {"android": "https://dc.lft.to/lastmile_qr_scan", "ios": "https://dc.lft.to/lastmile_qr_scan"}, "fusion_lon": 0.0}, {"lat": 38.89901916666667, "is_disabled": 0, "type": "electric_scooter", "lon": -76.99734366666667, "bike_id": "498217ed512f5df384c87031f19682f6", "fusion_lat": 0.0, "name": "498217ed512f5df384c87031f19682f6", "is_reserved": 0, "rental_uris": {"android": "https://dc.lft.to/lastmile_qr_scan", "ios": "https://dc.lft.to/lastmile_qr_scan"}, "fusion_lon": 0.0}, {"lat": 38.905721, "is_disabled": 0, "type": "electric_scooter", "lon": -77.00861366666666, "bike_id": "598a4578c98c1bc880b43efe049ca692", "fusion_lat": 0.0, "name": "598a4578c98c1bc880b43efe049ca692", "is_reserved": 0, "rental_uris": {"android": "https://dc.lft.to/lastmile_qr_scan", "ios": "https://dc.lft.to/lastmile_qr_scan"}, "fusion_lon": 0.0}, {"lat": 38.897383833333336, "is_disabled": 0, "type": "electric_scooter", "lon": -77.023284, "bike_id": "4c92f63a8bdff35dc81ead1e89032293", "fusion_lat": 0.0, "name": "4c92f63a8bdff35dc81ead1e89032293", "is_reserved": 0, "rental_uris": {"android": "https://dc.lft.to/lastmile_qr_scan", "ios": "https://dc.lft.to/lastmile_qr_scan"}, "fusion_lon": 0.0}, {"lat": 38.900509166666666, "is_disabled": 0, "type": "electric_scooter", "lon": -77.0132915, "bike_id": "67dab0de8b0c36e566b21d2e8c947c5b", "fusion_lat": 0.0, "name": "67dab0de8b0c36e566b21d2e8c947c5b", "is_reserved": 0, "rental_uris": {"android": "https://dc.lft.to/lastmile_qr_scan", "ios": "https://dc.lft.to/lastmile_qr_scan"}, "fusion_lon": 0.0}, {"lat": 38.90303866666667, "is_disabled": 0, "type": "electric_scooter", "lon": -77.0022055, "bike_id": "cbe22cd898e9f07d2b0bdc6dbd46de17", "fusion_lat": 0.0, "name": "cbe22cd898e9f07d2b0bdc6dbd46de17", "is_reserved": 0, "rental_uris": {"android": "https://dc.lft.to/lastmile_qr_scan", "ios": "https://dc.lft.to/lastmile_qr_scan"}, "fusion_lon": 0.0}, {"lat": 38.962028833333335, "is_disabled": 0, "type": "electric_bike", "lon": -77.018881, "bike_id": "b654a067b690f2ff67a3da6780318739", "fusion_lat": 0.0, "name": "b654a067b690f2ff67a3da6780318739", "is_reserved": 0, "rental_uris": {"android": "https://dc.lft.to/lastmile_qr_scan", "ios": "https://dc.lft.to/lastmile_qr_scan"}, "fusion_lon": 0.0}, {"lat": 38.90545433333333, "is_disabled": 0, "type": "electric_scooter", "lon": -77.041825, "bike_id": "2f271195f85a73190fb0492ce070ce32", "fusion_lat": 0.0, "name": "2f271195f85a73190fb0492ce070ce32", "is_reserved": 0, "rental_uris": {"android": "https://dc.lft.to/lastmile_qr_scan", "ios": "https://dc.lft.to/lastmile_qr_scan"}, "fusion_lon": 0.0}, {"lat": 38.90982566666667, "is_disabled": 0, "type": "electric_scooter", "lon": -77.0319455, "bike_id": "c059c546ff3ee9ad5a5abee63f0ce00f", "fusion_lat": 0.0, "name": "c059c546ff3ee9ad5a5abee63f0ce00f", "is_reserved": 0, "rental_uris": {"android": "https://dc.lft.to/lastmile_qr_scan", "ios": "https://dc.lft.to/lastmile_qr_scan"}, "fusion_lon": 0.0}, {"lat": 38.90289, "is_disabled": 0, "type": "electric_scooter", "lon": -77.01889533333333, "bike_id": "f041e2b031ec8922d3cd09e5d2756c6b", "fusion_lat": 0.0, "name": "f041e2b031ec8922d3cd09e5d2756c6b", "is_reserved": 0, "rental_uris": {"android": "https://dc.lft.to/lastmile_qr_scan", "ios": "https://dc.lft.to/lastmile_qr_scan"}, "fusion_lon": 0.0}, {"lat": 38.907848333333334, "is_disabled": 0, "type": "electric_scooter", "lon": -77.03857216666667, "bike_id": "904554128bb69ff1eeb2ab5762f7dd30", "fusion_lat": 0.0, "name": "904554128bb69ff1eeb2ab5762f7dd30", "is_reserved": 0, "rental_uris": {"android": "https://dc.lft.to/lastmile_qr_scan", "ios": "https://dc.lft.to/lastmile_qr_scan"}, "fusion_lon": 0.0}, {"lat": 38.903827166666666, "is_disabled": 0, "type": "electric_scooter", "lon": -77.03867166666667, "bike_id": "3e6039f5eb26b880d4f85006e694258d", "fusion_lat": 0.0, "name": "3e6039f5eb26b880d4f85006e694258d", "is_reserved": 0, "rental_uris": {"android": "https://dc.lft.to/lastmile_qr_scan", "ios": "https://dc.lft.to/lastmile_qr_scan"}, "fusion_lon": 0.0}, {"lat": 38.91715633333333, "is_disabled": 0, "type": "electric_scooter", "lon": -77.03865566666667, "bike_id": "57ef5df90e17e40a4f3c6a52a244e68b", "fusion_lat": 0.0, "name": "57ef5df90e17e40a4f3c6a52a244e68b", "is_reserved": 0, "rental_uris": {"android": "https://dc.lft.to/lastmile_qr_scan", "ios": "https://dc.lft.to/lastmile_qr_scan"}, "fusion_lon": 0.0}, {"lat": 38.91709766666666, "is_disabled": 0, "type": "electric_scooter", "lon": -77.03731, "bike_id": "08c7b59c1cb26bd32e437c1301965502", "fusion_lat": 0.0, "name": "08c7b59c1cb26bd32e437c1301965502", "is_reserved": 0, "rental_uris": {"android": "https://dc.lft.to/lastmile_qr_scan", "ios": "https://dc.lft.to/lastmile_qr_scan"}, "fusion_lon": 0.0}, {"lat": 38.90785, "is_disabled": 0, "type": "electric_scooter", "lon": -77.03857916666666, "bike_id": "6f89d0d5792836a1fa0720f1e5903917", "fusion_lat": 0.0, "name": "6f89d0d5792836a1fa0720f1e5903917", "is_reserved": 0, "rental_uris": {"android": "https://dc.lft.to/lastmile_qr_scan", "ios": "https://dc.lft.to/lastmile_qr_scan"}, "fusion_lon": 0.0}, {"lat": 38.8851355, "is_disabled": 0, "type": "electric_scooter", "lon": -77.006805, "bike_id": "4a5f7c6dfbefc1a15993298fb9e50854", "fusion_lat": 0.0, "name": "4a5f7c6dfbefc1a15993298fb9e50854", "is_reserved": 0, "rental_uris": {"android": "https://dc.lft.to/lastmile_qr_scan", "ios": "https://dc.lft.to/lastmile_qr_scan"}, "fusion_lon": 0.0}, {"lat": 38.938451, "is_disabled": 0, "type": "electric_bike", "lon": -76.98861, "bike_id": "f169aeba4c80c8864269507a29fc45d7", "fusion_lat": 0.0, "name": "f169aeba4c80c8864269507a29fc45d7", "is_reserved": 0, "rental_uris": {"android": "https://dc.lft.to/lastmile_qr_scan", "ios": "https://dc.lft.to/lastmile_qr_scan"}, "fusion_lon": 0.0}, {"lat": 38.927560166666666, "is_disabled": 0, "type": "electric_scooter", "lon": -76.99723183333333, "bike_id": "cdceeeee646a8919a271e0bbadf1a648", "fusion_lat": 0.0, "name": "cdceeeee646a8919a271e0bbadf1a648", "is_reserved": 0, "rental_uris": {"android": "https://dc.lft.to/lastmile_qr_scan", "ios": "https://dc.lft.to/lastmile_qr_scan"}, "fusion_lon": 0.0}, {"lat": 38.8637195, "is_disabled": 0, "type": "electric_scooter", "lon": -76.99035333333333, "bike_id": "c57ae572db456cb6259f983fdd026100", "fusion_lat": 0.0, "name": "c57ae572db456cb6259f983fdd026100", "is_reserved": 0, "rental_uris": {"android": "https://dc.lft.to/lastmile_qr_scan", "ios": "https://dc.lft.to/lastmile_qr_scan"}, "fusion_lon": 0.0}, {"lat": 38.87585983333334, "is_disabled": 0, "type": "electric_scooter", "lon": -77.02072266666667, "bike_id": "aa62f46e57a4679c33ad6969b698102b", "fusion_lat": 0.0, "name": "aa62f46e57a4679c33ad6969b698102b", "is_reserved": 0, "rental_uris": {"android": "https://dc.lft.to/lastmile_qr_scan", "ios": "https://dc.lft.to/lastmile_qr_scan"}, "fusion_lon": 0.0}, {"lat": 38.91122266666667, "is_disabled": 0, "type": "electric_scooter", "lon": -77.04259766666667, "bike_id": "b2dc298f2f60e9142b4c1717225e8c92", "fusion_lat": 0.0, "name": "b2dc298f2f60e9142b4c1717225e8c92", "is_reserved": 0, "rental_uris": {"android": "https://dc.lft.to/lastmile_qr_scan", "ios": "https://dc.lft.to/lastmile_qr_scan"}, "fusion_lon": 0.0}, {"lat": 38.89725466666667, "is_disabled": 0, "type": "electric_bike", "lon": -77.027919, "bike_id": "a570c36c39086478dd28894853c49ac4", "fusion_lat": 0.0, "name": "a570c36c39086478dd28894853c49ac4", "is_reserved": 0, "rental_uris": {"android": "https://dc.lft.to/lastmile_qr_scan", "ios": "https://dc.lft.to/lastmile_qr_scan"}, "fusion_lon": 0.0}, {"lat": 39.030596833333334, "is_disabled": 0, "type": "electric_bike", "lon": -77.09480983333333, "bike_id": "caba8f6de8e1ef2829cd875ebcb7cc3a", "fusion_lat": 0.0, "name": "caba8f6de8e1ef2829cd875ebcb7cc3a", "is_reserved": 0, "rental_uris": {"android": "https://dc.lft.to/lastmile_qr_scan", "ios": "https://dc.lft.to/lastmile_qr_scan"}, "fusion_lon": 0.0}, {"lat": 38.907772333333334, "is_disabled": 0, "type": "electric_scooter", "lon": -77.03545266666667, "bike_id": "809671f1c37955724b2dde30de706df3", "fusion_lat": 0.0, "name": "809671f1c37955724b2dde30de706df3", "is_reserved": 0, "rental_uris": {"android": "https://dc.lft.to/lastmile_qr_scan", "ios": "https://dc.lft.to/lastmile_qr_scan"}, "fusion_lon": 0.0}, {"lat": 38.9161385, "is_disabled": 0, "type": "electric_scooter", "lon": -77.03860266666666, "bike_id": "dc1b134acbe54fb972b3a41ad066ac1f", "fusion_lat": 0.0, "name": "dc1b134acbe54fb972b3a41ad066ac1f", "is_reserved": 0, "rental_uris": {"android": "https://dc.lft.to/lastmile_qr_scan", "ios": "https://dc.lft.to/lastmile_qr_scan"}, "fusion_lon": 0.0}, {"lat": 38.911105166666665, "is_disabled": 0, "type": "electric_scooter", "lon": -77.03215783333333, "bike_id": "549277c500c0dfe814f10b11cd6d823c", "fusion_lat": 0.0, "name": "549277c500c0dfe814f10b11cd6d823c", "is_reserved": 0, "rental_uris": {"android": "https://dc.lft.to/lastmile_qr_scan", "ios": "https://dc.lft.to/lastmile_qr_scan"}, "fusion_lon": 0.0}, {"lat": 38.923919, "is_disabled": 0, "type": "electric_scooter", "lon": -77.00067333333334, "bike_id": "2de581d87121e41b7a2aceb04e1f0916", "fusion_lat": 0.0, "name": "2de581d87121e41b7a2aceb04e1f0916", "is_reserved": 0, "rental_uris": {"android": "https://dc.lft.to/lastmile_qr_scan", "ios": "https://dc.lft.to/lastmile_qr_scan"}, "fusion_lon": 0.0}, {"lat": 38.85805666666667, "is_disabled": 0, "type": "electric_scooter", "lon": -76.9872225, "bike_id": "3f9324682c53f479accb3c1bf23f666e", "fusion_lat": 0.0, "name": "3f9324682c53f479accb3c1bf23f666e", "is_reserved": 0, "rental_uris": {"android": "https://dc.lft.to/lastmile_qr_scan", "ios": "https://dc.lft.to/lastmile_qr_scan"}, "fusion_lon": 0.0}, {"lat": 38.9174175, "is_disabled": 0, "type": "electric_scooter", "lon": -77.06898133333334, "bike_id": "0e889b6643f460038f80ec7fa7276cf8", "fusion_lat": 0.0, "name": "0e889b6643f460038f80ec7fa7276cf8", "is_reserved": 0, "rental_uris": {"android": "https://dc.lft.to/lastmile_qr_scan", "ios": "https://dc.lft.to/lastmile_qr_scan"}, "fusion_lon": 0.0}, {"lat": 38.918088833333336, "is_disabled": 0, "type": "electric_scooter", "lon": -77.034365, "bike_id": "3ad64acba36377f11fb1f5aecf97eab9", "fusion_lat": 0.0, "name": "3ad64acba36377f11fb1f5aecf97eab9", "is_reserved": 0, "rental_uris": {"android": "https://dc.lft.to/lastmile_qr_scan", "ios": "https://dc.lft.to/lastmile_qr_scan"}, "fusion_lon": 0.0}, {"lat": 38.92422466666667, "is_disabled": 0, "type": "electric_scooter", "lon": -77.03541916666667, "bike_id": "26621365d01458199728ab3e82fa6af7", "fusion_lat": 0.0, "name": "26621365d01458199728ab3e82fa6af7", "is_reserved": 0, "rental_uris": {"android": "https://dc.lft.to/lastmile_qr_scan", "ios": "https://dc.lft.to/lastmile_qr_scan"}, "fusion_lon": 0.0}, {"lat": 38.913422, "is_disabled": 0, "type": "electric_scooter", "lon": -77.00223683333333, "bike_id": "8b74b91e0fb56b46542482d56def4b2d", "fusion_lat": 0.0, "name": "8b74b91e0fb56b46542482d56def4b2d", "is_reserved": 0, "rental_uris": {"android": "https://dc.lft.to/lastmile_qr_scan", "ios": "https://dc.lft.to/lastmile_qr_scan"}, "fusion_lon": 0.0}, {"lat": 38.879212, "is_disabled": 0, "type": "electric_scooter", "lon": -77.0072355, "bike_id": "6c45b70cb794dcbdf0aaa7ce390404a5", "fusion_lat": 0.0, "name": "6c45b70cb794dcbdf0aaa7ce390404a5", "is_reserved": 0, "rental_uris": {"android": "https://dc.lft.to/lastmile_qr_scan", "ios": "https://dc.lft.to/lastmile_qr_scan"}, "fusion_lon": 0.0}, {"lat": 38.92348466666667, "is_disabled": 0, "type": "electric_scooter", "lon": -77.01903416666667, "bike_id": "b4a33d1b0e0de8146ab6dd411baa278b", "fusion_lat": 0.0, "name": "b4a33d1b0e0de8146ab6dd411baa278b", "is_reserved": 0, "rental_uris": {"android": "https://dc.lft.to/lastmile_qr_scan", "ios": "https://dc.lft.to/lastmile_qr_scan"}, "fusion_lon": 0.0}, {"lat": 38.9122635, "is_disabled": 0, "type": "electric_scooter", "lon": -77.045183, "bike_id": "bfb7d195ea347b88ae84361c02cb0917", "fusion_lat": 0.0, "name": "bfb7d195ea347b88ae84361c02cb0917", "is_reserved": 0, "rental_uris": {"android": "https://dc.lft.to/lastmile_qr_scan", "ios": "https://dc.lft.to/lastmile_qr_scan"}, "fusion_lon": 0.0}, {"lat": 38.9224565, "is_disabled": 0, "type": "electric_scooter", "lon": -77.04256166666667, "bike_id": "d893bd4a24f9236cc54db25e5eaca783", "fusion_lat": 0.0, "name": "d893bd4a24f9236cc54db25e5eaca783", "is_reserved": 0, "rental_uris": {"android": "https://dc.lft.to/lastmile_qr_scan", "ios": "https://dc.lft.to/lastmile_qr_scan"}, "fusion_lon": 0.0}, {"lat": 38.8990095, "is_disabled": 0, "type": "electric_scooter", "lon": -77.02183483333333, "bike_id": "1d3246ab275785789d2bde1cb63d135a", "fusion_lat": 0.0, "name": "1d3246ab275785789d2bde1cb63d135a", "is_reserved": 0, "rental_uris": {"android": "https://dc.lft.to/lastmile_qr_scan", "ios": "https://dc.lft.to/lastmile_qr_scan"}, "fusion_lon": 0.0}, {"lat": 38.88339916666666, "is_disabled": 0, "type": "electric_scooter", "lon": -77.03152966666667, "bike_id": "df0a793dbbcc773ee4006d802513f9ad", "fusion_lat": 0.0, "name": "df0a793dbbcc773ee4006d802513f9ad", "is_reserved": 0, "rental_uris": {"android": "https://dc.lft.to/lastmile_qr_scan", "ios": "https://dc.lft.to/lastmile_qr_scan"}, "fusion_lon": 0.0}, {"lat": 38.90093566666667, "is_disabled": 0, "type": "electric_scooter", "lon": -77.04924283333334, "bike_id": "1d4c8c8fddf14e7dced2b533b21f2420", "fusion_lat": 0.0, "name": "1d4c8c8fddf14e7dced2b533b21f2420", "is_reserved": 0, "rental_uris": {"android": "https://dc.lft.to/lastmile_qr_scan", "ios": "https://dc.lft.to/lastmile_qr_scan"}, "fusion_lon": 0.0}, {"lat": 38.925929833333335, "is_disabled": 0, "type": "electric_scooter", "lon": -77.02839683333333, "bike_id": "60e13a0cfab087a4d0d49cf474b1f6df", "fusion_lat": 0.0, "name": "60e13a0cfab087a4d0d49cf474b1f6df", "is_reserved": 0, "rental_uris": {"android": "https://dc.lft.to/lastmile_qr_scan", "ios": "https://dc.lft.to/lastmile_qr_scan"}, "fusion_lon": 0.0}, {"lat": 38.93310483333333, "is_disabled": 0, "type": "electric_scooter", "lon": -77.02852416666667, "bike_id": "4ae52ba8ab982ca1a4981bb3b9ddd665", "fusion_lat": 0.0, "name": "4ae52ba8ab982ca1a4981bb3b9ddd665", "is_reserved": 0, "rental_uris": {"android": "https://dc.lft.to/lastmile_qr_scan", "ios": "https://dc.lft.to/lastmile_qr_scan"}, "fusion_lon": 0.0}, {"lat": 38.9280095, "is_disabled": 0, "type": "electric_scooter", "lon": -77.05527866666667, "bike_id": "759ad1ca57220fd8b97cb3485847ed66", "fusion_lat": 0.0, "name": "759ad1ca57220fd8b97cb3485847ed66", "is_reserved": 0, "rental_uris": {"android": "https://dc.lft.to/lastmile_qr_scan", "ios": "https://dc.lft.to/lastmile_qr_scan"}, "fusion_lon": 0.0}, {"lat": 38.915515, "is_disabled": 0, "type": "electric_scooter", "lon": -77.03207583333334, "bike_id": "b7bc45af6264f8155a894968bc9953b1", "fusion_lat": 0.0, "name": "b7bc45af6264f8155a894968bc9953b1", "is_reserved": 0, "rental_uris": {"android": "https://dc.lft.to/lastmile_qr_scan", "ios": "https://dc.lft.to/lastmile_qr_scan"}, "fusion_lon": 0.0}, {"lat": 38.8655685, "is_disabled": 0, "type": "electric_scooter", "lon": -76.974182, "bike_id": "52b220aaa7e7b5a745479b212d3dcbd8", "fusion_lat": 0.0, "name": "52b220aaa7e7b5a745479b212d3dcbd8", "is_reserved": 0, "rental_uris": {"android": "https://dc.lft.to/lastmile_qr_scan", "ios": "https://dc.lft.to/lastmile_qr_scan"}, "fusion_lon": 0.0}, {"lat": 38.9387705, "is_disabled": 0, "type": "electric_scooter", "lon": -77.02012566666667, "bike_id": "bf4cc1b8c43216740121522e6171a4d7", "fusion_lat": 0.0, "name": "bf4cc1b8c43216740121522e6171a4d7", "is_reserved": 0, "rental_uris": {"android": "https://dc.lft.to/lastmile_qr_scan", "ios": "https://dc.lft.to/lastmile_qr_scan"}, "fusion_lon": 0.0}, {"lat": 38.902932, "is_disabled": 0, "type": "electric_scooter", "lon": -77.033483, "bike_id": "8ae455d5bb9ecabb8c3065895d9343e4", "fusion_lat": 0.0, "name": "8ae455d5bb9ecabb8c3065895d9343e4", "is_reserved": 0, "rental_uris": {"android": "https://dc.lft.to/lastmile_qr_scan", "ios": "https://dc.lft.to/lastmile_qr_scan"}, "fusion_lon": 0.0}, {"lat": 38.86396766666667, "is_disabled": 0, "type": "electric_bike", "lon": -76.98995533333333, "bike_id": "0e42201db25c24d7d383d5983e7fca4e", "fusion_lat": 0.0, "name": "0e42201db25c24d7d383d5983e7fca4e", "is_reserved": 0, "rental_uris": {"android": "https://dc.lft.to/lastmile_qr_scan", "ios": "https://dc.lft.to/lastmile_qr_scan"}, "fusion_lon": 0.0}, {"lat": 38.95341483333333, "is_disabled": 0, "type": "electric_bike", "lon": -76.97364366666666, "bike_id": "ed0f3dbca78c957e571904d18cabb53d", "fusion_lat": 0.0, "name": "ed0f3dbca78c957e571904d18cabb53d", "is_reserved": 0, "rental_uris": {"android": "https://dc.lft.to/lastmile_qr_scan", "ios": "https://dc.lft.to/lastmile_qr_scan"}, "fusion_lon": 0.0}, {"lat": 38.933735, "is_disabled": 0, "type": "electric_scooter", "lon": -77.0238385, "bike_id": "88fa6e77f46f2bedd084d7b4227c86fe", "fusion_lat": 0.0, "name": "88fa6e77f46f2bedd084d7b4227c86fe", "is_reserved": 0, "rental_uris": {"android": "https://dc.lft.to/lastmile_qr_scan", "ios": "https://dc.lft.to/lastmile_qr_scan"}, "fusion_lon": 0.0}, {"lat": 39.00025183333333, "is_disabled": 0, "type": "electric_bike", "lon": -76.91077966666667, "bike_id": "fa78aeb559e7e5604ad405129a222697", "fusion_lat": 0.0, "name": "fa78aeb559e7e5604ad405129a222697", "is_reserved": 0, "rental_uris": {"android": "https://dc.lft.to/lastmile_qr_scan", "ios": "https://dc.lft.to/lastmile_qr_scan"}, "fusion_lon": 0.0}, {"lat": 38.925916666666666, "is_disabled": 0, "type": "electric_scooter", "lon": -77.05756783333334, "bike_id": "672ec00bcb558e7e8b8f53239923861a", "fusion_lat": 0.0, "name": "672ec00bcb558e7e8b8f53239923861a", "is_reserved": 0, "rental_uris": {"android": "https://dc.lft.to/lastmile_qr_scan", "ios": "https://dc.lft.to/lastmile_qr_scan"}, "fusion_lon": 0.0}, {"lat": 38.90370133333333, "is_disabled": 0, "type": "electric_scooter", "lon": -77.01866, "bike_id": "7ddd78744795b2dbf2f0989b9ac33980", "fusion_lat": 0.0, "name": "7ddd78744795b2dbf2f0989b9ac33980", "is_reserved": 0, "rental_uris": {"android": "https://dc.lft.to/lastmile_qr_scan", "ios": "https://dc.lft.to/lastmile_qr_scan"}, "fusion_lon": 0.0}, {"lat": 38.902109, "is_disabled": 0, "type": "electric_scooter", "lon": -77.02325066666667, "bike_id": "81809db26fe7453b615c2eb82ee88333", "fusion_lat": 0.0, "name": "81809db26fe7453b615c2eb82ee88333", "is_reserved": 0, "rental_uris": {"android": "https://dc.lft.to/lastmile_qr_scan", "ios": "https://dc.lft.to/lastmile_qr_scan"}, "fusion_lon": 0.0}, {"lat": 38.90758616666667, "is_disabled": 0, "type": "electric_scooter", "lon": -77.03215166666666, "bike_id": "ebc8b12bd83ac5055585e209b7bc812c", "fusion_lat": 0.0, "name": "ebc8b12bd83ac5055585e209b7bc812c", "is_reserved": 0, "rental_uris": {"android": "https://dc.lft.to/lastmile_qr_scan", "ios": "https://dc.lft.to/lastmile_qr_scan"}, "fusion_lon": 0.0}, {"lat": 38.96116933333333, "is_disabled": 0, "type": "electric_scooter", "lon": -77.02815866666667, "bike_id": "d8ee8ceed49d45da3b6404e7e16f0ea1", "fusion_lat": 0.0, "name": "d8ee8ceed49d45da3b6404e7e16f0ea1", "is_reserved": 0, "rental_uris": {"android": "https://dc.lft.to/lastmile_qr_scan", "ios": "https://dc.lft.to/lastmile_qr_scan"}, "fusion_lon": 0.0}, {"lat": 38.921223166666664, "is_disabled": 0, "type": "electric_scooter", "lon": -77.01817733333333, "bike_id": "d03dc9fc237aed6b6e477edb03710eef", "fusion_lat": 0.0, "name": "d03dc9fc237aed6b6e477edb03710eef", "is_reserved": 0, "rental_uris": {"android": "https://dc.lft.to/lastmile_qr_scan", "ios": "https://dc.lft.to/lastmile_qr_scan"}, "fusion_lon": 0.0}, {"lat": 38.892331666666664, "is_disabled": 0, "type": "electric_scooter", "lon": -77.02127783333333, "bike_id": "0b03b4940c0fe42fa61d509247c59d33", "fusion_lat": 0.0, "name": "0b03b4940c0fe42fa61d509247c59d33", "is_reserved": 0, "rental_uris": {"android": "https://dc.lft.to/lastmile_qr_scan", "ios": "https://dc.lft.to/lastmile_qr_scan"}, "fusion_lon": 0.0}, {"lat": 38.92669133333333, "is_disabled": 0, "type": "electric_scooter", "lon": -77.01472533333333, "bike_id": "e1fe26c7c04617f52294b5f5e903a78c", "fusion_lat": 0.0, "name": "e1fe26c7c04617f52294b5f5e903a78c", "is_reserved": 0, "rental_uris": {"android": "https://dc.lft.to/lastmile_qr_scan", "ios": "https://dc.lft.to/lastmile_qr_scan"}, "fusion_lon": 0.0}, {"lat": 38.90984666666667, "is_disabled": 0, "type": "electric_scooter", "lon": -77.03439966666667, "bike_id": "dfdcee299cf65e7021548983136e2326", "fusion_lat": 0.0, "name": "dfdcee299cf65e7021548983136e2326", "is_reserved": 0, "rental_uris": {"android": "https://dc.lft.to/lastmile_qr_scan", "ios": "https://dc.lft.to/lastmile_qr_scan"}, "fusion_lon": 0.0}, {"lat": 38.90645816666667, "is_disabled": 0, "type": "electric_scooter", "lon": -77.03472683333334, "bike_id": "1ce223f0941b0d4f4f635f1e867d7369", "fusion_lat": 0.0, "name": "1ce223f0941b0d4f4f635f1e867d7369", "is_reserved": 0, "rental_uris": {"android": "https://dc.lft.to/lastmile_qr_scan", "ios": "https://dc.lft.to/lastmile_qr_scan"}, "fusion_lon": 0.0}, {"lat": 38.916927666666666, "is_disabled": 0, "type": "electric_scooter", "lon": -77.03059016666667, "bike_id": "bd43e60dc63df4ca76dd5a9b4f5364d3", "fusion_lat": 0.0, "name": "bd43e60dc63df4ca76dd5a9b4f5364d3", "is_reserved": 0, "rental_uris": {"android": "https://dc.lft.to/lastmile_qr_scan", "ios": "https://dc.lft.to/lastmile_qr_scan"}, "fusion_lon": 0.0}, {"lat": 38.920654, "is_disabled": 0, "type": "electric_scooter", "lon": -77.0423695, "bike_id": "3ddda6d2758f6d30379cf199e8e95e4c", "fusion_lat": 0.0, "name": "3ddda6d2758f6d30379cf199e8e95e4c", "is_reserved": 0, "rental_uris": {"android": "https://dc.lft.to/lastmile_qr_scan", "ios": "https://dc.lft.to/lastmile_qr_scan"}, "fusion_lon": 0.0}, {"lat": 38.85740716666667, "is_disabled": 0, "type": "electric_scooter", "lon": -76.99432866666666, "bike_id": "6b879341bb4975059a97931fa7d25215", "fusion_lat": 0.0, "name": "6b879341bb4975059a97931fa7d25215", "is_reserved": 0, "rental_uris": {"android": "https://dc.lft.to/lastmile_qr_scan", "ios": "https://dc.lft.to/lastmile_qr_scan"}, "fusion_lon": 0.0}, {"lat": 38.901796166666664, "is_disabled": 0, "type": "electric_scooter", "lon": -77.02183033333333, "bike_id": "814ee9d356b9892153259d8f8e688eb3", "fusion_lat": 0.0, "name": "814ee9d356b9892153259d8f8e688eb3", "is_reserved": 0, "rental_uris": {"android": "https://dc.lft.to/lastmile_qr_scan", "ios": "https://dc.lft.to/lastmile_qr_scan"}, "fusion_lon": 0.0}, {"lat": 38.944422333333335, "is_disabled": 0, "type": "electric_scooter", "lon": -77.02343766666667, "bike_id": "d5850fc9dc595ebf2caaa544d4ce73ac", "fusion_lat": 0.0, "name": "d5850fc9dc595ebf2caaa544d4ce73ac", "is_reserved": 0, "rental_uris": {"android": "https://dc.lft.to/lastmile_qr_scan", "ios": "https://dc.lft.to/lastmile_qr_scan"}, "fusion_lon": 0.0}, {"lat": 38.93676883333333, "is_disabled": 0, "type": "electric_scooter", "lon": -77.03639433333333, "bike_id": "2180798df3d443de7e3c6d9f035f4f61", "fusion_lat": 0.0, "name": "2180798df3d443de7e3c6d9f035f4f61", "is_reserved": 0, "rental_uris": {"android": "https://dc.lft.to/lastmile_qr_scan", "ios": "https://dc.lft.to/lastmile_qr_scan"}, "fusion_lon": 0.0}, {"lat": 38.9096125, "is_disabled": 0, "type": "electric_scooter", "lon": -77.0342695, "bike_id": "0e215fd621d5a3aa5bcc36bb85479e5c", "fusion_lat": 0.0, "name": "0e215fd621d5a3aa5bcc36bb85479e5c", "is_reserved": 0, "rental_uris": {"android": "https://dc.lft.to/lastmile_qr_scan", "ios": "https://dc.lft.to/lastmile_qr_scan"}, "fusion_lon": 0.0}, {"lat": 38.9347035, "is_disabled": 0, "type": "electric_scooter", "lon": -77.0325245, "bike_id": "213c55dc0f1e084d5c0e41bae2812aca", "fusion_lat": 0.0, "name": "213c55dc0f1e084d5c0e41bae2812aca", "is_reserved": 0, "rental_uris": {"android": "https://dc.lft.to/lastmile_qr_scan", "ios": "https://dc.lft.to/lastmile_qr_scan"}, "fusion_lon": 0.0}, {"lat": 38.93233433333333, "is_disabled": 0, "type": "electric_scooter", "lon": -77.04414766666666, "bike_id": "31391126ecf078cc2c0cc4dfba1fd625", "fusion_lat": 0.0, "name": "31391126ecf078cc2c0cc4dfba1fd625", "is_reserved": 0, "rental_uris": {"android": "https://dc.lft.to/lastmile_qr_scan", "ios": "https://dc.lft.to/lastmile_qr_scan"}, "fusion_lon": 0.0}, {"lat": 38.91004616666667, "is_disabled": 0, "type": "electric_scooter", "lon": -77.0400885, "bike_id": "dec0dd643ca45fc20ba41d28195184db", "fusion_lat": 0.0, "name": "dec0dd643ca45fc20ba41d28195184db", "is_reserved": 0, "rental_uris": {"android": "https://dc.lft.to/lastmile_qr_scan", "ios": "https://dc.lft.to/lastmile_qr_scan"}, "fusion_lon": 0.0}, {"lat": 38.9217355, "is_disabled": 0, "type": "electric_scooter", "lon": -77.04010183333334, "bike_id": "0a8e3f0bb8acb8f4af917b6d7edfa7d4", "fusion_lat": 0.0, "name": "0a8e3f0bb8acb8f4af917b6d7edfa7d4", "is_reserved": 0, "rental_uris": {"android": "https://dc.lft.to/lastmile_qr_scan", "ios": "https://dc.lft.to/lastmile_qr_scan"}, "fusion_lon": 0.0}, {"lat": 38.8651745, "is_disabled": 0, "type": "electric_scooter", "lon": -76.99030233333333, "bike_id": "9db8d2bafa949cfa64ac9d39f17cfc41", "fusion_lat": 0.0, "name": "9db8d2bafa949cfa64ac9d39f17cfc41", "is_reserved": 0, "rental_uris": {"android": "https://dc.lft.to/lastmile_qr_scan", "ios": "https://dc.lft.to/lastmile_qr_scan"}, "fusion_lon": 0.0}, {"lat": 38.91767466666667, "is_disabled": 0, "type": "electric_scooter", "lon": -77.00453416666667, "bike_id": "ad483446a96c81fa49fa88cde5d395dc", "fusion_lat": 0.0, "name": "ad483446a96c81fa49fa88cde5d395dc", "is_reserved": 0, "rental_uris": {"android": "https://dc.lft.to/lastmile_qr_scan", "ios": "https://dc.lft.to/lastmile_qr_scan"}, "fusion_lon": 0.0}, {"lat": 38.88515783333333, "is_disabled": 0, "type": "electric_scooter", "lon": -77.01501083333333, "bike_id": "e9ecaf3a70fd3f89679a2ce1490128fe", "fusion_lat": 0.0, "name": "e9ecaf3a70fd3f89679a2ce1490128fe", "is_reserved": 0, "rental_uris": {"android": "https://dc.lft.to/lastmile_qr_scan", "ios": "https://dc.lft.to/lastmile_qr_scan"}, "fusion_lon": 0.0}, {"lat": 38.897468833333335, "is_disabled": 0, "type": "electric_scooter", "lon": -77.02453716666666, "bike_id": "37b9823d4ea28bee79e16f98febb6949", "fusion_lat": 0.0, "name": "37b9823d4ea28bee79e16f98febb6949", "is_reserved": 0, "rental_uris": {"android": "https://dc.lft.to/lastmile_qr_scan", "ios": "https://dc.lft.to/lastmile_qr_scan"}, "fusion_lon": 0.0}, {"lat": 38.92019666666667, "is_disabled": 0, "type": "electric_scooter", "lon": -77.04183166666667, "bike_id": "5eee8207471f0f047146dcb2eb684476", "fusion_lat": 0.0, "name": "5eee8207471f0f047146dcb2eb684476", "is_reserved": 0, "rental_uris": {"android": "https://dc.lft.to/lastmile_qr_scan", "ios": "https://dc.lft.to/lastmile_qr_scan"}, "fusion_lon": 0.0}, {"lat": 38.865998, "is_disabled": 0, "type": "electric_bike", "lon": -76.932305, "bike_id": "a52dd4cf0617f0bbd52bd9e10cf78ffe", "fusion_lat": 0.0, "name": "a52dd4cf0617f0bbd52bd9e10cf78ffe", "is_reserved": 0, "rental_uris": {"android": "https://dc.lft.to/lastmile_qr_scan", "ios": "https://dc.lft.to/lastmile_qr_scan"}, "fusion_lon": 0.0}, {"lat": 38.9006325, "is_disabled": 0, "type": "electric_scooter", "lon": -77.0074405, "bike_id": "31836bbd4d66d54f42d7e830c602623b", "fusion_lat": 0.0, "name": "31836bbd4d66d54f42d7e830c602623b", "is_reserved": 0, "rental_uris": {"android": "https://dc.lft.to/lastmile_qr_scan", "ios": "https://dc.lft.to/lastmile_qr_scan"}, "fusion_lon": 0.0}, {"lat": 38.8922815, "is_disabled": 0, "type": "electric_scooter", "lon": -77.04872916666666, "bike_id": "b3cf4240a0f70e5ede9f672f55f6e453", "fusion_lat": 0.0, "name": "b3cf4240a0f70e5ede9f672f55f6e453", "is_reserved": 0, "rental_uris": {"android": "https://dc.lft.to/lastmile_qr_scan", "ios": "https://dc.lft.to/lastmile_qr_scan"}, "fusion_lon": 0.0}, {"lat": 38.8006255, "is_disabled": 0, "type": "electric_bike", "lon": -77.07129583333334, "bike_id": "70576ec9b482c0bdb03e9a7da465c440", "fusion_lat": 0.0, "name": "70576ec9b482c0bdb03e9a7da465c440", "is_reserved": 0, "rental_uris": {"android": "https://dc.lft.to/lastmile_qr_scan", "ios": "https://dc.lft.to/lastmile_qr_scan"}, "fusion_lon": 0.0}, {"lat": 38.9217215, "is_disabled": 0, "type": "electric_scooter", "lon": -77.05138916666667, "bike_id": "896b10a666e73e47d157a63ab1e6d065", "fusion_lat": 0.0, "name": "896b10a666e73e47d157a63ab1e6d065", "is_reserved": 0, "rental_uris": {"android": "https://dc.lft.to/lastmile_qr_scan", "ios": "https://dc.lft.to/lastmile_qr_scan"}, "fusion_lon": 0.0}, {"lat": 38.91823516666667, "is_disabled": 0, "type": "electric_scooter", "lon": -76.99968933333334, "bike_id": "813f99f7261dd4cbc917fbe957bc7bc1", "fusion_lat": 0.0, "name": "813f99f7261dd4cbc917fbe957bc7bc1", "is_reserved": 0, "rental_uris": {"android": "https://dc.lft.to/lastmile_qr_scan", "ios": "https://dc.lft.to/lastmile_qr_scan"}, "fusion_lon": 0.0}, {"lat": 38.852242333333336, "is_disabled": 0, "type": "electric_bike", "lon": -77.12960983333333, "bike_id": "c209b5daa39f34fbf3c8720f312b4ef2", "fusion_lat": 0.0, "name": "c209b5daa39f34fbf3c8720f312b4ef2", "is_reserved": 0, "rental_uris": {"android": "https://dc.lft.to/lastmile_qr_scan", "ios": "https://dc.lft.to/lastmile_qr_scan"}, "fusion_lon": 0.0}, {"lat": 38.91059766666667, "is_disabled": 0, "type": "electric_scooter", "lon": -77.01525766666667, "bike_id": "01c38ca1bb5b5639be0a2ac458fcdf5a", "fusion_lat": 0.0, "name": "01c38ca1bb5b5639be0a2ac458fcdf5a", "is_reserved": 0, "rental_uris": {"android": "https://dc.lft.to/lastmile_qr_scan", "ios": "https://dc.lft.to/lastmile_qr_scan"}, "fusion_lon": 0.0}, {"lat": 38.87739216666667, "is_disabled": 0, "type": "electric_bike", "lon": -77.11851183333333, "bike_id": "6900ca14afd8629a065e6cf7578fa9fe", "fusion_lat": 0.0, "name": "6900ca14afd8629a065e6cf7578fa9fe", "is_reserved": 0, "rental_uris": {"android": "https://dc.lft.to/lastmile_qr_scan", "ios": "https://dc.lft.to/lastmile_qr_scan"}, "fusion_lon": 0.0}, {"lat": 38.91114016666667, "is_disabled": 0, "type": "electric_scooter", "lon": -77.02135166666666, "bike_id": "9ff5da1ecc16067f1ec81042013fe578", "fusion_lat": 0.0, "name": "9ff5da1ecc16067f1ec81042013fe578", "is_reserved": 0, "rental_uris": {"android": "https://dc.lft.to/lastmile_qr_scan", "ios": "https://dc.lft.to/lastmile_qr_scan"}, "fusion_lon": 0.0}, {"lat": 38.946395333333335, "is_disabled": 0, "type": "electric_scooter", "lon": -77.01848016666666, "bike_id": "db51201e16302ae7fafc855b11d61fec", "fusion_lat": 0.0, "name": "db51201e16302ae7fafc855b11d61fec", "is_reserved": 0, "rental_uris": {"android": "https://dc.lft.to/lastmile_qr_scan", "ios": "https://dc.lft.to/lastmile_qr_scan"}, "fusion_lon": 0.0}, {"lat": 38.95189083333333, "is_disabled": 0, "type": "electric_bike", "lon": -76.9354795, "bike_id": "ab8b9ad7971e594b9f89ff7aa30905ee", "fusion_lat": 0.0, "name": "ab8b9ad7971e594b9f89ff7aa30905ee", "is_reserved": 0, "rental_uris": {"android": "https://dc.lft.to/lastmile_qr_scan", "ios": "https://dc.lft.to/lastmile_qr_scan"}, "fusion_lon": 0.0}, {"lat": 38.89746816666667, "is_disabled": 0, "type": "electric_scooter", "lon": -77.020028, "bike_id": "039d335d30a9adb17da1329de91a1157", "fusion_lat": 0.0, "name": "039d335d30a9adb17da1329de91a1157", "is_reserved": 0, "rental_uris": {"android": "https://dc.lft.to/lastmile_qr_scan", "ios": "https://dc.lft.to/lastmile_qr_scan"}, "fusion_lon": 0.0}, {"lat": 38.867559166666666, "is_disabled": 0, "type": "electric_scooter", "lon": -76.976665, "bike_id": "c1ea3b2a9f576299b016e04a91d897ff", "fusion_lat": 0.0, "name": "c1ea3b2a9f576299b016e04a91d897ff", "is_reserved": 0, "rental_uris": {"android": "https://dc.lft.to/lastmile_qr_scan", "ios": "https://dc.lft.to/lastmile_qr_scan"}, "fusion_lon": 0.0}, {"lat": 38.913392333333334, "is_disabled": 0, "type": "electric_scooter", "lon": -77.031919, "bike_id": "ceb19a18ae65bc46ac29169d6cd64607", "fusion_lat": 0.0, "name": "ceb19a18ae65bc46ac29169d6cd64607", "is_reserved": 0, "rental_uris": {"android": "https://dc.lft.to/lastmile_qr_scan", "ios": "https://dc.lft.to/lastmile_qr_scan"}, "fusion_lon": 0.0}, {"lat": 38.873447666666664, "is_disabled": 0, "type": "electric_scooter", "lon": -76.99167166666666, "bike_id": "f3085c21b08d91b16491785326a3706f", "fusion_lat": 0.0, "name": "f3085c21b08d91b16491785326a3706f", "is_reserved": 0, "rental_uris": {"android": "https://dc.lft.to/lastmile_qr_scan", "ios": "https://dc.lft.to/lastmile_qr_scan"}, "fusion_lon": 0.0}, {"lat": 38.9541445, "is_disabled": 0, "type": "electric_bike", "lon": -76.98061833333334, "bike_id": "07c322e3be1c5a72eec6c226c7ab8bb6", "fusion_lat": 0.0, "name": "07c322e3be1c5a72eec6c226c7ab8bb6", "is_reserved": 0, "rental_uris": {"android": "https://dc.lft.to/lastmile_qr_scan", "ios": "https://dc.lft.to/lastmile_qr_scan"}, "fusion_lon": 0.0}, {"lat": 38.900626, "is_disabled": 0, "type": "electric_scooter", "lon": -77.04397266666666, "bike_id": "f00b2d4973bced288243b54178329e46", "fusion_lat": 0.0, "name": "f00b2d4973bced288243b54178329e46", "is_reserved": 0, "rental_uris": {"android": "https://dc.lft.to/lastmile_qr_scan", "ios": "https://dc.lft.to/lastmile_qr_scan"}, "fusion_lon": 0.0}, {"lat": 38.87637683333333, "is_disabled": 0, "type": "electric_scooter", "lon": -76.96528666666667, "bike_id": "903240ab7f30256b1a0dd079649a2c4f", "fusion_lat": 0.0, "name": "903240ab7f30256b1a0dd079649a2c4f", "is_reserved": 0, "rental_uris": {"android": "https://dc.lft.to/lastmile_qr_scan", "ios": "https://dc.lft.to/lastmile_qr_scan"}, "fusion_lon": 0.0}, {"lat": 38.9565305, "is_disabled": 0, "type": "electric_bike", "lon": -77.02274666666666, "bike_id": "4452160cb34c77158e9f7d8da67e88ae", "fusion_lat": 0.0, "name": "4452160cb34c77158e9f7d8da67e88ae", "is_reserved": 0, "rental_uris": {"android": "https://dc.lft.to/lastmile_qr_scan", "ios": "https://dc.lft.to/lastmile_qr_scan"}, "fusion_lon": 0.0}, {"lat": 38.91665616666667, "is_disabled": 0, "type": "electric_scooter", "lon": -77.0386355, "bike_id": "56a1ca64334039524b289af77d9e54cb", "fusion_lat": 0.0, "name": "56a1ca64334039524b289af77d9e54cb", "is_reserved": 0, "rental_uris": {"android": "https://dc.lft.to/lastmile_qr_scan", "ios": "https://dc.lft.to/lastmile_qr_scan"}, "fusion_lon": 0.0}, {"lat": 38.91961883333333, "is_disabled": 0, "type": "electric_scooter", "lon": -77.04889666666666, "bike_id": "c55a30826b67de449e7a409920ee2f23", "fusion_lat": 0.0, "name": "c55a30826b67de449e7a409920ee2f23", "is_reserved": 0, "rental_uris": {"android": "https://dc.lft.to/lastmile_qr_scan", "ios": "https://dc.lft.to/lastmile_qr_scan"}, "fusion_lon": 0.0}, {"lat": 38.930840333333336, "is_disabled": 0, "type": "electric_scooter", "lon": -77.026115, "bike_id": "a37fb52847f438002eb9caba63779c44", "fusion_lat": 0.0, "name": "a37fb52847f438002eb9caba63779c44", "is_reserved": 0, "rental_uris": {"android": "https://dc.lft.to/lastmile_qr_scan", "ios": "https://dc.lft.to/lastmile_qr_scan"}, "fusion_lon": 0.0}, {"lat": 38.9012545, "is_disabled": 0, "type": "electric_scooter", "lon": -77.03340483333334, "bike_id": "f9d87c8c5e84a38bd8af79d74a31ba17", "fusion_lat": 0.0, "name": "f9d87c8c5e84a38bd8af79d74a31ba17", "is_reserved": 0, "rental_uris": {"android": "https://dc.lft.to/lastmile_qr_scan", "ios": "https://dc.lft.to/lastmile_qr_scan"}, "fusion_lon": 0.0}, {"lat": 38.90832566666667, "is_disabled": 0, "type": "electric_scooter", "lon": -77.063808, "bike_id": "652263fd3be85db95d1bf45753260daa", "fusion_lat": 0.0, "name": "652263fd3be85db95d1bf45753260daa", "is_reserved": 0, "rental_uris": {"android": "https://dc.lft.to/lastmile_qr_scan", "ios": "https://dc.lft.to/lastmile_qr_scan"}, "fusion_lon": 0.0}, {"lat": 38.9193765, "is_disabled": 0, "type": "electric_scooter", "lon": -77.02301983333334, "bike_id": "6ef4fe92e637ae279fb721f4b5ea34d8", "fusion_lat": 0.0, "name": "6ef4fe92e637ae279fb721f4b5ea34d8", "is_reserved": 0, "rental_uris": {"android": "https://dc.lft.to/lastmile_qr_scan", "ios": "https://dc.lft.to/lastmile_qr_scan"}, "fusion_lon": 0.0}, {"lat": 38.9068125, "is_disabled": 0, "type": "electric_scooter", "lon": -77.03755716666667, "bike_id": "a486358d526e0f4ebe0c7afc201de5e2", "fusion_lat": 0.0, "name": "a486358d526e0f4ebe0c7afc201de5e2", "is_reserved": 0, "rental_uris": {"android": "https://dc.lft.to/lastmile_qr_scan", "ios": "https://dc.lft.to/lastmile_qr_scan"}, "fusion_lon": 0.0}, {"lat": 38.85063266666667, "is_disabled": 0, "type": "electric_bike", "lon": -76.97315516666667, "bike_id": "865ded5be74765611cc92a95ff5ebb22", "fusion_lat": 0.0, "name": "865ded5be74765611cc92a95ff5ebb22", "is_reserved": 0, "rental_uris": {"android": "https://dc.lft.to/lastmile_qr_scan", "ios": "https://dc.lft.to/lastmile_qr_scan"}, "fusion_lon": 0.0}, {"lat": 38.90285383333333, "is_disabled": 0, "type": "electric_scooter", "lon": -77.05268166666667, "bike_id": "5bf132c79f65cc9feeaee8d59c90c5aa", "fusion_lat": 0.0, "name": "5bf132c79f65cc9feeaee8d59c90c5aa", "is_reserved": 0, "rental_uris": {"android": "https://dc.lft.to/lastmile_qr_scan", "ios": "https://dc.lft.to/lastmile_qr_scan"}, "fusion_lon": 0.0}, {"lat": 38.922419, "is_disabled": 0, "type": "electric_scooter", "lon": -77.045748, "bike_id": "8843a1a8dffe973943da2f2c288362e8", "fusion_lat": 0.0, "name": "8843a1a8dffe973943da2f2c288362e8", "is_reserved": 0, "rental_uris": {"android": "https://dc.lft.to/lastmile_qr_scan", "ios": "https://dc.lft.to/lastmile_qr_scan"}, "fusion_lon": 0.0}, {"lat": 38.9028485, "is_disabled": 0, "type": "electric_scooter", "lon": -77.03645216666666, "bike_id": "9744571a1bc2d4ad5c7e4b238a5ffe19", "fusion_lat": 0.0, "name": "9744571a1bc2d4ad5c7e4b238a5ffe19", "is_reserved": 0, "rental_uris": {"android": "https://dc.lft.to/lastmile_qr_scan", "ios": "https://dc.lft.to/lastmile_qr_scan"}, "fusion_lon": 0.0}, {"lat": 38.90346266666667, "is_disabled": 0, "type": "electric_scooter", "lon": -77.0532355, "bike_id": "f49bbc70c9d934565957c7ae34591eb0", "fusion_lat": 0.0, "name": "f49bbc70c9d934565957c7ae34591eb0", "is_reserved": 0, "rental_uris": {"android": "https://dc.lft.to/lastmile_qr_scan", "ios": "https://dc.lft.to/lastmile_qr_scan"}, "fusion_lon": 0.0}, {"lat": 38.89048716666667, "is_disabled": 0, "type": "electric_scooter", "lon": -76.93759916666667, "bike_id": "fc66e5472813e0be8b6439d7370ab39f", "fusion_lat": 0.0, "name": "fc66e5472813e0be8b6439d7370ab39f", "is_reserved": 0, "rental_uris": {"android": "https://dc.lft.to/lastmile_qr_scan", "ios": "https://dc.lft.to/lastmile_qr_scan"}, "fusion_lon": 0.0}, {"lat": 38.897222, "is_disabled": 0, "type": "electric_scooter", "lon": -77.0079995, "bike_id": "0d244b45e521b4cb6e1238e9e0bd6ffc", "fusion_lat": 0.0, "name": "0d244b45e521b4cb6e1238e9e0bd6ffc", "is_reserved": 0, "rental_uris": {"android": "https://dc.lft.to/lastmile_qr_scan", "ios": "https://dc.lft.to/lastmile_qr_scan"}, "fusion_lon": 0.0}, {"lat": 38.864529166666664, "is_disabled": 0, "type": "electric_scooter", "lon": -77.01343433333334, "bike_id": "51b3eef16a6e729cf68d6eecd857c405", "fusion_lat": 0.0, "name": "51b3eef16a6e729cf68d6eecd857c405", "is_reserved": 0, "rental_uris": {"android": "https://dc.lft.to/lastmile_qr_scan", "ios": "https://dc.lft.to/lastmile_qr_scan"}, "fusion_lon": 0.0}, {"lat": 38.90673816666666, "is_disabled": 0, "type": "electric_scooter", "lon": -77.027014, "bike_id": "b0e7a518869f609043d75763c094249c", "fusion_lat": 0.0, "name": "b0e7a518869f609043d75763c094249c", "is_reserved": 0, "rental_uris": {"android": "https://dc.lft.to/lastmile_qr_scan", "ios": "https://dc.lft.to/lastmile_qr_scan"}, "fusion_lon": 0.0}, {"lat": 38.897439166666665, "is_disabled": 0, "type": "electric_scooter", "lon": -77.0476485, "bike_id": "8ef165f4ef9aff983fc666ab13041161", "fusion_lat": 0.0, "name": "8ef165f4ef9aff983fc666ab13041161", "is_reserved": 0, "rental_uris": {"android": "https://dc.lft.to/lastmile_qr_scan", "ios": "https://dc.lft.to/lastmile_qr_scan"}, "fusion_lon": 0.0}, {"lat": 38.930778833333335, "is_disabled": 0, "type": "electric_scooter", "lon": -76.990832, "bike_id": "32b4fdb9c10eb57a81bc15090ddfc561", "fusion_lat": 0.0, "name": "32b4fdb9c10eb57a81bc15090ddfc561", "is_reserved": 0, "rental_uris": {"android": "https://dc.lft.to/lastmile_qr_scan", "ios": "https://dc.lft.to/lastmile_qr_scan"}, "fusion_lon": 0.0}, {"lat": 38.855165, "is_disabled": 0, "type": "electric_bike", "lon": -77.12035516666667, "bike_id": "a879333a4a24be8e095db783015db72d", "fusion_lat": 0.0, "name": "a879333a4a24be8e095db783015db72d", "is_reserved": 0, "rental_uris": {"android": "https://dc.lft.to/lastmile_qr_scan", "ios": "https://dc.lft.to/lastmile_qr_scan"}, "fusion_lon": 0.0}, {"lat": 38.944450333333336, "is_disabled": 0, "type": "electric_scooter", "lon": -77.01508783333334, "bike_id": "0a29e7fa798bfa1aadbba043080081fb", "fusion_lat": 0.0, "name": "0a29e7fa798bfa1aadbba043080081fb", "is_reserved": 0, "rental_uris": {"android": "https://dc.lft.to/lastmile_qr_scan", "ios": "https://dc.lft.to/lastmile_qr_scan"}, "fusion_lon": 0.0}, {"lat": 38.9439585, "is_disabled": 0, "type": "electric_scooter", "lon": -77.0198135, "bike_id": "82933483834751b7ce3bc5a0045a9d5c", "fusion_lat": 0.0, "name": "82933483834751b7ce3bc5a0045a9d5c", "is_reserved": 0, "rental_uris": {"android": "https://dc.lft.to/lastmile_qr_scan", "ios": "https://dc.lft.to/lastmile_qr_scan"}, "fusion_lon": 0.0}, {"lat": 38.911165, "is_disabled": 0, "type": "electric_scooter", "lon": -77.0383305, "bike_id": "41b1f3daceaa820cb54d6c3a5701066b", "fusion_lat": 0.0, "name": "41b1f3daceaa820cb54d6c3a5701066b", "is_reserved": 0, "rental_uris": {"android": "https://dc.lft.to/lastmile_qr_scan", "ios": "https://dc.lft.to/lastmile_qr_scan"}, "fusion_lon": 0.0}, {"lat": 38.901156666666665, "is_disabled": 0, "type": "electric_scooter", "lon": -77.02534283333334, "bike_id": "0c74a5b6f6015e1a4898efe6d273dbb4", "fusion_lat": 0.0, "name": "0c74a5b6f6015e1a4898efe6d273dbb4", "is_reserved": 0, "rental_uris": {"android": "https://dc.lft.to/lastmile_qr_scan", "ios": "https://dc.lft.to/lastmile_qr_scan"}, "fusion_lon": 0.0}, {"lat": 38.900755, "is_disabled": 0, "type": "electric_scooter", "lon": -77.00217083333334, "bike_id": "a32d057b3cdb9d266c2e49bd1b2f2981", "fusion_lat": 0.0, "name": "a32d057b3cdb9d266c2e49bd1b2f2981", "is_reserved": 0, "rental_uris": {"android": "https://dc.lft.to/lastmile_qr_scan", "ios": "https://dc.lft.to/lastmile_qr_scan"}, "fusion_lon": 0.0}, {"lat": 38.928438, "is_disabled": 0, "type": "electric_scooter", "lon": -77.01410816666667, "bike_id": "9a620d4f24b0b5d7013c4e264498a9e5", "fusion_lat": 0.0, "name": "9a620d4f24b0b5d7013c4e264498a9e5", "is_reserved": 0, "rental_uris": {"android": "https://dc.lft.to/lastmile_qr_scan", "ios": "https://dc.lft.to/lastmile_qr_scan"}, "fusion_lon": 0.0}, {"lat": 38.916863166666666, "is_disabled": 0, "type": "electric_scooter", "lon": -77.0295285, "bike_id": "45fc7500714fd06051c8ff1569e16cbf", "fusion_lat": 0.0, "name": "45fc7500714fd06051c8ff1569e16cbf", "is_reserved": 0, "rental_uris": {"android": "https://dc.lft.to/lastmile_qr_scan", "ios": "https://dc.lft.to/lastmile_qr_scan"}, "fusion_lon": 0.0}, {"lat": 38.9235365, "is_disabled": 0, "type": "electric_scooter", "lon": -77.034006, "bike_id": "4608c6de9a515b30866d551d1bb1ff0b", "fusion_lat": 0.0, "name": "4608c6de9a515b30866d551d1bb1ff0b", "is_reserved": 0, "rental_uris": {"android": "https://dc.lft.to/lastmile_qr_scan", "ios": "https://dc.lft.to/lastmile_qr_scan"}, "fusion_lon": 0.0}, {"lat": 38.85196166666667, "is_disabled": 0, "type": "electric_bike", "lon": -76.96110766666666, "bike_id": "5207d37bc4b7aaed367cb2a0c8be3913", "fusion_lat": 0.0, "name": "5207d37bc4b7aaed367cb2a0c8be3913", "is_reserved": 0, "rental_uris": {"android": "https://dc.lft.to/lastmile_qr_scan", "ios": "https://dc.lft.to/lastmile_qr_scan"}, "fusion_lon": 0.0}, {"lat": 38.900686666666665, "is_disabled": 0, "type": "electric_scooter", "lon": -77.04539483333333, "bike_id": "08c27c2b0bf4a625456ea8ebb5e6fed6", "fusion_lat": 0.0, "name": "08c27c2b0bf4a625456ea8ebb5e6fed6", "is_reserved": 0, "rental_uris": {"android": "https://dc.lft.to/lastmile_qr_scan", "ios": "https://dc.lft.to/lastmile_qr_scan"}, "fusion_lon": 0.0}, {"lat": 38.91353183333333, "is_disabled": 0, "type": "electric_scooter", "lon": -77.042821, "bike_id": "809fc43d079ebb0fa9449ad27d99a1c9", "fusion_lat": 0.0, "name": "809fc43d079ebb0fa9449ad27d99a1c9", "is_reserved": 0, "rental_uris": {"android": "https://dc.lft.to/lastmile_qr_scan", "ios": "https://dc.lft.to/lastmile_qr_scan"}, "fusion_lon": 0.0}, {"lat": 38.92857816666667, "is_disabled": 0, "type": "electric_scooter", "lon": -77.02997366666666, "bike_id": "a3cb966dc31f14c6d20b8b98cf38b77f", "fusion_lat": 0.0, "name": "a3cb966dc31f14c6d20b8b98cf38b77f", "is_reserved": 0, "rental_uris": {"android": "https://dc.lft.to/lastmile_qr_scan", "ios": "https://dc.lft.to/lastmile_qr_scan"}, "fusion_lon": 0.0}, {"lat": 38.87678983333333, "is_disabled": 0, "type": "electric_bike", "lon": -77.01441316666667, "bike_id": "2d45e32dca859d0ba0e4426f5e1592fa", "fusion_lat": 0.0, "name": "2d45e32dca859d0ba0e4426f5e1592fa", "is_reserved": 0, "rental_uris": {"android": "https://dc.lft.to/lastmile_qr_scan", "ios": "https://dc.lft.to/lastmile_qr_scan"}, "fusion_lon": 0.0}, {"lat": 38.91552133333333, "is_disabled": 0, "type": "electric_scooter", "lon": -77.03205683333333, "bike_id": "750cc7fe65ce1b89d096ec05872b161b", "fusion_lat": 0.0, "name": "750cc7fe65ce1b89d096ec05872b161b", "is_reserved": 0, "rental_uris": {"android": "https://dc.lft.to/lastmile_qr_scan", "ios": "https://dc.lft.to/lastmile_qr_scan"}, "fusion_lon": 0.0}, {"lat": 38.895595166666666, "is_disabled": 0, "type": "electric_scooter", "lon": -76.93373416666667, "bike_id": "500a9d94eac266b7f0867207193248c2", "fusion_lat": 0.0, "name": "500a9d94eac266b7f0867207193248c2", "is_reserved": 0, "rental_uris": {"android": "https://dc.lft.to/lastmile_qr_scan", "ios": "https://dc.lft.to/lastmile_qr_scan"}, "fusion_lon": 0.0}, {"lat": 38.89234166666667, "is_disabled": 0, "type": "electric_scooter", "lon": -77.05005616666666, "bike_id": "fb9f221d3b656ff0298b14d35476b43f", "fusion_lat": 0.0, "name": "fb9f221d3b656ff0298b14d35476b43f", "is_reserved": 0, "rental_uris": {"android": "https://dc.lft.to/lastmile_qr_scan", "ios": "https://dc.lft.to/lastmile_qr_scan"}, "fusion_lon": 0.0}, {"lat": 38.926689, "is_disabled": 0, "type": "electric_scooter", "lon": -77.05600783333334, "bike_id": "e222d0b2bab543a64500e1b559aa5dfd", "fusion_lat": 0.0, "name": "e222d0b2bab543a64500e1b559aa5dfd", "is_reserved": 0, "rental_uris": {"android": "https://dc.lft.to/lastmile_qr_scan", "ios": "https://dc.lft.to/lastmile_qr_scan"}, "fusion_lon": 0.0}, {"lat": 38.935398666666664, "is_disabled": 0, "type": "electric_scooter", "lon": -77.02359516666667, "bike_id": "9c74f4a8d5cb85b38537c7c8d4d9502b", "fusion_lat": 0.0, "name": "9c74f4a8d5cb85b38537c7c8d4d9502b", "is_reserved": 0, "rental_uris": {"android": "https://dc.lft.to/lastmile_qr_scan", "ios": "https://dc.lft.to/lastmile_qr_scan"}, "fusion_lon": 0.0}, {"lat": 38.90384783333333, "is_disabled": 0, "type": "electric_scooter", "lon": -76.9761885, "bike_id": "fd7ca66a0597ec5b6bd992a10224464e", "fusion_lat": 0.0, "name": "fd7ca66a0597ec5b6bd992a10224464e", "is_reserved": 0, "rental_uris": {"android": "https://dc.lft.to/lastmile_qr_scan", "ios": "https://dc.lft.to/lastmile_qr_scan"}, "fusion_lon": 0.0}, {"lat": 38.89641, "is_disabled": 0, "type": "electric_scooter", "lon": -77.0450135, "bike_id": "341b71d829681754ac14b89b0424c84e", "fusion_lat": 0.0, "name": "341b71d829681754ac14b89b0424c84e", "is_reserved": 0, "rental_uris": {"android": "https://dc.lft.to/lastmile_qr_scan", "ios": "https://dc.lft.to/lastmile_qr_scan"}, "fusion_lon": 0.0}, {"lat": 38.92605733333333, "is_disabled": 0, "type": "electric_scooter", "lon": -77.02490833333333, "bike_id": "80386caf756e482cd3f225d78084c146", "fusion_lat": 0.0, "name": "80386caf756e482cd3f225d78084c146", "is_reserved": 0, "rental_uris": {"android": "https://dc.lft.to/lastmile_qr_scan", "ios": "https://dc.lft.to/lastmile_qr_scan"}, "fusion_lon": 0.0}, {"lat": 38.914817166666666, "is_disabled": 0, "type": "electric_scooter", "lon": -77.0323615, "bike_id": "0cd38f9f6db1cc307dc32ffa8bb7640a", "fusion_lat": 0.0, "name": "0cd38f9f6db1cc307dc32ffa8bb7640a", "is_reserved": 0, "rental_uris": {"android": "https://dc.lft.to/lastmile_qr_scan", "ios": "https://dc.lft.to/lastmile_qr_scan"}, "fusion_lon": 0.0}, {"lat": 38.87476266666667, "is_disabled": 0, "type": "electric_scooter", "lon": -77.00523083333333, "bike_id": "cc2c2f08149da9deb1a3df1826ab2ea1", "fusion_lat": 0.0, "name": "cc2c2f08149da9deb1a3df1826ab2ea1", "is_reserved": 0, "rental_uris": {"android": "https://dc.lft.to/lastmile_qr_scan", "ios": "https://dc.lft.to/lastmile_qr_scan"}, "fusion_lon": 0.0}, {"lat": 38.96069883333333, "is_disabled": 0, "type": "electric_scooter", "lon": -77.0730195, "bike_id": "b10aa8c3204c7344cd0e59a73a934ae7", "fusion_lat": 0.0, "name": "b10aa8c3204c7344cd0e59a73a934ae7", "is_reserved": 0, "rental_uris": {"android": "https://dc.lft.to/lastmile_qr_scan", "ios": "https://dc.lft.to/lastmile_qr_scan"}, "fusion_lon": 0.0}, {"lat": 38.962259, "is_disabled": 0, "type": "electric_bike", "lon": -77.02621233333333, "bike_id": "a2b051b435b75362496d219b490e4c8b", "fusion_lat": 0.0, "name": "a2b051b435b75362496d219b490e4c8b", "is_reserved": 0, "rental_uris": {"android": "https://dc.lft.to/lastmile_qr_scan", "ios": "https://dc.lft.to/lastmile_qr_scan"}, "fusion_lon": 0.0}, {"lat": 38.908673666666665, "is_disabled": 0, "type": "electric_scooter", "lon": -77.0035785, "bike_id": "74a357330e10ddf971a871493fa5253b", "fusion_lat": 0.0, "name": "74a357330e10ddf971a871493fa5253b", "is_reserved": 0, "rental_uris": {"android": "https://dc.lft.to/lastmile_qr_scan", "ios": "https://dc.lft.to/lastmile_qr_scan"}, "fusion_lon": 0.0}, {"lat": 38.893573833333335, "is_disabled": 0, "type": "electric_scooter", "lon": -77.0398715, "bike_id": "fa7d89eee87ded1833942e01d64967b9", "fusion_lat": 0.0, "name": "fa7d89eee87ded1833942e01d64967b9", "is_reserved": 0, "rental_uris": {"android": "https://dc.lft.to/lastmile_qr_scan", "ios": "https://dc.lft.to/lastmile_qr_scan"}, "fusion_lon": 0.0}, {"lat": 38.93202266666667, "is_disabled": 0, "type": "electric_scooter", "lon": -77.02357116666667, "bike_id": "3fd5690049850ae2f38c3ed707fc26ff", "fusion_lat": 0.0, "name": "3fd5690049850ae2f38c3ed707fc26ff", "is_reserved": 0, "rental_uris": {"android": "https://dc.lft.to/lastmile_qr_scan", "ios": "https://dc.lft.to/lastmile_qr_scan"}, "fusion_lon": 0.0}, {"lat": 38.9040285, "is_disabled": 0, "type": "electric_scooter", "lon": -76.984693, "bike_id": "088122b5c4fb5b6f9ad76c7d42ef7c43", "fusion_lat": 0.0, "name": "088122b5c4fb5b6f9ad76c7d42ef7c43", "is_reserved": 0, "rental_uris": {"android": "https://dc.lft.to/lastmile_qr_scan", "ios": "https://dc.lft.to/lastmile_qr_scan"}, "fusion_lon": 0.0}, {"lat": 38.886968, "is_disabled": 0, "type": "electric_scooter", "lon": -77.0176795, "bike_id": "45bb2ad5486c1e0b6b416579342eedcb", "fusion_lat": 0.0, "name": "45bb2ad5486c1e0b6b416579342eedcb", "is_reserved": 0, "rental_uris": {"android": "https://dc.lft.to/lastmile_qr_scan", "ios": "https://dc.lft.to/lastmile_qr_scan"}, "fusion_lon": 0.0}, {"lat": 38.914245666666666, "is_disabled": 0, "type": "electric_scooter", "lon": -77.04156366666666, "bike_id": "4f1ded4cdde08b859f29c58323fa9ae6", "fusion_lat": 0.0, "name": "4f1ded4cdde08b859f29c58323fa9ae6", "is_reserved": 0, "rental_uris": {"android": "https://dc.lft.to/lastmile_qr_scan", "ios": "https://dc.lft.to/lastmile_qr_scan"}, "fusion_lon": 0.0}, {"lat": 38.9000775, "is_disabled": 0, "type": "electric_scooter", "lon": -77.02339983333333, "bike_id": "14a8375ca51bf9cce0708eacbcb061e2", "fusion_lat": 0.0, "name": "14a8375ca51bf9cce0708eacbcb061e2", "is_reserved": 0, "rental_uris": {"android": "https://dc.lft.to/lastmile_qr_scan", "ios": "https://dc.lft.to/lastmile_qr_scan"}, "fusion_lon": 0.0}, {"lat": 38.898460166666666, "is_disabled": 0, "type": "electric_scooter", "lon": -76.9950485, "bike_id": "15c71cf7c82a4fbe3a5a0dfcf73e434e", "fusion_lat": 0.0, "name": "15c71cf7c82a4fbe3a5a0dfcf73e434e", "is_reserved": 0, "rental_uris": {"android": "https://dc.lft.to/lastmile_qr_scan", "ios": "https://dc.lft.to/lastmile_qr_scan"}, "fusion_lon": 0.0}, {"lat": 38.895043666666666, "is_disabled": 0, "type": "electric_scooter", "lon": -77.002168, "bike_id": "06eec8b108b406e44e2913952fd24cd6", "fusion_lat": 0.0, "name": "06eec8b108b406e44e2913952fd24cd6", "is_reserved": 0, "rental_uris": {"android": "https://dc.lft.to/lastmile_qr_scan", "ios": "https://dc.lft.to/lastmile_qr_scan"}, "fusion_lon": 0.0}, {"lat": 38.902122166666665, "is_disabled": 0, "type": "electric_scooter", "lon": -77.02318083333333, "bike_id": "d926a5e33126baced8f184aa3a19c320", "fusion_lat": 0.0, "name": "d926a5e33126baced8f184aa3a19c320", "is_reserved": 0, "rental_uris": {"android": "https://dc.lft.to/lastmile_qr_scan", "ios": "https://dc.lft.to/lastmile_qr_scan"}, "fusion_lon": 0.0}, {"lat": 38.92252333333333, "is_disabled": 0, "type": "electric_scooter", "lon": -77.04343833333333, "bike_id": "e16aaacca42a786575ecb611b01cd673", "fusion_lat": 0.0, "name": "e16aaacca42a786575ecb611b01cd673", "is_reserved": 0, "rental_uris": {"android": "https://dc.lft.to/lastmile_qr_scan", "ios": "https://dc.lft.to/lastmile_qr_scan"}, "fusion_lon": 0.0}, {"lat": 38.892288666666666, "is_disabled": 0, "type": "electric_bike", "lon": -77.1078155, "bike_id": "6b2345c25175bbe7f205ec12a419a153", "fusion_lat": 0.0, "name": "6b2345c25175bbe7f205ec12a419a153", "is_reserved": 0, "rental_uris": {"android": "https://dc.lft.to/lastmile_qr_scan", "ios": "https://dc.lft.to/lastmile_qr_scan"}, "fusion_lon": 0.0}, {"lat": 38.898344, "is_disabled": 0, "type": "electric_scooter", "lon": -76.93108183333334, "bike_id": "d0b8767d52ea4401e5eab9be19a05fc6", "fusion_lat": 0.0, "name": "d0b8767d52ea4401e5eab9be19a05fc6", "is_reserved": 0, "rental_uris": {"android": "https://dc.lft.to/lastmile_qr_scan", "ios": "https://dc.lft.to/lastmile_qr_scan"}, "fusion_lon": 0.0}, {"lat": 38.969323333333335, "is_disabled": 0, "type": "electric_bike", "lon": -77.02623283333334, "bike_id": "a037e0402f1e857de216a6868eb8cc65", "fusion_lat": 0.0, "name": "a037e0402f1e857de216a6868eb8cc65", "is_reserved": 0, "rental_uris": {"android": "https://dc.lft.to/lastmile_qr_scan", "ios": "https://dc.lft.to/lastmile_qr_scan"}, "fusion_lon": 0.0}, {"lat": 38.90753, "is_disabled": 0, "type": "electric_scooter", "lon": -77.03207583333334, "bike_id": "6b686f0b4cee1995d1f62d62f00705b9", "fusion_lat": 0.0, "name": "6b686f0b4cee1995d1f62d62f00705b9", "is_reserved": 0, "rental_uris": {"android": "https://dc.lft.to/lastmile_qr_scan", "ios": "https://dc.lft.to/lastmile_qr_scan"}, "fusion_lon": 0.0}, {"lat": 38.908667333333334, "is_disabled": 0, "type": "electric_bike", "lon": -76.93163583333333, "bike_id": "9867fbfc1e7dc20a8fb3e4d726ede6cf", "fusion_lat": 0.0, "name": "9867fbfc1e7dc20a8fb3e4d726ede6cf", "is_reserved": 0, "rental_uris": {"android": "https://dc.lft.to/lastmile_qr_scan", "ios": "https://dc.lft.to/lastmile_qr_scan"}, "fusion_lon": 0.0}, {"lat": 38.9032225, "is_disabled": 0, "type": "electric_scooter", "lon": -76.9900405, "bike_id": "06e468e37c64cc6b1b61128bdd8b13bc", "fusion_lat": 0.0, "name": "06e468e37c64cc6b1b61128bdd8b13bc", "is_reserved": 0, "rental_uris": {"android": "https://dc.lft.to/lastmile_qr_scan", "ios": "https://dc.lft.to/lastmile_qr_scan"}, "fusion_lon": 0.0}, {"lat": 38.904636333333336, "is_disabled": 0, "type": "electric_scooter", "lon": -76.99460483333333, "bike_id": "152047456caada5782cca91b299da155", "fusion_lat": 0.0, "name": "152047456caada5782cca91b299da155", "is_reserved": 0, "rental_uris": {"android": "https://dc.lft.to/lastmile_qr_scan", "ios": "https://dc.lft.to/lastmile_qr_scan"}, "fusion_lon": 0.0}, {"lat": 38.9060865, "is_disabled": 0, "type": "electric_scooter", "lon": -77.06350916666666, "bike_id": "8c2c12b8731916e7555adc547f084764", "fusion_lat": 0.0, "name": "8c2c12b8731916e7555adc547f084764", "is_reserved": 0, "rental_uris": {"android": "https://dc.lft.to/lastmile_qr_scan", "ios": "https://dc.lft.to/lastmile_qr_scan"}, "fusion_lon": 0.0}, {"lat": 38.92087033333333, "is_disabled": 0, "type": "electric_bike", "lon": -76.99185833333334, "bike_id": "d157da9d4462b06e042dc869a89144fe", "fusion_lat": 0.0, "name": "d157da9d4462b06e042dc869a89144fe", "is_reserved": 0, "rental_uris": {"android": "https://dc.lft.to/lastmile_qr_scan", "ios": "https://dc.lft.to/lastmile_qr_scan"}, "fusion_lon": 0.0}, {"lat": 38.909953333333334, "is_disabled": 0, "type": "electric_scooter", "lon": -77.04498116666667, "bike_id": "5c8a75bdafd47a1fe7275ec2ce0dcb6f", "fusion_lat": 0.0, "name": "5c8a75bdafd47a1fe7275ec2ce0dcb6f", "is_reserved": 0, "rental_uris": {"android": "https://dc.lft.to/lastmile_qr_scan", "ios": "https://dc.lft.to/lastmile_qr_scan"}, "fusion_lon": 0.0}, {"lat": 38.9309145, "is_disabled": 0, "type": "electric_scooter", "lon": -77.02569366666667, "bike_id": "789f7c1a7ad6d0d1c9cd764964611a38", "fusion_lat": 0.0, "name": "789f7c1a7ad6d0d1c9cd764964611a38", "is_reserved": 0, "rental_uris": {"android": "https://dc.lft.to/lastmile_qr_scan", "ios": "https://dc.lft.to/lastmile_qr_scan"}, "fusion_lon": 0.0}, {"lat": 38.892565833333336, "is_disabled": 0, "type": "electric_scooter", "lon": -77.04893416666667, "bike_id": "5bbc58b99f57da3a164f28d11f57b930", "fusion_lat": 0.0, "name": "5bbc58b99f57da3a164f28d11f57b930", "is_reserved": 0, "rental_uris": {"android": "https://dc.lft.to/lastmile_qr_scan", "ios": "https://dc.lft.to/lastmile_qr_scan"}, "fusion_lon": 0.0}, {"lat": 38.933631166666665, "is_disabled": 0, "type": "electric_scooter", "lon": -77.073712, "bike_id": "badf562464729f68d8710fc9b0f4d266", "fusion_lat": 0.0, "name": "badf562464729f68d8710fc9b0f4d266", "is_reserved": 0, "rental_uris": {"android": "https://dc.lft.to/lastmile_qr_scan", "ios": "https://dc.lft.to/lastmile_qr_scan"}, "fusion_lon": 0.0}, {"lat": 38.902775, "is_disabled": 0, "type": "electric_scooter", "lon": -77.05269183333333, "bike_id": "59784a9707dce599d78371b197bab289", "fusion_lat": 0.0, "name": "59784a9707dce599d78371b197bab289", "is_reserved": 0, "rental_uris": {"android": "https://dc.lft.to/lastmile_qr_scan", "ios": "https://dc.lft.to/lastmile_qr_scan"}, "fusion_lon": 0.0}, {"lat": 38.884872666666666, "is_disabled": 0, "type": "electric_scooter", "lon": -76.9452675, "bike_id": "fb74ad3a5497605f8e292bff7d771faf", "fusion_lat": 0.0, "name": "fb74ad3a5497605f8e292bff7d771faf", "is_reserved": 0, "rental_uris": {"android": "https://dc.lft.to/lastmile_qr_scan", "ios": "https://dc.lft.to/lastmile_qr_scan"}, "fusion_lon": 0.0}, {"lat": 38.9056755, "is_disabled": 0, "type": "electric_scooter", "lon": -77.0131, "bike_id": "8b3c6d6d00f35786689e9e0024ea9244", "fusion_lat": 0.0, "name": "8b3c6d6d00f35786689e9e0024ea9244", "is_reserved": 0, "rental_uris": {"android": "https://dc.lft.to/lastmile_qr_scan", "ios": "https://dc.lft.to/lastmile_qr_scan"}, "fusion_lon": 0.0}, {"lat": 38.930819166666666, "is_disabled": 0, "type": "electric_scooter", "lon": -77.07764466666667, "bike_id": "e105213e600a9ae0edccaab660aacf1b", "fusion_lat": 0.0, "name": "e105213e600a9ae0edccaab660aacf1b", "is_reserved": 0, "rental_uris": {"android": "https://dc.lft.to/lastmile_qr_scan", "ios": "https://dc.lft.to/lastmile_qr_scan"}, "fusion_lon": 0.0}, {"lat": 38.917516666666664, "is_disabled": 0, "type": "electric_scooter", "lon": -77.03203933333333, "bike_id": "612a92f9712a3a5783d12f66eb4b58cc", "fusion_lat": 0.0, "name": "612a92f9712a3a5783d12f66eb4b58cc", "is_reserved": 0, "rental_uris": {"android": "https://dc.lft.to/lastmile_qr_scan", "ios": "https://dc.lft.to/lastmile_qr_scan"}, "fusion_lon": 0.0}, {"lat": 38.917855833333334, "is_disabled": 0, "type": "electric_scooter", "lon": -77.02231366666666, "bike_id": "2e4209e2c6ff769734862ecf56ab4685", "fusion_lat": 0.0, "name": "2e4209e2c6ff769734862ecf56ab4685", "is_reserved": 0, "rental_uris": {"android": "https://dc.lft.to/lastmile_qr_scan", "ios": "https://dc.lft.to/lastmile_qr_scan"}, "fusion_lon": 0.0}, {"lat": 38.9003455, "is_disabled": 0, "type": "electric_scooter", "lon": -76.98371783333333, "bike_id": "1f6268f08fc7970c21674b0d7bc7e8bb", "fusion_lat": 0.0, "name": "1f6268f08fc7970c21674b0d7bc7e8bb", "is_reserved": 0, "rental_uris": {"android": "https://dc.lft.to/lastmile_qr_scan", "ios": "https://dc.lft.to/lastmile_qr_scan"}, "fusion_lon": 0.0}, {"lat": 38.90958716666667, "is_disabled": 0, "type": "electric_scooter", "lon": -77.04423383333334, "bike_id": "068f3bf6f12cb63f7160cc3d974d02a3", "fusion_lat": 0.0, "name": "068f3bf6f12cb63f7160cc3d974d02a3", "is_reserved": 0, "rental_uris": {"android": "https://dc.lft.to/lastmile_qr_scan", "ios": "https://dc.lft.to/lastmile_qr_scan"}, "fusion_lon": 0.0}, {"lat": 38.931528666666665, "is_disabled": 0, "type": "electric_scooter", "lon": -77.02132033333334, "bike_id": "5cd33d6bb42679d3b16f7ffa05e9139d", "fusion_lat": 0.0, "name": "5cd33d6bb42679d3b16f7ffa05e9139d", "is_reserved": 0, "rental_uris": {"android": "https://dc.lft.to/lastmile_qr_scan", "ios": "https://dc.lft.to/lastmile_qr_scan"}, "fusion_lon": 0.0}, {"lat": 38.901923333333336, "is_disabled": 0, "type": "electric_scooter", "lon": -77.024684, "bike_id": "9e165939282c079f1b541eb171d0ccf8", "fusion_lat": 0.0, "name": "9e165939282c079f1b541eb171d0ccf8", "is_reserved": 0, "rental_uris": {"android": "https://dc.lft.to/lastmile_qr_scan", "ios": "https://dc.lft.to/lastmile_qr_scan"}, "fusion_lon": 0.0}, {"lat": 38.92087866666667, "is_disabled": 0, "type": "electric_bike", "lon": -77.03485066666667, "bike_id": "3aec4fa0c7233442ad81ec6dde50a438", "fusion_lat": 0.0, "name": "3aec4fa0c7233442ad81ec6dde50a438", "is_reserved": 0, "rental_uris": {"android": "https://dc.lft.to/lastmile_qr_scan", "ios": "https://dc.lft.to/lastmile_qr_scan"}, "fusion_lon": 0.0}, {"lat": 38.940732, "is_disabled": 0, "type": "electric_scooter", "lon": -76.994698, "bike_id": "8d8d0e89ba5dd4da337817a579250ce5", "fusion_lat": 0.0, "name": "8d8d0e89ba5dd4da337817a579250ce5", "is_reserved": 0, "rental_uris": {"android": "https://dc.lft.to/lastmile_qr_scan", "ios": "https://dc.lft.to/lastmile_qr_scan"}, "fusion_lon": 0.0}, {"lat": 38.894277833333334, "is_disabled": 0, "type": "electric_scooter", "lon": -77.0209265, "bike_id": "6632f3f06337baef4c8ac89a8dd2d7b0", "fusion_lat": 0.0, "name": "6632f3f06337baef4c8ac89a8dd2d7b0", "is_reserved": 0, "rental_uris": {"android": "https://dc.lft.to/lastmile_qr_scan", "ios": "https://dc.lft.to/lastmile_qr_scan"}, "fusion_lon": 0.0}, {"lat": 38.90148116666667, "is_disabled": 0, "type": "electric_scooter", "lon": -77.051014, "bike_id": "6037baeaee2147917dfb42db9622d9df", "fusion_lat": 0.0, "name": "6037baeaee2147917dfb42db9622d9df", "is_reserved": 0, "rental_uris": {"android": "https://dc.lft.to/lastmile_qr_scan", "ios": "https://dc.lft.to/lastmile_qr_scan"}, "fusion_lon": 0.0}, {"lat": 38.95081366666667, "is_disabled": 0, "type": "electric_bike", "lon": -77.01196683333333, "bike_id": "ecaaeb8f2d710acf3dbecac101bc89a5", "fusion_lat": 0.0, "name": "ecaaeb8f2d710acf3dbecac101bc89a5", "is_reserved": 0, "rental_uris": {"android": "https://dc.lft.to/lastmile_qr_scan", "ios": "https://dc.lft.to/lastmile_qr_scan"}, "fusion_lon": 0.0}, {"lat": 38.919324833333334, "is_disabled": 0, "type": "electric_scooter", "lon": -77.024972, "bike_id": "c511d41a1c585dda2064687fb21e286d", "fusion_lat": 0.0, "name": "c511d41a1c585dda2064687fb21e286d", "is_reserved": 0, "rental_uris": {"android": "https://dc.lft.to/lastmile_qr_scan", "ios": "https://dc.lft.to/lastmile_qr_scan"}, "fusion_lon": 0.0}, {"lat": 38.907519666666666, "is_disabled": 0, "type": "electric_scooter", "lon": -77.04151116666667, "bike_id": "29169b3c9b562d893cb136268d5eddab", "fusion_lat": 0.0, "name": "29169b3c9b562d893cb136268d5eddab", "is_reserved": 0, "rental_uris": {"android": "https://dc.lft.to/lastmile_qr_scan", "ios": "https://dc.lft.to/lastmile_qr_scan"}, "fusion_lon": 0.0}, {"lat": 38.89974216666667, "is_disabled": 0, "type": "electric_scooter", "lon": -77.0528355, "bike_id": "8c1350f5c641f1eb04dfe35cf970bbdb", "fusion_lat": 0.0, "name": "8c1350f5c641f1eb04dfe35cf970bbdb", "is_reserved": 0, "rental_uris": {"android": "https://dc.lft.to/lastmile_qr_scan", "ios": "https://dc.lft.to/lastmile_qr_scan"}, "fusion_lon": 0.0}, {"lat": 38.901871, "is_disabled": 0, "type": "electric_scooter", "lon": -77.02188266666667, "bike_id": "5c665dadd7ed564fe5331050309cd5be", "fusion_lat": 0.0, "name": "5c665dadd7ed564fe5331050309cd5be", "is_reserved": 0, "rental_uris": {"android": "https://dc.lft.to/lastmile_qr_scan", "ios": "https://dc.lft.to/lastmile_qr_scan"}, "fusion_lon": 0.0}, {"lat": 38.8828355, "is_disabled": 0, "type": "electric_bike", "lon": -76.93248583333333, "bike_id": "41ba430f85b4e94de3847b58bfb44ef4", "fusion_lat": 0.0, "name": "41ba430f85b4e94de3847b58bfb44ef4", "is_reserved": 0, "rental_uris": {"android": "https://dc.lft.to/lastmile_qr_scan", "ios": "https://dc.lft.to/lastmile_qr_scan"}, "fusion_lon": 0.0}, {"lat": 38.903540166666666, "is_disabled": 0, "type": "electric_scooter", "lon": -76.97049766666666, "bike_id": "ead22a1bc70fe8dff02568ac04cde5b4", "fusion_lat": 0.0, "name": "ead22a1bc70fe8dff02568ac04cde5b4", "is_reserved": 0, "rental_uris": {"android": "https://dc.lft.to/lastmile_qr_scan", "ios": "https://dc.lft.to/lastmile_qr_scan"}, "fusion_lon": 0.0}, {"lat": 38.906532166666665, "is_disabled": 0, "type": "electric_scooter", "lon": -77.00614083333333, "bike_id": "992cc74eb6184ef1f4532c2349f1faa3", "fusion_lat": 0.0, "name": "992cc74eb6184ef1f4532c2349f1faa3", "is_reserved": 0, "rental_uris": {"android": "https://dc.lft.to/lastmile_qr_scan", "ios": "https://dc.lft.to/lastmile_qr_scan"}, "fusion_lon": 0.0}, {"lat": 38.915073666666665, "is_disabled": 0, "type": "electric_scooter", "lon": -76.98374916666667, "bike_id": "b6603feccee81615de21b1e54e9463bf", "fusion_lat": 0.0, "name": "b6603feccee81615de21b1e54e9463bf", "is_reserved": 0, "rental_uris": {"android": "https://dc.lft.to/lastmile_qr_scan", "ios": "https://dc.lft.to/lastmile_qr_scan"}, "fusion_lon": 0.0}, {"lat": 38.9573385, "is_disabled": 0, "type": "electric_scooter", "lon": -77.02383433333334, "bike_id": "1ecd26309518b170a3852e587d8826b1", "fusion_lat": 0.0, "name": "1ecd26309518b170a3852e587d8826b1", "is_reserved": 0, "rental_uris": {"android": "https://dc.lft.to/lastmile_qr_scan", "ios": "https://dc.lft.to/lastmile_qr_scan"}, "fusion_lon": 0.0}, {"lat": 38.91206916666667, "is_disabled": 0, "type": "electric_scooter", "lon": -77.04499816666667, "bike_id": "47e71afd6ae1a383e9234d1089706a39", "fusion_lat": 0.0, "name": "47e71afd6ae1a383e9234d1089706a39", "is_reserved": 0, "rental_uris": {"android": "https://dc.lft.to/lastmile_qr_scan", "ios": "https://dc.lft.to/lastmile_qr_scan"}, "fusion_lon": 0.0}, {"lat": 38.90893, "is_disabled": 0, "type": "electric_scooter", "lon": -77.03666183333333, "bike_id": "3b596b4af22f2f76962705cb5267ee30", "fusion_lat": 0.0, "name": "3b596b4af22f2f76962705cb5267ee30", "is_reserved": 0, "rental_uris": {"android": "https://dc.lft.to/lastmile_qr_scan", "ios": "https://dc.lft.to/lastmile_qr_scan"}, "fusion_lon": 0.0}, {"lat": 38.86620716666667, "is_disabled": 0, "type": "electric_scooter", "lon": -76.9866595, "bike_id": "e1cea0bb3cf11b8ab03349512d2dbbc4", "fusion_lat": 0.0, "name": "e1cea0bb3cf11b8ab03349512d2dbbc4", "is_reserved": 0, "rental_uris": {"android": "https://dc.lft.to/lastmile_qr_scan", "ios": "https://dc.lft.to/lastmile_qr_scan"}, "fusion_lon": 0.0}, {"lat": 38.9359035, "is_disabled": 0, "type": "electric_scooter", "lon": -77.037645, "bike_id": "44aedee5e9822d9681e4882b54052321", "fusion_lat": 0.0, "name": "44aedee5e9822d9681e4882b54052321", "is_reserved": 0, "rental_uris": {"android": "https://dc.lft.to/lastmile_qr_scan", "ios": "https://dc.lft.to/lastmile_qr_scan"}, "fusion_lon": 0.0}, {"lat": 38.91714133333333, "is_disabled": 0, "type": "electric_scooter", "lon": -77.03471733333333, "bike_id": "3f8fc14c09fcb703727b08b4155cc1e7", "fusion_lat": 0.0, "name": "3f8fc14c09fcb703727b08b4155cc1e7", "is_reserved": 0, "rental_uris": {"android": "https://dc.lft.to/lastmile_qr_scan", "ios": "https://dc.lft.to/lastmile_qr_scan"}, "fusion_lon": 0.0}, {"lat": 38.924353333333336, "is_disabled": 0, "type": "electric_scooter", "lon": -77.034223, "bike_id": "10a7de53ac79c9b144292aba10fbcadc", "fusion_lat": 0.0, "name": "10a7de53ac79c9b144292aba10fbcadc", "is_reserved": 0, "rental_uris": {"android": "https://dc.lft.to/lastmile_qr_scan", "ios": "https://dc.lft.to/lastmile_qr_scan"}, "fusion_lon": 0.0}, {"lat": 38.86662916666667, "is_disabled": 0, "type": "electric_scooter", "lon": -76.98905683333334, "bike_id": "6ee2d24b224bf30819c4888a1f2cadb7", "fusion_lat": 0.0, "name": "6ee2d24b224bf30819c4888a1f2cadb7", "is_reserved": 0, "rental_uris": {"android": "https://dc.lft.to/lastmile_qr_scan", "ios": "https://dc.lft.to/lastmile_qr_scan"}, "fusion_lon": 0.0}, {"lat": 38.92446616666667, "is_disabled": 0, "type": "electric_scooter", "lon": -77.03360566666667, "bike_id": "771053c5a2d578e57145f3bb68b86fc9", "fusion_lat": 0.0, "name": "771053c5a2d578e57145f3bb68b86fc9", "is_reserved": 0, "rental_uris": {"android": "https://dc.lft.to/lastmile_qr_scan", "ios": "https://dc.lft.to/lastmile_qr_scan"}, "fusion_lon": 0.0}, {"lat": 38.90140733333333, "is_disabled": 0, "type": "electric_scooter", "lon": -77.011474, "bike_id": "8c1c5e5c3feb2c0c0e8f42374035df64", "fusion_lat": 0.0, "name": "8c1c5e5c3feb2c0c0e8f42374035df64", "is_reserved": 0, "rental_uris": {"android": "https://dc.lft.to/lastmile_qr_scan", "ios": "https://dc.lft.to/lastmile_qr_scan"}, "fusion_lon": 0.0}, {"lat": 38.91469266666667, "is_disabled": 0, "type": "electric_scooter", "lon": -77.06690483333334, "bike_id": "e8887ea13bd30545cd0907a5b4c66e6a", "fusion_lat": 0.0, "name": "e8887ea13bd30545cd0907a5b4c66e6a", "is_reserved": 0, "rental_uris": {"android": "https://dc.lft.to/lastmile_qr_scan", "ios": "https://dc.lft.to/lastmile_qr_scan"}, "fusion_lon": 0.0}, {"lat": 38.90550133333333, "is_disabled": 0, "type": "electric_scooter", "lon": -77.04681533333333, "bike_id": "44b1e3d6853e61b49c4614c2af2daa9e", "fusion_lat": 0.0, "name": "44b1e3d6853e61b49c4614c2af2daa9e", "is_reserved": 0, "rental_uris": {"android": "https://dc.lft.to/lastmile_qr_scan", "ios": "https://dc.lft.to/lastmile_qr_scan"}, "fusion_lon": 0.0}, {"lat": 38.908460166666664, "is_disabled": 0, "type": "electric_scooter", "lon": -77.03559116666666, "bike_id": "9dc2516c8cd8c7c4d6a4d4de20ddfe0e", "fusion_lat": 0.0, "name": "9dc2516c8cd8c7c4d6a4d4de20ddfe0e", "is_reserved": 0, "rental_uris": {"android": "https://dc.lft.to/lastmile_qr_scan", "ios": "https://dc.lft.to/lastmile_qr_scan"}, "fusion_lon": 0.0}, {"lat": 38.8758125, "is_disabled": 0, "type": "electric_bike", "lon": -77.1056595, "bike_id": "3613f664a5e39e1726951f76192db3dc", "fusion_lat": 0.0, "name": "3613f664a5e39e1726951f76192db3dc", "is_reserved": 0, "rental_uris": {"android": "https://dc.lft.to/lastmile_qr_scan", "ios": "https://dc.lft.to/lastmile_qr_scan"}, "fusion_lon": 0.0}, {"lat": 38.842975333333335, "is_disabled": 0, "type": "electric_scooter", "lon": -76.99936483333333, "bike_id": "ba80c038a90a2fdcd95b7fec38486fe5", "fusion_lat": 0.0, "name": "ba80c038a90a2fdcd95b7fec38486fe5", "is_reserved": 0, "rental_uris": {"android": "https://dc.lft.to/lastmile_qr_scan", "ios": "https://dc.lft.to/lastmile_qr_scan"}, "fusion_lon": 0.0}, {"lat": 38.94291533333333, "is_disabled": 0, "type": "electric_scooter", "lon": -77.021725, "bike_id": "55da9f2b07b9ba46bb31357d0432b36f", "fusion_lat": 0.0, "name": "55da9f2b07b9ba46bb31357d0432b36f", "is_reserved": 0, "rental_uris": {"android": "https://dc.lft.to/lastmile_qr_scan", "ios": "https://dc.lft.to/lastmile_qr_scan"}, "fusion_lon": 0.0}, {"lat": 38.90113366666667, "is_disabled": 0, "type": "electric_scooter", "lon": -77.04981616666667, "bike_id": "0171b048f6f872222c4fb04cabfd684d", "fusion_lat": 0.0, "name": "0171b048f6f872222c4fb04cabfd684d", "is_reserved": 0, "rental_uris": {"android": "https://dc.lft.to/lastmile_qr_scan", "ios": "https://dc.lft.to/lastmile_qr_scan"}, "fusion_lon": 0.0}, {"lat": 38.91204833333333, "is_disabled": 0, "type": "electric_scooter", "lon": -77.0021335, "bike_id": "ec0602190473c200b4a02e9d23bd052b", "fusion_lat": 0.0, "name": "ec0602190473c200b4a02e9d23bd052b", "is_reserved": 0, "rental_uris": {"android": "https://dc.lft.to/lastmile_qr_scan", "ios": "https://dc.lft.to/lastmile_qr_scan"}, "fusion_lon": 0.0}, {"lat": 38.84274633333333, "is_disabled": 0, "type": "electric_bike", "lon": -76.988459, "bike_id": "df1d7dbaa7b9164e7e5b0ff1947176de", "fusion_lat": 0.0, "name": "df1d7dbaa7b9164e7e5b0ff1947176de", "is_reserved": 0, "rental_uris": {"android": "https://dc.lft.to/lastmile_qr_scan", "ios": "https://dc.lft.to/lastmile_qr_scan"}, "fusion_lon": 0.0}, {"lat": 38.93235133333334, "is_disabled": 0, "type": "electric_scooter", "lon": -76.99603133333333, "bike_id": "1bddde0e503b6c278dd98f5940322c29", "fusion_lat": 0.0, "name": "1bddde0e503b6c278dd98f5940322c29", "is_reserved": 0, "rental_uris": {"android": "https://dc.lft.to/lastmile_qr_scan", "ios": "https://dc.lft.to/lastmile_qr_scan"}, "fusion_lon": 0.0}, {"lat": 38.887687166666666, "is_disabled": 0, "type": "electric_scooter", "lon": -76.95601216666667, "bike_id": "a3608fac82ff4fb4da74d03ffee1f264", "fusion_lat": 0.0, "name": "a3608fac82ff4fb4da74d03ffee1f264", "is_reserved": 0, "rental_uris": {"android": "https://dc.lft.to/lastmile_qr_scan", "ios": "https://dc.lft.to/lastmile_qr_scan"}, "fusion_lon": 0.0}, {"lat": 38.866319833333336, "is_disabled": 0, "type": "electric_scooter", "lon": -76.98698949999999, "bike_id": "d45af0e6bfed0bcaa14312a7258afa26", "fusion_lat": 0.0, "name": "d45af0e6bfed0bcaa14312a7258afa26", "is_reserved": 0, "rental_uris": {"android": "https://dc.lft.to/lastmile_qr_scan", "ios": "https://dc.lft.to/lastmile_qr_scan"}, "fusion_lon": 0.0}, {"lat": 38.93480733333333, "is_disabled": 0, "type": "electric_scooter", "lon": -77.03578233333333, "bike_id": "785acff8f8a2228e88ea0b4d7d85d71c", "fusion_lat": 0.0, "name": "785acff8f8a2228e88ea0b4d7d85d71c", "is_reserved": 0, "rental_uris": {"android": "https://dc.lft.to/lastmile_qr_scan", "ios": "https://dc.lft.to/lastmile_qr_scan"}, "fusion_lon": 0.0}, {"lat": 38.9015815, "is_disabled": 0, "type": "electric_bike", "lon": -77.02297666666666, "bike_id": "e4b4d7f76aac53e9e13e3b20afbc3728", "fusion_lat": 0.0, "name": "e4b4d7f76aac53e9e13e3b20afbc3728", "is_reserved": 0, "rental_uris": {"android": "https://dc.lft.to/lastmile_qr_scan", "ios": "https://dc.lft.to/lastmile_qr_scan"}, "fusion_lon": 0.0}, {"lat": 38.88492383333333, "is_disabled": 0, "type": "electric_scooter", "lon": -77.00712633333333, "bike_id": "7bd0e327ef4185077de5709599b23b5b", "fusion_lat": 0.0, "name": "7bd0e327ef4185077de5709599b23b5b", "is_reserved": 0, "rental_uris": {"android": "https://dc.lft.to/lastmile_qr_scan", "ios": "https://dc.lft.to/lastmile_qr_scan"}, "fusion_lon": 0.0}, {"lat": 38.898839333333335, "is_disabled": 0, "type": "electric_scooter", "lon": -77.05340383333333, "bike_id": "03f61aca2a574d39f6ec84625517e95f", "fusion_lat": 0.0, "name": "03f61aca2a574d39f6ec84625517e95f", "is_reserved": 0, "rental_uris": {"android": "https://dc.lft.to/lastmile_qr_scan", "ios": "https://dc.lft.to/lastmile_qr_scan"}, "fusion_lon": 0.0}, {"lat": 38.89918683333333, "is_disabled": 0, "type": "electric_scooter", "lon": -76.9337995, "bike_id": "b4dafc628dfcb687cfa6e73141775820", "fusion_lat": 0.0, "name": "b4dafc628dfcb687cfa6e73141775820", "is_reserved": 0, "rental_uris": {"android": "https://dc.lft.to/lastmile_qr_scan", "ios": "https://dc.lft.to/lastmile_qr_scan"}, "fusion_lon": 0.0}, {"lat": 38.955076166666665, "is_disabled": 0, "type": "electric_bike", "lon": -77.0699915, "bike_id": "b8556c00cea7887cbb334e732fe506c5", "fusion_lat": 0.0, "name": "b8556c00cea7887cbb334e732fe506c5", "is_reserved": 0, "rental_uris": {"android": "https://dc.lft.to/lastmile_qr_scan", "ios": "https://dc.lft.to/lastmile_qr_scan"}, "fusion_lon": 0.0}, {"lat": 38.863553333333336, "is_disabled": 0, "type": "electric_scooter", "lon": -76.99002883333333, "bike_id": "3722ac6fe269026fa00d9ebe8d53db02", "fusion_lat": 0.0, "name": "3722ac6fe269026fa00d9ebe8d53db02", "is_reserved": 0, "rental_uris": {"android": "https://dc.lft.to/lastmile_qr_scan", "ios": "https://dc.lft.to/lastmile_qr_scan"}, "fusion_lon": 0.0}, {"lat": 38.915572833333336, "is_disabled": 0, "type": "electric_scooter", "lon": -77.0242965, "bike_id": "a88823c11e13a2b16c4bf05910769826", "fusion_lat": 0.0, "name": "a88823c11e13a2b16c4bf05910769826", "is_reserved": 0, "rental_uris": {"android": "https://dc.lft.to/lastmile_qr_scan", "ios": "https://dc.lft.to/lastmile_qr_scan"}, "fusion_lon": 0.0}, {"lat": 38.9125665, "is_disabled": 0, "type": "electric_scooter", "lon": -77.047648, "bike_id": "a82ef09aac4a1f03c296635cb898d9fd", "fusion_lat": 0.0, "name": "a82ef09aac4a1f03c296635cb898d9fd", "is_reserved": 0, "rental_uris": {"android": "https://dc.lft.to/lastmile_qr_scan", "ios": "https://dc.lft.to/lastmile_qr_scan"}, "fusion_lon": 0.0}, {"lat": 38.848751, "is_disabled": 0, "type": "electric_scooter", "lon": -76.97696333333333, "bike_id": "36e870959df723b9b722dd34cafd9ba3", "fusion_lat": 0.0, "name": "36e870959df723b9b722dd34cafd9ba3", "is_reserved": 0, "rental_uris": {"android": "https://dc.lft.to/lastmile_qr_scan", "ios": "https://dc.lft.to/lastmile_qr_scan"}, "fusion_lon": 0.0}, {"lat": 38.95559, "is_disabled": 0, "type": "electric_bike", "lon": -76.9354445, "bike_id": "e77e257b0e2f0668f95e7ba740d5f180", "fusion_lat": 0.0, "name": "e77e257b0e2f0668f95e7ba740d5f180", "is_reserved": 0, "rental_uris": {"android": "https://dc.lft.to/lastmile_qr_scan", "ios": "https://dc.lft.to/lastmile_qr_scan"}, "fusion_lon": 0.0}, {"lat": 38.91118733333333, "is_disabled": 0, "type": "electric_scooter", "lon": -77.038262, "bike_id": "b3101b6375d199b9aefae2fdcf517a26", "fusion_lat": 0.0, "name": "b3101b6375d199b9aefae2fdcf517a26", "is_reserved": 0, "rental_uris": {"android": "https://dc.lft.to/lastmile_qr_scan", "ios": "https://dc.lft.to/lastmile_qr_scan"}, "fusion_lon": 0.0}, {"lat": 38.90636716666667, "is_disabled": 0, "type": "electric_scooter", "lon": -77.03385616666667, "bike_id": "d64c017ddee151a917c9af0072602cc2", "fusion_lat": 0.0, "name": "d64c017ddee151a917c9af0072602cc2", "is_reserved": 0, "rental_uris": {"android": "https://dc.lft.to/lastmile_qr_scan", "ios": "https://dc.lft.to/lastmile_qr_scan"}, "fusion_lon": 0.0}, {"lat": 38.9202825, "is_disabled": 0, "type": "electric_scooter", "lon": -77.03077183333333, "bike_id": "b71cb807a4f7c7629f3d1ef6d4a08268", "fusion_lat": 0.0, "name": "b71cb807a4f7c7629f3d1ef6d4a08268", "is_reserved": 0, "rental_uris": {"android": "https://dc.lft.to/lastmile_qr_scan", "ios": "https://dc.lft.to/lastmile_qr_scan"}, "fusion_lon": 0.0}, {"lat": 38.8598065, "is_disabled": 0, "type": "electric_bike", "lon": -77.05672766666666, "bike_id": "6109203da6cbef1f727233802a21131a", "fusion_lat": 0.0, "name": "6109203da6cbef1f727233802a21131a", "is_reserved": 0, "rental_uris": {"android": "https://dc.lft.to/lastmile_qr_scan", "ios": "https://dc.lft.to/lastmile_qr_scan"}, "fusion_lon": 0.0}, {"lat": 38.913409333333334, "is_disabled": 0, "type": "electric_scooter", "lon": -77.03187133333333, "bike_id": "6b9f97ebd09dbd74bba2af063f763811", "fusion_lat": 0.0, "name": "6b9f97ebd09dbd74bba2af063f763811", "is_reserved": 0, "rental_uris": {"android": "https://dc.lft.to/lastmile_qr_scan", "ios": "https://dc.lft.to/lastmile_qr_scan"}, "fusion_lon": 0.0}, {"lat": 38.92408016666667, "is_disabled": 0, "type": "electric_scooter", "lon": -77.05164716666667, "bike_id": "02a8a4551b5389e33f0c4fe2ce807d9c", "fusion_lat": 0.0, "name": "02a8a4551b5389e33f0c4fe2ce807d9c", "is_reserved": 0, "rental_uris": {"android": "https://dc.lft.to/lastmile_qr_scan", "ios": "https://dc.lft.to/lastmile_qr_scan"}, "fusion_lon": 0.0}, {"lat": 38.933900333333334, "is_disabled": 0, "type": "electric_scooter", "lon": -76.9951305, "bike_id": "424f3a85d261f616327348326800a145", "fusion_lat": 0.0, "name": "424f3a85d261f616327348326800a145", "is_reserved": 0, "rental_uris": {"android": "https://dc.lft.to/lastmile_qr_scan", "ios": "https://dc.lft.to/lastmile_qr_scan"}, "fusion_lon": 0.0}, {"lat": 38.896103, "is_disabled": 0, "type": "electric_scooter", "lon": -77.00919783333333, "bike_id": "6059562ce405768de36bff804c9a7094", "fusion_lat": 0.0, "name": "6059562ce405768de36bff804c9a7094", "is_reserved": 0, "rental_uris": {"android": "https://dc.lft.to/lastmile_qr_scan", "ios": "https://dc.lft.to/lastmile_qr_scan"}, "fusion_lon": 0.0}, {"lat": 38.93710633333333, "is_disabled": 0, "type": "electric_scooter", "lon": -77.061068, "bike_id": "2e322fc8932f78216a33bfd646262f0e", "fusion_lat": 0.0, "name": "2e322fc8932f78216a33bfd646262f0e", "is_reserved": 0, "rental_uris": {"android": "https://dc.lft.to/lastmile_qr_scan", "ios": "https://dc.lft.to/lastmile_qr_scan"}, "fusion_lon": 0.0}, {"lat": 38.915627, "is_disabled": 0, "type": "electric_scooter", "lon": -77.032253, "bike_id": "f55eea4656fc272d34d82fd95511d5a5", "fusion_lat": 0.0, "name": "f55eea4656fc272d34d82fd95511d5a5", "is_reserved": 0, "rental_uris": {"android": "https://dc.lft.to/lastmile_qr_scan", "ios": "https://dc.lft.to/lastmile_qr_scan"}, "fusion_lon": 0.0}, {"lat": 38.91524666666667, "is_disabled": 0, "type": "electric_scooter", "lon": -77.03195066666666, "bike_id": "fa9f7f4e0d553d0a22bbac862f54ac04", "fusion_lat": 0.0, "name": "fa9f7f4e0d553d0a22bbac862f54ac04", "is_reserved": 0, "rental_uris": {"android": "https://dc.lft.to/lastmile_qr_scan", "ios": "https://dc.lft.to/lastmile_qr_scan"}, "fusion_lon": 0.0}, {"lat": 38.9106145, "is_disabled": 0, "type": "electric_scooter", "lon": -77.043517, "bike_id": "dfc25d930d9f71c2e2980f38957fff13", "fusion_lat": 0.0, "name": "dfc25d930d9f71c2e2980f38957fff13", "is_reserved": 0, "rental_uris": {"android": "https://dc.lft.to/lastmile_qr_scan", "ios": "https://dc.lft.to/lastmile_qr_scan"}, "fusion_lon": 0.0}, {"lat": 38.935695833333334, "is_disabled": 0, "type": "electric_scooter", "lon": -77.032686, "bike_id": "057d03223dbaef135bc10335f59a0001", "fusion_lat": 0.0, "name": "057d03223dbaef135bc10335f59a0001", "is_reserved": 0, "rental_uris": {"android": "https://dc.lft.to/lastmile_qr_scan", "ios": "https://dc.lft.to/lastmile_qr_scan"}, "fusion_lon": 0.0}, {"lat": 38.928147833333334, "is_disabled": 0, "type": "electric_scooter", "lon": -77.02624466666667, "bike_id": "eb5f4428d5f32794c4ee1498cc9dbef9", "fusion_lat": 0.0, "name": "eb5f4428d5f32794c4ee1498cc9dbef9", "is_reserved": 0, "rental_uris": {"android": "https://dc.lft.to/lastmile_qr_scan", "ios": "https://dc.lft.to/lastmile_qr_scan"}, "fusion_lon": 0.0}, {"lat": 38.89856316666667, "is_disabled": 0, "type": "electric_bike", "lon": -76.93187933333333, "bike_id": "15a959de2d633e67df12ce9856168fd7", "fusion_lat": 0.0, "name": "15a959de2d633e67df12ce9856168fd7", "is_reserved": 0, "rental_uris": {"android": "https://dc.lft.to/lastmile_qr_scan", "ios": "https://dc.lft.to/lastmile_qr_scan"}, "fusion_lon": 0.0}, {"lat": 38.90364116666667, "is_disabled": 0, "type": "electric_scooter", "lon": -77.0449255, "bike_id": "55323c81bf87ff15688161e97996a74c", "fusion_lat": 0.0, "name": "55323c81bf87ff15688161e97996a74c", "is_reserved": 0, "rental_uris": {"android": "https://dc.lft.to/lastmile_qr_scan", "ios": "https://dc.lft.to/lastmile_qr_scan"}, "fusion_lon": 0.0}, {"lat": 38.89716416666667, "is_disabled": 0, "type": "electric_scooter", "lon": -77.00840866666667, "bike_id": "958c57c21ac3a11a007e76ed12a110ac", "fusion_lat": 0.0, "name": "958c57c21ac3a11a007e76ed12a110ac", "is_reserved": 0, "rental_uris": {"android": "https://dc.lft.to/lastmile_qr_scan", "ios": "https://dc.lft.to/lastmile_qr_scan"}, "fusion_lon": 0.0}, {"lat": 38.9111965, "is_disabled": 0, "type": "electric_scooter", "lon": -77.0373035, "bike_id": "f16bad9a24f4a06d86ae74e79b913bd7", "fusion_lat": 0.0, "name": "f16bad9a24f4a06d86ae74e79b913bd7", "is_reserved": 0, "rental_uris": {"android": "https://dc.lft.to/lastmile_qr_scan", "ios": "https://dc.lft.to/lastmile_qr_scan"}, "fusion_lon": 0.0}, {"lat": 38.91119066666667, "is_disabled": 0, "type": "electric_scooter", "lon": -77.03842433333334, "bike_id": "41f33a7c87ffc3e04c69772f0d3720b1", "fusion_lat": 0.0, "name": "41f33a7c87ffc3e04c69772f0d3720b1", "is_reserved": 0, "rental_uris": {"android": "https://dc.lft.to/lastmile_qr_scan", "ios": "https://dc.lft.to/lastmile_qr_scan"}, "fusion_lon": 0.0}, {"lat": 38.936112666666666, "is_disabled": 0, "type": "electric_scooter", "lon": -77.035431, "bike_id": "11eff51256c7778204ef45ed00f25ad9", "fusion_lat": 0.0, "name": "11eff51256c7778204ef45ed00f25ad9", "is_reserved": 0, "rental_uris": {"android": "https://dc.lft.to/lastmile_qr_scan", "ios": "https://dc.lft.to/lastmile_qr_scan"}, "fusion_lon": 0.0}, {"lat": 38.897549833333336, "is_disabled": 0, "type": "electric_scooter", "lon": -77.048049, "bike_id": "bd0d5a2ddde10962cc425cac111dd895", "fusion_lat": 0.0, "name": "bd0d5a2ddde10962cc425cac111dd895", "is_reserved": 0, "rental_uris": {"android": "https://dc.lft.to/lastmile_qr_scan", "ios": "https://dc.lft.to/lastmile_qr_scan"}, "fusion_lon": 0.0}, {"lat": 38.9246045, "is_disabled": 0, "type": "electric_bike", "lon": -77.208369, "bike_id": "c9d0f6d75adf5e837fd2a2633653ebc7", "fusion_lat": 0.0, "name": "c9d0f6d75adf5e837fd2a2633653ebc7", "is_reserved": 0, "rental_uris": {"android": "https://dc.lft.to/lastmile_qr_scan", "ios": "https://dc.lft.to/lastmile_qr_scan"}, "fusion_lon": 0.0}, {"lat": 38.84258783333333, "is_disabled": 0, "type": "electric_bike", "lon": -77.05832866666667, "bike_id": "98f3809cc9469facdce5be23136e66a0", "fusion_lat": 0.0, "name": "98f3809cc9469facdce5be23136e66a0", "is_reserved": 0, "rental_uris": {"android": "https://dc.lft.to/lastmile_qr_scan", "ios": "https://dc.lft.to/lastmile_qr_scan"}, "fusion_lon": 0.0}, {"lat": 38.91124, "is_disabled": 0, "type": "electric_scooter", "lon": -77.00321833333334, "bike_id": "867f8141c14092436beac5178e0c66e0", "fusion_lat": 0.0, "name": "867f8141c14092436beac5178e0c66e0", "is_reserved": 0, "rental_uris": {"android": "https://dc.lft.to/lastmile_qr_scan", "ios": "https://dc.lft.to/lastmile_qr_scan"}, "fusion_lon": 0.0}, {"lat": 38.9177135, "is_disabled": 0, "type": "electric_scooter", "lon": -77.0035425, "bike_id": "e9eeb0af6255b3622cc5f696bf00b99c", "fusion_lat": 0.0, "name": "e9eeb0af6255b3622cc5f696bf00b99c", "is_reserved": 0, "rental_uris": {"android": "https://dc.lft.to/lastmile_qr_scan", "ios": "https://dc.lft.to/lastmile_qr_scan"}, "fusion_lon": 0.0}, {"lat": 38.917177833333334, "is_disabled": 0, "type": "electric_scooter", "lon": -77.0386715, "bike_id": "80fadead47a25443175dfd0cdf70b118", "fusion_lat": 0.0, "name": "80fadead47a25443175dfd0cdf70b118", "is_reserved": 0, "rental_uris": {"android": "https://dc.lft.to/lastmile_qr_scan", "ios": "https://dc.lft.to/lastmile_qr_scan"}, "fusion_lon": 0.0}, {"lat": 38.90983816666667, "is_disabled": 0, "type": "electric_scooter", "lon": -77.03445166666667, "bike_id": "907619a0770c27210ccb88b0854c1068", "fusion_lat": 0.0, "name": "907619a0770c27210ccb88b0854c1068", "is_reserved": 0, "rental_uris": {"android": "https://dc.lft.to/lastmile_qr_scan", "ios": "https://dc.lft.to/lastmile_qr_scan"}, "fusion_lon": 0.0}, {"lat": 38.91701483333333, "is_disabled": 0, "type": "electric_scooter", "lon": -77.0426885, "bike_id": "f7c86c4c5765d436e661c7940ecf789b", "fusion_lat": 0.0, "name": "f7c86c4c5765d436e661c7940ecf789b", "is_reserved": 0, "rental_uris": {"android": "https://dc.lft.to/lastmile_qr_scan", "ios": "https://dc.lft.to/lastmile_qr_scan"}, "fusion_lon": 0.0}, {"lat": 38.8845545, "is_disabled": 0, "type": "electric_bike", "lon": -77.0966935, "bike_id": "7f9f08048ae13a43bb3c2f4e2c0e90d1", "fusion_lat": 0.0, "name": "7f9f08048ae13a43bb3c2f4e2c0e90d1", "is_reserved": 0, "rental_uris": {"android": "https://dc.lft.to/lastmile_qr_scan", "ios": "https://dc.lft.to/lastmile_qr_scan"}, "fusion_lon": 0.0},