{"data": {"bikes": [{"bike_id": "472e5def0b384e23d8bfe484e2fe5686", "type": "electric_scooter", "is_disabled": 0, "lat": 38.91472266666667, "rental_uris": {"ios": "https://dc.lft.to/lastmile_qr_scan", "android": "https://dc.lft.to/lastmile_qr_scan"}, "is_reserved": 0, "fusion_lon": 0.0, "fusion_lat": 0.0, "lon": -77.045491, "name": "472e5def0b384e23d8bfe484e2fe5686"}, {"bike_id": "db4440afb9dcf264e7130a9fb6cba183", "type": "electric_scooter", "is_disabled": 0, "lat": 38.91572933333333, "rental_uris": {"ios": "https://dc.lft.to/lastmile_qr_scan", "android": "https://dc.lft.to/lastmile_qr_scan"}, "is_reserved": 0, "fusion_lon": 0.0, "fusion_lat": 0.0, "lon": -77.02057116666667, "name": "db4440afb9dcf264e7130a9fb6cba183"}, {"bike_id": "3eb6c174fe7f9b2cffdcc6b175f9bef1", "type": "electric_scooter", "is_disabled": 0, "lat": 38.915771166666666, "rental_uris": {"ios": "https://dc.lft.to/lastmile_qr_scan", "android": "https://dc.lft.to/lastmile_qr_scan"}, "is_reserved": 0, "fusion_lon": 0.0, "fusion_lat": 0.0, "lon": -77.01999283333333, "name": "3eb6c174fe7f9b2cffdcc6b175f9bef1"}, {"bike_id": "ad97dceaf14a9c0bf29b864b81e689e0", "type": "electric_scooter", "is_disabled": 0, "lat": 38.9027755, "rental_uris": {"ios": "https://dc.lft.to/lastmile_qr_scan", "android": "https://dc.lft.to/lastmile_qr_scan"}, "is_reserved": 0, "fusion_lon": 0.0, "fusion_lat": 0.0, "lon": -77.01899316666666, "name": "ad97dceaf14a9c0bf29b864b81e689e0"}, {"bike_id": "07feea7de8a3beddd3d9e3006023875e", "type": "electric_scooter", "is_disabled": 0, "lat": 38.90304483333333, "rental_uris": {"ios": "https://dc.lft.to/lastmile_qr_scan", "android": "https://dc.lft.to/lastmile_qr_scan"}, "is_reserved": 0, "fusion_lon": 0.0, "fusion_lat": 0.0, "lon": -77.02370416666666, "name": "07feea7de8a3beddd3d9e3006023875e"}, {"bike_id": "261dfa84647553abb15640e587fc875f", "type": "electric_scooter", "is_disabled": 0, "lat": 38.89818016666667, "rental_uris": {"ios": "https://dc.lft.to/lastmile_qr_scan", "android": "https://dc.lft.to/lastmile_qr_scan"}, "is_reserved": 0, "fusion_lon": 0.0, "fusion_lat": 0.0, "lon": -77.0488625, "name": "261dfa84647553abb15640e587fc875f"}, {"bike_id": "d71e3406ce2cf4134649197f93245d8a", "type": "electric_scooter", "is_disabled": 0, "lat": 38.923378166666666, "rental_uris": {"ios": "https://dc.lft.to/lastmile_qr_scan", "android": "https://dc.lft.to/lastmile_qr_scan"}, "is_reserved": 0, "fusion_lon": 0.0, "fusion_lat": 0.0, "lon": -77.03537283333333, "name": "d71e3406ce2cf4134649197f93245d8a"}, {"bike_id": "3e97c1f0210384b6cd3e5339b90d8c18", "type": "electric_scooter", "is_disabled": 0, "lat": 38.895455, "rental_uris": {"ios": "https://dc.lft.to/lastmile_qr_scan", "android": "https://dc.lft.to/lastmile_qr_scan"}, "is_reserved": 0, "fusion_lon": 0.0, "fusion_lat": 0.0, "lon": -77.0110535, "name": "3e97c1f0210384b6cd3e5339b90d8c18"}, {"bike_id": "b7b6e26160a25b8a2708a427446cbb08", "type": "electric_scooter", "is_disabled": 0, "lat": 38.9021645, "rental_uris": {"ios": "https://dc.lft.to/lastmile_qr_scan", "android": "https://dc.lft.to/lastmile_qr_scan"}, "is_reserved": 0, "fusion_lon": 0.0, "fusion_lat": 0.0, "lon": -77.05138033333333, "name": "b7b6e26160a25b8a2708a427446cbb08"}, {"bike_id": "320757c35e51a1bb1f6b27738713456e", "type": "electric_scooter", "is_disabled": 0, "lat": 38.917665666666664, "rental_uris": {"ios": "https://dc.lft.to/lastmile_qr_scan", "android": "https://dc.lft.to/lastmile_qr_scan"}, "is_reserved": 0, "fusion_lon": 0.0, "fusion_lat": 0.0, "lon": -77.04772716666666, "name": "320757c35e51a1bb1f6b27738713456e"}, {"bike_id": "778f3b05db8ed8eaaaf492b66fe7d4d9", "type": "electric_scooter", "is_disabled": 0, "lat": 38.908538166666666, "rental_uris": {"ios": "https://dc.lft.to/lastmile_qr_scan", "android": "https://dc.lft.to/lastmile_qr_scan"}, "is_reserved": 0, "fusion_lon": 0.0, "fusion_lat": 0.0, "lon": -76.99968, "name": "778f3b05db8ed8eaaaf492b66fe7d4d9"}, {"bike_id": "283c20eed81425a9bac9eb46ca0b844e", "type": "electric_bike", "is_disabled": 0, "lat": 38.86262, "rental_uris": {"ios": "https://dc.lft.to/lastmile_qr_scan", "android": "https://dc.lft.to/lastmile_qr_scan"}, "is_reserved": 0, "fusion_lon": 0.0, "fusion_lat": 0.0, "lon": -76.983492, "name": "283c20eed81425a9bac9eb46ca0b844e"}, {"bike_id": "00f70d29be087cc3f2485b86d164e058", "type": "electric_scooter", "is_disabled": 0, "lat": 38.89615533333333, "rental_uris": {"ios": "https://dc.lft.to/lastmile_qr_scan", "android": "https://dc.lft.to/lastmile_qr_scan"}, "is_reserved": 0, "fusion_lon": 0.0, "fusion_lat": 0.0, "lon": -76.98166233333333, "name": "00f70d29be087cc3f2485b86d164e058"}, {"bike_id": "f9735ff74ed23f68d1cf9cf486cb6f7e", "type": "electric_scooter", "is_disabled": 0, "lat": 38.91352416666667, "rental_uris": {"ios": "https://dc.lft.to/lastmile_qr_scan", "android": "https://dc.lft.to/lastmile_qr_scan"}, "is_reserved": 0, "fusion_lon": 0.0, "fusion_lat": 0.0, "lon": -77.0259445, "name": "f9735ff74ed23f68d1cf9cf486cb6f7e"}, {"bike_id": "a89285866cf2d4a747c9441a479a3e1f", "type": "electric_scooter", "is_disabled": 0, "lat": 38.9449645, "rental_uris": {"ios": "https://dc.lft.to/lastmile_qr_scan", "android": "https://dc.lft.to/lastmile_qr_scan"}, "is_reserved": 0, "fusion_lon": 0.0, "fusion_lat": 0.0, "lon": -77.02620283333333, "name": "a89285866cf2d4a747c9441a479a3e1f"}, {"bike_id": "856f836b6245d7b48cb2eb6779be0c86", "type": "electric_scooter", "is_disabled": 0, "lat": 38.91201266666667, "rental_uris": {"ios": "https://dc.lft.to/lastmile_qr_scan", "android": "https://dc.lft.to/lastmile_qr_scan"}, "is_reserved": 0, "fusion_lon": 0.0, "fusion_lat": 0.0, "lon": -77.0319425, "name": "856f836b6245d7b48cb2eb6779be0c86"}, {"bike_id": "ab5c29cbc446bb09268ef7fc58dc10b5", "type": "electric_scooter", "is_disabled": 0, "lat": 38.90562666666667, "rental_uris": {"ios": "https://dc.lft.to/lastmile_qr_scan", "android": "https://dc.lft.to/lastmile_qr_scan"}, "is_reserved": 0, "fusion_lon": 0.0, "fusion_lat": 0.0, "lon": -76.99785716666666, "name": "ab5c29cbc446bb09268ef7fc58dc10b5"}, {"bike_id": "049e7d4f4aac06b7c44b8a20f7fef027", "type": "electric_scooter", "is_disabled": 0, "lat": 38.92488983333333, "rental_uris": {"ios": "https://dc.lft.to/lastmile_qr_scan", "android": "https://dc.lft.to/lastmile_qr_scan"}, "is_reserved": 0, "fusion_lon": 0.0, "fusion_lat": 0.0, "lon": -77.02201533333333, "name": "049e7d4f4aac06b7c44b8a20f7fef027"}, {"bike_id": "5ba3ff2555c29f562f080cff192bea06", "type": "electric_bike", "is_disabled": 0, "lat": 38.97884066666667, "rental_uris": {"ios": "https://dc.lft.to/lastmile_qr_scan", "android": "https://dc.lft.to/lastmile_qr_scan"}, "is_reserved": 0, "fusion_lon": 0.0, "fusion_lat": 0.0, "lon": -77.060284, "name": "5ba3ff2555c29f562f080cff192bea06"}, {"bike_id": "9de6b8b555afebc9c46f5f033c2ae020", "type": "electric_scooter", "is_disabled": 0, "lat": 38.9353595, "rental_uris": {"ios": "https://dc.lft.to/lastmile_qr_scan", "android": "https://dc.lft.to/lastmile_qr_scan"}, "is_reserved": 0, "fusion_lon": 0.0, "fusion_lat": 0.0, "lon": -77.023502, "name": "9de6b8b555afebc9c46f5f033c2ae020"}, {"bike_id": "a961e9b5e6b5fe05e81ff1d7154236cf", "type": "electric_scooter", "is_disabled": 0, "lat": 38.90944783333333, "rental_uris": {"ios": "https://dc.lft.to/lastmile_qr_scan", "android": "https://dc.lft.to/lastmile_qr_scan"}, "is_reserved": 0, "fusion_lon": 0.0, "fusion_lat": 0.0, "lon": -77.044264, "name": "a961e9b5e6b5fe05e81ff1d7154236cf"}, {"bike_id": "0b1d23b06364162029c42375b153b69b", "type": "electric_scooter", "is_disabled": 0, "lat": 38.920260999999996, "rental_uris": {"ios": "https://dc.lft.to/lastmile_qr_scan", "android": "https://dc.lft.to/lastmile_qr_scan"}, "is_reserved": 0, "fusion_lon": 0.0, "fusion_lat": 0.0, "lon": -77.03116566666667, "name": "0b1d23b06364162029c42375b153b69b"}, {"bike_id": "201c0cd10a81a6540963d1bb88313a01", "type": "electric_scooter", "is_disabled": 0, "lat": 38.9016725, "rental_uris": {"ios": "https://dc.lft.to/lastmile_qr_scan", "android": "https://dc.lft.to/lastmile_qr_scan"}, "is_reserved": 0, "fusion_lon": 0.0, "fusion_lat": 0.0, "lon": -77.059211, "name": "201c0cd10a81a6540963d1bb88313a01"}, {"bike_id": "4c8553c3adfeb315535f0188c0fc8b4b", "type": "electric_scooter", "is_disabled": 0, "lat": 38.912893, "rental_uris": {"ios": "https://dc.lft.to/lastmile_qr_scan", "android": "https://dc.lft.to/lastmile_qr_scan"}, "is_reserved": 0, "fusion_lon": 0.0, "fusion_lat": 0.0, "lon": -77.01977016666666, "name": "4c8553c3adfeb315535f0188c0fc8b4b"}, {"bike_id": "32c0443b3fdbf00fbcbe012b38683c8f", "type": "electric_bike", "is_disabled": 0, "lat": 38.876949333333336, "rental_uris": {"ios": "https://dc.lft.to/lastmile_qr_scan", "android": "https://dc.lft.to/lastmile_qr_scan"}, "is_reserved": 0, "fusion_lon": 0.0, "fusion_lat": 0.0, "lon": -77.1098275, "name": "32c0443b3fdbf00fbcbe012b38683c8f"}, {"bike_id": "3da52574fb915ad956a5ff2850b98996", "type": "electric_scooter", "is_disabled": 0, "lat": 38.92018133333333, "rental_uris": {"ios": "https://dc.lft.to/lastmile_qr_scan", "android": "https://dc.lft.to/lastmile_qr_scan"}, "is_reserved": 0, "fusion_lon": 0.0, "fusion_lat": 0.0, "lon": -77.03145483333333, "name": "3da52574fb915ad956a5ff2850b98996"}, {"bike_id": "839218eea7ae6897c38284391aff1967", "type": "electric_scooter", "is_disabled": 0, "lat": 38.888434833333335, "rental_uris": {"ios": "https://dc.lft.to/lastmile_qr_scan", "android": "https://dc.lft.to/lastmile_qr_scan"}, "is_reserved": 0, "fusion_lon": 0.0, "fusion_lat": 0.0, "lon": -76.98914966666666, "name": "839218eea7ae6897c38284391aff1967"}, {"bike_id": "1b8bb0f58cec2fbb3b549a4a5a48468a", "type": "electric_scooter", "is_disabled": 0, "lat": 38.863755, "rental_uris": {"ios": "https://dc.lft.to/lastmile_qr_scan", "android": "https://dc.lft.to/lastmile_qr_scan"}, "is_reserved": 0, "fusion_lon": 0.0, "fusion_lat": 0.0, "lon": -76.99051933333334, "name": "1b8bb0f58cec2fbb3b549a4a5a48468a"}, {"bike_id": "48b8fc66d60f948bc5013268f9f15400", "type": "electric_bike", "is_disabled": 0, "lat": 38.9083045, "rental_uris": {"ios": "https://dc.lft.to/lastmile_qr_scan", "android": "https://dc.lft.to/lastmile_qr_scan"}, "is_reserved": 0, "fusion_lon": 0.0, "fusion_lat": 0.0, "lon": -76.94158966666667, "name": "48b8fc66d60f948bc5013268f9f15400"}, {"bike_id": "d3647a6ccd7be6e9b599c4f12ba5a0fc", "type": "electric_scooter", "is_disabled": 0, "lat": 38.9067565, "rental_uris": {"ios": "https://dc.lft.to/lastmile_qr_scan", "android": "https://dc.lft.to/lastmile_qr_scan"}, "is_reserved": 0, "fusion_lon": 0.0, "fusion_lat": 0.0, "lon": -77.0104575, "name": "d3647a6ccd7be6e9b599c4f12ba5a0fc"}, {"bike_id": "3b93d5d2d6f5b4f44588e79d66e1e6e3", "type": "electric_scooter", "is_disabled": 0, "lat": 38.87948316666667, "rental_uris": {"ios": "https://dc.lft.to/lastmile_qr_scan", "android": "https://dc.lft.to/lastmile_qr_scan"}, "is_reserved": 0, "fusion_lon": 0.0, "fusion_lat": 0.0, "lon": -77.0038665, "name": "3b93d5d2d6f5b4f44588e79d66e1e6e3"}, {"bike_id": "0de711cbeb6e357bc642528cd37a3cb5", "type": "electric_scooter", "is_disabled": 0, "lat": 38.89695783333333, "rental_uris": {"ios": "https://dc.lft.to/lastmile_qr_scan", "android": "https://dc.lft.to/lastmile_qr_scan"}, "is_reserved": 0, "fusion_lon": 0.0, "fusion_lat": 0.0, "lon": -77.03324766666667, "name": "0de711cbeb6e357bc642528cd37a3cb5"}, {"bike_id": "f308cca63198a78cba10dfcb4ab2c4e6", "type": "electric_scooter", "is_disabled": 0, "lat": 38.90689283333333, "rental_uris": {"ios": "https://dc.lft.to/lastmile_qr_scan", "android": "https://dc.lft.to/lastmile_qr_scan"}, "is_reserved": 0, "fusion_lon": 0.0, "fusion_lat": 0.0, "lon": -77.05332033333333, "name": "f308cca63198a78cba10dfcb4ab2c4e6"}, {"bike_id": "ab26b1d6e17946d0518e2982cf8552a7", "type": "electric_scooter", "is_disabled": 0, "lat": 38.87389483333333, "rental_uris": {"ios": "https://dc.lft.to/lastmile_qr_scan", "android": "https://dc.lft.to/lastmile_qr_scan"}, "is_reserved": 0, "fusion_lon": 0.0, "fusion_lat": 0.0, "lon": -77.0002935, "name": "ab26b1d6e17946d0518e2982cf8552a7"}, {"bike_id": "a39a5e2df8e45196bc9c28f74e5ef2d5", "type": "electric_scooter", "is_disabled": 0, "lat": 38.917030833333335, "rental_uris": {"ios": "https://dc.lft.to/lastmile_qr_scan", "android": "https://dc.lft.to/lastmile_qr_scan"}, "is_reserved": 0, "fusion_lon": 0.0, "fusion_lat": 0.0, "lon": -77.01070333333334, "name": "a39a5e2df8e45196bc9c28f74e5ef2d5"}, {"bike_id": "372ff19c6b210fa0a4eb997f6150c9d2", "type": "electric_scooter", "is_disabled": 0, "lat": 38.9078845, "rental_uris": {"ios": "https://dc.lft.to/lastmile_qr_scan", "android": "https://dc.lft.to/lastmile_qr_scan"}, "is_reserved": 0, "fusion_lon": 0.0, "fusion_lat": 0.0, "lon": -77.02064466666667, "name": "372ff19c6b210fa0a4eb997f6150c9d2"}, {"bike_id": "307bc1c1eab25599ce7d47686ed3eaaa", "type": "electric_scooter", "is_disabled": 0, "lat": 38.92959916666667, "rental_uris": {"ios": "https://dc.lft.to/lastmile_qr_scan", "android": "https://dc.lft.to/lastmile_qr_scan"}, "is_reserved": 0, "fusion_lon": 0.0, "fusion_lat": 0.0, "lon": -77.02962666666667, "name": "307bc1c1eab25599ce7d47686ed3eaaa"}, {"bike_id": "e60df254534f1f9a9a4c39d75211fd9c", "type": "electric_scooter", "is_disabled": 0, "lat": 38.858913, "rental_uris": {"ios": "https://dc.lft.to/lastmile_qr_scan", "android": "https://dc.lft.to/lastmile_qr_scan"}, "is_reserved": 0, "fusion_lon": 0.0, "fusion_lat": 0.0, "lon": -76.99728816666666, "name": "e60df254534f1f9a9a4c39d75211fd9c"}, {"bike_id": "0bc8c7950bebd7f73fc1de07edef30af", "type": "electric_scooter", "is_disabled": 0, "lat": 38.89348533333333, "rental_uris": {"ios": "https://dc.lft.to/lastmile_qr_scan", "android": "https://dc.lft.to/lastmile_qr_scan"}, "is_reserved": 0, "fusion_lon": 0.0, "fusion_lat": 0.0, "lon": -76.99376833333334, "name": "0bc8c7950bebd7f73fc1de07edef30af"}, {"bike_id": "6f471325bf281167b45049778deaa771", "type": "electric_scooter", "is_disabled": 0, "lat": 38.8998795, "rental_uris": {"ios": "https://dc.lft.to/lastmile_qr_scan", "android": "https://dc.lft.to/lastmile_qr_scan"}, "is_reserved": 0, "fusion_lon": 0.0, "fusion_lat": 0.0, "lon": -76.94999083333333, "name": "6f471325bf281167b45049778deaa771"}, {"bike_id": "c4039c57d7f5f3adae3013246e231e7e", "type": "electric_scooter", "is_disabled": 0, "lat": 38.905366666666666, "rental_uris": {"ios": "https://dc.lft.to/lastmile_qr_scan", "android": "https://dc.lft.to/lastmile_qr_scan"}, "is_reserved": 0, "fusion_lon": 0.0, "fusion_lat": 0.0, "lon": -77.0571405, "name": "c4039c57d7f5f3adae3013246e231e7e"}, {"bike_id": "a0658080d89b1577cceeb62f303391ca", "type": "electric_scooter", "is_disabled": 0, "lat": 38.921814833333336, "rental_uris": {"ios": "https://dc.lft.to/lastmile_qr_scan", "android": "https://dc.lft.to/lastmile_qr_scan"}, "is_reserved": 0, "fusion_lon": 0.0, "fusion_lat": 0.0, "lon": -76.99795983333334, "name": "a0658080d89b1577cceeb62f303391ca"}, {"bike_id": "64a379f77a68867ba62655e5e94d4cab", "type": "electric_scooter", "is_disabled": 0, "lat": 38.9377385, "rental_uris": {"ios": "https://dc.lft.to/lastmile_qr_scan", "android": "https://dc.lft.to/lastmile_qr_scan"}, "is_reserved": 0, "fusion_lon": 0.0, "fusion_lat": 0.0, "lon": -77.0197055, "name": "64a379f77a68867ba62655e5e94d4cab"}, {"bike_id": "e39701c8290f816f549544eb28d77e62", "type": "electric_scooter", "is_disabled": 0, "lat": 38.91633783333333, "rental_uris": {"ios": "https://dc.lft.to/lastmile_qr_scan", "android": "https://dc.lft.to/lastmile_qr_scan"}, "is_reserved": 0, "fusion_lon": 0.0, "fusion_lat": 0.0, "lon": -77.0294865, "name": "e39701c8290f816f549544eb28d77e62"}, {"bike_id": "5dd93b356dfa7cf347f75cab87eeeedc", "type": "electric_bike", "is_disabled": 0, "lat": 38.86332766666666, "rental_uris": {"ios": "https://dc.lft.to/lastmile_qr_scan", "android": "https://dc.lft.to/lastmile_qr_scan"}, "is_reserved": 0, "fusion_lon": 0.0, "fusion_lat": 0.0, "lon": -76.9873, "name": "5dd93b356dfa7cf347f75cab87eeeedc"}, {"bike_id": "6dd57b3cd15a9e92d3e1e66fdba31261", "type": "electric_scooter", "is_disabled": 0, "lat": 38.902867, "rental_uris": {"ios": "https://dc.lft.to/lastmile_qr_scan", "android": "https://dc.lft.to/lastmile_qr_scan"}, "is_reserved": 0, "fusion_lon": 0.0, "fusion_lat": 0.0, "lon": -77.00353516666667, "name": "6dd57b3cd15a9e92d3e1e66fdba31261"}, {"bike_id": "31252055923a5b41f29ca7c3314ff6a1", "type": "electric_scooter", "is_disabled": 0, "lat": 38.902861, "rental_uris": {"ios": "https://dc.lft.to/lastmile_qr_scan", "android": "https://dc.lft.to/lastmile_qr_scan"}, "is_reserved": 0, "fusion_lon": 0.0, "fusion_lat": 0.0, "lon": -77.0034185, "name": "31252055923a5b41f29ca7c3314ff6a1"}, {"bike_id": "33f0f8c5815ceb7048d568b69397e030", "type": "electric_scooter", "is_disabled": 0, "lat": 38.90814866666667, "rental_uris": {"ios": "https://dc.lft.to/lastmile_qr_scan", "android": "https://dc.lft.to/lastmile_qr_scan"}, "is_reserved": 0, "fusion_lon": 0.0, "fusion_lat": 0.0, "lon": -77.06376266666666, "name": "33f0f8c5815ceb7048d568b69397e030"}, {"bike_id": "736a549c3d7779565884a187a419759e", "type": "electric_bike", "is_disabled": 0, "lat": 38.80921516666667, "rental_uris": {"ios": "https://dc.lft.to/lastmile_qr_scan", "android": "https://dc.lft.to/lastmile_qr_scan"}, "is_reserved": 0, "fusion_lon": 0.0, "fusion_lat": 0.0, "lon": -77.08649016666666, "name": "736a549c3d7779565884a187a419759e"}, {"bike_id": "da978b343594c553b881548a95168d13", "type": "electric_scooter", "is_disabled": 0, "lat": 38.95661483333333, "rental_uris": {"ios": "https://dc.lft.to/lastmile_qr_scan", "android": "https://dc.lft.to/lastmile_qr_scan"}, "is_reserved": 0, "fusion_lon": 0.0, "fusion_lat": 0.0, "lon": -77.01032866666667, "name": "da978b343594c553b881548a95168d13"}, {"bike_id": "472b99f72fb0cc7841d27e5a63b9317c", "type": "electric_scooter", "is_disabled": 0, "lat": 38.92856283333333, "rental_uris": {"ios": "https://dc.lft.to/lastmile_qr_scan", "android": "https://dc.lft.to/lastmile_qr_scan"}, "is_reserved": 0, "fusion_lon": 0.0, "fusion_lat": 0.0, "lon": -77.01945966666666, "name": "472b99f72fb0cc7841d27e5a63b9317c"}, {"bike_id": "cdddcd56078e2b14349d8a1c51c2b6eb", "type": "electric_scooter", "is_disabled": 0, "lat": 38.90691, "rental_uris": {"ios": "https://dc.lft.to/lastmile_qr_scan", "android": "https://dc.lft.to/lastmile_qr_scan"}, "is_reserved": 0, "fusion_lon": 0.0, "fusion_lat": 0.0, "lon": -77.0531175, "name": "cdddcd56078e2b14349d8a1c51c2b6eb"}, {"bike_id": "bcc2840b5b242e6c76e692e4b873c3ab", "type": "electric_scooter", "is_disabled": 0, "lat": 38.901408, "rental_uris": {"ios": "https://dc.lft.to/lastmile_qr_scan", "android": "https://dc.lft.to/lastmile_qr_scan"}, "is_reserved": 0, "fusion_lon": 0.0, "fusion_lat": 0.0, "lon": -77.01504583333333, "name": "bcc2840b5b242e6c76e692e4b873c3ab"}, {"bike_id": "2d55d369386fcea7ad69814e13afed13", "type": "electric_scooter", "is_disabled": 0, "lat": 38.92088916666667, "rental_uris": {"ios": "https://dc.lft.to/lastmile_qr_scan", "android": "https://dc.lft.to/lastmile_qr_scan"}, "is_reserved": 0, "fusion_lon": 0.0, "fusion_lat": 0.0, "lon": -77.02527866666667, "name": "2d55d369386fcea7ad69814e13afed13"}, {"bike_id": "85dcaa47e9fcaba39cc53af93e5d91a0", "type": "electric_scooter", "is_disabled": 0, "lat": 38.91117533333333, "rental_uris": {"ios": "https://dc.lft.to/lastmile_qr_scan", "android": "https://dc.lft.to/lastmile_qr_scan"}, "is_reserved": 0, "fusion_lon": 0.0, "fusion_lat": 0.0, "lon": -77.02239433333334, "name": "85dcaa47e9fcaba39cc53af93e5d91a0"}, {"bike_id": "b850faae5efa946f4aa835342fa6d967", "type": "electric_scooter", "is_disabled": 0, "lat": 38.9215155, "rental_uris": {"ios": "https://dc.lft.to/lastmile_qr_scan", "android": "https://dc.lft.to/lastmile_qr_scan"}, "is_reserved": 0, "fusion_lon": 0.0, "fusion_lat": 0.0, "lon": -77.0353325, "name": "b850faae5efa946f4aa835342fa6d967"}, {"bike_id": "123e48dd05348d3a832f74db4e89f330", "type": "electric_scooter", "is_disabled": 0, "lat": 38.89839516666667, "rental_uris": {"ios": "https://dc.lft.to/lastmile_qr_scan", "android": "https://dc.lft.to/lastmile_qr_scan"}, "is_reserved": 0, "fusion_lon": 0.0, "fusion_lat": 0.0, "lon": -77.0282675, "name": "123e48dd05348d3a832f74db4e89f330"}, {"bike_id": "f68b885885ac0765fac7dff1514ba6d0", "type": "electric_scooter", "is_disabled": 0, "lat": 38.87628766666667, "rental_uris": {"ios": "https://dc.lft.to/lastmile_qr_scan", "android": "https://dc.lft.to/lastmile_qr_scan"}, "is_reserved": 0, "fusion_lon": 0.0, "fusion_lat": 0.0, "lon": -76.9652345, "name": "f68b885885ac0765fac7dff1514ba6d0"}, {"bike_id": "bdf89debf5970de09ca53705c9305e6b", "type": "electric_scooter", "is_disabled": 0, "lat": 38.870675, "rental_uris": {"ios": "https://dc.lft.to/lastmile_qr_scan", "android": "https://dc.lft.to/lastmile_qr_scan"}, "is_reserved": 0, "fusion_lon": 0.0, "fusion_lat": 0.0, "lon": -77.011881, "name": "bdf89debf5970de09ca53705c9305e6b"}, {"bike_id": "d78a622a7df6242430d9148b22824585", "type": "electric_scooter", "is_disabled": 0, "lat": 38.931987, "rental_uris": {"ios": "https://dc.lft.to/lastmile_qr_scan", "android": "https://dc.lft.to/lastmile_qr_scan"}, "is_reserved": 0, "fusion_lon": 0.0, "fusion_lat": 0.0, "lon": -77.019621, "name": "d78a622a7df6242430d9148b22824585"}, {"bike_id": "27ba11c0e52f0891ee1d26bfe15c78ff", "type": "electric_scooter", "is_disabled": 0, "lat": 38.920772666666664, "rental_uris": {"ios": "https://dc.lft.to/lastmile_qr_scan", "android": "https://dc.lft.to/lastmile_qr_scan"}, "is_reserved": 0, "fusion_lon": 0.0, "fusion_lat": 0.0, "lon": -77.02540916666666, "name": "27ba11c0e52f0891ee1d26bfe15c78ff"}, {"bike_id": "29d66db0d50e202a5374800d9695ac40", "type": "electric_scooter", "is_disabled": 0, "lat": 38.92265716666667, "rental_uris": {"ios": "https://dc.lft.to/lastmile_qr_scan", "android": "https://dc.lft.to/lastmile_qr_scan"}, "is_reserved": 0, "fusion_lon": 0.0, "fusion_lat": 0.0, "lon": -77.03404683333333, "name": "29d66db0d50e202a5374800d9695ac40"}, {"bike_id": "d6ffcbe4254bbb2fc7f27edfd2a2042c", "type": "electric_scooter", "is_disabled": 0, "lat": 38.94105283333333, "rental_uris": {"ios": "https://dc.lft.to/lastmile_qr_scan", "android": "https://dc.lft.to/lastmile_qr_scan"}, "is_reserved": 0, "fusion_lon": 0.0, "fusion_lat": 0.0, "lon": -77.02535616666667, "name": "d6ffcbe4254bbb2fc7f27edfd2a2042c"}, {"bike_id": "0a469e66f928cd4e5d51ca84752c156c", "type": "electric_scooter", "is_disabled": 0, "lat": 38.91241133333333, "rental_uris": {"ios": "https://dc.lft.to/lastmile_qr_scan", "android": "https://dc.lft.to/lastmile_qr_scan"}, "is_reserved": 0, "fusion_lon": 0.0, "fusion_lat": 0.0, "lon": -77.00114066666667, "name": "0a469e66f928cd4e5d51ca84752c156c"}, {"bike_id": "fa5a349501ac39a605a446cc6bc109d7", "type": "electric_scooter", "is_disabled": 0, "lat": 38.9112145, "rental_uris": {"ios": "https://dc.lft.to/lastmile_qr_scan", "android": "https://dc.lft.to/lastmile_qr_scan"}, "is_reserved": 0, "fusion_lon": 0.0, "fusion_lat": 0.0, "lon": -77.04972866666667, "name": "fa5a349501ac39a605a446cc6bc109d7"}, {"bike_id": "39e3742ea0ed8d38aec45466e9a4c568", "type": "electric_scooter", "is_disabled": 0, "lat": 38.905632, "rental_uris": {"ios": "https://dc.lft.to/lastmile_qr_scan", "android": "https://dc.lft.to/lastmile_qr_scan"}, "is_reserved": 0, "fusion_lon": 0.0, "fusion_lat": 0.0, "lon": -77.0461995, "name": "39e3742ea0ed8d38aec45466e9a4c568"}, {"bike_id": "a578490720aa20a17b8b9605cec2b717", "type": "electric_scooter", "is_disabled": 0, "lat": 38.92442666666667, "rental_uris": {"ios": "https://dc.lft.to/lastmile_qr_scan", "android": "https://dc.lft.to/lastmile_qr_scan"}, "is_reserved": 0, "fusion_lon": 0.0, "fusion_lat": 0.0, "lon": -77.03278416666667, "name": "a578490720aa20a17b8b9605cec2b717"}, {"bike_id": "36bdf43ffe4ab25977a7823c4827b9d9", "type": "electric_scooter", "is_disabled": 0, "lat": 38.895427166666664, "rental_uris": {"ios": "https://dc.lft.to/lastmile_qr_scan", "android": "https://dc.lft.to/lastmile_qr_scan"}, "is_reserved": 0, "fusion_lon": 0.0, "fusion_lat": 0.0, "lon": -76.949247, "name": "36bdf43ffe4ab25977a7823c4827b9d9"}, {"bike_id": "2f8f03207ab0eca9fc75d05769ebc4d3", "type": "electric_scooter", "is_disabled": 0, "lat": 38.922897166666665, "rental_uris": {"ios": "https://dc.lft.to/lastmile_qr_scan", "android": "https://dc.lft.to/lastmile_qr_scan"}, "is_reserved": 0, "fusion_lon": 0.0, "fusion_lat": 0.0, "lon": -77.02242583333333, "name": "2f8f03207ab0eca9fc75d05769ebc4d3"}, {"bike_id": "9f9c0b6483f7783c349613754742eea0", "type": "electric_scooter", "is_disabled": 0, "lat": 38.9244665, "rental_uris": {"ios": "https://dc.lft.to/lastmile_qr_scan", "android": "https://dc.lft.to/lastmile_qr_scan"}, "is_reserved": 0, "fusion_lon": 0.0, "fusion_lat": 0.0, "lon": -77.041088, "name": "9f9c0b6483f7783c349613754742eea0"}, {"bike_id": "8020f45a0e56f4667492ec042fa70759", "type": "electric_scooter", "is_disabled": 0, "lat": 38.91552, "rental_uris": {"ios": "https://dc.lft.to/lastmile_qr_scan", "android": "https://dc.lft.to/lastmile_qr_scan"}, "is_reserved": 0, "fusion_lon": 0.0, "fusion_lat": 0.0, "lon": -77.03234, "name": "8020f45a0e56f4667492ec042fa70759"}, {"bike_id": "030fec9a94ebf66abe10f4b573470047", "type": "electric_bike", "is_disabled": 0, "lat": 38.9436585, "rental_uris": {"ios": "https://dc.lft.to/lastmile_qr_scan", "android": "https://dc.lft.to/lastmile_qr_scan"}, "is_reserved": 0, "fusion_lon": 0.0, "fusion_lat": 0.0, "lon": -76.96780533333333, "name": "030fec9a94ebf66abe10f4b573470047"}, {"bike_id": "0e443a1411182651c2edd4449b146ea7", "type": "electric_scooter", "is_disabled": 0, "lat": 38.923141, "rental_uris": {"ios": "https://dc.lft.to/lastmile_qr_scan", "android": "https://dc.lft.to/lastmile_qr_scan"}, "is_reserved": 0, "fusion_lon": 0.0, "fusion_lat": 0.0, "lon": -77.046042, "name": "0e443a1411182651c2edd4449b146ea7"}, {"bike_id": "dea885d2dae35e9b8895640c92b6f7da", "type": "electric_scooter", "is_disabled": 0, "lat": 38.90054133333334, "rental_uris": {"ios": "https://dc.lft.to/lastmile_qr_scan", "android": "https://dc.lft.to/lastmile_qr_scan"}, "is_reserved": 0, "fusion_lon": 0.0, "fusion_lat": 0.0, "lon": -77.00767716666667, "name": "dea885d2dae35e9b8895640c92b6f7da"}, {"bike_id": "99202871c8deb0aa6ba9f0736c65d5dc", "type": "electric_scooter", "is_disabled": 0, "lat": 38.906056666666665, "rental_uris": {"ios": "https://dc.lft.to/lastmile_qr_scan", "android": "https://dc.lft.to/lastmile_qr_scan"}, "is_reserved": 0, "fusion_lon": 0.0, "fusion_lat": 0.0, "lon": -77.00578533333334, "name": "99202871c8deb0aa6ba9f0736c65d5dc"}, {"bike_id": "8dd09f4b45795d3de97343a043af9ab0", "type": "electric_scooter", "is_disabled": 0, "lat": 38.923789666666664, "rental_uris": {"ios": "https://dc.lft.to/lastmile_qr_scan", "android": "https://dc.lft.to/lastmile_qr_scan"}, "is_reserved": 0, "fusion_lon": 0.0, "fusion_lat": 0.0, "lon": -77.05252766666666, "name": "8dd09f4b45795d3de97343a043af9ab0"}, {"bike_id": "d0ad61409d7328d04f9889a1d6d35f35", "type": "electric_scooter", "is_disabled": 0, "lat": 38.892761, "rental_uris": {"ios": "https://dc.lft.to/lastmile_qr_scan", "android": "https://dc.lft.to/lastmile_qr_scan"}, "is_reserved": 0, "fusion_lon": 0.0, "fusion_lat": 0.0, "lon": -77.02371633333334, "name": "d0ad61409d7328d04f9889a1d6d35f35"}, {"bike_id": "5ddb83f797532ad57040dba64696b806", "type": "electric_scooter", "is_disabled": 0, "lat": 38.912470166666665, "rental_uris": {"ios": "https://dc.lft.to/lastmile_qr_scan", "android": "https://dc.lft.to/lastmile_qr_scan"}, "is_reserved": 0, "fusion_lon": 0.0, "fusion_lat": 0.0, "lon": -77.03201716666666, "name": "5ddb83f797532ad57040dba64696b806"}, {"bike_id": "04f2136a5e362a5da4184da80b635efa", "type": "electric_bike", "is_disabled": 0, "lat": 38.924489, "rental_uris": {"ios": "https://dc.lft.to/lastmile_qr_scan", "android": "https://dc.lft.to/lastmile_qr_scan"}, "is_reserved": 0, "fusion_lon": 0.0, "fusion_lat": 0.0, "lon": -77.22565816666666, "name": "04f2136a5e362a5da4184da80b635efa"}, {"bike_id": "0b0f7c9562f18ddeabd158486aa77610", "type": "electric_scooter", "is_disabled": 0, "lat": 38.91113983333334, "rental_uris": {"ios": "https://dc.lft.to/lastmile_qr_scan", "android": "https://dc.lft.to/lastmile_qr_scan"}, "is_reserved": 0, "fusion_lon": 0.0, "fusion_lat": 0.0, "lon": -77.03913266666666, "name": "0b0f7c9562f18ddeabd158486aa77610"}, {"bike_id": "caa3466ef773b62dee29fed9cf776ec6", "type": "electric_scooter", "is_disabled": 0, "lat": 38.906592833333335, "rental_uris": {"ios": "https://dc.lft.to/lastmile_qr_scan", "android": "https://dc.lft.to/lastmile_qr_scan"}, "is_reserved": 0, "fusion_lon": 0.0, "fusion_lat": 0.0, "lon": -77.01042566666666, "name": "caa3466ef773b62dee29fed9cf776ec6"}, {"bike_id": "4b6b6fa1f80d6525f31248932b3ea6d5", "type": "electric_scooter", "is_disabled": 0, "lat": 38.92316866666667, "rental_uris": {"ios": "https://dc.lft.to/lastmile_qr_scan", "android": "https://dc.lft.to/lastmile_qr_scan"}, "is_reserved": 0, "fusion_lon": 0.0, "fusion_lat": 0.0, "lon": -77.042083, "name": "4b6b6fa1f80d6525f31248932b3ea6d5"}, {"bike_id": "da753c531c6fc9185440948f25ffb053", "type": "electric_scooter", "is_disabled": 0, "lat": 38.9353915, "rental_uris": {"ios": "https://dc.lft.to/lastmile_qr_scan", "android": "https://dc.lft.to/lastmile_qr_scan"}, "is_reserved": 0, "fusion_lon": 0.0, "fusion_lat": 0.0, "lon": -77.02963033333333, "name": "da753c531c6fc9185440948f25ffb053"}, {"bike_id": "caed654f71dc2047e75842454535da78", "type": "electric_bike", "is_disabled": 0, "lat": 38.95595866666667, "rental_uris": {"ios": "https://dc.lft.to/lastmile_qr_scan", "android": "https://dc.lft.to/lastmile_qr_scan"}, "is_reserved": 0, "fusion_lon": 0.0, "fusion_lat": 0.0, "lon": -77.08793733333333, "name": "caed654f71dc2047e75842454535da78"}, {"bike_id": "1a225be843ca7ee50820a883e661c705", "type": "electric_scooter", "is_disabled": 0, "lat": 38.972362333333336, "rental_uris": {"ios": "https://dc.lft.to/lastmile_qr_scan", "android": "https://dc.lft.to/lastmile_qr_scan"}, "is_reserved": 0, "fusion_lon": 0.0, "fusion_lat": 0.0, "lon": -77.02685683333333, "name": "1a225be843ca7ee50820a883e661c705"}, {"bike_id": "e338207336c1dc41d15b38c0575b9cd6", "type": "electric_bike", "is_disabled": 0, "lat": 38.95714, "rental_uris": {"ios": "https://dc.lft.to/lastmile_qr_scan", "android": "https://dc.lft.to/lastmile_qr_scan"}, "is_reserved": 0, "fusion_lon": 0.0, "fusion_lat": 0.0, "lon": -77.00279633333334, "name": "e338207336c1dc41d15b38c0575b9cd6"}, {"bike_id": "d23e6a56880ac6232e6ae0451940e5ba", "type": "electric_scooter", "is_disabled": 0, "lat": 38.905584833333336, "rental_uris": {"ios": "https://dc.lft.to/lastmile_qr_scan", "android": "https://dc.lft.to/lastmile_qr_scan"}, "is_reserved": 0, "fusion_lon": 0.0, "fusion_lat": 0.0, "lon": -77.05015233333333, "name": "d23e6a56880ac6232e6ae0451940e5ba"}, {"bike_id": "83a2c0ef52a538c5a86c48ce709072a3", "type": "electric_bike", "is_disabled": 0, "lat": 38.96475366666667, "rental_uris": {"ios": "https://dc.lft.to/lastmile_qr_scan", "android": "https://dc.lft.to/lastmile_qr_scan"}, "is_reserved": 0, "fusion_lon": 0.0, "fusion_lat": 0.0, "lon": -77.03562833333334, "name": "83a2c0ef52a538c5a86c48ce709072a3"}, {"bike_id": "56480f87947497902d64497c9ec29306", "type": "electric_scooter", "is_disabled": 0, "lat": 38.885655666666665, "rental_uris": {"ios": "https://dc.lft.to/lastmile_qr_scan", "android": "https://dc.lft.to/lastmile_qr_scan"}, "is_reserved": 0, "fusion_lon": 0.0, "fusion_lat": 0.0, "lon": -77.00210283333334, "name": "56480f87947497902d64497c9ec29306"}, {"bike_id": "85f02e70ff564d61147ee715d90aae7e", "type": "electric_scooter", "is_disabled": 0, "lat": 38.93676166666667, "rental_uris": {"ios": "https://dc.lft.to/lastmile_qr_scan", "android": "https://dc.lft.to/lastmile_qr_scan"}, "is_reserved": 0, "fusion_lon": 0.0, "fusion_lat": 0.0, "lon": -77.035893, "name": "85f02e70ff564d61147ee715d90aae7e"}, {"bike_id": "c825004a06bb8c4ba679be837b2226fb", "type": "electric_scooter", "is_disabled": 0, "lat": 38.92478283333333, "rental_uris": {"ios": "https://dc.lft.to/lastmile_qr_scan", "android": "https://dc.lft.to/lastmile_qr_scan"}, "is_reserved": 0, "fusion_lon": 0.0, "fusion_lat": 0.0, "lon": -77.03542616666667, "name": "c825004a06bb8c4ba679be837b2226fb"}, {"bike_id": "24f30fbbaf7628f7a189df4a7931167e", "type": "electric_scooter", "is_disabled": 0, "lat": 38.912456166666665, "rental_uris": {"ios": "https://dc.lft.to/lastmile_qr_scan", "android": "https://dc.lft.to/lastmile_qr_scan"}, "is_reserved": 0, "fusion_lon": 0.0, "fusion_lat": 0.0, "lon": -77.0222695, "name": "24f30fbbaf7628f7a189df4a7931167e"}, {"bike_id": "fc7a093003d1af91afb1cc324b12455a", "type": "electric_scooter", "is_disabled": 0, "lat": 38.9429375, "rental_uris": {"ios": "https://dc.lft.to/lastmile_qr_scan", "android": "https://dc.lft.to/lastmile_qr_scan"}, "is_reserved": 0, "fusion_lon": 0.0, "fusion_lat": 0.0, "lon": -77.02173816666667, "name": "fc7a093003d1af91afb1cc324b12455a"}, {"bike_id": "ca0474d2ec64369bc8f2e14e57ddeb84", "type": "electric_scooter", "is_disabled": 0, "lat": 38.913804666666664, "rental_uris": {"ios": "https://dc.lft.to/lastmile_qr_scan", "android": "https://dc.lft.to/lastmile_qr_scan"}, "is_reserved": 0, "fusion_lon": 0.0, "fusion_lat": 0.0, "lon": -77.041407, "name": "ca0474d2ec64369bc8f2e14e57ddeb84"}, {"bike_id": "2d7c9d8e4803e1aee3702e870e558405", "type": "electric_scooter", "is_disabled": 0, "lat": 38.92207366666667, "rental_uris": {"ios": "https://dc.lft.to/lastmile_qr_scan", "android": "https://dc.lft.to/lastmile_qr_scan"}, "is_reserved": 0, "fusion_lon": 0.0, "fusion_lat": 0.0, "lon": -77.04018683333334, "name": "2d7c9d8e4803e1aee3702e870e558405"}, {"bike_id": "c83f53b9c605c38130de268fb8361693", "type": "electric_scooter", "is_disabled": 0, "lat": 38.916210166666666, "rental_uris": {"ios": "https://dc.lft.to/lastmile_qr_scan", "android": "https://dc.lft.to/lastmile_qr_scan"}, "is_reserved": 0, "fusion_lon": 0.0, "fusion_lat": 0.0, "lon": -77.023138, "name": "c83f53b9c605c38130de268fb8361693"}, {"bike_id": "37bb2c3bcc83c3968048d44248cbe0d1", "type": "electric_scooter", "is_disabled": 0, "lat": 38.9035645, "rental_uris": {"ios": "https://dc.lft.to/lastmile_qr_scan", "android": "https://dc.lft.to/lastmile_qr_scan"}, "is_reserved": 0, "fusion_lon": 0.0, "fusion_lat": 0.0, "lon": -77.00739966666667, "name": "37bb2c3bcc83c3968048d44248cbe0d1"}, {"bike_id": "e290418e3362d79f3391c524a0e35238", "type": "electric_scooter", "is_disabled": 0, "lat": 38.900289, "rental_uris": {"ios": "https://dc.lft.to/lastmile_qr_scan", "android": "https://dc.lft.to/lastmile_qr_scan"}, "is_reserved": 0, "fusion_lon": 0.0, "fusion_lat": 0.0, "lon": -76.99249283333333, "name": "e290418e3362d79f3391c524a0e35238"}, {"bike_id": "f93f1b8d15ce3438f69afcfa97e3808d", "type": "electric_scooter", "is_disabled": 0, "lat": 38.902883333333335, "rental_uris": {"ios": "https://dc.lft.to/lastmile_qr_scan", "android": "https://dc.lft.to/lastmile_qr_scan"}, "is_reserved": 0, "fusion_lon": 0.0, "fusion_lat": 0.0, "lon": -77.003437, "name": "f93f1b8d15ce3438f69afcfa97e3808d"}, {"bike_id": "046ffd7501d014cea69d00b2e0fffadf", "type": "electric_scooter", "is_disabled": 0, "lat": 38.90121633333333, "rental_uris": {"ios": "https://dc.lft.to/lastmile_qr_scan", "android": "https://dc.lft.to/lastmile_qr_scan"}, "is_reserved": 0, "fusion_lon": 0.0, "fusion_lat": 0.0, "lon": -76.92954133333333, "name": "046ffd7501d014cea69d00b2e0fffadf"}, {"bike_id": "d41a1ca5818302b13b5f6376f678758c", "type": "electric_scooter", "is_disabled": 0, "lat": 38.87336883333333, "rental_uris": {"ios": "https://dc.lft.to/lastmile_qr_scan", "android": "https://dc.lft.to/lastmile_qr_scan"}, "is_reserved": 0, "fusion_lon": 0.0, "fusion_lat": 0.0, "lon": -76.96780983333333, "name": "d41a1ca5818302b13b5f6376f678758c"}, {"bike_id": "27a57a84047eed36ddeb485626a12757", "type": "electric_scooter", "is_disabled": 0, "lat": 38.887397, "rental_uris": {"ios": "https://dc.lft.to/lastmile_qr_scan", "android": "https://dc.lft.to/lastmile_qr_scan"}, "is_reserved": 0, "fusion_lon": 0.0, "fusion_lat": 0.0, "lon": -77.0153635, "name": "27a57a84047eed36ddeb485626a12757"}, {"bike_id": "4e418ccaeac378fdd57368fe727486f1", "type": "electric_scooter", "is_disabled": 0, "lat": 38.923353, "rental_uris": {"ios": "https://dc.lft.to/lastmile_qr_scan", "android": "https://dc.lft.to/lastmile_qr_scan"}, "is_reserved": 0, "fusion_lon": 0.0, "fusion_lat": 0.0, "lon": -77.03783333333334, "name": "4e418ccaeac378fdd57368fe727486f1"}, {"bike_id": "aa67cb569e3c583293936cd3537d6b6a", "type": "electric_scooter", "is_disabled": 0, "lat": 38.899202333333335, "rental_uris": {"ios": "https://dc.lft.to/lastmile_qr_scan", "android": "https://dc.lft.to/lastmile_qr_scan"}, "is_reserved": 0, "fusion_lon": 0.0, "fusion_lat": 0.0, "lon": -77.03943216666667, "name": "aa67cb569e3c583293936cd3537d6b6a"}, {"bike_id": "23b4cb1072d443c0fb5b257fd2ee22dd", "type": "electric_scooter", "is_disabled": 0, "lat": 38.95631733333333, "rental_uris": {"ios": "https://dc.lft.to/lastmile_qr_scan", "android": "https://dc.lft.to/lastmile_qr_scan"}, "is_reserved": 0, "fusion_lon": 0.0, "fusion_lat": 0.0, "lon": -77.036141, "name": "23b4cb1072d443c0fb5b257fd2ee22dd"}, {"bike_id": "88454a4a922a6881bf4e644e5422285f", "type": "electric_bike", "is_disabled": 0, "lat": 38.97396283333333, "rental_uris": {"ios": "https://dc.lft.to/lastmile_qr_scan", "android": "https://dc.lft.to/lastmile_qr_scan"}, "is_reserved": 0, "fusion_lon": 0.0, "fusion_lat": 0.0, "lon": -77.06455883333334, "name": "88454a4a922a6881bf4e644e5422285f"}, {"bike_id": "4d8f8d727da83ea55fb9c8e00afe54fb", "type": "electric_scooter", "is_disabled": 0, "lat": 38.873389, "rental_uris": {"ios": "https://dc.lft.to/lastmile_qr_scan", "android": "https://dc.lft.to/lastmile_qr_scan"}, "is_reserved": 0, "fusion_lon": 0.0, "fusion_lat": 0.0, "lon": -77.0063195, "name": "4d8f8d727da83ea55fb9c8e00afe54fb"}, {"bike_id": "e161c5861fefc61607f176dc3bab8d23", "type": "electric_scooter", "is_disabled": 0, "lat": 38.87925283333333, "rental_uris": {"ios": "https://dc.lft.to/lastmile_qr_scan", "android": "https://dc.lft.to/lastmile_qr_scan"}, "is_reserved": 0, "fusion_lon": 0.0, "fusion_lat": 0.0, "lon": -77.00881066666666, "name": "e161c5861fefc61607f176dc3bab8d23"}, {"bike_id": "1f8ab7261699bdada077e0cd1b4f355a", "type": "electric_scooter", "is_disabled": 0, "lat": 38.8826205, "rental_uris": {"ios": "https://dc.lft.to/lastmile_qr_scan", "android": "https://dc.lft.to/lastmile_qr_scan"}, "is_reserved": 0, "fusion_lon": 0.0, "fusion_lat": 0.0, "lon": -76.995075, "name": "1f8ab7261699bdada077e0cd1b4f355a"}, {"bike_id": "1537058d8d28d8058e6f186a88235c17", "type": "electric_scooter", "is_disabled": 0, "lat": 38.925253, "rental_uris": {"ios": "https://dc.lft.to/lastmile_qr_scan", "android": "https://dc.lft.to/lastmile_qr_scan"}, "is_reserved": 0, "fusion_lon": 0.0, "fusion_lat": 0.0, "lon": -77.0412575, "name": "1537058d8d28d8058e6f186a88235c17"}, {"bike_id": "5955bfe415178711010da9aafd941ba0", "type": "electric_scooter", "is_disabled": 0, "lat": 38.9110515, "rental_uris": {"ios": "https://dc.lft.to/lastmile_qr_scan", "android": "https://dc.lft.to/lastmile_qr_scan"}, "is_reserved": 0, "fusion_lon": 0.0, "fusion_lat": 0.0, "lon": -77.02445516666667, "name": "5955bfe415178711010da9aafd941ba0"}, {"bike_id": "7cfa960b943ce5cdd97fd9a798698358", "type": "electric_scooter", "is_disabled": 0, "lat": 38.92776883333333, "rental_uris": {"ios": "https://dc.lft.to/lastmile_qr_scan", "android": "https://dc.lft.to/lastmile_qr_scan"}, "is_reserved": 0, "fusion_lon": 0.0, "fusion_lat": 0.0, "lon": -77.05271383333333, "name": "7cfa960b943ce5cdd97fd9a798698358"}, {"bike_id": "0f84c3c464979a0dad5acf41f00c1b9a", "type": "electric_scooter", "is_disabled": 0, "lat": 38.947149833333334, "rental_uris": {"ios": "https://dc.lft.to/lastmile_qr_scan", "android": "https://dc.lft.to/lastmile_qr_scan"}, "is_reserved": 0, "fusion_lon": 0.0, "fusion_lat": 0.0, "lon": -77.0277735, "name": "0f84c3c464979a0dad5acf41f00c1b9a"}, {"bike_id": "bb424859fe2a84cda0564a293b40fb50", "type": "electric_scooter", "is_disabled": 0, "lat": 38.903785666666664, "rental_uris": {"ios": "https://dc.lft.to/lastmile_qr_scan", "android": "https://dc.lft.to/lastmile_qr_scan"}, "is_reserved": 0, "fusion_lon": 0.0, "fusion_lat": 0.0, "lon": -77.00881983333333, "name": "bb424859fe2a84cda0564a293b40fb50"}, {"bike_id": "b5e9511a8fa040e44d43ce6a983913e3", "type": "electric_scooter", "is_disabled": 0, "lat": 38.86205983333333, "rental_uris": {"ios": "https://dc.lft.to/lastmile_qr_scan", "android": "https://dc.lft.to/lastmile_qr_scan"}, "is_reserved": 0, "fusion_lon": 0.0, "fusion_lat": 0.0, "lon": -76.99469783333333, "name": "b5e9511a8fa040e44d43ce6a983913e3"}, {"bike_id": "858d4f79626ae573e3f19cd2b412c0be", "type": "electric_scooter", "is_disabled": 0, "lat": 38.866988, "rental_uris": {"ios": "https://dc.lft.to/lastmile_qr_scan", "android": "https://dc.lft.to/lastmile_qr_scan"}, "is_reserved": 0, "fusion_lon": 0.0, "fusion_lat": 0.0, "lon": -76.98713166666667, "name": "858d4f79626ae573e3f19cd2b412c0be"}, {"bike_id": "f4021e88277b4f0de45fb8ef4531463c", "type": "electric_scooter", "is_disabled": 0, "lat": 38.91832383333333, "rental_uris": {"ios": "https://dc.lft.to/lastmile_qr_scan", "android": "https://dc.lft.to/lastmile_qr_scan"}, "is_reserved": 0, "fusion_lon": 0.0, "fusion_lat": 0.0, "lon": -77.045609, "name": "f4021e88277b4f0de45fb8ef4531463c"}, {"bike_id": "732f4a37e983727a4864c7d3ee9e5b3f", "type": "electric_scooter", "is_disabled": 0, "lat": 38.92515233333334, "rental_uris": {"ios": "https://dc.lft.to/lastmile_qr_scan", "android": "https://dc.lft.to/lastmile_qr_scan"}, "is_reserved": 0, "fusion_lon": 0.0, "fusion_lat": 0.0, "lon": -77.00880133333334, "name": "732f4a37e983727a4864c7d3ee9e5b3f"}, {"bike_id": "35c483d14eda51bd51f0fc2a1d479967", "type": "electric_scooter", "is_disabled": 0, "lat": 38.91337016666667, "rental_uris": {"ios": "https://dc.lft.to/lastmile_qr_scan", "android": "https://dc.lft.to/lastmile_qr_scan"}, "is_reserved": 0, "fusion_lon": 0.0, "fusion_lat": 0.0, "lon": -77.03181116666667, "name": "35c483d14eda51bd51f0fc2a1d479967"}, {"bike_id": "711bbf9b8dc9a8bcee982ec29b5c36f3", "type": "electric_scooter", "is_disabled": 0, "lat": 38.908489333333335, "rental_uris": {"ios": "https://dc.lft.to/lastmile_qr_scan", "android": "https://dc.lft.to/lastmile_qr_scan"}, "is_reserved": 0, "fusion_lon": 0.0, "fusion_lat": 0.0, "lon": -76.99958416666666, "name": "711bbf9b8dc9a8bcee982ec29b5c36f3"}, {"bike_id": "47bb756aadef3387e159c5054471e958", "type": "electric_scooter", "is_disabled": 0, "lat": 38.906836166666665, "rental_uris": {"ios": "https://dc.lft.to/lastmile_qr_scan", "android": "https://dc.lft.to/lastmile_qr_scan"}, "is_reserved": 0, "fusion_lon": 0.0, "fusion_lat": 0.0, "lon": -77.038312, "name": "47bb756aadef3387e159c5054471e958"}, {"bike_id": "5d13dfb3bdf86ddc470ff0cf4aa0e928", "type": "electric_scooter", "is_disabled": 0, "lat": 38.906467166666665, "rental_uris": {"ios": "https://dc.lft.to/lastmile_qr_scan", "android": "https://dc.lft.to/lastmile_qr_scan"}, "is_reserved": 0, "fusion_lon": 0.0, "fusion_lat": 0.0, "lon": -77.00579566666667, "name": "5d13dfb3bdf86ddc470ff0cf4aa0e928"}, {"bike_id": "bc0b8df7446d6671467e45d2d8888d02", "type": "electric_scooter", "is_disabled": 0, "lat": 38.866758, "rental_uris": {"ios": "https://dc.lft.to/lastmile_qr_scan", "android": "https://dc.lft.to/lastmile_qr_scan"}, "is_reserved": 0, "fusion_lon": 0.0, "fusion_lat": 0.0, "lon": -76.98529516666666, "name": "bc0b8df7446d6671467e45d2d8888d02"}, {"bike_id": "0901de0d4a17ad46e53549703db4a956", "type": "electric_scooter", "is_disabled": 0, "lat": 38.9239795, "rental_uris": {"ios": "https://dc.lft.to/lastmile_qr_scan", "android": "https://dc.lft.to/lastmile_qr_scan"}, "is_reserved": 0, "fusion_lon": 0.0, "fusion_lat": 0.0, "lon": -77.050606, "name": "0901de0d4a17ad46e53549703db4a956"}, {"bike_id": "7871512d31aa40b7cffcd0bb6a0a24ef", "type": "electric_scooter", "is_disabled": 0, "lat": 38.89010666666667, "rental_uris": {"ios": "https://dc.lft.to/lastmile_qr_scan", "android": "https://dc.lft.to/lastmile_qr_scan"}, "is_reserved": 0, "fusion_lon": 0.0, "fusion_lat": 0.0, "lon": -76.937464, "name": "7871512d31aa40b7cffcd0bb6a0a24ef"}, {"bike_id": "e33d1dd4f51a2e025dcbdd88a0daea39", "type": "electric_scooter", "is_disabled": 0, "lat": 38.89889566666667, "rental_uris": {"ios": "https://dc.lft.to/lastmile_qr_scan", "android": "https://dc.lft.to/lastmile_qr_scan"}, "is_reserved": 0, "fusion_lon": 0.0, "fusion_lat": 0.0, "lon": -77.01516533333333, "name": "e33d1dd4f51a2e025dcbdd88a0daea39"}, {"bike_id": "5140099be48c96bb775a7624fdacb4cc", "type": "electric_scooter", "is_disabled": 0, "lat": 38.88499983333333, "rental_uris": {"ios": "https://dc.lft.to/lastmile_qr_scan", "android": "https://dc.lft.to/lastmile_qr_scan"}, "is_reserved": 0, "fusion_lon": 0.0, "fusion_lat": 0.0, "lon": -77.00210783333333, "name": "5140099be48c96bb775a7624fdacb4cc"}, {"bike_id": "ec0d853b3699cb83cbb33956e3ad404b", "type": "electric_scooter", "is_disabled": 0, "lat": 38.877244, "rental_uris": {"ios": "https://dc.lft.to/lastmile_qr_scan", "android": "https://dc.lft.to/lastmile_qr_scan"}, "is_reserved": 0, "fusion_lon": 0.0, "fusion_lat": 0.0, "lon": -77.01762383333333, "name": "ec0d853b3699cb83cbb33956e3ad404b"}, {"bike_id": "abd1099c639527a9d4a7c5c8d4b3da01", "type": "electric_scooter", "is_disabled": 0, "lat": 38.893258, "rental_uris": {"ios": "https://dc.lft.to/lastmile_qr_scan", "android": "https://dc.lft.to/lastmile_qr_scan"}, "is_reserved": 0, "fusion_lon": 0.0, "fusion_lat": 0.0, "lon": -77.04878083333334, "name": "abd1099c639527a9d4a7c5c8d4b3da01"}, {"bike_id": "c9099af3d1d4a781e98c5b94f001edcb", "type": "electric_scooter", "is_disabled": 0, "lat": 38.9515205, "rental_uris": {"ios": "https://dc.lft.to/lastmile_qr_scan", "android": "https://dc.lft.to/lastmile_qr_scan"}, "is_reserved": 0, "fusion_lon": 0.0, "fusion_lat": 0.0, "lon": -77.01865366666667, "name": "c9099af3d1d4a781e98c5b94f001edcb"}, {"bike_id": "280623bc915407670492e40a6c136611", "type": "electric_scooter", "is_disabled": 0, "lat": 38.895338333333335, "rental_uris": {"ios": "https://dc.lft.to/lastmile_qr_scan", "android": "https://dc.lft.to/lastmile_qr_scan"}, "is_reserved": 0, "fusion_lon": 0.0, "fusion_lat": 0.0, "lon": -76.9489095, "name": "280623bc915407670492e40a6c136611"}, {"bike_id": "6c3bd50d846362422620ea2dc54a8159", "type": "electric_scooter", "is_disabled": 0, "lat": 38.94330216666667, "rental_uris": {"ios": "https://dc.lft.to/lastmile_qr_scan", "android": "https://dc.lft.to/lastmile_qr_scan"}, "is_reserved": 0, "fusion_lon": 0.0, "fusion_lat": 0.0, "lon": -77.01485366666667, "name": "6c3bd50d846362422620ea2dc54a8159"}, {"bike_id": "16d63fbd6a545eadefa29cfd0f4fc5e4", "type": "electric_scooter", "is_disabled": 0, "lat": 38.923803166666666, "rental_uris": {"ios": "https://dc.lft.to/lastmile_qr_scan", "android": "https://dc.lft.to/lastmile_qr_scan"}, "is_reserved": 0, "fusion_lon": 0.0, "fusion_lat": 0.0, "lon": -77.04082716666667, "name": "16d63fbd6a545eadefa29cfd0f4fc5e4"}, {"bike_id": "e010aa3b08f429fdb1e425b4e074a0ba", "type": "electric_scooter", "is_disabled": 0, "lat": 38.921468, "rental_uris": {"ios": "https://dc.lft.to/lastmile_qr_scan", "android": "https://dc.lft.to/lastmile_qr_scan"}, "is_reserved": 0, "fusion_lon": 0.0, "fusion_lat": 0.0, "lon": -77.04340616666667, "name": "e010aa3b08f429fdb1e425b4e074a0ba"}, {"bike_id": "08b2a1a8b8754681a12f8b463384d9c4", "type": "electric_scooter", "is_disabled": 0, "lat": 38.9290705, "rental_uris": {"ios": "https://dc.lft.to/lastmile_qr_scan", "android": "https://dc.lft.to/lastmile_qr_scan"}, "is_reserved": 0, "fusion_lon": 0.0, "fusion_lat": 0.0, "lon": -77.03260216666666, "name": "08b2a1a8b8754681a12f8b463384d9c4"}, {"bike_id": "a2bbfa55ff7159f6a03a4d85c7c3df2e", "type": "electric_scooter", "is_disabled": 0, "lat": 38.919187, "rental_uris": {"ios": "https://dc.lft.to/lastmile_qr_scan", "android": "https://dc.lft.to/lastmile_qr_scan"}, "is_reserved": 0, "fusion_lon": 0.0, "fusion_lat": 0.0, "lon": -77.03414216666667, "name": "a2bbfa55ff7159f6a03a4d85c7c3df2e"}, {"bike_id": "195bd06f943546fcab9a274faf19668c", "type": "electric_scooter", "is_disabled": 0, "lat": 38.908819666666666, "rental_uris": {"ios": "https://dc.lft.to/lastmile_qr_scan", "android": "https://dc.lft.to/lastmile_qr_scan"}, "is_reserved": 0, "fusion_lon": 0.0, "fusion_lat": 0.0, "lon": -77.04339166666666, "name": "195bd06f943546fcab9a274faf19668c"}, {"bike_id": "568b5372b6a440a29a01bbfd225bb0e5", "type": "electric_scooter", "is_disabled": 0, "lat": 38.905245666666666, "rental_uris": {"ios": "https://dc.lft.to/lastmile_qr_scan", "android": "https://dc.lft.to/lastmile_qr_scan"}, "is_reserved": 0, "fusion_lon": 0.0, "fusion_lat": 0.0, "lon": -77.06376166666666, "name": "568b5372b6a440a29a01bbfd225bb0e5"}, {"bike_id": "f094c87d623c819200debb6b44fa4494", "type": "electric_scooter", "is_disabled": 0, "lat": 38.882699333333335, "rental_uris": {"ios": "https://dc.lft.to/lastmile_qr_scan", "android": "https://dc.lft.to/lastmile_qr_scan"}, "is_reserved": 0, "fusion_lon": 0.0, "fusion_lat": 0.0, "lon": -76.99255466666666, "name": "f094c87d623c819200debb6b44fa4494"}, {"bike_id": "9e02deaafaaa64297f4d7688b5a0cc36", "type": "electric_scooter", "is_disabled": 0, "lat": 38.9082705, "rental_uris": {"ios": "https://dc.lft.to/lastmile_qr_scan", "android": "https://dc.lft.to/lastmile_qr_scan"}, "is_reserved": 0, "fusion_lon": 0.0, "fusion_lat": 0.0, "lon": -77.0239105, "name": "9e02deaafaaa64297f4d7688b5a0cc36"}, {"bike_id": "3f02ccc617aa02d983440e75a6e2605e", "type": "electric_scooter", "is_disabled": 0, "lat": 38.9068455, "rental_uris": {"ios": "https://dc.lft.to/lastmile_qr_scan", "android": "https://dc.lft.to/lastmile_qr_scan"}, "is_reserved": 0, "fusion_lon": 0.0, "fusion_lat": 0.0, "lon": -77.06339766666666, "name": "3f02ccc617aa02d983440e75a6e2605e"}, {"bike_id": "a1c2a646851dff7bfbbbf96c536a1ad2", "type": "electric_scooter", "is_disabled": 0, "lat": 38.908518666666666, "rental_uris": {"ios": "https://dc.lft.to/lastmile_qr_scan", "android": "https://dc.lft.to/lastmile_qr_scan"}, "is_reserved": 0, "fusion_lon": 0.0, "fusion_lat": 0.0, "lon": -77.055647, "name": "a1c2a646851dff7bfbbbf96c536a1ad2"}, {"bike_id": "01ce8b611a6c2e8ba218b1b2bbae1978", "type": "electric_scooter", "is_disabled": 0, "lat": 38.9153115, "rental_uris": {"ios": "https://dc.lft.to/lastmile_qr_scan", "android": "https://dc.lft.to/lastmile_qr_scan"}, "is_reserved": 0, "fusion_lon": 0.0, "fusion_lat": 0.0, "lon": -77.02008316666667, "name": "01ce8b611a6c2e8ba218b1b2bbae1978"}, {"bike_id": "1f0486101277d6bd71a38860ec9a01ab", "type": "electric_scooter", "is_disabled": 0, "lat": 38.90067716666667, "rental_uris": {"ios": "https://dc.lft.to/lastmile_qr_scan", "android": "https://dc.lft.to/lastmile_qr_scan"}, "is_reserved": 0, "fusion_lon": 0.0, "fusion_lat": 0.0, "lon": -76.92743483333334, "name": "1f0486101277d6bd71a38860ec9a01ab"}, {"bike_id": "e69f081b126c6be88737016864c6c868", "type": "electric_scooter", "is_disabled": 0, "lat": 38.87629533333333, "rental_uris": {"ios": "https://dc.lft.to/lastmile_qr_scan", "android": "https://dc.lft.to/lastmile_qr_scan"}, "is_reserved": 0, "fusion_lon": 0.0, "fusion_lat": 0.0, "lon": -76.96523283333333, "name": "e69f081b126c6be88737016864c6c868"}, {"bike_id": "27a69838d3e59f7f9605dc92ab71ce9c", "type": "electric_scooter", "is_disabled": 0, "lat": 38.902767, "rental_uris": {"ios": "https://dc.lft.to/lastmile_qr_scan", "android": "https://dc.lft.to/lastmile_qr_scan"}, "is_reserved": 0, "fusion_lon": 0.0, "fusion_lat": 0.0, "lon": -77.04476133333333, "name": "27a69838d3e59f7f9605dc92ab71ce9c"}, {"bike_id": "dfb213d57c2d9ba28da1f3daed52e3d2", "type": "electric_scooter", "is_disabled": 0, "lat": 38.911551833333334, "rental_uris": {"ios": "https://dc.lft.to/lastmile_qr_scan", "android": "https://dc.lft.to/lastmile_qr_scan"}, "is_reserved": 0, "fusion_lon": 0.0, "fusion_lat": 0.0, "lon": -77.022822, "name": "dfb213d57c2d9ba28da1f3daed52e3d2"}, {"bike_id": "35aeb06fffc398c81d62f46c39fe38bf", "type": "electric_scooter", "is_disabled": 0, "lat": 38.9640955, "rental_uris": {"ios": "https://dc.lft.to/lastmile_qr_scan", "android": "https://dc.lft.to/lastmile_qr_scan"}, "is_reserved": 0, "fusion_lon": 0.0, "fusion_lat": 0.0, "lon": -77.02765966666666, "name": "35aeb06fffc398c81d62f46c39fe38bf"}, {"bike_id": "7d80e45007ab9e79bb47600f9d1e92da", "type": "electric_scooter", "is_disabled": 0, "lat": 38.90502883333333, "rental_uris": {"ios": "https://dc.lft.to/lastmile_qr_scan", "android": "https://dc.lft.to/lastmile_qr_scan"}, "is_reserved": 0, "fusion_lon": 0.0, "fusion_lat": 0.0, "lon": -77.0688265, "name": "7d80e45007ab9e79bb47600f9d1e92da"}, {"bike_id": "c10e9e4658d09037a4e6255dc3728822", "type": "electric_bike", "is_disabled": 0, "lat": 38.956404666666664, "rental_uris": {"ios": "https://dc.lft.to/lastmile_qr_scan", "android": "https://dc.lft.to/lastmile_qr_scan"}, "is_reserved": 0, "fusion_lon": 0.0, "fusion_lat": 0.0, "lon": -76.938777, "name": "c10e9e4658d09037a4e6255dc3728822"}, {"bike_id": "407217824505d22f7804fe8e4e6cec6e", "type": "electric_scooter", "is_disabled": 0, "lat": 38.863776, "rental_uris": {"ios": "https://dc.lft.to/lastmile_qr_scan", "android": "https://dc.lft.to/lastmile_qr_scan"}, "is_reserved": 0, "fusion_lon": 0.0, "fusion_lat": 0.0, "lon": -76.9905195, "name": "407217824505d22f7804fe8e4e6cec6e"}, {"bike_id": "94104d917a8e47e37664f5d547200d2d", "type": "electric_scooter", "is_disabled": 0, "lat": 38.88416633333333, "rental_uris": {"ios": "https://dc.lft.to/lastmile_qr_scan", "android": "https://dc.lft.to/lastmile_qr_scan"}, "is_reserved": 0, "fusion_lon": 0.0, "fusion_lat": 0.0, "lon": -77.00740133333333, "name": "94104d917a8e47e37664f5d547200d2d"}, {"bike_id": "0035d19b216de1a9d989c508a0f76ab8", "type": "electric_bike", "is_disabled": 0, "lat": 38.940241666666665, "rental_uris": {"ios": "https://dc.lft.to/lastmile_qr_scan", "android": "https://dc.lft.to/lastmile_qr_scan"}, "is_reserved": 0, "fusion_lon": 0.0, "fusion_lat": 0.0, "lon": -76.97607933333333, "name": "0035d19b216de1a9d989c508a0f76ab8"}, {"bike_id": "5ffa37fd3f1f1fd465f187d3512d9fbc", "type": "electric_scooter", "is_disabled": 0, "lat": 38.98430233333333, "rental_uris": {"ios": "https://dc.lft.to/lastmile_qr_scan", "android": "https://dc.lft.to/lastmile_qr_scan"}, "is_reserved": 0, "fusion_lon": 0.0, "fusion_lat": 0.0, "lon": -77.0266455, "name": "5ffa37fd3f1f1fd465f187d3512d9fbc"}, {"bike_id": "8f9c237b7dc9da2b43da1fd7e9fbbb9a", "type": "electric_scooter", "is_disabled": 0, "lat": 38.928225166666664, "rental_uris": {"ios": "https://dc.lft.to/lastmile_qr_scan", "android": "https://dc.lft.to/lastmile_qr_scan"}, "is_reserved": 0, "fusion_lon": 0.0, "fusion_lat": 0.0, "lon": -77.02257916666667, "name": "8f9c237b7dc9da2b43da1fd7e9fbbb9a"}, {"bike_id": "82f71f4b7ed34ef2e4d35fc9e670d71b", "type": "electric_scooter", "is_disabled": 0, "lat": 38.899969166666665, "rental_uris": {"ios": "https://dc.lft.to/lastmile_qr_scan", "android": "https://dc.lft.to/lastmile_qr_scan"}, "is_reserved": 0, "fusion_lon": 0.0, "fusion_lat": 0.0, "lon": -77.016067, "name": "82f71f4b7ed34ef2e4d35fc9e670d71b"}, {"bike_id": "a920820b5a3af7e756929e6401e64990", "type": "electric_scooter", "is_disabled": 0, "lat": 38.90269333333333, "rental_uris": {"ios": "https://dc.lft.to/lastmile_qr_scan", "android": "https://dc.lft.to/lastmile_qr_scan"}, "is_reserved": 0, "fusion_lon": 0.0, "fusion_lat": 0.0, "lon": -77.04483933333333, "name": "a920820b5a3af7e756929e6401e64990"}, {"bike_id": "8b919e6a2c2492dad223c102e083f234", "type": "electric_scooter", "is_disabled": 0, "lat": 38.917663166666664, "rental_uris": {"ios": "https://dc.lft.to/lastmile_qr_scan", "android": "https://dc.lft.to/lastmile_qr_scan"}, "is_reserved": 0, "fusion_lon": 0.0, "fusion_lat": 0.0, "lon": -77.04765733333333, "name": "8b919e6a2c2492dad223c102e083f234"}, {"bike_id": "c2fe0031494547c1a347d31600f2536f", "type": "electric_scooter", "is_disabled": 0, "lat": 38.89678133333334, "rental_uris": {"ios": "https://dc.lft.to/lastmile_qr_scan", "android": "https://dc.lft.to/lastmile_qr_scan"}, "is_reserved": 0, "fusion_lon": 0.0, "fusion_lat": 0.0, "lon": -77.02383483333334, "name": "c2fe0031494547c1a347d31600f2536f"}, {"bike_id": "9a92ead8175e0e42b557963a99a91e99", "type": "electric_scooter", "is_disabled": 0, "lat": 38.870616166666665, "rental_uris": {"ios": "https://dc.lft.to/lastmile_qr_scan", "android": "https://dc.lft.to/lastmile_qr_scan"}, "is_reserved": 0, "fusion_lon": 0.0, "fusion_lat": 0.0, "lon": -77.00736016666667, "name": "9a92ead8175e0e42b557963a99a91e99"}, {"bike_id": "7bba57e07f33e9733e8163e1d030eb4d", "type": "electric_scooter", "is_disabled": 0, "lat": 38.90104183333333, "rental_uris": {"ios": "https://dc.lft.to/lastmile_qr_scan", "android": "https://dc.lft.to/lastmile_qr_scan"}, "is_reserved": 0, "fusion_lon": 0.0, "fusion_lat": 0.0, "lon": -77.0242365, "name": "7bba57e07f33e9733e8163e1d030eb4d"}, {"bike_id": "0c6bea1563673c5a97c4729d5209cfc3", "type": "electric_scooter", "is_disabled": 0, "lat": 38.9283465, "rental_uris": {"ios": "https://dc.lft.to/lastmile_qr_scan", "android": "https://dc.lft.to/lastmile_qr_scan"}, "is_reserved": 0, "fusion_lon": 0.0, "fusion_lat": 0.0, "lon": -77.02324666666667, "name": "0c6bea1563673c5a97c4729d5209cfc3"}, {"bike_id": "7d8a6ba31b1a8fb313db659b193ec45b", "type": "electric_scooter", "is_disabled": 0, "lat": 38.9284415, "rental_uris": {"ios": "https://dc.lft.to/lastmile_qr_scan", "android": "https://dc.lft.to/lastmile_qr_scan"}, "is_reserved": 0, "fusion_lon": 0.0, "fusion_lat": 0.0, "lon": -77.0551845, "name": "7d8a6ba31b1a8fb313db659b193ec45b"}, {"bike_id": "4ed33b8ba1d45d9c7fe6a1fb5c87075c", "type": "electric_scooter", "is_disabled": 0, "lat": 38.92971, "rental_uris": {"ios": "https://dc.lft.to/lastmile_qr_scan", "android": "https://dc.lft.to/lastmile_qr_scan"}, "is_reserved": 0, "fusion_lon": 0.0, "fusion_lat": 0.0, "lon": -77.02822116666667, "name": "4ed33b8ba1d45d9c7fe6a1fb5c87075c"}, {"bike_id": "fb04b7bea10493edab416e617fa38700", "type": "electric_scooter", "is_disabled": 0, "lat": 38.905055833333336, "rental_uris": {"ios": "https://dc.lft.to/lastmile_qr_scan", "android": "https://dc.lft.to/lastmile_qr_scan"}, "is_reserved": 0, "fusion_lon": 0.0, "fusion_lat": 0.0, "lon": -77.06016616666666, "name": "fb04b7bea10493edab416e617fa38700"}, {"bike_id": "119d0153fdb26867577e9c3c723088fe", "type": "electric_scooter", "is_disabled": 0, "lat": 38.911106, "rental_uris": {"ios": "https://dc.lft.to/lastmile_qr_scan", "android": "https://dc.lft.to/lastmile_qr_scan"}, "is_reserved": 0, "fusion_lon": 0.0, "fusion_lat": 0.0, "lon": -77.04905316666667, "name": "119d0153fdb26867577e9c3c723088fe"}, {"bike_id": "4e58f68fca9ad6b57a7cac0c93d4e669", "type": "electric_bike", "is_disabled": 0, "lat": 38.99091683333333, "rental_uris": {"ios": "https://dc.lft.to/lastmile_qr_scan", "android": "https://dc.lft.to/lastmile_qr_scan"}, "is_reserved": 0, "fusion_lon": 0.0, "fusion_lat": 0.0, "lon": -76.87500466666667, "name": "4e58f68fca9ad6b57a7cac0c93d4e669"}, {"bike_id": "7cc0eeb40093d82e71395f9945502da0", "type": "electric_scooter", "is_disabled": 0, "lat": 38.90274733333333, "rental_uris": {"ios": "https://dc.lft.to/lastmile_qr_scan", "android": "https://dc.lft.to/lastmile_qr_scan"}, "is_reserved": 0, "fusion_lon": 0.0, "fusion_lat": 0.0, "lon": -77.003412, "name": "7cc0eeb40093d82e71395f9945502da0"}, {"bike_id": "aaddcb556f3d7fad24c79b67bd830f6a", "type": "electric_scooter", "is_disabled": 0, "lat": 38.91949566666667, "rental_uris": {"ios": "https://dc.lft.to/lastmile_qr_scan", "android": "https://dc.lft.to/lastmile_qr_scan"}, "is_reserved": 0, "fusion_lon": 0.0, "fusion_lat": 0.0, "lon": -77.02488983333333, "name": "aaddcb556f3d7fad24c79b67bd830f6a"}, {"bike_id": "27ed2dedfd514d1c8fc2ebdc9d9c65c9", "type": "electric_scooter", "is_disabled": 0, "lat": 38.91475583333333, "rental_uris": {"ios": "https://dc.lft.to/lastmile_qr_scan", "android": "https://dc.lft.to/lastmile_qr_scan"}, "is_reserved": 0, "fusion_lon": 0.0, "fusion_lat": 0.0, "lon": -77.03758816666667, "name": "27ed2dedfd514d1c8fc2ebdc9d9c65c9"}, {"bike_id": "0481b7616f9645d761c091ef3b305f26", "type": "electric_scooter", "is_disabled": 0, "lat": 38.892323166666664, "rental_uris": {"ios": "https://dc.lft.to/lastmile_qr_scan", "android": "https://dc.lft.to/lastmile_qr_scan"}, "is_reserved": 0, "fusion_lon": 0.0, "fusion_lat": 0.0, "lon": -77.05001766666666, "name": "0481b7616f9645d761c091ef3b305f26"}, {"bike_id": "41239eda2c7131b598255977a60563a6", "type": "electric_scooter", "is_disabled": 0, "lat": 38.90091416666667, "rental_uris": {"ios": "https://dc.lft.to/lastmile_qr_scan", "android": "https://dc.lft.to/lastmile_qr_scan"}, "is_reserved": 0, "fusion_lon": 0.0, "fusion_lat": 0.0, "lon": -77.01759633333333, "name": "41239eda2c7131b598255977a60563a6"}, {"bike_id": "576f94334d582f1bf6df0f52149c7633", "type": "electric_scooter", "is_disabled": 0, "lat": 38.843179666666664, "rental_uris": {"ios": "https://dc.lft.to/lastmile_qr_scan", "android": "https://dc.lft.to/lastmile_qr_scan"}, "is_reserved": 0, "fusion_lon": 0.0, "fusion_lat": 0.0, "lon": -76.99927166666667, "name": "576f94334d582f1bf6df0f52149c7633"}, {"bike_id": "5c23afb59cc1db8993662207afc510e6", "type": "electric_scooter", "is_disabled": 0, "lat": 38.92908716666667, "rental_uris": {"ios": "https://dc.lft.to/lastmile_qr_scan", "android": "https://dc.lft.to/lastmile_qr_scan"}, "is_reserved": 0, "fusion_lon": 0.0, "fusion_lat": 0.0, "lon": -77.03250766666666, "name": "5c23afb59cc1db8993662207afc510e6"}, {"bike_id": "41a001b86ea7c50751643ed4d9bede7b", "type": "electric_scooter", "is_disabled": 0, "lat": 38.900104166666665, "rental_uris": {"ios": "https://dc.lft.to/lastmile_qr_scan", "android": "https://dc.lft.to/lastmile_qr_scan"}, "is_reserved": 0, "fusion_lon": 0.0, "fusion_lat": 0.0, "lon": -76.9815595, "name": "41a001b86ea7c50751643ed4d9bede7b"}, {"bike_id": "8b9d51d3e71f99d814a2e63c2293fde6", "type": "electric_scooter", "is_disabled": 0, "lat": 38.8840205, "rental_uris": {"ios": "https://dc.lft.to/lastmile_qr_scan", "android": "https://dc.lft.to/lastmile_qr_scan"}, "is_reserved": 0, "fusion_lon": 0.0, "fusion_lat": 0.0, "lon": -76.9962715, "name": "8b9d51d3e71f99d814a2e63c2293fde6"}, {"bike_id": "21503c27a34628e3e83a6cd9c4e5f105", "type": "electric_scooter", "is_disabled": 0, "lat": 38.91559916666667, "rental_uris": {"ios": "https://dc.lft.to/lastmile_qr_scan", "android": "https://dc.lft.to/lastmile_qr_scan"}, "is_reserved": 0, "fusion_lon": 0.0, "fusion_lat": 0.0, "lon": -77.02148516666666, "name": "21503c27a34628e3e83a6cd9c4e5f105"}, {"bike_id": "339cb1045ef12f15e108d4d57005c6da", "type": "electric_scooter", "is_disabled": 0, "lat": 38.949931666666664, "rental_uris": {"ios": "https://dc.lft.to/lastmile_qr_scan", "android": "https://dc.lft.to/lastmile_qr_scan"}, "is_reserved": 0, "fusion_lon": 0.0, "fusion_lat": 0.0, "lon": -77.02697716666667, "name": "339cb1045ef12f15e108d4d57005c6da"}, {"bike_id": "50aa15d42cc32b68723cfe4d36807ad1", "type": "electric_bike", "is_disabled": 0, "lat": 38.87299866666667, "rental_uris": {"ios": "https://dc.lft.to/lastmile_qr_scan", "android": "https://dc.lft.to/lastmile_qr_scan"}, "is_reserved": 0, "fusion_lon": 0.0, "fusion_lat": 0.0, "lon": -76.96978983333334, "name": "50aa15d42cc32b68723cfe4d36807ad1"}, {"bike_id": "1b5e86d5f855b99ba43985c0955e68a0", "type": "electric_scooter", "is_disabled": 0, "lat": 38.91990916666666, "rental_uris": {"ios": "https://dc.lft.to/lastmile_qr_scan", "android": "https://dc.lft.to/lastmile_qr_scan"}, "is_reserved": 0, "fusion_lon": 0.0, "fusion_lat": 0.0, "lon": -76.97302266666667, "name": "1b5e86d5f855b99ba43985c0955e68a0"}, {"bike_id": "b6d6aed80be064ce9a4629d4418c2212", "type": "electric_scooter", "is_disabled": 0, "lat": 38.90733, "rental_uris": {"ios": "https://dc.lft.to/lastmile_qr_scan", "android": "https://dc.lft.to/lastmile_qr_scan"}, "is_reserved": 0, "fusion_lon": 0.0, "fusion_lat": 0.0, "lon": -77.03867783333334, "name": "b6d6aed80be064ce9a4629d4418c2212"}, {"bike_id": "b50286289601dbb87e35a2896f950805", "type": "electric_scooter", "is_disabled": 0, "lat": 38.92337833333333, "rental_uris": {"ios": "https://dc.lft.to/lastmile_qr_scan", "android": "https://dc.lft.to/lastmile_qr_scan"}, "is_reserved": 0, "fusion_lon": 0.0, "fusion_lat": 0.0, "lon": -77.03537533333333, "name": "b50286289601dbb87e35a2896f950805"}, {"bike_id": "8b57645fd58c405a9b3cd8015cd62363", "type": "electric_scooter", "is_disabled": 0, "lat": 38.904190666666665, "rental_uris": {"ios": "https://dc.lft.to/lastmile_qr_scan", "android": "https://dc.lft.to/lastmile_qr_scan"}, "is_reserved": 0, "fusion_lon": 0.0, "fusion_lat": 0.0, "lon": -76.97334316666667, "name": "8b57645fd58c405a9b3cd8015cd62363"}, {"bike_id": "08ebd92c53ffd33d6f0431a442a86bc4", "type": "electric_scooter", "is_disabled": 0, "lat": 38.91710783333333, "rental_uris": {"ios": "https://dc.lft.to/lastmile_qr_scan", "android": "https://dc.lft.to/lastmile_qr_scan"}, "is_reserved": 0, "fusion_lon": 0.0, "fusion_lat": 0.0, "lon": -77.02463133333333, "name": "08ebd92c53ffd33d6f0431a442a86bc4"}, {"bike_id": "dd85b3cde68b536c975c8e6c6e32d19a", "type": "electric_scooter", "is_disabled": 0, "lat": 38.906461, "rental_uris": {"ios": "https://dc.lft.to/lastmile_qr_scan", "android": "https://dc.lft.to/lastmile_qr_scan"}, "is_reserved": 0, "fusion_lon": 0.0, "fusion_lat": 0.0, "lon": -77.05336816666667, "name": "dd85b3cde68b536c975c8e6c6e32d19a"}, {"bike_id": "dd03879d39bf63a2c887a382830f720b", "type": "electric_scooter", "is_disabled": 0, "lat": 38.955349, "rental_uris": {"ios": "https://dc.lft.to/lastmile_qr_scan", "android": "https://dc.lft.to/lastmile_qr_scan"}, "is_reserved": 0, "fusion_lon": 0.0, "fusion_lat": 0.0, "lon": -77.02780883333334, "name": "dd03879d39bf63a2c887a382830f720b"}, {"bike_id": "479a428dd12129a8ff75714219db76bd", "type": "electric_scooter", "is_disabled": 0, "lat": 38.929111, "rental_uris": {"ios": "https://dc.lft.to/lastmile_qr_scan", "android": "https://dc.lft.to/lastmile_qr_scan"}, "is_reserved": 0, "fusion_lon": 0.0, "fusion_lat": 0.0, "lon": -77.03175916666666, "name": "479a428dd12129a8ff75714219db76bd"}, {"bike_id": "990eaff0351d80b6430b9111fcdc1d88", "type": "electric_scooter", "is_disabled": 0, "lat": 38.868927666666664, "rental_uris": {"ios": "https://dc.lft.to/lastmile_qr_scan", "android": "https://dc.lft.to/lastmile_qr_scan"}, "is_reserved": 0, "fusion_lon": 0.0, "fusion_lat": 0.0, "lon": -76.984462, "name": "990eaff0351d80b6430b9111fcdc1d88"}, {"bike_id": "b5ac96a3833bcfbb2f26c3345755a1e2", "type": "electric_bike", "is_disabled": 0, "lat": 38.838108, "rental_uris": {"ios": "https://dc.lft.to/lastmile_qr_scan", "android": "https://dc.lft.to/lastmile_qr_scan"}, "is_reserved": 0, "fusion_lon": 0.0, "fusion_lat": 0.0, "lon": -77.09524933333333, "name": "b5ac96a3833bcfbb2f26c3345755a1e2"}, {"bike_id": "f5196b2a90d15430fff47f32f8e56555", "type": "electric_scooter", "is_disabled": 0, "lat": 38.9655085, "rental_uris": {"ios": "https://dc.lft.to/lastmile_qr_scan", "android": "https://dc.lft.to/lastmile_qr_scan"}, "is_reserved": 0, "fusion_lon": 0.0, "fusion_lat": 0.0, "lon": -77.03625316666667, "name": "f5196b2a90d15430fff47f32f8e56555"}, {"bike_id": "2dbffd8e437f65d46ef1477989ce81bd", "type": "electric_scooter", "is_disabled": 0, "lat": 38.922486666666664, "rental_uris": {"ios": "https://dc.lft.to/lastmile_qr_scan", "android": "https://dc.lft.to/lastmile_qr_scan"}, "is_reserved": 0, "fusion_lon": 0.0, "fusion_lat": 0.0, "lon": -77.03910666666667, "name": "2dbffd8e437f65d46ef1477989ce81bd"}, {"bike_id": "6eb7d2b28dcb091dffcceda978a53d36", "type": "electric_scooter", "is_disabled": 0, "lat": 38.908541666666665, "rental_uris": {"ios": "https://dc.lft.to/lastmile_qr_scan", "android": "https://dc.lft.to/lastmile_qr_scan"}, "is_reserved": 0, "fusion_lon": 0.0, "fusion_lat": 0.0, "lon": -77.04416533333334, "name": "6eb7d2b28dcb091dffcceda978a53d36"}, {"bike_id": "c4ed3fc81c748b51803a67444971a739", "type": "electric_scooter", "is_disabled": 0, "lat": 38.905654166666665, "rental_uris": {"ios": "https://dc.lft.to/lastmile_qr_scan", "android": "https://dc.lft.to/lastmile_qr_scan"}, "is_reserved": 0, "fusion_lon": 0.0, "fusion_lat": 0.0, "lon": -76.98144833333333, "name": "c4ed3fc81c748b51803a67444971a739"}, {"bike_id": "5ebe26c9745a609edf380e16534844a6", "type": "electric_scooter", "is_disabled": 0, "lat": 38.895007666666665, "rental_uris": {"ios": "https://dc.lft.to/lastmile_qr_scan", "android": "https://dc.lft.to/lastmile_qr_scan"}, "is_reserved": 0, "fusion_lon": 0.0, "fusion_lat": 0.0, "lon": -77.00054183333333, "name": "5ebe26c9745a609edf380e16534844a6"}, {"bike_id": "e16d5c3d41ada5c86b0330a1accefedf", "type": "electric_scooter", "is_disabled": 0, "lat": 38.91134, "rental_uris": {"ios": "https://dc.lft.to/lastmile_qr_scan", "android": "https://dc.lft.to/lastmile_qr_scan"}, "is_reserved": 0, "fusion_lon": 0.0, "fusion_lat": 0.0, "lon": -77.06527116666666, "name": "e16d5c3d41ada5c86b0330a1accefedf"}, {"bike_id": "4435d6e4aee7cee3e64412f7c120b69b", "type": "electric_bike", "is_disabled": 0, "lat": 38.857889666666665, "rental_uris": {"ios": "https://dc.lft.to/lastmile_qr_scan", "android": "https://dc.lft.to/lastmile_qr_scan"}, "is_reserved": 0, "fusion_lon": 0.0, "fusion_lat": 0.0, "lon": -77.120206, "name": "4435d6e4aee7cee3e64412f7c120b69b"}, {"bike_id": "5f0d7671267da27d055e94da403fefd7", "type": "electric_scooter", "is_disabled": 0, "lat": 38.8840985, "rental_uris": {"ios": "https://dc.lft.to/lastmile_qr_scan", "android": "https://dc.lft.to/lastmile_qr_scan"}, "is_reserved": 0, "fusion_lon": 0.0, "fusion_lat": 0.0, "lon": -77.03217983333333, "name": "5f0d7671267da27d055e94da403fefd7"}, {"bike_id": "e75a5c43252822c7fd247a5e3b046b59", "type": "electric_scooter", "is_disabled": 0, "lat": 38.93293383333334, "rental_uris": {"ios": "https://dc.lft.to/lastmile_qr_scan", "android": "https://dc.lft.to/lastmile_qr_scan"}, "is_reserved": 0, "fusion_lon": 0.0, "fusion_lat": 0.0, "lon": -77.0412415, "name": "e75a5c43252822c7fd247a5e3b046b59"}, {"bike_id": "533dc1cbe9760c6da25bf647646038d7", "type": "electric_scooter", "is_disabled": 0, "lat": 38.92681, "rental_uris": {"ios": "https://dc.lft.to/lastmile_qr_scan", "android": "https://dc.lft.to/lastmile_qr_scan"}, "is_reserved": 0, "fusion_lon": 0.0, "fusion_lat": 0.0, "lon": -77.0435335, "name": "533dc1cbe9760c6da25bf647646038d7"}, {"bike_id": "f5a10dd226908b3cce828ec832e9daa0", "type": "electric_scooter", "is_disabled": 0, "lat": 38.89550916666666, "rental_uris": {"ios": "https://dc.lft.to/lastmile_qr_scan", "android": "https://dc.lft.to/lastmile_qr_scan"}, "is_reserved": 0, "fusion_lon": 0.0, "fusion_lat": 0.0, "lon": -76.92952266666667, "name": "f5a10dd226908b3cce828ec832e9daa0"}, {"bike_id": "3e2fec11807b2e9ca3186bddbeaa8708", "type": "electric_scooter", "is_disabled": 0, "lat": 38.920454666666664, "rental_uris": {"ios": "https://dc.lft.to/lastmile_qr_scan", "android": "https://dc.lft.to/lastmile_qr_scan"}, "is_reserved": 0, "fusion_lon": 0.0, "fusion_lat": 0.0, "lon": -77.03383133333334, "name": "3e2fec11807b2e9ca3186bddbeaa8708"}, {"bike_id": "2ea952849161cd8e9da6fe293bb203a6", "type": "electric_scooter", "is_disabled": 0, "lat": 38.872909666666665, "rental_uris": {"ios": "https://dc.lft.to/lastmile_qr_scan", "android": "https://dc.lft.to/lastmile_qr_scan"}, "is_reserved": 0, "fusion_lon": 0.0, "fusion_lat": 0.0, "lon": -76.97729883333334, "name": "2ea952849161cd8e9da6fe293bb203a6"}, {"bike_id": "92038b144b76013f89da1a1aedc3c862", "type": "electric_scooter", "is_disabled": 0, "lat": 38.92058316666667, "rental_uris": {"ios": "https://dc.lft.to/lastmile_qr_scan", "android": "https://dc.lft.to/lastmile_qr_scan"}, "is_reserved": 0, "fusion_lon": 0.0, "fusion_lat": 0.0, "lon": -77.034612, "name": "92038b144b76013f89da1a1aedc3c862"}, {"bike_id": "551c24e44b191e9a56433a78982ef7ea", "type": "electric_scooter", "is_disabled": 0, "lat": 38.88496466666667, "rental_uris": {"ios": "https://dc.lft.to/lastmile_qr_scan", "android": "https://dc.lft.to/lastmile_qr_scan"}, "is_reserved": 0, "fusion_lon": 0.0, "fusion_lat": 0.0, "lon": -77.015173, "name": "551c24e44b191e9a56433a78982ef7ea"}, {"bike_id": "1db7afe5c8dea3ebc27c1d007d8932e6", "type": "electric_scooter", "is_disabled": 0, "lat": 38.9170705, "rental_uris": {"ios": "https://dc.lft.to/lastmile_qr_scan", "android": "https://dc.lft.to/lastmile_qr_scan"}, "is_reserved": 0, "fusion_lon": 0.0, "fusion_lat": 0.0, "lon": -77.04123466666667, "name": "1db7afe5c8dea3ebc27c1d007d8932e6"}, {"bike_id": "263d3489226bb4dda22183905d32c0dd", "type": "electric_scooter", "is_disabled": 0, "lat": 38.9309965, "rental_uris": {"ios": "https://dc.lft.to/lastmile_qr_scan", "android": "https://dc.lft.to/lastmile_qr_scan"}, "is_reserved": 0, "fusion_lon": 0.0, "fusion_lat": 0.0, "lon": -77.02474766666667, "name": "263d3489226bb4dda22183905d32c0dd"}, {"bike_id": "44e920f3517e5598fcf0f68491f06285", "type": "electric_scooter", "is_disabled": 0, "lat": 38.956933666666664, "rental_uris": {"ios": "https://dc.lft.to/lastmile_qr_scan", "android": "https://dc.lft.to/lastmile_qr_scan"}, "is_reserved": 0, "fusion_lon": 0.0, "fusion_lat": 0.0, "lon": -77.0240225, "name": "44e920f3517e5598fcf0f68491f06285"}, {"bike_id": "441bc73fc2080fad369fdc135cc99732", "type": "electric_scooter", "is_disabled": 0, "lat": 38.907337166666665, "rental_uris": {"ios": "https://dc.lft.to/lastmile_qr_scan", "android": "https://dc.lft.to/lastmile_qr_scan"}, "is_reserved": 0, "fusion_lon": 0.0, "fusion_lat": 0.0, "lon": -77.05329116666667, "name": "441bc73fc2080fad369fdc135cc99732"}, {"bike_id": "abfe63ebd5b5bbe2ebdd626889f0124c", "type": "electric_scooter", "is_disabled": 0, "lat": 38.91422716666667, "rental_uris": {"ios": "https://dc.lft.to/lastmile_qr_scan", "android": "https://dc.lft.to/lastmile_qr_scan"}, "is_reserved": 0, "fusion_lon": 0.0, "fusion_lat": 0.0, "lon": -77.01894583333333, "name": "abfe63ebd5b5bbe2ebdd626889f0124c"}, {"bike_id": "93237579a85e06019710038c5d4662a4", "type": "electric_scooter", "is_disabled": 0, "lat": 38.9268485, "rental_uris": {"ios": "https://dc.lft.to/lastmile_qr_scan", "android": "https://dc.lft.to/lastmile_qr_scan"}, "is_reserved": 0, "fusion_lon": 0.0, "fusion_lat": 0.0, "lon": -77.021583, "name": "93237579a85e06019710038c5d4662a4"}, {"bike_id": "d62034c5dd5bd53a8e0592cf71216bc9", "type": "electric_scooter", "is_disabled": 0, "lat": 38.93240566666667, "rental_uris": {"ios": "https://dc.lft.to/lastmile_qr_scan", "android": "https://dc.lft.to/lastmile_qr_scan"}, "is_reserved": 0, "fusion_lon": 0.0, "fusion_lat": 0.0, "lon": -77.03584233333333, "name": "d62034c5dd5bd53a8e0592cf71216bc9"}, {"bike_id": "363cccd96e2d2a09338449deef0a8cf0", "type": "electric_scooter", "is_disabled": 0, "lat": 38.918648833333336, "rental_uris": {"ios": "https://dc.lft.to/lastmile_qr_scan", "android": "https://dc.lft.to/lastmile_qr_scan"}, "is_reserved": 0, "fusion_lon": 0.0, "fusion_lat": 0.0, "lon": -77.03656733333334, "name": "363cccd96e2d2a09338449deef0a8cf0"}, {"bike_id": "b5fc2230681376a0cd200d4fa08a91bb", "type": "electric_scooter", "is_disabled": 0, "lat": 38.91751583333333, "rental_uris": {"ios": "https://dc.lft.to/lastmile_qr_scan", "android": "https://dc.lft.to/lastmile_qr_scan"}, "is_reserved": 0, "fusion_lon": 0.0, "fusion_lat": 0.0, "lon": -77.03663966666667, "name": "b5fc2230681376a0cd200d4fa08a91bb"}, {"bike_id": "91012dbed1f981b2ecbbe1ab9e91e120", "type": "electric_scooter", "is_disabled": 0, "lat": 38.90933366666667, "rental_uris": {"ios": "https://dc.lft.to/lastmile_qr_scan", "android": "https://dc.lft.to/lastmile_qr_scan"}, "is_reserved": 0, "fusion_lon": 0.0, "fusion_lat": 0.0, "lon": -77.02316383333333, "name": "91012dbed1f981b2ecbbe1ab9e91e120"}, {"bike_id": "cc3db428ab97b8b5c78616e2d478f940", "type": "electric_scooter", "is_disabled": 0, "lat": 38.898418, "rental_uris": {"ios": "https://dc.lft.to/lastmile_qr_scan", "android": "https://dc.lft.to/lastmile_qr_scan"}, "is_reserved": 0, "fusion_lon": 0.0, "fusion_lat": 0.0, "lon": -76.94632016666667, "name": "cc3db428ab97b8b5c78616e2d478f940"}, {"bike_id": "47ad88e519c676a46ac50aa61289b147", "type": "electric_scooter", "is_disabled": 0, "lat": 38.926045333333334, "rental_uris": {"ios": "https://dc.lft.to/lastmile_qr_scan", "android": "https://dc.lft.to/lastmile_qr_scan"}, "is_reserved": 0, "fusion_lon": 0.0, "fusion_lat": 0.0, "lon": -77.10246366666667, "name": "47ad88e519c676a46ac50aa61289b147"}, {"bike_id": "64841c5c9204c6d485db6df4e6a4df99", "type": "electric_scooter", "is_disabled": 0, "lat": 38.8971835, "rental_uris": {"ios": "https://dc.lft.to/lastmile_qr_scan", "android": "https://dc.lft.to/lastmile_qr_scan"}, "is_reserved": 0, "fusion_lon": 0.0, "fusion_lat": 0.0, "lon": -77.04882633333334, "name": "64841c5c9204c6d485db6df4e6a4df99"}, {"bike_id": "94abc899b5a6a6eb188a5da13eaa1726", "type": "electric_scooter", "is_disabled": 0, "lat": 38.89218983333333, "rental_uris": {"ios": "https://dc.lft.to/lastmile_qr_scan", "android": "https://dc.lft.to/lastmile_qr_scan"}, "is_reserved": 0, "fusion_lon": 0.0, "fusion_lat": 0.0, "lon": -77.026303, "name": "94abc899b5a6a6eb188a5da13eaa1726"}, {"bike_id": "edf48f3615e17405f17bdcfcdb9c3915", "type": "electric_scooter", "is_disabled": 0, "lat": 38.91703283333333, "rental_uris": {"ios": "https://dc.lft.to/lastmile_qr_scan", "android": "https://dc.lft.to/lastmile_qr_scan"}, "is_reserved": 0, "fusion_lon": 0.0, "fusion_lat": 0.0, "lon": -77.02410133333333, "name": "edf48f3615e17405f17bdcfcdb9c3915"}, {"bike_id": "1b385f21b81305feeb6354d4487dda76", "type": "electric_scooter", "is_disabled": 0, "lat": 38.910181333333334, "rental_uris": {"ios": "https://dc.lft.to/lastmile_qr_scan", "android": "https://dc.lft.to/lastmile_qr_scan"}, "is_reserved": 0, "fusion_lon": 0.0, "fusion_lat": 0.0, "lon": -77.00918183333333, "name": "1b385f21b81305feeb6354d4487dda76"}, {"bike_id": "276da1d4389b507d0e80659df3670c98", "type": "electric_scooter", "is_disabled": 0, "lat": 38.91747866666667, "rental_uris": {"ios": "https://dc.lft.to/lastmile_qr_scan", "android": "https://dc.lft.to/lastmile_qr_scan"}, "is_reserved": 0, "fusion_lon": 0.0, "fusion_lat": 0.0, "lon": -77.04083583333333, "name": "276da1d4389b507d0e80659df3670c98"}, {"bike_id": "e97445eb63c12258cf36355d02980ec5", "type": "electric_scooter", "is_disabled": 0, "lat": 38.8310265, "rental_uris": {"ios": "https://dc.lft.to/lastmile_qr_scan", "android": "https://dc.lft.to/lastmile_qr_scan"}, "is_reserved": 0, "fusion_lon": 0.0, "fusion_lat": 0.0, "lon": -77.05163316666666, "name": "e97445eb63c12258cf36355d02980ec5"}, {"bike_id": "df5ca08e9d070015591dbfc27d7a1246", "type": "electric_scooter", "is_disabled": 0, "lat": 38.90825, "rental_uris": {"ios": "https://dc.lft.to/lastmile_qr_scan", "android": "https://dc.lft.to/lastmile_qr_scan"}, "is_reserved": 0, "fusion_lon": 0.0, "fusion_lat": 0.0, "lon": -77.04462166666667, "name": "df5ca08e9d070015591dbfc27d7a1246"}, {"bike_id": "432af7e9b0b4acd3a91a68e774774667", "type": "electric_scooter", "is_disabled": 0, "lat": 38.86736233333333, "rental_uris": {"ios": "https://dc.lft.to/lastmile_qr_scan", "android": "https://dc.lft.to/lastmile_qr_scan"}, "is_reserved": 0, "fusion_lon": 0.0, "fusion_lat": 0.0, "lon": -76.97866366666666, "name": "432af7e9b0b4acd3a91a68e774774667"}, {"bike_id": "b23aba1b52cc5adfe8956a652cd61426", "type": "electric_scooter", "is_disabled": 0, "lat": 38.90735983333333, "rental_uris": {"ios": "https://dc.lft.to/lastmile_qr_scan", "android": "https://dc.lft.to/lastmile_qr_scan"}, "is_reserved": 0, "fusion_lon": 0.0, "fusion_lat": 0.0, "lon": -76.97968283333333, "name": "b23aba1b52cc5adfe8956a652cd61426"}, {"bike_id": "c22489102cab4247f5e0c54f093ca449", "type": "electric_bike", "is_disabled": 0, "lat": 38.80381416666667, "rental_uris": {"ios": "https://dc.lft.to/lastmile_qr_scan", "android": "https://dc.lft.to/lastmile_qr_scan"}, "is_reserved": 0, "fusion_lon": 0.0, "fusion_lat": 0.0, "lon": -77.06748433333334, "name": "c22489102cab4247f5e0c54f093ca449"}, {"bike_id": "925889fac84a9b4329bc15efe8cb8217", "type": "electric_scooter", "is_disabled": 0, "lat": 38.91249, "rental_uris": {"ios": "https://dc.lft.to/lastmile_qr_scan", "android": "https://dc.lft.to/lastmile_qr_scan"}, "is_reserved": 0, "fusion_lon": 0.0, "fusion_lat": 0.0, "lon": -77.0295755, "name": "925889fac84a9b4329bc15efe8cb8217"}, {"bike_id": "f270bfd86020f2aa893aa4736df9eda4", "type": "electric_bike", "is_disabled": 0, "lat": 38.9550245, "rental_uris": {"ios": "https://dc.lft.to/lastmile_qr_scan", "android": "https://dc.lft.to/lastmile_qr_scan"}, "is_reserved": 0, "fusion_lon": 0.0, "fusion_lat": 0.0, "lon": -77.06994933333333, "name": "f270bfd86020f2aa893aa4736df9eda4"}, {"bike_id": "f066358da9b4ac29f764321f29418573", "type": "electric_scooter", "is_disabled": 0, "lat": 38.917705166666664, "rental_uris": {"ios": "https://dc.lft.to/lastmile_qr_scan", "android": "https://dc.lft.to/lastmile_qr_scan"}, "is_reserved": 0, "fusion_lon": 0.0, "fusion_lat": 0.0, "lon": -77.03455016666666, "name": "f066358da9b4ac29f764321f29418573"}, {"bike_id": "7145fbb2a9b9e920df88a57810ecb22a", "type": "electric_scooter", "is_disabled": 0, "lat": 38.90756016666667, "rental_uris": {"ios": "https://dc.lft.to/lastmile_qr_scan", "android": "https://dc.lft.to/lastmile_qr_scan"}, "is_reserved": 0, "fusion_lon": 0.0, "fusion_lat": 0.0, "lon": -77.03182016666666, "name": "7145fbb2a9b9e920df88a57810ecb22a"}, {"bike_id": "3945535ae803e9fa0a11f27ba77b9333", "type": "electric_scooter", "is_disabled": 0, "lat": 38.917023666666665, "rental_uris": {"ios": "https://dc.lft.to/lastmile_qr_scan", "android": "https://dc.lft.to/lastmile_qr_scan"}, "is_reserved": 0, "fusion_lon": 0.0, "fusion_lat": 0.0, "lon": -77.0285045, "name": "3945535ae803e9fa0a11f27ba77b9333"}, {"bike_id": "b389877192bed584473c5f295c76ea3f", "type": "electric_scooter", "is_disabled": 0, "lat": 38.892309, "rental_uris": {"ios": "https://dc.lft.to/lastmile_qr_scan", "android": "https://dc.lft.to/lastmile_qr_scan"}, "is_reserved": 0, "fusion_lon": 0.0, "fusion_lat": 0.0, "lon": -77.05003433333333, "name": "b389877192bed584473c5f295c76ea3f"}, {"bike_id": "329f573e0ce34dfd5d157ccdd6601e5c", "type": "electric_scooter", "is_disabled": 0, "lat": 38.952329166666665, "rental_uris": {"ios": "https://dc.lft.to/lastmile_qr_scan", "android": "https://dc.lft.to/lastmile_qr_scan"}, "is_reserved": 0, "fusion_lon": 0.0, "fusion_lat": 0.0, "lon": -77.009512, "name": "329f573e0ce34dfd5d157ccdd6601e5c"}, {"bike_id": "a02110ebc427ddbc31522082ea5aeac2", "type": "electric_scooter", "is_disabled": 0, "lat": 38.876265, "rental_uris": {"ios": "https://dc.lft.to/lastmile_qr_scan", "android": "https://dc.lft.to/lastmile_qr_scan"}, "is_reserved": 0, "fusion_lon": 0.0, "fusion_lat": 0.0, "lon": -77.0005995, "name": "a02110ebc427ddbc31522082ea5aeac2"}, {"bike_id": "b2ae22ef7e4d687ae08dd1d80b1e412c", "type": "electric_scooter", "is_disabled": 0, "lat": 38.926705166666665, "rental_uris": {"ios": "https://dc.lft.to/lastmile_qr_scan", "android": "https://dc.lft.to/lastmile_qr_scan"}, "is_reserved": 0, "fusion_lon": 0.0, "fusion_lat": 0.0, "lon": -77.01510366666666, "name": "b2ae22ef7e4d687ae08dd1d80b1e412c"}, {"bike_id": "c7e15bc908dc4d5a9e430f857078314d", "type": "electric_scooter", "is_disabled": 0, "lat": 38.90177166666667, "rental_uris": {"ios": "https://dc.lft.to/lastmile_qr_scan", "android": "https://dc.lft.to/lastmile_qr_scan"}, "is_reserved": 0, "fusion_lon": 0.0, "fusion_lat": 0.0, "lon": -77.03907616666666, "name": "c7e15bc908dc4d5a9e430f857078314d"}, {"bike_id": "5ae591d117e87a93a036caf583ebaca2", "type": "electric_scooter", "is_disabled": 0, "lat": 38.908533166666665, "rental_uris": {"ios": "https://dc.lft.to/lastmile_qr_scan", "android": "https://dc.lft.to/lastmile_qr_scan"}, "is_reserved": 0, "fusion_lon": 0.0, "fusion_lat": 0.0, "lon": -77.02066, "name": "5ae591d117e87a93a036caf583ebaca2"}, {"bike_id": "12d7869d3c8ca9aac0f2a97621bdd047", "type": "electric_scooter", "is_disabled": 0, "lat": 38.919515833333335, "rental_uris": {"ios": "https://dc.lft.to/lastmile_qr_scan", "android": "https://dc.lft.to/lastmile_qr_scan"}, "is_reserved": 0, "fusion_lon": 0.0, "fusion_lat": 0.0, "lon": -77.04882383333333, "name": "12d7869d3c8ca9aac0f2a97621bdd047"}, {"bike_id": "2a54357d1150304d44eae0ecd80d5952", "type": "electric_scooter", "is_disabled": 0, "lat": 38.928621, "rental_uris": {"ios": "https://dc.lft.to/lastmile_qr_scan", "android": "https://dc.lft.to/lastmile_qr_scan"}, "is_reserved": 0, "fusion_lon": 0.0, "fusion_lat": 0.0, "lon": -77.02176866666667, "name": "2a54357d1150304d44eae0ecd80d5952"}, {"bike_id": "142697704b7dc0505452295dadc4992e", "type": "electric_bike", "is_disabled": 0, "lat": 38.854386833333336, "rental_uris": {"ios": "https://dc.lft.to/lastmile_qr_scan", "android": "https://dc.lft.to/lastmile_qr_scan"}, "is_reserved": 0, "fusion_lon": 0.0, "fusion_lat": 0.0, "lon": -77.08309916666667, "name": "142697704b7dc0505452295dadc4992e"}, {"bike_id": "7de8de964c0548135dd1b45078fcb7fd", "type": "electric_scooter", "is_disabled": 0, "lat": 38.93631, "rental_uris": {"ios": "https://dc.lft.to/lastmile_qr_scan", "android": "https://dc.lft.to/lastmile_qr_scan"}, "is_reserved": 0, "fusion_lon": 0.0, "fusion_lat": 0.0, "lon": -77.036616, "name": "7de8de964c0548135dd1b45078fcb7fd"}, {"bike_id": "630052df27967f841f25dc603530a532", "type": "electric_scooter", "is_disabled": 0, "lat": 38.952184833333334, "rental_uris": {"ios": "https://dc.lft.to/lastmile_qr_scan", "android": "https://dc.lft.to/lastmile_qr_scan"}, "is_reserved": 0, "fusion_lon": 0.0, "fusion_lat": 0.0, "lon": -77.07071516666667, "name": "630052df27967f841f25dc603530a532"}, {"bike_id": "b3c99fa5861d08c2b4c1d3f7470dbdf9", "type": "electric_scooter", "is_disabled": 0, "lat": 38.943606, "rental_uris": {"ios": "https://dc.lft.to/lastmile_qr_scan", "android": "https://dc.lft.to/lastmile_qr_scan"}, "is_reserved": 0, "fusion_lon": 0.0, "fusion_lat": 0.0, "lon": -77.0323375, "name": "b3c99fa5861d08c2b4c1d3f7470dbdf9"}, {"bike_id": "bfa59268e71a9bfe56cb23209cda0863", "type": "electric_scooter", "is_disabled": 0, "lat": 38.9053565, "rental_uris": {"ios": "https://dc.lft.to/lastmile_qr_scan", "android": "https://dc.lft.to/lastmile_qr_scan"}, "is_reserved": 0, "fusion_lon": 0.0, "fusion_lat": 0.0, "lon": -77.05020133333333, "name": "bfa59268e71a9bfe56cb23209cda0863"}, {"bike_id": "6a925d56dc18e1419a55b9397021d1da", "type": "electric_bike", "is_disabled": 0, "lat": 38.908386166666666, "rental_uris": {"ios": "https://dc.lft.to/lastmile_qr_scan", "android": "https://dc.lft.to/lastmile_qr_scan"}, "is_reserved": 0, "fusion_lon": 0.0, "fusion_lat": 0.0, "lon": -76.93316583333333, "name": "6a925d56dc18e1419a55b9397021d1da"}, {"bike_id": "18b47577e8b96fe28bfdedf87acfb535", "type": "electric_scooter", "is_disabled": 0, "lat": 38.884048, "rental_uris": {"ios": "https://dc.lft.to/lastmile_qr_scan", "android": "https://dc.lft.to/lastmile_qr_scan"}, "is_reserved": 0, "fusion_lon": 0.0, "fusion_lat": 0.0, "lon": -76.95396216666667, "name": "18b47577e8b96fe28bfdedf87acfb535"}, {"bike_id": "1e353bc96194dc77d9cfaafd21fa995a", "type": "electric_scooter", "is_disabled": 0, "lat": 38.910688, "rental_uris": {"ios": "https://dc.lft.to/lastmile_qr_scan", "android": "https://dc.lft.to/lastmile_qr_scan"}, "is_reserved": 0, "fusion_lon": 0.0, "fusion_lat": 0.0, "lon": -77.03747083333333, "name": "1e353bc96194dc77d9cfaafd21fa995a"}, {"bike_id": "7b0357d952bd56ff2b81d53718beb53a", "type": "electric_scooter", "is_disabled": 0, "lat": 38.905757, "rental_uris": {"ios": "https://dc.lft.to/lastmile_qr_scan", "android": "https://dc.lft.to/lastmile_qr_scan"}, "is_reserved": 0, "fusion_lon": 0.0, "fusion_lat": 0.0, "lon": -76.97631283333334, "name": "7b0357d952bd56ff2b81d53718beb53a"}, {"bike_id": "47a919dc4e2766357dfbe386498b5062", "type": "electric_scooter", "is_disabled": 0, "lat": 38.87093683333333, "rental_uris": {"ios": "https://dc.lft.to/lastmile_qr_scan", "android": "https://dc.lft.to/lastmile_qr_scan"}, "is_reserved": 0, "fusion_lon": 0.0, "fusion_lat": 0.0, "lon": -77.01212516666666, "name": "47a919dc4e2766357dfbe386498b5062"}, {"bike_id": "965a0ec4587c02801cea29843a9208d5", "type": "electric_scooter", "is_disabled": 0, "lat": 38.928561333333334, "rental_uris": {"ios": "https://dc.lft.to/lastmile_qr_scan", "android": "https://dc.lft.to/lastmile_qr_scan"}, "is_reserved": 0, "fusion_lon": 0.0, "fusion_lat": 0.0, "lon": -77.05443933333333, "name": "965a0ec4587c02801cea29843a9208d5"}, {"bike_id": "c36006bb9afb76fa6b6114818a52ce42", "type": "electric_scooter", "is_disabled": 0, "lat": 38.90883866666667, "rental_uris": {"ios": "https://dc.lft.to/lastmile_qr_scan", "android": "https://dc.lft.to/lastmile_qr_scan"}, "is_reserved": 0, "fusion_lon": 0.0, "fusion_lat": 0.0, "lon": -77.04325416666667, "name": "c36006bb9afb76fa6b6114818a52ce42"}, {"bike_id": "15a25c30564ea73bfcda8eb8b53fb524", "type": "electric_scooter", "is_disabled": 0, "lat": 38.90908066666667, "rental_uris": {"ios": "https://dc.lft.to/lastmile_qr_scan", "android": "https://dc.lft.to/lastmile_qr_scan"}, "is_reserved": 0, "fusion_lon": 0.0, "fusion_lat": 0.0, "lon": -77.04485933333333, "name": "15a25c30564ea73bfcda8eb8b53fb524"}, {"bike_id": "8172dbc21d8f1b4caf7768dd19035a45", "type": "electric_scooter", "is_disabled": 0, "lat": 38.922714166666665, "rental_uris": {"ios": "https://dc.lft.to/lastmile_qr_scan", "android": "https://dc.lft.to/lastmile_qr_scan"}, "is_reserved": 0, "fusion_lon": 0.0, "fusion_lat": 0.0, "lon": -77.032789, "name": "8172dbc21d8f1b4caf7768dd19035a45"}, {"bike_id": "7a4bcbb3de628142c6bca20c6edc0ce4", "type": "electric_scooter", "is_disabled": 0, "lat": 38.9136885, "rental_uris": {"ios": "https://dc.lft.to/lastmile_qr_scan", "android": "https://dc.lft.to/lastmile_qr_scan"}, "is_reserved": 0, "fusion_lon": 0.0, "fusion_lat": 0.0, "lon": -77.0459085, "name": "7a4bcbb3de628142c6bca20c6edc0ce4"}, {"bike_id": "cf550582e6a182daed1e0d41e2d59545", "type": "electric_scooter", "is_disabled": 0, "lat": 38.91707066666667, "rental_uris": {"ios": "https://dc.lft.to/lastmile_qr_scan", "android": "https://dc.lft.to/lastmile_qr_scan"}, "is_reserved": 0, "fusion_lon": 0.0, "fusion_lat": 0.0, "lon": -77.0334705, "name": "cf550582e6a182daed1e0d41e2d59545"}, {"bike_id": "899b74a02372453953ce095820dbb2d3", "type": "electric_scooter", "is_disabled": 0, "lat": 38.9006065, "rental_uris": {"ios": "https://dc.lft.to/lastmile_qr_scan", "android": "https://dc.lft.to/lastmile_qr_scan"}, "is_reserved": 0, "fusion_lon": 0.0, "fusion_lat": 0.0, "lon": -77.013399, "name": "899b74a02372453953ce095820dbb2d3"}, {"bike_id": "5285a9dbbbd402c62a1683cd29b1d6bb", "type": "electric_scooter", "is_disabled": 0, "lat": 38.89843233333333, "rental_uris": {"ios": "https://dc.lft.to/lastmile_qr_scan", "android": "https://dc.lft.to/lastmile_qr_scan"}, "is_reserved": 0, "fusion_lon": 0.0, "fusion_lat": 0.0, "lon": -76.94635233333334, "name": "5285a9dbbbd402c62a1683cd29b1d6bb"}, {"bike_id": "99287445b0f78caef1ccf68548d95731", "type": "electric_scooter", "is_disabled": 0, "lat": 38.90200083333333, "rental_uris": {"ios": "https://dc.lft.to/lastmile_qr_scan", "android": "https://dc.lft.to/lastmile_qr_scan"}, "is_reserved": 0, "fusion_lon": 0.0, "fusion_lat": 0.0, "lon": -76.98839516666666, "name": "99287445b0f78caef1ccf68548d95731"}, {"bike_id": "c4126851c26dc7dd7cc2ba709800331d", "type": "electric_scooter", "is_disabled": 0, "lat": 38.910528166666666, "rental_uris": {"ios": "https://dc.lft.to/lastmile_qr_scan", "android": "https://dc.lft.to/lastmile_qr_scan"}, "is_reserved": 0, "fusion_lon": 0.0, "fusion_lat": 0.0, "lon": -77.043537, "name": "c4126851c26dc7dd7cc2ba709800331d"}, {"bike_id": "b7b032b8ad317b0e095deb45b94e4341", "type": "electric_scooter", "is_disabled": 0, "lat": 38.87581433333333, "rental_uris": {"ios": "https://dc.lft.to/lastmile_qr_scan", "android": "https://dc.lft.to/lastmile_qr_scan"}, "is_reserved": 0, "fusion_lon": 0.0, "fusion_lat": 0.0, "lon": -77.012727, "name": "b7b032b8ad317b0e095deb45b94e4341"}, {"bike_id": "f389297404bdc9705e896465608fc46e", "type": "electric_scooter", "is_disabled": 0, "lat": 38.928351, "rental_uris": {"ios": "https://dc.lft.to/lastmile_qr_scan", "android": "https://dc.lft.to/lastmile_qr_scan"}, "is_reserved": 0, "fusion_lon": 0.0, "fusion_lat": 0.0, "lon": -77.043453, "name": "f389297404bdc9705e896465608fc46e"}, {"bike_id": "676e64d823d6841a242a1d0408839a66", "type": "electric_scooter", "is_disabled": 0, "lat": 38.911086833333336, "rental_uris": {"ios": "https://dc.lft.to/lastmile_qr_scan", "android": "https://dc.lft.to/lastmile_qr_scan"}, "is_reserved": 0, "fusion_lon": 0.0, "fusion_lat": 0.0, "lon": -77.02198533333333, "name": "676e64d823d6841a242a1d0408839a66"}, {"bike_id": "24a346391c090cb33af1250867a39ce9", "type": "electric_scooter", "is_disabled": 0, "lat": 38.89224466666667, "rental_uris": {"ios": "https://dc.lft.to/lastmile_qr_scan", "android": "https://dc.lft.to/lastmile_qr_scan"}, "is_reserved": 0, "fusion_lon": 0.0, "fusion_lat": 0.0, "lon": -77.04650716666667, "name": "24a346391c090cb33af1250867a39ce9"}, {"bike_id": "528995e6419341f7b3e1c79bdb8b608d", "type": "electric_scooter", "is_disabled": 0, "lat": 38.91590466666667, "rental_uris": {"ios": "https://dc.lft.to/lastmile_qr_scan", "android": "https://dc.lft.to/lastmile_qr_scan"}, "is_reserved": 0, "fusion_lon": 0.0, "fusion_lat": 0.0, "lon": -77.04523116666667, "name": "528995e6419341f7b3e1c79bdb8b608d"}, {"bike_id": "85420c7c545417a661d7b892a4a366a4", "type": "electric_scooter", "is_disabled": 0, "lat": 38.909869, "rental_uris": {"ios": "https://dc.lft.to/lastmile_qr_scan", "android": "https://dc.lft.to/lastmile_qr_scan"}, "is_reserved": 0, "fusion_lon": 0.0, "fusion_lat": 0.0, "lon": -77.03377316666666, "name": "85420c7c545417a661d7b892a4a366a4"}, {"bike_id": "4c7b26c173e7073002a6aee71cf3bd30", "type": "electric_scooter", "is_disabled": 0, "lat": 38.86628366666667, "rental_uris": {"ios": "https://dc.lft.to/lastmile_qr_scan", "android": "https://dc.lft.to/lastmile_qr_scan"}, "is_reserved": 0, "fusion_lon": 0.0, "fusion_lat": 0.0, "lon": -76.9871325, "name": "4c7b26c173e7073002a6aee71cf3bd30"}, {"bike_id": "114e6c5be52f7cde8c57914d5cd15f54", "type": "electric_scooter", "is_disabled": 0, "lat": 38.899598833333336, "rental_uris": {"ios": "https://dc.lft.to/lastmile_qr_scan", "android": "https://dc.lft.to/lastmile_qr_scan"}, "is_reserved": 0, "fusion_lon": 0.0, "fusion_lat": 0.0, "lon": -76.92634566666666, "name": "114e6c5be52f7cde8c57914d5cd15f54"}, {"bike_id": "ae66f4087a90ceef12c6f725749159a3", "type": "electric_scooter", "is_disabled": 0, "lat": 38.92901916666667, "rental_uris": {"ios": "https://dc.lft.to/lastmile_qr_scan", "android": "https://dc.lft.to/lastmile_qr_scan"}, "is_reserved": 0, "fusion_lon": 0.0, "fusion_lat": 0.0, "lon": -77.03252483333333, "name": "ae66f4087a90ceef12c6f725749159a3"}, {"bike_id": "ef9ffca481d43f5b20bc66d3ddf6ba9c", "type": "electric_scooter", "is_disabled": 0, "lat": 38.924837, "rental_uris": {"ios": "https://dc.lft.to/lastmile_qr_scan", "android": "https://dc.lft.to/lastmile_qr_scan"}, "is_reserved": 0, "fusion_lon": 0.0, "fusion_lat": 0.0, "lon": -77.05750233333333, "name": "ef9ffca481d43f5b20bc66d3ddf6ba9c"}, {"bike_id": "7ad105debc3a23634d06ab57f7559059", "type": "electric_scooter", "is_disabled": 0, "lat": 38.910065, "rental_uris": {"ios": "https://dc.lft.to/lastmile_qr_scan", "android": "https://dc.lft.to/lastmile_qr_scan"}, "is_reserved": 0, "fusion_lon": 0.0, "fusion_lat": 0.0, "lon": -77.0442235, "name": "7ad105debc3a23634d06ab57f7559059"}, {"bike_id": "47bca10b194552129b3895f5f626c3e5", "type": "electric_scooter", "is_disabled": 0, "lat": 38.905864666666666, "rental_uris": {"ios": "https://dc.lft.to/lastmile_qr_scan", "android": "https://dc.lft.to/lastmile_qr_scan"}, "is_reserved": 0, "fusion_lon": 0.0, "fusion_lat": 0.0, "lon": -77.03832683333333, "name": "47bca10b194552129b3895f5f626c3e5"}, {"bike_id": "08a4c4cc5d9c2f8db01340a860a32584", "type": "electric_bike", "is_disabled": 0, "lat": 38.872813, "rental_uris": {"ios": "https://dc.lft.to/lastmile_qr_scan", "android": "https://dc.lft.to/lastmile_qr_scan"}, "is_reserved": 0, "fusion_lon": 0.0, "fusion_lat": 0.0, "lon": -77.23318166666667, "name": "08a4c4cc5d9c2f8db01340a860a32584"}, {"bike_id": "fcb9082bbc06dcf984644291a8910a97", "type": "electric_scooter", "is_disabled": 0, "lat": 38.91422933333333, "rental_uris": {"ios": "https://dc.lft.to/lastmile_qr_scan", "android": "https://dc.lft.to/lastmile_qr_scan"}, "is_reserved": 0, "fusion_lon": 0.0, "fusion_lat": 0.0, "lon": -77.04813116666666, "name": "fcb9082bbc06dcf984644291a8910a97"}, {"bike_id": "f054288c7bb06cf00278cb95f1b46165", "type": "electric_scooter", "is_disabled": 0, "lat": 38.928545166666666, "rental_uris": {"ios": "https://dc.lft.to/lastmile_qr_scan", "android": "https://dc.lft.to/lastmile_qr_scan"}, "is_reserved": 0, "fusion_lon": 0.0, "fusion_lat": 0.0, "lon": -77.01953733333333, "name": "f054288c7bb06cf00278cb95f1b46165"}, {"bike_id": "6583ad5268f2182c7e377ddbb8c1f472", "type": "electric_scooter", "is_disabled": 0, "lat": 38.94790416666667, "rental_uris": {"ios": "https://dc.lft.to/lastmile_qr_scan", "android": "https://dc.lft.to/lastmile_qr_scan"}, "is_reserved": 0, "fusion_lon": 0.0, "fusion_lat": 0.0, "lon": -77.02132083333333, "name": "6583ad5268f2182c7e377ddbb8c1f472"}, {"bike_id": "b29f85c8ba20215f12058c999b26351a", "type": "electric_scooter", "is_disabled": 0, "lat": 38.921504, "rental_uris": {"ios": "https://dc.lft.to/lastmile_qr_scan", "android": "https://dc.lft.to/lastmile_qr_scan"}, "is_reserved": 0, "fusion_lon": 0.0, "fusion_lat": 0.0, "lon": -77.03533966666667, "name": "b29f85c8ba20215f12058c999b26351a"}, {"bike_id": "49083724b52984dcd07377b8f44df0fc", "type": "electric_scooter", "is_disabled": 0, "lat": 38.91373983333333, "rental_uris": {"ios": "https://dc.lft.to/lastmile_qr_scan", "android": "https://dc.lft.to/lastmile_qr_scan"}, "is_reserved": 0, "fusion_lon": 0.0, "fusion_lat": 0.0, "lon": -77.0726595, "name": "49083724b52984dcd07377b8f44df0fc"}, {"bike_id": "2f3653ad983c29ad94bd7379bd3ba0ba", "type": "electric_bike", "is_disabled": 0, "lat": 38.880621833333336, "rental_uris": {"ios": "https://dc.lft.to/lastmile_qr_scan", "android": "https://dc.lft.to/lastmile_qr_scan"}, "is_reserved": 0, "fusion_lon": 0.0, "fusion_lat": 0.0, "lon": -76.96243583333333, "name": "2f3653ad983c29ad94bd7379bd3ba0ba"}, {"bike_id": "6759a35257b1c9bd68cfc3f07e66e99a", "type": "electric_bike", "is_disabled": 0, "lat": 38.91016466666667, "rental_uris": {"ios": "https://dc.lft.to/lastmile_qr_scan", "android": "https://dc.lft.to/lastmile_qr_scan"}, "is_reserved": 0, "fusion_lon": 0.0, "fusion_lat": 0.0, "lon": -77.2279705, "name": "6759a35257b1c9bd68cfc3f07e66e99a"}, {"bike_id": "261262d32abac9358afe5c6caffa9b9d", "type": "electric_scooter", "is_disabled": 0, "lat": 38.920036, "rental_uris": {"ios": "https://dc.lft.to/lastmile_qr_scan", "android": "https://dc.lft.to/lastmile_qr_scan"}, "is_reserved": 0, "fusion_lon": 0.0, "fusion_lat": 0.0, "lon": -77.04185416666667, "name": "261262d32abac9358afe5c6caffa9b9d"}, {"bike_id": "023fc571f24effed079751e448eaa3b4", "type": "electric_scooter", "is_disabled": 0, "lat": 38.86986816666667, "rental_uris": {"ios": "https://dc.lft.to/lastmile_qr_scan", "android": "https://dc.lft.to/lastmile_qr_scan"}, "is_reserved": 0, "fusion_lon": 0.0, "fusion_lat": 0.0, "lon": -76.98168033333333, "name": "023fc571f24effed079751e448eaa3b4"}, {"bike_id": "e169fb212aa39a89465ad38df4eeefea", "type": "electric_scooter", "is_disabled": 0, "lat": 38.947045, "rental_uris": {"ios": "https://dc.lft.to/lastmile_qr_scan", "android": "https://dc.lft.to/lastmile_qr_scan"}, "is_reserved": 0, "fusion_lon": 0.0, "fusion_lat": 0.0, "lon": -77.01936983333333, "name": "e169fb212aa39a89465ad38df4eeefea"},