{"data": {"bikes": [{"rental_uris": {"ios": "https://dc.lft.to/lastmile_qr_scan", "android": "https://dc.lft.to/lastmile_qr_scan"}, "type": "electric_bike", "name": "55f33f15ff5b1d8341804aa17d697ea0", "is_reserved": 0, "lon": -76.98094033333334, "is_disabled": 0, "fusion_lat": 0.0, "lat": 38.95361, "bike_id": "55f33f15ff5b1d8341804aa17d697ea0", "fusion_lon": 0.0}, {"rental_uris": {"ios": "https://dc.lft.to/lastmile_qr_scan", "android": "https://dc.lft.to/lastmile_qr_scan"}, "type": "electric_scooter", "name": "c14d821adcc500f23273c30a02ecf90c", "is_reserved": 0, "lon": -77.05790783333333, "is_disabled": 0, "fusion_lat": 0.0, "lat": 38.905121, "bike_id": "c14d821adcc500f23273c30a02ecf90c", "fusion_lon": 0.0}, {"rental_uris": {"ios": "https://dc.lft.to/lastmile_qr_scan", "android": "https://dc.lft.to/lastmile_qr_scan"}, "type": "electric_scooter", "name": "4b38cfd5882fd6de8f01e344af10906f", "is_reserved": 0, "lon": -77.03264666666666, "is_disabled": 0, "fusion_lat": 0.0, "lat": 38.935235666666664, "bike_id": "4b38cfd5882fd6de8f01e344af10906f", "fusion_lon": 0.0}, {"rental_uris": {"ios": "https://dc.lft.to/lastmile_qr_scan", "android": "https://dc.lft.to/lastmile_qr_scan"}, "type": "electric_scooter", "name": "60c3ca922fab96bc447904cfb9446b2b", "is_reserved": 0, "lon": -76.99633933333334, "is_disabled": 0, "fusion_lat": 0.0, "lat": 38.8876525, "bike_id": "60c3ca922fab96bc447904cfb9446b2b", "fusion_lon": 0.0}, {"rental_uris": {"ios": "https://dc.lft.to/lastmile_qr_scan", "android": "https://dc.lft.to/lastmile_qr_scan"}, "type": "electric_scooter", "name": "d5f02b7d13838da250fea626eced1134", "is_reserved": 0, "lon": -77.033258, "is_disabled": 0, "fusion_lat": 0.0, "lat": 38.919106, "bike_id": "d5f02b7d13838da250fea626eced1134", "fusion_lon": 0.0}, {"rental_uris": {"ios": "https://dc.lft.to/lastmile_qr_scan", "android": "https://dc.lft.to/lastmile_qr_scan"}, "type": "electric_scooter", "name": "0d71ba6b0775d1b00e7ab46da4b41e8a", "is_reserved": 0, "lon": -77.02151516666666, "is_disabled": 0, "fusion_lat": 0.0, "lat": 38.887438, "bike_id": "0d71ba6b0775d1b00e7ab46da4b41e8a", "fusion_lon": 0.0}, {"rental_uris": {"ios": "https://dc.lft.to/lastmile_qr_scan", "android": "https://dc.lft.to/lastmile_qr_scan"}, "type": "electric_scooter", "name": "4f60d071774c145911ca6ccfcbd57aeb", "is_reserved": 0, "lon": -77.02639, "is_disabled": 0, "fusion_lat": 0.0, "lat": 38.92677, "bike_id": "4f60d071774c145911ca6ccfcbd57aeb", "fusion_lon": 0.0}, {"rental_uris": {"ios": "https://dc.lft.to/lastmile_qr_scan", "android": "https://dc.lft.to/lastmile_qr_scan"}, "type": "electric_bike", "name": "6db795a4f7a35babe31614c989035f70", "is_reserved": 0, "lon": -76.99546166666667, "is_disabled": 0, "fusion_lat": 0.0, "lat": 38.831593166666664, "bike_id": "6db795a4f7a35babe31614c989035f70", "fusion_lon": 0.0}, {"rental_uris": {"ios": "https://dc.lft.to/lastmile_qr_scan", "android": "https://dc.lft.to/lastmile_qr_scan"}, "type": "electric_scooter", "name": "a3db5485e317208568636e4f1648acd9", "is_reserved": 0, "lon": -76.97937633333333, "is_disabled": 0, "fusion_lat": 0.0, "lat": 38.906592333333336, "bike_id": "a3db5485e317208568636e4f1648acd9", "fusion_lon": 0.0}, {"rental_uris": {"ios": "https://dc.lft.to/lastmile_qr_scan", "android": "https://dc.lft.to/lastmile_qr_scan"}, "type": "electric_scooter", "name": "680b1f5551af885f66d8d1624b7a08c4", "is_reserved": 0, "lon": -76.95280933333333, "is_disabled": 0, "fusion_lat": 0.0, "lat": 38.890228, "bike_id": "680b1f5551af885f66d8d1624b7a08c4", "fusion_lon": 0.0}, {"rental_uris": {"ios": "https://dc.lft.to/lastmile_qr_scan", "android": "https://dc.lft.to/lastmile_qr_scan"}, "type": "electric_scooter", "name": "45d7146f6d78127337a08fdde2541b67", "is_reserved": 0, "lon": -77.00895883333334, "is_disabled": 0, "fusion_lat": 0.0, "lat": 38.898851666666665, "bike_id": "45d7146f6d78127337a08fdde2541b67", "fusion_lon": 0.0}, {"rental_uris": {"ios": "https://dc.lft.to/lastmile_qr_scan", "android": "https://dc.lft.to/lastmile_qr_scan"}, "type": "electric_scooter", "name": "caf22daad635c4a97bccdad4d6082ef0", "is_reserved": 0, "lon": -77.04504783333333, "is_disabled": 0, "fusion_lat": 0.0, "lat": 38.897346166666665, "bike_id": "caf22daad635c4a97bccdad4d6082ef0", "fusion_lon": 0.0}, {"rental_uris": {"ios": "https://dc.lft.to/lastmile_qr_scan", "android": "https://dc.lft.to/lastmile_qr_scan"}, "type": "electric_scooter", "name": "c9c0090f1180bd002b33298e011945df", "is_reserved": 0, "lon": -77.01704416666666, "is_disabled": 0, "fusion_lat": 0.0, "lat": 38.9047275, "bike_id": "c9c0090f1180bd002b33298e011945df", "fusion_lon": 0.0}, {"rental_uris": {"ios": "https://dc.lft.to/lastmile_qr_scan", "android": "https://dc.lft.to/lastmile_qr_scan"}, "type": "electric_scooter", "name": "372e053a8dd48c213fb5ffba35cf9aa4", "is_reserved": 0, "lon": -77.02595366666667, "is_disabled": 0, "fusion_lat": 0.0, "lat": 38.914022333333335, "bike_id": "372e053a8dd48c213fb5ffba35cf9aa4", "fusion_lon": 0.0}, {"rental_uris": {"ios": "https://dc.lft.to/lastmile_qr_scan", "android": "https://dc.lft.to/lastmile_qr_scan"}, "type": "electric_scooter", "name": "3d1a63cbf7c5e98027d7124d787ce2e0", "is_reserved": 0, "lon": -77.01771433333333, "is_disabled": 0, "fusion_lat": 0.0, "lat": 38.886303166666664, "bike_id": "3d1a63cbf7c5e98027d7124d787ce2e0", "fusion_lon": 0.0}, {"rental_uris": {"ios": "https://dc.lft.to/lastmile_qr_scan", "android": "https://dc.lft.to/lastmile_qr_scan"}, "type": "electric_bike", "name": "051d3501c6fd840d881679b4102fb427", "is_reserved": 0, "lon": -76.98818916666667, "is_disabled": 0, "fusion_lat": 0.0, "lat": 38.842769, "bike_id": "051d3501c6fd840d881679b4102fb427", "fusion_lon": 0.0}, {"rental_uris": {"ios": "https://dc.lft.to/lastmile_qr_scan", "android": "https://dc.lft.to/lastmile_qr_scan"}, "type": "electric_scooter", "name": "23f478bd0c92f2ef844d8494eb9ecc24", "is_reserved": 0, "lon": -76.98339516666667, "is_disabled": 0, "fusion_lat": 0.0, "lat": 38.90093983333333, "bike_id": "23f478bd0c92f2ef844d8494eb9ecc24", "fusion_lon": 0.0}, {"rental_uris": {"ios": "https://dc.lft.to/lastmile_qr_scan", "android": "https://dc.lft.to/lastmile_qr_scan"}, "type": "electric_scooter", "name": "2f71d6e4f4dc5fa468d6faa5eb778e36", "is_reserved": 0, "lon": -77.04641433333333, "is_disabled": 0, "fusion_lat": 0.0, "lat": 38.897426, "bike_id": "2f71d6e4f4dc5fa468d6faa5eb778e36", "fusion_lon": 0.0}, {"rental_uris": {"ios": "https://dc.lft.to/lastmile_qr_scan", "android": "https://dc.lft.to/lastmile_qr_scan"}, "type": "electric_scooter", "name": "4c19cee7259e08f1031bdca08176c006", "is_reserved": 0, "lon": -77.03826533333333, "is_disabled": 0, "fusion_lat": 0.0, "lat": 38.914974, "bike_id": "4c19cee7259e08f1031bdca08176c006", "fusion_lon": 0.0}, {"rental_uris": {"ios": "https://dc.lft.to/lastmile_qr_scan", "android": "https://dc.lft.to/lastmile_qr_scan"}, "type": "electric_scooter", "name": "ace5ed06d1b9b268747b0b6d92e19fc5", "is_reserved": 0, "lon": -77.02810683333334, "is_disabled": 0, "fusion_lat": 0.0, "lat": 38.89947433333333, "bike_id": "ace5ed06d1b9b268747b0b6d92e19fc5", "fusion_lon": 0.0}, {"rental_uris": {"ios": "https://dc.lft.to/lastmile_qr_scan", "android": "https://dc.lft.to/lastmile_qr_scan"}, "type": "electric_scooter", "name": "888476c69f136a05bda9495a2c5a6326", "is_reserved": 0, "lon": -77.02814383333333, "is_disabled": 0, "fusion_lat": 0.0, "lat": 38.92369216666667, "bike_id": "888476c69f136a05bda9495a2c5a6326", "fusion_lon": 0.0}, {"rental_uris": {"ios": "https://dc.lft.to/lastmile_qr_scan", "android": "https://dc.lft.to/lastmile_qr_scan"}, "type": "electric_scooter", "name": "b2ff8b6e3d4eab9f09ae4aeeb0706b31", "is_reserved": 0, "lon": -77.04037966666667, "is_disabled": 0, "fusion_lat": 0.0, "lat": 38.905792166666664, "bike_id": "b2ff8b6e3d4eab9f09ae4aeeb0706b31", "fusion_lon": 0.0}, {"rental_uris": {"ios": "https://dc.lft.to/lastmile_qr_scan", "android": "https://dc.lft.to/lastmile_qr_scan"}, "type": "electric_scooter", "name": "3a2b6a4abc1c166d81cbdc38e3e95056", "is_reserved": 0, "lon": -77.04272666666667, "is_disabled": 0, "fusion_lat": 0.0, "lat": 38.92302466666667, "bike_id": "3a2b6a4abc1c166d81cbdc38e3e95056", "fusion_lon": 0.0}, {"rental_uris": {"ios": "https://dc.lft.to/lastmile_qr_scan", "android": "https://dc.lft.to/lastmile_qr_scan"}, "type": "electric_scooter", "name": "2163cdb713afe81fa9a0009743d97938", "is_reserved": 0, "lon": -76.94151716666667, "is_disabled": 0, "fusion_lat": 0.0, "lat": 38.9017325, "bike_id": "2163cdb713afe81fa9a0009743d97938", "fusion_lon": 0.0}, {"rental_uris": {"ios": "https://dc.lft.to/lastmile_qr_scan", "android": "https://dc.lft.to/lastmile_qr_scan"}, "type": "electric_scooter", "name": "342151ceaec4cf5ae98ff0558875144d", "is_reserved": 0, "lon": -76.97654333333334, "is_disabled": 0, "fusion_lat": 0.0, "lat": 38.90364683333333, "bike_id": "342151ceaec4cf5ae98ff0558875144d", "fusion_lon": 0.0}, {"rental_uris": {"ios": "https://dc.lft.to/lastmile_qr_scan", "android": "https://dc.lft.to/lastmile_qr_scan"}, "type": "electric_scooter", "name": "bdc0142a2d2c1fd843d0c56fd4b6cde4", "is_reserved": 0, "lon": -77.026944, "is_disabled": 0, "fusion_lat": 0.0, "lat": 38.918063333333336, "bike_id": "bdc0142a2d2c1fd843d0c56fd4b6cde4", "fusion_lon": 0.0}, {"rental_uris": {"ios": "https://dc.lft.to/lastmile_qr_scan", "android": "https://dc.lft.to/lastmile_qr_scan"}, "type": "electric_scooter", "name": "b614ac108f0bfb36efe2ac7c19fd1963", "is_reserved": 0, "lon": -77.04086983333333, "is_disabled": 0, "fusion_lat": 0.0, "lat": 38.920717, "bike_id": "b614ac108f0bfb36efe2ac7c19fd1963", "fusion_lon": 0.0}, {"rental_uris": {"ios": "https://dc.lft.to/lastmile_qr_scan", "android": "https://dc.lft.to/lastmile_qr_scan"}, "type": "electric_scooter", "name": "e018d0826b6bcbb44358e66db1c68f05", "is_reserved": 0, "lon": -77.027783, "is_disabled": 0, "fusion_lat": 0.0, "lat": 38.9658275, "bike_id": "e018d0826b6bcbb44358e66db1c68f05", "fusion_lon": 0.0}, {"rental_uris": {"ios": "https://dc.lft.to/lastmile_qr_scan", "android": "https://dc.lft.to/lastmile_qr_scan"}, "type": "electric_scooter", "name": "72ec2b7e95e909b8391422d515aca084", "is_reserved": 0, "lon": -77.03271383333333, "is_disabled": 0, "fusion_lat": 0.0, "lat": 38.9215695, "bike_id": "72ec2b7e95e909b8391422d515aca084", "fusion_lon": 0.0}, {"rental_uris": {"ios": "https://dc.lft.to/lastmile_qr_scan", "android": "https://dc.lft.to/lastmile_qr_scan"}, "type": "electric_scooter", "name": "23c7beeee3ad1348d285d627b0d6a5fc", "is_reserved": 0, "lon": -77.02178883333333, "is_disabled": 0, "fusion_lat": 0.0, "lat": 38.91130183333333, "bike_id": "23c7beeee3ad1348d285d627b0d6a5fc", "fusion_lon": 0.0}, {"rental_uris": {"ios": "https://dc.lft.to/lastmile_qr_scan", "android": "https://dc.lft.to/lastmile_qr_scan"}, "type": "electric_scooter", "name": "8a654e01b0245b1d32f1d816aabe3d1d", "is_reserved": 0, "lon": -77.00755783333334, "is_disabled": 0, "fusion_lat": 0.0, "lat": 38.87113266666667, "bike_id": "8a654e01b0245b1d32f1d816aabe3d1d", "fusion_lon": 0.0}, {"rental_uris": {"ios": "https://dc.lft.to/lastmile_qr_scan", "android": "https://dc.lft.to/lastmile_qr_scan"}, "type": "electric_scooter", "name": "f4ce9104ec2911deb93abe39d3f04267", "is_reserved": 0, "lon": -77.017783, "is_disabled": 0, "fusion_lat": 0.0, "lat": 38.8791985, "bike_id": "f4ce9104ec2911deb93abe39d3f04267", "fusion_lon": 0.0}, {"rental_uris": {"ios": "https://dc.lft.to/lastmile_qr_scan", "android": "https://dc.lft.to/lastmile_qr_scan"}, "type": "electric_bike", "name": "248e81264fa4be7bf5801164306b9b23", "is_reserved": 0, "lon": -77.099594, "is_disabled": 0, "fusion_lat": 0.0, "lat": 38.85792416666666, "bike_id": "248e81264fa4be7bf5801164306b9b23", "fusion_lon": 0.0}, {"rental_uris": {"ios": "https://dc.lft.to/lastmile_qr_scan", "android": "https://dc.lft.to/lastmile_qr_scan"}, "type": "electric_scooter", "name": "cd6b6c2520c5111d83c0d6abbe8b9ccc", "is_reserved": 0, "lon": -77.0268555, "is_disabled": 0, "fusion_lat": 0.0, "lat": 38.972475, "bike_id": "cd6b6c2520c5111d83c0d6abbe8b9ccc", "fusion_lon": 0.0}, {"rental_uris": {"ios": "https://dc.lft.to/lastmile_qr_scan", "android": "https://dc.lft.to/lastmile_qr_scan"}, "type": "electric_scooter", "name": "32a84f5287ce84bf7effd69bcaeacb95", "is_reserved": 0, "lon": -77.03840416666667, "is_disabled": 0, "fusion_lat": 0.0, "lat": 38.90986816666667, "bike_id": "32a84f5287ce84bf7effd69bcaeacb95", "fusion_lon": 0.0}, {"rental_uris": {"ios": "https://dc.lft.to/lastmile_qr_scan", "android": "https://dc.lft.to/lastmile_qr_scan"}, "type": "electric_scooter", "name": "307260740bb94221ac8c181c794cad6f", "is_reserved": 0, "lon": -77.001999, "is_disabled": 0, "fusion_lat": 0.0, "lat": 38.9023615, "bike_id": "307260740bb94221ac8c181c794cad6f", "fusion_lon": 0.0}, {"rental_uris": {"ios": "https://dc.lft.to/lastmile_qr_scan", "android": "https://dc.lft.to/lastmile_qr_scan"}, "type": "electric_bike", "name": "48c4548ce9226ddc1240a030b2f28518", "is_reserved": 0, "lon": -77.06577083333333, "is_disabled": 0, "fusion_lat": 0.0, "lat": 38.911347, "bike_id": "48c4548ce9226ddc1240a030b2f28518", "fusion_lon": 0.0}, {"rental_uris": {"ios": "https://dc.lft.to/lastmile_qr_scan", "android": "https://dc.lft.to/lastmile_qr_scan"}, "type": "electric_scooter", "name": "1cfc86e8be030049828ca6a4316a9593", "is_reserved": 0, "lon": -77.044372, "is_disabled": 0, "fusion_lat": 0.0, "lat": 38.91270166666666, "bike_id": "1cfc86e8be030049828ca6a4316a9593", "fusion_lon": 0.0}, {"rental_uris": {"ios": "https://dc.lft.to/lastmile_qr_scan", "android": "https://dc.lft.to/lastmile_qr_scan"}, "type": "electric_scooter", "name": "65ac02d5d70060b6008294445a90cd1c", "is_reserved": 0, "lon": -77.03036733333333, "is_disabled": 0, "fusion_lat": 0.0, "lat": 38.89725083333333, "bike_id": "65ac02d5d70060b6008294445a90cd1c", "fusion_lon": 0.0}, {"rental_uris": {"ios": "https://dc.lft.to/lastmile_qr_scan", "android": "https://dc.lft.to/lastmile_qr_scan"}, "type": "electric_scooter", "name": "fb3e827ac2e1395df0086ffb0ee7435a", "is_reserved": 0, "lon": -76.982825, "is_disabled": 0, "fusion_lat": 0.0, "lat": 38.90340233333333, "bike_id": "fb3e827ac2e1395df0086ffb0ee7435a", "fusion_lon": 0.0}, {"rental_uris": {"ios": "https://dc.lft.to/lastmile_qr_scan", "android": "https://dc.lft.to/lastmile_qr_scan"}, "type": "electric_scooter", "name": "78fb275a3e9d7757851b671f2d8cf545", "is_reserved": 0, "lon": -77.02307116666667, "is_disabled": 0, "fusion_lat": 0.0, "lat": 38.9183495, "bike_id": "78fb275a3e9d7757851b671f2d8cf545", "fusion_lon": 0.0}, {"rental_uris": {"ios": "https://dc.lft.to/lastmile_qr_scan", "android": "https://dc.lft.to/lastmile_qr_scan"}, "type": "electric_scooter", "name": "a637c5130e02d8e2ff7b3fed6ffb0c1c", "is_reserved": 0, "lon": -77.00204183333334, "is_disabled": 0, "fusion_lat": 0.0, "lat": 38.900420833333335, "bike_id": "a637c5130e02d8e2ff7b3fed6ffb0c1c", "fusion_lon": 0.0}, {"rental_uris": {"ios": "https://dc.lft.to/lastmile_qr_scan", "android": "https://dc.lft.to/lastmile_qr_scan"}, "type": "electric_scooter", "name": "7b1ca23a541207a5fd5ac12554ccca68", "is_reserved": 0, "lon": -77.0297775, "is_disabled": 0, "fusion_lat": 0.0, "lat": 38.91764633333333, "bike_id": "7b1ca23a541207a5fd5ac12554ccca68", "fusion_lon": 0.0}, {"rental_uris": {"ios": "https://dc.lft.to/lastmile_qr_scan", "android": "https://dc.lft.to/lastmile_qr_scan"}, "type": "electric_scooter", "name": "3ca2a4b049ebfe77f4a7bfc680e196ab", "is_reserved": 0, "lon": -77.02935666666667, "is_disabled": 0, "fusion_lat": 0.0, "lat": 38.89754516666667, "bike_id": "3ca2a4b049ebfe77f4a7bfc680e196ab", "fusion_lon": 0.0}, {"rental_uris": {"ios": "https://dc.lft.to/lastmile_qr_scan", "android": "https://dc.lft.to/lastmile_qr_scan"}, "type": "electric_scooter", "name": "daf3be88b5d6bf19c0ea22dec10821c6", "is_reserved": 0, "lon": -77.06103916666666, "is_disabled": 0, "fusion_lat": 0.0, "lat": 38.937093833333336, "bike_id": "daf3be88b5d6bf19c0ea22dec10821c6", "fusion_lon": 0.0}, {"rental_uris": {"ios": "https://dc.lft.to/lastmile_qr_scan", "android": "https://dc.lft.to/lastmile_qr_scan"}, "type": "electric_bike", "name": "003058684170f8bad6e7be8514499208", "is_reserved": 0, "lon": -76.97702716666667, "is_disabled": 0, "fusion_lat": 0.0, "lat": 38.822106166666664, "bike_id": "003058684170f8bad6e7be8514499208", "fusion_lon": 0.0}, {"rental_uris": {"ios": "https://dc.lft.to/lastmile_qr_scan", "android": "https://dc.lft.to/lastmile_qr_scan"}, "type": "electric_scooter", "name": "99a15494ce01281d4d697dbb0655f512", "is_reserved": 0, "lon": -77.02290466666666, "is_disabled": 0, "fusion_lat": 0.0, "lat": 38.89853316666667, "bike_id": "99a15494ce01281d4d697dbb0655f512", "fusion_lon": 0.0}, {"rental_uris": {"ios": "https://dc.lft.to/lastmile_qr_scan", "android": "https://dc.lft.to/lastmile_qr_scan"}, "type": "electric_scooter", "name": "d30f5e21a72324d18ca91173d5c99f8d", "is_reserved": 0, "lon": -77.03420466666667, "is_disabled": 0, "fusion_lat": 0.0, "lat": 38.91192433333333, "bike_id": "d30f5e21a72324d18ca91173d5c99f8d", "fusion_lon": 0.0}, {"rental_uris": {"ios": "https://dc.lft.to/lastmile_qr_scan", "android": "https://dc.lft.to/lastmile_qr_scan"}, "type": "electric_scooter", "name": "88e83c2a7ce9f8d36399ce3ba50b152d", "is_reserved": 0, "lon": -77.03182166666667, "is_disabled": 0, "fusion_lat": 0.0, "lat": 38.918277833333335, "bike_id": "88e83c2a7ce9f8d36399ce3ba50b152d", "fusion_lon": 0.0}, {"rental_uris": {"ios": "https://dc.lft.to/lastmile_qr_scan", "android": "https://dc.lft.to/lastmile_qr_scan"}, "type": "electric_scooter", "name": "9bcd44ef1622f8d25f77a07e35178191", "is_reserved": 0, "lon": -77.02832916666667, "is_disabled": 0, "fusion_lat": 0.0, "lat": 38.88738816666667, "bike_id": "9bcd44ef1622f8d25f77a07e35178191", "fusion_lon": 0.0}, {"rental_uris": {"ios": "https://dc.lft.to/lastmile_qr_scan", "android": "https://dc.lft.to/lastmile_qr_scan"}, "type": "electric_scooter", "name": "74fd2b2dbd0200003970dc42265dcacc", "is_reserved": 0, "lon": -77.04840716666666, "is_disabled": 0, "fusion_lat": 0.0, "lat": 38.90979016666667, "bike_id": "74fd2b2dbd0200003970dc42265dcacc", "fusion_lon": 0.0}, {"rental_uris": {"ios": "https://dc.lft.to/lastmile_qr_scan", "android": "https://dc.lft.to/lastmile_qr_scan"}, "type": "electric_scooter", "name": "751599655b72677468650635558bbd89", "is_reserved": 0, "lon": -76.99732333333333, "is_disabled": 0, "fusion_lat": 0.0, "lat": 38.92036783333333, "bike_id": "751599655b72677468650635558bbd89", "fusion_lon": 0.0}, {"rental_uris": {"ios": "https://dc.lft.to/lastmile_qr_scan", "android": "https://dc.lft.to/lastmile_qr_scan"}, "type": "electric_scooter", "name": "e2afa523319dbe59116121c490532f6b", "is_reserved": 0, "lon": -77.0406225, "is_disabled": 0, "fusion_lat": 0.0, "lat": 38.91592966666666, "bike_id": "e2afa523319dbe59116121c490532f6b", "fusion_lon": 0.0}, {"rental_uris": {"ios": "https://dc.lft.to/lastmile_qr_scan", "android": "https://dc.lft.to/lastmile_qr_scan"}, "type": "electric_bike", "name": "90c2b92ecc9f4e45c650e75a377c393e", "is_reserved": 0, "lon": -77.08365633333334, "is_disabled": 0, "fusion_lat": 0.0, "lat": 38.854174, "bike_id": "90c2b92ecc9f4e45c650e75a377c393e", "fusion_lon": 0.0}, {"rental_uris": {"ios": "https://dc.lft.to/lastmile_qr_scan", "android": "https://dc.lft.to/lastmile_qr_scan"}, "type": "electric_scooter", "name": "674076d81955cfa8ef47a7e72359f600", "is_reserved": 0, "lon": -77.0385955, "is_disabled": 0, "fusion_lat": 0.0, "lat": 38.924744, "bike_id": "674076d81955cfa8ef47a7e72359f600", "fusion_lon": 0.0}, {"rental_uris": {"ios": "https://dc.lft.to/lastmile_qr_scan", "android": "https://dc.lft.to/lastmile_qr_scan"}, "type": "electric_scooter", "name": "139c026a44ef05fc94d4c15fcc2c39d3", "is_reserved": 0, "lon": -76.965435, "is_disabled": 0, "fusion_lat": 0.0, "lat": 38.87884716666667, "bike_id": "139c026a44ef05fc94d4c15fcc2c39d3", "fusion_lon": 0.0}, {"rental_uris": {"ios": "https://dc.lft.to/lastmile_qr_scan", "android": "https://dc.lft.to/lastmile_qr_scan"}, "type": "electric_scooter", "name": "ab5cd8e4d1cd7440213abf3bf9418b85", "is_reserved": 0, "lon": -77.05814033333333, "is_disabled": 0, "fusion_lat": 0.0, "lat": 38.93520183333333, "bike_id": "ab5cd8e4d1cd7440213abf3bf9418b85", "fusion_lon": 0.0}, {"rental_uris": {"ios": "https://dc.lft.to/lastmile_qr_scan", "android": "https://dc.lft.to/lastmile_qr_scan"}, "type": "electric_bike", "name": "8c19f97167666f8cb1afdf1681720d3f", "is_reserved": 0, "lon": -77.00151633333333, "is_disabled": 0, "fusion_lat": 0.0, "lat": 38.941660166666665, "bike_id": "8c19f97167666f8cb1afdf1681720d3f", "fusion_lon": 0.0}, {"rental_uris": {"ios": "https://dc.lft.to/lastmile_qr_scan", "android": "https://dc.lft.to/lastmile_qr_scan"}, "type": "electric_scooter", "name": "85a52e634b1af529725ba9b2a48af21c", "is_reserved": 0, "lon": -77.02345616666666, "is_disabled": 0, "fusion_lat": 0.0, "lat": 38.92943433333333, "bike_id": "85a52e634b1af529725ba9b2a48af21c", "fusion_lon": 0.0}, {"rental_uris": {"ios": "https://dc.lft.to/lastmile_qr_scan", "android": "https://dc.lft.to/lastmile_qr_scan"}, "type": "electric_scooter", "name": "bb60413f8fd62b54dfd395681178bbd4", "is_reserved": 0, "lon": -76.98337316666667, "is_disabled": 0, "fusion_lat": 0.0, "lat": 38.9009015, "bike_id": "bb60413f8fd62b54dfd395681178bbd4", "fusion_lon": 0.0}, {"rental_uris": {"ios": "https://dc.lft.to/lastmile_qr_scan", "android": "https://dc.lft.to/lastmile_qr_scan"}, "type": "electric_scooter", "name": "bc8c4fe064e5d508e592277381426950", "is_reserved": 0, "lon": -77.033563, "is_disabled": 0, "fusion_lat": 0.0, "lat": 38.89984116666667, "bike_id": "bc8c4fe064e5d508e592277381426950", "fusion_lon": 0.0}, {"rental_uris": {"ios": "https://dc.lft.to/lastmile_qr_scan", "android": "https://dc.lft.to/lastmile_qr_scan"}, "type": "electric_scooter", "name": "4c2136c6172443b65879f720579bb45f", "is_reserved": 0, "lon": -77.03276966666667, "is_disabled": 0, "fusion_lat": 0.0, "lat": 38.9200065, "bike_id": "4c2136c6172443b65879f720579bb45f", "fusion_lon": 0.0}, {"rental_uris": {"ios": "https://dc.lft.to/lastmile_qr_scan", "android": "https://dc.lft.to/lastmile_qr_scan"}, "type": "electric_scooter", "name": "7ba4c5fda9e4271298533738cd4d4a0f", "is_reserved": 0, "lon": -77.03162916666666, "is_disabled": 0, "fusion_lat": 0.0, "lat": 38.959382833333336, "bike_id": "7ba4c5fda9e4271298533738cd4d4a0f", "fusion_lon": 0.0}, {"rental_uris": {"ios": "https://dc.lft.to/lastmile_qr_scan", "android": "https://dc.lft.to/lastmile_qr_scan"}, "type": "electric_scooter", "name": "18ac27b2e8851b7010fb9907b20fe353", "is_reserved": 0, "lon": -77.03350316666666, "is_disabled": 0, "fusion_lat": 0.0, "lat": 38.89535516666667, "bike_id": "18ac27b2e8851b7010fb9907b20fe353", "fusion_lon": 0.0}, {"rental_uris": {"ios": "https://dc.lft.to/lastmile_qr_scan", "android": "https://dc.lft.to/lastmile_qr_scan"}, "type": "electric_scooter", "name": "bef5d8af7ba49b1e70ba08cecd75ff92", "is_reserved": 0, "lon": -77.04387083333333, "is_disabled": 0, "fusion_lat": 0.0, "lat": 38.934287833333336, "bike_id": "bef5d8af7ba49b1e70ba08cecd75ff92", "fusion_lon": 0.0}, {"rental_uris": {"ios": "https://dc.lft.to/lastmile_qr_scan", "android": "https://dc.lft.to/lastmile_qr_scan"}, "type": "electric_scooter", "name": "4414b038379339a6d2133949af5530c0", "is_reserved": 0, "lon": -77.032964, "is_disabled": 0, "fusion_lat": 0.0, "lat": 38.916928666666664, "bike_id": "4414b038379339a6d2133949af5530c0", "fusion_lon": 0.0}, {"rental_uris": {"ios": "https://dc.lft.to/lastmile_qr_scan", "android": "https://dc.lft.to/lastmile_qr_scan"}, "type": "electric_scooter", "name": "c61262905e50e6f08bf63348ef4eb56b", "is_reserved": 0, "lon": -76.99073, "is_disabled": 0, "fusion_lat": 0.0, "lat": 38.90418583333334, "bike_id": "c61262905e50e6f08bf63348ef4eb56b", "fusion_lon": 0.0}, {"rental_uris": {"ios": "https://dc.lft.to/lastmile_qr_scan", "android": "https://dc.lft.to/lastmile_qr_scan"}, "type": "electric_scooter", "name": "30f0960e55882c34fdd0035f27a5faec", "is_reserved": 0, "lon": -77.0123385, "is_disabled": 0, "fusion_lat": 0.0, "lat": 38.915830666666665, "bike_id": "30f0960e55882c34fdd0035f27a5faec", "fusion_lon": 0.0}, {"rental_uris": {"ios": "https://dc.lft.to/lastmile_qr_scan", "android": "https://dc.lft.to/lastmile_qr_scan"}, "type": "electric_scooter", "name": "388dc036e26b66e4772f7d73271ccece", "is_reserved": 0, "lon": -77.03661183333334, "is_disabled": 0, "fusion_lat": 0.0, "lat": 38.92385483333333, "bike_id": "388dc036e26b66e4772f7d73271ccece", "fusion_lon": 0.0}, {"rental_uris": {"ios": "https://dc.lft.to/lastmile_qr_scan", "android": "https://dc.lft.to/lastmile_qr_scan"}, "type": "electric_scooter", "name": "364700c1b0fe9ae1fb187313d2f0d68c", "is_reserved": 0, "lon": -77.05123433333333, "is_disabled": 0, "fusion_lat": 0.0, "lat": 38.923493666666666, "bike_id": "364700c1b0fe9ae1fb187313d2f0d68c", "fusion_lon": 0.0}, {"rental_uris": {"ios": "https://dc.lft.to/lastmile_qr_scan", "android": "https://dc.lft.to/lastmile_qr_scan"}, "type": "electric_scooter", "name": "64cb3faae465424cde1eb9eb435aa5a3", "is_reserved": 0, "lon": -77.030643, "is_disabled": 0, "fusion_lat": 0.0, "lat": 38.907154166666665, "bike_id": "64cb3faae465424cde1eb9eb435aa5a3", "fusion_lon": 0.0}, {"rental_uris": {"ios": "https://dc.lft.to/lastmile_qr_scan", "android": "https://dc.lft.to/lastmile_qr_scan"}, "type": "electric_scooter", "name": "d1cc2dbda0bee4047bd4bb523a764fe9", "is_reserved": 0, "lon": -77.02717233333334, "is_disabled": 0, "fusion_lat": 0.0, "lat": 38.90266716666667, "bike_id": "d1cc2dbda0bee4047bd4bb523a764fe9", "fusion_lon": 0.0}, {"rental_uris": {"ios": "https://dc.lft.to/lastmile_qr_scan", "android": "https://dc.lft.to/lastmile_qr_scan"}, "type": "electric_bike", "name": "c464ac786c9b42c1ed31435bbdfe274f", "is_reserved": 0, "lon": -77.00766683333333, "is_disabled": 0, "fusion_lat": 0.0, "lat": 38.98136133333333, "bike_id": "c464ac786c9b42c1ed31435bbdfe274f", "fusion_lon": 0.0}, {"rental_uris": {"ios": "https://dc.lft.to/lastmile_qr_scan", "android": "https://dc.lft.to/lastmile_qr_scan"}, "type": "electric_scooter", "name": "489dacc9d95a000bb668c7514c46a8d5", "is_reserved": 0, "lon": -77.01886516666667, "is_disabled": 0, "fusion_lat": 0.0, "lat": 38.8974905, "bike_id": "489dacc9d95a000bb668c7514c46a8d5", "fusion_lon": 0.0}, {"rental_uris": {"ios": "https://dc.lft.to/lastmile_qr_scan", "android": "https://dc.lft.to/lastmile_qr_scan"}, "type": "electric_scooter", "name": "96e2b24c361acc5f384ad24968216e1a", "is_reserved": 0, "lon": -76.92633766666667, "is_disabled": 0, "fusion_lat": 0.0, "lat": 38.901941666666666, "bike_id": "96e2b24c361acc5f384ad24968216e1a", "fusion_lon": 0.0}, {"rental_uris": {"ios": "https://dc.lft.to/lastmile_qr_scan", "android": "https://dc.lft.to/lastmile_qr_scan"}, "type": "electric_scooter", "name": "5cfda31730462bb104221befed40f677", "is_reserved": 0, "lon": -77.04, "is_disabled": 0, "fusion_lat": 0.0, "lat": 38.918204333333335, "bike_id": "5cfda31730462bb104221befed40f677", "fusion_lon": 0.0}, {"rental_uris": {"ios": "https://dc.lft.to/lastmile_qr_scan", "android": "https://dc.lft.to/lastmile_qr_scan"}, "type": "electric_scooter", "name": "e48571184dcff0e6284611582860871a", "is_reserved": 0, "lon": -77.046108, "is_disabled": 0, "fusion_lat": 0.0, "lat": 38.9205485, "bike_id": "e48571184dcff0e6284611582860871a", "fusion_lon": 0.0}, {"rental_uris": {"ios": "https://dc.lft.to/lastmile_qr_scan", "android": "https://dc.lft.to/lastmile_qr_scan"}, "type": "electric_scooter", "name": "22c81fb247f983a1bcaf4312c30992a2", "is_reserved": 0, "lon": -77.03343816666667, "is_disabled": 0, "fusion_lat": 0.0, "lat": 38.899781833333336, "bike_id": "22c81fb247f983a1bcaf4312c30992a2", "fusion_lon": 0.0}, {"rental_uris": {"ios": "https://dc.lft.to/lastmile_qr_scan", "android": "https://dc.lft.to/lastmile_qr_scan"}, "type": "electric_bike", "name": "d571d30781774a1e06a4eb30d9a205fd", "is_reserved": 0, "lon": -76.94545683333334, "is_disabled": 0, "fusion_lat": 0.0, "lat": 38.98314033333333, "bike_id": "d571d30781774a1e06a4eb30d9a205fd", "fusion_lon": 0.0}, {"rental_uris": {"ios": "https://dc.lft.to/lastmile_qr_scan", "android": "https://dc.lft.to/lastmile_qr_scan"}, "type": "electric_scooter", "name": "4aadeef4cb23ceab2f1a20c709359129", "is_reserved": 0, "lon": -77.003089, "is_disabled": 0, "fusion_lat": 0.0, "lat": 38.877257166666666, "bike_id": "4aadeef4cb23ceab2f1a20c709359129", "fusion_lon": 0.0}, {"rental_uris": {"ios": "https://dc.lft.to/lastmile_qr_scan", "android": "https://dc.lft.to/lastmile_qr_scan"}, "type": "electric_bike", "name": "d3dfb4603303aafe0a5018236bbe808c", "is_reserved": 0, "lon": -77.00762733333333, "is_disabled": 0, "fusion_lat": 0.0, "lat": 38.99782233333333, "bike_id": "d3dfb4603303aafe0a5018236bbe808c", "fusion_lon": 0.0}, {"rental_uris": {"ios": "https://dc.lft.to/lastmile_qr_scan", "android": "https://dc.lft.to/lastmile_qr_scan"}, "type": "electric_scooter", "name": "3df4f6c18775230be51c9238b9fb1739", "is_reserved": 0, "lon": -77.08400183333333, "is_disabled": 0, "fusion_lat": 0.0, "lat": 38.90802566666667, "bike_id": "3df4f6c18775230be51c9238b9fb1739", "fusion_lon": 0.0}, {"rental_uris": {"ios": "https://dc.lft.to/lastmile_qr_scan", "android": "https://dc.lft.to/lastmile_qr_scan"}, "type": "electric_scooter", "name": "59aa6538b25db3dde5807755bcfd31db", "is_reserved": 0, "lon": -77.00065916666667, "is_disabled": 0, "fusion_lat": 0.0, "lat": 38.87688766666667, "bike_id": "59aa6538b25db3dde5807755bcfd31db", "fusion_lon": 0.0}, {"rental_uris": {"ios": "https://dc.lft.to/lastmile_qr_scan", "android": "https://dc.lft.to/lastmile_qr_scan"}, "type": "electric_bike", "name": "0a8767432edfb3a2e115aa09640d986a", "is_reserved": 0, "lon": -76.9523975, "is_disabled": 0, "fusion_lat": 0.0, "lat": 38.884713833333336, "bike_id": "0a8767432edfb3a2e115aa09640d986a", "fusion_lon": 0.0}, {"rental_uris": {"ios": "https://dc.lft.to/lastmile_qr_scan", "android": "https://dc.lft.to/lastmile_qr_scan"}, "type": "electric_scooter", "name": "8b8e92c0dfde4481a697c2489c48727a", "is_reserved": 0, "lon": -77.03891183333333, "is_disabled": 0, "fusion_lat": 0.0, "lat": 38.9224995, "bike_id": "8b8e92c0dfde4481a697c2489c48727a", "fusion_lon": 0.0}, {"rental_uris": {"ios": "https://dc.lft.to/lastmile_qr_scan", "android": "https://dc.lft.to/lastmile_qr_scan"}, "type": "electric_scooter", "name": "335869cb3125ed40701100177a6795dd", "is_reserved": 0, "lon": -77.03362633333333, "is_disabled": 0, "fusion_lat": 0.0, "lat": 38.935322, "bike_id": "335869cb3125ed40701100177a6795dd", "fusion_lon": 0.0}, {"rental_uris": {"ios": "https://dc.lft.to/lastmile_qr_scan", "android": "https://dc.lft.to/lastmile_qr_scan"}, "type": "electric_bike", "name": "a778c21f23d5ea7d1b32f57f7f474770", "is_reserved": 0, "lon": -76.9927525, "is_disabled": 0, "fusion_lat": 0.0, "lat": 38.97262283333333, "bike_id": "a778c21f23d5ea7d1b32f57f7f474770", "fusion_lon": 0.0}, {"rental_uris": {"ios": "https://dc.lft.to/lastmile_qr_scan", "android": "https://dc.lft.to/lastmile_qr_scan"}, "type": "electric_scooter", "name": "93861dcaaabaf9ae26ce72db29a6a907", "is_reserved": 0, "lon": -77.007461, "is_disabled": 0, "fusion_lat": 0.0, "lat": 38.87851, "bike_id": "93861dcaaabaf9ae26ce72db29a6a907", "fusion_lon": 0.0}, {"rental_uris": {"ios": "https://dc.lft.to/lastmile_qr_scan", "android": "https://dc.lft.to/lastmile_qr_scan"}, "type": "electric_scooter", "name": "a8905df08766b2a84a5b32302ff3baa1", "is_reserved": 0, "lon": -77.0371325, "is_disabled": 0, "fusion_lat": 0.0, "lat": 38.91489983333334, "bike_id": "a8905df08766b2a84a5b32302ff3baa1", "fusion_lon": 0.0}, {"rental_uris": {"ios": "https://dc.lft.to/lastmile_qr_scan", "android": "https://dc.lft.to/lastmile_qr_scan"}, "type": "electric_scooter", "name": "0d789f7cd79b9956c78a24f8391d8487", "is_reserved": 0, "lon": -77.0403005, "is_disabled": 0, "fusion_lat": 0.0, "lat": 38.91184166666667, "bike_id": "0d789f7cd79b9956c78a24f8391d8487", "fusion_lon": 0.0}, {"rental_uris": {"ios": "https://dc.lft.to/lastmile_qr_scan", "android": "https://dc.lft.to/lastmile_qr_scan"}, "type": "electric_scooter", "name": "7fa21d2788afdb1f48a1c85cf4b5c6f5", "is_reserved": 0, "lon": -77.05218766666667, "is_disabled": 0, "fusion_lat": 0.0, "lat": 38.924942333333334, "bike_id": "7fa21d2788afdb1f48a1c85cf4b5c6f5", "fusion_lon": 0.0}, {"rental_uris": {"ios": "https://dc.lft.to/lastmile_qr_scan", "android": "https://dc.lft.to/lastmile_qr_scan"}, "type": "electric_scooter", "name": "986b0772506031e63c5283327c6d4194", "is_reserved": 0, "lon": -76.98076883333333, "is_disabled": 0, "fusion_lat": 0.0, "lat": 38.90185833333334, "bike_id": "986b0772506031e63c5283327c6d4194", "fusion_lon": 0.0}, {"rental_uris": {"ios": "https://dc.lft.to/lastmile_qr_scan", "android": "https://dc.lft.to/lastmile_qr_scan"}, "type": "electric_scooter", "name": "7830e37ce6d8e22b0b003833eb61bed7", "is_reserved": 0, "lon": -77.03569533333334, "is_disabled": 0, "fusion_lat": 0.0, "lat": 38.91771133333334, "bike_id": "7830e37ce6d8e22b0b003833eb61bed7", "fusion_lon": 0.0}, {"rental_uris": {"ios": "https://dc.lft.to/lastmile_qr_scan", "android": "https://dc.lft.to/lastmile_qr_scan"}, "type": "electric_scooter", "name": "120453f61106102934ed97f8065c121b", "is_reserved": 0, "lon": -76.99762533333333, "is_disabled": 0, "fusion_lat": 0.0, "lat": 38.896773833333334, "bike_id": "120453f61106102934ed97f8065c121b", "fusion_lon": 0.0}, {"rental_uris": {"ios": "https://dc.lft.to/lastmile_qr_scan", "android": "https://dc.lft.to/lastmile_qr_scan"}, "type": "electric_scooter", "name": "fdf84b2d8761ac8f6470cd6135546ff1", "is_reserved": 0, "lon": -77.02409316666666, "is_disabled": 0, "fusion_lat": 0.0, "lat": 38.9381105, "bike_id": "fdf84b2d8761ac8f6470cd6135546ff1", "fusion_lon": 0.0}, {"rental_uris": {"ios": "https://dc.lft.to/lastmile_qr_scan", "android": "https://dc.lft.to/lastmile_qr_scan"}, "type": "electric_bike", "name": "0d1138bd8456449f4bc2238c5f87e7a4", "is_reserved": 0, "lon": -76.996974, "is_disabled": 0, "fusion_lat": 0.0, "lat": 38.8387005, "bike_id": "0d1138bd8456449f4bc2238c5f87e7a4", "fusion_lon": 0.0}, {"rental_uris": {"ios": "https://dc.lft.to/lastmile_qr_scan", "android": "https://dc.lft.to/lastmile_qr_scan"}, "type": "electric_bike", "name": "5a1e6f5d73ea38325fad9d10ffedd2f0", "is_reserved": 0, "lon": -77.07241533333334, "is_disabled": 0, "fusion_lat": 0.0, "lat": 38.813637166666666, "bike_id": "5a1e6f5d73ea38325fad9d10ffedd2f0", "fusion_lon": 0.0}, {"rental_uris": {"ios": "https://dc.lft.to/lastmile_qr_scan", "android": "https://dc.lft.to/lastmile_qr_scan"}, "type": "electric_scooter", "name": "f9a1195cae5c112bec4d43b886afc40a", "is_reserved": 0, "lon": -77.02167683333333, "is_disabled": 0, "fusion_lat": 0.0, "lat": 38.925102, "bike_id": "f9a1195cae5c112bec4d43b886afc40a", "fusion_lon": 0.0}, {"rental_uris": {"ios": "https://dc.lft.to/lastmile_qr_scan", "android": "https://dc.lft.to/lastmile_qr_scan"}, "type": "electric_scooter", "name": "aa1f19b13fbe4b46195ef618eda2b15b", "is_reserved": 0, "lon": -77.0235715, "is_disabled": 0, "fusion_lat": 0.0, "lat": 38.932921, "bike_id": "aa1f19b13fbe4b46195ef618eda2b15b", "fusion_lon": 0.0}, {"rental_uris": {"ios": "https://dc.lft.to/lastmile_qr_scan", "android": "https://dc.lft.to/lastmile_qr_scan"}, "type": "electric_scooter", "name": "9271ef71a87bb4c9128830d747623b78", "is_reserved": 0, "lon": -77.05358533333333, "is_disabled": 0, "fusion_lat": 0.0, "lat": 38.898854666666665, "bike_id": "9271ef71a87bb4c9128830d747623b78", "fusion_lon": 0.0}, {"rental_uris": {"ios": "https://dc.lft.to/lastmile_qr_scan", "android": "https://dc.lft.to/lastmile_qr_scan"}, "type": "electric_scooter", "name": "c94804e95c51953a2e8b8c5772865b10", "is_reserved": 0, "lon": -77.03184833333333, "is_disabled": 0, "fusion_lat": 0.0, "lat": 38.916197333333336, "bike_id": "c94804e95c51953a2e8b8c5772865b10", "fusion_lon": 0.0}, {"rental_uris": {"ios": "https://dc.lft.to/lastmile_qr_scan", "android": "https://dc.lft.to/lastmile_qr_scan"}, "type": "electric_scooter", "name": "08568228aae12aba509719bb0a3a5abd", "is_reserved": 0, "lon": -77.03511366666666, "is_disabled": 0, "fusion_lat": 0.0, "lat": 38.918890166666664, "bike_id": "08568228aae12aba509719bb0a3a5abd", "fusion_lon": 0.0}, {"rental_uris": {"ios": "https://dc.lft.to/lastmile_qr_scan", "android": "https://dc.lft.to/lastmile_qr_scan"}, "type": "electric_scooter", "name": "08fd23814edf2c40df688b77d36ccafd", "is_reserved": 0, "lon": -77.0425615, "is_disabled": 0, "fusion_lat": 0.0, "lat": 38.922115166666664, "bike_id": "08fd23814edf2c40df688b77d36ccafd", "fusion_lon": 0.0}, {"rental_uris": {"ios": "https://dc.lft.to/lastmile_qr_scan", "android": "https://dc.lft.to/lastmile_qr_scan"}, "type": "electric_scooter", "name": "7a832013b44aff684a5b654f6796b5fe", "is_reserved": 0, "lon": -77.0070775, "is_disabled": 0, "fusion_lat": 0.0, "lat": 38.9062895, "bike_id": "7a832013b44aff684a5b654f6796b5fe", "fusion_lon": 0.0}, {"rental_uris": {"ios": "https://dc.lft.to/lastmile_qr_scan", "android": "https://dc.lft.to/lastmile_qr_scan"}, "type": "electric_scooter", "name": "d36b55f2ed1b79f9f5f635086fcecc59", "is_reserved": 0, "lon": -77.01500933333334, "is_disabled": 0, "fusion_lat": 0.0, "lat": 38.901489833333336, "bike_id": "d36b55f2ed1b79f9f5f635086fcecc59", "fusion_lon": 0.0}, {"rental_uris": {"ios": "https://dc.lft.to/lastmile_qr_scan", "android": "https://dc.lft.to/lastmile_qr_scan"}, "type": "electric_scooter", "name": "d892470d66128f8e9b27c15c2f0977d0", "is_reserved": 0, "lon": -77.03771166666667, "is_disabled": 0, "fusion_lat": 0.0, "lat": 38.9256035, "bike_id": "d892470d66128f8e9b27c15c2f0977d0", "fusion_lon": 0.0}, {"rental_uris": {"ios": "https://dc.lft.to/lastmile_qr_scan", "android": "https://dc.lft.to/lastmile_qr_scan"}, "type": "electric_scooter", "name": "0fe9cffbe736128ce545e704d8ba2362", "is_reserved": 0, "lon": -77.0440465, "is_disabled": 0, "fusion_lat": 0.0, "lat": 38.92590666666667, "bike_id": "0fe9cffbe736128ce545e704d8ba2362", "fusion_lon": 0.0}, {"rental_uris": {"ios": "https://dc.lft.to/lastmile_qr_scan", "android": "https://dc.lft.to/lastmile_qr_scan"}, "type": "electric_scooter", "name": "e0a82f580d1eb23cef77789d85b2ea8f", "is_reserved": 0, "lon": -77.0192305, "is_disabled": 0, "fusion_lat": 0.0, "lat": 38.90233816666667, "bike_id": "e0a82f580d1eb23cef77789d85b2ea8f", "fusion_lon": 0.0}, {"rental_uris": {"ios": "https://dc.lft.to/lastmile_qr_scan", "android": "https://dc.lft.to/lastmile_qr_scan"}, "type": "electric_scooter", "name": "229197d427acb39f92f87193be081021", "is_reserved": 0, "lon": -76.99008883333333, "is_disabled": 0, "fusion_lat": 0.0, "lat": 38.9039085, "bike_id": "229197d427acb39f92f87193be081021", "fusion_lon": 0.0}, {"rental_uris": {"ios": "https://dc.lft.to/lastmile_qr_scan", "android": "https://dc.lft.to/lastmile_qr_scan"}, "type": "electric_scooter", "name": "8c80df13c23806d8ac3f8a73d3931d82", "is_reserved": 0, "lon": -77.03722133333333, "is_disabled": 0, "fusion_lat": 0.0, "lat": 38.926469, "bike_id": "8c80df13c23806d8ac3f8a73d3931d82", "fusion_lon": 0.0}, {"rental_uris": {"ios": "https://dc.lft.to/lastmile_qr_scan", "android": "https://dc.lft.to/lastmile_qr_scan"}, "type": "electric_scooter", "name": "c66a2ffafa76a44c4a1a48650b46fda3", "is_reserved": 0, "lon": -77.00075616666666, "is_disabled": 0, "fusion_lat": 0.0, "lat": 38.876899333333334, "bike_id": "c66a2ffafa76a44c4a1a48650b46fda3", "fusion_lon": 0.0}, {"rental_uris": {"ios": "https://dc.lft.to/lastmile_qr_scan", "android": "https://dc.lft.to/lastmile_qr_scan"}, "type": "electric_scooter", "name": "26880b2c15bdffd5fde60faa999b76fc", "is_reserved": 0, "lon": -76.94324116666667, "is_disabled": 0, "fusion_lat": 0.0, "lat": 38.87917616666667, "bike_id": "26880b2c15bdffd5fde60faa999b76fc", "fusion_lon": 0.0}, {"rental_uris": {"ios": "https://dc.lft.to/lastmile_qr_scan", "android": "https://dc.lft.to/lastmile_qr_scan"}, "type": "electric_scooter", "name": "b8065383e7d30c313a9f4e88ba702108", "is_reserved": 0, "lon": -77.04657033333334, "is_disabled": 0, "fusion_lat": 0.0, "lat": 38.8967, "bike_id": "b8065383e7d30c313a9f4e88ba702108", "fusion_lon": 0.0}, {"rental_uris": {"ios": "https://dc.lft.to/lastmile_qr_scan", "android": "https://dc.lft.to/lastmile_qr_scan"}, "type": "electric_scooter", "name": "d6f4600d28915ff310c623791a750cb7", "is_reserved": 0, "lon": -77.0290045, "is_disabled": 0, "fusion_lat": 0.0, "lat": 38.9031955, "bike_id": "d6f4600d28915ff310c623791a750cb7", "fusion_lon": 0.0}, {"rental_uris": {"ios": "https://dc.lft.to/lastmile_qr_scan", "android": "https://dc.lft.to/lastmile_qr_scan"}, "type": "electric_scooter", "name": "c1dff6f9f1061e8520292e4dd3ec9fc2", "is_reserved": 0, "lon": -77.026735, "is_disabled": 0, "fusion_lat": 0.0, "lat": 38.90536683333333, "bike_id": "c1dff6f9f1061e8520292e4dd3ec9fc2", "fusion_lon": 0.0}, {"rental_uris": {"ios": "https://dc.lft.to/lastmile_qr_scan", "android": "https://dc.lft.to/lastmile_qr_scan"}, "type": "electric_scooter", "name": "4207db2cb716537ae44358017ab74d59", "is_reserved": 0, "lon": -77.04630616666667, "is_disabled": 0, "fusion_lat": 0.0, "lat": 38.90673266666667, "bike_id": "4207db2cb716537ae44358017ab74d59", "fusion_lon": 0.0}, {"rental_uris": {"ios": "https://dc.lft.to/lastmile_qr_scan", "android": "https://dc.lft.to/lastmile_qr_scan"}, "type": "electric_scooter", "name": "63344e094fef731b58c28b5b26a52f4d", "is_reserved": 0, "lon": -77.03259216666666, "is_disabled": 0, "fusion_lat": 0.0, "lat": 38.936373, "bike_id": "63344e094fef731b58c28b5b26a52f4d", "fusion_lon": 0.0}, {"rental_uris": {"ios": "https://dc.lft.to/lastmile_qr_scan", "android": "https://dc.lft.to/lastmile_qr_scan"}, "type": "electric_bike", "name": "7eb7cada6823c3f3a13da3ef0e342cae", "is_reserved": 0, "lon": -77.02028383333334, "is_disabled": 0, "fusion_lat": 0.0, "lat": 38.9656415, "bike_id": "7eb7cada6823c3f3a13da3ef0e342cae", "fusion_lon": 0.0}, {"rental_uris": {"ios": "https://dc.lft.to/lastmile_qr_scan", "android": "https://dc.lft.to/lastmile_qr_scan"}, "type": "electric_bike", "name": "04d931825a5cbbb46a3063d3379e1771", "is_reserved": 0, "lon": -76.98282033333334, "is_disabled": 0, "fusion_lat": 0.0, "lat": 38.846750166666666, "bike_id": "04d931825a5cbbb46a3063d3379e1771", "fusion_lon": 0.0}, {"rental_uris": {"ios": "https://dc.lft.to/lastmile_qr_scan", "android": "https://dc.lft.to/lastmile_qr_scan"}, "type": "electric_scooter", "name": "9eb40b66fb4a16e736ff4ddd4af46dd0", "is_reserved": 0, "lon": -77.005631, "is_disabled": 0, "fusion_lat": 0.0, "lat": 38.879022, "bike_id": "9eb40b66fb4a16e736ff4ddd4af46dd0", "fusion_lon": 0.0}, {"rental_uris": {"ios": "https://dc.lft.to/lastmile_qr_scan", "android": "https://dc.lft.to/lastmile_qr_scan"}, "type": "electric_scooter", "name": "1412e0100c3b99ce5c209d00c27ae2be", "is_reserved": 0, "lon": -77.03757733333333, "is_disabled": 0, "fusion_lat": 0.0, "lat": 38.936059666666665, "bike_id": "1412e0100c3b99ce5c209d00c27ae2be", "fusion_lon": 0.0}, {"rental_uris": {"ios": "https://dc.lft.to/lastmile_qr_scan", "android": "https://dc.lft.to/lastmile_qr_scan"}, "type": "electric_scooter", "name": "4c16fbdfbc85c65c7f7aa4eb4f0b7f95", "is_reserved": 0, "lon": -77.003178, "is_disabled": 0, "fusion_lat": 0.0, "lat": 38.877270833333334, "bike_id": "4c16fbdfbc85c65c7f7aa4eb4f0b7f95", "fusion_lon": 0.0}, {"rental_uris": {"ios": "https://dc.lft.to/lastmile_qr_scan", "android": "https://dc.lft.to/lastmile_qr_scan"}, "type": "electric_scooter", "name": "6b50f45448f7ce719d5980b0b3ed277d", "is_reserved": 0, "lon": -77.0188575, "is_disabled": 0, "fusion_lat": 0.0, "lat": 38.897529666666664, "bike_id": "6b50f45448f7ce719d5980b0b3ed277d", "fusion_lon": 0.0}, {"rental_uris": {"ios": "https://dc.lft.to/lastmile_qr_scan", "android": "https://dc.lft.to/lastmile_qr_scan"}, "type": "electric_scooter", "name": "e5c6eeb11d383c22c6e682107b6a7f47", "is_reserved": 0, "lon": -77.03975433333333, "is_disabled": 0, "fusion_lat": 0.0, "lat": 38.902458833333334, "bike_id": "e5c6eeb11d383c22c6e682107b6a7f47", "fusion_lon": 0.0}, {"rental_uris": {"ios": "https://dc.lft.to/lastmile_qr_scan", "android": "https://dc.lft.to/lastmile_qr_scan"}, "type": "electric_scooter", "name": "79a8dc6383be8c1e97cc98ea5ca836b2", "is_reserved": 0, "lon": -77.07699033333333, "is_disabled": 0, "fusion_lat": 0.0, "lat": 38.893421333333336, "bike_id": "79a8dc6383be8c1e97cc98ea5ca836b2", "fusion_lon": 0.0}, {"rental_uris": {"ios": "https://dc.lft.to/lastmile_qr_scan", "android": "https://dc.lft.to/lastmile_qr_scan"}, "type": "electric_scooter", "name": "5d4ddbc627d5fde0ff74eecb09636991", "is_reserved": 0, "lon": -76.98210916666666, "is_disabled": 0, "fusion_lat": 0.0, "lat": 38.886448, "bike_id": "5d4ddbc627d5fde0ff74eecb09636991", "fusion_lon": 0.0}, {"rental_uris": {"ios": "https://dc.lft.to/lastmile_qr_scan", "android": "https://dc.lft.to/lastmile_qr_scan"}, "type": "electric_scooter", "name": "2c17d880e654cd3996fcdf69657b1ec7", "is_reserved": 0, "lon": -77.046578, "is_disabled": 0, "fusion_lat": 0.0, "lat": 38.917934833333334, "bike_id": "2c17d880e654cd3996fcdf69657b1ec7", "fusion_lon": 0.0}, {"rental_uris": {"ios": "https://dc.lft.to/lastmile_qr_scan", "android": "https://dc.lft.to/lastmile_qr_scan"}, "type": "electric_scooter", "name": "a0fe50dc9153c4e6e6328a8c03f9232c", "is_reserved": 0, "lon": -77.01805133333333, "is_disabled": 0, "fusion_lat": 0.0, "lat": 38.92132983333333, "bike_id": "a0fe50dc9153c4e6e6328a8c03f9232c", "fusion_lon": 0.0}, {"rental_uris": {"ios": "https://dc.lft.to/lastmile_qr_scan", "android": "https://dc.lft.to/lastmile_qr_scan"}, "type": "electric_scooter", "name": "f9e6843c0daffdf5ce1c692307129269", "is_reserved": 0, "lon": -76.99612933333333, "is_disabled": 0, "fusion_lat": 0.0, "lat": 38.90322283333333, "bike_id": "f9e6843c0daffdf5ce1c692307129269", "fusion_lon": 0.0}, {"rental_uris": {"ios": "https://dc.lft.to/lastmile_qr_scan", "android": "https://dc.lft.to/lastmile_qr_scan"}, "type": "electric_scooter", "name": "bee2b24e95af09e18782890c4a3c612a", "is_reserved": 0, "lon": -77.042098, "is_disabled": 0, "fusion_lat": 0.0, "lat": 38.921165333333335, "bike_id": "bee2b24e95af09e18782890c4a3c612a", "fusion_lon": 0.0}, {"rental_uris": {"ios": "https://dc.lft.to/lastmile_qr_scan", "android": "https://dc.lft.to/lastmile_qr_scan"}, "type": "electric_scooter", "name": "b8e6e21d73e61a7e8462333d199b13dd", "is_reserved": 0, "lon": -77.07834816666667, "is_disabled": 0, "fusion_lat": 0.0, "lat": 38.945701, "bike_id": "b8e6e21d73e61a7e8462333d199b13dd", "fusion_lon": 0.0}, {"rental_uris": {"ios": "https://dc.lft.to/lastmile_qr_scan", "android": "https://dc.lft.to/lastmile_qr_scan"}, "type": "electric_bike", "name": "9d3f6ab0a942d460a4f3bffd64df6688", "is_reserved": 0, "lon": -76.998105, "is_disabled": 0, "fusion_lat": 0.0, "lat": 38.90532966666667, "bike_id": "9d3f6ab0a942d460a4f3bffd64df6688", "fusion_lon": 0.0}, {"rental_uris": {"ios": "https://dc.lft.to/lastmile_qr_scan", "android": "https://dc.lft.to/lastmile_qr_scan"}, "type": "electric_scooter", "name": "27bd911953049f6c52fa3e1bd427b544", "is_reserved": 0, "lon": -77.00798433333334, "is_disabled": 0, "fusion_lat": 0.0, "lat": 38.91269166666667, "bike_id": "27bd911953049f6c52fa3e1bd427b544", "fusion_lon": 0.0}, {"rental_uris": {"ios": "https://dc.lft.to/lastmile_qr_scan", "android": "https://dc.lft.to/lastmile_qr_scan"}, "type": "electric_scooter", "name": "e94ab2cb659af46725b8fbffb40c45d4", "is_reserved": 0, "lon": -77.01770683333334, "is_disabled": 0, "fusion_lat": 0.0, "lat": 38.90021616666667, "bike_id": "e94ab2cb659af46725b8fbffb40c45d4", "fusion_lon": 0.0}, {"rental_uris": {"ios": "https://dc.lft.to/lastmile_qr_scan", "android": "https://dc.lft.to/lastmile_qr_scan"}, "type": "electric_scooter", "name": "3dd95fd5dabc41e38e5567b8528f3a97", "is_reserved": 0, "lon": -77.00282833333333, "is_disabled": 0, "fusion_lat": 0.0, "lat": 38.846155833333334, "bike_id": "3dd95fd5dabc41e38e5567b8528f3a97", "fusion_lon": 0.0}, {"rental_uris": {"ios": "https://dc.lft.to/lastmile_qr_scan", "android": "https://dc.lft.to/lastmile_qr_scan"}, "type": "electric_scooter", "name": "a0a3f3d4a5dffcae2be910e89fa80c96", "is_reserved": 0, "lon": -77.02972033333333, "is_disabled": 0, "fusion_lat": 0.0, "lat": 38.932531833333336, "bike_id": "a0a3f3d4a5dffcae2be910e89fa80c96", "fusion_lon": 0.0}, {"rental_uris": {"ios": "https://dc.lft.to/lastmile_qr_scan", "android": "https://dc.lft.to/lastmile_qr_scan"}, "type": "electric_scooter", "name": "13ce64f03edd0b544bcaca56cf72484e", "is_reserved": 0, "lon": -77.06605366666666, "is_disabled": 0, "fusion_lat": 0.0, "lat": 38.903987, "bike_id": "13ce64f03edd0b544bcaca56cf72484e", "fusion_lon": 0.0}, {"rental_uris": {"ios": "https://dc.lft.to/lastmile_qr_scan", "android": "https://dc.lft.to/lastmile_qr_scan"}, "type": "electric_scooter", "name": "17231cc6b6a9d4d0a7aaa59cae04bacb", "is_reserved": 0, "lon": -77.02491083333334, "is_disabled": 0, "fusion_lat": 0.0, "lat": 38.94052516666667, "bike_id": "17231cc6b6a9d4d0a7aaa59cae04bacb", "fusion_lon": 0.0}, {"rental_uris": {"ios": "https://dc.lft.to/lastmile_qr_scan", "android": "https://dc.lft.to/lastmile_qr_scan"}, "type": "electric_scooter", "name": "f7cd860706de5dd529dd48ed905179e4", "is_reserved": 0, "lon": -77.046027, "is_disabled": 0, "fusion_lat": 0.0, "lat": 38.905845666666664, "bike_id": "f7cd860706de5dd529dd48ed905179e4", "fusion_lon": 0.0}, {"rental_uris": {"ios": "https://dc.lft.to/lastmile_qr_scan", "android": "https://dc.lft.to/lastmile_qr_scan"}, "type": "electric_scooter", "name": "39523c5d084e679712041c63ab07d384", "is_reserved": 0, "lon": -77.0792925, "is_disabled": 0, "fusion_lat": 0.0, "lat": 38.9456355, "bike_id": "39523c5d084e679712041c63ab07d384", "fusion_lon": 0.0}, {"rental_uris": {"ios": "https://dc.lft.to/lastmile_qr_scan", "android": "https://dc.lft.to/lastmile_qr_scan"}, "type": "electric_scooter", "name": "6cf68c556f68a1c13c5a35628fdcbf64", "is_reserved": 0, "lon": -77.02009933333333, "is_disabled": 0, "fusion_lat": 0.0, "lat": 38.911111166666664, "bike_id": "6cf68c556f68a1c13c5a35628fdcbf64", "fusion_lon": 0.0}, {"rental_uris": {"ios": "https://dc.lft.to/lastmile_qr_scan", "android": "https://dc.lft.to/lastmile_qr_scan"}, "type": "electric_scooter", "name": "2112719fcd174d87997e1d8368600eda", "is_reserved": 0, "lon": -77.0502855, "is_disabled": 0, "fusion_lat": 0.0, "lat": 38.8965635, "bike_id": "2112719fcd174d87997e1d8368600eda", "fusion_lon": 0.0}, {"rental_uris": {"ios": "https://dc.lft.to/lastmile_qr_scan", "android": "https://dc.lft.to/lastmile_qr_scan"}, "type": "electric_scooter", "name": "175ca9f1a925fc291cba79922e60ba76", "is_reserved": 0, "lon": -77.00740066666667, "is_disabled": 0, "fusion_lat": 0.0, "lat": 38.87846416666667, "bike_id": "175ca9f1a925fc291cba79922e60ba76", "fusion_lon": 0.0}, {"rental_uris": {"ios": "https://dc.lft.to/lastmile_qr_scan", "android": "https://dc.lft.to/lastmile_qr_scan"}, "type": "electric_scooter", "name": "41b90d069f6466a8d255415aaa68a07a", "is_reserved": 0, "lon": -77.030226, "is_disabled": 0, "fusion_lat": 0.0, "lat": 38.878469833333334, "bike_id": "41b90d069f6466a8d255415aaa68a07a", "fusion_lon": 0.0}, {"rental_uris": {"ios": "https://dc.lft.to/lastmile_qr_scan", "android": "https://dc.lft.to/lastmile_qr_scan"}, "type": "electric_scooter", "name": "a81563556b330fdd8f413f2f0772a122", "is_reserved": 0, "lon": -77.0073095, "is_disabled": 0, "fusion_lat": 0.0, "lat": 38.898959, "bike_id": "a81563556b330fdd8f413f2f0772a122", "fusion_lon": 0.0}, {"rental_uris": {"ios": "https://dc.lft.to/lastmile_qr_scan", "android": "https://dc.lft.to/lastmile_qr_scan"}, "type": "electric_bike", "name": "c5f1c00dfe38a5a2da97c278ad141bad", "is_reserved": 0, "lon": -76.99556233333334, "is_disabled": 0, "fusion_lat": 0.0, "lat": 38.8621765, "bike_id": "c5f1c00dfe38a5a2da97c278ad141bad", "fusion_lon": 0.0}, {"rental_uris": {"ios": "https://dc.lft.to/lastmile_qr_scan", "android": "https://dc.lft.to/lastmile_qr_scan"}, "type": "electric_scooter", "name": "d3710a57d938047c9a9c5dc094dc71e1", "is_reserved": 0, "lon": -77.0574835, "is_disabled": 0, "fusion_lat": 0.0, "lat": 38.92509616666667, "bike_id": "d3710a57d938047c9a9c5dc094dc71e1", "fusion_lon": 0.0}, {"rental_uris": {"ios": "https://dc.lft.to/lastmile_qr_scan", "android": "https://dc.lft.to/lastmile_qr_scan"}, "type": "electric_bike", "name": "f74dcc8355956eddaeb1ffdf750dbd2a", "is_reserved": 0, "lon": -76.9073945, "is_disabled": 0, "fusion_lat": 0.0, "lat": 38.896215833333336, "bike_id": "f74dcc8355956eddaeb1ffdf750dbd2a", "fusion_lon": 0.0}, {"rental_uris": {"ios": "https://dc.lft.to/lastmile_qr_scan", "android": "https://dc.lft.to/lastmile_qr_scan"}, "type": "electric_scooter", "name": "a82b7b3ff1a52e16640a75f3581214a3", "is_reserved": 0, "lon": -77.0460525, "is_disabled": 0, "fusion_lat": 0.0, "lat": 38.90583216666667, "bike_id": "a82b7b3ff1a52e16640a75f3581214a3", "fusion_lon": 0.0}, {"rental_uris": {"ios": "https://dc.lft.to/lastmile_qr_scan", "android": "https://dc.lft.to/lastmile_qr_scan"}, "type": "electric_scooter", "name": "ac454491fa161e41fbcf61a668f5ba90", "is_reserved": 0, "lon": -77.02180633333333, "is_disabled": 0, "fusion_lat": 0.0, "lat": 38.91121733333333, "bike_id": "ac454491fa161e41fbcf61a668f5ba90", "fusion_lon": 0.0}, {"rental_uris": {"ios": "https://dc.lft.to/lastmile_qr_scan", "android": "https://dc.lft.to/lastmile_qr_scan"}, "type": "electric_scooter", "name": "ad83b41a915e56e6cee7b0deacc007c8", "is_reserved": 0, "lon": -77.01740166666667, "is_disabled": 0, "fusion_lat": 0.0, "lat": 38.91248516666667, "bike_id": "ad83b41a915e56e6cee7b0deacc007c8", "fusion_lon": 0.0}, {"rental_uris": {"ios": "https://dc.lft.to/lastmile_qr_scan", "android": "https://dc.lft.to/lastmile_qr_scan"}, "type": "electric_scooter", "name": "30bac791b93232859d116938dfdf98fa", "is_reserved": 0, "lon": -76.98023683333334, "is_disabled": 0, "fusion_lat": 0.0, "lat": 38.91680316666667, "bike_id": "30bac791b93232859d116938dfdf98fa", "fusion_lon": 0.0}, {"rental_uris": {"ios": "https://dc.lft.to/lastmile_qr_scan", "android": "https://dc.lft.to/lastmile_qr_scan"}, "type": "electric_scooter", "name": "b5d51fe56d3156d6180a7495271b3285", "is_reserved": 0, "lon": -77.04514766666667, "is_disabled": 0, "fusion_lat": 0.0, "lat": 38.90776616666667, "bike_id": "b5d51fe56d3156d6180a7495271b3285", "fusion_lon": 0.0}, {"rental_uris": {"ios": "https://dc.lft.to/lastmile_qr_scan", "android": "https://dc.lft.to/lastmile_qr_scan"}, "type": "electric_bike", "name": "80584907fbaf4ed92611bb9d7b753e93", "is_reserved": 0, "lon": -76.94163783333333, "is_disabled": 0, "fusion_lat": 0.0, "lat": 38.86555716666667, "bike_id": "80584907fbaf4ed92611bb9d7b753e93", "fusion_lon": 0.0}, {"rental_uris": {"ios": "https://dc.lft.to/lastmile_qr_scan", "android": "https://dc.lft.to/lastmile_qr_scan"}, "type": "electric_scooter", "name": "3eaee2bee0a376e6fa9054cd4c49524b", "is_reserved": 0, "lon": -77.0438245, "is_disabled": 0, "fusion_lat": 0.0, "lat": 38.923585833333334, "bike_id": "3eaee2bee0a376e6fa9054cd4c49524b", "fusion_lon": 0.0}, {"rental_uris": {"ios": "https://dc.lft.to/lastmile_qr_scan", "android": "https://dc.lft.to/lastmile_qr_scan"}, "type": "electric_scooter", "name": "dee519499a86114b8437e956803b3dfc", "is_reserved": 0, "lon": -77.04909116666667, "is_disabled": 0, "fusion_lat": 0.0, "lat": 38.919386333333335, "bike_id": "dee519499a86114b8437e956803b3dfc", "fusion_lon": 0.0}, {"rental_uris": {"ios": "https://dc.lft.to/lastmile_qr_scan", "android": "https://dc.lft.to/lastmile_qr_scan"}, "type": "electric_scooter", "name": "909d2fcf771200589bbcf62e7aaead79", "is_reserved": 0, "lon": -77.0371535, "is_disabled": 0, "fusion_lat": 0.0, "lat": 38.914887666666665, "bike_id": "909d2fcf771200589bbcf62e7aaead79", "fusion_lon": 0.0}, {"rental_uris": {"ios": "https://dc.lft.to/lastmile_qr_scan", "android": "https://dc.lft.to/lastmile_qr_scan"}, "type": "electric_scooter", "name": "486e1f5263ce5d4c10c879b9aea032a6", "is_reserved": 0, "lon": -77.03869783333333, "is_disabled": 0, "fusion_lat": 0.0, "lat": 38.92153033333334, "bike_id": "486e1f5263ce5d4c10c879b9aea032a6", "fusion_lon": 0.0}, {"rental_uris": {"ios": "https://dc.lft.to/lastmile_qr_scan", "android": "https://dc.lft.to/lastmile_qr_scan"}, "type": "electric_scooter", "name": "a7c84242a39f77b609b8e439400df043", "is_reserved": 0, "lon": -77.02619583333333, "is_disabled": 0, "fusion_lat": 0.0, "lat": 38.90736783333333, "bike_id": "a7c84242a39f77b609b8e439400df043", "fusion_lon": 0.0}, {"rental_uris": {"ios": "https://dc.lft.to/lastmile_qr_scan", "android": "https://dc.lft.to/lastmile_qr_scan"}, "type": "electric_scooter", "name": "ccddf41390ef5f2b27672059ec68b271", "is_reserved": 0, "lon": -77.00995, "is_disabled": 0, "fusion_lat": 0.0, "lat": 38.8729875, "bike_id": "ccddf41390ef5f2b27672059ec68b271", "fusion_lon": 0.0}, {"rental_uris": {"ios": "https://dc.lft.to/lastmile_qr_scan", "android": "https://dc.lft.to/lastmile_qr_scan"}, "type": "electric_scooter", "name": "e8aa7d84c8ce2ae21bf86a4876d32bcc", "is_reserved": 0, "lon": -77.03367083333333, "is_disabled": 0, "fusion_lat": 0.0, "lat": 38.91078066666667, "bike_id": "e8aa7d84c8ce2ae21bf86a4876d32bcc", "fusion_lon": 0.0}, {"rental_uris": {"ios": "https://dc.lft.to/lastmile_qr_scan", "android": "https://dc.lft.to/lastmile_qr_scan"}, "type": "electric_scooter", "name": "ad4e3cc00a36a60e660f7655b2ff2c10", "is_reserved": 0, "lon": -77.04075816666666, "is_disabled": 0, "fusion_lat": 0.0, "lat": 38.92026716666667, "bike_id": "ad4e3cc00a36a60e660f7655b2ff2c10", "fusion_lon": 0.0}, {"rental_uris": {"ios": "https://dc.lft.to/lastmile_qr_scan", "android": "https://dc.lft.to/lastmile_qr_scan"}, "type": "electric_scooter", "name": "388f7552c33b6aafdb5bb92334371dd4", "is_reserved": 0, "lon": -77.029044, "is_disabled": 0, "fusion_lat": 0.0, "lat": 38.917035, "bike_id": "388f7552c33b6aafdb5bb92334371dd4", "fusion_lon": 0.0}, {"rental_uris": {"ios": "https://dc.lft.to/lastmile_qr_scan", "android": "https://dc.lft.to/lastmile_qr_scan"}, "type": "electric_scooter", "name": "4ad25aaca8606616a705d52a0a848fae", "is_reserved": 0, "lon": -77.03224033333333, "is_disabled": 0, "fusion_lat": 0.0, "lat": 38.919908666666664, "bike_id": "4ad25aaca8606616a705d52a0a848fae", "fusion_lon": 0.0}, {"rental_uris": {"ios": "https://dc.lft.to/lastmile_qr_scan", "android": "https://dc.lft.to/lastmile_qr_scan"}, "type": "electric_scooter", "name": "058e04e06182b5e9f079e384f23628f8", "is_reserved": 0, "lon": -77.04128266666666, "is_disabled": 0, "fusion_lat": 0.0, "lat": 38.92542366666667, "bike_id": "058e04e06182b5e9f079e384f23628f8", "fusion_lon": 0.0}, {"rental_uris": {"ios": "https://dc.lft.to/lastmile_qr_scan", "android": "https://dc.lft.to/lastmile_qr_scan"}, "type": "electric_scooter", "name": "9f0034e58964734929de57a0de4a67be", "is_reserved": 0, "lon": -77.0523825, "is_disabled": 0, "fusion_lat": 0.0, "lat": 38.9246055, "bike_id": "9f0034e58964734929de57a0de4a67be", "fusion_lon": 0.0}, {"rental_uris": {"ios": "https://dc.lft.to/lastmile_qr_scan", "android": "https://dc.lft.to/lastmile_qr_scan"}, "type": "electric_scooter", "name": "e145553b7cbc94b65a5779cb73a1aa39", "is_reserved": 0, "lon": -77.0160135, "is_disabled": 0, "fusion_lat": 0.0, "lat": 38.89998683333334, "bike_id": "e145553b7cbc94b65a5779cb73a1aa39", "fusion_lon": 0.0}, {"rental_uris": {"ios": "https://dc.lft.to/lastmile_qr_scan", "android": "https://dc.lft.to/lastmile_qr_scan"}, "type": "electric_scooter", "name": "93d58162d45ee17bf7b79ce63ebc528a", "is_reserved": 0, "lon": -77.03473116666666, "is_disabled": 0, "fusion_lat": 0.0, "lat": 38.9043695, "bike_id": "93d58162d45ee17bf7b79ce63ebc528a", "fusion_lon": 0.0}, {"rental_uris": {"ios": "https://dc.lft.to/lastmile_qr_scan", "android": "https://dc.lft.to/lastmile_qr_scan"}, "type": "electric_scooter", "name": "2d2eb38dd39f36ff37be8cd73a78a53a", "is_reserved": 0, "lon": -77.04913433333333, "is_disabled": 0, "fusion_lat": 0.0, "lat": 38.91044016666667, "bike_id": "2d2eb38dd39f36ff37be8cd73a78a53a", "fusion_lon": 0.0}, {"rental_uris": {"ios": "https://dc.lft.to/lastmile_qr_scan", "android": "https://dc.lft.to/lastmile_qr_scan"}, "type": "electric_scooter", "name": "ad3aff76247704519eb40d9ce044b514", "is_reserved": 0, "lon": -77.00957583333333, "is_disabled": 0, "fusion_lat": 0.0, "lat": 38.92140333333333, "bike_id": "ad3aff76247704519eb40d9ce044b514", "fusion_lon": 0.0}, {"rental_uris": {"ios": "https://dc.lft.to/lastmile_qr_scan", "android": "https://dc.lft.to/lastmile_qr_scan"}, "type": "electric_scooter", "name": "b1c38c10a766f80537cd76bf5d26d555", "is_reserved": 0, "lon": -76.99836283333333, "is_disabled": 0, "fusion_lat": 0.0, "lat": 38.907384666666665, "bike_id": "b1c38c10a766f80537cd76bf5d26d555", "fusion_lon": 0.0}, {"rental_uris": {"ios": "https://dc.lft.to/lastmile_qr_scan", "android": "https://dc.lft.to/lastmile_qr_scan"}, "type": "electric_scooter", "name": "ed2fb13c47e12ddf3d57912d36c5e7df", "is_reserved": 0, "lon": -77.04091716666667, "is_disabled": 0, "fusion_lat": 0.0, "lat": 38.92712683333333, "bike_id": "ed2fb13c47e12ddf3d57912d36c5e7df", "fusion_lon": 0.0}, {"rental_uris": {"ios": "https://dc.lft.to/lastmile_qr_scan", "android": "https://dc.lft.to/lastmile_qr_scan"}, "type": "electric_scooter", "name": "d3f9fca4b01b21e3c3930139dca887c0", "is_reserved": 0, "lon": -77.03435516666667, "is_disabled": 0, "fusion_lat": 0.0, "lat": 38.90088933333333, "bike_id": "d3f9fca4b01b21e3c3930139dca887c0", "fusion_lon": 0.0}, {"rental_uris": {"ios": "https://dc.lft.to/lastmile_qr_scan", "android": "https://dc.lft.to/lastmile_qr_scan"}, "type": "electric_scooter", "name": "31630aad0934b5eba19f3caaacf9497f", "is_reserved": 0, "lon": -77.038163, "is_disabled": 0, "fusion_lat": 0.0, "lat": 38.90967766666667, "bike_id": "31630aad0934b5eba19f3caaacf9497f", "fusion_lon": 0.0}, {"rental_uris": {"ios": "https://dc.lft.to/lastmile_qr_scan", "android": "https://dc.lft.to/lastmile_qr_scan"}, "type": "electric_scooter", "name": "bc7ecc9cfa38f0ab274a9a778c7158aa", "is_reserved": 0, "lon": -77.05618566666666, "is_disabled": 0, "fusion_lat": 0.0, "lat": 38.90687966666667, "bike_id": "bc7ecc9cfa38f0ab274a9a778c7158aa", "fusion_lon": 0.0}, {"rental_uris": {"ios": "https://dc.lft.to/lastmile_qr_scan", "android": "https://dc.lft.to/lastmile_qr_scan"}, "type": "electric_bike", "name": "da5092ade9a1d4688dcadca59acb0c81", "is_reserved": 0, "lon": -76.90734183333333, "is_disabled": 0, "fusion_lat": 0.0, "lat": 38.89619283333333, "bike_id": "da5092ade9a1d4688dcadca59acb0c81", "fusion_lon": 0.0}, {"rental_uris": {"ios": "https://dc.lft.to/lastmile_qr_scan", "android": "https://dc.lft.to/lastmile_qr_scan"}, "type": "electric_scooter", "name": "d7ae4969f98682aa5d5494ddc1b29f1c", "is_reserved": 0, "lon": -77.012246, "is_disabled": 0, "fusion_lat": 0.0, "lat": 38.86723583333333, "bike_id": "d7ae4969f98682aa5d5494ddc1b29f1c", "fusion_lon": 0.0}, {"rental_uris": {"ios": "https://dc.lft.to/lastmile_qr_scan", "android": "https://dc.lft.to/lastmile_qr_scan"}, "type": "electric_scooter", "name": "98b210ac08eebf3df3b5738aa5b13537", "is_reserved": 0, "lon": -76.99233733333334, "is_disabled": 0, "fusion_lat": 0.0, "lat": 38.8875125, "bike_id": "98b210ac08eebf3df3b5738aa5b13537", "fusion_lon": 0.0}, {"rental_uris": {"ios": "https://dc.lft.to/lastmile_qr_scan", "android": "https://dc.lft.to/lastmile_qr_scan"}, "type": "electric_scooter", "name": "39be74e4e04e651921e45f35060de260", "is_reserved": 0, "lon": -77.03213633333333, "is_disabled": 0, "fusion_lat": 0.0, "lat": 38.88474266666667, "bike_id": "39be74e4e04e651921e45f35060de260", "fusion_lon": 0.0}, {"rental_uris": {"ios": "https://dc.lft.to/lastmile_qr_scan", "android": "https://dc.lft.to/lastmile_qr_scan"}, "type": "electric_scooter", "name": "2a1480397d81033f3455dbee2c87a3c4", "is_reserved": 0, "lon": -77.04761183333333, "is_disabled": 0, "fusion_lat": 0.0, "lat": 38.94098283333334, "bike_id": "2a1480397d81033f3455dbee2c87a3c4", "fusion_lon": 0.0}, {"rental_uris": {"ios": "https://dc.lft.to/lastmile_qr_scan", "android": "https://dc.lft.to/lastmile_qr_scan"}, "type": "electric_scooter", "name": "127b59cefa3b3c6318bdaae6cc1cec2c", "is_reserved": 0, "lon": -77.03662316666667, "is_disabled": 0, "fusion_lat": 0.0, "lat": 38.923570833333336, "bike_id": "127b59cefa3b3c6318bdaae6cc1cec2c", "fusion_lon": 0.0}, {"rental_uris": {"ios": "https://dc.lft.to/lastmile_qr_scan", "android": "https://dc.lft.to/lastmile_qr_scan"}, "type": "electric_scooter", "name": "711aff3581e8749abaf82b5122fc2407", "is_reserved": 0, "lon": -76.99910516666667, "is_disabled": 0, "fusion_lat": 0.0, "lat": 38.924582, "bike_id": "711aff3581e8749abaf82b5122fc2407", "fusion_lon": 0.0}, {"rental_uris": {"ios": "https://dc.lft.to/lastmile_qr_scan", "android": "https://dc.lft.to/lastmile_qr_scan"}, "type": "electric_scooter", "name": "3368011a69fd5241e311ede3a6c154d2", "is_reserved": 0, "lon": -77.0082665, "is_disabled": 0, "fusion_lat": 0.0, "lat": 38.913712833333335, "bike_id": "3368011a69fd5241e311ede3a6c154d2", "fusion_lon": 0.0}, {"rental_uris": {"ios": "https://dc.lft.to/lastmile_qr_scan", "android": "https://dc.lft.to/lastmile_qr_scan"}, "type": "electric_scooter", "name": "1eab31848e3928fc475594243abf2f9a", "is_reserved": 0, "lon": -77.046093, "is_disabled": 0, "fusion_lat": 0.0, "lat": 38.905817166666665, "bike_id": "1eab31848e3928fc475594243abf2f9a", "fusion_lon": 0.0}, {"rental_uris": {"ios": "https://dc.lft.to/lastmile_qr_scan", "android": "https://dc.lft.to/lastmile_qr_scan"}, "type": "electric_bike", "name": "1625ca308a9a02c44f55202bfb7eac71", "is_reserved": 0, "lon": -77.12700866666667, "is_disabled": 0, "fusion_lat": 0.0, "lat": 38.895704333333335, "bike_id": "1625ca308a9a02c44f55202bfb7eac71", "fusion_lon": 0.0}, {"rental_uris": {"ios": "https://dc.lft.to/lastmile_qr_scan", "android": "https://dc.lft.to/lastmile_qr_scan"}, "type": "electric_scooter", "name": "7ab3d614b54ad7b9bab16420d590f91f", "is_reserved": 0, "lon": -76.98357183333333, "is_disabled": 0, "fusion_lat": 0.0, "lat": 38.8874585, "bike_id": "7ab3d614b54ad7b9bab16420d590f91f", "fusion_lon": 0.0}, {"rental_uris": {"ios": "https://dc.lft.to/lastmile_qr_scan", "android": "https://dc.lft.to/lastmile_qr_scan"}, "type": "electric_scooter", "name": "292364284717bfa373fdb18d79ee668c", "is_reserved": 0, "lon": -77.00759233333333, "is_disabled": 0, "fusion_lat": 0.0, "lat": 38.92528033333333, "bike_id": "292364284717bfa373fdb18d79ee668c", "fusion_lon": 0.0}, {"rental_uris": {"ios": "https://dc.lft.to/lastmile_qr_scan", "android": "https://dc.lft.to/lastmile_qr_scan"}, "type": "electric_scooter", "name": "84faab828774850989ead8caef7f9b86", "is_reserved": 0, "lon": -77.046366, "is_disabled": 0, "fusion_lat": 0.0, "lat": 38.897466333333334, "bike_id": "84faab828774850989ead8caef7f9b86", "fusion_lon": 0.0}, {"rental_uris": {"ios": "https://dc.lft.to/lastmile_qr_scan", "android": "https://dc.lft.to/lastmile_qr_scan"}, "type": "electric_scooter", "name": "4177b653bcb35f41ee52ddb4fe337d9c", "is_reserved": 0, "lon": -76.95882466666667, "is_disabled": 0, "fusion_lat": 0.0, "lat": 38.8584125, "bike_id": "4177b653bcb35f41ee52ddb4fe337d9c", "fusion_lon": 0.0}, {"rental_uris": {"ios": "https://dc.lft.to/lastmile_qr_scan", "android": "https://dc.lft.to/lastmile_qr_scan"}, "type": "electric_scooter", "name": "fbf9c632d9793f2ffc27565592d34b04", "is_reserved": 0, "lon": -77.01873516666667, "is_disabled": 0, "fusion_lat": 0.0, "lat": 38.9026035, "bike_id": "fbf9c632d9793f2ffc27565592d34b04", "fusion_lon": 0.0}, {"rental_uris": {"ios": "https://dc.lft.to/lastmile_qr_scan", "android": "https://dc.lft.to/lastmile_qr_scan"}, "type": "electric_scooter", "name": "83d38193d0bffd499f5e102c4b0f4f2a", "is_reserved": 0, "lon": -76.98612783333333, "is_disabled": 0, "fusion_lat": 0.0, "lat": 38.903507, "bike_id": "83d38193d0bffd499f5e102c4b0f4f2a", "fusion_lon": 0.0}, {"rental_uris": {"ios": "https://dc.lft.to/lastmile_qr_scan", "android": "https://dc.lft.to/lastmile_qr_scan"}, "type": "electric_scooter", "name": "ed62dee68eb0f62ecd14edaf648ffe53", "is_reserved": 0, "lon": -77.01061133333333, "is_disabled": 0, "fusion_lat": 0.0, "lat": 38.8740565, "bike_id": "ed62dee68eb0f62ecd14edaf648ffe53", "fusion_lon": 0.0}, {"rental_uris": {"ios": "https://dc.lft.to/lastmile_qr_scan", "android": "https://dc.lft.to/lastmile_qr_scan"}, "type": "electric_bike", "name": "c66a5331c78d3bfc3211f4ff5356dc91", "is_reserved": 0, "lon": -77.09017416666667, "is_disabled": 0, "fusion_lat": 0.0, "lat": 38.92649383333333, "bike_id": "c66a5331c78d3bfc3211f4ff5356dc91", "fusion_lon": 0.0}, {"rental_uris": {"ios": "https://dc.lft.to/lastmile_qr_scan", "android": "https://dc.lft.to/lastmile_qr_scan"}, "type": "electric_scooter", "name": "1d25ad37a04161c8b1ac50d2d5880b93", "is_reserved": 0, "lon": -77.02664166666666, "is_disabled": 0, "fusion_lat": 0.0, "lat": 38.88492183333334, "bike_id": "1d25ad37a04161c8b1ac50d2d5880b93", "fusion_lon": 0.0}, {"rental_uris": {"ios": "https://dc.lft.to/lastmile_qr_scan", "android": "https://dc.lft.to/lastmile_qr_scan"}, "type": "electric_scooter", "name": "b9180b2001c878d041839c9841b022d7", "is_reserved": 0, "lon": -76.985833, "is_disabled": 0, "fusion_lat": 0.0, "lat": 38.861847166666664, "bike_id": "b9180b2001c878d041839c9841b022d7", "fusion_lon": 0.0}, {"rental_uris": {"ios": "https://dc.lft.to/lastmile_qr_scan", "android": "https://dc.lft.to/lastmile_qr_scan"}, "type": "electric_scooter", "name": "082969ae78dd115cdc7779cd199a67b4", "is_reserved": 0, "lon": -77.028052, "is_disabled": 0, "fusion_lat": 0.0, "lat": 38.90747566666667, "bike_id": "082969ae78dd115cdc7779cd199a67b4", "fusion_lon": 0.0}, {"rental_uris": {"ios": "https://dc.lft.to/lastmile_qr_scan", "android": "https://dc.lft.to/lastmile_qr_scan"}, "type": "electric_scooter", "name": "de9e93a1c7f94cebeda8d24ed7007ad9", "is_reserved": 0, "lon": -77.02557, "is_disabled": 0, "fusion_lat": 0.0, "lat": 38.938628, "bike_id": "de9e93a1c7f94cebeda8d24ed7007ad9", "fusion_lon": 0.0}, {"rental_uris": {"ios": "https://dc.lft.to/lastmile_qr_scan", "android": "https://dc.lft.to/lastmile_qr_scan"}, "type": "electric_bike", "name": "564c25e2ad09817df1097806598ec672", "is_reserved": 0, "lon": -76.95703433333334, "is_disabled": 0, "fusion_lat": 0.0, "lat": 38.85095033333333, "bike_id": "564c25e2ad09817df1097806598ec672", "fusion_lon": 0.0}, {"rental_uris": {"ios": "https://dc.lft.to/lastmile_qr_scan", "android": "https://dc.lft.to/lastmile_qr_scan"}, "type": "electric_scooter", "name": "19cf1adfb3f178f60a8ff5813a65da56", "is_reserved": 0, "lon": -76.948703, "is_disabled": 0, "fusion_lat": 0.0, "lat": 38.894899833333334, "bike_id": "19cf1adfb3f178f60a8ff5813a65da56", "fusion_lon": 0.0}, {"rental_uris": {"ios": "https://dc.lft.to/lastmile_qr_scan", "android": "https://dc.lft.to/lastmile_qr_scan"}, "type": "electric_scooter", "name": "c0c6874e9b0073cb443009ce06a17e40", "is_reserved": 0, "lon": -77.0502895, "is_disabled": 0, "fusion_lat": 0.0, "lat": 38.89675966666667, "bike_id": "c0c6874e9b0073cb443009ce06a17e40", "fusion_lon": 0.0}, {"rental_uris": {"ios": "https://dc.lft.to/lastmile_qr_scan", "android": "https://dc.lft.to/lastmile_qr_scan"}, "type": "electric_scooter", "name": "dfe9527a63bdae45b60bb6fa7fa071f3", "is_reserved": 0, "lon": -76.92642116666667, "is_disabled": 0, "fusion_lat": 0.0, "lat": 38.8837135, "bike_id": "dfe9527a63bdae45b60bb6fa7fa071f3", "fusion_lon": 0.0}, {"rental_uris": {"ios": "https://dc.lft.to/lastmile_qr_scan", "android": "https://dc.lft.to/lastmile_qr_scan"}, "type": "electric_scooter", "name": "4081fc1678ea6d694a7716ad965dc96b", "is_reserved": 0, "lon": -77.04775866666667, "is_disabled": 0, "fusion_lat": 0.0, "lat": 38.908644333333335, "bike_id": "4081fc1678ea6d694a7716ad965dc96b", "fusion_lon": 0.0}, {"rental_uris": {"ios": "https://dc.lft.to/lastmile_qr_scan", "android": "https://dc.lft.to/lastmile_qr_scan"}, "type": "electric_scooter", "name": "b7f959032d1c1da145a01991bb4c2766", "is_reserved": 0, "lon": -76.98536566666667, "is_disabled": 0, "fusion_lat": 0.0, "lat": 38.91290166666667, "bike_id": "b7f959032d1c1da145a01991bb4c2766", "fusion_lon": 0.0}, {"rental_uris": {"ios": "https://dc.lft.to/lastmile_qr_scan", "android": "https://dc.lft.to/lastmile_qr_scan"}, "type": "electric_scooter", "name": "6c3d525655b8a0a4d78b14c3d23be0aa", "is_reserved": 0, "lon": -77.006001, "is_disabled": 0, "fusion_lat": 0.0, "lat": 38.875670666666664, "bike_id": "6c3d525655b8a0a4d78b14c3d23be0aa", "fusion_lon": 0.0}, {"rental_uris": {"ios": "https://dc.lft.to/lastmile_qr_scan", "android": "https://dc.lft.to/lastmile_qr_scan"}, "type": "electric_scooter", "name": "40f12e045af1c734383541d9733d44f0", "is_reserved": 0, "lon": -77.0454925, "is_disabled": 0, "fusion_lat": 0.0, "lat": 38.913315, "bike_id": "40f12e045af1c734383541d9733d44f0", "fusion_lon": 0.0}, {"rental_uris": {"ios": "https://dc.lft.to/lastmile_qr_scan", "android": "https://dc.lft.to/lastmile_qr_scan"}, "type": "electric_scooter", "name": "ecced0ee0d6deebd4c1ea0168b3aea96", "is_reserved": 0, "lon": -77.02760266666667, "is_disabled": 0, "fusion_lat": 0.0, "lat": 38.95779233333333, "bike_id": "ecced0ee0d6deebd4c1ea0168b3aea96", "fusion_lon": 0.0}, {"rental_uris": {"ios": "https://dc.lft.to/lastmile_qr_scan", "android": "https://dc.lft.to/lastmile_qr_scan"}, "type": "electric_scooter", "name": "185dfa7a3a4699678d392c47513900e1", "is_reserved": 0, "lon": -77.03329433333333, "is_disabled": 0, "fusion_lat": 0.0, "lat": 38.88776566666667, "bike_id": "185dfa7a3a4699678d392c47513900e1", "fusion_lon": 0.0}, {"rental_uris": {"ios": "https://dc.lft.to/lastmile_qr_scan", "android": "https://dc.lft.to/lastmile_qr_scan"}, "type": "electric_scooter", "name": "c827e453a8dae4f07a1075d8cb728059", "is_reserved": 0, "lon": -77.02720766666667, "is_disabled": 0, "fusion_lat": 0.0, "lat": 38.91014766666667, "bike_id": "c827e453a8dae4f07a1075d8cb728059", "fusion_lon": 0.0}, {"rental_uris": {"ios": "https://dc.lft.to/lastmile_qr_scan", "android": "https://dc.lft.to/lastmile_qr_scan"}, "type": "electric_scooter", "name": "bbc6766715c2b3d5b61458628291d708", "is_reserved": 0, "lon": -76.97046733333333, "is_disabled": 0, "fusion_lat": 0.0, "lat": 38.87325416666667, "bike_id": "bbc6766715c2b3d5b61458628291d708", "fusion_lon": 0.0}, {"rental_uris": {"ios": "https://dc.lft.to/lastmile_qr_scan", "android": "https://dc.lft.to/lastmile_qr_scan"}, "type": "electric_scooter", "name": "5153de25efdba1fe5ae66c8e5477a24a", "is_reserved": 0, "lon": -77.022699, "is_disabled": 0, "fusion_lat": 0.0, "lat": 38.9241705, "bike_id": "5153de25efdba1fe5ae66c8e5477a24a", "fusion_lon": 0.0}, {"rental_uris": {"ios": "https://dc.lft.to/lastmile_qr_scan", "android": "https://dc.lft.to/lastmile_qr_scan"}, "type": "electric_scooter", "name": "9b2d758cb40369a2600534efb1d36059", "is_reserved": 0, "lon": -77.03233733333333, "is_disabled": 0, "fusion_lat": 0.0, "lat": 38.910534, "bike_id": "9b2d758cb40369a2600534efb1d36059", "fusion_lon": 0.0}, {"rental_uris": {"ios": "https://dc.lft.to/lastmile_qr_scan", "android": "https://dc.lft.to/lastmile_qr_scan"}, "type": "electric_scooter", "name": "44254dcd4de101c25b5fcd6569494e51", "is_reserved": 0, "lon": -77.02899916666667, "is_disabled": 0, "fusion_lat": 0.0, "lat": 38.940453833333336, "bike_id": "44254dcd4de101c25b5fcd6569494e51", "fusion_lon": 0.0}, {"rental_uris": {"ios": "https://dc.lft.to/lastmile_qr_scan", "android": "https://dc.lft.to/lastmile_qr_scan"}, "type": "electric_scooter", "name": "91dfa261e7a5625476da0e1230d837db", "is_reserved": 0, "lon": -77.03536066666666, "is_disabled": 0, "fusion_lat": 0.0, "lat": 38.923865166666666, "bike_id": "91dfa261e7a5625476da0e1230d837db", "fusion_lon": 0.0}, {"rental_uris": {"ios": "https://dc.lft.to/lastmile_qr_scan", "android": "https://dc.lft.to/lastmile_qr_scan"}, "type": "electric_scooter", "name": "85666971fafe2e16e8ba2c02845aeb73", "is_reserved": 0, "lon": -77.00877816666667, "is_disabled": 0, "fusion_lat": 0.0, "lat": 38.91556816666667, "bike_id": "85666971fafe2e16e8ba2c02845aeb73", "fusion_lon": 0.0}, {"rental_uris": {"ios": "https://dc.lft.to/lastmile_qr_scan", "android": "https://dc.lft.to/lastmile_qr_scan"}, "type": "electric_scooter", "name": "cb91b5646d6d38893f287031c6c160bb", "is_reserved": 0, "lon": -77.04867266666666, "is_disabled": 0, "fusion_lat": 0.0, "lat": 38.892245, "bike_id": "cb91b5646d6d38893f287031c6c160bb", "fusion_lon": 0.0}, {"rental_uris": {"ios": "https://dc.lft.to/lastmile_qr_scan", "android": "https://dc.lft.to/lastmile_qr_scan"}, "type": "electric_scooter", "name": "5873621a464da5afca81ad58e5d9509f", "is_reserved": 0, "lon": -77.03847066666667, "is_disabled": 0, "fusion_lat": 0.0, "lat": 38.908841333333335, "bike_id": "5873621a464da5afca81ad58e5d9509f", "fusion_lon": 0.0}, {"rental_uris": {"ios": "https://dc.lft.to/lastmile_qr_scan", "android": "https://dc.lft.to/lastmile_qr_scan"}, "type": "electric_scooter", "name": "dbfc0e3b8a67d81bbc9bf2e8114242e7", "is_reserved": 0, "lon": -77.03201716666666, "is_disabled": 0, "fusion_lat": 0.0, "lat": 38.91815016666666, "bike_id": "dbfc0e3b8a67d81bbc9bf2e8114242e7", "fusion_lon": 0.0}, {"rental_uris": {"ios": "https://dc.lft.to/lastmile_qr_scan", "android": "https://dc.lft.to/lastmile_qr_scan"}, "type": "electric_scooter", "name": "8808048d93f45c3603bc7675558d1a06", "is_reserved": 0, "lon": -77.01872716666666, "is_disabled": 0, "fusion_lat": 0.0, "lat": 38.930580666666664, "bike_id": "8808048d93f45c3603bc7675558d1a06", "fusion_lon": 0.0}, {"rental_uris": {"ios": "https://dc.lft.to/lastmile_qr_scan", "android": "https://dc.lft.to/lastmile_qr_scan"}, "type": "electric_bike", "name": "9306da812d3bdf1e7180f7017dc67918", "is_reserved": 0, "lon": -77.06698233333333, "is_disabled": 0, "fusion_lat": 0.0, "lat": 38.831696, "bike_id": "9306da812d3bdf1e7180f7017dc67918", "fusion_lon": 0.0}, {"rental_uris": {"ios": "https://dc.lft.to/lastmile_qr_scan", "android": "https://dc.lft.to/lastmile_qr_scan"}, "type": "electric_scooter", "name": "e2ffd6067feb1ee8a9ba355a1518bacc", "is_reserved": 0, "lon": -77.01752416666666, "is_disabled": 0, "fusion_lat": 0.0, "lat": 38.876902333333334, "bike_id": "e2ffd6067feb1ee8a9ba355a1518bacc", "fusion_lon": 0.0}, {"rental_uris": {"ios": "https://dc.lft.to/lastmile_qr_scan", "android": "https://dc.lft.to/lastmile_qr_scan"}, "type": "electric_scooter", "name": "8d5733dc5bbb16ae5f6600eed1adac7a", "is_reserved": 0, "lon": -77.05348233333333, "is_disabled": 0, "fusion_lat": 0.0, "lat": 38.902294499999996, "bike_id": "8d5733dc5bbb16ae5f6600eed1adac7a", "fusion_lon": 0.0}, {"rental_uris": {"ios": "https://dc.lft.to/lastmile_qr_scan", "android": "https://dc.lft.to/lastmile_qr_scan"}, "type": "electric_scooter", "name": "7fe3950b0e7103881fd7b358a604a4ed", "is_reserved": 0, "lon": -77.00802916666666, "is_disabled": 0, "fusion_lat": 0.0, "lat": 38.87847883333333, "bike_id": "7fe3950b0e7103881fd7b358a604a4ed", "fusion_lon": 0.0}, {"rental_uris": {"ios": "https://dc.lft.to/lastmile_qr_scan", "android": "https://dc.lft.to/lastmile_qr_scan"}, "type": "electric_scooter", "name": "4f448ade394a9bfb2f118de0cbb8c69a", "is_reserved": 0, "lon": -77.028, "is_disabled": 0, "fusion_lat": 0.0, "lat": 38.9561475, "bike_id": "4f448ade394a9bfb2f118de0cbb8c69a", "fusion_lon": 0.0}, {"rental_uris": {"ios": "https://dc.lft.to/lastmile_qr_scan", "android": "https://dc.lft.to/lastmile_qr_scan"}, "type": "electric_scooter", "name": "ba27e42ce941bcb7c16a9894a1ed0020", "is_reserved": 0, "lon": -77.03658116666666, "is_disabled": 0, "fusion_lat": 0.0, "lat": 38.92283316666666, "bike_id": "ba27e42ce941bcb7c16a9894a1ed0020", "fusion_lon": 0.0}, {"rental_uris": {"ios": "https://dc.lft.to/lastmile_qr_scan", "android": "https://dc.lft.to/lastmile_qr_scan"}, "type": "electric_scooter", "name": "e9af3581ee5736a9304f6eb15d8771b4", "is_reserved": 0, "lon": -77.025437, "is_disabled": 0, "fusion_lat": 0.0, "lat": 38.907199, "bike_id": "e9af3581ee5736a9304f6eb15d8771b4", "fusion_lon": 0.0}, {"rental_uris": {"ios": "https://dc.lft.to/lastmile_qr_scan", "android": "https://dc.lft.to/lastmile_qr_scan"}, "type": "electric_scooter", "name": "66f19b60e1701441e3e29d49bc4c094e", "is_reserved": 0, "lon": -77.01095283333333, "is_disabled": 0, "fusion_lat": 0.0, "lat": 38.9068195, "bike_id": "66f19b60e1701441e3e29d49bc4c094e", "fusion_lon": 0.0}, {"rental_uris": {"ios": "https://dc.lft.to/lastmile_qr_scan", "android": "https://dc.lft.to/lastmile_qr_scan"}, "type": "electric_scooter", "name": "5f79853891e1445baec09eb88c4a2509", "is_reserved": 0, "lon": -77.0446975, "is_disabled": 0, "fusion_lat": 0.0, "lat": 38.915339833333334, "bike_id": "5f79853891e1445baec09eb88c4a2509", "fusion_lon": 0.0}, {"rental_uris": {"ios": "https://dc.lft.to/lastmile_qr_scan", "android": "https://dc.lft.to/lastmile_qr_scan"}, "type": "electric_bike", "name": "6cab66058a15811b86cb08c2e2890d76", "is_reserved": 0, "lon": -76.9732355, "is_disabled": 0, "fusion_lat": 0.0, "lat": 38.85779466666666, "bike_id": "6cab66058a15811b86cb08c2e2890d76", "fusion_lon": 0.0}, {"rental_uris": {"ios": "https://dc.lft.to/lastmile_qr_scan", "android": "https://dc.lft.to/lastmile_qr_scan"}, "type": "electric_scooter", "name": "b39a0610ba3bb735ff3fdb0832c3dbeb", "is_reserved": 0, "lon": -77.01703533333334, "is_disabled": 0, "fusion_lat": 0.0, "lat": 38.9047115, "bike_id": "b39a0610ba3bb735ff3fdb0832c3dbeb", "fusion_lon": 0.0}, {"rental_uris": {"ios": "https://dc.lft.to/lastmile_qr_scan", "android": "https://dc.lft.to/lastmile_qr_scan"}, "type": "electric_scooter", "name": "a4727dea55c00fa3c709ae26ebbe570b", "is_reserved": 0, "lon": -77.05141583333334, "is_disabled": 0, "fusion_lat": 0.0, "lat": 38.90531683333333, "bike_id": "a4727dea55c00fa3c709ae26ebbe570b", "fusion_lon": 0.0}, {"rental_uris": {"ios": "https://dc.lft.to/lastmile_qr_scan", "android": "https://dc.lft.to/lastmile_qr_scan"}, "type": "electric_scooter", "name": "19f2ffe047ef3ef4e73be31ff144b4b7", "is_reserved": 0, "lon": -77.0531875, "is_disabled": 0, "fusion_lat": 0.0, "lat": 38.92341316666667, "bike_id": "19f2ffe047ef3ef4e73be31ff144b4b7", "fusion_lon": 0.0}, {"rental_uris": {"ios": "https://dc.lft.to/lastmile_qr_scan", "android": "https://dc.lft.to/lastmile_qr_scan"}, "type": "electric_scooter", "name": "adae6e529de3ec141b906a282514335a", "is_reserved": 0, "lon": -77.0244755, "is_disabled": 0, "fusion_lat": 0.0, "lat": 38.949788, "bike_id": "adae6e529de3ec141b906a282514335a", "fusion_lon": 0.0}, {"rental_uris": {"ios": "https://dc.lft.to/lastmile_qr_scan", "android": "https://dc.lft.to/lastmile_qr_scan"}, "type": "electric_scooter", "name": "7d72ad4e389704aea4e1d876ea68696e", "is_reserved": 0, "lon": -77.03520983333334, "is_disabled": 0, "fusion_lat": 0.0, "lat": 38.933995333333336, "bike_id": "7d72ad4e389704aea4e1d876ea68696e", "fusion_lon": 0.0}, {"rental_uris": {"ios": "https://dc.lft.to/lastmile_qr_scan", "android": "https://dc.lft.to/lastmile_qr_scan"}, "type": "electric_scooter", "name": "ce94563f6a6d354c9b70815435987e5d", "is_reserved": 0, "lon": -77.02900383333333, "is_disabled": 0, "fusion_lat": 0.0, "lat": 38.925749833333334, "bike_id": "ce94563f6a6d354c9b70815435987e5d", "fusion_lon": 0.0}, {"rental_uris": {"ios": "https://dc.lft.to/lastmile_qr_scan", "android": "https://dc.lft.to/lastmile_qr_scan"}, "type": "electric_scooter", "name": "70c025f7e1a63a532c3e1e783b9b360f", "is_reserved": 0, "lon": -77.03261933333333, "is_disabled": 0, "fusion_lat": 0.0, "lat": 38.92895, "bike_id": "70c025f7e1a63a532c3e1e783b9b360f", "fusion_lon": 0.0}, {"rental_uris": {"ios": "https://dc.lft.to/lastmile_qr_scan", "android": "https://dc.lft.to/lastmile_qr_scan"}, "type": "electric_scooter", "name": "1c96c7bb43bd7acce4af4262ea276901", "is_reserved": 0, "lon": -77.03271066666667, "is_disabled": 0, "fusion_lat": 0.0, "lat": 38.932448666666666, "bike_id": "1c96c7bb43bd7acce4af4262ea276901", "fusion_lon": 0.0}, {"rental_uris": {"ios": "https://dc.lft.to/lastmile_qr_scan", "android": "https://dc.lft.to/lastmile_qr_scan"}, "type": "electric_bike", "name": "160578185ff85321eb66d43063526c93", "is_reserved": 0, "lon": -76.95158083333334, "is_disabled": 0, "fusion_lat": 0.0, "lat": 39.0843885, "bike_id": "160578185ff85321eb66d43063526c93", "fusion_lon": 0.0}, {"rental_uris": {"ios": "https://dc.lft.to/lastmile_qr_scan", "android": "https://dc.lft.to/lastmile_qr_scan"}, "type": "electric_scooter", "name": "5b7b1722e23e9f4a6be7204acada6de3", "is_reserved": 0, "lon": -77.0203885, "is_disabled": 0, "fusion_lat": 0.0, "lat": 38.894305, "bike_id": "5b7b1722e23e9f4a6be7204acada6de3", "fusion_lon": 0.0}, {"rental_uris": {"ios": "https://dc.lft.to/lastmile_qr_scan", "android": "https://dc.lft.to/lastmile_qr_scan"}, "type": "electric_scooter", "name": "9fd84da810b34ad2669847a85923dade", "is_reserved": 0, "lon": -77.001551, "is_disabled": 0, "fusion_lat": 0.0, "lat": 38.82133733333333, "bike_id": "9fd84da810b34ad2669847a85923dade", "fusion_lon": 0.0}, {"rental_uris": {"ios": "https://dc.lft.to/lastmile_qr_scan", "android": "https://dc.lft.to/lastmile_qr_scan"}, "type": "electric_scooter", "name": "fd88357681ee5145ce54690fa322b8d4", "is_reserved": 0, "lon": -77.023943, "is_disabled": 0, "fusion_lat": 0.0, "lat": 38.90972266666667, "bike_id": "fd88357681ee5145ce54690fa322b8d4", "fusion_lon": 0.0}, {"rental_uris": {"ios": "https://dc.lft.to/lastmile_qr_scan", "android": "https://dc.lft.to/lastmile_qr_scan"}, "type": "electric_scooter", "name": "70e6404f0089f0fb88b3ab4fad6ff4f3", "is_reserved": 0, "lon": -77.07559466666666, "is_disabled": 0, "fusion_lat": 0.0, "lat": 38.9064535, "bike_id": "70e6404f0089f0fb88b3ab4fad6ff4f3", "fusion_lon": 0.0}, {"rental_uris": {"ios": "https://dc.lft.to/lastmile_qr_scan", "android": "https://dc.lft.to/lastmile_qr_scan"}, "type": "electric_scooter", "name": "4f254489aa6ca78a70be05857c344845", "is_reserved": 0, "lon": -77.07254316666666, "is_disabled": 0, "fusion_lat": 0.0, "lat": 38.934386, "bike_id": "4f254489aa6ca78a70be05857c344845", "fusion_lon": 0.0}, {"rental_uris": {"ios": "https://dc.lft.to/lastmile_qr_scan", "android": "https://dc.lft.to/lastmile_qr_scan"}, "type": "electric_scooter", "name": "b42dd9b24055b8548d31be15427c68f7", "is_reserved": 0, "lon": -77.01947033333333, "is_disabled": 0, "fusion_lat": 0.0, "lat": 38.95046283333333, "bike_id": "b42dd9b24055b8548d31be15427c68f7", "fusion_lon": 0.0}, {"rental_uris": {"ios": "https://dc.lft.to/lastmile_qr_scan", "android": "https://dc.lft.to/lastmile_qr_scan"}, "type": "electric_bike", "name": "af35494bfdbdb9416e1d9e2a82d059d3", "is_reserved": 0, "lon": -76.9754385, "is_disabled": 0, "fusion_lat": 0.0, "lat": 38.90429233333333, "bike_id": "af35494bfdbdb9416e1d9e2a82d059d3", "fusion_lon": 0.0}, {"rental_uris": {"ios": "https://dc.lft.to/lastmile_qr_scan", "android": "https://dc.lft.to/lastmile_qr_scan"}, "type": "electric_scooter", "name": "5d235bbf4211e03e80295fd677c00dfd", "is_reserved": 0, "lon": -77.01341966666666, "is_disabled": 0, "fusion_lat": 0.0, "lat": 38.919169333333336, "bike_id": "5d235bbf4211e03e80295fd677c00dfd", "fusion_lon": 0.0}, {"rental_uris": {"ios": "https://dc.lft.to/lastmile_qr_scan", "android": "https://dc.lft.to/lastmile_qr_scan"}, "type": "electric_bike", "name": "7873fd04d9e539c454df35853c41285d", "is_reserved": 0, "lon": -77.01851916666666, "is_disabled": 0, "fusion_lat": 0.0, "lat": 38.93110433333333, "bike_id": "7873fd04d9e539c454df35853c41285d", "fusion_lon": 0.0}, {"rental_uris": {"ios": "https://dc.lft.to/lastmile_qr_scan", "android": "https://dc.lft.to/lastmile_qr_scan"}, "type": "electric_scooter", "name": "12f313787ec8945fec9efaaaeafd01bd", "is_reserved": 0, "lon": -77.0469795, "is_disabled": 0, "fusion_lat": 0.0, "lat": 38.9205675, "bike_id": "12f313787ec8945fec9efaaaeafd01bd", "fusion_lon": 0.0}, {"rental_uris": {"ios": "https://dc.lft.to/lastmile_qr_scan", "android": "https://dc.lft.to/lastmile_qr_scan"}, "type": "electric_scooter", "name": "dde8e25f837e626271005d90c19e8dbf", "is_reserved": 0, "lon": -77.02229116666666, "is_disabled": 0, "fusion_lat": 0.0, "lat": 38.89195683333333, "bike_id": "dde8e25f837e626271005d90c19e8dbf", "fusion_lon": 0.0}, {"rental_uris": {"ios": "https://dc.lft.to/lastmile_qr_scan", "android": "https://dc.lft.to/lastmile_qr_scan"}, "type": "electric_scooter", "name": "b3a1d9e400dd31ffeb0dad2a14c9d630", "is_reserved": 0, "lon": -77.03483733333333, "is_disabled": 0, "fusion_lat": 0.0, "lat": 38.93538916666667, "bike_id": "b3a1d9e400dd31ffeb0dad2a14c9d630", "fusion_lon": 0.0}, {"rental_uris": {"ios": "https://dc.lft.to/lastmile_qr_scan", "android": "https://dc.lft.to/lastmile_qr_scan"}, "type": "electric_scooter", "name": "6bec5f84c9ccc2bea3e407e59c256de6", "is_reserved": 0, "lon": -77.01180716666667, "is_disabled": 0, "fusion_lat": 0.0, "lat": 38.951541666666664, "bike_id": "6bec5f84c9ccc2bea3e407e59c256de6", "fusion_lon": 0.0}, {"rental_uris": {"ios": "https://dc.lft.to/lastmile_qr_scan", "android": "https://dc.lft.to/lastmile_qr_scan"}, "type": "electric_scooter", "name": "88c08634933ee131e0d3aee2b63d0612", "is_reserved": 0, "lon": -76.98693416666667, "is_disabled": 0, "fusion_lat": 0.0, "lat": 38.9070235, "bike_id": "88c08634933ee131e0d3aee2b63d0612", "fusion_lon": 0.0}, {"rental_uris": {"ios": "https://dc.lft.to/lastmile_qr_scan", "android": "https://dc.lft.to/lastmile_qr_scan"}, "type": "electric_scooter", "name": "81612a24651af51379057a3181196270", "is_reserved": 0, "lon": -77.00823016666666, "is_disabled": 0, "fusion_lat": 0.0, "lat": 38.915669, "bike_id": "81612a24651af51379057a3181196270", "fusion_lon": 0.0}, {"rental_uris": {"ios": "https://dc.lft.to/lastmile_qr_scan", "android": "https://dc.lft.to/lastmile_qr_scan"}, "type": "electric_scooter", "name": "a526c94933cb51524edd372acdad6585", "is_reserved": 0, "lon": -77.040148, "is_disabled": 0, "fusion_lat": 0.0, "lat": 38.9216625, "bike_id": "a526c94933cb51524edd372acdad6585", "fusion_lon": 0.0}, {"rental_uris": {"ios": "https://dc.lft.to/lastmile_qr_scan", "android": "https://dc.lft.to/lastmile_qr_scan"}, "type": "electric_scooter", "name": "dd2c8c0929cac00e1744aec996aca97e", "is_reserved": 0, "lon": -77.021871, "is_disabled": 0, "fusion_lat": 0.0, "lat": 38.92916, "bike_id": "dd2c8c0929cac00e1744aec996aca97e", "fusion_lon": 0.0}, {"rental_uris": {"ios": "https://dc.lft.to/lastmile_qr_scan", "android": "https://dc.lft.to/lastmile_qr_scan"}, "type": "electric_bike", "name": "748889948e456cb8eee435bd374d22eb", "is_reserved": 0, "lon": -77.02284066666667, "is_disabled": 0, "fusion_lat": 0.0, "lat": 38.926991666666666, "bike_id": "748889948e456cb8eee435bd374d22eb", "fusion_lon": 0.0}, {"rental_uris": {"ios": "https://dc.lft.to/lastmile_qr_scan", "android": "https://dc.lft.to/lastmile_qr_scan"}, "type": "electric_scooter", "name": "850a0701633c1d0cb80b36b2c1a82353", "is_reserved": 0, "lon": -77.0307295, "is_disabled": 0, "fusion_lat": 0.0, "lat": 38.923791333333334, "bike_id": "850a0701633c1d0cb80b36b2c1a82353", "fusion_lon": 0.0}, {"rental_uris": {"ios": "https://dc.lft.to/lastmile_qr_scan", "android": "https://dc.lft.to/lastmile_qr_scan"}, "type": "electric_scooter", "name": "5e97793d278f0294473aeaa43ce4ebc6", "is_reserved": 0, "lon": -77.00221733333333, "is_disabled": 0, "fusion_lat": 0.0, "lat": 38.900506166666666, "bike_id": "5e97793d278f0294473aeaa43ce4ebc6", "fusion_lon": 0.0}, {"rental_uris": {"ios": "https://dc.lft.to/lastmile_qr_scan", "android": "https://dc.lft.to/lastmile_qr_scan"}, "type": "electric_scooter", "name": "0d1a1a1d9bf5c6348d6e0a09fd6a135a", "is_reserved": 0, "lon": -77.08782483333333, "is_disabled": 0, "fusion_lat": 0.0, "lat": 38.93558183333333, "bike_id": "0d1a1a1d9bf5c6348d6e0a09fd6a135a", "fusion_lon": 0.0}, {"rental_uris": {"ios": "https://dc.lft.to/lastmile_qr_scan", "android": "https://dc.lft.to/lastmile_qr_scan"}, "type": "electric_bike", "name": "aee487a731c05f358015020849cd1d02", "is_reserved": 0, "lon": -77.11283066666667, "is_disabled": 0, "fusion_lat": 0.0, "lat": 38.831042333333336, "bike_id": "aee487a731c05f358015020849cd1d02", "fusion_lon": 0.0}, {"rental_uris": {"ios": "https://dc.lft.to/lastmile_qr_scan", "android": "https://dc.lft.to/lastmile_qr_scan"}, "type": "electric_scooter", "name": "b10ab8e3bfee36b3dfb614cdf25cdd10", "is_reserved": 0, "lon": -77.06317966666667, "is_disabled": 0, "fusion_lat": 0.0, "lat": 38.9133805, "bike_id": "b10ab8e3bfee36b3dfb614cdf25cdd10", "fusion_lon": 0.0}, {"rental_uris": {"ios": "https://dc.lft.to/lastmile_qr_scan", "android": "https://dc.lft.to/lastmile_qr_scan"}, "type": "electric_scooter", "name": "4de48cbbaa80ccc307aa45500d2bf226", "is_reserved": 0, "lon": -77.0352535, "is_disabled": 0, "fusion_lat": 0.0, "lat": 38.92239033333333, "bike_id": "4de48cbbaa80ccc307aa45500d2bf226", "fusion_lon": 0.0}, {"rental_uris": {"ios": "https://dc.lft.to/lastmile_qr_scan", "android": "https://dc.lft.to/lastmile_qr_scan"}, "type": "electric_scooter", "name": "692e5a3a2083e7a51fba69732304b716", "is_reserved": 0, "lon": -77.03632883333333, "is_disabled": 0, "fusion_lat": 0.0, "lat": 38.903301, "bike_id": "692e5a3a2083e7a51fba69732304b716", "fusion_lon": 0.0}, {"rental_uris": {"ios": "https://dc.lft.to/lastmile_qr_scan", "android": "https://dc.lft.to/lastmile_qr_scan"}, "type": "electric_bike", "name": "38f4c0374d7d3cfd402778e07b5c33d2", "is_reserved": 0, "lon": -77.0897335, "is_disabled": 0, "fusion_lat": 0.0, "lat": 38.911675, "bike_id": "38f4c0374d7d3cfd402778e07b5c33d2", "fusion_lon": 0.0}, {"rental_uris": {"ios": "https://dc.lft.to/lastmile_qr_scan", "android": "https://dc.lft.to/lastmile_qr_scan"}, "type": "electric_scooter", "name": "013516fbf25e9ab673ad294d4c190f1c", "is_reserved": 0, "lon": -77.0108185, "is_disabled": 0, "fusion_lat": 0.0, "lat": 38.903317, "bike_id": "013516fbf25e9ab673ad294d4c190f1c", "fusion_lon": 0.0}, {"rental_uris": {"ios": "https://dc.lft.to/lastmile_qr_scan", "android": "https://dc.lft.to/lastmile_qr_scan"}, "type": "electric_scooter", "name": "1ef15764f219cf3498e7e44e3213c701", "is_reserved": 0, "lon": -77.0432055, "is_disabled": 0, "fusion_lat": 0.0, "lat": 38.9178895, "bike_id": "1ef15764f219cf3498e7e44e3213c701", "fusion_lon": 0.0}, {"rental_uris": {"ios": "https://dc.lft.to/lastmile_qr_scan", "android": "https://dc.lft.to/lastmile_qr_scan"}, "type": "electric_scooter", "name": "4130dcc4720b25a1c5abea97b45cfc17", "is_reserved": 0, "lon": -77.02433816666667, "is_disabled": 0, "fusion_lat": 0.0, "lat": 38.920477166666664, "bike_id": "4130dcc4720b25a1c5abea97b45cfc17", "fusion_lon": 0.0}, {"rental_uris": {"ios": "https://dc.lft.to/lastmile_qr_scan", "android": "https://dc.lft.to/lastmile_qr_scan"}, "type": "electric_scooter", "name": "cc3b687dccb34a1127ae302a5aaf2cfc", "is_reserved": 0, "lon": -77.01641866666667, "is_disabled": 0, "fusion_lat": 0.0, "lat": 38.90387166666667, "bike_id": "cc3b687dccb34a1127ae302a5aaf2cfc", "fusion_lon": 0.0}, {"rental_uris": {"ios": "https://dc.lft.to/lastmile_qr_scan", "android": "https://dc.lft.to/lastmile_qr_scan"}, "type": "electric_scooter", "name": "095cfe806e241b88356b9a4d4598511b", "is_reserved": 0, "lon": -77.03548116666667, "is_disabled": 0, "fusion_lat": 0.0, "lat": 38.9047325, "bike_id": "095cfe806e241b88356b9a4d4598511b", "fusion_lon": 0.0}, {"rental_uris": {"ios": "https://dc.lft.to/lastmile_qr_scan", "android": "https://dc.lft.to/lastmile_qr_scan"}, "type": "electric_scooter", "name": "cb50273d6890a9821383170962e275e7", "is_reserved": 0, "lon": -77.00725783333333, "is_disabled": 0, "fusion_lat": 0.0, "lat": 38.87835316666666, "bike_id": "cb50273d6890a9821383170962e275e7", "fusion_lon": 0.0}, {"rental_uris": {"ios": "https://dc.lft.to/lastmile_qr_scan", "android": "https://dc.lft.to/lastmile_qr_scan"}, "type": "electric_scooter", "name": "ae6c74ccf97fef795c40da0629e8506a", "is_reserved": 0, "lon": -76.9485105, "is_disabled": 0, "fusion_lat": 0.0, "lat": 38.88301533333333, "bike_id": "ae6c74ccf97fef795c40da0629e8506a", "fusion_lon": 0.0}, {"rental_uris": {"ios": "https://dc.lft.to/lastmile_qr_scan", "android": "https://dc.lft.to/lastmile_qr_scan"}, "type": "electric_scooter", "name": "2711e9f21947ad9155a0bbcefd440838", "is_reserved": 0, "lon": -77.02726266666667, "is_disabled": 0, "fusion_lat": 0.0, "lat": 38.92483466666667, "bike_id": "2711e9f21947ad9155a0bbcefd440838", "fusion_lon": 0.0}, {"rental_uris": {"ios": "https://dc.lft.to/lastmile_qr_scan", "android": "https://dc.lft.to/lastmile_qr_scan"}, "type": "electric_scooter", "name": "5b4bedda3adf436ae93a87fe529a5cb3", "is_reserved": 0, "lon": -77.03387883333333, "is_disabled": 0, "fusion_lat": 0.0, "lat": 38.93841883333333, "bike_id": "5b4bedda3adf436ae93a87fe529a5cb3", "fusion_lon": 0.0}, {"rental_uris": {"ios": "https://dc.lft.to/lastmile_qr_scan", "android": "https://dc.lft.to/lastmile_qr_scan"}, "type": "electric_scooter", "name": "f5675e22572de3438ebbf1c8a198ccae", "is_reserved": 0, "lon": -77.02068683333333, "is_disabled": 0, "fusion_lat": 0.0, "lat": 38.9241475, "bike_id": "f5675e22572de3438ebbf1c8a198ccae", "fusion_lon": 0.0}, {"rental_uris": {"ios": "https://dc.lft.to/lastmile_qr_scan", "android": "https://dc.lft.to/lastmile_qr_scan"}, "type": "electric_bike", "name": "ea9c36c69177fff2b7aaa0614258458d", "is_reserved": 0, "lon": -77.04356166666666, "is_disabled": 0, "fusion_lat": 0.0, "lat": 38.897217833333336, "bike_id": "ea9c36c69177fff2b7aaa0614258458d", "fusion_lon": 0.0}, {"rental_uris": {"ios": "https://dc.lft.to/lastmile_qr_scan", "android": "https://dc.lft.to/lastmile_qr_scan"}, "type": "electric_scooter", "name": "5f62046b251df2ed437eb2408ed5a6c7", "is_reserved": 0, "lon": -77.0245675, "is_disabled": 0, "fusion_lat": 0.0, "lat": 38.917933166666664, "bike_id": "5f62046b251df2ed437eb2408ed5a6c7", "fusion_lon": 0.0}, {"rental_uris": {"ios": "https://dc.lft.to/lastmile_qr_scan", "android": "https://dc.lft.to/lastmile_qr_scan"}, "type": "electric_scooter", "name": "d9a04dc1e5ca842fa3c24ffa3fe2fe3a", "is_reserved": 0, "lon": -76.98085766666667, "is_disabled": 0, "fusion_lat": 0.0, "lat": 38.90414333333333, "bike_id": "d9a04dc1e5ca842fa3c24ffa3fe2fe3a", "fusion_lon": 0.0}, {"rental_uris": {"ios": "https://dc.lft.to/lastmile_qr_scan", "android": "https://dc.lft.to/lastmile_qr_scan"}, "type": "electric_scooter", "name": "b8fa09961673427ca1902a8407d92de3", "is_reserved": 0, "lon": -77.01527966666667, "is_disabled": 0, "fusion_lat": 0.0, "lat": 38.88733716666667, "bike_id": "b8fa09961673427ca1902a8407d92de3", "fusion_lon": 0.0}, {"rental_uris": {"ios": "https://dc.lft.to/lastmile_qr_scan", "android": "https://dc.lft.to/lastmile_qr_scan"}, "type": "electric_scooter", "name": "637603717340a496ecc27f9ec00e1597", "is_reserved": 0, "lon": -77.05413116666666, "is_disabled": 0, "fusion_lat": 0.0, "lat": 38.928338833333335, "bike_id": "637603717340a496ecc27f9ec00e1597", "fusion_lon": 0.0}, {"rental_uris": {"ios": "https://dc.lft.to/lastmile_qr_scan", "android": "https://dc.lft.to/lastmile_qr_scan"}, "type": "electric_scooter", "name": "99bce74b40dd59c30b02c65e97aa61c7", "is_reserved": 0, "lon": -77.03474716666666, "is_disabled": 0, "fusion_lat": 0.0, "lat": 38.930356833333335, "bike_id": "99bce74b40dd59c30b02c65e97aa61c7", "fusion_lon": 0.0}, {"rental_uris": {"ios": "https://dc.lft.to/lastmile_qr_scan", "android": "https://dc.lft.to/lastmile_qr_scan"}, "type": "electric_scooter", "name": "3a70f288f8e699331ef5982778060311", "is_reserved": 0, "lon": -77.022757, "is_disabled": 0, "fusion_lat": 0.0, "lat": 38.926618, "bike_id": "3a70f288f8e699331ef5982778060311", "fusion_lon": 0.0}, {"rental_uris": {"ios": "https://dc.lft.to/lastmile_qr_scan", "android": "https://dc.lft.to/lastmile_qr_scan"}, "type": "electric_scooter", "name": "b95c26c6ffca869157d69de26deec10d", "is_reserved": 0, "lon": -77.04243316666667, "is_disabled": 0, "fusion_lat": 0.0, "lat": 38.9244175, "bike_id": "b95c26c6ffca869157d69de26deec10d", "fusion_lon": 0.0}, {"rental_uris": {"ios": "https://dc.lft.to/lastmile_qr_scan", "android": "https://dc.lft.to/lastmile_qr_scan"}, "type": "electric_scooter", "name": "1945119ae6fd6966ca61024f90ebf39c", "is_reserved": 0, "lon": -77.02196166666667, "is_disabled": 0, "fusion_lat": 0.0, "lat": 38.879088833333334, "bike_id": "1945119ae6fd6966ca61024f90ebf39c", "fusion_lon": 0.0}, {"rental_uris": {"ios": "https://dc.lft.to/lastmile_qr_scan", "android": "https://dc.lft.to/lastmile_qr_scan"},