{"data": {"bikes": [{"fusion_lat": 0.0, "name": "52b2fb0c0e4d956cf4ad7f2d9582a2ed", "is_disabled": 0, "rental_uris": {"android": "https://dc.lft.to/lastmile_qr_scan", "ios": "https://dc.lft.to/lastmile_qr_scan"}, "fusion_lon": 0.0, "lat": 38.949414, "bike_id": "52b2fb0c0e4d956cf4ad7f2d9582a2ed", "type": "electric_scooter", "is_reserved": 0, "lon": -77.0664595}, {"fusion_lat": 0.0, "name": "c167fe74ccb8da0a0145a4fef4c8967b", "is_disabled": 0, "rental_uris": {"android": "https://dc.lft.to/lastmile_qr_scan", "ios": "https://dc.lft.to/lastmile_qr_scan"}, "fusion_lon": 0.0, "lat": 38.91110166666667, "bike_id": "c167fe74ccb8da0a0145a4fef4c8967b", "type": "electric_scooter", "is_reserved": 0, "lon": -77.03835466666666}, {"fusion_lat": 0.0, "name": "468746944b06840ab0e81799880efcc6", "is_disabled": 0, "rental_uris": {"android": "https://dc.lft.to/lastmile_qr_scan", "ios": "https://dc.lft.to/lastmile_qr_scan"}, "fusion_lon": 0.0, "lat": 38.93284766666667, "bike_id": "468746944b06840ab0e81799880efcc6", "type": "electric_scooter", "is_reserved": 0, "lon": -77.04075516666667}, {"fusion_lat": 0.0, "name": "f0d90d8ac4a65eece5af80256299f178", "is_disabled": 0, "rental_uris": {"android": "https://dc.lft.to/lastmile_qr_scan", "ios": "https://dc.lft.to/lastmile_qr_scan"}, "fusion_lon": 0.0, "lat": 38.915541833333336, "bike_id": "f0d90d8ac4a65eece5af80256299f178", "type": "electric_scooter", "is_reserved": 0, "lon": -77.03475266666666}, {"fusion_lat": 0.0, "name": "bf3430059d6bea4b26e8939290a491be", "is_disabled": 0, "rental_uris": {"android": "https://dc.lft.to/lastmile_qr_scan", "ios": "https://dc.lft.to/lastmile_qr_scan"}, "fusion_lon": 0.0, "lat": 38.950543, "bike_id": "bf3430059d6bea4b26e8939290a491be", "type": "electric_scooter", "is_reserved": 0, "lon": -77.08023233333333}, {"fusion_lat": 0.0, "name": "4cdc864f49842f185dae12a7d8b9e9ce", "is_disabled": 0, "rental_uris": {"android": "https://dc.lft.to/lastmile_qr_scan", "ios": "https://dc.lft.to/lastmile_qr_scan"}, "fusion_lon": 0.0, "lat": 38.86622833333333, "bike_id": "4cdc864f49842f185dae12a7d8b9e9ce", "type": "electric_scooter", "is_reserved": 0, "lon": -76.98707533333334}, {"fusion_lat": 0.0, "name": "73473be7fd413dcc2c17405176719f00", "is_disabled": 0, "rental_uris": {"android": "https://dc.lft.to/lastmile_qr_scan", "ios": "https://dc.lft.to/lastmile_qr_scan"}, "fusion_lon": 0.0, "lat": 38.9031, "bike_id": "73473be7fd413dcc2c17405176719f00", "type": "electric_scooter", "is_reserved": 0, "lon": -77.0601885}, {"fusion_lat": 0.0, "name": "575ea29a1df4bcbf350940970e081701", "is_disabled": 0, "rental_uris": {"android": "https://dc.lft.to/lastmile_qr_scan", "ios": "https://dc.lft.to/lastmile_qr_scan"}, "fusion_lon": 0.0, "lat": 38.90974283333333, "bike_id": "575ea29a1df4bcbf350940970e081701", "type": "electric_scooter", "is_reserved": 0, "lon": -77.02692733333333}, {"fusion_lat": 0.0, "name": "0efb0a170df513fba49c5666f22afc8d", "is_disabled": 0, "rental_uris": {"android": "https://dc.lft.to/lastmile_qr_scan", "ios": "https://dc.lft.to/lastmile_qr_scan"}, "fusion_lon": 0.0, "lat": 38.87627766666667, "bike_id": "0efb0a170df513fba49c5666f22afc8d", "type": "electric_scooter", "is_reserved": 0, "lon": -77.00648283333334}, {"fusion_lat": 0.0, "name": "6a8c48052808a1a257aa35f89efcd79f", "is_disabled": 0, "rental_uris": {"android": "https://dc.lft.to/lastmile_qr_scan", "ios": "https://dc.lft.to/lastmile_qr_scan"}, "fusion_lon": 0.0, "lat": 38.89796, "bike_id": "6a8c48052808a1a257aa35f89efcd79f", "type": "electric_bike", "is_reserved": 0, "lon": -76.99956483333334}, {"fusion_lat": 0.0, "name": "eb9d824f7877654adaee04f3c7fcf71a", "is_disabled": 0, "rental_uris": {"android": "https://dc.lft.to/lastmile_qr_scan", "ios": "https://dc.lft.to/lastmile_qr_scan"}, "fusion_lon": 0.0, "lat": 38.9166505, "bike_id": "eb9d824f7877654adaee04f3c7fcf71a", "type": "electric_scooter", "is_reserved": 0, "lon": -77.029719}, {"fusion_lat": 0.0, "name": "5597c920002a7d2be4f9e76ed98f4be7", "is_disabled": 0, "rental_uris": {"android": "https://dc.lft.to/lastmile_qr_scan", "ios": "https://dc.lft.to/lastmile_qr_scan"}, "fusion_lon": 0.0, "lat": 38.8197775, "bike_id": "5597c920002a7d2be4f9e76ed98f4be7", "type": "electric_bike", "is_reserved": 0, "lon": -76.997983}, {"fusion_lat": 0.0, "name": "a76e1dd40adb3b7d195fc6940420a841", "is_disabled": 0, "rental_uris": {"android": "https://dc.lft.to/lastmile_qr_scan", "ios": "https://dc.lft.to/lastmile_qr_scan"}, "fusion_lon": 0.0, "lat": 38.90932216666667, "bike_id": "a76e1dd40adb3b7d195fc6940420a841", "type": "electric_scooter", "is_reserved": 0, "lon": -77.03864333333334}, {"fusion_lat": 0.0, "name": "3da578995552ac5e26872447f2ee942b", "is_disabled": 0, "rental_uris": {"android": "https://dc.lft.to/lastmile_qr_scan", "ios": "https://dc.lft.to/lastmile_qr_scan"}, "fusion_lon": 0.0, "lat": 38.9518485, "bike_id": "3da578995552ac5e26872447f2ee942b", "type": "electric_scooter", "is_reserved": 0, "lon": -77.02608316666667}, {"fusion_lat": 0.0, "name": "95ce8ca32117ed1401fe2cead9cf3214", "is_disabled": 0, "rental_uris": {"android": "https://dc.lft.to/lastmile_qr_scan", "ios": "https://dc.lft.to/lastmile_qr_scan"}, "fusion_lon": 0.0, "lat": 38.90868416666667, "bike_id": "95ce8ca32117ed1401fe2cead9cf3214", "type": "electric_scooter", "is_reserved": 0, "lon": -77.002615}, {"fusion_lat": 0.0, "name": "acdfc1ef5ce477b0d6b3bae6803febbd", "is_disabled": 0, "rental_uris": {"android": "https://dc.lft.to/lastmile_qr_scan", "ios": "https://dc.lft.to/lastmile_qr_scan"}, "fusion_lon": 0.0, "lat": 38.876672, "bike_id": "acdfc1ef5ce477b0d6b3bae6803febbd", "type": "electric_bike", "is_reserved": 0, "lon": -77.01443883333333}, {"fusion_lat": 0.0, "name": "e1ac061152ca61fbe61aa68f85bb4258", "is_disabled": 0, "rental_uris": {"android": "https://dc.lft.to/lastmile_qr_scan", "ios": "https://dc.lft.to/lastmile_qr_scan"}, "fusion_lon": 0.0, "lat": 38.90558016666667, "bike_id": "e1ac061152ca61fbe61aa68f85bb4258", "type": "electric_scooter", "is_reserved": 0, "lon": -77.00565616666667}, {"fusion_lat": 0.0, "name": "2b3e5a222b6b9b938f81cf4417155b0f", "is_disabled": 0, "rental_uris": {"android": "https://dc.lft.to/lastmile_qr_scan", "ios": "https://dc.lft.to/lastmile_qr_scan"}, "fusion_lon": 0.0, "lat": 38.931303, "bike_id": "2b3e5a222b6b9b938f81cf4417155b0f", "type": "electric_scooter", "is_reserved": 0, "lon": -77.02197433333333}, {"fusion_lat": 0.0, "name": "29cb29b2e0a40bf01b1aa85eccedc8e1", "is_disabled": 0, "rental_uris": {"android": "https://dc.lft.to/lastmile_qr_scan", "ios": "https://dc.lft.to/lastmile_qr_scan"}, "fusion_lon": 0.0, "lat": 38.913383, "bike_id": "29cb29b2e0a40bf01b1aa85eccedc8e1", "type": "electric_scooter", "is_reserved": 0, "lon": -77.04345716666667}, {"fusion_lat": 0.0, "name": "24f7f41d71a90956f986cec9baaebf68", "is_disabled": 0, "rental_uris": {"android": "https://dc.lft.to/lastmile_qr_scan", "ios": "https://dc.lft.to/lastmile_qr_scan"}, "fusion_lon": 0.0, "lat": 38.9255405, "bike_id": "24f7f41d71a90956f986cec9baaebf68", "type": "electric_scooter", "is_reserved": 0, "lon": -76.983001}, {"fusion_lat": 0.0, "name": "f8f4012256ab3e420502675fbbeb0900", "is_disabled": 0, "rental_uris": {"android": "https://dc.lft.to/lastmile_qr_scan", "ios": "https://dc.lft.to/lastmile_qr_scan"}, "fusion_lon": 0.0, "lat": 38.9020035, "bike_id": "f8f4012256ab3e420502675fbbeb0900", "type": "electric_scooter", "is_reserved": 0, "lon": -77.01608216666666}, {"fusion_lat": 0.0, "name": "1b5855a8f69eacb4a3bf199b07b3afa4", "is_disabled": 0, "rental_uris": {"android": "https://dc.lft.to/lastmile_qr_scan", "ios": "https://dc.lft.to/lastmile_qr_scan"}, "fusion_lon": 0.0, "lat": 38.91669566666667, "bike_id": "1b5855a8f69eacb4a3bf199b07b3afa4", "type": "electric_scooter", "is_reserved": 0, "lon": -77.0384995}, {"fusion_lat": 0.0, "name": "a3d361c5174e7cfda0241a29e7363886", "is_disabled": 0, "rental_uris": {"android": "https://dc.lft.to/lastmile_qr_scan", "ios": "https://dc.lft.to/lastmile_qr_scan"}, "fusion_lon": 0.0, "lat": 38.9268015, "bike_id": "a3d361c5174e7cfda0241a29e7363886", "type": "electric_scooter", "is_reserved": 0, "lon": -77.03139633333333}, {"fusion_lat": 0.0, "name": "247abe8d85bc110f1b3db56e1fae880a", "is_disabled": 0, "rental_uris": {"android": "https://dc.lft.to/lastmile_qr_scan", "ios": "https://dc.lft.to/lastmile_qr_scan"}, "fusion_lon": 0.0, "lat": 38.906969, "bike_id": "247abe8d85bc110f1b3db56e1fae880a", "type": "electric_scooter", "is_reserved": 0, "lon": -77.07471366666667}, {"fusion_lat": 0.0, "name": "8b5330c747a318bba53698960a4150a6", "is_disabled": 0, "rental_uris": {"android": "https://dc.lft.to/lastmile_qr_scan", "ios": "https://dc.lft.to/lastmile_qr_scan"}, "fusion_lon": 0.0, "lat": 38.893510666666664, "bike_id": "8b5330c747a318bba53698960a4150a6", "type": "electric_scooter", "is_reserved": 0, "lon": -77.02797183333334}, {"fusion_lat": 0.0, "name": "471fe6c0cc56f61a37f9e7705350be19", "is_disabled": 0, "rental_uris": {"android": "https://dc.lft.to/lastmile_qr_scan", "ios": "https://dc.lft.to/lastmile_qr_scan"}, "fusion_lon": 0.0, "lat": 38.9073305, "bike_id": "471fe6c0cc56f61a37f9e7705350be19", "type": "electric_scooter", "is_reserved": 0, "lon": -77.02977366666667}, {"fusion_lat": 0.0, "name": "25d428be5b00cef0a709ec0597dfbee8", "is_disabled": 0, "rental_uris": {"android": "https://dc.lft.to/lastmile_qr_scan", "ios": "https://dc.lft.to/lastmile_qr_scan"}, "fusion_lon": 0.0, "lat": 38.93108183333333, "bike_id": "25d428be5b00cef0a709ec0597dfbee8", "type": "electric_scooter", "is_reserved": 0, "lon": -77.023958}, {"fusion_lat": 0.0, "name": "27fd3e9430f8284664de1d43935a0e93", "is_disabled": 0, "rental_uris": {"android": "https://dc.lft.to/lastmile_qr_scan", "ios": "https://dc.lft.to/lastmile_qr_scan"}, "fusion_lon": 0.0, "lat": 38.941671166666666, "bike_id": "27fd3e9430f8284664de1d43935a0e93", "type": "electric_scooter", "is_reserved": 0, "lon": -77.0250895}, {"fusion_lat": 0.0, "name": "4539d830e011cac7875acae8eec18cfa", "is_disabled": 0, "rental_uris": {"android": "https://dc.lft.to/lastmile_qr_scan", "ios": "https://dc.lft.to/lastmile_qr_scan"}, "fusion_lon": 0.0, "lat": 38.888051833333336, "bike_id": "4539d830e011cac7875acae8eec18cfa", "type": "electric_scooter", "is_reserved": 0, "lon": -76.983537}, {"fusion_lat": 0.0, "name": "c45f76c0d2643971790b8c6fd9c6824c", "is_disabled": 0, "rental_uris": {"android": "https://dc.lft.to/lastmile_qr_scan", "ios": "https://dc.lft.to/lastmile_qr_scan"}, "fusion_lon": 0.0, "lat": 38.86639266666667, "bike_id": "c45f76c0d2643971790b8c6fd9c6824c", "type": "electric_scooter", "is_reserved": 0, "lon": -76.982996}, {"fusion_lat": 0.0, "name": "69abdb0cca83278c018be2702eba0921", "is_disabled": 0, "rental_uris": {"android": "https://dc.lft.to/lastmile_qr_scan", "ios": "https://dc.lft.to/lastmile_qr_scan"}, "fusion_lon": 0.0, "lat": 38.91975716666666, "bike_id": "69abdb0cca83278c018be2702eba0921", "type": "electric_scooter", "is_reserved": 0, "lon": -77.02312333333333}, {"fusion_lat": 0.0, "name": "f1a64869c2c295131baa95267951c3f0", "is_disabled": 0, "rental_uris": {"android": "https://dc.lft.to/lastmile_qr_scan", "ios": "https://dc.lft.to/lastmile_qr_scan"}, "fusion_lon": 0.0, "lat": 38.92046633333333, "bike_id": "f1a64869c2c295131baa95267951c3f0", "type": "electric_scooter", "is_reserved": 0, "lon": -77.03392016666666}, {"fusion_lat": 0.0, "name": "fad1ac75d9f645f8026e16b92cf85074", "is_disabled": 0, "rental_uris": {"android": "https://dc.lft.to/lastmile_qr_scan", "ios": "https://dc.lft.to/lastmile_qr_scan"}, "fusion_lon": 0.0, "lat": 38.92457116666667, "bike_id": "fad1ac75d9f645f8026e16b92cf85074", "type": "electric_scooter", "is_reserved": 0, "lon": -76.999066}, {"fusion_lat": 0.0, "name": "955b9462f1f6eb1572792776ebd64909", "is_disabled": 0, "rental_uris": {"android": "https://dc.lft.to/lastmile_qr_scan", "ios": "https://dc.lft.to/lastmile_qr_scan"}, "fusion_lon": 0.0, "lat": 38.912605666666664, "bike_id": "955b9462f1f6eb1572792776ebd64909", "type": "electric_scooter", "is_reserved": 0, "lon": -77.04300083333334}, {"fusion_lat": 0.0, "name": "353b606d6fb98c717fb4a53fbd19cfed", "is_disabled": 0, "rental_uris": {"android": "https://dc.lft.to/lastmile_qr_scan", "ios": "https://dc.lft.to/lastmile_qr_scan"}, "fusion_lon": 0.0, "lat": 38.91928216666667, "bike_id": "353b606d6fb98c717fb4a53fbd19cfed", "type": "electric_scooter", "is_reserved": 0, "lon": -77.0342615}, {"fusion_lat": 0.0, "name": "adacc2443d8be7a8ece2f0e0f6044447", "is_disabled": 0, "rental_uris": {"android": "https://dc.lft.to/lastmile_qr_scan", "ios": "https://dc.lft.to/lastmile_qr_scan"}, "fusion_lon": 0.0, "lat": 38.92178583333333, "bike_id": "adacc2443d8be7a8ece2f0e0f6044447", "type": "electric_scooter", "is_reserved": 0, "lon": -77.02528383333333}, {"fusion_lat": 0.0, "name": "fd9d11a69b3e992e34b4b978e98edb80", "is_disabled": 0, "rental_uris": {"android": "https://dc.lft.to/lastmile_qr_scan", "ios": "https://dc.lft.to/lastmile_qr_scan"}, "fusion_lon": 0.0, "lat": 38.931727, "bike_id": "fd9d11a69b3e992e34b4b978e98edb80", "type": "electric_scooter", "is_reserved": 0, "lon": -77.042978}, {"fusion_lat": 0.0, "name": "60e839e2ea659c104d84d4d299ef3b22", "is_disabled": 0, "rental_uris": {"android": "https://dc.lft.to/lastmile_qr_scan", "ios": "https://dc.lft.to/lastmile_qr_scan"}, "fusion_lon": 0.0, "lat": 38.92196533333333, "bike_id": "60e839e2ea659c104d84d4d299ef3b22", "type": "electric_scooter", "is_reserved": 0, "lon": -77.024276}, {"fusion_lat": 0.0, "name": "4cc4309b2099bf24dbdbefca52f8e3e5", "is_disabled": 0, "rental_uris": {"android": "https://dc.lft.to/lastmile_qr_scan", "ios": "https://dc.lft.to/lastmile_qr_scan"}, "fusion_lon": 0.0, "lat": 38.921517, "bike_id": "4cc4309b2099bf24dbdbefca52f8e3e5", "type": "electric_scooter", "is_reserved": 0, "lon": -77.03664066666667}, {"fusion_lat": 0.0, "name": "1e155261e11af1f00df14c0369060697", "is_disabled": 0, "rental_uris": {"android": "https://dc.lft.to/lastmile_qr_scan", "ios": "https://dc.lft.to/lastmile_qr_scan"}, "fusion_lon": 0.0, "lat": 38.87910766666667, "bike_id": "1e155261e11af1f00df14c0369060697", "type": "electric_scooter", "is_reserved": 0, "lon": -77.00886283333334}, {"fusion_lat": 0.0, "name": "3ab34c71d0697918426be052df42e8a5", "is_disabled": 0, "rental_uris": {"android": "https://dc.lft.to/lastmile_qr_scan", "ios": "https://dc.lft.to/lastmile_qr_scan"}, "fusion_lon": 0.0, "lat": 38.934393666666665, "bike_id": "3ab34c71d0697918426be052df42e8a5", "type": "electric_scooter", "is_reserved": 0, "lon": -77.03437266666667}, {"fusion_lat": 0.0, "name": "42523ee283dcca2f9cef2623a86425f8", "is_disabled": 0, "rental_uris": {"android": "https://dc.lft.to/lastmile_qr_scan", "ios": "https://dc.lft.to/lastmile_qr_scan"}, "fusion_lon": 0.0, "lat": 38.921802666666665, "bike_id": "42523ee283dcca2f9cef2623a86425f8", "type": "electric_scooter", "is_reserved": 0, "lon": -76.99765033333334}, {"fusion_lat": 0.0, "name": "b2de621b5182d3c6c3cdcf0544b41057", "is_disabled": 0, "rental_uris": {"android": "https://dc.lft.to/lastmile_qr_scan", "ios": "https://dc.lft.to/lastmile_qr_scan"}, "fusion_lon": 0.0, "lat": 38.89874666666667, "bike_id": "b2de621b5182d3c6c3cdcf0544b41057", "type": "electric_scooter", "is_reserved": 0, "lon": -76.93177633333333}, {"fusion_lat": 0.0, "name": "d8a01802807ff136fe5315d576342079", "is_disabled": 0, "rental_uris": {"android": "https://dc.lft.to/lastmile_qr_scan", "ios": "https://dc.lft.to/lastmile_qr_scan"}, "fusion_lon": 0.0, "lat": 38.9281915, "bike_id": "d8a01802807ff136fe5315d576342079", "type": "electric_scooter", "is_reserved": 0, "lon": -77.05436966666667}, {"fusion_lat": 0.0, "name": "ef84806676b740bd5bb69a2291be1aac", "is_disabled": 0, "rental_uris": {"android": "https://dc.lft.to/lastmile_qr_scan", "ios": "https://dc.lft.to/lastmile_qr_scan"}, "fusion_lon": 0.0, "lat": 38.8998595, "bike_id": "ef84806676b740bd5bb69a2291be1aac", "type": "electric_scooter", "is_reserved": 0, "lon": -77.01559483333334}, {"fusion_lat": 0.0, "name": "46cedc62d2ece60ba910f3197ab8cda3", "is_disabled": 0, "rental_uris": {"android": "https://dc.lft.to/lastmile_qr_scan", "ios": "https://dc.lft.to/lastmile_qr_scan"}, "fusion_lon": 0.0, "lat": 38.9136395, "bike_id": "46cedc62d2ece60ba910f3197ab8cda3", "type": "electric_scooter", "is_reserved": 0, "lon": -77.0199555}, {"fusion_lat": 0.0, "name": "06f98be9b3c1f39ed4efea8125296c44", "is_disabled": 0, "rental_uris": {"android": "https://dc.lft.to/lastmile_qr_scan", "ios": "https://dc.lft.to/lastmile_qr_scan"}, "fusion_lon": 0.0, "lat": 38.847258333333336, "bike_id": "06f98be9b3c1f39ed4efea8125296c44", "type": "electric_scooter", "is_reserved": 0, "lon": -76.98249633333333}, {"fusion_lat": 0.0, "name": "6088037c675fff9d31596fbeff54cf39", "is_disabled": 0, "rental_uris": {"android": "https://dc.lft.to/lastmile_qr_scan", "ios": "https://dc.lft.to/lastmile_qr_scan"}, "fusion_lon": 0.0, "lat": 38.919623333333334, "bike_id": "6088037c675fff9d31596fbeff54cf39", "type": "electric_scooter", "is_reserved": 0, "lon": -77.070868}, {"fusion_lat": 0.0, "name": "6f55606ecceee52438b3ab8e61afa44a", "is_disabled": 0, "rental_uris": {"android": "https://dc.lft.to/lastmile_qr_scan", "ios": "https://dc.lft.to/lastmile_qr_scan"}, "fusion_lon": 0.0, "lat": 38.9047645, "bike_id": "6f55606ecceee52438b3ab8e61afa44a", "type": "electric_scooter", "is_reserved": 0, "lon": -77.043508}, {"fusion_lat": 0.0, "name": "92e7f88005cdffc484c271e762806192", "is_disabled": 0, "rental_uris": {"android": "https://dc.lft.to/lastmile_qr_scan", "ios": "https://dc.lft.to/lastmile_qr_scan"}, "fusion_lon": 0.0, "lat": 38.92876616666667, "bike_id": "92e7f88005cdffc484c271e762806192", "type": "electric_scooter", "is_reserved": 0, "lon": -77.03742066666666}, {"fusion_lat": 0.0, "name": "5d7ab77932d29b7833e9dfbf080f499f", "is_disabled": 0, "rental_uris": {"android": "https://dc.lft.to/lastmile_qr_scan", "ios": "https://dc.lft.to/lastmile_qr_scan"}, "fusion_lon": 0.0, "lat": 38.800171666666664, "bike_id": "5d7ab77932d29b7833e9dfbf080f499f", "type": "electric_bike", "is_reserved": 0, "lon": -77.05478333333333}, {"fusion_lat": 0.0, "name": "1b9492d71acb9aea74ce7cca3b2b36ca", "is_disabled": 0, "rental_uris": {"android": "https://dc.lft.to/lastmile_qr_scan", "ios": "https://dc.lft.to/lastmile_qr_scan"}, "fusion_lon": 0.0, "lat": 38.903960833333336, "bike_id": "1b9492d71acb9aea74ce7cca3b2b36ca", "type": "electric_scooter", "is_reserved": 0, "lon": -77.038428}, {"fusion_lat": 0.0, "name": "2da9c3b0f8cc94c7d65cca3e1ae7f205", "is_disabled": 0, "rental_uris": {"android": "https://dc.lft.to/lastmile_qr_scan", "ios": "https://dc.lft.to/lastmile_qr_scan"}, "fusion_lon": 0.0, "lat": 38.906418333333335, "bike_id": "2da9c3b0f8cc94c7d65cca3e1ae7f205", "type": "electric_scooter", "is_reserved": 0, "lon": -77.03436383333333}, {"fusion_lat": 0.0, "name": "b650b4df4388ad0b367135e10f363892", "is_disabled": 0, "rental_uris": {"android": "https://dc.lft.to/lastmile_qr_scan", "ios": "https://dc.lft.to/lastmile_qr_scan"}, "fusion_lon": 0.0, "lat": 38.8733205, "bike_id": "b650b4df4388ad0b367135e10f363892", "type": "electric_bike", "is_reserved": 0, "lon": -77.08212616666667}, {"fusion_lat": 0.0, "name": "f2587cf83d0a5a1bffacfa19c414fc23", "is_disabled": 0, "rental_uris": {"android": "https://dc.lft.to/lastmile_qr_scan", "ios": "https://dc.lft.to/lastmile_qr_scan"}, "fusion_lon": 0.0, "lat": 38.93207483333333, "bike_id": "f2587cf83d0a5a1bffacfa19c414fc23", "type": "electric_scooter", "is_reserved": 0, "lon": -77.0374125}, {"fusion_lat": 0.0, "name": "8a740adf6447dc98f68c82e5bed7435b", "is_disabled": 0, "rental_uris": {"android": "https://dc.lft.to/lastmile_qr_scan", "ios": "https://dc.lft.to/lastmile_qr_scan"}, "fusion_lon": 0.0, "lat": 38.901524333333334, "bike_id": "8a740adf6447dc98f68c82e5bed7435b", "type": "electric_scooter", "is_reserved": 0, "lon": -76.930655}, {"fusion_lat": 0.0, "name": "7e48634b2ebb65d884c07dc5d96f592f", "is_disabled": 0, "rental_uris": {"android": "https://dc.lft.to/lastmile_qr_scan", "ios": "https://dc.lft.to/lastmile_qr_scan"}, "fusion_lon": 0.0, "lat": 38.9057535, "bike_id": "7e48634b2ebb65d884c07dc5d96f592f", "type": "electric_scooter", "is_reserved": 0, "lon": -77.04421433333333}, {"fusion_lat": 0.0, "name": "572aa061bea29f22219aa8b5a3ea6bec", "is_disabled": 0, "rental_uris": {"android": "https://dc.lft.to/lastmile_qr_scan", "ios": "https://dc.lft.to/lastmile_qr_scan"}, "fusion_lon": 0.0, "lat": 38.88768816666666, "bike_id": "572aa061bea29f22219aa8b5a3ea6bec", "type": "electric_scooter", "is_reserved": 0, "lon": -76.97741666666667}, {"fusion_lat": 0.0, "name": "3f16283f2041f12812c5bf88a09716ea", "is_disabled": 0, "rental_uris": {"android": "https://dc.lft.to/lastmile_qr_scan", "ios": "https://dc.lft.to/lastmile_qr_scan"}, "fusion_lon": 0.0, "lat": 38.898294666666665, "bike_id": "3f16283f2041f12812c5bf88a09716ea", "type": "electric_scooter", "is_reserved": 0, "lon": -77.00738416666667}, {"fusion_lat": 0.0, "name": "6dcbf791c7960f8a94cefa81eec03860", "is_disabled": 0, "rental_uris": {"android": "https://dc.lft.to/lastmile_qr_scan", "ios": "https://dc.lft.to/lastmile_qr_scan"}, "fusion_lon": 0.0, "lat": 38.98460216666667, "bike_id": "6dcbf791c7960f8a94cefa81eec03860", "type": "electric_bike", "is_reserved": 0, "lon": -76.970527}, {"fusion_lat": 0.0, "name": "4ed0539b64aff0cbadf126030a6274d8", "is_disabled": 0, "rental_uris": {"android": "https://dc.lft.to/lastmile_qr_scan", "ios": "https://dc.lft.to/lastmile_qr_scan"}, "fusion_lon": 0.0, "lat": 38.906827666666665, "bike_id": "4ed0539b64aff0cbadf126030a6274d8", "type": "electric_bike", "is_reserved": 0, "lon": -76.944919}, {"fusion_lat": 0.0, "name": "47547b96d71362c0ccfad24c435088ff", "is_disabled": 0, "rental_uris": {"android": "https://dc.lft.to/lastmile_qr_scan", "ios": "https://dc.lft.to/lastmile_qr_scan"}, "fusion_lon": 0.0, "lat": 38.878469833333334, "bike_id": "47547b96d71362c0ccfad24c435088ff", "type": "electric_bike", "is_reserved": 0, "lon": -77.0301945}, {"fusion_lat": 0.0, "name": "9fdcebf11fc89dfdacbfab88687276c0", "is_disabled": 0, "rental_uris": {"android": "https://dc.lft.to/lastmile_qr_scan", "ios": "https://dc.lft.to/lastmile_qr_scan"}, "fusion_lon": 0.0, "lat": 38.922564666666666, "bike_id": "9fdcebf11fc89dfdacbfab88687276c0", "type": "electric_bike", "is_reserved": 0, "lon": -77.0221285}, {"fusion_lat": 0.0, "name": "ce2352cb44147ee24c48c7d88953bfda", "is_disabled": 0, "rental_uris": {"android": "https://dc.lft.to/lastmile_qr_scan", "ios": "https://dc.lft.to/lastmile_qr_scan"}, "fusion_lon": 0.0, "lat": 38.90728566666667, "bike_id": "ce2352cb44147ee24c48c7d88953bfda", "type": "electric_scooter", "is_reserved": 0, "lon": -77.0111335}, {"fusion_lat": 0.0, "name": "bacc59fd4b1b33f85de2ecce313e0ced", "is_disabled": 0, "rental_uris": {"android": "https://dc.lft.to/lastmile_qr_scan", "ios": "https://dc.lft.to/lastmile_qr_scan"}, "fusion_lon": 0.0, "lat": 38.90027466666667, "bike_id": "bacc59fd4b1b33f85de2ecce313e0ced", "type": "electric_scooter", "is_reserved": 0, "lon": -76.99859316666667}, {"fusion_lat": 0.0, "name": "998a805c479b670fae800ab4d95683d8", "is_disabled": 0, "rental_uris": {"android": "https://dc.lft.to/lastmile_qr_scan", "ios": "https://dc.lft.to/lastmile_qr_scan"}, "fusion_lon": 0.0, "lat": 38.988258, "bike_id": "998a805c479b670fae800ab4d95683d8", "type": "electric_bike", "is_reserved": 0, "lon": -76.99647616666667}, {"fusion_lat": 0.0, "name": "7fa669f1cadb62b911553cd020ad1dd6", "is_disabled": 0, "rental_uris": {"android": "https://dc.lft.to/lastmile_qr_scan", "ios": "https://dc.lft.to/lastmile_qr_scan"}, "fusion_lon": 0.0, "lat": 38.9277355, "bike_id": "7fa669f1cadb62b911553cd020ad1dd6", "type": "electric_scooter", "is_reserved": 0, "lon": -77.026977}, {"fusion_lat": 0.0, "name": "a0efed66791206ee61d7a47216540a1f", "is_disabled": 0, "rental_uris": {"android": "https://dc.lft.to/lastmile_qr_scan", "ios": "https://dc.lft.to/lastmile_qr_scan"}, "fusion_lon": 0.0, "lat": 38.9177595, "bike_id": "a0efed66791206ee61d7a47216540a1f", "type": "electric_scooter", "is_reserved": 0, "lon": -77.02304466666666}, {"fusion_lat": 0.0, "name": "fd088df3e0d1b51f2868b1a6d3b18a0c", "is_disabled": 0, "rental_uris": {"android": "https://dc.lft.to/lastmile_qr_scan", "ios": "https://dc.lft.to/lastmile_qr_scan"}, "fusion_lon": 0.0, "lat": 38.93721766666667, "bike_id": "fd088df3e0d1b51f2868b1a6d3b18a0c", "type": "electric_scooter", "is_reserved": 0, "lon": -77.02431116666666}, {"fusion_lat": 0.0, "name": "aebc130ea30c55fd5ed1645220a2b644", "is_disabled": 0, "rental_uris": {"android": "https://dc.lft.to/lastmile_qr_scan", "ios": "https://dc.lft.to/lastmile_qr_scan"}, "fusion_lon": 0.0, "lat": 38.90123366666667, "bike_id": "aebc130ea30c55fd5ed1645220a2b644", "type": "electric_scooter", "is_reserved": 0, "lon": -77.049823}, {"fusion_lat": 0.0, "name": "457825d42149e63bacf2cad215c831e4", "is_disabled": 0, "rental_uris": {"android": "https://dc.lft.to/lastmile_qr_scan", "ios": "https://dc.lft.to/lastmile_qr_scan"}, "fusion_lon": 0.0, "lat": 38.942285, "bike_id": "457825d42149e63bacf2cad215c831e4", "type": "electric_scooter", "is_reserved": 0, "lon": -77.013819}, {"fusion_lat": 0.0, "name": "26f0fc325638da1c280e64676db3b03d", "is_disabled": 0, "rental_uris": {"android": "https://dc.lft.to/lastmile_qr_scan", "ios": "https://dc.lft.to/lastmile_qr_scan"}, "fusion_lon": 0.0, "lat": 38.898296333333334, "bike_id": "26f0fc325638da1c280e64676db3b03d", "type": "electric_scooter", "is_reserved": 0, "lon": -77.0467285}, {"fusion_lat": 0.0, "name": "fe9069263344d5f44a918791c0b19707", "is_disabled": 0, "rental_uris": {"android": "https://dc.lft.to/lastmile_qr_scan", "ios": "https://dc.lft.to/lastmile_qr_scan"}, "fusion_lon": 0.0, "lat": 38.936494333333336, "bike_id": "fe9069263344d5f44a918791c0b19707", "type": "electric_scooter", "is_reserved": 0, "lon": -77.03050483333334}, {"fusion_lat": 0.0, "name": "350906f2de1163e476684b8aae8420ea", "is_disabled": 0, "rental_uris": {"android": "https://dc.lft.to/lastmile_qr_scan", "ios": "https://dc.lft.to/lastmile_qr_scan"}, "fusion_lon": 0.0, "lat": 38.913249, "bike_id": "350906f2de1163e476684b8aae8420ea", "type": "electric_scooter", "is_reserved": 0, "lon": -77.03176316666666}, {"fusion_lat": 0.0, "name": "530496192c8d008f93a6165cc5195cef", "is_disabled": 0, "rental_uris": {"android": "https://dc.lft.to/lastmile_qr_scan", "ios": "https://dc.lft.to/lastmile_qr_scan"}, "fusion_lon": 0.0, "lat": 38.8852195, "bike_id": "530496192c8d008f93a6165cc5195cef", "type": "electric_scooter", "is_reserved": 0, "lon": -77.01516716666667}, {"fusion_lat": 0.0, "name": "5aa2d6abc2fce0c48b22399b241c6c3b", "is_disabled": 0, "rental_uris": {"android": "https://dc.lft.to/lastmile_qr_scan", "ios": "https://dc.lft.to/lastmile_qr_scan"}, "fusion_lon": 0.0, "lat": 38.92337833333333, "bike_id": "5aa2d6abc2fce0c48b22399b241c6c3b", "type": "electric_scooter", "is_reserved": 0, "lon": -77.0351495}, {"fusion_lat": 0.0, "name": "b301c44b5205979e2052b2e2ce760af3", "is_disabled": 0, "rental_uris": {"android": "https://dc.lft.to/lastmile_qr_scan", "ios": "https://dc.lft.to/lastmile_qr_scan"}, "fusion_lon": 0.0, "lat": 38.90227616666667, "bike_id": "b301c44b5205979e2052b2e2ce760af3", "type": "electric_scooter", "is_reserved": 0, "lon": -77.05942233333333}, {"fusion_lat": 0.0, "name": "4664e54a891cafbc65ae58f071538950", "is_disabled": 0, "rental_uris": {"android": "https://dc.lft.to/lastmile_qr_scan", "ios": "https://dc.lft.to/lastmile_qr_scan"}, "fusion_lon": 0.0, "lat": 38.918017, "bike_id": "4664e54a891cafbc65ae58f071538950", "type": "electric_scooter", "is_reserved": 0, "lon": -77.04438233333333}, {"fusion_lat": 0.0, "name": "5e88e9fed29d4636c29e20335a2b2a03", "is_disabled": 0, "rental_uris": {"android": "https://dc.lft.to/lastmile_qr_scan", "ios": "https://dc.lft.to/lastmile_qr_scan"}, "fusion_lon": 0.0, "lat": 38.91729083333333, "bike_id": "5e88e9fed29d4636c29e20335a2b2a03", "type": "electric_scooter", "is_reserved": 0, "lon": -77.0249965}, {"fusion_lat": 0.0, "name": "f73cb39813ad63c644579c925ebf2fed", "is_disabled": 0, "rental_uris": {"android": "https://dc.lft.to/lastmile_qr_scan", "ios": "https://dc.lft.to/lastmile_qr_scan"}, "fusion_lon": 0.0, "lat": 38.920796333333335, "bike_id": "f73cb39813ad63c644579c925ebf2fed", "type": "electric_bike", "is_reserved": 0, "lon": -76.9894385}, {"fusion_lat": 0.0, "name": "8594c94f3b9122a2b131ffc9b1660ce9", "is_disabled": 0, "rental_uris": {"android": "https://dc.lft.to/lastmile_qr_scan", "ios": "https://dc.lft.to/lastmile_qr_scan"}, "fusion_lon": 0.0, "lat": 38.895124833333334, "bike_id": "8594c94f3b9122a2b131ffc9b1660ce9", "type": "electric_scooter", "is_reserved": 0, "lon": -77.02181016666667}, {"fusion_lat": 0.0, "name": "d7e49491c33a084028c4b90ab6fbc680", "is_disabled": 0, "rental_uris": {"android": "https://dc.lft.to/lastmile_qr_scan", "ios": "https://dc.lft.to/lastmile_qr_scan"}, "fusion_lon": 0.0, "lat": 38.903766166666664, "bike_id": "d7e49491c33a084028c4b90ab6fbc680", "type": "electric_scooter", "is_reserved": 0, "lon": -77.05149566666667}, {"fusion_lat": 0.0, "name": "7d897f2191d711b8c08d04002440beb0", "is_disabled": 0, "rental_uris": {"android": "https://dc.lft.to/lastmile_qr_scan", "ios": "https://dc.lft.to/lastmile_qr_scan"}, "fusion_lon": 0.0, "lat": 38.887298, "bike_id": "7d897f2191d711b8c08d04002440beb0", "type": "electric_scooter", "is_reserved": 0, "lon": -77.03167883333333}, {"fusion_lat": 0.0, "name": "fd262c2d72452308c2fdb253d6b836e3", "is_disabled": 0, "rental_uris": {"android": "https://dc.lft.to/lastmile_qr_scan", "ios": "https://dc.lft.to/lastmile_qr_scan"}, "fusion_lon": 0.0, "lat": 38.925375, "bike_id": "fd262c2d72452308c2fdb253d6b836e3", "type": "electric_bike", "is_reserved": 0, "lon": -77.001109}, {"fusion_lat": 0.0, "name": "7ceefd5cf981a3bd7f8ec9e5384c1ae6", "is_disabled": 0, "rental_uris": {"android": "https://dc.lft.to/lastmile_qr_scan", "ios": "https://dc.lft.to/lastmile_qr_scan"}, "fusion_lon": 0.0, "lat": 38.91777883333334, "bike_id": "7ceefd5cf981a3bd7f8ec9e5384c1ae6", "type": "electric_scooter", "is_reserved": 0, "lon": -77.0122645}, {"fusion_lat": 0.0, "name": "ef20b33d094c0d1d4c614d7c0a818246", "is_disabled": 0, "rental_uris": {"android": "https://dc.lft.to/lastmile_qr_scan", "ios": "https://dc.lft.to/lastmile_qr_scan"}, "fusion_lon": 0.0, "lat": 38.922180833333336, "bike_id": "ef20b33d094c0d1d4c614d7c0a818246", "type": "electric_bike", "is_reserved": 0, "lon": -77.2013545}, {"fusion_lat": 0.0, "name": "68923312c498098f001ed121adee07b2", "is_disabled": 0, "rental_uris": {"android": "https://dc.lft.to/lastmile_qr_scan", "ios": "https://dc.lft.to/lastmile_qr_scan"}, "fusion_lon": 0.0, "lat": 38.923328166666664, "bike_id": "68923312c498098f001ed121adee07b2", "type": "electric_scooter", "is_reserved": 0, "lon": -77.03619383333333}, {"fusion_lat": 0.0, "name": "cb14fdc02a78e267728a0decded65c61", "is_disabled": 0, "rental_uris": {"android": "https://dc.lft.to/lastmile_qr_scan", "ios": "https://dc.lft.to/lastmile_qr_scan"}, "fusion_lon": 0.0, "lat": 38.92826016666667, "bike_id": "cb14fdc02a78e267728a0decded65c61", "type": "electric_scooter", "is_reserved": 0, "lon": -77.0544025}, {"fusion_lat": 0.0, "name": "bd53823db1f9e193de3156e6ef10de60", "is_disabled": 0, "rental_uris": {"android": "https://dc.lft.to/lastmile_qr_scan", "ios": "https://dc.lft.to/lastmile_qr_scan"}, "fusion_lon": 0.0, "lat": 38.920737, "bike_id": "bd53823db1f9e193de3156e6ef10de60", "type": "electric_scooter", "is_reserved": 0, "lon": -77.01422666666667}, {"fusion_lat": 0.0, "name": "f2d067a77a5a2ada244fd3708791602b", "is_disabled": 0, "rental_uris": {"android": "https://dc.lft.to/lastmile_qr_scan", "ios": "https://dc.lft.to/lastmile_qr_scan"}, "fusion_lon": 0.0, "lat": 38.9420035, "bike_id": "f2d067a77a5a2ada244fd3708791602b", "type": "electric_scooter", "is_reserved": 0, "lon": -77.02593816666666}, {"fusion_lat": 0.0, "name": "eb0ceadd367f6078fb1d51c631d2f63c", "is_disabled": 0, "rental_uris": {"android": "https://dc.lft.to/lastmile_qr_scan", "ios": "https://dc.lft.to/lastmile_qr_scan"}, "fusion_lon": 0.0, "lat": 38.96403183333334, "bike_id": "eb0ceadd367f6078fb1d51c631d2f63c", "type": "electric_scooter", "is_reserved": 0, "lon": -77.07530483333333}, {"fusion_lat": 0.0, "name": "6723ca4f69eb04aa1a04a2211d0942e9", "is_disabled": 0, "rental_uris": {"android": "https://dc.lft.to/lastmile_qr_scan", "ios": "https://dc.lft.to/lastmile_qr_scan"}, "fusion_lon": 0.0, "lat": 38.93848783333333, "bike_id": "6723ca4f69eb04aa1a04a2211d0942e9", "type": "electric_scooter", "is_reserved": 0, "lon": -77.03354383333334}, {"fusion_lat": 0.0, "name": "6dd71f3478f3e2ec709626f0fd7035c8", "is_disabled": 0, "rental_uris": {"android": "https://dc.lft.to/lastmile_qr_scan", "ios": "https://dc.lft.to/lastmile_qr_scan"}, "fusion_lon": 0.0, "lat": 38.894041333333334, "bike_id": "6dd71f3478f3e2ec709626f0fd7035c8", "type": "electric_scooter", "is_reserved": 0, "lon": -76.99482316666666}, {"fusion_lat": 0.0, "name": "7555a43d8e9fa27655a0c393c1dfd62c", "is_disabled": 0, "rental_uris": {"android": "https://dc.lft.to/lastmile_qr_scan", "ios": "https://dc.lft.to/lastmile_qr_scan"}, "fusion_lon": 0.0, "lat": 38.92016183333333, "bike_id": "7555a43d8e9fa27655a0c393c1dfd62c", "type": "electric_scooter", "is_reserved": 0, "lon": -77.03143566666667}, {"fusion_lat": 0.0, "name": "8321b79d4e29d3ad8a1632eac8bf335b", "is_disabled": 0, "rental_uris": {"android": "https://dc.lft.to/lastmile_qr_scan", "ios": "https://dc.lft.to/lastmile_qr_scan"}, "fusion_lon": 0.0, "lat": 38.922445833333335, "bike_id": "8321b79d4e29d3ad8a1632eac8bf335b", "type": "electric_scooter", "is_reserved": 0, "lon": -77.074712}, {"fusion_lat": 0.0, "name": "31a82d2c1150054e69ec787508a78047", "is_disabled": 0, "rental_uris": {"android": "https://dc.lft.to/lastmile_qr_scan", "ios": "https://dc.lft.to/lastmile_qr_scan"}, "fusion_lon": 0.0, "lat": 38.935086166666665, "bike_id": "31a82d2c1150054e69ec787508a78047", "type": "electric_scooter", "is_reserved": 0, "lon": -77.03262916666667}, {"fusion_lat": 0.0, "name": "98ee523ee1ff49f3d1fd6dc23a83ccb7", "is_disabled": 0, "rental_uris": {"android": "https://dc.lft.to/lastmile_qr_scan", "ios": "https://dc.lft.to/lastmile_qr_scan"}, "fusion_lon": 0.0, "lat": 38.92054133333333, "bike_id": "98ee523ee1ff49f3d1fd6dc23a83ccb7", "type": "electric_scooter", "is_reserved": 0, "lon": -77.0425555}, {"fusion_lat": 0.0, "name": "f80917fffc008f989dd09c3923358617", "is_disabled": 0, "rental_uris": {"android": "https://dc.lft.to/lastmile_qr_scan", "ios": "https://dc.lft.to/lastmile_qr_scan"}, "fusion_lon": 0.0, "lat": 38.900369, "bike_id": "f80917fffc008f989dd09c3923358617", "type": "electric_scooter", "is_reserved": 0, "lon": -77.00203966666666}, {"fusion_lat": 0.0, "name": "b374ef5c3a232de58679e91771013421", "is_disabled": 0, "rental_uris": {"android": "https://dc.lft.to/lastmile_qr_scan", "ios": "https://dc.lft.to/lastmile_qr_scan"}, "fusion_lon": 0.0, "lat": 38.88331133333333, "bike_id": "b374ef5c3a232de58679e91771013421", "type": "electric_scooter", "is_reserved": 0, "lon": -77.01767366666667}, {"fusion_lat": 0.0, "name": "19d56c0902c268525c154da080b08ac4", "is_disabled": 0, "rental_uris": {"android": "https://dc.lft.to/lastmile_qr_scan", "ios": "https://dc.lft.to/lastmile_qr_scan"}, "fusion_lon": 0.0, "lat": 38.81331383333333, "bike_id": "19d56c0902c268525c154da080b08ac4", "type": "electric_bike", "is_reserved": 0, "lon": -77.0509395}, {"fusion_lat": 0.0, "name": "eaaaf372d016c0b23f932b81e096283a", "is_disabled": 0, "rental_uris": {"android": "https://dc.lft.to/lastmile_qr_scan", "ios": "https://dc.lft.to/lastmile_qr_scan"}, "fusion_lon": 0.0, "lat": 38.931924, "bike_id": "eaaaf372d016c0b23f932b81e096283a", "type": "electric_bike", "is_reserved": 0, "lon": -77.2292485}, {"fusion_lat": 0.0, "name": "8e3227f7fba092d7a00e68764907fc19", "is_disabled": 0, "rental_uris": {"android": "https://dc.lft.to/lastmile_qr_scan", "ios": "https://dc.lft.to/lastmile_qr_scan"}, "fusion_lon": 0.0, "lat": 38.914292, "bike_id": "8e3227f7fba092d7a00e68764907fc19", "type": "electric_scooter", "is_reserved": 0, "lon": -77.03461933333334}, {"fusion_lat": 0.0, "name": "282f43ab9c114dfb9a91375c5485b1f1", "is_disabled": 0, "rental_uris": {"android": "https://dc.lft.to/lastmile_qr_scan", "ios": "https://dc.lft.to/lastmile_qr_scan"}, "fusion_lon": 0.0, "lat": 38.9247405, "bike_id": "282f43ab9c114dfb9a91375c5485b1f1", "type": "electric_scooter", "is_reserved": 0, "lon": -77.02624983333334}, {"fusion_lat": 0.0, "name": "0fe0750fd5b9cf3e2c8308084c661220", "is_disabled": 0, "rental_uris": {"android": "https://dc.lft.to/lastmile_qr_scan", "ios": "https://dc.lft.to/lastmile_qr_scan"}, "fusion_lon": 0.0, "lat": 38.89613466666667, "bike_id": "0fe0750fd5b9cf3e2c8308084c661220", "type": "electric_scooter", "is_reserved": 0, "lon": -77.0322575}, {"fusion_lat": 0.0, "name": "4bb45ffa7479c9bd1e8918132cff2868", "is_disabled": 0, "rental_uris": {"android": "https://dc.lft.to/lastmile_qr_scan", "ios": "https://dc.lft.to/lastmile_qr_scan"}, "fusion_lon": 0.0, "lat": 38.897242166666665, "bike_id": "4bb45ffa7479c9bd1e8918132cff2868", "type": "electric_scooter", "is_reserved": 0, "lon": -77.00441966666666}, {"fusion_lat": 0.0, "name": "6a33ed7ec068e0c6f18c52d583bde63f", "is_disabled": 0, "rental_uris": {"android": "https://dc.lft.to/lastmile_qr_scan", "ios": "https://dc.lft.to/lastmile_qr_scan"}, "fusion_lon": 0.0, "lat": 38.853512, "bike_id": "6a33ed7ec068e0c6f18c52d583bde63f", "type": "electric_bike", "is_reserved": 0, "lon": -77.13466933333333}, {"fusion_lat": 0.0, "name": "1c1f5ee8400f5c4fe6c48e9d58484ada", "is_disabled": 0, "rental_uris": {"android": "https://dc.lft.to/lastmile_qr_scan", "ios": "https://dc.lft.to/lastmile_qr_scan"}, "fusion_lon": 0.0, "lat": 38.864247666666664, "bike_id": "1c1f5ee8400f5c4fe6c48e9d58484ada", "type": "electric_scooter", "is_reserved": 0, "lon": -76.97420366666667}, {"fusion_lat": 0.0, "name": "3235cebceada825206a5aa1fd26db770", "is_disabled": 0, "rental_uris": {"android": "https://dc.lft.to/lastmile_qr_scan", "ios": "https://dc.lft.to/lastmile_qr_scan"}, "fusion_lon": 0.0, "lat": 38.897914666666665, "bike_id": "3235cebceada825206a5aa1fd26db770", "type": "electric_scooter", "is_reserved": 0, "lon": -76.93122216666667}, {"fusion_lat": 0.0, "name": "2f7444d9d1f5254b19b7b873dab13272", "is_disabled": 0, "rental_uris": {"android": "https://dc.lft.to/lastmile_qr_scan", "ios": "https://dc.lft.to/lastmile_qr_scan"}, "fusion_lon": 0.0, "lat": 38.918101166666666, "bike_id": "2f7444d9d1f5254b19b7b873dab13272", "type": "electric_scooter", "is_reserved": 0, "lon": -77.02529783333334}, {"fusion_lat": 0.0, "name": "226bd9760bbe536935f42cb61f872857", "is_disabled": 0, "rental_uris": {"android": "https://dc.lft.to/lastmile_qr_scan", "ios": "https://dc.lft.to/lastmile_qr_scan"}, "fusion_lon": 0.0, "lat": 38.932164666666665, "bike_id": "226bd9760bbe536935f42cb61f872857", "type": "electric_scooter", "is_reserved": 0, "lon": -77.033403}, {"fusion_lat": 0.0, "name": "ce5e957ae83b032125b2b7c9a2f30c8f", "is_disabled": 0, "rental_uris": {"android": "https://dc.lft.to/lastmile_qr_scan", "ios": "https://dc.lft.to/lastmile_qr_scan"}, "fusion_lon": 0.0, "lat": 38.862436333333335, "bike_id": "ce5e957ae83b032125b2b7c9a2f30c8f", "type": "electric_scooter", "is_reserved": 0, "lon": -76.9949405}, {"fusion_lat": 0.0, "name": "948de28dcacd782732d5464f6b9f15a7", "is_disabled": 0, "rental_uris": {"android": "https://dc.lft.to/lastmile_qr_scan", "ios": "https://dc.lft.to/lastmile_qr_scan"}, "fusion_lon": 0.0, "lat": 38.90029083333334, "bike_id": "948de28dcacd782732d5464f6b9f15a7", "type": "electric_scooter", "is_reserved": 0, "lon": -76.99860416666667}, {"fusion_lat": 0.0, "name": "d4a184224c3929976d3a7e9ff863debf", "is_disabled": 0, "rental_uris": {"android": "https://dc.lft.to/lastmile_qr_scan", "ios": "https://dc.lft.to/lastmile_qr_scan"}, "fusion_lon": 0.0, "lat": 38.91663333333333, "bike_id": "d4a184224c3929976d3a7e9ff863debf", "type": "electric_scooter", "is_reserved": 0, "lon": -77.03850583333333}, {"fusion_lat": 0.0, "name": "34cbc2019e308835be2fa97f24b281b6", "is_disabled": 0, "rental_uris": {"android": "https://dc.lft.to/lastmile_qr_scan", "ios": "https://dc.lft.to/lastmile_qr_scan"}, "fusion_lon": 0.0, "lat": 38.886629166666665, "bike_id": "34cbc2019e308835be2fa97f24b281b6", "type": "electric_scooter", "is_reserved": 0, "lon": -77.00107083333333}, {"fusion_lat": 0.0, "name": "981edc7dea3d7782cfd00bdc53db4955", "is_disabled": 0, "rental_uris": {"android": "https://dc.lft.to/lastmile_qr_scan", "ios": "https://dc.lft.to/lastmile_qr_scan"}, "fusion_lon": 0.0, "lat": 38.90976783333333, "bike_id": "981edc7dea3d7782cfd00bdc53db4955", "type": "electric_scooter", "is_reserved": 0, "lon": -77.0337795}, {"fusion_lat": 0.0, "name": "bdc9575062bec690201c9a3d07dc6207", "is_disabled": 0, "rental_uris": {"android": "https://dc.lft.to/lastmile_qr_scan", "ios": "https://dc.lft.to/lastmile_qr_scan"}, "fusion_lon": 0.0, "lat": 38.91460583333333, "bike_id": "bdc9575062bec690201c9a3d07dc6207", "type": "electric_scooter", "is_reserved": 0, "lon": -77.00213133333334}, {"fusion_lat": 0.0, "name": "dfa9225c729e83b36fb89f5203e8a38a", "is_disabled": 0, "rental_uris": {"android": "https://dc.lft.to/lastmile_qr_scan", "ios": "https://dc.lft.to/lastmile_qr_scan"}, "fusion_lon": 0.0, "lat": 38.93485316666667, "bike_id": "dfa9225c729e83b36fb89f5203e8a38a", "type": "electric_scooter", "is_reserved": 0, "lon": -77.0453485}, {"fusion_lat": 0.0, "name": "a759a891a46b439f11fb77eab8fde41d", "is_disabled": 0, "rental_uris": {"android": "https://dc.lft.to/lastmile_qr_scan", "ios": "https://dc.lft.to/lastmile_qr_scan"}, "fusion_lon": 0.0, "lat": 38.871248333333334, "bike_id": "a759a891a46b439f11fb77eab8fde41d", "type": "electric_scooter", "is_reserved": 0, "lon": -77.00745133333334}, {"fusion_lat": 0.0, "name": "48f93d4801bedbcb856a1343f8b9c6b0", "is_disabled": 0, "rental_uris": {"android": "https://dc.lft.to/lastmile_qr_scan", "ios": "https://dc.lft.to/lastmile_qr_scan"}, "fusion_lon": 0.0, "lat": 38.923461, "bike_id": "48f93d4801bedbcb856a1343f8b9c6b0", "type": "electric_scooter", "is_reserved": 0, "lon": -77.02014783333334}, {"fusion_lat": 0.0, "name": "1b012950c3b7d38c69ee64a694316552", "is_disabled": 0, "rental_uris": {"android": "https://dc.lft.to/lastmile_qr_scan", "ios": "https://dc.lft.to/lastmile_qr_scan"}, "fusion_lon": 0.0, "lat": 38.953812, "bike_id": "1b012950c3b7d38c69ee64a694316552", "type": "electric_bike", "is_reserved": 0, "lon": -76.9796045}, {"fusion_lat": 0.0, "name": "e154dddad1379216cf644adb8dfc6243", "is_disabled": 0, "rental_uris": {"android": "https://dc.lft.to/lastmile_qr_scan", "ios": "https://dc.lft.to/lastmile_qr_scan"}, "fusion_lon": 0.0, "lat": 38.89870916666667, "bike_id": "e154dddad1379216cf644adb8dfc6243", "type": "electric_scooter", "is_reserved": 0, "lon": -76.93185133333333}, {"fusion_lat": 0.0, "name": "2a99721a8b4dcb379b899866cd4ec66f", "is_disabled": 0, "rental_uris": {"android": "https://dc.lft.to/lastmile_qr_scan", "ios": "https://dc.lft.to/lastmile_qr_scan"}, "fusion_lon": 0.0, "lat": 38.9056085, "bike_id": "2a99721a8b4dcb379b899866cd4ec66f", "type": "electric_scooter", "is_reserved": 0, "lon": -77.005651}, {"fusion_lat": 0.0, "name": "f2cadc5457af2ce1981fcfba80d31e33", "is_disabled": 0, "rental_uris": {"android": "https://dc.lft.to/lastmile_qr_scan", "ios": "https://dc.lft.to/lastmile_qr_scan"}, "fusion_lon": 0.0, "lat": 38.92137983333333, "bike_id": "f2cadc5457af2ce1981fcfba80d31e33", "type": "electric_scooter", "is_reserved": 0, "lon": -77.04692433333334}, {"fusion_lat": 0.0, "name": "1d09d8c39a9f69b25d2af957b8d63b8a", "is_disabled": 0, "rental_uris": {"android": "https://dc.lft.to/lastmile_qr_scan", "ios": "https://dc.lft.to/lastmile_qr_scan"}, "fusion_lon": 0.0, "lat": 38.902736166666664, "bike_id": "1d09d8c39a9f69b25d2af957b8d63b8a", "type": "electric_scooter", "is_reserved": 0, "lon": -76.97673533333334}, {"fusion_lat": 0.0, "name": "55595c2a6bf3caea84373d9f3fdfc8fc", "is_disabled": 0, "rental_uris": {"android": "https://dc.lft.to/lastmile_qr_scan", "ios": "https://dc.lft.to/lastmile_qr_scan"}, "fusion_lon": 0.0, "lat": 38.924521, "bike_id": "55595c2a6bf3caea84373d9f3fdfc8fc", "type": "electric_scooter", "is_reserved": 0, "lon": -77.0240715}, {"fusion_lat": 0.0, "name": "23278e277e818c8e61dc3f27372dd5d7", "is_disabled": 0, "rental_uris": {"android": "https://dc.lft.to/lastmile_qr_scan", "ios": "https://dc.lft.to/lastmile_qr_scan"}, "fusion_lon": 0.0, "lat": 38.900272333333334, "bike_id": "23278e277e818c8e61dc3f27372dd5d7", "type": "electric_scooter", "is_reserved": 0, "lon": -76.99598916666666}, {"fusion_lat": 0.0, "name": "d1937f5658409fda94402205f5733297", "is_disabled": 0, "rental_uris": {"android": "https://dc.lft.to/lastmile_qr_scan", "ios": "https://dc.lft.to/lastmile_qr_scan"}, "fusion_lon": 0.0, "lat": 38.92132766666667, "bike_id": "d1937f5658409fda94402205f5733297", "type": "electric_scooter", "is_reserved": 0, "lon": -77.01806333333333}, {"fusion_lat": 0.0, "name": "937a42d5ea5289bc8e1ca6635acf4a8f", "is_disabled": 0, "rental_uris": {"android": "https://dc.lft.to/lastmile_qr_scan", "ios": "https://dc.lft.to/lastmile_qr_scan"}, "fusion_lon": 0.0, "lat": 38.871792666666664, "bike_id": "937a42d5ea5289bc8e1ca6635acf4a8f", "type": "electric_scooter", "is_reserved": 0, "lon": -77.0061615}, {"fusion_lat": 0.0, "name": "6de1983c6fb80d7416b08f939bfe94be", "is_disabled": 0, "rental_uris": {"android": "https://dc.lft.to/lastmile_qr_scan", "ios": "https://dc.lft.to/lastmile_qr_scan"}, "fusion_lon": 0.0, "lat": 38.915265, "bike_id": "6de1983c6fb80d7416b08f939bfe94be", "type": "electric_scooter", "is_reserved": 0, "lon": -77.07269116666667}, {"fusion_lat": 0.0, "name": "a433cf703ad5c3d446100c653da1303a", "is_disabled": 0, "rental_uris": {"android": "https://dc.lft.to/lastmile_qr_scan", "ios": "https://dc.lft.to/lastmile_qr_scan"}, "fusion_lon": 0.0, "lat": 38.907907, "bike_id": "a433cf703ad5c3d446100c653da1303a", "type": "electric_scooter", "is_reserved": 0, "lon": -77.00963416666667}, {"fusion_lat": 0.0, "name": "595fbab3fbd6bcafedaa2b87c1e6576f", "is_disabled": 0, "rental_uris": {"android": "https://dc.lft.to/lastmile_qr_scan", "ios": "https://dc.lft.to/lastmile_qr_scan"}, "fusion_lon": 0.0, "lat": 38.90042066666667, "bike_id": "595fbab3fbd6bcafedaa2b87c1e6576f", "type": "electric_scooter", "is_reserved": 0, "lon": -77.00194466666666}, {"fusion_lat": 0.0, "name": "d2dea78994841bddda7d0f0ff8a631e7", "is_disabled": 0, "rental_uris": {"android": "https://dc.lft.to/lastmile_qr_scan", "ios": "https://dc.lft.to/lastmile_qr_scan"}, "fusion_lon": 0.0, "lat": 38.8067055, "bike_id": "d2dea78994841bddda7d0f0ff8a631e7", "type": "electric_bike", "is_reserved": 0, "lon": -77.069119}, {"fusion_lat": 0.0, "name": "8a1998e2dace30605f71dac79d6fb992", "is_disabled": 0, "rental_uris": {"android": "https://dc.lft.to/lastmile_qr_scan", "ios": "https://dc.lft.to/lastmile_qr_scan"}, "fusion_lon": 0.0, "lat": 38.9205335, "bike_id": "8a1998e2dace30605f71dac79d6fb992", "type": "electric_scooter", "is_reserved": 0, "lon": -76.99883033333333}, {"fusion_lat": 0.0, "name": "8c670eaabda8fbf358e5448fe91adcd8", "is_disabled": 0, "rental_uris": {"android": "https://dc.lft.to/lastmile_qr_scan", "ios": "https://dc.lft.to/lastmile_qr_scan"}, "fusion_lon": 0.0, "lat": 38.917154, "bike_id": "8c670eaabda8fbf358e5448fe91adcd8", "type": "electric_scooter", "is_reserved": 0, "lon": -77.03857733333334}, {"fusion_lat": 0.0, "name": "fc67f7307abf7aa496c44e6a9b4f3d5a", "is_disabled": 0, "rental_uris": {"android": "https://dc.lft.to/lastmile_qr_scan", "ios": "https://dc.lft.to/lastmile_qr_scan"}, "fusion_lon": 0.0, "lat": 38.8845155, "bike_id": "fc67f7307abf7aa496c44e6a9b4f3d5a", "type": "electric_scooter", "is_reserved": 0, "lon": -76.9938945}, {"fusion_lat": 0.0, "name": "5f9229df0c6afbe23d44259656431799", "is_disabled": 0, "rental_uris": {"android": "https://dc.lft.to/lastmile_qr_scan", "ios": "https://dc.lft.to/lastmile_qr_scan"}, "fusion_lon": 0.0, "lat": 38.887508833333335, "bike_id": "5f9229df0c6afbe23d44259656431799", "type": "electric_scooter", "is_reserved": 0, "lon": -76.99838633333333}, {"fusion_lat": 0.0, "name": "1b61c7ea70b4cbd9e53158beaf76a03e", "is_disabled": 0, "rental_uris": {"android": "https://dc.lft.to/lastmile_qr_scan", "ios": "https://dc.lft.to/lastmile_qr_scan"}, "fusion_lon": 0.0, "lat": 38.905694833333335, "bike_id": "1b61c7ea70b4cbd9e53158beaf76a03e", "type": "electric_scooter", "is_reserved": 0, "lon": -77.02417383333334}, {"fusion_lat": 0.0, "name": "9e01def63c7d72b46c7ab62aa31e6ab7", "is_disabled": 0, "rental_uris": {"android": "https://dc.lft.to/lastmile_qr_scan", "ios": "https://dc.lft.to/lastmile_qr_scan"}, "fusion_lon": 0.0, "lat": 38.925037833333334, "bike_id": "9e01def63c7d72b46c7ab62aa31e6ab7", "type": "electric_bike", "is_reserved": 0, "lon": -77.05754716666667}, {"fusion_lat": 0.0, "name": "1d46806753cbf75e957c8032ee399758", "is_disabled": 0, "rental_uris": {"android": "https://dc.lft.to/lastmile_qr_scan", "ios": "https://dc.lft.to/lastmile_qr_scan"}, "fusion_lon": 0.0, "lat": 38.905677, "bike_id": "1d46806753cbf75e957c8032ee399758", "type": "electric_scooter", "is_reserved": 0, "lon": -77.04635316666666}, {"fusion_lat": 0.0, "name": "0b003bc1d184b78a0793e6a373bada85", "is_disabled": 0, "rental_uris": {"android": "https://dc.lft.to/lastmile_qr_scan", "ios": "https://dc.lft.to/lastmile_qr_scan"}, "fusion_lon": 0.0, "lat": 38.91846983333333, "bike_id": "0b003bc1d184b78a0793e6a373bada85", "type": "electric_scooter", "is_reserved": 0, "lon": -77.04485366666667}, {"fusion_lat": 0.0, "name": "af07ed9a8cea59fe8935b951d4d32aff", "is_disabled": 0, "rental_uris": {"android": "https://dc.lft.to/lastmile_qr_scan", "ios": "https://dc.lft.to/lastmile_qr_scan"}, "fusion_lon": 0.0, "lat": 38.95792933333333, "bike_id": "af07ed9a8cea59fe8935b951d4d32aff", "type": "electric_bike", "is_reserved": 0, "lon": -76.99966783333333}, {"fusion_lat": 0.0, "name": "1c824373ddb1db73e574c5efc3da9d72", "is_disabled": 0, "rental_uris": {"android": "https://dc.lft.to/lastmile_qr_scan", "ios": "https://dc.lft.to/lastmile_qr_scan"}, "fusion_lon": 0.0, "lat": 38.917641833333334, "bike_id": "1c824373ddb1db73e574c5efc3da9d72", "type": "electric_scooter", "is_reserved": 0, "lon": -77.02305266666667}, {"fusion_lat": 0.0, "name": "c07d007b2fc91033e42e4cfd69efc681", "is_disabled": 0, "rental_uris": {"android": "https://dc.lft.to/lastmile_qr_scan", "ios": "https://dc.lft.to/lastmile_qr_scan"}, "fusion_lon": 0.0, "lat": 38.8577925, "bike_id": "c07d007b2fc91033e42e4cfd69efc681", "type": "electric_scooter", "is_reserved": 0, "lon": -76.97297716666667}, {"fusion_lat": 0.0, "name": "4d9e0499e878192c6decf361bc0ff8f7", "is_disabled": 0, "rental_uris": {"android": "https://dc.lft.to/lastmile_qr_scan", "ios": "https://dc.lft.to/lastmile_qr_scan"}, "fusion_lon": 0.0, "lat": 38.96952916666667, "bike_id": "4d9e0499e878192c6decf361bc0ff8f7", "type": "electric_bike", "is_reserved": 0, "lon": -77.03347466666666}, {"fusion_lat": 0.0, "name": "983c01847bc7d47a6da74389457f5be0", "is_disabled": 0, "rental_uris": {"android": "https://dc.lft.to/lastmile_qr_scan", "ios": "https://dc.lft.to/lastmile_qr_scan"}, "fusion_lon": 0.0, "lat": 38.903854833333334, "bike_id": "983c01847bc7d47a6da74389457f5be0", "type": "electric_scooter", "is_reserved": 0, "lon": -77.0613365}, {"fusion_lat": 0.0, "name": "a0e04cf3de73f1a68454746085905c1e", "is_disabled": 0, "rental_uris": {"android": "https://dc.lft.to/lastmile_qr_scan", "ios": "https://dc.lft.to/lastmile_qr_scan"}, "fusion_lon": 0.0, "lat": 38.920600666666665, "bike_id": "a0e04cf3de73f1a68454746085905c1e", "type": "electric_scooter", "is_reserved": 0, "lon": -77.02533716666667}, {"fusion_lat": 0.0, "name": "1e78f2b98a297fbc452962dd439e3e7a", "is_disabled": 0, "rental_uris": {"android": "https://dc.lft.to/lastmile_qr_scan", "ios": "https://dc.lft.to/lastmile_qr_scan"}, "fusion_lon": 0.0, "lat": 38.90064916666667, "bike_id": "1e78f2b98a297fbc452962dd439e3e7a", "type": "electric_scooter", "is_reserved": 0, "lon": -76.93382616666666}, {"fusion_lat": 0.0, "name": "471b5841ca1f0142b49ed96438ffc7b6", "is_disabled": 0, "rental_uris": {"android": "https://dc.lft.to/lastmile_qr_scan", "ios": "https://dc.lft.to/lastmile_qr_scan"}, "fusion_lon": 0.0, "lat": 38.9297195, "bike_id": "471b5841ca1f0142b49ed96438ffc7b6", "type": "electric_scooter", "is_reserved": 0, "lon": -77.02821033333333}, {"fusion_lat": 0.0, "name": "be55419f870813cfc17238300e726df8", "is_disabled": 0, "rental_uris": {"android": "https://dc.lft.to/lastmile_qr_scan", "ios": "https://dc.lft.to/lastmile_qr_scan"}, "fusion_lon": 0.0, "lat": 38.9253255, "bike_id": "be55419f870813cfc17238300e726df8", "type": "electric_scooter", "is_reserved": 0, "lon": -77.055646}, {"fusion_lat": 0.0, "name": "24d92fb14fa1e25212c73e31202cafe7", "is_disabled": 0, "rental_uris": {"android": "https://dc.lft.to/lastmile_qr_scan", "ios": "https://dc.lft.to/lastmile_qr_scan"}, "fusion_lon": 0.0, "lat": 38.9001255, "bike_id": "24d92fb14fa1e25212c73e31202cafe7", "type": "electric_scooter", "is_reserved": 0, "lon": -77.03945916666666}, {"fusion_lat": 0.0, "name": "f22fc4668195886070561cb21359e868", "is_disabled": 0, "rental_uris": {"android": "https://dc.lft.to/lastmile_qr_scan", "ios": "https://dc.lft.to/lastmile_qr_scan"}, "fusion_lon": 0.0, "lat": 38.919169, "bike_id": "f22fc4668195886070561cb21359e868", "type": "electric_scooter", "is_reserved": 0, "lon": -77.03579}, {"fusion_lat": 0.0, "name": "8381aa57cac0aad1248ca0d3d9ca9401", "is_disabled": 0, "rental_uris": {"android": "https://dc.lft.to/lastmile_qr_scan", "ios": "https://dc.lft.to/lastmile_qr_scan"}, "fusion_lon": 0.0, "lat": 38.93547133333333, "bike_id": "8381aa57cac0aad1248ca0d3d9ca9401", "type": "electric_scooter", "is_reserved": 0, "lon": -77.03255166666666}, {"fusion_lat": 0.0, "name": "e952b7241074968424a260bfb5402899", "is_disabled": 0, "rental_uris": {"android": "https://dc.lft.to/lastmile_qr_scan", "ios": "https://dc.lft.to/lastmile_qr_scan"}, "fusion_lon": 0.0, "lat": 38.939078333333335, "bike_id": "e952b7241074968424a260bfb5402899", "type": "electric_scooter", "is_reserved": 0, "lon": -77.0246985}, {"fusion_lat": 0.0, "name": "f03721a5062269c65ee00b59e3021ec7", "is_disabled": 0, "rental_uris": {"android": "https://dc.lft.to/lastmile_qr_scan", "ios": "https://dc.lft.to/lastmile_qr_scan"}, "fusion_lon": 0.0, "lat": 38.84506583333334, "bike_id": "f03721a5062269c65ee00b59e3021ec7", "type": "electric_bike", "is_reserved": 0, "lon": -76.99350833333334}, {"fusion_lat": 0.0, "name": "b5b6a58d1ee90c70b45eafd4d5ba932b", "is_disabled": 0, "rental_uris": {"android": "https://dc.lft.to/lastmile_qr_scan", "ios": "https://dc.lft.to/lastmile_qr_scan"}, "fusion_lon": 0.0, "lat": 38.91288133333333, "bike_id": "b5b6a58d1ee90c70b45eafd4d5ba932b", "type": "electric_scooter", "is_reserved": 0, "lon": -77.0474075}, {"fusion_lat": 0.0, "name": "a4f66253467a16040ab2cd055436e804", "is_disabled": 0, "rental_uris": {"android": "https://dc.lft.to/lastmile_qr_scan", "ios": "https://dc.lft.to/lastmile_qr_scan"}, "fusion_lon": 0.0, "lat": 38.89611766666667, "bike_id": "a4f66253467a16040ab2cd055436e804", "type": "electric_scooter", "is_reserved": 0, "lon": -77.04480633333333}, {"fusion_lat": 0.0, "name": "d1f6a55b3f5519a2f88ab4523f15581a", "is_disabled": 0, "rental_uris": {"android": "https://dc.lft.to/lastmile_qr_scan", "ios": "https://dc.lft.to/lastmile_qr_scan"}, "fusion_lon": 0.0, "lat": 38.9055825, "bike_id": "d1f6a55b3f5519a2f88ab4523f15581a", "type": "electric_scooter", "is_reserved": 0, "lon": -77.01307633333333}, {"fusion_lat": 0.0, "name": "4ab64092e0e1a8c7cdf887ebb9e98753", "is_disabled": 0, "rental_uris": {"android": "https://dc.lft.to/lastmile_qr_scan", "ios": "https://dc.lft.to/lastmile_qr_scan"}, "fusion_lon": 0.0, "lat": 38.871784, "bike_id": "4ab64092e0e1a8c7cdf887ebb9e98753", "type": "electric_scooter", "is_reserved": 0, "lon": -77.00613833333334}, {"fusion_lat": 0.0, "name": "8da639cb638445664d29c71a34edfded", "is_disabled": 0, "rental_uris": {"android": "https://dc.lft.to/lastmile_qr_scan", "ios": "https://dc.lft.to/lastmile_qr_scan"}, "fusion_lon": 0.0, "lat": 38.930623, "bike_id": "8da639cb638445664d29c71a34edfded", "type": "electric_scooter", "is_reserved": 0, "lon": -77.02970316666666}, {"fusion_lat": 0.0, "name": "064ddfbdba6d017e3b537dcf3e84385b", "is_disabled": 0, "rental_uris": {"android": "https://dc.lft.to/lastmile_qr_scan", "ios": "https://dc.lft.to/lastmile_qr_scan"}, "fusion_lon": 0.0, "lat": 38.91796566666667, "bike_id": "064ddfbdba6d017e3b537dcf3e84385b", "type": "electric_scooter", "is_reserved": 0, "lon": -77.0343925}, {"fusion_lat": 0.0, "name": "c8dcab7564debb8ea6f34b08ec2a0afe", "is_disabled": 0, "rental_uris": {"android": "https://dc.lft.to/lastmile_qr_scan", "ios": "https://dc.lft.to/lastmile_qr_scan"}, "fusion_lon": 0.0, "lat": 38.93177333333333, "bike_id": "c8dcab7564debb8ea6f34b08ec2a0afe", "type": "electric_scooter", "is_reserved": 0, "lon": -77.04299133333333}, {"fusion_lat": 0.0, "name": "e4fbfb3434660379883bc504a5e801f9", "is_disabled": 0, "rental_uris": {"android": "https://dc.lft.to/lastmile_qr_scan", "ios": "https://dc.lft.to/lastmile_qr_scan"}, "fusion_lon": 0.0, "lat": 38.9110745, "bike_id": "e4fbfb3434660379883bc504a5e801f9", "type": "electric_scooter", "is_reserved": 0, "lon": -77.02174566666666}, {"fusion_lat": 0.0, "name": "2e59640ce6c7e751ee64e95d1a032017", "is_disabled": 0, "rental_uris": {"android": "https://dc.lft.to/lastmile_qr_scan", "ios": "https://dc.lft.to/lastmile_qr_scan"}, "fusion_lon": 0.0, "lat": 38.9170425, "bike_id": "2e59640ce6c7e751ee64e95d1a032017", "type": "electric_scooter", "is_reserved": 0, "lon": -77.04121516666666}, {"fusion_lat": 0.0, "name": "85d46286ce2e24a8e96c506fdfa2e3c0", "is_disabled": 0, "rental_uris": {"android": "https://dc.lft.to/lastmile_qr_scan", "ios": "https://dc.lft.to/lastmile_qr_scan"}, "fusion_lon": 0.0, "lat": 38.9181455, "bike_id": "85d46286ce2e24a8e96c506fdfa2e3c0", "type": "electric_scooter", "is_reserved": 0, "lon": -77.03788266666666}, {"fusion_lat": 0.0, "name": "c1ce0ec1a97e6598d54ce48e5f0a826a", "is_disabled": 0, "rental_uris": {"android": "https://dc.lft.to/lastmile_qr_scan", "ios": "https://dc.lft.to/lastmile_qr_scan"}, "fusion_lon": 0.0, "lat": 38.857948, "bike_id": "c1ce0ec1a97e6598d54ce48e5f0a826a", "type": "electric_bike", "is_reserved": 0, "lon": -77.12013633333333}, {"fusion_lat": 0.0, "name": "ba541f91a73e257326ea5426f9a17d22", "is_disabled": 0, "rental_uris": {"android": "https://dc.lft.to/lastmile_qr_scan", "ios": "https://dc.lft.to/lastmile_qr_scan"}, "fusion_lon": 0.0, "lat": 38.903104166666665, "bike_id": "ba541f91a73e257326ea5426f9a17d22", "type": "electric_scooter", "is_reserved": 0, "lon": -77.06519083333333}, {"fusion_lat": 0.0, "name": "4a3a54c0616966e549fc16db0e00c61b", "is_disabled": 0, "rental_uris": {"android": "https://dc.lft.to/lastmile_qr_scan", "ios": "https://dc.lft.to/lastmile_qr_scan"}, "fusion_lon": 0.0, "lat": 38.91662083333333, "bike_id": "4a3a54c0616966e549fc16db0e00c61b", "type": "electric_scooter", "is_reserved": 0, "lon": -77.02964966666667}, {"fusion_lat": 0.0, "name": "f24ffab9c4756fc6e7545e809caea9e3", "is_disabled": 0, "rental_uris": {"android": "https://dc.lft.to/lastmile_qr_scan", "ios": "https://dc.lft.to/lastmile_qr_scan"}, "fusion_lon": 0.0, "lat": 38.8989985, "bike_id": "f24ffab9c4756fc6e7545e809caea9e3", "type": "electric_scooter", "is_reserved": 0, "lon": -76.976122}, {"fusion_lat": 0.0, "name": "ff4706a92454c6628365d95be49f4f44", "is_disabled": 0, "rental_uris": {"android": "https://dc.lft.to/lastmile_qr_scan", "ios": "https://dc.lft.to/lastmile_qr_scan"}, "fusion_lon": 0.0, "lat": 38.9660065, "bike_id": "ff4706a92454c6628365d95be49f4f44", "type": "electric_bike", "is_reserved": 0, "lon": -77.02804333333333}, {"fusion_lat": 0.0, "name": "fa62d41689222a37e3c2ab03155f9f86", "is_disabled": 0, "rental_uris": {"android": "https://dc.lft.to/lastmile_qr_scan", "ios": "https://dc.lft.to/lastmile_qr_scan"}, "fusion_lon": 0.0, "lat": 38.942924166666664, "bike_id": "fa62d41689222a37e3c2ab03155f9f86", "type": "electric_scooter", "is_reserved": 0, "lon": -77.0216575}, {"fusion_lat": 0.0, "name": "295f8e3806344da944ae22beed0703ac", "is_disabled": 0, "rental_uris": {"android": "https://dc.lft.to/lastmile_qr_scan", "ios": "https://dc.lft.to/lastmile_qr_scan"}, "fusion_lon": 0.0, "lat": 38.900427, "bike_id": "295f8e3806344da944ae22beed0703ac", "type": "electric_scooter", "is_reserved": 0, "lon": -76.992501}, {"fusion_lat": 0.0, "name": "0ef90308ba99f0c34527f3aca041c858", "is_disabled": 0, "rental_uris": {"android": "https://dc.lft.to/lastmile_qr_scan", "ios": "https://dc.lft.to/lastmile_qr_scan"}, "fusion_lon": 0.0, "lat": 38.905021166666664, "bike_id": "0ef90308ba99f0c34527f3aca041c858", "type": "electric_scooter", "is_reserved": 0, "lon": -76.97951016666667}, {"fusion_lat": 0.0, "name": "4660ed466261b1bf7ac1e27b896147c0", "is_disabled": 0, "rental_uris": {"android": "https://dc.lft.to/lastmile_qr_scan", "ios": "https://dc.lft.to/lastmile_qr_scan"}, "fusion_lon": 0.0, "lat": 38.90734033333333, "bike_id": "4660ed466261b1bf7ac1e27b896147c0", "type": "electric_scooter", "is_reserved": 0, "lon": -77.03448783333333}, {"fusion_lat": 0.0, "name": "913abeb963a6ee96b9ef2d14b9c131c0", "is_disabled": 0, "rental_uris": {"android": "https://dc.lft.to/lastmile_qr_scan", "ios": "https://dc.lft.to/lastmile_qr_scan"}, "fusion_lon": 0.0, "lat": 38.920634166666666, "bike_id": "913abeb963a6ee96b9ef2d14b9c131c0", "type": "electric_scooter", "is_reserved": 0, "lon": -77.02378216666666}, {"fusion_lat": 0.0, "name": "49261638b2bdd62aa2d6c1025563aac0", "is_disabled": 0, "rental_uris": {"android": "https://dc.lft.to/lastmile_qr_scan", "ios": "https://dc.lft.to/lastmile_qr_scan"}, "fusion_lon": 0.0, "lat": 38.911762833333334, "bike_id": "49261638b2bdd62aa2d6c1025563aac0", "type": "electric_scooter", "is_reserved": 0, "lon": -77.06856266666666}, {"fusion_lat": 0.0, "name": "5d1488df861440397a6eac281e4d3631", "is_disabled": 0, "rental_uris": {"android": "https://dc.lft.to/lastmile_qr_scan", "ios": "https://dc.lft.to/lastmile_qr_scan"}, "fusion_lon": 0.0, "lat": 38.92654783333333, "bike_id": "5d1488df861440397a6eac281e4d3631", "type": "electric_scooter", "is_reserved": 0, "lon": -77.02423016666667}, {"fusion_lat": 0.0, "name": "277c3d875b5246ce8d1bf000580a4cad", "is_disabled": 0, "rental_uris": {"android": "https://dc.lft.to/lastmile_qr_scan", "ios": "https://dc.lft.to/lastmile_qr_scan"}, "fusion_lon": 0.0, "lat": 38.8613885, "bike_id": "277c3d875b5246ce8d1bf000580a4cad", "type": "electric_bike", "is_reserved": 0, "lon": -76.97168766666667}, {"fusion_lat": 0.0, "name": "f8579e5af52de255ad9995f816f3031b", "is_disabled": 0, "rental_uris": {"android": "https://dc.lft.to/lastmile_qr_scan", "ios": "https://dc.lft.to/lastmile_qr_scan"}, "fusion_lon": 0.0, "lat": 38.94183916666667, "bike_id": "f8579e5af52de255ad9995f816f3031b", "type": "electric_scooter", "is_reserved": 0, "lon": -77.024026}, {"fusion_lat": 0.0, "name": "70545f0d354451ca0ffbfbf5d5e9382b", "is_disabled": 0, "rental_uris": {"android": "https://dc.lft.to/lastmile_qr_scan", "ios": "https://dc.lft.to/lastmile_qr_scan"}, "fusion_lon": 0.0, "lat": 38.916185666666664, "bike_id": "70545f0d354451ca0ffbfbf5d5e9382b", "type": "electric_scooter", "is_reserved": 0, "lon": -77.0113425}, {"fusion_lat": 0.0, "name": "f4e3904dead08e82900817868a28d1bb", "is_disabled": 0, "rental_uris": {"android": "https://dc.lft.to/lastmile_qr_scan", "ios": "https://dc.lft.to/lastmile_qr_scan"}, "fusion_lon": 0.0, "lat": 38.90401133333334, "bike_id": "f4e3904dead08e82900817868a28d1bb", "type": "electric_scooter", "is_reserved": 0, "lon": -77.06764483333333}, {"fusion_lat": 0.0, "name": "3156a16aa5989f471c1ab121e70e8d07", "is_disabled": 0, "rental_uris": {"android": "https://dc.lft.to/lastmile_qr_scan", "ios": "https://dc.lft.to/lastmile_qr_scan"}, "fusion_lon": 0.0, "lat": 38.90252483333333, "bike_id": "3156a16aa5989f471c1ab121e70e8d07", "type": "electric_scooter", "is_reserved": 0, "lon": -77.01767583333333}, {"fusion_lat": 0.0, "name": "330f69bda308e306047b7a66438e8a2e", "is_disabled": 0, "rental_uris": {"android": "https://dc.lft.to/lastmile_qr_scan", "ios": "https://dc.lft.to/lastmile_qr_scan"}, "fusion_lon": 0.0, "lat": 38.909324, "bike_id": "330f69bda308e306047b7a66438e8a2e", "type": "electric_scooter", "is_reserved": 0, "lon": -77.04571183333333}, {"fusion_lat": 0.0, "name": "453ca22a1848da14a0c5d18864f65cf5", "is_disabled": 0, "rental_uris": {"android": "https://dc.lft.to/lastmile_qr_scan", "ios": "https://dc.lft.to/lastmile_qr_scan"}, "fusion_lon": 0.0, "lat": 38.90835766666667, "bike_id": "453ca22a1848da14a0c5d18864f65cf5", "type": "electric_scooter", "is_reserved": 0, "lon": -77.02691516666667}, {"fusion_lat": 0.0, "name": "befd90f8ea59fb829ddcaa54d4613dae", "is_disabled": 0, "rental_uris": {"android": "https://dc.lft.to/lastmile_qr_scan", "ios": "https://dc.lft.to/lastmile_qr_scan"}, "fusion_lon": 0.0, "lat": 38.815993166666665, "bike_id": "befd90f8ea59fb829ddcaa54d4613dae", "type": "electric_bike", "is_reserved": 0, "lon": -77.05052183333333}, {"fusion_lat": 0.0, "name": "9c238f27723e2c924e6ee759cf5388bd", "is_disabled": 0, "rental_uris": {"android": "https://dc.lft.to/lastmile_qr_scan", "ios": "https://dc.lft.to/lastmile_qr_scan"}, "fusion_lon": 0.0, "lat": 38.904991833333334, "bike_id": "9c238f27723e2c924e6ee759cf5388bd", "type": "electric_scooter", "is_reserved": 0, "lon": -77.026755}, {"fusion_lat": 0.0, "name": "16f7bb48ebbc0e0e79dcdfb37d431a5e", "is_disabled": 0, "rental_uris": {"android": "https://dc.lft.to/lastmile_qr_scan", "ios": "https://dc.lft.to/lastmile_qr_scan"}, "fusion_lon": 0.0, "lat": 38.905188, "bike_id": "16f7bb48ebbc0e0e79dcdfb37d431a5e", "type": "electric_scooter", "is_reserved": 0, "lon": -77.02974183333333}, {"fusion_lat": 0.0, "name": "842cc147b37a99fd1f2b47f2b840c173", "is_disabled": 0, "rental_uris": {"android": "https://dc.lft.to/lastmile_qr_scan", "ios": "https://dc.lft.to/lastmile_qr_scan"}, "fusion_lon": 0.0, "lat": 38.966207, "bike_id": "842cc147b37a99fd1f2b47f2b840c173", "type": "electric_bike", "is_reserved": 0, "lon": -77.03429283333334}, {"fusion_lat": 0.0, "name": "ee5e5dfe129c77f4f55afaf63c30004d", "is_disabled": 0, "rental_uris": {"android": "https://dc.lft.to/lastmile_qr_scan", "ios": "https://dc.lft.to/lastmile_qr_scan"}, "fusion_lon": 0.0, "lat": 38.932473333333334, "bike_id": "ee5e5dfe129c77f4f55afaf63c30004d", "type": "electric_scooter", "is_reserved": 0, "lon": -77.02958183333334}, {"fusion_lat": 0.0, "name": "45acdd85f081499e235357f7fa6ce891", "is_disabled": 0, "rental_uris": {"android": "https://dc.lft.to/lastmile_qr_scan", "ios": "https://dc.lft.to/lastmile_qr_scan"}, "fusion_lon": 0.0, "lat": 38.9170445, "bike_id": "45acdd85f081499e235357f7fa6ce891", "type": "electric_scooter", "is_reserved": 0, "lon": -77.040441}, {"fusion_lat": 0.0, "name": "e4f65ed016aa671bc5e514e3097a23cc", "is_disabled": 0, "rental_uris": {"android": "https://dc.lft.to/lastmile_qr_scan", "ios": "https://dc.lft.to/lastmile_qr_scan"}, "fusion_lon": 0.0, "lat": 38.91678366666667, "bike_id": "e4f65ed016aa671bc5e514e3097a23cc", "type": "electric_scooter", "is_reserved": 0, "lon": -77.03200283333334}, {"fusion_lat": 0.0, "name": "f8148640c4a1eb2ea2a67d1b12494e93", "is_disabled": 0, "rental_uris": {"android": "https://dc.lft.to/lastmile_qr_scan", "ios": "https://dc.lft.to/lastmile_qr_scan"}, "fusion_lon": 0.0, "lat": 38.921176833333334, "bike_id": "f8148640c4a1eb2ea2a67d1b12494e93", "type": "electric_scooter", "is_reserved": 0, "lon": -77.03175083333333}, {"fusion_lat": 0.0, "name": "4a76ae023758fdb37c8c1ac57492ec8f", "is_disabled": 0, "rental_uris": {"android": "https://dc.lft.to/lastmile_qr_scan", "ios": "https://dc.lft.to/lastmile_qr_scan"}, "fusion_lon": 0.0, "lat": 38.9097405, "bike_id": "4a76ae023758fdb37c8c1ac57492ec8f", "type": "electric_scooter", "is_reserved": 0, "lon": -77.02088333333333}, {"fusion_lat": 0.0, "name": "282caa24bee2578626b1dbd918f5b95f", "is_disabled": 0, "rental_uris": {"android": "https://dc.lft.to/lastmile_qr_scan", "ios": "https://dc.lft.to/lastmile_qr_scan"}, "fusion_lon": 0.0, "lat": 38.828646166666665, "bike_id": "282caa24bee2578626b1dbd918f5b95f", "type": "electric_bike", "is_reserved": 0, "lon": -77.0880705}, {"fusion_lat": 0.0, "name": "96af8186fef4572c945f6989f03fb60d", "is_disabled": 0, "rental_uris": {"android": "https://dc.lft.to/lastmile_qr_scan", "ios": "https://dc.lft.to/lastmile_qr_scan"}, "fusion_lon": 0.0, "lat": 38.8779445, "bike_id": "96af8186fef4572c945f6989f03fb60d", "type": "electric_scooter", "is_reserved": 0, "lon": -76.99012883333333}, {"fusion_lat": 0.0, "name": "f1357ba501dfdc50222702bcf4e7dea7", "is_disabled": 0, "rental_uris": {"android": "https://dc.lft.to/lastmile_qr_scan", "ios": "https://dc.lft.to/lastmile_qr_scan"}, "fusion_lon": 0.0, "lat": 38.83866016666666, "bike_id": "f1357ba501dfdc50222702bcf4e7dea7", "type": "electric_scooter", "is_reserved": 0, "lon": -76.996956}, {"fusion_lat": 0.0, "name": "4f9b4e4807a271168c0703314c00cb31", "is_disabled": 0, "rental_uris": {"android": "https://dc.lft.to/lastmile_qr_scan", "ios": "https://dc.lft.to/lastmile_qr_scan"}, "fusion_lon": 0.0, "lat": 38.9039605, "bike_id": "4f9b4e4807a271168c0703314c00cb31", "type": "electric_scooter", "is_reserved": 0, "lon": -76.98940616666667}, {"fusion_lat": 0.0, "name": "b124bcc4c76bccc4ae84edcef0da3301", "is_disabled": 0, "rental_uris": {"android": "https://dc.lft.to/lastmile_qr_scan", "ios": "https://dc.lft.to/lastmile_qr_scan"}, "fusion_lon": 0.0, "lat": 38.92331, "bike_id": "b124bcc4c76bccc4ae84edcef0da3301", "type": "electric_scooter", "is_reserved": 0, "lon": -77.0377105}, {"fusion_lat": 0.0, "name": "d9010f0151557233c24e227802c2029b", "is_disabled": 0, "rental_uris": {"android": "https://dc.lft.to/lastmile_qr_scan", "ios": "https://dc.lft.to/lastmile_qr_scan"}, "fusion_lon": 0.0, "lat": 38.92904883333333, "bike_id": "d9010f0151557233c24e227802c2029b", "type": "electric_scooter", "is_reserved": 0, "lon": -77.03270583333334}, {"fusion_lat": 0.0, "name": "a281281ac0ede4c0e98784e7bae85050", "is_disabled": 0, "rental_uris": {"android": "https://dc.lft.to/lastmile_qr_scan", "ios": "https://dc.lft.to/lastmile_qr_scan"}, "fusion_lon": 0.0, "lat": 38.909477333333335, "bike_id": "a281281ac0ede4c0e98784e7bae85050", "type": "electric_scooter", "is_reserved": 0, "lon": -77.04493033333334}, {"fusion_lat": 0.0, "name": "a4e833f3ec631f48990c6a560aaf759a", "is_disabled": 0, "rental_uris": {"android": "https://dc.lft.to/lastmile_qr_scan", "ios": "https://dc.lft.to/lastmile_qr_scan"}, "fusion_lon": 0.0, "lat": 38.915636166666665, "bike_id": "a4e833f3ec631f48990c6a560aaf759a", "type": "electric_scooter", "is_reserved": 0, "lon": -77.03147883333334}, {"fusion_lat": 0.0, "name": "d8bf0e22a8b99f22496fa5331a004d8f", "is_disabled": 0, "rental_uris": {"android": "https://dc.lft.to/lastmile_qr_scan", "ios": "https://dc.lft.to/lastmile_qr_scan"}, "fusion_lon": 0.0, "lat": 39.04181833333333, "bike_id": "d8bf0e22a8b99f22496fa5331a004d8f", "type": "electric_bike", "is_reserved": 0, "lon": -77.052418}, {"fusion_lat": 0.0, "name": "35cf00c74de780e99a9a2090fff80fad", "is_disabled": 0, "rental_uris": {"android": "https://dc.lft.to/lastmile_qr_scan", "ios": "https://dc.lft.to/lastmile_qr_scan"}, "fusion_lon": 0.0, "lat": 38.9083935, "bike_id": "35cf00c74de780e99a9a2090fff80fad", "type": "electric_scooter", "is_reserved": 0, "lon": -77.04350183333334}, {"fusion_lat": 0.0, "name": "243acd9c220cfeece2c36e1a8507e04c", "is_disabled": 0, "rental_uris": {"android": "https://dc.lft.to/lastmile_qr_scan", "ios": "https://dc.lft.to/lastmile_qr_scan"}, "fusion_lon": 0.0, "lat": 38.91318233333333, "bike_id": "243acd9c220cfeece2c36e1a8507e04c", "type": "electric_scooter", "is_reserved": 0, "lon": -77.04477483333334}, {"fusion_lat": 0.0, "name": "1d8590daa134c03f51c1561fe113c2b1", "is_disabled": 0, "rental_uris": {"android": "https://dc.lft.to/lastmile_qr_scan", "ios": "https://dc.lft.to/lastmile_qr_scan"}, "fusion_lon": 0.0, "lat": 38.90706933333333, "bike_id": "1d8590daa134c03f51c1561fe113c2b1", "type": "electric_scooter", "is_reserved": 0, "lon": -77.02385583333333}, {"fusion_lat": 0.0, "name": "0aba7318ae772835910a522ee4e68bf4", "is_disabled": 0, "rental_uris": {"android": "https://dc.lft.to/lastmile_qr_scan", "ios": "https://dc.lft.to/lastmile_qr_scan"}, "fusion_lon": 0.0, "lat": 38.987689833333334, "bike_id": "0aba7318ae772835910a522ee4e68bf4", "type": "electric_bike", "is_reserved": 0, "lon": -77.1404805}, {"fusion_lat": 0.0, "name": "748af3cbfe4021b158dc7fd249d265e7", "is_disabled": 0, "rental_uris": {"android": "https://dc.lft.to/lastmile_qr_scan", "ios": "https://dc.lft.to/lastmile_qr_scan"}, "fusion_lon": 0.0, "lat": 38.91699083333334, "bike_id": "748af3cbfe4021b158dc7fd249d265e7", "type": "electric_scooter", "is_reserved": 0, "lon": -77.03589016666666}, {"fusion_lat": 0.0, "name": "661e68e93ccab07ac1501ef08c92d95d", "is_disabled": 0, "rental_uris": {"android": "https://dc.lft.to/lastmile_qr_scan", "ios": "https://dc.lft.to/lastmile_qr_scan"}, "fusion_lon": 0.0, "lat": 38.89742733333333, "bike_id": "661e68e93ccab07ac1501ef08c92d95d", "type": "electric_scooter", "is_reserved": 0, "lon": -77.043985}, {"fusion_lat": 0.0, "name": "bfd43d501ade71b0f21a9cb3501c3a7c", "is_disabled": 0, "rental_uris": {"android": "https://dc.lft.to/lastmile_qr_scan", "ios": "https://dc.lft.to/lastmile_qr_scan"}, "fusion_lon": 0.0, "lat": 38.91034766666667, "bike_id": "bfd43d501ade71b0f21a9cb3501c3a7c", "type": "electric_scooter", "is_reserved": 0, "lon": -77.064152}, {"fusion_lat": 0.0, "name": "c62df4bd7e5134c5f7c194915af70cd1", "is_disabled": 0, "rental_uris": {"android": "https://dc.lft.to/lastmile_qr_scan", "ios": "https://dc.lft.to/lastmile_qr_scan"}, "fusion_lon": 0.0, "lat": 38.90410116666666, "bike_id": "c62df4bd7e5134c5f7c194915af70cd1", "type": "electric_scooter", "is_reserved": 0, "lon": -76.97329783333333}, {"fusion_lat": 0.0, "name": "bf3574a3f758f4439ef842c8fd4b5787", "is_disabled": 0, "rental_uris": {"android": "https://dc.lft.to/lastmile_qr_scan", "ios": "https://dc.lft.to/lastmile_qr_scan"}, "fusion_lon": 0.0, "lat": 38.87241566666667, "bike_id": "bf3574a3f758f4439ef842c8fd4b5787", "type": "electric_scooter", "is_reserved": 0, "lon": -76.97729683333333}, {"fusion_lat": 0.0, "name": "d9256e423995bd046bbfdb98b0b79bbc", "is_disabled": 0, "rental_uris": {"android": "https://dc.lft.to/lastmile_qr_scan", "ios": "https://dc.lft.to/lastmile_qr_scan"}, "fusion_lon": 0.0, "lat": 38.914145, "bike_id": "d9256e423995bd046bbfdb98b0b79bbc", "type": "electric_scooter", "is_reserved": 0, "lon": -77.022131}, {"fusion_lat": 0.0, "name": "6e935daf21674f6a02847d13bc29c42b", "is_disabled": 0, "rental_uris": {"android": "https://dc.lft.to/lastmile_qr_scan", "ios": "https://dc.lft.to/lastmile_qr_scan"}, "fusion_lon": 0.0, "lat": 38.955973666666665, "bike_id": "6e935daf21674f6a02847d13bc29c42b", "type": "electric_bike", "is_reserved": 0, "lon": -77.01001666666667}, {"fusion_lat": 0.0, "name": "b3ec9e2480adb93a626f51ec354433b4", "is_disabled": 0, "rental_uris": {"android": "https://dc.lft.to/lastmile_qr_scan", "ios": "https://dc.lft.to/lastmile_qr_scan"}, "fusion_lon": 0.0, "lat": 38.891966333333336, "bike_id": "b3ec9e2480adb93a626f51ec354433b4", "type": "electric_scooter", "is_reserved": 0, "lon": -77.016509}, {"fusion_lat": 0.0, "name": "e68d1490913f9e7dfa0f2d6a924efbd8", "is_disabled": 0, "rental_uris": {"android": "https://dc.lft.to/lastmile_qr_scan", "ios": "https://dc.lft.to/lastmile_qr_scan"}, "fusion_lon": 0.0, "lat": 38.91713883333333, "bike_id": "e68d1490913f9e7dfa0f2d6a924efbd8", "type": "electric_scooter", "is_reserved": 0, "lon": -77.038575}, {"fusion_lat": 0.0, "name": "043085e718d9e56a5ad3a3fb1ec32250", "is_disabled": 0, "rental_uris": {"android": "https://dc.lft.to/lastmile_qr_scan", "ios": "https://dc.lft.to/lastmile_qr_scan"}, "fusion_lon": 0.0, "lat": 38.912836666666664, "bike_id": "043085e718d9e56a5ad3a3fb1ec32250", "type": "electric_scooter", "is_reserved": 0, "lon": -77.02298933333333}, {"fusion_lat": 0.0, "name": "8ea505b4c0598e389c4f1cfdcdaa17e3", "is_disabled": 0, "rental_uris": {"android": "https://dc.lft.to/lastmile_qr_scan", "ios": "https://dc.lft.to/lastmile_qr_scan"}, "fusion_lon": 0.0, "lat": 38.952848333333336, "bike_id": "8ea505b4c0598e389c4f1cfdcdaa17e3", "type": "electric_scooter", "is_reserved": 0, "lon": -77.06852683333334}, {"fusion_lat": 0.0, "name": "a2a8e61f45f6843a018850f511778305", "is_disabled": 0, "rental_uris": {"android": "https://dc.lft.to/lastmile_qr_scan", "ios": "https://dc.lft.to/lastmile_qr_scan"}, "fusion_lon": 0.0, "lat": 38.92895766666667, "bike_id": "a2a8e61f45f6843a018850f511778305", "type": "electric_bike", "is_reserved": 0, "lon": -77.23173516666667}, {"fusion_lat": 0.0, "name": "19ffd3f9f137a63c9ba7f1af3c92206f", "is_disabled": 0, "rental_uris": {"android": "https://dc.lft.to/lastmile_qr_scan", "ios": "https://dc.lft.to/lastmile_qr_scan"}, "fusion_lon": 0.0, "lat": 38.89740283333333, "bike_id": "19ffd3f9f137a63c9ba7f1af3c92206f", "type": "electric_scooter", "is_reserved": 0, "lon": -77.04918283333333}, {"fusion_lat": 0.0, "name": "7e9641e32fe17f627ecfe4290f6b8f50", "is_disabled": 0, "rental_uris": {"android": "https://dc.lft.to/lastmile_qr_scan", "ios": "https://dc.lft.to/lastmile_qr_scan"}, "fusion_lon": 0.0, "lat": 38.91342233333334, "bike_id": "7e9641e32fe17f627ecfe4290f6b8f50", "type": "electric_scooter", "is_reserved": 0, "lon": -77.0426615}, {"fusion_lat": 0.0, "name": "2697c2b20c060ccb4b72fa12d10f0a58", "is_disabled": 0, "rental_uris": {"android": "https://dc.lft.to/lastmile_qr_scan", "ios": "https://dc.lft.to/lastmile_qr_scan"}, "fusion_lon": 0.0, "lat": 38.892286666666664, "bike_id": "2697c2b20c060ccb4b72fa12d10f0a58", "type": "electric_scooter", "is_reserved": 0, "lon": -77.0210805}, {"fusion_lat": 0.0, "name": "96ec6b39047b5233140f374571e6fef5", "is_disabled": 0, "rental_uris": {"android": "https://dc.lft.to/lastmile_qr_scan", "ios": "https://dc.lft.to/lastmile_qr_scan"}, "fusion_lon": 0.0, "lat": 38.89790216666667, "bike_id": "96ec6b39047b5233140f374571e6fef5", "type": "electric_scooter", "is_reserved": 0, "lon": -77.0119965}, {"fusion_lat": 0.0, "name": "48dc58a89e7c03b58bdc4cfaa868e575", "is_disabled": 0, "rental_uris": {"android": "https://dc.lft.to/lastmile_qr_scan", "ios": "https://dc.lft.to/lastmile_qr_scan"}, "fusion_lon": 0.0, "lat": 38.90323033333333, "bike_id": "48dc58a89e7c03b58bdc4cfaa868e575", "type": "electric_scooter", "is_reserved": 0, "lon": -77.04460183333333}, {"fusion_lat": 0.0, "name": "f31300016e58c4d239cc20efe3132dad", "is_disabled": 0, "rental_uris": {"android": "https://dc.lft.to/lastmile_qr_scan", "ios": "https://dc.lft.to/lastmile_qr_scan"}, "fusion_lon": 0.0, "lat": 38.914145833333336, "bike_id": "f31300016e58c4d239cc20efe3132dad", "type": "electric_scooter", "is_reserved": 0, "lon": -77.02209316666666}, {"fusion_lat": 0.0, "name": "5e9b23be543e3ceae209ddeeec6345b3", "is_disabled": 0, "rental_uris": {"android": "https://dc.lft.to/lastmile_qr_scan", "ios": "https://dc.lft.to/lastmile_qr_scan"}, "fusion_lon": 0.0, "lat": 38.8991715, "bike_id": "5e9b23be543e3ceae209ddeeec6345b3", "type": "electric_scooter", "is_reserved": 0, "lon": -76.98528183333333}, {"fusion_lat": 0.0, "name": "4c65dbfbd3287c1f9918c91a9266a632", "is_disabled": 0, "rental_uris": {"android": "https://dc.lft.to/lastmile_qr_scan", "ios": "https://dc.lft.to/lastmile_qr_scan"}, "fusion_lon": 0.0, "lat": 39.003844, "bike_id": "4c65dbfbd3287c1f9918c91a9266a632", "type": "electric_bike", "is_reserved": 0, "lon": -77.01276566666667}, {"fusion_lat": 0.0, "name": "76543a982fba51a53565b32c5eb5e8be", "is_disabled": 0, "rental_uris": {"android": "https://dc.lft.to/lastmile_qr_scan", "ios": "https://dc.lft.to/lastmile_qr_scan"}, "fusion_lon": 0.0, "lat": 38.88492133333333, "bike_id": "76543a982fba51a53565b32c5eb5e8be", "type": "electric_scooter", "is_reserved": 0, "lon": -77.010886}, {"fusion_lat": 0.0, "name": "59f2bbd1e85fa78bc4b662c6b0e2b81f", "is_disabled": 0, "rental_uris": {"android": "https://dc.lft.to/lastmile_qr_scan", "ios": "https://dc.lft.to/lastmile_qr_scan"}, "fusion_lon": 0.0, "lat": 38.9002155, "bike_id": "59f2bbd1e85fa78bc4b662c6b0e2b81f", "type": "electric_scooter", "is_reserved": 0, "lon": -77.03173183333334}, {"fusion_lat": 0.0, "name": "9190ff5b7b50152814813e6ec27499b2", "is_disabled": 0, "rental_uris": {"android": "https://dc.lft.to/lastmile_qr_scan", "ios": "https://dc.lft.to/lastmile_qr_scan"}, "fusion_lon": 0.0, "lat": 38.88327483333333, "bike_id": "9190ff5b7b50152814813e6ec27499b2", "type": "electric_scooter", "is_reserved": 0, "lon": -77.01674966666667}, {"fusion_lat": 0.0, "name": "4aa09ad9f0acb1f2fd0a385e1c8c95a0", "is_disabled": 0, "rental_uris": {"android": "https://dc.lft.to/lastmile_qr_scan", "ios": "https://dc.lft.to/lastmile_qr_scan"}, "fusion_lon": 0.0, "lat": 38.9078835, "bike_id": "4aa09ad9f0acb1f2fd0a385e1c8c95a0", "type": "electric_scooter", "is_reserved": 0, "lon": -77.0343065}, {"fusion_lat": 0.0, "name": "0e8a4f254012d3544f1846e6c856360b", "is_disabled": 0, "rental_uris": {"android": "https://dc.lft.to/lastmile_qr_scan", "ios": "https://dc.lft.to/lastmile_qr_scan"}, "fusion_lon": 0.0, "lat": 38.905771333333334, "bike_id": "0e8a4f254012d3544f1846e6c856360b", "type": "electric_scooter", "is_reserved": 0, "lon": -77.022038}, {"fusion_lat": 0.0, "name": "329eed1a21c9aaf1bbb48238ad9bfc52", "is_disabled": 0, "rental_uris": {"android": "https://dc.lft.to/lastmile_qr_scan", "ios": "https://dc.lft.to/lastmile_qr_scan"}, "fusion_lon": 0.0, "lat": 38.905697, "bike_id": "329eed1a21c9aaf1bbb48238ad9bfc52", "type": "electric_scooter", "is_reserved": 0, "lon": -77.046357}, {"fusion_lat": 0.0, "name": "3cbb954f7f28a0d700023feed8efe9ff", "is_disabled": 0, "rental_uris": {"android": "https://dc.lft.to/lastmile_qr_scan", "ios": "https://dc.lft.to/lastmile_qr_scan"}, "fusion_lon": 0.0, "lat": 38.90775716666667, "bike_id": "3cbb954f7f28a0d700023feed8efe9ff", "type": "electric_scooter", "is_reserved": 0, "lon": -77.038595}, {"fusion_lat": 0.0, "name": "f77439688db49c5a86c4c83e47e43774", "is_disabled": 0, "rental_uris": {"android": "https://dc.lft.to/lastmile_qr_scan", "ios": "https://dc.lft.to/lastmile_qr_scan"}, "fusion_lon": 0.0, "lat": 38.93540516666667, "bike_id": "f77439688db49c5a86c4c83e47e43774", "type": "electric_scooter", "is_reserved": 0, "lon": -77.03262833333334}, {"fusion_lat": 0.0, "name": "6fc428698eca04ac2c824ef210b31c35", "is_disabled": 0, "rental_uris": {"android": "https://dc.lft.to/lastmile_qr_scan", "ios": "https://dc.lft.to/lastmile_qr_scan"}, "fusion_lon": 0.0, "lat": 38.923738666666665, "bike_id": "6fc428698eca04ac2c824ef210b31c35", "type": "electric_scooter", "is_reserved": 0, "lon": -77.02135033333333}, {"fusion_lat": 0.0, "name": "cd2c9a5f282b3dd438e0a7f897c36a94", "is_disabled": 0, "rental_uris": {"android": "https://dc.lft.to/lastmile_qr_scan", "ios": "https://dc.lft.to/lastmile_qr_scan"}, "fusion_lon": 0.0, "lat": 38.913193166666666, "bike_id": "cd2c9a5f282b3dd438e0a7f897c36a94", "type": "electric_scooter", "is_reserved": 0, "lon": -77.02139416666667}, {"fusion_lat": 0.0, "name": "809f64f08e4b75cfa38bd1d1d2cbc156", "is_disabled": 0, "rental_uris": {"android": "https://dc.lft.to/lastmile_qr_scan", "ios": "https://dc.lft.to/lastmile_qr_scan"}, "fusion_lon": 0.0, "lat": 38.884708, "bike_id": "809f64f08e4b75cfa38bd1d1d2cbc156", "type": "electric_scooter", "is_reserved": 0, "lon": -77.015012}, {"fusion_lat": 0.0, "name": "b9ca91beaf76f623fa6cbb0459ed221e", "is_disabled": 0, "rental_uris": {"android": "https://dc.lft.to/lastmile_qr_scan", "ios": "https://dc.lft.to/lastmile_qr_scan"}, "fusion_lon": 0.0, "lat": 38.931907, "bike_id": "b9ca91beaf76f623fa6cbb0459ed221e", "type": "electric_scooter", "is_reserved": 0, "lon": -77.073155}, {"fusion_lat": 0.0, "name": "78fe070bf1f5a3d13f2db92135dd86fc", "is_disabled": 0, "rental_uris": {"android": "https://dc.lft.to/lastmile_qr_scan", "ios": "https://dc.lft.to/lastmile_qr_scan"}, "fusion_lon": 0.0, "lat": 38.845045666666664, "bike_id": "78fe070bf1f5a3d13f2db92135dd86fc", "type": "electric_bike", "is_reserved": 0, "lon": -76.993509}, {"fusion_lat": 0.0, "name": "5ba0a652013b62fd68e76de4b43fc47c", "is_disabled": 0, "rental_uris": {"android": "https://dc.lft.to/lastmile_qr_scan", "ios": "https://dc.lft.to/lastmile_qr_scan"}, "fusion_lon": 0.0, "lat": 38.907311666666665, "bike_id": "5ba0a652013b62fd68e76de4b43fc47c", "type": "electric_scooter", "is_reserved": 0, "lon": -77.04347483333333}, {"fusion_lat": 0.0, "name": "e5c76fd461a5c90fd999e1ecb0469527", "is_disabled": 0, "rental_uris": {"android": "https://dc.lft.to/lastmile_qr_scan", "ios": "https://dc.lft.to/lastmile_qr_scan"}, "fusion_lon": 0.0, "lat": 38.923798833333336, "bike_id": "e5c76fd461a5c90fd999e1ecb0469527", "type": "electric_scooter", "is_reserved": 0, "lon": -77.07536983333334}, {"fusion_lat": 0.0, "name": "a688cc4913cd9f61a77710dc65d95fef", "is_disabled": 0, "rental_uris": {"android": "https://dc.lft.to/lastmile_qr_scan", "ios": "https://dc.lft.to/lastmile_qr_scan"}, "fusion_lon": 0.0, "lat": 38.89715916666667, "bike_id": "a688cc4913cd9f61a77710dc65d95fef", "type": "electric_scooter", "is_reserved": 0, "lon": -77.03163983333333}, {"fusion_lat": 0.0, "name": "1200460a5dd5cf02a206fb4768bc13f0", "is_disabled": 0, "rental_uris": {"android": "https://dc.lft.to/lastmile_qr_scan", "ios": "https://dc.lft.to/lastmile_qr_scan"}, "fusion_lon": 0.0, "lat": 38.920589166666666, "bike_id": "1200460a5dd5cf02a206fb4768bc13f0", "type": "electric_scooter", "is_reserved": 0, "lon": -77.02537366666667}, {"fusion_lat": 0.0, "name": "99df5adc1f68226930936c3811aff26f", "is_disabled": 0, "rental_uris": {"android": "https://dc.lft.to/lastmile_qr_scan", "ios": "https://dc.lft.to/lastmile_qr_scan"}, "fusion_lon": 0.0, "lat": 38.9169905, "bike_id": "99df5adc1f68226930936c3811aff26f", "type": "electric_scooter", "is_reserved": 0, "lon": -77.01166233333333}, {"fusion_lat": 0.0, "name": "7517dfcaa355729ad8647cfe63fb3c61", "is_disabled": 0, "rental_uris": {"android": "https://dc.lft.to/lastmile_qr_scan", "ios": "https://dc.lft.to/lastmile_qr_scan"}, "fusion_lon": 0.0, "lat": 38.911034, "bike_id": "7517dfcaa355729ad8647cfe63fb3c61", "type": "electric_scooter", "is_reserved": 0, "lon": -77.015207}, {"fusion_lat": 0.0, "name": "1c1557fb71a5be782ca2df0a914bd7ad", "is_disabled": 0, "rental_uris": {"android": "https://dc.lft.to/lastmile_qr_scan", "ios": "https://dc.lft.to/lastmile_qr_scan"}, "fusion_lon": 0.0, "lat": 38.90366783333333, "bike_id": "1c1557fb71a5be782ca2df0a914bd7ad", "type": "electric_scooter", "is_reserved": 0, "lon": -77.0319215}, {"fusion_lat": 0.0, "name": "71a90a896b0f12306098d90bfd30eb6b", "is_disabled": 0, "rental_uris": {"android": "https://dc.lft.to/lastmile_qr_scan", "ios": "https://dc.lft.to/lastmile_qr_scan"}, "fusion_lon": 0.0, "lat": 38.904103166666665, "bike_id": "71a90a896b0f12306098d90bfd30eb6b", "type": "electric_scooter", "is_reserved": 0, "lon": -76.97326233333334}, {"fusion_lat": 0.0, "name": "6926eb7e4ceac04300215c43b32e2837", "is_disabled": 0, "rental_uris": {"android": "https://dc.lft.to/lastmile_qr_scan", "ios": "https://dc.lft.to/lastmile_qr_scan"}, "fusion_lon": 0.0, "lat": 38.89246083333333, "bike_id": "6926eb7e4ceac04300215c43b32e2837", "type": "electric_bike", "is_reserved": 0, "lon": -76.98535333333334}, {"fusion_lat": 0.0, "name": "b2f404b898fed95e619e4576352ee417", "is_disabled": 0, "rental_uris": {"android": "https://dc.lft.to/lastmile_qr_scan", "ios": "https://dc.lft.to/lastmile_qr_scan"}, "fusion_lon": 0.0, "lat": 38.89354383333333, "bike_id": "b2f404b898fed95e619e4576352ee417", "type": "electric_bike", "is_reserved": 0, "lon": -77.18744416666667}, {"fusion_lat": 0.0, "name": "579b6087c39a39aa6bbecafb8a36c29c", "is_disabled": 0, "rental_uris": {"android": "https://dc.lft.to/lastmile_qr_scan", "ios": "https://dc.lft.to/lastmile_qr_scan"}, "fusion_lon": 0.0, "lat": 38.96132883333333, "bike_id": "579b6087c39a39aa6bbecafb8a36c29c", "type": "electric_scooter", "is_reserved": 0, "lon": -77.027806}, {"fusion_lat": 0.0, "name": "9976bbdff0d293a4b0c69e9c274cd2f6", "is_disabled": 0, "rental_uris": {"android": "https://dc.lft.to/lastmile_qr_scan", "ios": "https://dc.lft.to/lastmile_qr_scan"}, "fusion_lon": 0.0, "lat": 38.943106666666665, "bike_id": "9976bbdff0d293a4b0c69e9c274cd2f6", "type": "electric_scooter", "is_reserved": 0, "lon": -77.06064516666666}, {"fusion_lat": 0.0, "name": "83604b1d6f5c6e370e954cda762a2092", "is_disabled": 0, "rental_uris": {"android": "https://dc.lft.to/lastmile_qr_scan", "ios": "https://dc.lft.to/lastmile_qr_scan"}, "fusion_lon": 0.0, "lat": 38.90736016666666, "bike_id": "83604b1d6f5c6e370e954cda762a2092", "type": "electric_scooter", "is_reserved": 0, "lon": -77.02972616666666}, {"fusion_lat": 0.0, "name": "2addc275e68eeca582c2728a44f691ec", "is_disabled": 0, "rental_uris": {"android": "https://dc.lft.to/lastmile_qr_scan", "ios": "https://dc.lft.to/lastmile_qr_scan"}, "fusion_lon": 0.0, "lat": 38.91030583333333, "bike_id": "2addc275e68eeca582c2728a44f691ec", "type": "electric_scooter", "is_reserved": 0, "lon": -77.01511733333334}, {"fusion_lat": 0.0, "name": "1ee3b0a0974f240f16aa6530b04096e5", "is_disabled": 0, "rental_uris": {"android": "https://dc.lft.to/lastmile_qr_scan", "ios": "https://dc.lft.to/lastmile_qr_scan"}, "fusion_lon": 0.0, "lat": 38.90360783333333, "bike_id": "1ee3b0a0974f240f16aa6530b04096e5", "type": "electric_bike", "is_reserved": 0, "lon": -76.97911816666667}, {"fusion_lat": 0.0, "name": "2020b42a69ab073e9c3a263ea114a4ef", "is_disabled": 0, "rental_uris": {"android": "https://dc.lft.to/lastmile_qr_scan", "ios": "https://dc.lft.to/lastmile_qr_scan"}, "fusion_lon": 0.0, "lat": 38.920258, "bike_id": "2020b42a69ab073e9c3a263ea114a4ef", "type": "electric_scooter", "is_reserved": 0, "lon": -77.01023183333334}, {"fusion_lat": 0.0, "name": "5a2fa167018e48acc5a7bdc4a4275fd2", "is_disabled": 0, "rental_uris": {"android": "https://dc.lft.to/lastmile_qr_scan", "ios": "https://dc.lft.to/lastmile_qr_scan"}, "fusion_lon": 0.0, "lat": 38.92297716666667, "bike_id": "5a2fa167018e48acc5a7bdc4a4275fd2", "type": "electric_scooter", "is_reserved": 0, "lon": -77.042708}, {"fusion_lat": 0.0, "name": "8533d3a560a1f96bfc013b67296ba2d8", "is_disabled": 0, "rental_uris": {"android": "https://dc.lft.to/lastmile_qr_scan", "ios": "https://dc.lft.to/lastmile_qr_scan"}, "fusion_lon": 0.0, "lat": 38.922434333333335, "bike_id": "8533d3a560a1f96bfc013b67296ba2d8", "type": "electric_scooter", "is_reserved": 0, "lon": -77.029729}, {"fusion_lat": 0.0, "name": "432a95ea0385e605fbf64c939a750df1", "is_disabled": 0, "rental_uris": {"android": "https://dc.lft.to/lastmile_qr_scan", "ios": "https://dc.lft.to/lastmile_qr_scan"}, "fusion_lon": 0.0, "lat": 38.87918783333333, "bike_id": "432a95ea0385e605fbf64c939a750df1", "type": "electric_scooter", "is_reserved": 0, "lon": -76.944809}, {"fusion_lat": 0.0, "name": "4feb683616d8073cb06feb0d4c64272f", "is_disabled": 0, "rental_uris": {"android": "https://dc.lft.to/lastmile_qr_scan", "ios": "https://dc.lft.to/lastmile_qr_scan"}, "fusion_lon": 0.0, "lat": 38.928110333333336, "bike_id": "4feb683616d8073cb06feb0d4c64272f", "type": "electric_scooter", "is_reserved": 0, "lon": -77.02669533333334}, {"fusion_lat": 0.0, "name": "5ec37fa3af89c95e1526462771233bbe", "is_disabled": 0, "rental_uris": {"android": "https://dc.lft.to/lastmile_qr_scan", "ios": "https://dc.lft.to/lastmile_qr_scan"}, "fusion_lon": 0.0, "lat": 38.88902816666667, "bike_id": "5ec37fa3af89c95e1526462771233bbe", "type": "electric_scooter", "is_reserved": 0, "lon": -76.9919795}, {"fusion_lat": 0.0, "name": "9710f4abafdecb3c18d4d410bbccc4ae", "is_disabled": 0, "rental_uris": {"android": "https://dc.lft.to/lastmile_qr_scan", "ios": "https://dc.lft.to/lastmile_qr_scan"}, "fusion_lon": 0.0, "lat": 38.9111715, "bike_id": "9710f4abafdecb3c18d4d410bbccc4ae", "type": "electric_scooter", "is_reserved": 0, "lon": -77.00664983333333}, {"fusion_lat": 0.0, "name": "38f3793ca1a251408efa63a6135afffd", "is_disabled": 0, "rental_uris": {"android": "https://dc.lft.to/lastmile_qr_scan", "ios": "https://dc.lft.to/lastmile_qr_scan"}, "fusion_lon": 0.0, "lat": 38.930712, "bike_id": "38f3793ca1a251408efa63a6135afffd", "type": "electric_scooter", "is_reserved": 0, "lon": -77.01952016666667}, {"fusion_lat": 0.0, "name": "cbf46890f5df27acf7a5c4ba30058eba", "is_disabled": 0, "rental_uris": {"android": "https://dc.lft.to/lastmile_qr_scan", "ios": "https://dc.lft.to/lastmile_qr_scan"}, "fusion_lon": 0.0, "lat": 38.91566533333334, "bike_id": "cbf46890f5df27acf7a5c4ba30058eba", "type": "electric_scooter", "is_reserved": 0, "lon": -77.03146483333333}, {"fusion_lat": 0.0, "name": "9dffee52c1511aa5bcaddc61b92ffdd5", "is_disabled": 0, "rental_uris": {"android": "https://dc.lft.to/lastmile_qr_scan", "ios": "https://dc.lft.to/lastmile_qr_scan"}, "fusion_lon": 0.0, "lat": 38.92336733333333, "bike_id": "9dffee52c1511aa5bcaddc61b92ffdd5", "type": "electric_scooter", "is_reserved": 0, "lon": -77.03617333333334}, {"fusion_lat": 0.0, "name": "83e326a1ddc100afa5f269e97317de48", "is_disabled": 0, "rental_uris": {"android": "https://dc.lft.to/lastmile_qr_scan", "ios": "https://dc.lft.to/lastmile_qr_scan"}, "fusion_lon": 0.0, "lat": 38.92050166666667, "bike_id": "83e326a1ddc100afa5f269e97317de48", "type": "electric_scooter", "is_reserved": 0, "lon": -77.02198533333333}, {"fusion_lat": 0.0, "name": "e4015f6ce206ddf167f2266a2cf984fc", "is_disabled": 0, "rental_uris": {"android": "https://dc.lft.to/lastmile_qr_scan", "ios": "https://dc.lft.to/lastmile_qr_scan"}, "fusion_lon": 0.0, "lat": 38.949521, "bike_id": "e4015f6ce206ddf167f2266a2cf984fc", "type": "electric_scooter", "is_reserved": 0, "lon": -77.02311366666666}, {"fusion_lat": 0.0, "name": "ab4bfa3291e61b4ce3b48c2c14453979", "is_disabled": 0, "rental_uris": {"android": "https://dc.lft.to/lastmile_qr_scan", "ios": "https://dc.lft.to/lastmile_qr_scan"}, "fusion_lon": 0.0, "lat": 38.909782666666665, "bike_id": "ab4bfa3291e61b4ce3b48c2c14453979", "type": "electric_scooter", "is_reserved": 0, "lon": -77.03172916666666}, {"fusion_lat": 0.0, "name": "341908d5a927cb97fa6e86d91a748e7f", "is_disabled": 0, "rental_uris": {"android": "https://dc.lft.to/lastmile_qr_scan", "ios": "https://dc.lft.to/lastmile_qr_scan"}, "fusion_lon": 0.0, "lat": 38.89426983333333, "bike_id": "341908d5a927cb97fa6e86d91a748e7f", "type": "electric_scooter", "is_reserved": 0, "lon": -77.0009995}, {"fusion_lat": 0.0, "name": "97963159094e5466cc11f172f4e783be", "is_disabled": 0, "rental_uris": {"android": "https://dc.lft.to/lastmile_qr_scan", "ios": "https://dc.lft.to/lastmile_qr_scan"}, "fusion_lon": 0.0, "lat": 38.8891375, "bike_id": "97963159094e5466cc11f172f4e783be", "type": "electric_bike", "is_reserved": 0, "lon": -77.04930433333334}, {"fusion_lat": 0.0, "name": "83322b5f61bba5a33bea6dcceef66bfa", "is_disabled": 0, "rental_uris": {"android": "https://dc.lft.to/lastmile_qr_scan", "ios": "https://dc.lft.to/lastmile_qr_scan"}, "fusion_lon": 0.0, "lat": 38.89847683333333, "bike_id": "83322b5f61bba5a33bea6dcceef66bfa", "type": "electric_scooter", "is_reserved": 0, "lon": -76.94623383333334}, {"fusion_lat": 0.0, "name": "e55d8bc834016b846703c5ccfb091484", "is_disabled": 0, "rental_uris": {"android": "https://dc.lft.to/lastmile_qr_scan", "ios": "https://dc.lft.to/lastmile_qr_scan"}, "fusion_lon": 0.0, "lat": 38.877245, "bike_id": "e55d8bc834016b846703c5ccfb091484", "type": "electric_scooter", "is_reserved": 0, "lon": -77.01760383333334}, {"fusion_lat": 0.0, "name": "d56796f1d9925e886c070ed6c815f00a", "is_disabled": 0, "rental_uris": {"android": "https://dc.lft.to/lastmile_qr_scan", "ios": "https://dc.lft.to/lastmile_qr_scan"}, "fusion_lon": 0.0, "lat": 38.962323166666664, "bike_id": "d56796f1d9925e886c070ed6c815f00a", "type": "electric_bike", "is_reserved": 0, "lon": -76.92760916666667}, {"fusion_lat": 0.0, "name": "9c5dd135d4d068da8dd4f54726a31e5f", "is_disabled": 0, "rental_uris": {"android": "https://dc.lft.to/lastmile_qr_scan", "ios": "https://dc.lft.to/lastmile_qr_scan"}, "fusion_lon": 0.0, "lat": 38.923527166666666, "bike_id": "9c5dd135d4d068da8dd4f54726a31e5f", "type": "electric_scooter", "is_reserved": 0, "lon": -77.03366166666666}, {"fusion_lat": 0.0, "name": "309dce00a28b2a36f5a874d0cc132c2c", "is_disabled": 0, "rental_uris": {"android": "https://dc.lft.to/lastmile_qr_scan", "ios": "https://dc.lft.to/lastmile_qr_scan"}, "fusion_lon": 0.0, "lat": 38.917695333333334, "bike_id": "309dce00a28b2a36f5a874d0cc132c2c", "type": "electric_scooter", "is_reserved": 0, "lon": -77.022891}, {"fusion_lat": 0.0, "name": "5ebb83c9ef696198b7a5628787bc02a3", "is_disabled": 0, "rental_uris": {"android": "https://dc.lft.to/lastmile_qr_scan", "ios": "https://dc.lft.to/lastmile_qr_scan"}, "fusion_lon": 0.0, "lat": 38.922283, "bike_id": "5ebb83c9ef696198b7a5628787bc02a3", "type": "electric_scooter", "is_reserved": 0, "lon": -77.046485}, {"fusion_lat": 0.0, "name": "1e8681fcbc5e0658a9d826b0eb08dd7f", "is_disabled": 0, "rental_uris": {"android": "https://dc.lft.to/lastmile_qr_scan", "ios": "https://dc.lft.to/lastmile_qr_scan"}, "fusion_lon": 0.0, "lat": 38.9181395, "bike_id": "1e8681fcbc5e0658a9d826b0eb08dd7f", "type": "electric_scooter", "is_reserved": 0, "lon": -77.02477233333333}, {"fusion_lat": 0.0, "name": "6878490eab66a85ee7705dc369c54856", "is_disabled": 0, "rental_uris": {"android": "https://dc.lft.to/lastmile_qr_scan", "ios": "https://dc.lft.to/lastmile_qr_scan"}, "fusion_lon": 0.0, "lat": 38.912537666666665, "bike_id": "6878490eab66a85ee7705dc369c54856", "type": "electric_scooter", "is_reserved": 0, "lon": -77.00768883333333}, {"fusion_lat": 0.0, "name": "1f3960fb186161183674b8b702b493a7", "is_disabled": 0, "rental_uris": {"android": "https://dc.lft.to/lastmile_qr_scan", "ios": "https://dc.lft.to/lastmile_qr_scan"}, "fusion_lon": 0.0, "lat": 38.992275, "bike_id": "1f3960fb186161183674b8b702b493a7", "type": "electric_bike", "is_reserved": 0, "lon": -76.94403483333333}, {"fusion_lat": 0.0, "name": "99034ca207c185d8f37ee062f90f9897", "is_disabled": 0, "rental_uris": {"android": "https://dc.lft.to/lastmile_qr_scan", "ios": "https://dc.lft.to/lastmile_qr_scan"}, "fusion_lon": 0.0, "lat": 38.90139766666667, "bike_id": "99034ca207c185d8f37ee062f90f9897", "type": "electric_scooter", "is_reserved": 0, "lon": -76.99051733333333}, {"fusion_lat": 0.0, "name": "44b89a4508a348588fbeff8f7098683f", "is_disabled": 0, "rental_uris": {"android": "https://dc.lft.to/lastmile_qr_scan", "ios": "https://dc.lft.to/lastmile_qr_scan"}, "fusion_lon": 0.0, "lat": 38.85513983333333, "bike_id": "44b89a4508a348588fbeff8f7098683f", "type": "electric_bike", "is_reserved": 0, "lon": -77.11997633333333}, {"fusion_lat": 0.0, "name": "60e84046fca12e20607667c4dbbe8f45", "is_disabled": 0, "rental_uris": {"android": "https://dc.lft.to/lastmile_qr_scan", "ios": "https://dc.lft.to/lastmile_qr_scan"}, "fusion_lon": 0.0, "lat": 38.91522483333333, "bike_id": "60e84046fca12e20607667c4dbbe8f45", "type": "electric_scooter", "is_reserved": 0, "lon": -77.01329633333333}, {"fusion_lat": 0.0, "name": "e473c0e7b4e413b8c050d5fab543523a", "is_disabled": 0, "rental_uris": {"android": "https://dc.lft.to/lastmile_qr_scan", "ios": "https://dc.lft.to/lastmile_qr_scan"}, "fusion_lon": 0.0, "lat": 38.93711966666667, "bike_id": "e473c0e7b4e413b8c050d5fab543523a", "type": "electric_scooter", "is_reserved": 0, "lon": -77.02529766666666}, {"fusion_lat": 0.0, "name": "344dfda19ea6978f5cc4af5698c76515", "is_disabled": 0, "rental_uris": {"android": "https://dc.lft.to/lastmile_qr_scan", "ios": "https://dc.lft.to/lastmile_qr_scan"}, "fusion_lon": 0.0, "lat": 38.90265466666666, "bike_id": "344dfda19ea6978f5cc4af5698c76515", "type": "electric_scooter", "is_reserved": 0, "lon": -77.03962183333333}, {"fusion_lat": 0.0, "name": "c0c1e6354a103c70e43c7118e58066af", "is_disabled": 0, "rental_uris": {"android": "https://dc.lft.to/lastmile_qr_scan", "ios": "https://dc.lft.to/lastmile_qr_scan"},