{"data": {"bikes": [{"lon": -77.0234575, "bike_id": "118d09177c954e95e67785914bf5cd40", "lat": 38.922518333333336, "fusion_lon": 0.0, "fusion_lat": 0.0, "type": "electric_scooter", "name": "118d09177c954e95e67785914bf5cd40", "is_disabled": 0, "rental_uris": {"ios": "https://dc.lft.to/lastmile_qr_scan", "android": "https://dc.lft.to/lastmile_qr_scan"}, "is_reserved": 0}, {"lon": -76.9652575, "bike_id": "ef51f855e4a8904adff2b98614419708", "lat": 38.8748115, "fusion_lon": 0.0, "fusion_lat": 0.0, "type": "electric_scooter", "name": "ef51f855e4a8904adff2b98614419708", "is_disabled": 0, "rental_uris": {"ios": "https://dc.lft.to/lastmile_qr_scan", "android": "https://dc.lft.to/lastmile_qr_scan"}, "is_reserved": 0}, {"lon": -77.04555516666667, "bike_id": "819678c37fed1325822083d6d6d0b330", "lat": 38.91928566666667, "fusion_lon": 0.0, "fusion_lat": 0.0, "type": "electric_scooter", "name": "819678c37fed1325822083d6d6d0b330", "is_disabled": 0, "rental_uris": {"ios": "https://dc.lft.to/lastmile_qr_scan", "android": "https://dc.lft.to/lastmile_qr_scan"}, "is_reserved": 0}, {"lon": -77.00917933333334, "bike_id": "45974f09ebfb42601483204a0455917e", "lat": 38.896507666666665, "fusion_lon": 0.0, "fusion_lat": 0.0, "type": "electric_scooter", "name": "45974f09ebfb42601483204a0455917e", "is_disabled": 0, "rental_uris": {"ios": "https://dc.lft.to/lastmile_qr_scan", "android": "https://dc.lft.to/lastmile_qr_scan"}, "is_reserved": 0}, {"lon": -77.04245333333333, "bike_id": "8a3db35cc014d6134ef5d4a17f868284", "lat": 38.906555833333336, "fusion_lon": 0.0, "fusion_lat": 0.0, "type": "electric_scooter", "name": "8a3db35cc014d6134ef5d4a17f868284", "is_disabled": 0, "rental_uris": {"ios": "https://dc.lft.to/lastmile_qr_scan", "android": "https://dc.lft.to/lastmile_qr_scan"}, "is_reserved": 0}, {"lon": -76.99202483333333, "bike_id": "94d05450c7b607febbf493a476780dc8", "lat": 38.8984105, "fusion_lon": 0.0, "fusion_lat": 0.0, "type": "electric_scooter", "name": "94d05450c7b607febbf493a476780dc8", "is_disabled": 0, "rental_uris": {"ios": "https://dc.lft.to/lastmile_qr_scan", "android": "https://dc.lft.to/lastmile_qr_scan"}, "is_reserved": 0}, {"lon": -77.021701, "bike_id": "d1156b99ec08e8186c3966b7d8d32c57", "lat": 38.942945333333334, "fusion_lon": 0.0, "fusion_lat": 0.0, "type": "electric_scooter", "name": "d1156b99ec08e8186c3966b7d8d32c57", "is_disabled": 0, "rental_uris": {"ios": "https://dc.lft.to/lastmile_qr_scan", "android": "https://dc.lft.to/lastmile_qr_scan"}, "is_reserved": 0}, {"lon": -77.01811783333333, "bike_id": "479450531589e83ee329a1141c126b6a", "lat": 38.92029566666667, "fusion_lon": 0.0, "fusion_lat": 0.0, "type": "electric_scooter", "name": "479450531589e83ee329a1141c126b6a", "is_disabled": 0, "rental_uris": {"ios": "https://dc.lft.to/lastmile_qr_scan", "android": "https://dc.lft.to/lastmile_qr_scan"}, "is_reserved": 0}, {"lon": -77.0045845, "bike_id": "65e984334239f8bfd6429ae86228b5e5", "lat": 38.911927666666664, "fusion_lon": 0.0, "fusion_lat": 0.0, "type": "electric_scooter", "name": "65e984334239f8bfd6429ae86228b5e5", "is_disabled": 0, "rental_uris": {"ios": "https://dc.lft.to/lastmile_qr_scan", "android": "https://dc.lft.to/lastmile_qr_scan"}, "is_reserved": 0}, {"lon": -76.94631466666667, "bike_id": "4a83521d7c49c5df4a416741e55f3a08", "lat": 38.89834316666666, "fusion_lon": 0.0, "fusion_lat": 0.0, "type": "electric_scooter", "name": "4a83521d7c49c5df4a416741e55f3a08", "is_disabled": 0, "rental_uris": {"ios": "https://dc.lft.to/lastmile_qr_scan", "android": "https://dc.lft.to/lastmile_qr_scan"}, "is_reserved": 0}, {"lon": -77.03941216666666, "bike_id": "b931d9671b11ec9007c8b28221d1ff91", "lat": 38.9194115, "fusion_lon": 0.0, "fusion_lat": 0.0, "type": "electric_scooter", "name": "b931d9671b11ec9007c8b28221d1ff91", "is_disabled": 0, "rental_uris": {"ios": "https://dc.lft.to/lastmile_qr_scan", "android": "https://dc.lft.to/lastmile_qr_scan"}, "is_reserved": 0}, {"lon": -77.0766735, "bike_id": "580ea87ad20ffda4c0fa1f40f2b2f340", "lat": 38.9431865, "fusion_lon": 0.0, "fusion_lat": 0.0, "type": "electric_scooter", "name": "580ea87ad20ffda4c0fa1f40f2b2f340", "is_disabled": 0, "rental_uris": {"ios": "https://dc.lft.to/lastmile_qr_scan", "android": "https://dc.lft.to/lastmile_qr_scan"}, "is_reserved": 0}, {"lon": -76.99858066666667, "bike_id": "98246dcd6fd913c9d883ba3d92e596da", "lat": 38.90777583333333, "fusion_lon": 0.0, "fusion_lat": 0.0, "type": "electric_scooter", "name": "98246dcd6fd913c9d883ba3d92e596da", "is_disabled": 0, "rental_uris": {"ios": "https://dc.lft.to/lastmile_qr_scan", "android": "https://dc.lft.to/lastmile_qr_scan"}, "is_reserved": 0}, {"lon": -77.05611066666667, "bike_id": "777fe9280822fbfcb44b2fff5c134230", "lat": 38.9233815, "fusion_lon": 0.0, "fusion_lat": 0.0, "type": "electric_scooter", "name": "777fe9280822fbfcb44b2fff5c134230", "is_disabled": 0, "rental_uris": {"ios": "https://dc.lft.to/lastmile_qr_scan", "android": "https://dc.lft.to/lastmile_qr_scan"}, "is_reserved": 0}, {"lon": -77.0261255, "bike_id": "dff60adca3e5671306e6c27f27cb1b07", "lat": 38.90238333333333, "fusion_lon": 0.0, "fusion_lat": 0.0, "type": "electric_scooter", "name": "dff60adca3e5671306e6c27f27cb1b07", "is_disabled": 0, "rental_uris": {"ios": "https://dc.lft.to/lastmile_qr_scan", "android": "https://dc.lft.to/lastmile_qr_scan"}, "is_reserved": 0}, {"lon": -77.0328185, "bike_id": "5b0230fda0edfaaa933a004c1e6d6688", "lat": 38.93645683333333, "fusion_lon": 0.0, "fusion_lat": 0.0, "type": "electric_scooter", "name": "5b0230fda0edfaaa933a004c1e6d6688", "is_disabled": 0, "rental_uris": {"ios": "https://dc.lft.to/lastmile_qr_scan", "android": "https://dc.lft.to/lastmile_qr_scan"}, "is_reserved": 0}, {"lon": -76.9916705, "bike_id": "f40257c1a84dc0c5c6e416c4cc38a368", "lat": 38.909703666666665, "fusion_lon": 0.0, "fusion_lat": 0.0, "type": "electric_scooter", "name": "f40257c1a84dc0c5c6e416c4cc38a368", "is_disabled": 0, "rental_uris": {"ios": "https://dc.lft.to/lastmile_qr_scan", "android": "https://dc.lft.to/lastmile_qr_scan"}, "is_reserved": 0}, {"lon": -77.0734275, "bike_id": "32466efe8b006ff748405c2fb897284b", "lat": 38.934935333333335, "fusion_lon": 0.0, "fusion_lat": 0.0, "type": "electric_scooter", "name": "32466efe8b006ff748405c2fb897284b", "is_disabled": 0, "rental_uris": {"ios": "https://dc.lft.to/lastmile_qr_scan", "android": "https://dc.lft.to/lastmile_qr_scan"}, "is_reserved": 0}, {"lon": -77.0593935, "bike_id": "c955c583832b17d02d2a4364f4bbce6a", "lat": 38.911922, "fusion_lon": 0.0, "fusion_lat": 0.0, "type": "electric_bike", "name": "c955c583832b17d02d2a4364f4bbce6a", "is_disabled": 0, "rental_uris": {"ios": "https://dc.lft.to/lastmile_qr_scan", "android": "https://dc.lft.to/lastmile_qr_scan"}, "is_reserved": 0}, {"lon": -76.95659083333334, "bike_id": "ff978295a8e641fe9cbdf599d2293b75", "lat": 38.8955495, "fusion_lon": 0.0, "fusion_lat": 0.0, "type": "electric_scooter", "name": "ff978295a8e641fe9cbdf599d2293b75", "is_disabled": 0, "rental_uris": {"ios": "https://dc.lft.to/lastmile_qr_scan", "android": "https://dc.lft.to/lastmile_qr_scan"}, "is_reserved": 0}, {"lon": -77.17842516666667, "bike_id": "b465b5119a4b33bc3e04545ace74ca87", "lat": 39.088592, "fusion_lon": 0.0, "fusion_lat": 0.0, "type": "electric_bike", "name": "b465b5119a4b33bc3e04545ace74ca87", "is_disabled": 0, "rental_uris": {"ios": "https://dc.lft.to/lastmile_qr_scan", "android": "https://dc.lft.to/lastmile_qr_scan"}, "is_reserved": 0}, {"lon": -77.00045533333333, "bike_id": "78bdaebce266b649cd7e9506957cbb3d", "lat": 38.89654816666667, "fusion_lon": 0.0, "fusion_lat": 0.0, "type": "electric_scooter", "name": "78bdaebce266b649cd7e9506957cbb3d", "is_disabled": 0, "rental_uris": {"ios": "https://dc.lft.to/lastmile_qr_scan", "android": "https://dc.lft.to/lastmile_qr_scan"}, "is_reserved": 0}, {"lon": -77.03291316666666, "bike_id": "8372979f86175cb357160b1fa7c0892d", "lat": 38.95650066666666, "fusion_lon": 0.0, "fusion_lat": 0.0, "type": "electric_scooter", "name": "8372979f86175cb357160b1fa7c0892d", "is_disabled": 0, "rental_uris": {"ios": "https://dc.lft.to/lastmile_qr_scan", "android": "https://dc.lft.to/lastmile_qr_scan"}, "is_reserved": 0}, {"lon": -77.05169466666666, "bike_id": "9beb4a671a4eff709fdfd0365ff9992b", "lat": 38.842930833333334, "fusion_lon": 0.0, "fusion_lat": 0.0, "type": "electric_bike", "name": "9beb4a671a4eff709fdfd0365ff9992b", "is_disabled": 0, "rental_uris": {"ios": "https://dc.lft.to/lastmile_qr_scan", "android": "https://dc.lft.to/lastmile_qr_scan"}, "is_reserved": 0}, {"lon": -77.03365383333333, "bike_id": "01813055f7954eb3850b554de182ecb8", "lat": 38.935278333333336, "fusion_lon": 0.0, "fusion_lat": 0.0, "type": "electric_scooter", "name": "01813055f7954eb3850b554de182ecb8", "is_disabled": 0, "rental_uris": {"ios": "https://dc.lft.to/lastmile_qr_scan", "android": "https://dc.lft.to/lastmile_qr_scan"}, "is_reserved": 0}, {"lon": -76.962213, "bike_id": "64440ece826da7ae539013518896ce31", "lat": 38.87784416666667, "fusion_lon": 0.0, "fusion_lat": 0.0, "type": "electric_scooter", "name": "64440ece826da7ae539013518896ce31", "is_disabled": 0, "rental_uris": {"ios": "https://dc.lft.to/lastmile_qr_scan", "android": "https://dc.lft.to/lastmile_qr_scan"}, "is_reserved": 0}, {"lon": -77.07321483333334, "bike_id": "70f82b504b7e63ba27a7dcf2eda6974e", "lat": 38.91402266666667, "fusion_lon": 0.0, "fusion_lat": 0.0, "type": "electric_scooter", "name": "70f82b504b7e63ba27a7dcf2eda6974e", "is_disabled": 0, "rental_uris": {"ios": "https://dc.lft.to/lastmile_qr_scan", "android": "https://dc.lft.to/lastmile_qr_scan"}, "is_reserved": 0}, {"lon": -77.04241083333334, "bike_id": "fb0ed4f816d3722206cc69ec63d3eb9c", "lat": 38.92432433333333, "fusion_lon": 0.0, "fusion_lat": 0.0, "type": "electric_scooter", "name": "fb0ed4f816d3722206cc69ec63d3eb9c", "is_disabled": 0, "rental_uris": {"ios": "https://dc.lft.to/lastmile_qr_scan", "android": "https://dc.lft.to/lastmile_qr_scan"}, "is_reserved": 0}, {"lon": -77.03865233333333, "bike_id": "9a801a45c99153b8b24c425ebdca3a7e", "lat": 38.9125865, "fusion_lon": 0.0, "fusion_lat": 0.0, "type": "electric_scooter", "name": "9a801a45c99153b8b24c425ebdca3a7e", "is_disabled": 0, "rental_uris": {"ios": "https://dc.lft.to/lastmile_qr_scan", "android": "https://dc.lft.to/lastmile_qr_scan"}, "is_reserved": 0}, {"lon": -77.03326133333333, "bike_id": "239b8894a9916e6ecbb47538a76f258d", "lat": 38.9389795, "fusion_lon": 0.0, "fusion_lat": 0.0, "type": "electric_scooter", "name": "239b8894a9916e6ecbb47538a76f258d", "is_disabled": 0, "rental_uris": {"ios": "https://dc.lft.to/lastmile_qr_scan", "android": "https://dc.lft.to/lastmile_qr_scan"}, "is_reserved": 0}, {"lon": -77.04470166666667, "bike_id": "e532d5b6d1ba15eade2415e4d61f4d73", "lat": 38.91885166666667, "fusion_lon": 0.0, "fusion_lat": 0.0, "type": "electric_scooter", "name": "e532d5b6d1ba15eade2415e4d61f4d73", "is_disabled": 0, "rental_uris": {"ios": "https://dc.lft.to/lastmile_qr_scan", "android": "https://dc.lft.to/lastmile_qr_scan"}, "is_reserved": 0}, {"lon": -77.03864983333334, "bike_id": "953957e46ac559b81ec1d9df847e4dac", "lat": 38.9155465, "fusion_lon": 0.0, "fusion_lat": 0.0, "type": "electric_scooter", "name": "953957e46ac559b81ec1d9df847e4dac", "is_disabled": 0, "rental_uris": {"ios": "https://dc.lft.to/lastmile_qr_scan", "android": "https://dc.lft.to/lastmile_qr_scan"}, "is_reserved": 0}, {"lon": -77.04546466666666, "bike_id": "3df15fb063d0f1d2d1ea37d98f13d94e", "lat": 38.934066666666666, "fusion_lon": 0.0, "fusion_lat": 0.0, "type": "electric_scooter", "name": "3df15fb063d0f1d2d1ea37d98f13d94e", "is_disabled": 0, "rental_uris": {"ios": "https://dc.lft.to/lastmile_qr_scan", "android": "https://dc.lft.to/lastmile_qr_scan"}, "is_reserved": 0}, {"lon": -77.02341183333333, "bike_id": "e40f31de52f76124741faac704342492", "lat": 38.91769033333333, "fusion_lon": 0.0, "fusion_lat": 0.0, "type": "electric_scooter", "name": "e40f31de52f76124741faac704342492", "is_disabled": 0, "rental_uris": {"ios": "https://dc.lft.to/lastmile_qr_scan", "android": "https://dc.lft.to/lastmile_qr_scan"}, "is_reserved": 0}, {"lon": -77.02283883333334, "bike_id": "9d083c5a795c0f252efa4894379ac385", "lat": 38.92688966666667, "fusion_lon": 0.0, "fusion_lat": 0.0, "type": "electric_scooter", "name": "9d083c5a795c0f252efa4894379ac385", "is_disabled": 0, "rental_uris": {"ios": "https://dc.lft.to/lastmile_qr_scan", "android": "https://dc.lft.to/lastmile_qr_scan"}, "is_reserved": 0}, {"lon": -77.0174915, "bike_id": "527443472b614b07aabbb7a77c5653fc", "lat": 38.904139666666666, "fusion_lon": 0.0, "fusion_lat": 0.0, "type": "electric_scooter", "name": "527443472b614b07aabbb7a77c5653fc", "is_disabled": 0, "rental_uris": {"ios": "https://dc.lft.to/lastmile_qr_scan", "android": "https://dc.lft.to/lastmile_qr_scan"}, "is_reserved": 0}, {"lon": -77.05723833333333, "bike_id": "14a8cab8902b00262f526123a769d691", "lat": 38.933713, "fusion_lon": 0.0, "fusion_lat": 0.0, "type": "electric_scooter", "name": "14a8cab8902b00262f526123a769d691", "is_disabled": 0, "rental_uris": {"ios": "https://dc.lft.to/lastmile_qr_scan", "android": "https://dc.lft.to/lastmile_qr_scan"}, "is_reserved": 0}, {"lon": -77.0461285, "bike_id": "d65f405440440a2df9c78db7d7e5c101", "lat": 38.905579, "fusion_lon": 0.0, "fusion_lat": 0.0, "type": "electric_scooter", "name": "d65f405440440a2df9c78db7d7e5c101", "is_disabled": 0, "rental_uris": {"ios": "https://dc.lft.to/lastmile_qr_scan", "android": "https://dc.lft.to/lastmile_qr_scan"}, "is_reserved": 0}, {"lon": -77.0091655, "bike_id": "b5b883f41514a74ef1fe62e8cbb65a5f", "lat": 38.896495333333334, "fusion_lon": 0.0, "fusion_lat": 0.0, "type": "electric_scooter", "name": "b5b883f41514a74ef1fe62e8cbb65a5f", "is_disabled": 0, "rental_uris": {"ios": "https://dc.lft.to/lastmile_qr_scan", "android": "https://dc.lft.to/lastmile_qr_scan"}, "is_reserved": 0}, {"lon": -77.00154166666667, "bike_id": "3606df0897300ef65d1991d122ca3ee2", "lat": 38.889968333333336, "fusion_lon": 0.0, "fusion_lat": 0.0, "type": "electric_scooter", "name": "3606df0897300ef65d1991d122ca3ee2", "is_disabled": 0, "rental_uris": {"ios": "https://dc.lft.to/lastmile_qr_scan", "android": "https://dc.lft.to/lastmile_qr_scan"}, "is_reserved": 0}, {"lon": -77.02952266666667, "bike_id": "eab2048b775f0d1d9045579554124cb0", "lat": 38.9124795, "fusion_lon": 0.0, "fusion_lat": 0.0, "type": "electric_scooter", "name": "eab2048b775f0d1d9045579554124cb0", "is_disabled": 0, "rental_uris": {"ios": "https://dc.lft.to/lastmile_qr_scan", "android": "https://dc.lft.to/lastmile_qr_scan"}, "is_reserved": 0}, {"lon": -77.02267266666667, "bike_id": "717b9ee3c6f1d4de2b8df049035c9156", "lat": 38.91636116666667, "fusion_lon": 0.0, "fusion_lat": 0.0, "type": "electric_scooter", "name": "717b9ee3c6f1d4de2b8df049035c9156", "is_disabled": 0, "rental_uris": {"ios": "https://dc.lft.to/lastmile_qr_scan", "android": "https://dc.lft.to/lastmile_qr_scan"}, "is_reserved": 0}, {"lon": -77.03864083333333, "bike_id": "de81c0c61c634342b782791d2a7db546", "lat": 38.912608666666664, "fusion_lon": 0.0, "fusion_lat": 0.0, "type": "electric_scooter", "name": "de81c0c61c634342b782791d2a7db546", "is_disabled": 0, "rental_uris": {"ios": "https://dc.lft.to/lastmile_qr_scan", "android": "https://dc.lft.to/lastmile_qr_scan"}, "is_reserved": 0}, {"lon": -76.98842833333333, "bike_id": "09f6abe07b297f6b8616fbca4da96e9e", "lat": 38.8428035, "fusion_lon": 0.0, "fusion_lat": 0.0, "type": "electric_bike", "name": "09f6abe07b297f6b8616fbca4da96e9e", "is_disabled": 0, "rental_uris": {"ios": "https://dc.lft.to/lastmile_qr_scan", "android": "https://dc.lft.to/lastmile_qr_scan"}, "is_reserved": 0}, {"lon": -77.03645633333333, "bike_id": "0482e08e4019a83c8cf920977eff2acc", "lat": 38.90288433333333, "fusion_lon": 0.0, "fusion_lat": 0.0, "type": "electric_scooter", "name": "0482e08e4019a83c8cf920977eff2acc", "is_disabled": 0, "rental_uris": {"ios": "https://dc.lft.to/lastmile_qr_scan", "android": "https://dc.lft.to/lastmile_qr_scan"}, "is_reserved": 0}, {"lon": -77.02420066666667, "bike_id": "cea1dff73377a6387f55c9a6afd25d27", "lat": 38.91787883333333, "fusion_lon": 0.0, "fusion_lat": 0.0, "type": "electric_scooter", "name": "cea1dff73377a6387f55c9a6afd25d27", "is_disabled": 0, "rental_uris": {"ios": "https://dc.lft.to/lastmile_qr_scan", "android": "https://dc.lft.to/lastmile_qr_scan"}, "is_reserved": 0}, {"lon": -77.01777583333333, "bike_id": "a63e343b344313eb4d602ae01228d3f5", "lat": 38.90281366666667, "fusion_lon": 0.0, "fusion_lat": 0.0, "type": "electric_scooter", "name": "a63e343b344313eb4d602ae01228d3f5", "is_disabled": 0, "rental_uris": {"ios": "https://dc.lft.to/lastmile_qr_scan", "android": "https://dc.lft.to/lastmile_qr_scan"}, "is_reserved": 0}, {"lon": -77.02360983333334, "bike_id": "ba8975bb52737e16fabf0eb82397e380", "lat": 38.8922125, "fusion_lon": 0.0, "fusion_lat": 0.0, "type": "electric_scooter", "name": "ba8975bb52737e16fabf0eb82397e380", "is_disabled": 0, "rental_uris": {"ios": "https://dc.lft.to/lastmile_qr_scan", "android": "https://dc.lft.to/lastmile_qr_scan"}, "is_reserved": 0}, {"lon": -77.000545, "bike_id": "8670eebbec1e2656983058269937e952", "lat": 38.9239765, "fusion_lon": 0.0, "fusion_lat": 0.0, "type": "electric_scooter", "name": "8670eebbec1e2656983058269937e952", "is_disabled": 0, "rental_uris": {"ios": "https://dc.lft.to/lastmile_qr_scan", "android": "https://dc.lft.to/lastmile_qr_scan"}, "is_reserved": 0}, {"lon": -76.97049816666667, "bike_id": "329e4bc41ffe49d28a269f6d25f2467d", "lat": 38.8977775, "fusion_lon": 0.0, "fusion_lat": 0.0, "type": "electric_scooter", "name": "329e4bc41ffe49d28a269f6d25f2467d", "is_disabled": 0, "rental_uris": {"ios": "https://dc.lft.to/lastmile_qr_scan", "android": "https://dc.lft.to/lastmile_qr_scan"}, "is_reserved": 0}, {"lon": -77.022627, "bike_id": "c1ba3d1064532e2333505ad055dbe5fd", "lat": 38.8946695, "fusion_lon": 0.0, "fusion_lat": 0.0, "type": "electric_scooter", "name": "c1ba3d1064532e2333505ad055dbe5fd", "is_disabled": 0, "rental_uris": {"ios": "https://dc.lft.to/lastmile_qr_scan", "android": "https://dc.lft.to/lastmile_qr_scan"}, "is_reserved": 0}, {"lon": -77.02159966666666, "bike_id": "0f19e8aa446c121c6aaa1cdd077fafa2", "lat": 38.909741833333335, "fusion_lon": 0.0, "fusion_lat": 0.0, "type": "electric_scooter", "name": "0f19e8aa446c121c6aaa1cdd077fafa2", "is_disabled": 0, "rental_uris": {"ios": "https://dc.lft.to/lastmile_qr_scan", "android": "https://dc.lft.to/lastmile_qr_scan"}, "is_reserved": 0}, {"lon": -77.02346516666667, "bike_id": "bd979b65bb801a842acc468c371b5d60", "lat": 38.9225205, "fusion_lon": 0.0, "fusion_lat": 0.0, "type": "electric_scooter", "name": "bd979b65bb801a842acc468c371b5d60", "is_disabled": 0, "rental_uris": {"ios": "https://dc.lft.to/lastmile_qr_scan", "android": "https://dc.lft.to/lastmile_qr_scan"}, "is_reserved": 0}, {"lon": -76.98105733333334, "bike_id": "64570c4bad28f21a1e012e3e4c6045d7", "lat": 38.90417133333333, "fusion_lon": 0.0, "fusion_lat": 0.0, "type": "electric_scooter", "name": "64570c4bad28f21a1e012e3e4c6045d7", "is_disabled": 0, "rental_uris": {"ios": "https://dc.lft.to/lastmile_qr_scan", "android": "https://dc.lft.to/lastmile_qr_scan"}, "is_reserved": 0}, {"lon": -76.98688716666666, "bike_id": "aae5102b2ccaf628ae1bc8355f783960", "lat": 38.912194166666666, "fusion_lon": 0.0, "fusion_lat": 0.0, "type": "electric_scooter", "name": "aae5102b2ccaf628ae1bc8355f783960", "is_disabled": 0, "rental_uris": {"ios": "https://dc.lft.to/lastmile_qr_scan", "android": "https://dc.lft.to/lastmile_qr_scan"}, "is_reserved": 0}, {"lon": -77.02585433333333, "bike_id": "cbdb24449d9543e940a7cf6716cae505", "lat": 38.892323833333336, "fusion_lon": 0.0, "fusion_lat": 0.0, "type": "electric_scooter", "name": "cbdb24449d9543e940a7cf6716cae505", "is_disabled": 0, "rental_uris": {"ios": "https://dc.lft.to/lastmile_qr_scan", "android": "https://dc.lft.to/lastmile_qr_scan"}, "is_reserved": 0}, {"lon": -76.9816815, "bike_id": "80bf733dbdfc6ed7765f18cabd2c117c", "lat": 38.904441, "fusion_lon": 0.0, "fusion_lat": 0.0, "type": "electric_scooter", "name": "80bf733dbdfc6ed7765f18cabd2c117c", "is_disabled": 0, "rental_uris": {"ios": "https://dc.lft.to/lastmile_qr_scan", "android": "https://dc.lft.to/lastmile_qr_scan"}, "is_reserved": 0}, {"lon": -77.02162083333333, "bike_id": "9d0371a9f5d465cd64ad9ec9e4194ed1", "lat": 38.893068666666665, "fusion_lon": 0.0, "fusion_lat": 0.0, "type": "electric_scooter", "name": "9d0371a9f5d465cd64ad9ec9e4194ed1", "is_disabled": 0, "rental_uris": {"ios": "https://dc.lft.to/lastmile_qr_scan", "android": "https://dc.lft.to/lastmile_qr_scan"}, "is_reserved": 0}, {"lon": -77.02376816666667, "bike_id": "08ec753eac8ea5de473e6f50fb3cd6e6", "lat": 38.90942916666667, "fusion_lon": 0.0, "fusion_lat": 0.0, "type": "electric_scooter", "name": "08ec753eac8ea5de473e6f50fb3cd6e6", "is_disabled": 0, "rental_uris": {"ios": "https://dc.lft.to/lastmile_qr_scan", "android": "https://dc.lft.to/lastmile_qr_scan"}, "is_reserved": 0}, {"lon": -77.013157, "bike_id": "615ccd30fca06dd91164bba88daaa16c", "lat": 38.87152, "fusion_lon": 0.0, "fusion_lat": 0.0, "type": "electric_scooter", "name": "615ccd30fca06dd91164bba88daaa16c", "is_disabled": 0, "rental_uris": {"ios": "https://dc.lft.to/lastmile_qr_scan", "android": "https://dc.lft.to/lastmile_qr_scan"}, "is_reserved": 0}, {"lon": -77.09867133333333, "bike_id": "e388d50b2758776ec12ee9d976bc838e", "lat": 38.9496945, "fusion_lon": 0.0, "fusion_lat": 0.0, "type": "electric_scooter", "name": "e388d50b2758776ec12ee9d976bc838e", "is_disabled": 0, "rental_uris": {"ios": "https://dc.lft.to/lastmile_qr_scan", "android": "https://dc.lft.to/lastmile_qr_scan"}, "is_reserved": 0}, {"lon": -77.008603, "bike_id": "97966d4e1792082bc5b02b64f206bdb2", "lat": 38.90660466666667, "fusion_lon": 0.0, "fusion_lat": 0.0, "type": "electric_scooter", "name": "97966d4e1792082bc5b02b64f206bdb2", "is_disabled": 0, "rental_uris": {"ios": "https://dc.lft.to/lastmile_qr_scan", "android": "https://dc.lft.to/lastmile_qr_scan"}, "is_reserved": 0}, {"lon": -77.00835266666667, "bike_id": "51c6c6d168675f4b5a8f18644647e759", "lat": 38.9156445, "fusion_lon": 0.0, "fusion_lat": 0.0, "type": "electric_scooter", "name": "51c6c6d168675f4b5a8f18644647e759", "is_disabled": 0, "rental_uris": {"ios": "https://dc.lft.to/lastmile_qr_scan", "android": "https://dc.lft.to/lastmile_qr_scan"}, "is_reserved": 0}, {"lon": -77.04580016666667, "bike_id": "645f9e84acedc5d77b5ded99be977912", "lat": 38.92126866666667, "fusion_lon": 0.0, "fusion_lat": 0.0, "type": "electric_scooter", "name": "645f9e84acedc5d77b5ded99be977912", "is_disabled": 0, "rental_uris": {"ios": "https://dc.lft.to/lastmile_qr_scan", "android": "https://dc.lft.to/lastmile_qr_scan"}, "is_reserved": 0}, {"lon": -76.990044, "bike_id": "12ad25c84bfe563e9caefb2c3b027022", "lat": 38.86505533333333, "fusion_lon": 0.0, "fusion_lat": 0.0, "type": "electric_scooter", "name": "12ad25c84bfe563e9caefb2c3b027022", "is_disabled": 0, "rental_uris": {"ios": "https://dc.lft.to/lastmile_qr_scan", "android": "https://dc.lft.to/lastmile_qr_scan"}, "is_reserved": 0}, {"lon": -77.00593116666667, "bike_id": "25073b80f8e26bb0a5108fa9a456de23", "lat": 38.876217833333335, "fusion_lon": 0.0, "fusion_lat": 0.0, "type": "electric_scooter", "name": "25073b80f8e26bb0a5108fa9a456de23", "is_disabled": 0, "rental_uris": {"ios": "https://dc.lft.to/lastmile_qr_scan", "android": "https://dc.lft.to/lastmile_qr_scan"}, "is_reserved": 0}, {"lon": -77.055663, "bike_id": "4ed930418f9eca4b091591b9009a418c", "lat": 38.8996745, "fusion_lon": 0.0, "fusion_lat": 0.0, "type": "electric_scooter", "name": "4ed930418f9eca4b091591b9009a418c", "is_disabled": 0, "rental_uris": {"ios": "https://dc.lft.to/lastmile_qr_scan", "android": "https://dc.lft.to/lastmile_qr_scan"}, "is_reserved": 0}, {"lon": -76.99545616666667, "bike_id": "cae708311161c9a12ca9ba25827b2344", "lat": 38.862634, "fusion_lon": 0.0, "fusion_lat": 0.0, "type": "electric_scooter", "name": "cae708311161c9a12ca9ba25827b2344", "is_disabled": 0, "rental_uris": {"ios": "https://dc.lft.to/lastmile_qr_scan", "android": "https://dc.lft.to/lastmile_qr_scan"}, "is_reserved": 0}, {"lon": -77.006659, "bike_id": "c4f7ca03b115286b27428681238eda7b", "lat": 38.87640566666666, "fusion_lon": 0.0, "fusion_lat": 0.0, "type": "electric_scooter", "name": "c4f7ca03b115286b27428681238eda7b", "is_disabled": 0, "rental_uris": {"ios": "https://dc.lft.to/lastmile_qr_scan", "android": "https://dc.lft.to/lastmile_qr_scan"}, "is_reserved": 0}, {"lon": -77.00375116666666, "bike_id": "ee1b40e8cbdebfe4f68794abe3df5235", "lat": 38.897338833333336, "fusion_lon": 0.0, "fusion_lat": 0.0, "type": "electric_scooter", "name": "ee1b40e8cbdebfe4f68794abe3df5235", "is_disabled": 0, "rental_uris": {"ios": "https://dc.lft.to/lastmile_qr_scan", "android": "https://dc.lft.to/lastmile_qr_scan"}, "is_reserved": 0}, {"lon": -76.994534, "bike_id": "14d6f599c005e83407b1d7ac7afce2f5", "lat": 38.966223, "fusion_lon": 0.0, "fusion_lat": 0.0, "type": "electric_bike", "name": "14d6f599c005e83407b1d7ac7afce2f5", "is_disabled": 0, "rental_uris": {"ios": "https://dc.lft.to/lastmile_qr_scan", "android": "https://dc.lft.to/lastmile_qr_scan"}, "is_reserved": 0}, {"lon": -77.0343545, "bike_id": "5a651212b0e145889caa54b09a8162d4", "lat": 38.910343833333336, "fusion_lon": 0.0, "fusion_lat": 0.0, "type": "electric_scooter", "name": "5a651212b0e145889caa54b09a8162d4", "is_disabled": 0, "rental_uris": {"ios": "https://dc.lft.to/lastmile_qr_scan", "android": "https://dc.lft.to/lastmile_qr_scan"}, "is_reserved": 0}, {"lon": -77.00054883333334, "bike_id": "c27628707f766da6be5e749e3ebd5d8b", "lat": 38.8964795, "fusion_lon": 0.0, "fusion_lat": 0.0, "type": "electric_scooter", "name": "c27628707f766da6be5e749e3ebd5d8b", "is_disabled": 0, "rental_uris": {"ios": "https://dc.lft.to/lastmile_qr_scan", "android": "https://dc.lft.to/lastmile_qr_scan"}, "is_reserved": 0}, {"lon": -77.0354695, "bike_id": "5908eb6899d802d631e9b1b581c9fc22", "lat": 38.91707616666667, "fusion_lon": 0.0, "fusion_lat": 0.0, "type": "electric_scooter", "name": "5908eb6899d802d631e9b1b581c9fc22", "is_disabled": 0, "rental_uris": {"ios": "https://dc.lft.to/lastmile_qr_scan", "android": "https://dc.lft.to/lastmile_qr_scan"}, "is_reserved": 0}, {"lon": -77.02561383333334, "bike_id": "134e734027c6d2ccb5473ed98834c67c", "lat": 38.925403333333335, "fusion_lon": 0.0, "fusion_lat": 0.0, "type": "electric_scooter", "name": "134e734027c6d2ccb5473ed98834c67c", "is_disabled": 0, "rental_uris": {"ios": "https://dc.lft.to/lastmile_qr_scan", "android": "https://dc.lft.to/lastmile_qr_scan"}, "is_reserved": 0}, {"lon": -76.998115, "bike_id": "69f035f5f89c536fc9e2e595b54f3d58", "lat": 38.907280666666665, "fusion_lon": 0.0, "fusion_lat": 0.0, "type": "electric_scooter", "name": "69f035f5f89c536fc9e2e595b54f3d58", "is_disabled": 0, "rental_uris": {"ios": "https://dc.lft.to/lastmile_qr_scan", "android": "https://dc.lft.to/lastmile_qr_scan"}, "is_reserved": 0}, {"lon": -77.04839233333334, "bike_id": "ad1795a66341c46fd811d99a825aae4c", "lat": 38.90424933333333, "fusion_lon": 0.0, "fusion_lat": 0.0, "type": "electric_scooter", "name": "ad1795a66341c46fd811d99a825aae4c", "is_disabled": 0, "rental_uris": {"ios": "https://dc.lft.to/lastmile_qr_scan", "android": "https://dc.lft.to/lastmile_qr_scan"}, "is_reserved": 0}, {"lon": -77.030423, "bike_id": "7e7e70f3f33b52b62cb608d94eaf1d4a", "lat": 38.9133735, "fusion_lon": 0.0, "fusion_lat": 0.0, "type": "electric_scooter", "name": "7e7e70f3f33b52b62cb608d94eaf1d4a", "is_disabled": 0, "rental_uris": {"ios": "https://dc.lft.to/lastmile_qr_scan", "android": "https://dc.lft.to/lastmile_qr_scan"}, "is_reserved": 0}, {"lon": -77.048644, "bike_id": "4c53865968300735d0599992127f1573", "lat": 38.89225533333333, "fusion_lon": 0.0, "fusion_lat": 0.0, "type": "electric_scooter", "name": "4c53865968300735d0599992127f1573", "is_disabled": 0, "rental_uris": {"ios": "https://dc.lft.to/lastmile_qr_scan", "android": "https://dc.lft.to/lastmile_qr_scan"}, "is_reserved": 0}, {"lon": -76.97459583333334, "bike_id": "425a8282fe9a2dcbf56b21d075678671", "lat": 38.86546666666667, "fusion_lon": 0.0, "fusion_lat": 0.0, "type": "electric_scooter", "name": "425a8282fe9a2dcbf56b21d075678671", "is_disabled": 0, "rental_uris": {"ios": "https://dc.lft.to/lastmile_qr_scan", "android": "https://dc.lft.to/lastmile_qr_scan"}, "is_reserved": 0}, {"lon": -76.991163, "bike_id": "54542bb5e2a04072eeb12a0f665aa417", "lat": 38.933649, "fusion_lon": 0.0, "fusion_lat": 0.0, "type": "electric_scooter", "name": "54542bb5e2a04072eeb12a0f665aa417", "is_disabled": 0, "rental_uris": {"ios": "https://dc.lft.to/lastmile_qr_scan", "android": "https://dc.lft.to/lastmile_qr_scan"}, "is_reserved": 0}, {"lon": -77.045882, "bike_id": "267494ecd4b906cb3da824175fb2fa59", "lat": 38.918631833333336, "fusion_lon": 0.0, "fusion_lat": 0.0, "type": "electric_scooter", "name": "267494ecd4b906cb3da824175fb2fa59", "is_disabled": 0, "rental_uris": {"ios": "https://dc.lft.to/lastmile_qr_scan", "android": "https://dc.lft.to/lastmile_qr_scan"}, "is_reserved": 0}, {"lon": -76.98567516666667, "bike_id": "dde464fe97e9efc2e6e31af96e16e3c6", "lat": 38.883502666666665, "fusion_lon": 0.0, "fusion_lat": 0.0, "type": "electric_scooter", "name": "dde464fe97e9efc2e6e31af96e16e3c6", "is_disabled": 0, "rental_uris": {"ios": "https://dc.lft.to/lastmile_qr_scan", "android": "https://dc.lft.to/lastmile_qr_scan"}, "is_reserved": 0}, {"lon": -77.0510955, "bike_id": "a2268b9739cba480a13fc4476e2f425a", "lat": 39.036716, "fusion_lon": 0.0, "fusion_lat": 0.0, "type": "electric_bike", "name": "a2268b9739cba480a13fc4476e2f425a", "is_disabled": 0, "rental_uris": {"ios": "https://dc.lft.to/lastmile_qr_scan", "android": "https://dc.lft.to/lastmile_qr_scan"}, "is_reserved": 0}, {"lon": -77.02290066666667, "bike_id": "4c7caa5633bfbe9704fdf4d7ac7996a9", "lat": 38.94476683333333, "fusion_lon": 0.0, "fusion_lat": 0.0, "type": "electric_bike", "name": "4c7caa5633bfbe9704fdf4d7ac7996a9", "is_disabled": 0, "rental_uris": {"ios": "https://dc.lft.to/lastmile_qr_scan", "android": "https://dc.lft.to/lastmile_qr_scan"}, "is_reserved": 0}, {"lon": -77.01991083333333, "bike_id": "4f1005b153adaf7e0e43b58e238084ff", "lat": 38.913676, "fusion_lon": 0.0, "fusion_lat": 0.0, "type": "electric_scooter", "name": "4f1005b153adaf7e0e43b58e238084ff", "is_disabled": 0, "rental_uris": {"ios": "https://dc.lft.to/lastmile_qr_scan", "android": "https://dc.lft.to/lastmile_qr_scan"}, "is_reserved": 0}, {"lon": -76.92753716666667, "bike_id": "dd3abd6ad1011e43759d1ad023b54bde", "lat": 38.880630333333336, "fusion_lon": 0.0, "fusion_lat": 0.0, "type": "electric_scooter", "name": "dd3abd6ad1011e43759d1ad023b54bde", "is_disabled": 0, "rental_uris": {"ios": "https://dc.lft.to/lastmile_qr_scan", "android": "https://dc.lft.to/lastmile_qr_scan"}, "is_reserved": 0}, {"lon": -77.0241335, "bike_id": "84171387f9bfd19323b6a84b7428e097", "lat": 38.909754166666666, "fusion_lon": 0.0, "fusion_lat": 0.0, "type": "electric_scooter", "name": "84171387f9bfd19323b6a84b7428e097", "is_disabled": 0, "rental_uris": {"ios": "https://dc.lft.to/lastmile_qr_scan", "android": "https://dc.lft.to/lastmile_qr_scan"}, "is_reserved": 0}, {"lon": -77.0780375, "bike_id": "97f4120a930d9382fe20fe2b39e11fb6", "lat": 38.923745833333335, "fusion_lon": 0.0, "fusion_lat": 0.0, "type": "electric_scooter", "name": "97f4120a930d9382fe20fe2b39e11fb6", "is_disabled": 0, "rental_uris": {"ios": "https://dc.lft.to/lastmile_qr_scan", "android": "https://dc.lft.to/lastmile_qr_scan"}, "is_reserved": 0}, {"lon": -77.034787, "bike_id": "a8f41f61270e9731987bbf5029b806de", "lat": 38.9248555, "fusion_lon": 0.0, "fusion_lat": 0.0, "type": "electric_scooter", "name": "a8f41f61270e9731987bbf5029b806de", "is_disabled": 0, "rental_uris": {"ios": "https://dc.lft.to/lastmile_qr_scan", "android": "https://dc.lft.to/lastmile_qr_scan"}, "is_reserved": 0}, {"lon": -77.02404216666666, "bike_id": "109597ce9a44b838bb2a63dc67813e98", "lat": 38.957131833333335, "fusion_lon": 0.0, "fusion_lat": 0.0, "type": "electric_scooter", "name": "109597ce9a44b838bb2a63dc67813e98", "is_disabled": 0, "rental_uris": {"ios": "https://dc.lft.to/lastmile_qr_scan", "android": "https://dc.lft.to/lastmile_qr_scan"}, "is_reserved": 0}, {"lon": -77.008025, "bike_id": "ba5b0073f585117453236088d8d3001e", "lat": 38.906359, "fusion_lon": 0.0, "fusion_lat": 0.0, "type": "electric_scooter", "name": "ba5b0073f585117453236088d8d3001e", "is_disabled": 0, "rental_uris": {"ios": "https://dc.lft.to/lastmile_qr_scan", "android": "https://dc.lft.to/lastmile_qr_scan"}, "is_reserved": 0}, {"lon": -77.053527, "bike_id": "422df6efeb28a2681f78b43d1aa074d3", "lat": 38.9270645, "fusion_lon": 0.0, "fusion_lat": 0.0, "type": "electric_scooter", "name": "422df6efeb28a2681f78b43d1aa074d3", "is_disabled": 0, "rental_uris": {"ios": "https://dc.lft.to/lastmile_qr_scan", "android": "https://dc.lft.to/lastmile_qr_scan"}, "is_reserved": 0}, {"lon": -77.0229825, "bike_id": "4d1265378066e5833336f354ef72bda5", "lat": 38.90890866666667, "fusion_lon": 0.0, "fusion_lat": 0.0, "type": "electric_scooter", "name": "4d1265378066e5833336f354ef72bda5", "is_disabled": 0, "rental_uris": {"ios": "https://dc.lft.to/lastmile_qr_scan", "android": "https://dc.lft.to/lastmile_qr_scan"}, "is_reserved": 0}, {"lon": -77.005951, "bike_id": "b1386408fba8c23ca9a05c71db4bff30", "lat": 38.90637616666667, "fusion_lon": 0.0, "fusion_lat": 0.0, "type": "electric_scooter", "name": "b1386408fba8c23ca9a05c71db4bff30", "is_disabled": 0, "rental_uris": {"ios": "https://dc.lft.to/lastmile_qr_scan", "android": "https://dc.lft.to/lastmile_qr_scan"}, "is_reserved": 0}, {"lon": -77.02488783333334, "bike_id": "ce781cee94ee966b192f23f8e2b8b3cb", "lat": 38.9386515, "fusion_lon": 0.0, "fusion_lat": 0.0, "type": "electric_scooter", "name": "ce781cee94ee966b192f23f8e2b8b3cb", "is_disabled": 0, "rental_uris": {"ios": "https://dc.lft.to/lastmile_qr_scan", "android": "https://dc.lft.to/lastmile_qr_scan"}, "is_reserved": 0}, {"lon": -77.103282, "bike_id": "8f2fb0c57a44e13799f00a491f3a96d7", "lat": 38.87418733333333, "fusion_lon": 0.0, "fusion_lat": 0.0, "type": "electric_bike", "name": "8f2fb0c57a44e13799f00a491f3a96d7", "is_disabled": 0, "rental_uris": {"ios": "https://dc.lft.to/lastmile_qr_scan", "android": "https://dc.lft.to/lastmile_qr_scan"}, "is_reserved": 0}, {"lon": -77.04540833333333, "bike_id": "0c98b5fce396d4e19d2dab9115ae8d12", "lat": 38.913291666666666, "fusion_lon": 0.0, "fusion_lat": 0.0, "type": "electric_scooter", "name": "0c98b5fce396d4e19d2dab9115ae8d12", "is_disabled": 0, "rental_uris": {"ios": "https://dc.lft.to/lastmile_qr_scan", "android": "https://dc.lft.to/lastmile_qr_scan"}, "is_reserved": 0}, {"lon": -77.05268183333334, "bike_id": "a09e2155c9bebd2adfd93ab8bceb9e1b", "lat": 38.91020733333333, "fusion_lon": 0.0, "fusion_lat": 0.0, "type": "electric_scooter", "name": "a09e2155c9bebd2adfd93ab8bceb9e1b", "is_disabled": 0, "rental_uris": {"ios": "https://dc.lft.to/lastmile_qr_scan", "android": "https://dc.lft.to/lastmile_qr_scan"}, "is_reserved": 0}, {"lon": -77.04401366666667, "bike_id": "367e9b25c8490d57f41f870a2dae643c", "lat": 38.93325933333333, "fusion_lon": 0.0, "fusion_lat": 0.0, "type": "electric_scooter", "name": "367e9b25c8490d57f41f870a2dae643c", "is_disabled": 0, "rental_uris": {"ios": "https://dc.lft.to/lastmile_qr_scan", "android": "https://dc.lft.to/lastmile_qr_scan"}, "is_reserved": 0}, {"lon": -77.0500505, "bike_id": "cc51acbadae4d3c366c46550bf521b5a", "lat": 38.894646, "fusion_lon": 0.0, "fusion_lat": 0.0, "type": "electric_scooter", "name": "cc51acbadae4d3c366c46550bf521b5a", "is_disabled": 0, "rental_uris": {"ios": "https://dc.lft.to/lastmile_qr_scan", "android": "https://dc.lft.to/lastmile_qr_scan"}, "is_reserved": 0}, {"lon": -77.0450375, "bike_id": "4bad3b694d643558f0371000dacaf2d6", "lat": 38.919324333333336, "fusion_lon": 0.0, "fusion_lat": 0.0, "type": "electric_scooter", "name": "4bad3b694d643558f0371000dacaf2d6", "is_disabled": 0, "rental_uris": {"ios": "https://dc.lft.to/lastmile_qr_scan", "android": "https://dc.lft.to/lastmile_qr_scan"}, "is_reserved": 0}, {"lon": -77.05141533333334, "bike_id": "ed2756bd3c0da498d27952777c1373a1", "lat": 38.898583333333335, "fusion_lon": 0.0, "fusion_lat": 0.0, "type": "electric_scooter", "name": "ed2756bd3c0da498d27952777c1373a1", "is_disabled": 0, "rental_uris": {"ios": "https://dc.lft.to/lastmile_qr_scan", "android": "https://dc.lft.to/lastmile_qr_scan"}, "is_reserved": 0}, {"lon": -77.02600316666667, "bike_id": "75b32af85463e040ecf80a7f3164a3ae", "lat": 38.90496916666667, "fusion_lon": 0.0, "fusion_lat": 0.0, "type": "electric_scooter", "name": "75b32af85463e040ecf80a7f3164a3ae", "is_disabled": 0, "rental_uris": {"ios": "https://dc.lft.to/lastmile_qr_scan", "android": "https://dc.lft.to/lastmile_qr_scan"}, "is_reserved": 0}, {"lon": -77.036727, "bike_id": "c1fdecf18453a8f705df7b01da8c3939", "lat": 38.91871666666667, "fusion_lon": 0.0, "fusion_lat": 0.0, "type": "electric_scooter", "name": "c1fdecf18453a8f705df7b01da8c3939", "is_disabled": 0, "rental_uris": {"ios": "https://dc.lft.to/lastmile_qr_scan", "android": "https://dc.lft.to/lastmile_qr_scan"}, "is_reserved": 0}, {"lon": -76.98938, "bike_id": "5233403e77468082033c78944d967a37", "lat": 38.918411666666664, "fusion_lon": 0.0, "fusion_lat": 0.0, "type": "electric_scooter", "name": "5233403e77468082033c78944d967a37", "is_disabled": 0, "rental_uris": {"ios": "https://dc.lft.to/lastmile_qr_scan", "android": "https://dc.lft.to/lastmile_qr_scan"}, "is_reserved": 0}, {"lon": -77.02151616666667, "bike_id": "e2cf2867a2df0e54932c1256a504620a", "lat": 38.894208666666664, "fusion_lon": 0.0, "fusion_lat": 0.0, "type": "electric_scooter", "name": "e2cf2867a2df0e54932c1256a504620a", "is_disabled": 0, "rental_uris": {"ios": "https://dc.lft.to/lastmile_qr_scan", "android": "https://dc.lft.to/lastmile_qr_scan"}, "is_reserved": 0}, {"lon": -77.01283366666667, "bike_id": "8c46b50d5e4a6f853f462042f19dc6d4", "lat": 38.91040866666667, "fusion_lon": 0.0, "fusion_lat": 0.0, "type": "electric_scooter", "name": "8c46b50d5e4a6f853f462042f19dc6d4", "is_disabled": 0, "rental_uris": {"ios": "https://dc.lft.to/lastmile_qr_scan", "android": "https://dc.lft.to/lastmile_qr_scan"}, "is_reserved": 0}, {"lon": -76.97859066666666, "bike_id": "6dac2ff1aded0e9e9491a17e41bef614", "lat": 38.87073783333334, "fusion_lon": 0.0, "fusion_lat": 0.0, "type": "electric_scooter", "name": "6dac2ff1aded0e9e9491a17e41bef614", "is_disabled": 0, "rental_uris": {"ios": "https://dc.lft.to/lastmile_qr_scan", "android": "https://dc.lft.to/lastmile_qr_scan"}, "is_reserved": 0}, {"lon": -77.02169133333334, "bike_id": "b9b574dfed8f254421de09e88f519e82", "lat": 38.8875075, "fusion_lon": 0.0, "fusion_lat": 0.0, "type": "electric_scooter", "name": "b9b574dfed8f254421de09e88f519e82", "is_disabled": 0, "rental_uris": {"ios": "https://dc.lft.to/lastmile_qr_scan", "android": "https://dc.lft.to/lastmile_qr_scan"}, "is_reserved": 0}, {"lon": -77.02663583333333, "bike_id": "901b2af60bf7c4684bb2a3122122a442", "lat": 38.931050166666665, "fusion_lon": 0.0, "fusion_lat": 0.0, "type": "electric_scooter", "name": "901b2af60bf7c4684bb2a3122122a442", "is_disabled": 0, "rental_uris": {"ios": "https://dc.lft.to/lastmile_qr_scan", "android": "https://dc.lft.to/lastmile_qr_scan"}, "is_reserved": 0}, {"lon": -77.02950333333334, "bike_id": "80b2eb5f7a417a5278612cf407c1d163", "lat": 38.921784833333334, "fusion_lon": 0.0, "fusion_lat": 0.0, "type": "electric_scooter", "name": "80b2eb5f7a417a5278612cf407c1d163", "is_disabled": 0, "rental_uris": {"ios": "https://dc.lft.to/lastmile_qr_scan", "android": "https://dc.lft.to/lastmile_qr_scan"}, "is_reserved": 0}, {"lon": -77.00195433333333, "bike_id": "007ed29c61671cacc48255cbb4e1c02e", "lat": 38.914781833333336, "fusion_lon": 0.0, "fusion_lat": 0.0, "type": "electric_scooter", "name": "007ed29c61671cacc48255cbb4e1c02e", "is_disabled": 0, "rental_uris": {"ios": "https://dc.lft.to/lastmile_qr_scan", "android": "https://dc.lft.to/lastmile_qr_scan"}, "is_reserved": 0}, {"lon": -77.0055975, "bike_id": "27a631eae1c93f858697af96812e4e4a", "lat": 38.905668166666665, "fusion_lon": 0.0, "fusion_lat": 0.0, "type": "electric_scooter", "name": "27a631eae1c93f858697af96812e4e4a", "is_disabled": 0, "rental_uris": {"ios": "https://dc.lft.to/lastmile_qr_scan", "android": "https://dc.lft.to/lastmile_qr_scan"}, "is_reserved": 0}, {"lon": -77.01779533333334, "bike_id": "f70f60e79a5569896c48d6382234dee1", "lat": 38.901196666666664, "fusion_lon": 0.0, "fusion_lat": 0.0, "type": "electric_scooter", "name": "f70f60e79a5569896c48d6382234dee1", "is_disabled": 0, "rental_uris": {"ios": "https://dc.lft.to/lastmile_qr_scan", "android": "https://dc.lft.to/lastmile_qr_scan"}, "is_reserved": 0}, {"lon": -77.03899416666667, "bike_id": "0fc4a8e616221f83445f4eb901123b6c", "lat": 38.9221995, "fusion_lon": 0.0, "fusion_lat": 0.0, "type": "electric_scooter", "name": "0fc4a8e616221f83445f4eb901123b6c", "is_disabled": 0, "rental_uris": {"ios": "https://dc.lft.to/lastmile_qr_scan", "android": "https://dc.lft.to/lastmile_qr_scan"}, "is_reserved": 0}, {"lon": -77.02382166666666, "bike_id": "9c82bab1ba65a3db21135cbbbe2607c8", "lat": 38.90095766666666, "fusion_lon": 0.0, "fusion_lat": 0.0, "type": "electric_scooter", "name": "9c82bab1ba65a3db21135cbbbe2607c8", "is_disabled": 0, "rental_uris": {"ios": "https://dc.lft.to/lastmile_qr_scan", "android": "https://dc.lft.to/lastmile_qr_scan"}, "is_reserved": 0}, {"lon": -77.02421616666666, "bike_id": "b73a5c9a1129bd22f97311bb88048243", "lat": 38.8998855, "fusion_lon": 0.0, "fusion_lat": 0.0, "type": "electric_scooter", "name": "b73a5c9a1129bd22f97311bb88048243", "is_disabled": 0, "rental_uris": {"ios": "https://dc.lft.to/lastmile_qr_scan", "android": "https://dc.lft.to/lastmile_qr_scan"}, "is_reserved": 0}, {"lon": -77.03654433333334, "bike_id": "9e87382fb56792df82970f088a1e0452", "lat": 38.936196833333334, "fusion_lon": 0.0, "fusion_lat": 0.0, "type": "electric_scooter", "name": "9e87382fb56792df82970f088a1e0452", "is_disabled": 0, "rental_uris": {"ios": "https://dc.lft.to/lastmile_qr_scan", "android": "https://dc.lft.to/lastmile_qr_scan"}, "is_reserved": 0}, {"lon": -77.036423, "bike_id": "92c3fe92e634ae2399c0a583e995d0e4", "lat": 38.92344116666666, "fusion_lon": 0.0, "fusion_lat": 0.0, "type": "electric_scooter", "name": "92c3fe92e634ae2399c0a583e995d0e4", "is_disabled": 0, "rental_uris": {"ios": "https://dc.lft.to/lastmile_qr_scan", "android": "https://dc.lft.to/lastmile_qr_scan"}, "is_reserved": 0}, {"lon": -77.02363483333333, "bike_id": "9f1b31a06eecacc77293e6479cbd3c40", "lat": 38.92065916666667, "fusion_lon": 0.0, "fusion_lat": 0.0, "type": "electric_scooter", "name": "9f1b31a06eecacc77293e6479cbd3c40", "is_disabled": 0, "rental_uris": {"ios": "https://dc.lft.to/lastmile_qr_scan", "android": "https://dc.lft.to/lastmile_qr_scan"}, "is_reserved": 0}, {"lon": -77.06404583333334, "bike_id": "8935e4d1c6fd50e18c7be29d78afddcd", "lat": 38.840669, "fusion_lon": 0.0, "fusion_lat": 0.0, "type": "electric_bike", "name": "8935e4d1c6fd50e18c7be29d78afddcd", "is_disabled": 0, "rental_uris": {"ios": "https://dc.lft.to/lastmile_qr_scan", "android": "https://dc.lft.to/lastmile_qr_scan"}, "is_reserved": 0}, {"lon": -77.04577133333333, "bike_id": "81178b9a0716cadf500ffefabc0727a9", "lat": 38.92126416666667, "fusion_lon": 0.0, "fusion_lat": 0.0, "type": "electric_scooter", "name": "81178b9a0716cadf500ffefabc0727a9", "is_disabled": 0, "rental_uris": {"ios": "https://dc.lft.to/lastmile_qr_scan", "android": "https://dc.lft.to/lastmile_qr_scan"}, "is_reserved": 0}, {"lon": -77.02270883333334, "bike_id": "7426353077f07b1f7de5f4ddd0edfc41", "lat": 38.927326666666666, "fusion_lon": 0.0, "fusion_lat": 0.0, "type": "electric_scooter", "name": "7426353077f07b1f7de5f4ddd0edfc41", "is_disabled": 0, "rental_uris": {"ios": "https://dc.lft.to/lastmile_qr_scan", "android": "https://dc.lft.to/lastmile_qr_scan"}, "is_reserved": 0}, {"lon": -77.02185733333333, "bike_id": "7828bc4921dc6c7e0eada45e0d0295ca", "lat": 38.9000105, "fusion_lon": 0.0, "fusion_lat": 0.0, "type": "electric_scooter", "name": "7828bc4921dc6c7e0eada45e0d0295ca", "is_disabled": 0, "rental_uris": {"ios": "https://dc.lft.to/lastmile_qr_scan", "android": "https://dc.lft.to/lastmile_qr_scan"}, "is_reserved": 0}, {"lon": -77.05262916666666, "bike_id": "2760a0bf37b261fae70f7d52996be26a", "lat": 38.92780416666667, "fusion_lon": 0.0, "fusion_lat": 0.0, "type": "electric_scooter", "name": "2760a0bf37b261fae70f7d52996be26a", "is_disabled": 0, "rental_uris": {"ios": "https://dc.lft.to/lastmile_qr_scan", "android": "https://dc.lft.to/lastmile_qr_scan"}, "is_reserved": 0}, {"lon": -77.0329315, "bike_id": "5a249c4d5dd9f4f1fb6873c56bcaa142", "lat": 38.923589666666665, "fusion_lon": 0.0, "fusion_lat": 0.0, "type": "electric_scooter", "name": "5a249c4d5dd9f4f1fb6873c56bcaa142", "is_disabled": 0, "rental_uris": {"ios": "https://dc.lft.to/lastmile_qr_scan", "android": "https://dc.lft.to/lastmile_qr_scan"}, "is_reserved": 0}, {"lon": -77.05924033333334, "bike_id": "4b15a18aca0c440c141529e250845ba0", "lat": 38.86255533333333, "fusion_lon": 0.0, "fusion_lat": 0.0, "type": "electric_scooter", "name": "4b15a18aca0c440c141529e250845ba0", "is_disabled": 0, "rental_uris": {"ios": "https://dc.lft.to/lastmile_qr_scan", "android": "https://dc.lft.to/lastmile_qr_scan"}, "is_reserved": 0}, {"lon": -76.99354333333333, "bike_id": "045b20fb3288c868fbac9ead9a4982dd", "lat": 38.845079166666665, "fusion_lon": 0.0, "fusion_lat": 0.0, "type": "electric_bike", "name": "045b20fb3288c868fbac9ead9a4982dd", "is_disabled": 0, "rental_uris": {"ios": "https://dc.lft.to/lastmile_qr_scan", "android": "https://dc.lft.to/lastmile_qr_scan"}, "is_reserved": 0}, {"lon": -77.00661016666666, "bike_id": "0d00606ed255b01db88efbf8651f159a", "lat": 38.900367, "fusion_lon": 0.0, "fusion_lat": 0.0, "type": "electric_scooter", "name": "0d00606ed255b01db88efbf8651f159a", "is_disabled": 0, "rental_uris": {"ios": "https://dc.lft.to/lastmile_qr_scan", "android": "https://dc.lft.to/lastmile_qr_scan"}, "is_reserved": 0}, {"lon": -76.94400333333333, "bike_id": "bd66b07a510c8a146d01c9a58f293112", "lat": 38.881422, "fusion_lon": 0.0, "fusion_lat": 0.0, "type": "electric_scooter", "name": "bd66b07a510c8a146d01c9a58f293112", "is_disabled": 0, "rental_uris": {"ios": "https://dc.lft.to/lastmile_qr_scan", "android": "https://dc.lft.to/lastmile_qr_scan"}, "is_reserved": 0}, {"lon": -76.99503083333333, "bike_id": "af08b530cf5190214cc1f06508a1825d", "lat": 38.883495, "fusion_lon": 0.0, "fusion_lat": 0.0, "type": "electric_scooter", "name": "af08b530cf5190214cc1f06508a1825d", "is_disabled": 0, "rental_uris": {"ios": "https://dc.lft.to/lastmile_qr_scan", "android": "https://dc.lft.to/lastmile_qr_scan"}, "is_reserved": 0}, {"lon": -76.98717366666666, "bike_id": "c6987eaff985168b3f1510c9c06b6826", "lat": 38.86624, "fusion_lon": 0.0, "fusion_lat": 0.0, "type": "electric_scooter", "name": "c6987eaff985168b3f1510c9c06b6826", "is_disabled": 0, "rental_uris": {"ios": "https://dc.lft.to/lastmile_qr_scan", "android": "https://dc.lft.to/lastmile_qr_scan"}, "is_reserved": 0}, {"lon": -76.9500335, "bike_id": "1c413d30199dd8a6593e9d4d6d33c08e", "lat": 38.893816, "fusion_lon": 0.0, "fusion_lat": 0.0, "type": "electric_scooter", "name": "1c413d30199dd8a6593e9d4d6d33c08e", "is_disabled": 0, "rental_uris": {"ios": "https://dc.lft.to/lastmile_qr_scan", "android": "https://dc.lft.to/lastmile_qr_scan"}, "is_reserved": 0}, {"lon": -77.05861033333333, "bike_id": "22ecc44dbd5b7e48a5bddbaaeb3ab489", "lat": 38.9360655, "fusion_lon": 0.0, "fusion_lat": 0.0, "type": "electric_scooter", "name": "22ecc44dbd5b7e48a5bddbaaeb3ab489", "is_disabled": 0, "rental_uris": {"ios": "https://dc.lft.to/lastmile_qr_scan", "android": "https://dc.lft.to/lastmile_qr_scan"}, "is_reserved": 0}, {"lon": -77.07434016666667, "bike_id": "529ba56ab9e829cf2ae0929489b4fffa", "lat": 38.999484333333335, "fusion_lon": 0.0, "fusion_lat": 0.0, "type": "electric_bike", "name": "529ba56ab9e829cf2ae0929489b4fffa", "is_disabled": 0, "rental_uris": {"ios": "https://dc.lft.to/lastmile_qr_scan", "android": "https://dc.lft.to/lastmile_qr_scan"}, "is_reserved": 0}, {"lon": -77.02428033333334, "bike_id": "41777b2d23aced8d011c6f6dfdeaf91c", "lat": 38.9141305, "fusion_lon": 0.0, "fusion_lat": 0.0, "type": "electric_scooter", "name": "41777b2d23aced8d011c6f6dfdeaf91c", "is_disabled": 0, "rental_uris": {"ios": "https://dc.lft.to/lastmile_qr_scan", "android": "https://dc.lft.to/lastmile_qr_scan"}, "is_reserved": 0}, {"lon": -76.980179, "bike_id": "433705bd01e04e515283eb7a3a449275", "lat": 38.89890366666667, "fusion_lon": 0.0, "fusion_lat": 0.0, "type": "electric_scooter", "name": "433705bd01e04e515283eb7a3a449275", "is_disabled": 0, "rental_uris": {"ios": "https://dc.lft.to/lastmile_qr_scan", "android": "https://dc.lft.to/lastmile_qr_scan"}, "is_reserved": 0}, {"lon": -77.00735866666666, "bike_id": "b9bf9d4c3bd9e7f529497b16ea0baaf1", "lat": 38.916335333333336, "fusion_lon": 0.0, "fusion_lat": 0.0, "type": "electric_scooter", "name": "b9bf9d4c3bd9e7f529497b16ea0baaf1", "is_disabled": 0, "rental_uris": {"ios": "https://dc.lft.to/lastmile_qr_scan", "android": "https://dc.lft.to/lastmile_qr_scan"}, "is_reserved": 0}, {"lon": -77.01431266666667, "bike_id": "bb879e470c4eaef07027f99d59645099", "lat": 38.914653333333334, "fusion_lon": 0.0, "fusion_lat": 0.0, "type": "electric_scooter", "name": "bb879e470c4eaef07027f99d59645099", "is_disabled": 0, "rental_uris": {"ios": "https://dc.lft.to/lastmile_qr_scan", "android": "https://dc.lft.to/lastmile_qr_scan"}, "is_reserved": 0}, {"lon": -77.03257233333333, "bike_id": "a53964b63ed63b74d2ecc036b4e3e84c", "lat": 38.935651666666665, "fusion_lon": 0.0, "fusion_lat": 0.0, "type": "electric_scooter", "name": "a53964b63ed63b74d2ecc036b4e3e84c", "is_disabled": 0, "rental_uris": {"ios": "https://dc.lft.to/lastmile_qr_scan", "android": "https://dc.lft.to/lastmile_qr_scan"}, "is_reserved": 0}, {"lon": -77.01451083333333, "bike_id": "02dc39319826f4c21ffbed50e968d98e", "lat": 38.879387333333334, "fusion_lon": 0.0, "fusion_lat": 0.0, "type": "electric_scooter", "name": "02dc39319826f4c21ffbed50e968d98e", "is_disabled": 0, "rental_uris": {"ios": "https://dc.lft.to/lastmile_qr_scan", "android": "https://dc.lft.to/lastmile_qr_scan"}, "is_reserved": 0}, {"lon": -77.0177265, "bike_id": "9192986ff1b387a4175830c89e133937", "lat": 38.92102933333334, "fusion_lon": 0.0, "fusion_lat": 0.0, "type": "electric_scooter", "name": "9192986ff1b387a4175830c89e133937", "is_disabled": 0, "rental_uris": {"ios": "https://dc.lft.to/lastmile_qr_scan", "android": "https://dc.lft.to/lastmile_qr_scan"}, "is_reserved": 0}, {"lon": -77.02530916666667, "bike_id": "8050b7b89abf6d71fb19eb3dd15e2a6c", "lat": 38.9274055, "fusion_lon": 0.0, "fusion_lat": 0.0, "type": "electric_scooter", "name": "8050b7b89abf6d71fb19eb3dd15e2a6c", "is_disabled": 0, "rental_uris": {"ios": "https://dc.lft.to/lastmile_qr_scan", "android": "https://dc.lft.to/lastmile_qr_scan"}, "is_reserved": 0}, {"lon": -76.963882, "bike_id": "89712f1e9370b74fae8b6d5b99adf39d", "lat": 38.951757666666666, "fusion_lon": 0.0, "fusion_lat": 0.0, "type": "electric_bike", "name": "89712f1e9370b74fae8b6d5b99adf39d", "is_disabled": 0, "rental_uris": {"ios": "https://dc.lft.to/lastmile_qr_scan", "android": "https://dc.lft.to/lastmile_qr_scan"}, "is_reserved": 0}, {"lon": -76.98501366666666, "bike_id": "c37c84326fe4668592c98b1cf0874b16", "lat": 38.92005183333333, "fusion_lon": 0.0, "fusion_lat": 0.0, "type": "electric_scooter", "name": "c37c84326fe4668592c98b1cf0874b16", "is_disabled": 0, "rental_uris": {"ios": "https://dc.lft.to/lastmile_qr_scan", "android": "https://dc.lft.to/lastmile_qr_scan"}, "is_reserved": 0}, {"lon": -77.03659316666666, "bike_id": "717ae3e6af6392d905bcc4beb328bf95", "lat": 38.917563666666666, "fusion_lon": 0.0, "fusion_lat": 0.0, "type": "electric_scooter", "name": "717ae3e6af6392d905bcc4beb328bf95", "is_disabled": 0, "rental_uris": {"ios": "https://dc.lft.to/lastmile_qr_scan", "android": "https://dc.lft.to/lastmile_qr_scan"}, "is_reserved": 0}, {"lon": -77.007886, "bike_id": "94de7a85246db80f7539aeddc8f72e75", "lat": 38.896704166666666, "fusion_lon": 0.0, "fusion_lat": 0.0, "type": "electric_scooter", "name": "94de7a85246db80f7539aeddc8f72e75", "is_disabled": 0, "rental_uris": {"ios": "https://dc.lft.to/lastmile_qr_scan", "android": "https://dc.lft.to/lastmile_qr_scan"}, "is_reserved": 0}, {"lon": -77.03623716666667, "bike_id": "25fd15ece53aa9afb92f5449eb098bb5", "lat": 38.937395333333335, "fusion_lon": 0.0, "fusion_lat": 0.0, "type": "electric_scooter", "name": "25fd15ece53aa9afb92f5449eb098bb5", "is_disabled": 0, "rental_uris": {"ios": "https://dc.lft.to/lastmile_qr_scan", "android": "https://dc.lft.to/lastmile_qr_scan"}, "is_reserved": 0}, {"lon": -77.03072616666667, "bike_id": "584eb611ed4a5e5fb9012efef9c23458", "lat": 38.91816166666667, "fusion_lon": 0.0, "fusion_lat": 0.0, "type": "electric_scooter", "name": "584eb611ed4a5e5fb9012efef9c23458", "is_disabled": 0, "rental_uris": {"ios": "https://dc.lft.to/lastmile_qr_scan", "android": "https://dc.lft.to/lastmile_qr_scan"}, "is_reserved": 0}, {"lon": -77.03280666666667, "bike_id": "e088270378cbcdb7e840f3ae43eb3770", "lat": 38.90469183333333, "fusion_lon": 0.0, "fusion_lat": 0.0, "type": "electric_scooter", "name": "e088270378cbcdb7e840f3ae43eb3770", "is_disabled": 0, "rental_uris": {"ios": "https://dc.lft.to/lastmile_qr_scan", "android": "https://dc.lft.to/lastmile_qr_scan"}, "is_reserved": 0}, {"lon": -77.0114095, "bike_id": "b6363db6757e6e4825e921aef74aa2b1", "lat": 38.90650016666667, "fusion_lon": 0.0, "fusion_lat": 0.0, "type": "electric_scooter", "name": "b6363db6757e6e4825e921aef74aa2b1", "is_disabled": 0, "rental_uris": {"ios": "https://dc.lft.to/lastmile_qr_scan", "android": "https://dc.lft.to/lastmile_qr_scan"}, "is_reserved": 0}, {"lon": -76.98593183333334, "bike_id": "0b0d7c2bc5bb741821b60254fdbf3690", "lat": 38.90815033333333, "fusion_lon": 0.0, "fusion_lat": 0.0, "type": "electric_scooter", "name": "0b0d7c2bc5bb741821b60254fdbf3690", "is_disabled": 0, "rental_uris": {"ios": "https://dc.lft.to/lastmile_qr_scan", "android": "https://dc.lft.to/lastmile_qr_scan"}, "is_reserved": 0}, {"lon": -76.9337145, "bike_id": "751e45777befb78177f466f4e3f09625", "lat": 38.899145833333336, "fusion_lon": 0.0, "fusion_lat": 0.0, "type": "electric_scooter", "name": "751e45777befb78177f466f4e3f09625", "is_disabled": 0, "rental_uris": {"ios": "https://dc.lft.to/lastmile_qr_scan", "android": "https://dc.lft.to/lastmile_qr_scan"}, "is_reserved": 0}, {"lon": -77.00135383333334, "bike_id": "6eacfdcf1fbcb13ef37edbddd59c368e", "lat": 38.925511666666665, "fusion_lon": 0.0, "fusion_lat": 0.0, "type": "electric_bike", "name": "6eacfdcf1fbcb13ef37edbddd59c368e", "is_disabled": 0, "rental_uris": {"ios": "https://dc.lft.to/lastmile_qr_scan", "android": "https://dc.lft.to/lastmile_qr_scan"}, "is_reserved": 0}, {"lon": -76.94435433333334, "bike_id": "c559fb5328ca50c0cdacbf2b617ff622", "lat": 38.900444666666665, "fusion_lon": 0.0, "fusion_lat": 0.0, "type": "electric_scooter", "name": "c559fb5328ca50c0cdacbf2b617ff622", "is_disabled": 0, "rental_uris": {"ios": "https://dc.lft.to/lastmile_qr_scan", "android": "https://dc.lft.to/lastmile_qr_scan"}, "is_reserved": 0}, {"lon": -77.10091583333333, "bike_id": "c46bd5736f2bf6898a32c26b7675a27f", "lat": 38.959616, "fusion_lon": 0.0, "fusion_lat": 0.0, "type": "electric_bike", "name": "c46bd5736f2bf6898a32c26b7675a27f", "is_disabled": 0, "rental_uris": {"ios": "https://dc.lft.to/lastmile_qr_scan", "android": "https://dc.lft.to/lastmile_qr_scan"}, "is_reserved": 0}, {"lon": -77.0271565, "bike_id": "e264817ed534e96754807018b90e4c5f", "lat": 38.906687833333336, "fusion_lon": 0.0, "fusion_lat": 0.0, "type": "electric_scooter", "name": "e264817ed534e96754807018b90e4c5f", "is_disabled": 0, "rental_uris": {"ios": "https://dc.lft.to/lastmile_qr_scan", "android": "https://dc.lft.to/lastmile_qr_scan"}, "is_reserved": 0}, {"lon": -77.01156233333333, "bike_id": "d3c338b082c63205a7a5428d145567ef", "lat": 38.914069, "fusion_lon": 0.0, "fusion_lat": 0.0, "type": "electric_scooter", "name": "d3c338b082c63205a7a5428d145567ef", "is_disabled": 0, "rental_uris": {"ios": "https://dc.lft.to/lastmile_qr_scan", "android": "https://dc.lft.to/lastmile_qr_scan"}, "is_reserved": 0}, {"lon": -76.987806, "bike_id": "ab76f16567b7a02c270c6a53f915156a", "lat": 38.906622, "fusion_lon": 0.0, "fusion_lat": 0.0, "type": "electric_scooter", "name": "ab76f16567b7a02c270c6a53f915156a", "is_disabled": 0, "rental_uris": {"ios": "https://dc.lft.to/lastmile_qr_scan", "android": "https://dc.lft.to/lastmile_qr_scan"}, "is_reserved": 0}, {"lon": -76.983543, "bike_id": "5de4a8e5529f2d6439abe340eb743217", "lat": 38.9149875, "fusion_lon": 0.0, "fusion_lat": 0.0, "type": "electric_scooter", "name": "5de4a8e5529f2d6439abe340eb743217", "is_disabled": 0, "rental_uris": {"ios": "https://dc.lft.to/lastmile_qr_scan", "android": "https://dc.lft.to/lastmile_qr_scan"}, "is_reserved": 0}, {"lon": -77.011661, "bike_id": "b218212c6a59a3e4295d482e554bef00", "lat": 38.872378499999996, "fusion_lon": 0.0, "fusion_lat": 0.0, "type": "electric_bike", "name": "b218212c6a59a3e4295d482e554bef00", "is_disabled": 0, "rental_uris": {"ios": "https://dc.lft.to/lastmile_qr_scan", "android": "https://dc.lft.to/lastmile_qr_scan"}, "is_reserved": 0}, {"lon": -76.99405516666667, "bike_id": "81259064bfdb1eab3986d29e31de2c2f", "lat": 38.83140183333333, "fusion_lon": 0.0, "fusion_lat": 0.0, "type": "electric_bike", "name": "81259064bfdb1eab3986d29e31de2c2f", "is_disabled": 0, "rental_uris": {"ios": "https://dc.lft.to/lastmile_qr_scan", "android": "https://dc.lft.to/lastmile_qr_scan"}, "is_reserved": 0}, {"lon": -77.01258, "bike_id": "d62c18e0f56b29218a39cd7e5566d589", "lat": 38.908418166666664, "fusion_lon": 0.0, "fusion_lat": 0.0, "type": "electric_scooter", "name": "d62c18e0f56b29218a39cd7e5566d589", "is_disabled": 0, "rental_uris": {"ios": "https://dc.lft.to/lastmile_qr_scan", "android": "https://dc.lft.to/lastmile_qr_scan"}, "is_reserved": 0}, {"lon": -77.03047033333333, "bike_id": "ce648148ba02b180449ce6116a93a671", "lat": 38.9080235, "fusion_lon": 0.0, "fusion_lat": 0.0, "type": "electric_scooter", "name": "ce648148ba02b180449ce6116a93a671", "is_disabled": 0, "rental_uris": {"ios": "https://dc.lft.to/lastmile_qr_scan", "android": "https://dc.lft.to/lastmile_qr_scan"}, "is_reserved": 0}, {"lon": -77.0464415, "bike_id": "e401c5d40ae2467b9582b2ce824dd240", "lat": 38.91575983333333, "fusion_lon": 0.0, "fusion_lat": 0.0, "type": "electric_scooter", "name": "e401c5d40ae2467b9582b2ce824dd240", "is_disabled": 0, "rental_uris": {"ios": "https://dc.lft.to/lastmile_qr_scan", "android": "https://dc.lft.to/lastmile_qr_scan"}, "is_reserved": 0}, {"lon": -77.00741833333333, "bike_id": "08c7506bdd9963e65cbec796f6361c05", "lat": 38.87656666666667, "fusion_lon": 0.0, "fusion_lat": 0.0, "type": "electric_scooter", "name": "08c7506bdd9963e65cbec796f6361c05", "is_disabled": 0, "rental_uris": {"ios": "https://dc.lft.to/lastmile_qr_scan", "android": "https://dc.lft.to/lastmile_qr_scan"}, "is_reserved": 0}, {"lon": -77.00559683333333, "bike_id": "74b80a797a7d72449443f0215ee7cec2", "lat": 38.87472483333333, "fusion_lon": 0.0, "fusion_lat": 0.0, "type": "electric_scooter", "name": "74b80a797a7d72449443f0215ee7cec2", "is_disabled": 0, "rental_uris": {"ios": "https://dc.lft.to/lastmile_qr_scan", "android": "https://dc.lft.to/lastmile_qr_scan"}, "is_reserved": 0}, {"lon": -77.0559425, "bike_id": "93bfa74ec0c0e7240bb80eb5a5e3668b", "lat": 38.93707116666667, "fusion_lon": 0.0, "fusion_lat": 0.0, "type": "electric_scooter", "name": "93bfa74ec0c0e7240bb80eb5a5e3668b", "is_disabled": 0, "rental_uris": {"ios": "https://dc.lft.to/lastmile_qr_scan", "android": "https://dc.lft.to/lastmile_qr_scan"}, "is_reserved": 0}, {"lon": -77.03661483333333, "bike_id": "bd7bdc5e94d5e66f2df3e945fa7d6c10", "lat": 38.936303833333334, "fusion_lon": 0.0, "fusion_lat": 0.0, "type": "electric_scooter", "name": "bd7bdc5e94d5e66f2df3e945fa7d6c10", "is_disabled": 0, "rental_uris": {"ios": "https://dc.lft.to/lastmile_qr_scan", "android": "https://dc.lft.to/lastmile_qr_scan"}, "is_reserved": 0}, {"lon": -77.0535475, "bike_id": "fbaf30c14b1eab7a8f70385e6132228c", "lat": 38.92734033333333, "fusion_lon": 0.0, "fusion_lat": 0.0, "type": "electric_scooter", "name": "fbaf30c14b1eab7a8f70385e6132228c", "is_disabled": 0, "rental_uris": {"ios": "https://dc.lft.to/lastmile_qr_scan", "android": "https://dc.lft.to/lastmile_qr_scan"}, "is_reserved": 0}, {"lon": -76.99599416666666, "bike_id": "940adcb90e55c7dbb417a4152febc3e4", "lat": 38.85702333333333, "fusion_lon": 0.0, "fusion_lat": 0.0, "type": "electric_scooter", "name": "940adcb90e55c7dbb417a4152febc3e4", "is_disabled": 0, "rental_uris": {"ios": "https://dc.lft.to/lastmile_qr_scan", "android": "https://dc.lft.to/lastmile_qr_scan"}, "is_reserved": 0}, {"lon": -77.01363166666667, "bike_id": "2e5dbe11da09439c7d4364eccb532148", "lat": 38.88708783333333, "fusion_lon": 0.0, "fusion_lat": 0.0, "type": "electric_scooter", "name": "2e5dbe11da09439c7d4364eccb532148", "is_disabled": 0, "rental_uris": {"ios": "https://dc.lft.to/lastmile_qr_scan", "android": "https://dc.lft.to/lastmile_qr_scan"}, "is_reserved": 0}, {"lon": -77.0305195, "bike_id": "6e2d6a7cd53beefa44c7e46652a2c046", "lat": 38.89823966666667, "fusion_lon": 0.0, "fusion_lat": 0.0, "type": "electric_scooter", "name": "6e2d6a7cd53beefa44c7e46652a2c046", "is_disabled": 0, "rental_uris": {"ios": "https://dc.lft.to/lastmile_qr_scan", "android": "https://dc.lft.to/lastmile_qr_scan"}, "is_reserved": 0}, {"lon": -77.02583583333333, "bike_id": "56e1a38c6faec2a71fbc5f2257e0fa03", "lat": 38.9274235, "fusion_lon": 0.0, "fusion_lat": 0.0, "type": "electric_scooter", "name": "56e1a38c6faec2a71fbc5f2257e0fa03", "is_disabled": 0, "rental_uris": {"ios": "https://dc.lft.to/lastmile_qr_scan", "android": "https://dc.lft.to/lastmile_qr_scan"}, "is_reserved": 0}, {"lon": -77.04602, "bike_id": "1da31f52cab43722273cb4fdee1e6b4c", "lat": 38.91610283333333, "fusion_lon": 0.0, "fusion_lat": 0.0, "type": "electric_scooter", "name": "1da31f52cab43722273cb4fdee1e6b4c", "is_disabled": 0, "rental_uris": {"ios": "https://dc.lft.to/lastmile_qr_scan", "android": "https://dc.lft.to/lastmile_qr_scan"}, "is_reserved": 0}, {"lon": -77.023935, "bike_id": "2546aa3f5400fda95a043f3413a53ecb", "lat": 38.919891666666665, "fusion_lon": 0.0, "fusion_lat": 0.0, "type": "electric_scooter", "name": "2546aa3f5400fda95a043f3413a53ecb", "is_disabled": 0, "rental_uris": {"ios": "https://dc.lft.to/lastmile_qr_scan", "android": "https://dc.lft.to/lastmile_qr_scan"}, "is_reserved": 0}, {"lon": -76.9881965, "bike_id": "0af43e929360f8707254810f8151400d", "lat": 38.890777, "fusion_lon": 0.0, "fusion_lat": 0.0, "type": "electric_scooter", "name": "0af43e929360f8707254810f8151400d", "is_disabled": 0, "rental_uris": {"ios": "https://dc.lft.to/lastmile_qr_scan", "android": "https://dc.lft.to/lastmile_qr_scan"}, "is_reserved": 0}, {"lon": -77.02911583333334, "bike_id": "f83ea71de27666519956b5550236c1e4", "lat": 38.898294166666666, "fusion_lon": 0.0, "fusion_lat": 0.0, "type": "electric_scooter", "name": "f83ea71de27666519956b5550236c1e4", "is_disabled": 0, "rental_uris": {"ios": "https://dc.lft.to/lastmile_qr_scan", "android": "https://dc.lft.to/lastmile_qr_scan"}, "is_reserved": 0}, {"lon": -77.04172016666666, "bike_id": "59953bbe5114b926f68ebfbf1a2af4d7", "lat": 38.91659633333333, "fusion_lon": 0.0, "fusion_lat": 0.0, "type": "electric_scooter", "name": "59953bbe5114b926f68ebfbf1a2af4d7", "is_disabled": 0, "rental_uris": {"ios": "https://dc.lft.to/lastmile_qr_scan", "android": "https://dc.lft.to/lastmile_qr_scan"}, "is_reserved": 0}, {"lon": -77.03871033333333, "bike_id": "212db9b2f59c1af3712474881c6ed22d", "lat": 38.921497333333335, "fusion_lon": 0.0, "fusion_lat": 0.0, "type": "electric_scooter", "name": "212db9b2f59c1af3712474881c6ed22d", "is_disabled": 0, "rental_uris": {"ios": "https://dc.lft.to/lastmile_qr_scan", "android": "https://dc.lft.to/lastmile_qr_scan"}, "is_reserved": 0}, {"lon": -77.03659883333333, "bike_id": "85d2f3b25d5c29b11912bc02b859548c", "lat": 38.917529, "fusion_lon": 0.0, "fusion_lat": 0.0, "type": "electric_scooter", "name": "85d2f3b25d5c29b11912bc02b859548c", "is_disabled": 0, "rental_uris": {"ios": "https://dc.lft.to/lastmile_qr_scan", "android": "https://dc.lft.to/lastmile_qr_scan"}, "is_reserved": 0}, {"lon": -77.01659533333333, "bike_id": "8f82a4e3f3e7f64d247cf02781645a04", "lat": 38.88755616666667, "fusion_lon": 0.0, "fusion_lat": 0.0, "type": "electric_scooter", "name": "8f82a4e3f3e7f64d247cf02781645a04", "is_disabled": 0, "rental_uris": {"ios": "https://dc.lft.to/lastmile_qr_scan", "android": "https://dc.lft.to/lastmile_qr_scan"}, "is_reserved": 0}, {"lon": -77.051175, "bike_id": "da0673a01d91cdc8f4de7d2a631038ed", "lat": 38.90212016666667, "fusion_lon": 0.0, "fusion_lat": 0.0, "type": "electric_scooter", "name": "da0673a01d91cdc8f4de7d2a631038ed", "is_disabled": 0, "rental_uris": {"ios": "https://dc.lft.to/lastmile_qr_scan", "android": "https://dc.lft.to/lastmile_qr_scan"}, "is_reserved": 0}, {"lon": -76.90591033333334, "bike_id": "74dd7cae8828169f286b335ee6a2aad0", "lat": 39.00461283333333, "fusion_lon": 0.0, "fusion_lat": 0.0, "type": "electric_bike", "name": "74dd7cae8828169f286b335ee6a2aad0", "is_disabled": 0, "rental_uris": {"ios": "https://dc.lft.to/lastmile_qr_scan", "android": "https://dc.lft.to/lastmile_qr_scan"}, "is_reserved": 0}, {"lon": -77.00991483333334, "bike_id": "3b569d641da21ae8ab8855fbd1a85440", "lat": 38.87300666666667, "fusion_lon": 0.0, "fusion_lat": 0.0, "type": "electric_scooter", "name": "3b569d641da21ae8ab8855fbd1a85440", "is_disabled": 0, "rental_uris": {"ios": "https://dc.lft.to/lastmile_qr_scan", "android": "https://dc.lft.to/lastmile_qr_scan"}, "is_reserved": 0}, {"lon": -77.0037505, "bike_id": "75529b55f38061a46551a8c639e2307d", "lat": 38.897487166666664, "fusion_lon": 0.0, "fusion_lat": 0.0, "type": "electric_scooter", "name": "75529b55f38061a46551a8c639e2307d", "is_disabled": 0, "rental_uris": {"ios": "https://dc.lft.to/lastmile_qr_scan", "android": "https://dc.lft.to/lastmile_qr_scan"}, "is_reserved": 0}, {"lon": -76.9802655, "bike_id": "55f9503cd6c221b453e0fa0c50dc3b25", "lat": 38.900818666666666, "fusion_lon": 0.0, "fusion_lat": 0.0, "type": "electric_bike", "name": "55f9503cd6c221b453e0fa0c50dc3b25", "is_disabled": 0, "rental_uris": {"ios": "https://dc.lft.to/lastmile_qr_scan", "android": "https://dc.lft.to/lastmile_qr_scan"}, "is_reserved": 0}, {"lon": -76.986166, "bike_id": "43cf4955b8638d09d24c26d94c842764", "lat": 38.93831933333333, "fusion_lon": 0.0, "fusion_lat": 0.0, "type": "electric_scooter", "name": "43cf4955b8638d09d24c26d94c842764", "is_disabled": 0, "rental_uris": {"ios": "https://dc.lft.to/lastmile_qr_scan", "android": "https://dc.lft.to/lastmile_qr_scan"}, "is_reserved": 0}, {"lon": -77.02386183333333, "bike_id": "af60749a792d7f4f954881fedb69b008", "lat": 38.93483833333333, "fusion_lon": 0.0, "fusion_lat": 0.0, "type": "electric_scooter", "name": "af60749a792d7f4f954881fedb69b008", "is_disabled": 0, "rental_uris": {"ios": "https://dc.lft.to/lastmile_qr_scan", "android": "https://dc.lft.to/lastmile_qr_scan"}, "is_reserved": 0}, {"lon": -77.02982616666667, "bike_id": "18d65ee8ee5866bbbd3ec99023545932", "lat": 38.907754833333335, "fusion_lon": 0.0, "fusion_lat": 0.0, "type": "electric_scooter", "name": "18d65ee8ee5866bbbd3ec99023545932", "is_disabled": 0, "rental_uris": {"ios": "https://dc.lft.to/lastmile_qr_scan", "android": "https://dc.lft.to/lastmile_qr_scan"}, "is_reserved": 0}, {"lon": -76.946358, "bike_id": "3fbf619691bb4f991a9cc6dfbf560b6b", "lat": 38.898337166666664, "fusion_lon": 0.0, "fusion_lat": 0.0, "type": "electric_scooter", "name": "3fbf619691bb4f991a9cc6dfbf560b6b", "is_disabled": 0, "rental_uris": {"ios": "https://dc.lft.to/lastmile_qr_scan", "android": "https://dc.lft.to/lastmile_qr_scan"}, "is_reserved": 0}, {"lon": -77.36088316666667, "bike_id": "34f55d2c7c1a419641365abf6ff001ce", "lat": 38.939602666666666, "fusion_lon": 0.0, "fusion_lat": 0.0, "type": "electric_bike", "name": "34f55d2c7c1a419641365abf6ff001ce", "is_disabled": 0, "rental_uris": {"ios": "https://dc.lft.to/lastmile_qr_scan", "android": "https://dc.lft.to/lastmile_qr_scan"}, "is_reserved": 0}, {"lon": -76.977016, "bike_id": "d8acb5421de0e0053c8e66cfc86d531d", "lat": 38.949171666666665, "fusion_lon": 0.0, "fusion_lat": 0.0, "type": "electric_bike", "name": "d8acb5421de0e0053c8e66cfc86d531d", "is_disabled": 0, "rental_uris": {"ios": "https://dc.lft.to/lastmile_qr_scan", "android": "https://dc.lft.to/lastmile_qr_scan"}, "is_reserved": 0}, {"lon": -77.02002516666667, "bike_id": "3c742d422fc7e39aea0f212ff0cd12a9", "lat": 38.91314666666667, "fusion_lon": 0.0, "fusion_lat": 0.0, "type": "electric_scooter", "name": "3c742d422fc7e39aea0f212ff0cd12a9", "is_disabled": 0, "rental_uris": {"ios": "https://dc.lft.to/lastmile_qr_scan", "android": "https://dc.lft.to/lastmile_qr_scan"}, "is_reserved": 0}, {"lon": -77.23319633333334, "bike_id": "a2a1b7e27a537b4ca6e717dea1aa3848", "lat": 38.87284316666667, "fusion_lon": 0.0, "fusion_lat": 0.0, "type": "electric_bike", "name": "a2a1b7e27a537b4ca6e717dea1aa3848", "is_disabled": 0, "rental_uris": {"ios": "https://dc.lft.to/lastmile_qr_scan", "android": "https://dc.lft.to/lastmile_qr_scan"}, "is_reserved": 0}, {"lon": -77.03266966666666, "bike_id": "299ea672db3430a57b9acec766aff43d", "lat": 38.90389583333334, "fusion_lon": 0.0, "fusion_lat": 0.0, "type": "electric_scooter", "name": "299ea672db3430a57b9acec766aff43d", "is_disabled": 0, "rental_uris": {"ios": "https://dc.lft.to/lastmile_qr_scan", "android": "https://dc.lft.to/lastmile_qr_scan"}, "is_reserved": 0}, {"lon": -77.01854916666667, "bike_id": "4ae9f80461a7c66bc37a187358406ed6", "lat": 38.92028533333333, "fusion_lon": 0.0, "fusion_lat": 0.0, "type": "electric_scooter", "name": "4ae9f80461a7c66bc37a187358406ed6", "is_disabled": 0, "rental_uris": {"ios": "https://dc.lft.to/lastmile_qr_scan", "android": "https://dc.lft.to/lastmile_qr_scan"}, "is_reserved": 0}, {"lon": -77.02838066666666, "bike_id": "33d3bef8060b1c60debef7175803d226", "lat": 38.88769333333333, "fusion_lon": 0.0, "fusion_lat": 0.0, "type": "electric_scooter", "name": "33d3bef8060b1c60debef7175803d226", "is_disabled": 0, "rental_uris": {"ios": "https://dc.lft.to/lastmile_qr_scan", "android": "https://dc.lft.to/lastmile_qr_scan"}, "is_reserved": 0}, {"lon": -76.949989, "bike_id": "26ab866f5818d2fefc0305a0f4a1586e", "lat": 38.893829833333335, "fusion_lon": 0.0, "fusion_lat": 0.0, "type": "electric_scooter", "name": "26ab866f5818d2fefc0305a0f4a1586e", "is_disabled": 0, "rental_uris": {"ios": "https://dc.lft.to/lastmile_qr_scan", "android": "https://dc.lft.to/lastmile_qr_scan"}, "is_reserved": 0}, {"lon": -76.98879083333334, "bike_id": "1fe5bd1a338be07a1091784136ae4209", "lat": 38.8666315, "fusion_lon": 0.0, "fusion_lat": 0.0, "type": "electric_scooter", "name": "1fe5bd1a338be07a1091784136ae4209", "is_disabled": 0, "rental_uris": {"ios": "https://dc.lft.to/lastmile_qr_scan", "android": "https://dc.lft.to/lastmile_qr_scan"}, "is_reserved": 0}, {"lon": -77.00889666666667, "bike_id": "0c02084c112df4f27c4a51b8fdf8b763", "lat": 38.922789, "fusion_lon": 0.0, "fusion_lat": 0.0, "type": "electric_scooter", "name": "0c02084c112df4f27c4a51b8fdf8b763", "is_disabled": 0, "rental_uris": {"ios": "https://dc.lft.to/lastmile_qr_scan", "android": "https://dc.lft.to/lastmile_qr_scan"}, "is_reserved": 0}, {"lon": -77.01899516666667, "bike_id": "d0d46222963b99377919957663b2d8ff", "lat": 38.903153833333334, "fusion_lon": 0.0, "fusion_lat": 0.0, "type": "electric_bike", "name": "d0d46222963b99377919957663b2d8ff", "is_disabled": 0, "rental_uris": {"ios": "https://dc.lft.to/lastmile_qr_scan", "android": "https://dc.lft.to/lastmile_qr_scan"}, "is_reserved": 0}, {"lon": -77.03404533333334, "bike_id": "cfc5d764d4c8736168efa0dcdcd4a16c", "lat": 38.926481833333334, "fusion_lon": 0.0, "fusion_lat": 0.0, "type": "electric_scooter", "name": "cfc5d764d4c8736168efa0dcdcd4a16c", "is_disabled": 0, "rental_uris": {"ios": "https://dc.lft.to/lastmile_qr_scan", "android": "https://dc.lft.to/lastmile_qr_scan"}, "is_reserved": 0}, {"lon": -77.233317, "bike_id": "d6c8f7eda35f6414da978b52c85e66ef", "lat": 38.872781, "fusion_lon": 0.0, "fusion_lat": 0.0, "type": "electric_bike", "name": "d6c8f7eda35f6414da978b52c85e66ef", "is_disabled": 0, "rental_uris": {"ios": "https://dc.lft.to/lastmile_qr_scan", "android": "https://dc.lft.to/lastmile_qr_scan"}, "is_reserved": 0}, {"lon": -77.02878633333333, "bike_id": "a0886fbd59922d7c4cc9d30035a1ec1c", "lat": 38.904292, "fusion_lon": 0.0, "fusion_lat": 0.0, "type": "electric_scooter", "name": "a0886fbd59922d7c4cc9d30035a1ec1c", "is_disabled": 0, "rental_uris": {"ios": "https://dc.lft.to/lastmile_qr_scan", "android": "https://dc.lft.to/lastmile_qr_scan"}, "is_reserved": 0}, {"lon": -77.01192616666667, "bike_id": "59ca22b7baa6426aff09a48fb0aa58b1", "lat": 38.915527833333336, "fusion_lon": 0.0, "fusion_lat": 0.0, "type": "electric_scooter", "name": "59ca22b7baa6426aff09a48fb0aa58b1", "is_disabled": 0, "rental_uris": {"ios": "https://dc.lft.to/lastmile_qr_scan", "android": "https://dc.lft.to/lastmile_qr_scan"}, "is_reserved": 0}, {"lon": -77.02704666666666, "bike_id": "63d5ca0232e2a381c6fba0a8781d1c39", "lat": 38.927787, "fusion_lon": 0.0, "fusion_lat": 0.0, "type": "electric_scooter", "name": "63d5ca0232e2a381c6fba0a8781d1c39", "is_disabled": 0, "rental_uris": {"ios": "https://dc.lft.to/lastmile_qr_scan", "android": "https://dc.lft.to/lastmile_qr_scan"}, "is_reserved": 0}, {"lon": -76.9730275, "bike_id": "c78c9228a774bceb3b0def8f16e757fd", "lat": 38.91647783333333, "fusion_lon": 0.0, "fusion_lat": 0.0, "type": "electric_bike", "name": "c78c9228a774bceb3b0def8f16e757fd", "is_disabled": 0, "rental_uris": {"ios": "https://dc.lft.to/lastmile_qr_scan", "android": "https://dc.lft.to/lastmile_qr_scan"}, "is_reserved": 0}, {"lon": -77.0589065, "bike_id": "be86f280822d7afe6e7b3cb80eb7780e", "lat": 38.936121, "fusion_lon": 0.0, "fusion_lat": 0.0, "type": "electric_scooter", "name": "be86f280822d7afe6e7b3cb80eb7780e", "is_disabled": 0, "rental_uris": {"ios": "https://dc.lft.to/lastmile_qr_scan", "android": "https://dc.lft.to/lastmile_qr_scan"}, "is_reserved": 0}, {"lon": -77.02399033333333, "bike_id": "36d46078f3cca6b859004ce84d671677", "lat": 38.9174835, "fusion_lon": 0.0, "fusion_lat": 0.0, "type": "electric_scooter", "name": "36d46078f3cca6b859004ce84d671677", "is_disabled": 0, "rental_uris": {"ios": "https://dc.lft.to/lastmile_qr_scan", "android": "https://dc.lft.to/lastmile_qr_scan"}, "is_reserved": 0}, {"lon": -77.03627983333334, "bike_id": "0e452347e73d3ee51e85d8cf827b861f", "lat": 38.94815716666667, "fusion_lon": 0.0, "fusion_lat": 0.0, "type": "electric_scooter", "name": "0e452347e73d3ee51e85d8cf827b861f", "is_disabled": 0, "rental_uris": {"ios": "https://dc.lft.to/lastmile_qr_scan", "android": "https://dc.lft.to/lastmile_qr_scan"}, "is_reserved": 0}, {"lon": -77.02356033333334, "bike_id": "33d87944972ae1cbbc090c5093dc00bf", "lat": 38.9206785, "fusion_lon": 0.0, "fusion_lat": 0.0, "type": "electric_scooter", "name": "33d87944972ae1cbbc090c5093dc00bf", "is_disabled": 0, "rental_uris": {"ios": "https://dc.lft.to/lastmile_qr_scan", "android": "https://dc.lft.to/lastmile_qr_scan"}, "is_reserved": 0}, {"lon": -76.9487105, "bike_id": "7f76f03dc705eefd0831ac069eb9b1cf", "lat": 38.89549683333333, "fusion_lon": 0.0, "fusion_lat": 0.0, "type": "electric_scooter", "name": "7f76f03dc705eefd0831ac069eb9b1cf", "is_disabled": 0, "rental_uris": {"ios": "https://dc.lft.to/lastmile_qr_scan", "android": "https://dc.lft.to/lastmile_qr_scan"}, "is_reserved": 0}, {"lon": -77.05069816666666, "bike_id": "f62b6aa361418adf21f441e3264c8e98", "lat": 38.896827, "fusion_lon": 0.0, "fusion_lat": 0.0, "type": "electric_scooter", "name": "f62b6aa361418adf21f441e3264c8e98", "is_disabled": 0, "rental_uris": {"ios": "https://dc.lft.to/lastmile_qr_scan", "android": "https://dc.lft.to/lastmile_qr_scan"}, "is_reserved": 0}, {"lon": -77.04876, "bike_id": "408ffad2e66499d32adb7482ad744eb9", "lat": 38.90356, "fusion_lon": 0.0, "fusion_lat": 0.0, "type": "electric_scooter", "name": "408ffad2e66499d32adb7482ad744eb9", "is_disabled": 0, "rental_uris": {"ios": "https://dc.lft.to/lastmile_qr_scan", "android": "https://dc.lft.to/lastmile_qr_scan"}, "is_reserved": 0}, {"lon": -77.03346483333333, "bike_id": "1edf5ee8832ccc241a82df724deaff97", "lat": 38.90283683333333, "fusion_lon": 0.0, "fusion_lat": 0.0, "type": "electric_scooter", "name": "1edf5ee8832ccc241a82df724deaff97", "is_disabled": 0, "rental_uris": {"ios": "https://dc.lft.to/lastmile_qr_scan", "android": "https://dc.lft.to/lastmile_qr_scan"}, "is_reserved": 0}, {"lon": -76.93732383333334, "bike_id": "680098b7855fb836dca92f79ba21ee87", "lat": 38.89015, "fusion_lon": 0.0, "fusion_lat": 0.0, "type": "electric_scooter", "name": "680098b7855fb836dca92f79ba21ee87", "is_disabled": 0, "rental_uris": {"ios": "https://dc.lft.to/lastmile_qr_scan", "android": "https://dc.lft.to/lastmile_qr_scan"}, "is_reserved": 0}, {"lon": -77.021915, "bike_id": "0277d36d9e011984d03de38d00270262", "lat": 38.9200835, "fusion_lon": 0.0, "fusion_lat": 0.0, "type": "electric_scooter", "name": "0277d36d9e011984d03de38d00270262", "is_disabled": 0, "rental_uris": {"ios": "https://dc.lft.to/lastmile_qr_scan", "android": "https://dc.lft.to/lastmile_qr_scan"}, "is_reserved": 0}, {"lon": -77.01610466666666, "bike_id": "e51afc140f6df6cb1d036ebfb4c4f921", "lat": 38.919480666666665, "fusion_lon": 0.0, "fusion_lat": 0.0, "type": "electric_scooter", "name": "e51afc140f6df6cb1d036ebfb4c4f921", "is_disabled": 0, "rental_uris": {"ios": "https://dc.lft.to/lastmile_qr_scan", "android": "https://dc.lft.to/lastmile_qr_scan"}, "is_reserved": 0}, {"lon": -77.03639166666666, "bike_id": "c1c30372afbcb0fbfdf6d599c13f735f", "lat": 38.931783833333334, "fusion_lon": 0.0, "fusion_lat": 0.0, "type": "electric_scooter", "name": "c1c30372afbcb0fbfdf6d599c13f735f", "is_disabled": 0, "rental_uris": {"ios": "https://dc.lft.to/lastmile_qr_scan", "android": "https://dc.lft.to/lastmile_qr_scan"}, "is_reserved": 0}, {"lon": -77.04722883333334, "bike_id": "673dd47a9441512850d6ff0d52231a29", "lat": 38.91122266666667, "fusion_lon": 0.0, "fusion_lat": 0.0, "type": "electric_scooter", "name": "673dd47a9441512850d6ff0d52231a29", "is_disabled": 0, "rental_uris": {"ios": "https://dc.lft.to/lastmile_qr_scan", "android": "https://dc.lft.to/lastmile_qr_scan"}, "is_reserved": 0}, {"lon": -77.00348716666667, "bike_id": "5fcecb0eb80042fe071a9a1e2afa7ba4", "lat": 38.90272983333333, "fusion_lon": 0.0, "fusion_lat": 0.0, "type": "electric_scooter", "name": "5fcecb0eb80042fe071a9a1e2afa7ba4", "is_disabled": 0, "rental_uris": {"ios": "https://dc.lft.to/lastmile_qr_scan", "android": "https://dc.lft.to/lastmile_qr_scan"}, "is_reserved": 0}, {"lon": -77.00099916666667, "bike_id": "5785fcb807fd2259fa4953d2e1c4850d", "lat": 38.90750233333333, "fusion_lon": 0.0, "fusion_lat": 0.0, "type": "electric_scooter", "name": "5785fcb807fd2259fa4953d2e1c4850d", "is_disabled": 0, "rental_uris": {"ios": "https://dc.lft.to/lastmile_qr_scan", "android": "https://dc.lft.to/lastmile_qr_scan"}, "is_reserved": 0}, {"lon": -77.03414366666667, "bike_id": "b1515a0d792c1287bbb75435a2bda238", "lat": 38.9273645, "fusion_lon": 0.0, "fusion_lat": 0.0, "type": "electric_scooter", "name": "b1515a0d792c1287bbb75435a2bda238", "is_disabled": 0, "rental_uris": {"ios": "https://dc.lft.to/lastmile_qr_scan", "android": "https://dc.lft.to/lastmile_qr_scan"}, "is_reserved": 0}, {"lon": -77.03621683333333, "bike_id": "0fc58720acbef079785d4dea8d6be664", "lat": 38.912644, "fusion_lon": 0.0, "fusion_lat": 0.0, "type": "electric_scooter", "name": "0fc58720acbef079785d4dea8d6be664", "is_disabled": 0, "rental_uris": {"ios": "https://dc.lft.to/lastmile_qr_scan", "android": "https://dc.lft.to/lastmile_qr_scan"}, "is_reserved": 0}, {"lon": -77.06727033333334, "bike_id": "637a99783c26adcd17667f25677e5c47", "lat": 38.9036, "fusion_lon": 0.0, "fusion_lat": 0.0, "type": "electric_scooter", "name": "637a99783c26adcd17667f25677e5c47", "is_disabled": 0, "rental_uris": {"ios": "https://dc.lft.to/lastmile_qr_scan", "android": "https://dc.lft.to/lastmile_qr_scan"}, "is_reserved": 0}, {"lon": -77.0272665, "bike_id": "b03d2af4e91615c90a8e71040657040d", "lat": 38.90561133333333, "fusion_lon": 0.0, "fusion_lat": 0.0, "type": "electric_scooter", "name": "b03d2af4e91615c90a8e71040657040d", "is_disabled": 0, "rental_uris": {"ios": "https://dc.lft.to/lastmile_qr_scan", "android": "https://dc.lft.to/lastmile_qr_scan"}, "is_reserved": 0}, {"lon": -77.01769166666666, "bike_id": "b26fafbcd7d400604cd4fcf17a43bf8c", "lat": 38.885868333333335, "fusion_lon": 0.0, "fusion_lat": 0.0, "type": "electric_scooter", "name": "b26fafbcd7d400604cd4fcf17a43bf8c", "is_disabled": 0, "rental_uris": {"ios": "https://dc.lft.to/lastmile_qr_scan", "android": "https://dc.lft.to/lastmile_qr_scan"}, "is_reserved": 0}, {"lon": -77.03660333333333, "bike_id": "a2b5f2857385bf2e81773bb08abf490e", "lat": 38.936348833333334, "fusion_lon": 0.0, "fusion_lat": 0.0, "type": "electric_scooter", "name": "a2b5f2857385bf2e81773bb08abf490e", "is_disabled": 0, "rental_uris": {"ios": "https://dc.lft.to/lastmile_qr_scan", "android": "https://dc.lft.to/lastmile_qr_scan"}, "is_reserved": 0}, {"lon": -77.04383916666667, "bike_id": "857c56d980df8e9d129fc59545f9a413", "lat": 38.92113633333334, "fusion_lon": 0.0, "fusion_lat": 0.0, "type": "electric_scooter", "name": "857c56d980df8e9d129fc59545f9a413", "is_disabled": 0, "rental_uris": {"ios": "https://dc.lft.to/lastmile_qr_scan", "android": "https://dc.lft.to/lastmile_qr_scan"}, "is_reserved": 0}, {"lon": -77.032626, "bike_id": "1b3e72debf9716f7a993d2caacde8914", "lat": 38.9276055, "fusion_lon": 0.0, "fusion_lat": 0.0, "type": "electric_scooter", "name": "1b3e72debf9716f7a993d2caacde8914", "is_disabled": 0, "rental_uris": {"ios": "https://dc.lft.to/lastmile_qr_scan", "android": "https://dc.lft.to/lastmile_qr_scan"}, "is_reserved": 0}, {"lon": -77.03094833333333, "bike_id": "185aa1af72bd07bdda2c865e4a6e1aee", "lat": 38.93394583333333, "fusion_lon": 0.0, "fusion_lat": 0.0, "type": "electric_scooter", "name": "185aa1af72bd07bdda2c865e4a6e1aee", "is_disabled": 0, "rental_uris": {"ios": "https://dc.lft.to/lastmile_qr_scan", "android": "https://dc.lft.to/lastmile_qr_scan"}, "is_reserved": 0}, {"lon": -77.01517383333334, "bike_id": "de758d6fd6b462d85db1cba2d77eb544", "lat": 38.89235883333333, "fusion_lon": 0.0, "fusion_lat": 0.0, "type": "electric_scooter", "name": "de758d6fd6b462d85db1cba2d77eb544", "is_disabled": 0, "rental_uris": {"ios": "https://dc.lft.to/lastmile_qr_scan", "android": "https://dc.lft.to/lastmile_qr_scan"}, "is_reserved": 0}, {"lon": -76.99945216666667, "bike_id": "be37ecb59a94f1d0ae8551c3bec850c9", "lat": 38.903713, "fusion_lon": 0.0, "fusion_lat": 0.0, "type": "electric_scooter", "name": "be37ecb59a94f1d0ae8551c3bec850c9", "is_disabled": 0, "rental_uris": {"ios": "https://dc.lft.to/lastmile_qr_scan", "android": "https://dc.lft.to/lastmile_qr_scan"}, "is_reserved": 0}, {"lon": -76.987839, "bike_id": "8c184a11f5c632f0ecd26c13461e1c38", "lat": 38.878462166666665, "fusion_lon": 0.0, "fusion_lat": 0.0, "type": "electric_scooter", "name": "8c184a11f5c632f0ecd26c13461e1c38", "is_disabled": 0, "rental_uris": {"ios": "https://dc.lft.to/lastmile_qr_scan", "android": "https://dc.lft.to/lastmile_qr_scan"}, "is_reserved": 0}, {"lon": -77.00088916666667, "bike_id": "605fe592459a55e75cf6afa786b50f82", "lat": 38.89485483333333, "fusion_lon": 0.0, "fusion_lat": 0.0, "type": "electric_scooter", "name": "605fe592459a55e75cf6afa786b50f82", "is_disabled": 0, "rental_uris": {"ios": "https://dc.lft.to/lastmile_qr_scan", "android": "https://dc.lft.to/lastmile_qr_scan"}, "is_reserved": 0}, {"lon": -77.02171433333334, "bike_id": "3c08210736a5c76579eeb9767a6ad295", "lat": 38.90030133333333, "fusion_lon": 0.0, "fusion_lat": 0.0, "type": "electric_scooter", "name": "3c08210736a5c76579eeb9767a6ad295", "is_disabled": 0, "rental_uris": {"ios": "https://dc.lft.to/lastmile_qr_scan", "android": "https://dc.lft.to/lastmile_qr_scan"}, "is_reserved": 0}, {"lon": -77.05253183333333, "bike_id": "e195ec497db75d90c8e96faec7f38347", "lat": 38.90001083333333, "fusion_lon": 0.0, "fusion_lat": 0.0, "type": "electric_scooter", "name": "e195ec497db75d90c8e96faec7f38347", "is_disabled": 0, "rental_uris": {"ios": "https://dc.lft.to/lastmile_qr_scan", "android": "https://dc.lft.to/lastmile_qr_scan"}, "is_reserved": 0}, {"lon": -77.06533833333333, "bike_id": "2d4ec2d5a599bbb0a054d2e11e67cc6b", "lat": 38.94745533333333, "fusion_lon": 0.0, "fusion_lat": 0.0, "type": "electric_scooter", "name": "2d4ec2d5a599bbb0a054d2e11e67cc6b", "is_disabled": 0, "rental_uris": {"ios": "https://dc.lft.to/lastmile_qr_scan", "android": "https://dc.lft.to/lastmile_qr_scan"}, "is_reserved": 0}, {"lon": -77.00916183333334, "bike_id": "5b4f726c0bfe6609e658117bb10036f2", "lat": 38.895560333333336, "fusion_lon": 0.0, "fusion_lat": 0.0, "type": "electric_scooter", "name": "5b4f726c0bfe6609e658117bb10036f2", "is_disabled": 0, "rental_uris": {"ios": "https://dc.lft.to/lastmile_qr_scan", "android": "https://dc.lft.to/lastmile_qr_scan"}, "is_reserved": 0}, {"lon": -77.00356666666667, "bike_id": "8a63efeb8107d629ea6ba3d8aecfdffe", "lat": 38.915545, "fusion_lon": 0.0, "fusion_lat": 0.0, "type": "electric_scooter", "name": "8a63efeb8107d629ea6ba3d8aecfdffe", "is_disabled": 0, "rental_uris": {"ios": "https://dc.lft.to/lastmile_qr_scan", "android": "https://dc.lft.to/lastmile_qr_scan"}, "is_reserved": 0}, {"lon": -76.99881766666667, "bike_id": "48cc8aa314b3265f1ffaa29d18673ac3", "lat": 38.920572, "fusion_lon": 0.0, "fusion_lat": 0.0, "type": "electric_scooter", "name": "48cc8aa314b3265f1ffaa29d18673ac3", "is_disabled": 0, "rental_uris": {"ios": "https://dc.lft.to/lastmile_qr_scan", "android": "https://dc.lft.to/lastmile_qr_scan"}, "is_reserved": 0}, {"lon": -76.984879, "bike_id": "1442c8921cbab3f32c2ef89b1223a2a8", "lat": 38.89898483333333, "fusion_lon": 0.0, "fusion_lat": 0.0, "type": "electric_scooter", "name": "1442c8921cbab3f32c2ef89b1223a2a8", "is_disabled": 0, "rental_uris": {"ios": "https://dc.lft.to/lastmile_qr_scan", "android": "https://dc.lft.to/lastmile_qr_scan"}, "is_reserved": 0}, {"lon": -77.00287866666666, "bike_id": "d82ea46608c4aa8d3553046f973e1c30", "lat": 38.9570415, "fusion_lon": 0.0, "fusion_lat": 0.0, "type": "electric_bike", "name": "d82ea46608c4aa8d3553046f973e1c30", "is_disabled": 0, "rental_uris": {"ios": "https://dc.lft.to/lastmile_qr_scan", "android": "https://dc.lft.to/lastmile_qr_scan"}, "is_reserved": 0}, {"lon": -77.03397183333334, "bike_id": "96f1738ced2ed1b9af8978385d6104da", "lat": 38.96033883333333, "fusion_lon": 0.0, "fusion_lat": 0.0, "type": "electric_bike", "name": "96f1738ced2ed1b9af8978385d6104da", "is_disabled": 0, "rental_uris": {"ios": "https://dc.lft.to/lastmile_qr_scan", "android": "https://dc.lft.to/lastmile_qr_scan"}, "is_reserved": 0}, {"lon": -76.99778916666666, "bike_id": "cb0424f587b55389db83d17f804ca6c4", "lat": 38.844343333333335, "fusion_lon": 0.0, "fusion_lat": 0.0, "type": "electric_scooter", "name": "cb0424f587b55389db83d17f804ca6c4", "is_disabled": 0, "rental_uris": {"ios": "https://dc.lft.to/lastmile_qr_scan", "android": "https://dc.lft.to/lastmile_qr_scan"}, "is_reserved": 0}, {"lon": -77.0318435, "bike_id": "938c3945be5877012ac1afe47564d814", "lat": 38.91509, "fusion_lon": 0.0, "fusion_lat": 0.0, "type": "electric_scooter", "name": "938c3945be5877012ac1afe47564d814", "is_disabled": 0, "rental_uris": {"ios": "https://dc.lft.to/lastmile_qr_scan", "android": "https://dc.lft.to/lastmile_qr_scan"}, "is_reserved": 0}, {"lon": -77.03641116666667, "bike_id": "7002ca2d2aa522cc8ab438c78932809a", "lat": 38.91295266666667, "fusion_lon": 0.0, "fusion_lat": 0.0, "type": "electric_scooter", "name": "7002ca2d2aa522cc8ab438c78932809a", "is_disabled": 0, "rental_uris": {"ios": "https://dc.lft.to/lastmile_qr_scan", "android": "https://dc.lft.to/lastmile_qr_scan"}, "is_reserved": 0}, {"lon": -77.02263283333333, "bike_id": "fbfb72f66fa6e01fb85a63390b19fe16", "lat": 38.927409833333336, "fusion_lon": 0.0, "fusion_lat": 0.0, "type": "electric_scooter", "name": "fbfb72f66fa6e01fb85a63390b19fe16", "is_disabled": 0, "rental_uris": {"ios": "https://dc.lft.to/lastmile_qr_scan", "android": "https://dc.lft.to/lastmile_qr_scan"}, "is_reserved": 0}, {"lon": -77.04316266666666, "bike_id": "5c64888b84726a5aa81d2536c9b91849", "lat": 38.918804, "fusion_lon": 0.0, "fusion_lat": 0.0, "type": "electric_scooter", "name": "5c64888b84726a5aa81d2536c9b91849", "is_disabled": 0, "rental_uris": {"ios": "https://dc.lft.to/lastmile_qr_scan", "android": "https://dc.lft.to/lastmile_qr_scan"}, "is_reserved": 0}, {"lon": -76.94191316666667, "bike_id": "06442fb48b9328ef962096a0f4d5e340", "lat": 38.89312533333333, "fusion_lon": 0.0, "fusion_lat": 0.0, "type": "electric_bike", "name": "06442fb48b9328ef962096a0f4d5e340", "is_disabled": 0, "rental_uris": {"ios": "https://dc.lft.to/lastmile_qr_scan", "android": "https://dc.lft.to/lastmile_qr_scan"}, "is_reserved": 0}, {"lon": -77.044096, "bike_id": "ddb1e25302ee2e488492ac1506e0294c", "lat": 38.91257516666667, "fusion_lon": 0.0, "fusion_lat": 0.0, "type": "electric_scooter", "name": "ddb1e25302ee2e488492ac1506e0294c", "is_disabled": 0, "rental_uris": {"ios": "https://dc.lft.to/lastmile_qr_scan", "android": "https://dc.lft.to/lastmile_qr_scan"}, "is_reserved": 0}, {"lon": -77.00669733333334, "bike_id": "57c6668785538a59c8c6a03a87ae8e32", "lat": 38.94516316666667, "fusion_lon": 0.0, "fusion_lat": 0.0, "type": "electric_bike", "name": "57c6668785538a59c8c6a03a87ae8e32", "is_disabled": 0, "rental_uris": {"ios": "https://dc.lft.to/lastmile_qr_scan", "android": "https://dc.lft.to/lastmile_qr_scan"}, "is_reserved": 0}, {"lon": -76.99422466666667, "bike_id": "11dc30a4830e58d3a4134ed21d965afe", "lat": 38.83602333333333, "fusion_lon": 0.0, "fusion_lat": 0.0, "type": "electric_scooter", "name": "11dc30a4830e58d3a4134ed21d965afe", "is_disabled": 0, "rental_uris": {"ios": "https://dc.lft.to/lastmile_qr_scan", "android": "https://dc.lft.to/lastmile_qr_scan"}, "is_reserved": 0}, {"lon": -76.98844133333333, "bike_id": "712925efb3f4ddb7ed9888ae1ad37469", "lat": 38.84279683333333, "fusion_lon": 0.0, "fusion_lat": 0.0, "type": "electric_bike", "name": "712925efb3f4ddb7ed9888ae1ad37469", "is_disabled": 0, "rental_uris": {"ios": "https://dc.lft.to/lastmile_qr_scan", "android": "https://dc.lft.to/lastmile_qr_scan"}, "is_reserved": 0}, {"lon": -77.0241555, "bike_id": "6b1718eabe13ab1c3b59ff3b72d4c925", "lat": 38.917770833333336, "fusion_lon": 0.0, "fusion_lat": 0.0, "type": "electric_scooter", "name": "6b1718eabe13ab1c3b59ff3b72d4c925", "is_disabled": 0, "rental_uris": {"ios": "https://dc.lft.to/lastmile_qr_scan", "android": "https://dc.lft.to/lastmile_qr_scan"}, "is_reserved": 0}, {"lon": -77.02168533333334, "bike_id": "6f3cd4f2e3d6de796aa3170610bd3c7f", "lat": 38.887493, "fusion_lon": 0.0, "fusion_lat": 0.0, "type": "electric_scooter", "name": "6f3cd4f2e3d6de796aa3170610bd3c7f", "is_disabled": 0, "rental_uris": {"ios": "https://dc.lft.to/lastmile_qr_scan", "android": "https://dc.lft.to/lastmile_qr_scan"}, "is_reserved": 0}, {"lon": -76.9949905, "bike_id": "88cc030bbfa132c34052ef580f2c5939", "lat": 38.88350583333333, "fusion_lon": 0.0, "fusion_lat": 0.0, "type": "electric_scooter", "name": "88cc030bbfa132c34052ef580f2c5939", "is_disabled": 0, "rental_uris": {"ios": "https://dc.lft.to/lastmile_qr_scan", "android": "https://dc.lft.to/lastmile_qr_scan"}, "is_reserved": 0}, {"lon": -77.02555133333334, "bike_id": "763f05b43ba8a66c8ef2af8522e4ce07", "lat": 38.94139916666666, "fusion_lon": 0.0, "fusion_lat": 0.0, "type": "electric_scooter", "name": "763f05b43ba8a66c8ef2af8522e4ce07", "is_disabled": 0, "rental_uris": {"ios": "https://dc.lft.to/lastmile_qr_scan", "android": "https://dc.lft.to/lastmile_qr_scan"}, "is_reserved": 0}, {"lon": -77.03496016666666, "bike_id": "db6e53c8e7043e04ef744b49a8564337", "lat": 38.932701333333334, "fusion_lon": 0.0, "fusion_lat": 0.0, "type": "electric_scooter", "name": "db6e53c8e7043e04ef744b49a8564337", "is_disabled": 0, "rental_uris": {"ios": "https://dc.lft.to/lastmile_qr_scan", "android": "https://dc.lft.to/lastmile_qr_scan"}, "is_reserved": 0}, {"lon": -77.023714, "bike_id": "27a957bca20c5f8ce0eb5e2a1d13edf1", "lat": 38.899803666666664, "fusion_lon": 0.0, "fusion_lat": 0.0, "type": "electric_scooter", "name": "27a957bca20c5f8ce0eb5e2a1d13edf1", "is_disabled": 0, "rental_uris": {"ios": "https://dc.lft.to/lastmile_qr_scan", "android": "https://dc.lft.to/lastmile_qr_scan"}, "is_reserved": 0}, {"lon": -76.94422933333334, "bike_id": "bc5ef39870fe3b9f8a154d7a61c3e234", "lat": 38.966223166666666, "fusion_lon": 0.0, "fusion_lat": 0.0, "type": "electric_bike", "name": "bc5ef39870fe3b9f8a154d7a61c3e234", "is_disabled": 0, "rental_uris": {"ios": "https://dc.lft.to/lastmile_qr_scan", "android": "https://dc.lft.to/lastmile_qr_scan"}, "is_reserved": 0}, {"lon": -77.0916555, "bike_id": "82e9ad24e14f728d4eda1fa6a3132a5a", "lat": 38.94560833333333, "fusion_lon": 0.0, "fusion_lat": 0.0, "type": "electric_scooter", "name": "82e9ad24e14f728d4eda1fa6a3132a5a", "is_disabled": 0, "rental_uris": {"ios": "https://dc.lft.to/lastmile_qr_scan", "android": "https://dc.lft.to/lastmile_qr_scan"}, "is_reserved": 0}, {"lon": -77.038022, "bike_id": "3b6175a2f2a4de7097a3471ef22858a0", "lat": 38.933992833333335, "fusion_lon": 0.0, "fusion_lat": 0.0, "type": "electric_scooter", "name": "3b6175a2f2a4de7097a3471ef22858a0", "is_disabled": 0, "rental_uris": {"ios": "https://dc.lft.to/lastmile_qr_scan", "android": "https://dc.lft.to/lastmile_qr_scan"}, "is_reserved": 0}, {"lon": -77.056, "bike_id": "da7ca8efedbfec4f8159fb6f0e8141cc", "lat": 38.937019666666664, "fusion_lon": 0.0, "fusion_lat": 0.0, "type": "electric_scooter", "name": "da7ca8efedbfec4f8159fb6f0e8141cc", "is_disabled": 0, "rental_uris": {"ios": "https://dc.lft.to/lastmile_qr_scan", "android": "https://dc.lft.to/lastmile_qr_scan"}, "is_reserved": 0}, {"lon": -77.00394933333334, "bike_id": "e0c2feb8edefef651b8d1fad97e10148", "lat": 38.90803233333333, "fusion_lon": 0.0, "fusion_lat": 0.0, "type": "electric_scooter", "name": "e0c2feb8edefef651b8d1fad97e10148", "is_disabled": 0, "rental_uris": {"ios": "https://dc.lft.to/lastmile_qr_scan", "android": "https://dc.lft.to/lastmile_qr_scan"}, "is_reserved": 0}, {"lon": -76.973296, "bike_id": "dca4daf54d083252f1546fee69cfd8c3", "lat": 38.904121833333335, "fusion_lon": 0.0, "fusion_lat": 0.0, "type": "electric_scooter", "name": "dca4daf54d083252f1546fee69cfd8c3", "is_disabled": 0, "rental_uris": {"ios": "https://dc.lft.to/lastmile_qr_scan", "android": "https://dc.lft.to/lastmile_qr_scan"}, "is_reserved": 0}, {"lon": -76.945696, "bike_id": "b1984dbbddb26baff3da2512cf811f5d", "lat": 38.866226166666664, "fusion_lon": 0.0, "fusion_lat": 0.0, "type": "electric_bike", "name": "b1984dbbddb26baff3da2512cf811f5d", "is_disabled": 0, "rental_uris": {"ios": "https://dc.lft.to/lastmile_qr_scan", "android": "https://dc.lft.to/lastmile_qr_scan"}, "is_reserved": 0}, {"lon": -77.02804283333333, "bike_id": "4e0ab0dcb22d1d042ffa781558d71251", "lat": 38.9287475, "fusion_lon": 0.0, "fusion_lat": 0.0, "type": "electric_scooter", "name": "4e0ab0dcb22d1d042ffa781558d71251", "is_disabled": 0, "rental_uris": {"ios": "https://dc.lft.to/lastmile_qr_scan", "android": "https://dc.lft.to/lastmile_qr_scan"}, "is_reserved": 0}, {"lon": -76.98838366666666, "bike_id": "7f560100213b8d4d071b9188416222d5", "lat": 38.90074216666667, "fusion_lon": 0.0, "fusion_lat": 0.0, "type": "electric_scooter", "name": "7f560100213b8d4d071b9188416222d5", "is_disabled": 0, "rental_uris": {"ios": "https://dc.lft.to/lastmile_qr_scan", "android": "https://dc.lft.to/lastmile_qr_scan"}, "is_reserved": 0}, {"lon": -77.03868366666667, "bike_id": "a0b09d0b673498161564dba1141d29c7", "lat": 38.91711933333333, "fusion_lon": 0.0, "fusion_lat": 0.0, "type": "electric_scooter", "name": "a0b09d0b673498161564dba1141d29c7", "is_disabled": 0, "rental_uris": {"ios": "https://dc.lft.to/lastmile_qr_scan", "android": "https://dc.lft.to/lastmile_qr_scan"}, "is_reserved": 0}, {"lon": -77.06106583333333, "bike_id": "c67142bf9da3bd1ce9c7a6d8fbc8bb70", "lat": 38.94373133333333, "fusion_lon": 0.0, "fusion_lat": 0.0, "type": "electric_scooter", "name": "c67142bf9da3bd1ce9c7a6d8fbc8bb70", "is_disabled": 0, "rental_uris": {"ios": "https://dc.lft.to/lastmile_qr_scan", "android": "https://dc.lft.to/lastmile_qr_scan"}, "is_reserved": 0}, {"lon": -77.00920966666666, "bike_id": "151e2e7c3164583cbac3ba7d0c036cea", "lat": 38.91067816666666, "fusion_lon": 0.0, "fusion_lat": 0.0, "type": "electric_scooter", "name": "151e2e7c3164583cbac3ba7d0c036cea", "is_disabled": 0, "rental_uris": {"ios": "https://dc.lft.to/lastmile_qr_scan", "android": "https://dc.lft.to/lastmile_qr_scan"}, "is_reserved": 0}, {"lon": -77.03184933333333, "bike_id": "f2892333f6f5f88e7cb5363d7c4a4508", "lat": 38.93615233333333, "fusion_lon": 0.0, "fusion_lat": 0.0, "type": "electric_scooter", "name": "f2892333f6f5f88e7cb5363d7c4a4508", "is_disabled": 0, "rental_uris": {"ios": "https://dc.lft.to/lastmile_qr_scan", "android": "https://dc.lft.to/lastmile_qr_scan"}, "is_reserved": 0}, {"lon": -76.98374266666667, "bike_id": "fe66fdf94666631510df8120c4e479a2", "lat": 38.8914785, "fusion_lon": 0.0, "fusion_lat": 0.0, "type": "electric_scooter", "name": "fe66fdf94666631510df8120c4e479a2", "is_disabled": 0, "rental_uris": {"ios": "https://dc.lft.to/lastmile_qr_scan", "android": "https://dc.lft.to/lastmile_qr_scan"}, "is_reserved": 0}, {"lon": -76.98569166666667, "bike_id": "b4ac767fa50c8fd0076a53f3b0a9f8a8", "lat": 38.89618933333333, "fusion_lon": 0.0, "fusion_lat": 0.0, "type": "electric_scooter", "name": "b4ac767fa50c8fd0076a53f3b0a9f8a8", "is_disabled": 0, "rental_uris": {"ios": "https://dc.lft.to/lastmile_qr_scan", "android": "https://dc.lft.to/lastmile_qr_scan"}, "is_reserved": 0}, {"lon": -77.04465783333333, "bike_id": "38d89295dfd49a18bbaf0e326a4fb655", "lat": 38.915407333333334, "fusion_lon": 0.0, "fusion_lat": 0.0, "type": "electric_scooter", "name": "38d89295dfd49a18bbaf0e326a4fb655", "is_disabled": 0, "rental_uris": {"ios": "https://dc.lft.to/lastmile_qr_scan", "android": "https://dc.lft.to/lastmile_qr_scan"}, "is_reserved": 0}, {"lon": -77.0260465, "bike_id": "cfb21e8d932b362313ef67ddd60c45b0", "lat": 38.90170366666667, "fusion_lon": 0.0, "fusion_lat": 0.0, "type": "electric_scooter", "name": "cfb21e8d932b362313ef67ddd60c45b0", "is_disabled": 0, "rental_uris": {"ios": "https://dc.lft.to/lastmile_qr_scan", "android": "https://dc.lft.to/lastmile_qr_scan"}, "is_reserved": 0}, {"lon": -77.0450335, "bike_id": "cee8864c689d0058923cce8d60a96282", "lat": 38.907192333333334, "fusion_lon": 0.0, "fusion_lat": 0.0, "type": "electric_scooter", "name": "cee8864c689d0058923cce8d60a96282", "is_disabled": 0, "rental_uris": {"ios": "https://dc.lft.to/lastmile_qr_scan", "android": "https://dc.lft.to/lastmile_qr_scan"}, "is_reserved": 0}, {"lon": -77.05161516666666, "bike_id": "561e42275d08cb88320a488caee056e4", "lat": 38.903233666666665, "fusion_lon": 0.0, "fusion_lat": 0.0, "type": "electric_scooter", "name": "561e42275d08cb88320a488caee056e4", "is_disabled": 0, "rental_uris": {"ios": "https://dc.lft.to/lastmile_qr_scan", "android": "https://dc.lft.to/lastmile_qr_scan"}, "is_reserved": 0}, {"lon": -77.0376385, "bike_id": "1fb1f52aa055125ad52f64a0cc7404e3", "lat": 38.925701833333335, "fusion_lon": 0.0, "fusion_lat": 0.0, "type": "electric_scooter", "name": "1fb1f52aa055125ad52f64a0cc7404e3", "is_disabled": 0, "rental_uris": {"ios": "https://dc.lft.to/lastmile_qr_scan", "android": "https://dc.lft.to/lastmile_qr_scan"}, "is_reserved": 0},