{"data": {"bikes": [{"fusion_lat": 0.0, "name": "6f089efdbc35ad0f6616777c112f3fb7", "is_disabled": 0, "rental_uris": {"android": "https://dc.lft.to/lastmile_qr_scan", "ios": "https://dc.lft.to/lastmile_qr_scan"}, "fusion_lon": 0.0, "lat": 38.88534633333333, "bike_id": "6f089efdbc35ad0f6616777c112f3fb7", "type": "electric_scooter", "is_reserved": 0, "lon": -77.00064016666667}, {"fusion_lat": 0.0, "name": "26e28564d38df3b7493326a0f5823556", "is_disabled": 0, "rental_uris": {"android": "https://dc.lft.to/lastmile_qr_scan", "ios": "https://dc.lft.to/lastmile_qr_scan"}, "fusion_lon": 0.0, "lat": 38.88537383333333, "bike_id": "26e28564d38df3b7493326a0f5823556", "type": "electric_scooter", "is_reserved": 0, "lon": -77.00063966666667}, {"fusion_lat": 0.0, "name": "2d063d2d21366bd4473d8108feb3f04d", "is_disabled": 0, "rental_uris": {"android": "https://dc.lft.to/lastmile_qr_scan", "ios": "https://dc.lft.to/lastmile_qr_scan"}, "fusion_lon": 0.0, "lat": 38.92377483333333, "bike_id": "2d063d2d21366bd4473d8108feb3f04d", "type": "electric_scooter", "is_reserved": 0, "lon": -77.04313466666666}, {"fusion_lat": 0.0, "name": "da69b4da3037e9995d26d71231290a8e", "is_disabled": 0, "rental_uris": {"android": "https://dc.lft.to/lastmile_qr_scan", "ios": "https://dc.lft.to/lastmile_qr_scan"}, "fusion_lon": 0.0, "lat": 38.87737583333333, "bike_id": "da69b4da3037e9995d26d71231290a8e", "type": "electric_scooter", "is_reserved": 0, "lon": -76.99668716666666}, {"fusion_lat": 0.0, "name": "e04ffbc61472700e3ebac27429ac662c", "is_disabled": 0, "rental_uris": {"android": "https://dc.lft.to/lastmile_qr_scan", "ios": "https://dc.lft.to/lastmile_qr_scan"}, "fusion_lon": 0.0, "lat": 38.88723516666667, "bike_id": "e04ffbc61472700e3ebac27429ac662c", "type": "electric_scooter", "is_reserved": 0, "lon": -77.01767216666667}, {"fusion_lat": 0.0, "name": "e037c1c341d60d8cac664247d23d7eb3", "is_disabled": 0, "rental_uris": {"android": "https://dc.lft.to/lastmile_qr_scan", "ios": "https://dc.lft.to/lastmile_qr_scan"}, "fusion_lon": 0.0, "lat": 38.903887, "bike_id": "e037c1c341d60d8cac664247d23d7eb3", "type": "electric_scooter", "is_reserved": 0, "lon": -77.06796833333334}, {"fusion_lat": 0.0, "name": "318daa8b15bf9dab898bbaceb3cd529f", "is_disabled": 0, "rental_uris": {"android": "https://dc.lft.to/lastmile_qr_scan", "ios": "https://dc.lft.to/lastmile_qr_scan"}, "fusion_lon": 0.0, "lat": 38.9045025, "bike_id": "318daa8b15bf9dab898bbaceb3cd529f", "type": "electric_scooter", "is_reserved": 0, "lon": -77.001669}, {"fusion_lat": 0.0, "name": "481ec4c581f34a43e1b856a03ec39d90", "is_disabled": 0, "rental_uris": {"android": "https://dc.lft.to/lastmile_qr_scan", "ios": "https://dc.lft.to/lastmile_qr_scan"}, "fusion_lon": 0.0, "lat": 38.918091, "bike_id": "481ec4c581f34a43e1b856a03ec39d90", "type": "electric_scooter", "is_reserved": 0, "lon": -77.03912316666667}, {"fusion_lat": 0.0, "name": "3281dc043f0ec0a7312541fb7979974e", "is_disabled": 0, "rental_uris": {"android": "https://dc.lft.to/lastmile_qr_scan", "ios": "https://dc.lft.to/lastmile_qr_scan"}, "fusion_lon": 0.0, "lat": 38.904567, "bike_id": "3281dc043f0ec0a7312541fb7979974e", "type": "electric_scooter", "is_reserved": 0, "lon": -77.06282233333333}, {"fusion_lat": 0.0, "name": "0e154229014471bbee1b325f5c223374", "is_disabled": 0, "rental_uris": {"android": "https://dc.lft.to/lastmile_qr_scan", "ios": "https://dc.lft.to/lastmile_qr_scan"}, "fusion_lon": 0.0, "lat": 38.9541605, "bike_id": "0e154229014471bbee1b325f5c223374", "type": "electric_scooter", "is_reserved": 0, "lon": -77.0276685}, {"fusion_lat": 0.0, "name": "715970b1496153e72cf4a2fc21e34215", "is_disabled": 0, "rental_uris": {"android": "https://dc.lft.to/lastmile_qr_scan", "ios": "https://dc.lft.to/lastmile_qr_scan"}, "fusion_lon": 0.0, "lat": 38.91706516666667, "bike_id": "715970b1496153e72cf4a2fc21e34215", "type": "electric_scooter", "is_reserved": 0, "lon": -77.02349683333334}, {"fusion_lat": 0.0, "name": "a88103a7637abaa8260bceac30422f8e", "is_disabled": 0, "rental_uris": {"android": "https://dc.lft.to/lastmile_qr_scan", "ios": "https://dc.lft.to/lastmile_qr_scan"}, "fusion_lon": 0.0, "lat": 38.941864833333334, "bike_id": "a88103a7637abaa8260bceac30422f8e", "type": "electric_scooter", "is_reserved": 0, "lon": -77.02486483333334}, {"fusion_lat": 0.0, "name": "5fe9267f8324ca2ed6db23bdd486a4cb", "is_disabled": 0, "rental_uris": {"android": "https://dc.lft.to/lastmile_qr_scan", "ios": "https://dc.lft.to/lastmile_qr_scan"}, "fusion_lon": 0.0, "lat": 38.91264183333333, "bike_id": "5fe9267f8324ca2ed6db23bdd486a4cb", "type": "electric_scooter", "is_reserved": 0, "lon": -77.0386485}, {"fusion_lat": 0.0, "name": "5ffcdc38d76b66124ce631632daa7bb3", "is_disabled": 0, "rental_uris": {"android": "https://dc.lft.to/lastmile_qr_scan", "ios": "https://dc.lft.to/lastmile_qr_scan"}, "fusion_lon": 0.0, "lat": 38.9198135, "bike_id": "5ffcdc38d76b66124ce631632daa7bb3", "type": "electric_scooter", "is_reserved": 0, "lon": -77.02510933333333}, {"fusion_lat": 0.0, "name": "6dbfce1446069a11456fb4eba3fd12cb", "is_disabled": 0, "rental_uris": {"android": "https://dc.lft.to/lastmile_qr_scan", "ios": "https://dc.lft.to/lastmile_qr_scan"}, "fusion_lon": 0.0, "lat": 38.903014, "bike_id": "6dbfce1446069a11456fb4eba3fd12cb", "type": "electric_scooter", "is_reserved": 0, "lon": -76.97652266666667}, {"fusion_lat": 0.0, "name": "ed4926b9af6373fac8ec681160a36314", "is_disabled": 0, "rental_uris": {"android": "https://dc.lft.to/lastmile_qr_scan", "ios": "https://dc.lft.to/lastmile_qr_scan"}, "fusion_lon": 0.0, "lat": 38.90237316666666, "bike_id": "ed4926b9af6373fac8ec681160a36314", "type": "electric_scooter", "is_reserved": 0, "lon": -77.06132366666667}, {"fusion_lat": 0.0, "name": "f493b35c1aeefb5c1075a56e6bbd2051", "is_disabled": 0, "rental_uris": {"android": "https://dc.lft.to/lastmile_qr_scan", "ios": "https://dc.lft.to/lastmile_qr_scan"}, "fusion_lon": 0.0, "lat": 38.92485083333333, "bike_id": "f493b35c1aeefb5c1075a56e6bbd2051", "type": "electric_scooter", "is_reserved": 0, "lon": -77.02542533333333}, {"fusion_lat": 0.0, "name": "3e4db0897c7e058bf2834fc02e72c853", "is_disabled": 0, "rental_uris": {"android": "https://dc.lft.to/lastmile_qr_scan", "ios": "https://dc.lft.to/lastmile_qr_scan"}, "fusion_lon": 0.0, "lat": 38.92857633333333, "bike_id": "3e4db0897c7e058bf2834fc02e72c853", "type": "electric_scooter", "is_reserved": 0, "lon": -77.03041816666666}, {"fusion_lat": 0.0, "name": "665c6d5b8b113591186f3c433d8931bd", "is_disabled": 0, "rental_uris": {"android": "https://dc.lft.to/lastmile_qr_scan", "ios": "https://dc.lft.to/lastmile_qr_scan"}, "fusion_lon": 0.0, "lat": 38.90838933333333, "bike_id": "665c6d5b8b113591186f3c433d8931bd", "type": "electric_scooter", "is_reserved": 0, "lon": -77.0385725}, {"fusion_lat": 0.0, "name": "ec87af5f6cdb599143a84d7dce716420", "is_disabled": 0, "rental_uris": {"android": "https://dc.lft.to/lastmile_qr_scan", "ios": "https://dc.lft.to/lastmile_qr_scan"}, "fusion_lon": 0.0, "lat": 38.934766833333335, "bike_id": "ec87af5f6cdb599143a84d7dce716420", "type": "electric_scooter", "is_reserved": 0, "lon": -77.072663}, {"fusion_lat": 0.0, "name": "542301e88221b43396a6eee430915452", "is_disabled": 0, "rental_uris": {"android": "https://dc.lft.to/lastmile_qr_scan", "ios": "https://dc.lft.to/lastmile_qr_scan"}, "fusion_lon": 0.0, "lat": 38.911788, "bike_id": "542301e88221b43396a6eee430915452", "type": "electric_scooter", "is_reserved": 0, "lon": -77.021914}, {"fusion_lat": 0.0, "name": "3203a027b88b2e7226b3dafb702682b7", "is_disabled": 0, "rental_uris": {"android": "https://dc.lft.to/lastmile_qr_scan", "ios": "https://dc.lft.to/lastmile_qr_scan"}, "fusion_lon": 0.0, "lat": 38.994404, "bike_id": "3203a027b88b2e7226b3dafb702682b7", "type": "electric_bike", "is_reserved": 0, "lon": -76.99587316666667}, {"fusion_lat": 0.0, "name": "29b36d1c83e56b3c09beaddd194ec209", "is_disabled": 0, "rental_uris": {"android": "https://dc.lft.to/lastmile_qr_scan", "ios": "https://dc.lft.to/lastmile_qr_scan"}, "fusion_lon": 0.0, "lat": 38.933553833333335, "bike_id": "29b36d1c83e56b3c09beaddd194ec209", "type": "electric_scooter", "is_reserved": 0, "lon": -77.072165}, {"fusion_lat": 0.0, "name": "e771db702418b9d3f02af4b408d86261", "is_disabled": 0, "rental_uris": {"android": "https://dc.lft.to/lastmile_qr_scan", "ios": "https://dc.lft.to/lastmile_qr_scan"}, "fusion_lon": 0.0, "lat": 38.923680166666664, "bike_id": "e771db702418b9d3f02af4b408d86261", "type": "electric_scooter", "is_reserved": 0, "lon": -77.03129666666666}, {"fusion_lat": 0.0, "name": "df9cc629e7fe723ff817575ffca21d9b", "is_disabled": 0, "rental_uris": {"android": "https://dc.lft.to/lastmile_qr_scan", "ios": "https://dc.lft.to/lastmile_qr_scan"}, "fusion_lon": 0.0, "lat": 38.9174295, "bike_id": "df9cc629e7fe723ff817575ffca21d9b", "type": "electric_scooter", "is_reserved": 0, "lon": -77.031882}, {"fusion_lat": 0.0, "name": "1d70150cda4bc00ebdef56f73e285d4d", "is_disabled": 0, "rental_uris": {"android": "https://dc.lft.to/lastmile_qr_scan", "ios": "https://dc.lft.to/lastmile_qr_scan"}, "fusion_lon": 0.0, "lat": 38.92083566666667, "bike_id": "1d70150cda4bc00ebdef56f73e285d4d", "type": "electric_scooter", "is_reserved": 0, "lon": -77.0221525}, {"fusion_lat": 0.0, "name": "7b7935407b197123ce8246f1172152a3", "is_disabled": 0, "rental_uris": {"android": "https://dc.lft.to/lastmile_qr_scan", "ios": "https://dc.lft.to/lastmile_qr_scan"}, "fusion_lon": 0.0, "lat": 38.92658516666667, "bike_id": "7b7935407b197123ce8246f1172152a3", "type": "electric_scooter", "is_reserved": 0, "lon": -77.02781433333334}, {"fusion_lat": 0.0, "name": "59a988398c35772b70c15c69bd6581d0", "is_disabled": 0, "rental_uris": {"android": "https://dc.lft.to/lastmile_qr_scan", "ios": "https://dc.lft.to/lastmile_qr_scan"}, "fusion_lon": 0.0, "lat": 38.898208833333335, "bike_id": "59a988398c35772b70c15c69bd6581d0", "type": "electric_scooter", "is_reserved": 0, "lon": -77.0302805}, {"fusion_lat": 0.0, "name": "4108c894abe28eea2eb118b7d2375208", "is_disabled": 0, "rental_uris": {"android": "https://dc.lft.to/lastmile_qr_scan", "ios": "https://dc.lft.to/lastmile_qr_scan"}, "fusion_lon": 0.0, "lat": 38.9171935, "bike_id": "4108c894abe28eea2eb118b7d2375208", "type": "electric_scooter", "is_reserved": 0, "lon": -77.02705866666666}, {"fusion_lat": 0.0, "name": "328e35b7034197c399d5e5be59ff863e", "is_disabled": 0, "rental_uris": {"android": "https://dc.lft.to/lastmile_qr_scan", "ios": "https://dc.lft.to/lastmile_qr_scan"}, "fusion_lon": 0.0, "lat": 38.965718333333335, "bike_id": "328e35b7034197c399d5e5be59ff863e", "type": "electric_scooter", "is_reserved": 0, "lon": -77.0026105}, {"fusion_lat": 0.0, "name": "9ddeb0a8bcdb3aed10adb65d8263c174", "is_disabled": 0, "rental_uris": {"android": "https://dc.lft.to/lastmile_qr_scan", "ios": "https://dc.lft.to/lastmile_qr_scan"}, "fusion_lon": 0.0, "lat": 38.9241735, "bike_id": "9ddeb0a8bcdb3aed10adb65d8263c174", "type": "electric_scooter", "is_reserved": 0, "lon": -77.05738766666667}, {"fusion_lat": 0.0, "name": "08923306304e521ad8fb33470583cf1d", "is_disabled": 0, "rental_uris": {"android": "https://dc.lft.to/lastmile_qr_scan", "ios": "https://dc.lft.to/lastmile_qr_scan"}, "fusion_lon": 0.0, "lat": 38.867254333333335, "bike_id": "08923306304e521ad8fb33470583cf1d", "type": "electric_scooter", "is_reserved": 0, "lon": -76.98789233333333}, {"fusion_lat": 0.0, "name": "e9e08abd89b4df4af7e236a67d4e349c", "is_disabled": 0, "rental_uris": {"android": "https://dc.lft.to/lastmile_qr_scan", "ios": "https://dc.lft.to/lastmile_qr_scan"}, "fusion_lon": 0.0, "lat": 38.892306833333336, "bike_id": "e9e08abd89b4df4af7e236a67d4e349c", "type": "electric_scooter", "is_reserved": 0, "lon": -77.02380883333333}, {"fusion_lat": 0.0, "name": "b3b01a70b50c8b162cd01ccfa4390b43", "is_disabled": 0, "rental_uris": {"android": "https://dc.lft.to/lastmile_qr_scan", "ios": "https://dc.lft.to/lastmile_qr_scan"}, "fusion_lon": 0.0, "lat": 38.9243685, "bike_id": "b3b01a70b50c8b162cd01ccfa4390b43", "type": "electric_scooter", "is_reserved": 0, "lon": -77.0446565}, {"fusion_lat": 0.0, "name": "0531a8695d8c5c2391e889bdf2df8bbc", "is_disabled": 0, "rental_uris": {"android": "https://dc.lft.to/lastmile_qr_scan", "ios": "https://dc.lft.to/lastmile_qr_scan"}, "fusion_lon": 0.0, "lat": 38.9003535, "bike_id": "0531a8695d8c5c2391e889bdf2df8bbc", "type": "electric_scooter", "is_reserved": 0, "lon": -77.01188783333333}, {"fusion_lat": 0.0, "name": "3ad8b20cf7eb9b41045f22607d20cf97", "is_disabled": 0, "rental_uris": {"android": "https://dc.lft.to/lastmile_qr_scan", "ios": "https://dc.lft.to/lastmile_qr_scan"}, "fusion_lon": 0.0, "lat": 38.8970475, "bike_id": "3ad8b20cf7eb9b41045f22607d20cf97", "type": "electric_scooter", "is_reserved": 0, "lon": -77.01320383333334}, {"fusion_lat": 0.0, "name": "63bf7025d66cdc4b96898717d7b06348", "is_disabled": 0, "rental_uris": {"android": "https://dc.lft.to/lastmile_qr_scan", "ios": "https://dc.lft.to/lastmile_qr_scan"}, "fusion_lon": 0.0, "lat": 38.920274, "bike_id": "63bf7025d66cdc4b96898717d7b06348", "type": "electric_scooter", "is_reserved": 0, "lon": -77.01027266666667}, {"fusion_lat": 0.0, "name": "5d3f25fc3478912195c40bad5e600765", "is_disabled": 0, "rental_uris": {"android": "https://dc.lft.to/lastmile_qr_scan", "ios": "https://dc.lft.to/lastmile_qr_scan"}, "fusion_lon": 0.0, "lat": 38.901922166666665, "bike_id": "5d3f25fc3478912195c40bad5e600765", "type": "electric_scooter", "is_reserved": 0, "lon": -77.0273945}, {"fusion_lat": 0.0, "name": "dd8ecb4115775331375eb1e2122dcf6e", "is_disabled": 0, "rental_uris": {"android": "https://dc.lft.to/lastmile_qr_scan", "ios": "https://dc.lft.to/lastmile_qr_scan"}, "fusion_lon": 0.0, "lat": 38.961831333333336, "bike_id": "dd8ecb4115775331375eb1e2122dcf6e", "type": "electric_bike", "is_reserved": 0, "lon": -77.05264866666667}, {"fusion_lat": 0.0, "name": "acef3eb5074114a3bd7d3656934e8dd1", "is_disabled": 0, "rental_uris": {"android": "https://dc.lft.to/lastmile_qr_scan", "ios": "https://dc.lft.to/lastmile_qr_scan"}, "fusion_lon": 0.0, "lat": 38.91111166666666, "bike_id": "acef3eb5074114a3bd7d3656934e8dd1", "type": "electric_scooter", "is_reserved": 0, "lon": -77.04499766666666}, {"fusion_lat": 0.0, "name": "fbb4d49fb825ad60f96a99c024e70526", "is_disabled": 0, "rental_uris": {"android": "https://dc.lft.to/lastmile_qr_scan", "ios": "https://dc.lft.to/lastmile_qr_scan"}, "fusion_lon": 0.0, "lat": 38.92031733333334, "bike_id": "fbb4d49fb825ad60f96a99c024e70526", "type": "electric_bike", "is_reserved": 0, "lon": -76.9795595}, {"fusion_lat": 0.0, "name": "bde247f8ac7cabdcc621999c5e5c7ce7", "is_disabled": 0, "rental_uris": {"android": "https://dc.lft.to/lastmile_qr_scan", "ios": "https://dc.lft.to/lastmile_qr_scan"}, "fusion_lon": 0.0, "lat": 38.87533916666667, "bike_id": "bde247f8ac7cabdcc621999c5e5c7ce7", "type": "electric_scooter", "is_reserved": 0, "lon": -77.00506883333334}, {"fusion_lat": 0.0, "name": "c664ac05c9477f229418739248ee7191", "is_disabled": 0, "rental_uris": {"android": "https://dc.lft.to/lastmile_qr_scan", "ios": "https://dc.lft.to/lastmile_qr_scan"}, "fusion_lon": 0.0, "lat": 38.918341, "bike_id": "c664ac05c9477f229418739248ee7191", "type": "electric_bike", "is_reserved": 0, "lon": -77.03508333333333}, {"fusion_lat": 0.0, "name": "42fbf7d0c0c76a1ebbc6c9f8799f6844", "is_disabled": 0, "rental_uris": {"android": "https://dc.lft.to/lastmile_qr_scan", "ios": "https://dc.lft.to/lastmile_qr_scan"}, "fusion_lon": 0.0, "lat": 38.92745216666667, "bike_id": "42fbf7d0c0c76a1ebbc6c9f8799f6844", "type": "electric_scooter", "is_reserved": 0, "lon": -77.0242985}, {"fusion_lat": 0.0, "name": "5234fa24cdcad852c4a5d1b054a8a2cc", "is_disabled": 0, "rental_uris": {"android": "https://dc.lft.to/lastmile_qr_scan", "ios": "https://dc.lft.to/lastmile_qr_scan"}, "fusion_lon": 0.0, "lat": 38.9229835, "bike_id": "5234fa24cdcad852c4a5d1b054a8a2cc", "type": "electric_scooter", "is_reserved": 0, "lon": -77.042251}, {"fusion_lat": 0.0, "name": "27965fde13fa837424f5a69393ed91d8", "is_disabled": 0, "rental_uris": {"android": "https://dc.lft.to/lastmile_qr_scan", "ios": "https://dc.lft.to/lastmile_qr_scan"}, "fusion_lon": 0.0, "lat": 38.87176683333333, "bike_id": "27965fde13fa837424f5a69393ed91d8", "type": "electric_scooter", "is_reserved": 0, "lon": -77.00610583333334}, {"fusion_lat": 0.0, "name": "4a3bbf13df52495395b33aaa48e95719", "is_disabled": 0, "rental_uris": {"android": "https://dc.lft.to/lastmile_qr_scan", "ios": "https://dc.lft.to/lastmile_qr_scan"}, "fusion_lon": 0.0, "lat": 38.95750133333333, "bike_id": "4a3bbf13df52495395b33aaa48e95719", "type": "electric_scooter", "is_reserved": 0, "lon": -77.02054583333333}, {"fusion_lat": 0.0, "name": "f51068f35503ef88c65111c92f238c99", "is_disabled": 0, "rental_uris": {"android": "https://dc.lft.to/lastmile_qr_scan", "ios": "https://dc.lft.to/lastmile_qr_scan"}, "fusion_lon": 0.0, "lat": 38.92120116666667, "bike_id": "f51068f35503ef88c65111c92f238c99", "type": "electric_scooter", "is_reserved": 0, "lon": -77.046972}, {"fusion_lat": 0.0, "name": "cc97d09ffecc7263880262eea1a8dbe1", "is_disabled": 0, "rental_uris": {"android": "https://dc.lft.to/lastmile_qr_scan", "ios": "https://dc.lft.to/lastmile_qr_scan"}, "fusion_lon": 0.0, "lat": 38.881918166666665, "bike_id": "cc97d09ffecc7263880262eea1a8dbe1", "type": "electric_scooter", "is_reserved": 0, "lon": -76.99492366666666}, {"fusion_lat": 0.0, "name": "20f937a6df9217f729dec610e8513862", "is_disabled": 0, "rental_uris": {"android": "https://dc.lft.to/lastmile_qr_scan", "ios": "https://dc.lft.to/lastmile_qr_scan"}, "fusion_lon": 0.0, "lat": 38.896559833333335, "bike_id": "20f937a6df9217f729dec610e8513862", "type": "electric_scooter", "is_reserved": 0, "lon": -77.03353383333334}, {"fusion_lat": 0.0, "name": "5ee1c1b0b69c7573b6a782c6e80aa0df", "is_disabled": 0, "rental_uris": {"android": "https://dc.lft.to/lastmile_qr_scan", "ios": "https://dc.lft.to/lastmile_qr_scan"}, "fusion_lon": 0.0, "lat": 38.887301666666666, "bike_id": "5ee1c1b0b69c7573b6a782c6e80aa0df", "type": "electric_scooter", "is_reserved": 0, "lon": -77.017681}, {"fusion_lat": 0.0, "name": "0b9bc7d976ab6b5d5feeaffd1ccd93cb", "is_disabled": 0, "rental_uris": {"android": "https://dc.lft.to/lastmile_qr_scan", "ios": "https://dc.lft.to/lastmile_qr_scan"}, "fusion_lon": 0.0, "lat": 38.910963833333334, "bike_id": "0b9bc7d976ab6b5d5feeaffd1ccd93cb", "type": "electric_scooter", "is_reserved": 0, "lon": -77.04486166666666}, {"fusion_lat": 0.0, "name": "6249d707bc31abe224b08717728e71a1", "is_disabled": 0, "rental_uris": {"android": "https://dc.lft.to/lastmile_qr_scan", "ios": "https://dc.lft.to/lastmile_qr_scan"}, "fusion_lon": 0.0, "lat": 38.900601333333334, "bike_id": "6249d707bc31abe224b08717728e71a1", "type": "electric_scooter", "is_reserved": 0, "lon": -76.92741133333334}, {"fusion_lat": 0.0, "name": "4aa87917446d0a1328ea05d7ebe69514", "is_disabled": 0, "rental_uris": {"android": "https://dc.lft.to/lastmile_qr_scan", "ios": "https://dc.lft.to/lastmile_qr_scan"}, "fusion_lon": 0.0, "lat": 38.91912, "bike_id": "4aa87917446d0a1328ea05d7ebe69514", "type": "electric_scooter", "is_reserved": 0, "lon": -77.028143}, {"fusion_lat": 0.0, "name": "55946b07852ea41f680c802703ee1bb9", "is_disabled": 0, "rental_uris": {"android": "https://dc.lft.to/lastmile_qr_scan", "ios": "https://dc.lft.to/lastmile_qr_scan"}, "fusion_lon": 0.0, "lat": 38.89547016666667, "bike_id": "55946b07852ea41f680c802703ee1bb9", "type": "electric_scooter", "is_reserved": 0, "lon": -76.949509}, {"fusion_lat": 0.0, "name": "016bcf3aa826a15019762a3800d55903", "is_disabled": 0, "rental_uris": {"android": "https://dc.lft.to/lastmile_qr_scan", "ios": "https://dc.lft.to/lastmile_qr_scan"}, "fusion_lon": 0.0, "lat": 38.807631666666666, "bike_id": "016bcf3aa826a15019762a3800d55903", "type": "electric_bike", "is_reserved": 0, "lon": -77.12986766666667}, {"fusion_lat": 0.0, "name": "c943548665164fc466e29343a8a2c667", "is_disabled": 0, "rental_uris": {"android": "https://dc.lft.to/lastmile_qr_scan", "ios": "https://dc.lft.to/lastmile_qr_scan"}, "fusion_lon": 0.0, "lat": 38.96115, "bike_id": "c943548665164fc466e29343a8a2c667", "type": "electric_scooter", "is_reserved": 0, "lon": -77.02795}, {"fusion_lat": 0.0, "name": "d7dd3cda984792764952376e4a70529d", "is_disabled": 0, "rental_uris": {"android": "https://dc.lft.to/lastmile_qr_scan", "ios": "https://dc.lft.to/lastmile_qr_scan"}, "fusion_lon": 0.0, "lat": 38.901135, "bike_id": "d7dd3cda984792764952376e4a70529d", "type": "electric_scooter", "is_reserved": 0, "lon": -77.002181}, {"fusion_lat": 0.0, "name": "afbf1203823388b79c584eaa91e2a8d9", "is_disabled": 0, "rental_uris": {"android": "https://dc.lft.to/lastmile_qr_scan", "ios": "https://dc.lft.to/lastmile_qr_scan"}, "fusion_lon": 0.0, "lat": 38.91803083333333, "bike_id": "afbf1203823388b79c584eaa91e2a8d9", "type": "electric_scooter", "is_reserved": 0, "lon": -77.0287515}, {"fusion_lat": 0.0, "name": "f391b59381a511d0022ea91266935075", "is_disabled": 0, "rental_uris": {"android": "https://dc.lft.to/lastmile_qr_scan", "ios": "https://dc.lft.to/lastmile_qr_scan"}, "fusion_lon": 0.0, "lat": 38.887283333333336, "bike_id": "f391b59381a511d0022ea91266935075", "type": "electric_scooter", "is_reserved": 0, "lon": -77.03212966666666}, {"fusion_lat": 0.0, "name": "7d3a8828d670f9ee36d74484aee022bf", "is_disabled": 0, "rental_uris": {"android": "https://dc.lft.to/lastmile_qr_scan", "ios": "https://dc.lft.to/lastmile_qr_scan"}, "fusion_lon": 0.0, "lat": 38.89654983333333, "bike_id": "7d3a8828d670f9ee36d74484aee022bf", "type": "electric_scooter", "is_reserved": 0, "lon": -77.05116833333334}, {"fusion_lat": 0.0, "name": "f2ea5eaf529bfdef809d78dc29d30823", "is_disabled": 0, "rental_uris": {"android": "https://dc.lft.to/lastmile_qr_scan", "ios": "https://dc.lft.to/lastmile_qr_scan"}, "fusion_lon": 0.0, "lat": 38.8873195, "bike_id": "f2ea5eaf529bfdef809d78dc29d30823", "type": "electric_scooter", "is_reserved": 0, "lon": -77.01514066666667}, {"fusion_lat": 0.0, "name": "1ed92343f473aae9c4b6d03c86aa3074", "is_disabled": 0, "rental_uris": {"android": "https://dc.lft.to/lastmile_qr_scan", "ios": "https://dc.lft.to/lastmile_qr_scan"}, "fusion_lon": 0.0, "lat": 38.92560566666667, "bike_id": "1ed92343f473aae9c4b6d03c86aa3074", "type": "electric_scooter", "is_reserved": 0, "lon": -77.04370166666666}, {"fusion_lat": 0.0, "name": "617f67c1ecf9b24fc5a62e678e479dee", "is_disabled": 0, "rental_uris": {"android": "https://dc.lft.to/lastmile_qr_scan", "ios": "https://dc.lft.to/lastmile_qr_scan"}, "fusion_lon": 0.0, "lat": 38.9230355, "bike_id": "617f67c1ecf9b24fc5a62e678e479dee", "type": "electric_scooter", "is_reserved": 0, "lon": -77.02255366666667}, {"fusion_lat": 0.0, "name": "65401d8dc112e7881743fad562ac465b", "is_disabled": 0, "rental_uris": {"android": "https://dc.lft.to/lastmile_qr_scan", "ios": "https://dc.lft.to/lastmile_qr_scan"}, "fusion_lon": 0.0, "lat": 38.93355666666667, "bike_id": "65401d8dc112e7881743fad562ac465b", "type": "electric_scooter", "is_reserved": 0, "lon": -77.02492066666667}, {"fusion_lat": 0.0, "name": "f80edd3b244656f6e27e52a198375116", "is_disabled": 0, "rental_uris": {"android": "https://dc.lft.to/lastmile_qr_scan", "ios": "https://dc.lft.to/lastmile_qr_scan"}, "fusion_lon": 0.0, "lat": 38.87986866666667, "bike_id": "f80edd3b244656f6e27e52a198375116", "type": "electric_bike", "is_reserved": 0, "lon": -76.98469633333333}, {"fusion_lat": 0.0, "name": "a7b934c4567beeb40deee46823316577", "is_disabled": 0, "rental_uris": {"android": "https://dc.lft.to/lastmile_qr_scan", "ios": "https://dc.lft.to/lastmile_qr_scan"}, "fusion_lon": 0.0, "lat": 38.8922165, "bike_id": "a7b934c4567beeb40deee46823316577", "type": "electric_scooter", "is_reserved": 0, "lon": -77.04190583333333}, {"fusion_lat": 0.0, "name": "44bff98be512d51114665aa2f60d4eab", "is_disabled": 0, "rental_uris": {"android": "https://dc.lft.to/lastmile_qr_scan", "ios": "https://dc.lft.to/lastmile_qr_scan"}, "fusion_lon": 0.0, "lat": 38.90720483333333, "bike_id": "44bff98be512d51114665aa2f60d4eab", "type": "electric_scooter", "is_reserved": 0, "lon": -77.04991783333334}, {"fusion_lat": 0.0, "name": "9139f99b04b8845223cbb2a6488ac24c", "is_disabled": 0, "rental_uris": {"android": "https://dc.lft.to/lastmile_qr_scan", "ios": "https://dc.lft.to/lastmile_qr_scan"}, "fusion_lon": 0.0, "lat": 38.9611815, "bike_id": "9139f99b04b8845223cbb2a6488ac24c", "type": "electric_scooter", "is_reserved": 0, "lon": -77.02795733333333}, {"fusion_lat": 0.0, "name": "cc7277687c272cd8b0aae0b19f765b78", "is_disabled": 0, "rental_uris": {"android": "https://dc.lft.to/lastmile_qr_scan", "ios": "https://dc.lft.to/lastmile_qr_scan"}, "fusion_lon": 0.0, "lat": 38.91819266666667, "bike_id": "cc7277687c272cd8b0aae0b19f765b78", "type": "electric_scooter", "is_reserved": 0, "lon": -77.0367825}, {"fusion_lat": 0.0, "name": "0bd6b0ab99aae2a02d991f2dcf8d377d", "is_disabled": 0, "rental_uris": {"android": "https://dc.lft.to/lastmile_qr_scan", "ios": "https://dc.lft.to/lastmile_qr_scan"}, "fusion_lon": 0.0, "lat": 38.90801183333333, "bike_id": "0bd6b0ab99aae2a02d991f2dcf8d377d", "type": "electric_scooter", "is_reserved": 0, "lon": -77.03457866666666}, {"fusion_lat": 0.0, "name": "a967a3a5d44136a7d655f3b3e08285fd", "is_disabled": 0, "rental_uris": {"android": "https://dc.lft.to/lastmile_qr_scan", "ios": "https://dc.lft.to/lastmile_qr_scan"}, "fusion_lon": 0.0, "lat": 38.917088, "bike_id": "a967a3a5d44136a7d655f3b3e08285fd", "type": "electric_scooter", "is_reserved": 0, "lon": -76.97664966666666}, {"fusion_lat": 0.0, "name": "aff96a22e4267cc858e6de4ea7069a2e", "is_disabled": 0, "rental_uris": {"android": "https://dc.lft.to/lastmile_qr_scan", "ios": "https://dc.lft.to/lastmile_qr_scan"}, "fusion_lon": 0.0, "lat": 38.920857, "bike_id": "aff96a22e4267cc858e6de4ea7069a2e", "type": "electric_scooter", "is_reserved": 0, "lon": -77.02408983333333}, {"fusion_lat": 0.0, "name": "55a7997b648007d4e30c24d4d48df051", "is_disabled": 0, "rental_uris": {"android": "https://dc.lft.to/lastmile_qr_scan", "ios": "https://dc.lft.to/lastmile_qr_scan"}, "fusion_lon": 0.0, "lat": 38.91926333333333, "bike_id": "55a7997b648007d4e30c24d4d48df051", "type": "electric_scooter", "is_reserved": 0, "lon": -77.0317465}, {"fusion_lat": 0.0, "name": "59320d7ec94a4fff4cd42734dc0136e1", "is_disabled": 0, "rental_uris": {"android": "https://dc.lft.to/lastmile_qr_scan", "ios": "https://dc.lft.to/lastmile_qr_scan"}, "fusion_lon": 0.0, "lat": 38.9008455, "bike_id": "59320d7ec94a4fff4cd42734dc0136e1", "type": "electric_scooter", "is_reserved": 0, "lon": -76.98323383333333}, {"fusion_lat": 0.0, "name": "08a6390ef90939707faed8fbf46def86", "is_disabled": 0, "rental_uris": {"android": "https://dc.lft.to/lastmile_qr_scan", "ios": "https://dc.lft.to/lastmile_qr_scan"}, "fusion_lon": 0.0, "lat": 38.93980666666667, "bike_id": "08a6390ef90939707faed8fbf46def86", "type": "electric_scooter", "is_reserved": 0, "lon": -77.02973766666666}, {"fusion_lat": 0.0, "name": "9a88dd9fb7d9ec221d662c4127c928e4", "is_disabled": 0, "rental_uris": {"android": "https://dc.lft.to/lastmile_qr_scan", "ios": "https://dc.lft.to/lastmile_qr_scan"}, "fusion_lon": 0.0, "lat": 38.87966183333333, "bike_id": "9a88dd9fb7d9ec221d662c4127c928e4", "type": "electric_bike", "is_reserved": 0, "lon": -76.9161095}, {"fusion_lat": 0.0, "name": "fd46c0c20ccfa409d268b2516df6f7fe", "is_disabled": 0, "rental_uris": {"android": "https://dc.lft.to/lastmile_qr_scan", "ios": "https://dc.lft.to/lastmile_qr_scan"}, "fusion_lon": 0.0, "lat": 38.9560075, "bike_id": "fd46c0c20ccfa409d268b2516df6f7fe", "type": "electric_scooter", "is_reserved": 0, "lon": -77.03351566666667}, {"fusion_lat": 0.0, "name": "30da4b1612c04ee71e34d5eb8e6cf6ab", "is_disabled": 0, "rental_uris": {"android": "https://dc.lft.to/lastmile_qr_scan", "ios": "https://dc.lft.to/lastmile_qr_scan"}, "fusion_lon": 0.0, "lat": 38.915577166666665, "bike_id": "30da4b1612c04ee71e34d5eb8e6cf6ab", "type": "electric_scooter", "is_reserved": 0, "lon": -77.0313895}, {"fusion_lat": 0.0, "name": "e43419f33353755dc4e91993b6bdc72c", "is_disabled": 0, "rental_uris": {"android": "https://dc.lft.to/lastmile_qr_scan", "ios": "https://dc.lft.to/lastmile_qr_scan"}, "fusion_lon": 0.0, "lat": 38.902283, "bike_id": "e43419f33353755dc4e91993b6bdc72c", "type": "electric_scooter", "is_reserved": 0, "lon": -77.06152433333334}, {"fusion_lat": 0.0, "name": "9e547f888dc67648fa1ff1c43ffda01b", "is_disabled": 0, "rental_uris": {"android": "https://dc.lft.to/lastmile_qr_scan", "ios": "https://dc.lft.to/lastmile_qr_scan"}, "fusion_lon": 0.0, "lat": 38.895866, "bike_id": "9e547f888dc67648fa1ff1c43ffda01b", "type": "electric_scooter", "is_reserved": 0, "lon": -77.00955866666666}, {"fusion_lat": 0.0, "name": "85bb6dd6c1f08214ba0f0010ebed94ba", "is_disabled": 0, "rental_uris": {"android": "https://dc.lft.to/lastmile_qr_scan", "ios": "https://dc.lft.to/lastmile_qr_scan"}, "fusion_lon": 0.0, "lat": 38.917534333333336, "bike_id": "85bb6dd6c1f08214ba0f0010ebed94ba", "type": "electric_scooter", "is_reserved": 0, "lon": -77.027945}, {"fusion_lat": 0.0, "name": "551ffca3fd1c9485416f888aaaa9c773", "is_disabled": 0, "rental_uris": {"android": "https://dc.lft.to/lastmile_qr_scan", "ios": "https://dc.lft.to/lastmile_qr_scan"}, "fusion_lon": 0.0, "lat": 38.905232833333336, "bike_id": "551ffca3fd1c9485416f888aaaa9c773", "type": "electric_scooter", "is_reserved": 0, "lon": -77.02976166666667}, {"fusion_lat": 0.0, "name": "87a79a484c816c2836b09d8d569aa534", "is_disabled": 0, "rental_uris": {"android": "https://dc.lft.to/lastmile_qr_scan", "ios": "https://dc.lft.to/lastmile_qr_scan"}, "fusion_lon": 0.0, "lat": 38.924428166666665, "bike_id": "87a79a484c816c2836b09d8d569aa534", "type": "electric_scooter", "is_reserved": 0, "lon": -77.04021333333333}, {"fusion_lat": 0.0, "name": "5f52140f861574c87bacd6557bd05584", "is_disabled": 0, "rental_uris": {"android": "https://dc.lft.to/lastmile_qr_scan", "ios": "https://dc.lft.to/lastmile_qr_scan"}, "fusion_lon": 0.0, "lat": 38.94401583333333, "bike_id": "5f52140f861574c87bacd6557bd05584", "type": "electric_scooter", "is_reserved": 0, "lon": -77.0386465}, {"fusion_lat": 0.0, "name": "93eb62e3e30fbd8b89eb1ddd099013ea", "is_disabled": 0, "rental_uris": {"android": "https://dc.lft.to/lastmile_qr_scan", "ios": "https://dc.lft.to/lastmile_qr_scan"}, "fusion_lon": 0.0, "lat": 38.89230716666667, "bike_id": "93eb62e3e30fbd8b89eb1ddd099013ea", "type": "electric_scooter", "is_reserved": 0, "lon": -77.0238155}, {"fusion_lat": 0.0, "name": "2bbb29197583f287a15fc3d9c9580adf", "is_disabled": 0, "rental_uris": {"android": "https://dc.lft.to/lastmile_qr_scan", "ios": "https://dc.lft.to/lastmile_qr_scan"}, "fusion_lon": 0.0, "lat": 38.91653816666667, "bike_id": "2bbb29197583f287a15fc3d9c9580adf", "type": "electric_scooter", "is_reserved": 0, "lon": -77.043857}, {"fusion_lat": 0.0, "name": "3a34b4a9759c52303f42e22076d43a07", "is_disabled": 0, "rental_uris": {"android": "https://dc.lft.to/lastmile_qr_scan", "ios": "https://dc.lft.to/lastmile_qr_scan"}, "fusion_lon": 0.0, "lat": 38.91401916666667, "bike_id": "3a34b4a9759c52303f42e22076d43a07", "type": "electric_scooter", "is_reserved": 0, "lon": -77.00847033333334}, {"fusion_lat": 0.0, "name": "a2d0136f05407b8538cd210fd51a1e0f", "is_disabled": 0, "rental_uris": {"android": "https://dc.lft.to/lastmile_qr_scan", "ios": "https://dc.lft.to/lastmile_qr_scan"}, "fusion_lon": 0.0, "lat": 38.899040166666666, "bike_id": "a2d0136f05407b8538cd210fd51a1e0f", "type": "electric_scooter", "is_reserved": 0, "lon": -76.9454865}, {"fusion_lat": 0.0, "name": "4fcb35888007835d2e18b73f3a0086bf", "is_disabled": 0, "rental_uris": {"android": "https://dc.lft.to/lastmile_qr_scan", "ios": "https://dc.lft.to/lastmile_qr_scan"}, "fusion_lon": 0.0, "lat": 38.89216833333333, "bike_id": "4fcb35888007835d2e18b73f3a0086bf", "type": "electric_scooter", "is_reserved": 0, "lon": -77.04867233333333}, {"fusion_lat": 0.0, "name": "8845a0ac843eb50320da94e8292bbbfe", "is_disabled": 0, "rental_uris": {"android": "https://dc.lft.to/lastmile_qr_scan", "ios": "https://dc.lft.to/lastmile_qr_scan"}, "fusion_lon": 0.0, "lat": 38.947409666666665, "bike_id": "8845a0ac843eb50320da94e8292bbbfe", "type": "electric_scooter", "is_reserved": 0, "lon": -77.01619066666666}, {"fusion_lat": 0.0, "name": "84ffcee92aa456425f31a8ab94f20300", "is_disabled": 0, "rental_uris": {"android": "https://dc.lft.to/lastmile_qr_scan", "ios": "https://dc.lft.to/lastmile_qr_scan"}, "fusion_lon": 0.0, "lat": 38.92963666666667, "bike_id": "84ffcee92aa456425f31a8ab94f20300", "type": "electric_scooter", "is_reserved": 0, "lon": -77.01963216666667}, {"fusion_lat": 0.0, "name": "411f0d33e270d84b145c98c8fbb51708", "is_disabled": 0, "rental_uris": {"android": "https://dc.lft.to/lastmile_qr_scan", "ios": "https://dc.lft.to/lastmile_qr_scan"}, "fusion_lon": 0.0, "lat": 38.90711133333333, "bike_id": "411f0d33e270d84b145c98c8fbb51708", "type": "electric_scooter", "is_reserved": 0, "lon": -77.0512665}, {"fusion_lat": 0.0, "name": "38e2df94a6d276a2399f5201786e2965", "is_disabled": 0, "rental_uris": {"android": "https://dc.lft.to/lastmile_qr_scan", "ios": "https://dc.lft.to/lastmile_qr_scan"}, "fusion_lon": 0.0, "lat": 38.88011783333334, "bike_id": "38e2df94a6d276a2399f5201786e2965", "type": "electric_scooter", "is_reserved": 0, "lon": -76.93108583333333}, {"fusion_lat": 0.0, "name": "1eaeee3fc871f317365fc20a21d21132", "is_disabled": 0, "rental_uris": {"android": "https://dc.lft.to/lastmile_qr_scan", "ios": "https://dc.lft.to/lastmile_qr_scan"}, "fusion_lon": 0.0, "lat": 38.842933, "bike_id": "1eaeee3fc871f317365fc20a21d21132", "type": "electric_bike", "is_reserved": 0, "lon": -77.10865866666667}, {"fusion_lat": 0.0, "name": "534a17b40d70f8564df051dab72e89c9", "is_disabled": 0, "rental_uris": {"android": "https://dc.lft.to/lastmile_qr_scan", "ios": "https://dc.lft.to/lastmile_qr_scan"}, "fusion_lon": 0.0, "lat": 38.82216366666667, "bike_id": "534a17b40d70f8564df051dab72e89c9", "type": "electric_bike", "is_reserved": 0, "lon": -77.00185133333333}, {"fusion_lat": 0.0, "name": "194a70e09692cb583b71493edd395718", "is_disabled": 0, "rental_uris": {"android": "https://dc.lft.to/lastmile_qr_scan", "ios": "https://dc.lft.to/lastmile_qr_scan"}, "fusion_lon": 0.0, "lat": 38.909609333333336, "bike_id": "194a70e09692cb583b71493edd395718", "type": "electric_scooter", "is_reserved": 0, "lon": -77.03938483333333}, {"fusion_lat": 0.0, "name": "6db5b4ec93923d563c8abe90f70e2cb4", "is_disabled": 0, "rental_uris": {"android": "https://dc.lft.to/lastmile_qr_scan", "ios": "https://dc.lft.to/lastmile_qr_scan"}, "fusion_lon": 0.0, "lat": 38.89497333333333, "bike_id": "6db5b4ec93923d563c8abe90f70e2cb4", "type": "electric_scooter", "is_reserved": 0, "lon": -77.0021435}, {"fusion_lat": 0.0, "name": "2903a77b93199190c5d9b454f41b1f8e", "is_disabled": 0, "rental_uris": {"android": "https://dc.lft.to/lastmile_qr_scan", "ios": "https://dc.lft.to/lastmile_qr_scan"}, "fusion_lon": 0.0, "lat": 38.967483, "bike_id": "2903a77b93199190c5d9b454f41b1f8e", "type": "electric_bike", "is_reserved": 0, "lon": -76.98218983333334}, {"fusion_lat": 0.0, "name": "0b0947370dc35237afab5d65095f6eba", "is_disabled": 0, "rental_uris": {"android": "https://dc.lft.to/lastmile_qr_scan", "ios": "https://dc.lft.to/lastmile_qr_scan"}, "fusion_lon": 0.0, "lat": 38.9120605, "bike_id": "0b0947370dc35237afab5d65095f6eba", "type": "electric_scooter", "is_reserved": 0, "lon": -77.01982033333333}, {"fusion_lat": 0.0, "name": "55d7f3c408241347e574393e604254fb", "is_disabled": 0, "rental_uris": {"android": "https://dc.lft.to/lastmile_qr_scan", "ios": "https://dc.lft.to/lastmile_qr_scan"}, "fusion_lon": 0.0, "lat": 38.92449216666667, "bike_id": "55d7f3c408241347e574393e604254fb", "type": "electric_scooter", "is_reserved": 0, "lon": -77.04018166666667}, {"fusion_lat": 0.0, "name": "4ffddb7c7bd5ac68a5aa9f3f45f613a1", "is_disabled": 0, "rental_uris": {"android": "https://dc.lft.to/lastmile_qr_scan", "ios": "https://dc.lft.to/lastmile_qr_scan"}, "fusion_lon": 0.0, "lat": 38.91465066666667, "bike_id": "4ffddb7c7bd5ac68a5aa9f3f45f613a1", "type": "electric_scooter", "is_reserved": 0, "lon": -77.01559016666667}, {"fusion_lat": 0.0, "name": "6f747a53b44236cabb27ee061c6fb00b", "is_disabled": 0, "rental_uris": {"android": "https://dc.lft.to/lastmile_qr_scan", "ios": "https://dc.lft.to/lastmile_qr_scan"}, "fusion_lon": 0.0, "lat": 38.877627833333335, "bike_id": "6f747a53b44236cabb27ee061c6fb00b", "type": "electric_scooter", "is_reserved": 0, "lon": -77.00346383333333}, {"fusion_lat": 0.0, "name": "800f59df3a294a7bf2a0e456833be1a9", "is_disabled": 0, "rental_uris": {"android": "https://dc.lft.to/lastmile_qr_scan", "ios": "https://dc.lft.to/lastmile_qr_scan"}, "fusion_lon": 0.0, "lat": 38.90029033333333, "bike_id": "800f59df3a294a7bf2a0e456833be1a9", "type": "electric_scooter", "is_reserved": 0, "lon": -77.02963866666667}, {"fusion_lat": 0.0, "name": "1d720b1de18a068b80049cda8de669e4", "is_disabled": 0, "rental_uris": {"android": "https://dc.lft.to/lastmile_qr_scan", "ios": "https://dc.lft.to/lastmile_qr_scan"}, "fusion_lon": 0.0, "lat": 38.918121, "bike_id": "1d720b1de18a068b80049cda8de669e4", "type": "electric_scooter", "is_reserved": 0, "lon": -77.02475266666667}, {"fusion_lat": 0.0, "name": "07495feccda212ce71ad7f5839ae8fc3", "is_disabled": 0, "rental_uris": {"android": "https://dc.lft.to/lastmile_qr_scan", "ios": "https://dc.lft.to/lastmile_qr_scan"}, "fusion_lon": 0.0, "lat": 38.85607983333333, "bike_id": "07495feccda212ce71ad7f5839ae8fc3", "type": "electric_bike", "is_reserved": 0, "lon": -77.10804916666666}, {"fusion_lat": 0.0, "name": "ff54af0de460c6035b1f4025a5a3bf18", "is_disabled": 0, "rental_uris": {"android": "https://dc.lft.to/lastmile_qr_scan", "ios": "https://dc.lft.to/lastmile_qr_scan"}, "fusion_lon": 0.0, "lat": 38.912173833333334, "bike_id": "ff54af0de460c6035b1f4025a5a3bf18", "type": "electric_scooter", "is_reserved": 0, "lon": -77.04770333333333}, {"fusion_lat": 0.0, "name": "550ddf6f68cc5a7a3806765386da4d7f", "is_disabled": 0, "rental_uris": {"android": "https://dc.lft.to/lastmile_qr_scan", "ios": "https://dc.lft.to/lastmile_qr_scan"}, "fusion_lon": 0.0, "lat": 38.904968833333335, "bike_id": "550ddf6f68cc5a7a3806765386da4d7f", "type": "electric_scooter", "is_reserved": 0, "lon": -77.01707733333333}, {"fusion_lat": 0.0, "name": "0e749252a45e3bb3b6d5e4d848e49e1e", "is_disabled": 0, "rental_uris": {"android": "https://dc.lft.to/lastmile_qr_scan", "ios": "https://dc.lft.to/lastmile_qr_scan"}, "fusion_lon": 0.0, "lat": 38.89919483333333, "bike_id": "0e749252a45e3bb3b6d5e4d848e49e1e", "type": "electric_scooter", "is_reserved": 0, "lon": -77.051513}, {"fusion_lat": 0.0, "name": "1ecf52718950dc79af0b23ea001e6f67", "is_disabled": 0, "rental_uris": {"android": "https://dc.lft.to/lastmile_qr_scan", "ios": "https://dc.lft.to/lastmile_qr_scan"}, "fusion_lon": 0.0, "lat": 38.9026225, "bike_id": "1ecf52718950dc79af0b23ea001e6f67", "type": "electric_scooter", "is_reserved": 0, "lon": -76.989867}, {"fusion_lat": 0.0, "name": "0d2dbcead92646fcf7094493ae17feff", "is_disabled": 0, "rental_uris": {"android": "https://dc.lft.to/lastmile_qr_scan", "ios": "https://dc.lft.to/lastmile_qr_scan"}, "fusion_lon": 0.0, "lat": 38.901885166666666, "bike_id": "0d2dbcead92646fcf7094493ae17feff", "type": "electric_scooter", "is_reserved": 0, "lon": -77.0238625}, {"fusion_lat": 0.0, "name": "7ca79ab21833ac379e9145aef63d96cc", "is_disabled": 0, "rental_uris": {"android": "https://dc.lft.to/lastmile_qr_scan", "ios": "https://dc.lft.to/lastmile_qr_scan"}, "fusion_lon": 0.0, "lat": 38.90129183333333, "bike_id": "7ca79ab21833ac379e9145aef63d96cc", "type": "electric_scooter", "is_reserved": 0, "lon": -77.04606866666667}, {"fusion_lat": 0.0, "name": "84c5ab149c0a25699e4ebcadc6a6a2df", "is_disabled": 0, "rental_uris": {"android": "https://dc.lft.to/lastmile_qr_scan", "ios": "https://dc.lft.to/lastmile_qr_scan"}, "fusion_lon": 0.0, "lat": 38.900658166666666, "bike_id": "84c5ab149c0a25699e4ebcadc6a6a2df", "type": "electric_scooter", "is_reserved": 0, "lon": -76.93385933333333}, {"fusion_lat": 0.0, "name": "d211bb2d44c0f0afa74904c78bb0a2ea", "is_disabled": 0, "rental_uris": {"android": "https://dc.lft.to/lastmile_qr_scan", "ios": "https://dc.lft.to/lastmile_qr_scan"}, "fusion_lon": 0.0, "lat": 38.890418833333335, "bike_id": "d211bb2d44c0f0afa74904c78bb0a2ea", "type": "electric_scooter", "is_reserved": 0, "lon": -77.0150555}, {"fusion_lat": 0.0, "name": "eac0dcc3aa72e8a4eb6b254437993dfb", "is_disabled": 0, "rental_uris": {"android": "https://dc.lft.to/lastmile_qr_scan", "ios": "https://dc.lft.to/lastmile_qr_scan"}, "fusion_lon": 0.0, "lat": 38.914059333333334, "bike_id": "eac0dcc3aa72e8a4eb6b254437993dfb", "type": "electric_scooter", "is_reserved": 0, "lon": -77.02978366666666}, {"fusion_lat": 0.0, "name": "480af968878a2236e355f17e7d602d51", "is_disabled": 0, "rental_uris": {"android": "https://dc.lft.to/lastmile_qr_scan", "ios": "https://dc.lft.to/lastmile_qr_scan"}, "fusion_lon": 0.0, "lat": 38.89221833333333, "bike_id": "480af968878a2236e355f17e7d602d51", "type": "electric_scooter", "is_reserved": 0, "lon": -77.04323733333334}, {"fusion_lat": 0.0, "name": "37fc38d28af884a409a4b57ea3559868", "is_disabled": 0, "rental_uris": {"android": "https://dc.lft.to/lastmile_qr_scan", "ios": "https://dc.lft.to/lastmile_qr_scan"}, "fusion_lon": 0.0, "lat": 38.917089833333335, "bike_id": "37fc38d28af884a409a4b57ea3559868", "type": "electric_scooter", "is_reserved": 0, "lon": -77.02908583333334}, {"fusion_lat": 0.0, "name": "5361834f983ce2f93b454c7bc7cb9e7f", "is_disabled": 0, "rental_uris": {"android": "https://dc.lft.to/lastmile_qr_scan", "ios": "https://dc.lft.to/lastmile_qr_scan"}, "fusion_lon": 0.0, "lat": 38.946888, "bike_id": "5361834f983ce2f93b454c7bc7cb9e7f", "type": "electric_scooter", "is_reserved": 0, "lon": -77.0792595}, {"fusion_lat": 0.0, "name": "ffd8ea08f1d243aa70dad9d7c063f1b4", "is_disabled": 0, "rental_uris": {"android": "https://dc.lft.to/lastmile_qr_scan", "ios": "https://dc.lft.to/lastmile_qr_scan"}, "fusion_lon": 0.0, "lat": 38.89221916666666, "bike_id": "ffd8ea08f1d243aa70dad9d7c063f1b4", "type": "electric_scooter", "is_reserved": 0, "lon": -77.0222575}, {"fusion_lat": 0.0, "name": "a7855edc8a2f752f0867231d80a89131", "is_disabled": 0, "rental_uris": {"android": "https://dc.lft.to/lastmile_qr_scan", "ios": "https://dc.lft.to/lastmile_qr_scan"}, "fusion_lon": 0.0, "lat": 38.90691116666667, "bike_id": "a7855edc8a2f752f0867231d80a89131", "type": "electric_scooter", "is_reserved": 0, "lon": -77.06889583333333}, {"fusion_lat": 0.0, "name": "25eb4dacb02e3b69e59084d8b9f14055", "is_disabled": 0, "rental_uris": {"android": "https://dc.lft.to/lastmile_qr_scan", "ios": "https://dc.lft.to/lastmile_qr_scan"}, "fusion_lon": 0.0, "lat": 38.94269716666667, "bike_id": "25eb4dacb02e3b69e59084d8b9f14055", "type": "electric_scooter", "is_reserved": 0, "lon": -77.03256633333334}, {"fusion_lat": 0.0, "name": "b9f1308f49ccd017cca407af6f1c8fe5", "is_disabled": 0, "rental_uris": {"android": "https://dc.lft.to/lastmile_qr_scan", "ios": "https://dc.lft.to/lastmile_qr_scan"}, "fusion_lon": 0.0, "lat": 38.83511266666667, "bike_id": "b9f1308f49ccd017cca407af6f1c8fe5", "type": "electric_bike", "is_reserved": 0, "lon": -76.98671633333333}, {"fusion_lat": 0.0, "name": "03c5aa13af45bdcc9a2b3c5d6b74ca8f", "is_disabled": 0, "rental_uris": {"android": "https://dc.lft.to/lastmile_qr_scan", "ios": "https://dc.lft.to/lastmile_qr_scan"}, "fusion_lon": 0.0, "lat": 38.899164999999996, "bike_id": "03c5aa13af45bdcc9a2b3c5d6b74ca8f", "type": "electric_scooter", "is_reserved": 0, "lon": -77.040284}, {"fusion_lat": 0.0, "name": "d56b6ecc1bd8c7e05fea564a2e5c04a9", "is_disabled": 0, "rental_uris": {"android": "https://dc.lft.to/lastmile_qr_scan", "ios": "https://dc.lft.to/lastmile_qr_scan"}, "fusion_lon": 0.0, "lat": 38.917860166666664, "bike_id": "d56b6ecc1bd8c7e05fea564a2e5c04a9", "type": "electric_scooter", "is_reserved": 0, "lon": -77.0404275}, {"fusion_lat": 0.0, "name": "e53de5eff3a83b0f68702806b8592ad1", "is_disabled": 0, "rental_uris": {"android": "https://dc.lft.to/lastmile_qr_scan", "ios": "https://dc.lft.to/lastmile_qr_scan"}, "fusion_lon": 0.0, "lat": 38.876577166666664, "bike_id": "e53de5eff3a83b0f68702806b8592ad1", "type": "electric_scooter", "is_reserved": 0, "lon": -77.003081}, {"fusion_lat": 0.0, "name": "e43994d37066e813e7f8676989fe1387", "is_disabled": 0, "rental_uris": {"android": "https://dc.lft.to/lastmile_qr_scan", "ios": "https://dc.lft.to/lastmile_qr_scan"}, "fusion_lon": 0.0, "lat": 38.89900083333333, "bike_id": "e43994d37066e813e7f8676989fe1387", "type": "electric_scooter", "is_reserved": 0, "lon": -77.02720216666667}, {"fusion_lat": 0.0, "name": "340cc2e8eee1366411f07d0dd319ab8f", "is_disabled": 0, "rental_uris": {"android": "https://dc.lft.to/lastmile_qr_scan", "ios": "https://dc.lft.to/lastmile_qr_scan"}, "fusion_lon": 0.0, "lat": 38.91195116666667, "bike_id": "340cc2e8eee1366411f07d0dd319ab8f", "type": "electric_scooter", "is_reserved": 0, "lon": -77.03182983333333}, {"fusion_lat": 0.0, "name": "91f5317f991942911763170d88912127", "is_disabled": 0, "rental_uris": {"android": "https://dc.lft.to/lastmile_qr_scan", "ios": "https://dc.lft.to/lastmile_qr_scan"}, "fusion_lon": 0.0, "lat": 38.89853433333333, "bike_id": "91f5317f991942911763170d88912127", "type": "electric_scooter", "is_reserved": 0, "lon": -76.95043933333334}, {"fusion_lat": 0.0, "name": "615d157a53fdf63b2810ebbf0ae5449e", "is_disabled": 0, "rental_uris": {"android": "https://dc.lft.to/lastmile_qr_scan", "ios": "https://dc.lft.to/lastmile_qr_scan"}, "fusion_lon": 0.0, "lat": 38.951816, "bike_id": "615d157a53fdf63b2810ebbf0ae5449e", "type": "electric_scooter", "is_reserved": 0, "lon": -77.02610416666667}, {"fusion_lat": 0.0, "name": "ed5bbe6109002a2b439736e2a022ea26", "is_disabled": 0, "rental_uris": {"android": "https://dc.lft.to/lastmile_qr_scan", "ios": "https://dc.lft.to/lastmile_qr_scan"}, "fusion_lon": 0.0, "lat": 38.92406916666667, "bike_id": "ed5bbe6109002a2b439736e2a022ea26", "type": "electric_bike", "is_reserved": 0, "lon": -77.2323255}, {"fusion_lat": 0.0, "name": "d131348f7215eaf8c36d2141f92cd1f2", "is_disabled": 0, "rental_uris": {"android": "https://dc.lft.to/lastmile_qr_scan", "ios": "https://dc.lft.to/lastmile_qr_scan"}, "fusion_lon": 0.0, "lat": 38.90576383333333, "bike_id": "d131348f7215eaf8c36d2141f92cd1f2", "type": "electric_scooter", "is_reserved": 0, "lon": -77.04693666666667}, {"fusion_lat": 0.0, "name": "1b7176901ed8fafe14e1858b675a1df0", "is_disabled": 0, "rental_uris": {"android": "https://dc.lft.to/lastmile_qr_scan", "ios": "https://dc.lft.to/lastmile_qr_scan"}, "fusion_lon": 0.0, "lat": 38.91170916666667, "bike_id": "1b7176901ed8fafe14e1858b675a1df0", "type": "electric_scooter", "is_reserved": 0, "lon": -77.03185083333334}, {"fusion_lat": 0.0, "name": "16840f7d45623afc85919bad5dfe1336", "is_disabled": 0, "rental_uris": {"android": "https://dc.lft.to/lastmile_qr_scan", "ios": "https://dc.lft.to/lastmile_qr_scan"}, "fusion_lon": 0.0, "lat": 38.93175216666667, "bike_id": "16840f7d45623afc85919bad5dfe1336", "type": "electric_scooter", "is_reserved": 0, "lon": -77.02349933333333}, {"fusion_lat": 0.0, "name": "d6c7a46a5a138ef7ee9e7b346c43907f", "is_disabled": 0, "rental_uris": {"android": "https://dc.lft.to/lastmile_qr_scan", "ios": "https://dc.lft.to/lastmile_qr_scan"}, "fusion_lon": 0.0, "lat": 38.911341666666665, "bike_id": "d6c7a46a5a138ef7ee9e7b346c43907f", "type": "electric_scooter", "is_reserved": 0, "lon": -77.06534133333334}, {"fusion_lat": 0.0, "name": "bb835dfdee2c4848ca391a096247f027", "is_disabled": 0, "rental_uris": {"android": "https://dc.lft.to/lastmile_qr_scan", "ios": "https://dc.lft.to/lastmile_qr_scan"}, "fusion_lon": 0.0, "lat": 38.92482483333333, "bike_id": "bb835dfdee2c4848ca391a096247f027", "type": "electric_scooter", "is_reserved": 0, "lon": -77.025931}, {"fusion_lat": 0.0, "name": "5ae5ee2196cbb76436441aac933d53de", "is_disabled": 0, "rental_uris": {"android": "https://dc.lft.to/lastmile_qr_scan", "ios": "https://dc.lft.to/lastmile_qr_scan"}, "fusion_lon": 0.0, "lat": 38.88029866666667, "bike_id": "5ae5ee2196cbb76436441aac933d53de", "type": "electric_scooter", "is_reserved": 0, "lon": -77.02499383333334}, {"fusion_lat": 0.0, "name": "0eed521130c13b33eff5a578655a8602", "is_disabled": 0, "rental_uris": {"android": "https://dc.lft.to/lastmile_qr_scan", "ios": "https://dc.lft.to/lastmile_qr_scan"}, "fusion_lon": 0.0, "lat": 38.874481333333335, "bike_id": "0eed521130c13b33eff5a578655a8602", "type": "electric_scooter", "is_reserved": 0, "lon": -77.0088525}, {"fusion_lat": 0.0, "name": "17a0c9e999939cbc9096a10fecf5c3e2", "is_disabled": 0, "rental_uris": {"android": "https://dc.lft.to/lastmile_qr_scan", "ios": "https://dc.lft.to/lastmile_qr_scan"}, "fusion_lon": 0.0, "lat": 38.9285935, "bike_id": "17a0c9e999939cbc9096a10fecf5c3e2", "type": "electric_scooter", "is_reserved": 0, "lon": -77.0341455}, {"fusion_lat": 0.0, "name": "86de20755dc39bf1e491c1e847472dae", "is_disabled": 0, "rental_uris": {"android": "https://dc.lft.to/lastmile_qr_scan", "ios": "https://dc.lft.to/lastmile_qr_scan"}, "fusion_lon": 0.0, "lat": 38.93688566666667, "bike_id": "86de20755dc39bf1e491c1e847472dae", "type": "electric_bike", "is_reserved": 0, "lon": -76.99056816666666}, {"fusion_lat": 0.0, "name": "1f067527842e4f51c98e85b53eaa1b09", "is_disabled": 0, "rental_uris": {"android": "https://dc.lft.to/lastmile_qr_scan", "ios": "https://dc.lft.to/lastmile_qr_scan"}, "fusion_lon": 0.0, "lat": 38.934791833333335, "bike_id": "1f067527842e4f51c98e85b53eaa1b09", "type": "electric_scooter", "is_reserved": 0, "lon": -77.0727325}, {"fusion_lat": 0.0, "name": "5e5306c646c17bb417beb1b00d6ad7ca", "is_disabled": 0, "rental_uris": {"android": "https://dc.lft.to/lastmile_qr_scan", "ios": "https://dc.lft.to/lastmile_qr_scan"}, "fusion_lon": 0.0, "lat": 38.90282966666667, "bike_id": "5e5306c646c17bb417beb1b00d6ad7ca", "type": "electric_scooter", "is_reserved": 0, "lon": -77.036425}, {"fusion_lat": 0.0, "name": "2ffb583ae1d487a2ecf5d31d1593af96", "is_disabled": 0, "rental_uris": {"android": "https://dc.lft.to/lastmile_qr_scan", "ios": "https://dc.lft.to/lastmile_qr_scan"}, "fusion_lon": 0.0, "lat": 38.917850333333334, "bike_id": "2ffb583ae1d487a2ecf5d31d1593af96", "type": "electric_scooter", "is_reserved": 0, "lon": -77.04044233333333}, {"fusion_lat": 0.0, "name": "009e23429a8539416421c6c65d334d8b", "is_disabled": 0, "rental_uris": {"android": "https://dc.lft.to/lastmile_qr_scan", "ios": "https://dc.lft.to/lastmile_qr_scan"}, "fusion_lon": 0.0, "lat": 38.92602483333334, "bike_id": "009e23429a8539416421c6c65d334d8b", "type": "electric_scooter", "is_reserved": 0, "lon": -77.03952933333333}, {"fusion_lat": 0.0, "name": "8443689f1523dae37662355e5873bc48", "is_disabled": 0, "rental_uris": {"android": "https://dc.lft.to/lastmile_qr_scan", "ios": "https://dc.lft.to/lastmile_qr_scan"}, "fusion_lon": 0.0, "lat": 38.904570666666665, "bike_id": "8443689f1523dae37662355e5873bc48", "type": "electric_scooter", "is_reserved": 0, "lon": -77.0534495}, {"fusion_lat": 0.0, "name": "e9a0b84ae9281c6e0b6e7fd2ed630466", "is_disabled": 0, "rental_uris": {"android": "https://dc.lft.to/lastmile_qr_scan", "ios": "https://dc.lft.to/lastmile_qr_scan"}, "fusion_lon": 0.0, "lat": 38.939935166666665, "bike_id": "e9a0b84ae9281c6e0b6e7fd2ed630466", "type": "electric_scooter", "is_reserved": 0, "lon": -77.01655483333333}, {"fusion_lat": 0.0, "name": "569a46d6256bb8ea4a567cfd176826de", "is_disabled": 0, "rental_uris": {"android": "https://dc.lft.to/lastmile_qr_scan", "ios": "https://dc.lft.to/lastmile_qr_scan"}, "fusion_lon": 0.0, "lat": 38.87685533333333, "bike_id": "569a46d6256bb8ea4a567cfd176826de", "type": "electric_scooter", "is_reserved": 0, "lon": -77.007201}, {"fusion_lat": 0.0, "name": "63284da65453ba01c91d5a663577dc44", "is_disabled": 0, "rental_uris": {"android": "https://dc.lft.to/lastmile_qr_scan", "ios": "https://dc.lft.to/lastmile_qr_scan"}, "fusion_lon": 0.0, "lat": 38.844230333333336, "bike_id": "63284da65453ba01c91d5a663577dc44", "type": "electric_scooter", "is_reserved": 0, "lon": -76.997781}, {"fusion_lat": 0.0, "name": "8fafbcc4f6f894e143db6dd166586d5d", "is_disabled": 0, "rental_uris": {"android": "https://dc.lft.to/lastmile_qr_scan", "ios": "https://dc.lft.to/lastmile_qr_scan"}, "fusion_lon": 0.0, "lat": 38.921292, "bike_id": "8fafbcc4f6f894e143db6dd166586d5d", "type": "electric_scooter", "is_reserved": 0, "lon": -77.017988}, {"fusion_lat": 0.0, "name": "6e48b53ee147bc5670af2e068ecb6ea6", "is_disabled": 0, "rental_uris": {"android": "https://dc.lft.to/lastmile_qr_scan", "ios": "https://dc.lft.to/lastmile_qr_scan"}, "fusion_lon": 0.0, "lat": 38.9313075, "bike_id": "6e48b53ee147bc5670af2e068ecb6ea6", "type": "electric_scooter", "is_reserved": 0, "lon": -77.03848566666667}, {"fusion_lat": 0.0, "name": "a9a8b3a8a9c801ce488c69833d26017d", "is_disabled": 0, "rental_uris": {"android": "https://dc.lft.to/lastmile_qr_scan", "ios": "https://dc.lft.to/lastmile_qr_scan"}, "fusion_lon": 0.0, "lat": 38.89723633333333, "bike_id": "a9a8b3a8a9c801ce488c69833d26017d", "type": "electric_scooter", "is_reserved": 0, "lon": -77.02378416666667}, {"fusion_lat": 0.0, "name": "b97891d2d993314c6b5c48ceabc2441c", "is_disabled": 0, "rental_uris": {"android": "https://dc.lft.to/lastmile_qr_scan", "ios": "https://dc.lft.to/lastmile_qr_scan"}, "fusion_lon": 0.0, "lat": 38.900602, "bike_id": "b97891d2d993314c6b5c48ceabc2441c", "type": "electric_scooter", "is_reserved": 0, "lon": -77.0500725}, {"fusion_lat": 0.0, "name": "1d8b43222dab0c50ebeb3c94f6638448", "is_disabled": 0, "rental_uris": {"android": "https://dc.lft.to/lastmile_qr_scan", "ios": "https://dc.lft.to/lastmile_qr_scan"}, "fusion_lon": 0.0, "lat": 38.91477116666667, "bike_id": "1d8b43222dab0c50ebeb3c94f6638448", "type": "electric_scooter", "is_reserved": 0, "lon": -77.0461075}, {"fusion_lat": 0.0, "name": "3a9a26c28f8d95ec218f6d91bea7739e", "is_disabled": 0, "rental_uris": {"android": "https://dc.lft.to/lastmile_qr_scan", "ios": "https://dc.lft.to/lastmile_qr_scan"}, "fusion_lon": 0.0, "lat": 38.91274383333333, "bike_id": "3a9a26c28f8d95ec218f6d91bea7739e", "type": "electric_scooter", "is_reserved": 0, "lon": -77.019754}, {"fusion_lat": 0.0, "name": "a33b0a2fe7e55abbcf3f40f29f9f844f", "is_disabled": 0, "rental_uris": {"android": "https://dc.lft.to/lastmile_qr_scan", "ios": "https://dc.lft.to/lastmile_qr_scan"}, "fusion_lon": 0.0, "lat": 38.89898433333333, "bike_id": "a33b0a2fe7e55abbcf3f40f29f9f844f", "type": "electric_scooter", "is_reserved": 0, "lon": -76.99386716666666}, {"fusion_lat": 0.0, "name": "a477e95292065addfd78d2887bb0e391", "is_disabled": 0, "rental_uris": {"android": "https://dc.lft.to/lastmile_qr_scan", "ios": "https://dc.lft.to/lastmile_qr_scan"}, "fusion_lon": 0.0, "lat": 38.905028, "bike_id": "a477e95292065addfd78d2887bb0e391", "type": "electric_scooter", "is_reserved": 0, "lon": -77.06469333333334}, {"fusion_lat": 0.0, "name": "fab79eb665e6756718d263b92d1bde8c", "is_disabled": 0, "rental_uris": {"android": "https://dc.lft.to/lastmile_qr_scan", "ios": "https://dc.lft.to/lastmile_qr_scan"}, "fusion_lon": 0.0, "lat": 38.894996166666665, "bike_id": "fab79eb665e6756718d263b92d1bde8c", "type": "electric_scooter", "is_reserved": 0, "lon": -77.03958583333333}, {"fusion_lat": 0.0, "name": "cb7c42c2fb6b8bd8840979b1c34d24e7", "is_disabled": 0, "rental_uris": {"android": "https://dc.lft.to/lastmile_qr_scan", "ios": "https://dc.lft.to/lastmile_qr_scan"}, "fusion_lon": 0.0, "lat": 38.956345666666664, "bike_id": "cb7c42c2fb6b8bd8840979b1c34d24e7", "type": "electric_bike", "is_reserved": 0, "lon": -76.9387065}, {"fusion_lat": 0.0, "name": "a941806483e138fe392413fe224f61c6", "is_disabled": 0, "rental_uris": {"android": "https://dc.lft.to/lastmile_qr_scan", "ios": "https://dc.lft.to/lastmile_qr_scan"}, "fusion_lon": 0.0, "lat": 38.8952555, "bike_id": "a941806483e138fe392413fe224f61c6", "type": "electric_scooter", "is_reserved": 0, "lon": -76.93409983333333}, {"fusion_lat": 0.0, "name": "9a6093f9acce945fef7b6c67a517bbb7", "is_disabled": 0, "rental_uris": {"android": "https://dc.lft.to/lastmile_qr_scan", "ios": "https://dc.lft.to/lastmile_qr_scan"}, "fusion_lon": 0.0, "lat": 38.900904833333335, "bike_id": "9a6093f9acce945fef7b6c67a517bbb7", "type": "electric_scooter", "is_reserved": 0, "lon": -76.9833705}, {"fusion_lat": 0.0, "name": "88230c71efc62629092f96e1ac3b099f", "is_disabled": 0, "rental_uris": {"android": "https://dc.lft.to/lastmile_qr_scan", "ios": "https://dc.lft.to/lastmile_qr_scan"}, "fusion_lon": 0.0, "lat": 38.89583233333333, "bike_id": "88230c71efc62629092f96e1ac3b099f", "type": "electric_scooter", "is_reserved": 0, "lon": -77.021623}, {"fusion_lat": 0.0, "name": "fcd2f80ab55a73411f7056c57242b730", "is_disabled": 0, "rental_uris": {"android": "https://dc.lft.to/lastmile_qr_scan", "ios": "https://dc.lft.to/lastmile_qr_scan"}, "fusion_lon": 0.0, "lat": 38.93332216666667, "bike_id": "fcd2f80ab55a73411f7056c57242b730", "type": "electric_scooter", "is_reserved": 0, "lon": -77.02624233333333}, {"fusion_lat": 0.0, "name": "95031b440f35ec03195da0615dc2189c", "is_disabled": 0, "rental_uris": {"android": "https://dc.lft.to/lastmile_qr_scan", "ios": "https://dc.lft.to/lastmile_qr_scan"}, "fusion_lon": 0.0, "lat": 38.9094745, "bike_id": "95031b440f35ec03195da0615dc2189c", "type": "electric_scooter", "is_reserved": 0, "lon": -77.03940183333333}, {"fusion_lat": 0.0, "name": "8e420cb6ff513f56037bd4c226692618", "is_disabled": 0, "rental_uris": {"android": "https://dc.lft.to/lastmile_qr_scan", "ios": "https://dc.lft.to/lastmile_qr_scan"}, "fusion_lon": 0.0, "lat": 38.8638685, "bike_id": "8e420cb6ff513f56037bd4c226692618", "type": "electric_bike", "is_reserved": 0, "lon": -76.9899715}, {"fusion_lat": 0.0, "name": "9678949e78a3a3c90d3809a6dc80acf0", "is_disabled": 0, "rental_uris": {"android": "https://dc.lft.to/lastmile_qr_scan", "ios": "https://dc.lft.to/lastmile_qr_scan"}, "fusion_lon": 0.0, "lat": 38.90772466666667, "bike_id": "9678949e78a3a3c90d3809a6dc80acf0", "type": "electric_scooter", "is_reserved": 0, "lon": -77.00382433333333}, {"fusion_lat": 0.0, "name": "43b2b1fbf0b259f78302c7063d98c3ab", "is_disabled": 0, "rental_uris": {"android": "https://dc.lft.to/lastmile_qr_scan", "ios": "https://dc.lft.to/lastmile_qr_scan"}, "fusion_lon": 0.0, "lat": 38.91995716666667, "bike_id": "43b2b1fbf0b259f78302c7063d98c3ab", "type": "electric_scooter", "is_reserved": 0, "lon": -77.032778}, {"fusion_lat": 0.0, "name": "2a94652c6572a723f11075282c2d54ed", "is_disabled": 0, "rental_uris": {"android": "https://dc.lft.to/lastmile_qr_scan", "ios": "https://dc.lft.to/lastmile_qr_scan"}, "fusion_lon": 0.0, "lat": 38.887288, "bike_id": "2a94652c6572a723f11075282c2d54ed", "type": "electric_scooter", "is_reserved": 0, "lon": -77.01763866666667}, {"fusion_lat": 0.0, "name": "46b16a748889bffa9cfc4ae012238c61", "is_disabled": 0, "rental_uris": {"android": "https://dc.lft.to/lastmile_qr_scan", "ios": "https://dc.lft.to/lastmile_qr_scan"}, "fusion_lon": 0.0, "lat": 38.914127666666666, "bike_id": "46b16a748889bffa9cfc4ae012238c61", "type": "electric_scooter", "is_reserved": 0, "lon": -77.01072916666666}, {"fusion_lat": 0.0, "name": "3a995386e56fbc2bdb59a7c6a952dff7", "is_disabled": 0, "rental_uris": {"android": "https://dc.lft.to/lastmile_qr_scan", "ios": "https://dc.lft.to/lastmile_qr_scan"}, "fusion_lon": 0.0, "lat": 38.916904, "bike_id": "3a995386e56fbc2bdb59a7c6a952dff7", "type": "electric_scooter", "is_reserved": 0, "lon": -77.02295466666666}, {"fusion_lat": 0.0, "name": "055358549219b88d9b2ddb9d1a25a131", "is_disabled": 0, "rental_uris": {"android": "https://dc.lft.to/lastmile_qr_scan", "ios": "https://dc.lft.to/lastmile_qr_scan"}, "fusion_lon": 0.0, "lat": 38.887288833333336, "bike_id": "055358549219b88d9b2ddb9d1a25a131", "type": "electric_scooter", "is_reserved": 0, "lon": -77.032171}, {"fusion_lat": 0.0, "name": "e2e1a6f96bfab29e03454dfdb69854f4", "is_disabled": 0, "rental_uris": {"android": "https://dc.lft.to/lastmile_qr_scan", "ios": "https://dc.lft.to/lastmile_qr_scan"}, "fusion_lon": 0.0, "lat": 38.9222885, "bike_id": "e2e1a6f96bfab29e03454dfdb69854f4", "type": "electric_scooter", "is_reserved": 0, "lon": -77.02976433333333}, {"fusion_lat": 0.0, "name": "0aade5ada8a2f6850e404ea435b58f3c", "is_disabled": 0, "rental_uris": {"android": "https://dc.lft.to/lastmile_qr_scan", "ios": "https://dc.lft.to/lastmile_qr_scan"}, "fusion_lon": 0.0, "lat": 38.92173433333333, "bike_id": "0aade5ada8a2f6850e404ea435b58f3c", "type": "electric_scooter", "is_reserved": 0, "lon": -77.03843916666666}, {"fusion_lat": 0.0, "name": "b125d117b8b30085ae5c2c116425cda0", "is_disabled": 0, "rental_uris": {"android": "https://dc.lft.to/lastmile_qr_scan", "ios": "https://dc.lft.to/lastmile_qr_scan"}, "fusion_lon": 0.0, "lat": 38.842747, "bike_id": "b125d117b8b30085ae5c2c116425cda0", "type": "electric_bike", "is_reserved": 0, "lon": -76.98838633333334}, {"fusion_lat": 0.0, "name": "d140af0efcd46a91c43154256e884b35", "is_disabled": 0, "rental_uris": {"android": "https://dc.lft.to/lastmile_qr_scan", "ios": "https://dc.lft.to/lastmile_qr_scan"}, "fusion_lon": 0.0, "lat": 38.887630333333334, "bike_id": "d140af0efcd46a91c43154256e884b35", "type": "electric_scooter", "is_reserved": 0, "lon": -77.029413}, {"fusion_lat": 0.0, "name": "137a3497cf116dc4b467ed7df9599c5e", "is_disabled": 0, "rental_uris": {"android": "https://dc.lft.to/lastmile_qr_scan", "ios": "https://dc.lft.to/lastmile_qr_scan"}, "fusion_lon": 0.0, "lat": 38.9183095, "bike_id": "137a3497cf116dc4b467ed7df9599c5e", "type": "electric_scooter", "is_reserved": 0, "lon": -77.0244835}, {"fusion_lat": 0.0, "name": "83668f2f32bf28f2bb87a1c06cf64991", "is_disabled": 0, "rental_uris": {"android": "https://dc.lft.to/lastmile_qr_scan", "ios": "https://dc.lft.to/lastmile_qr_scan"}, "fusion_lon": 0.0, "lat": 38.903948666666665, "bike_id": "83668f2f32bf28f2bb87a1c06cf64991", "type": "electric_scooter", "is_reserved": 0, "lon": -77.0488255}, {"fusion_lat": 0.0, "name": "9bc0cd4c33bde76144b082d2cd1c1104", "is_disabled": 0, "rental_uris": {"android": "https://dc.lft.to/lastmile_qr_scan", "ios": "https://dc.lft.to/lastmile_qr_scan"}, "fusion_lon": 0.0, "lat": 38.942438833333334, "bike_id": "9bc0cd4c33bde76144b082d2cd1c1104", "type": "electric_scooter", "is_reserved": 0, "lon": -77.03632816666666}, {"fusion_lat": 0.0, "name": "6336688ce3bcb37283ae7635005e7ab3", "is_disabled": 0, "rental_uris": {"android": "https://dc.lft.to/lastmile_qr_scan", "ios": "https://dc.lft.to/lastmile_qr_scan"}, "fusion_lon": 0.0, "lat": 38.913424666666664, "bike_id": "6336688ce3bcb37283ae7635005e7ab3", "type": "electric_bike", "is_reserved": 0, "lon": -76.98889383333334}, {"fusion_lat": 0.0, "name": "15f948ed3983056384c60058bbaf2082", "is_disabled": 0, "rental_uris": {"android": "https://dc.lft.to/lastmile_qr_scan", "ios": "https://dc.lft.to/lastmile_qr_scan"}, "fusion_lon": 0.0, "lat": 38.916731666666664, "bike_id": "15f948ed3983056384c60058bbaf2082", "type": "electric_scooter", "is_reserved": 0, "lon": -77.02709783333333}, {"fusion_lat": 0.0, "name": "da92faae81328ec770b6bfa69df2c138", "is_disabled": 0, "rental_uris": {"android": "https://dc.lft.to/lastmile_qr_scan", "ios": "https://dc.lft.to/lastmile_qr_scan"}, "fusion_lon": 0.0, "lat": 38.9086455, "bike_id": "da92faae81328ec770b6bfa69df2c138", "type": "electric_bike", "is_reserved": 0, "lon": -76.98317083333333}, {"fusion_lat": 0.0, "name": "ec0debaab7c65cbffde1318229ed9219", "is_disabled": 0, "rental_uris": {"android": "https://dc.lft.to/lastmile_qr_scan", "ios": "https://dc.lft.to/lastmile_qr_scan"}, "fusion_lon": 0.0, "lat": 38.886467833333334, "bike_id": "ec0debaab7c65cbffde1318229ed9219", "type": "electric_scooter", "is_reserved": 0, "lon": -77.00191}, {"fusion_lat": 0.0, "name": "a2158cfba3e6e54803de52cd3007556b", "is_disabled": 0, "rental_uris": {"android": "https://dc.lft.to/lastmile_qr_scan", "ios": "https://dc.lft.to/lastmile_qr_scan"}, "fusion_lon": 0.0, "lat": 38.901393166666665, "bike_id": "a2158cfba3e6e54803de52cd3007556b", "type": "electric_scooter", "is_reserved": 0, "lon": -76.99118033333333}, {"fusion_lat": 0.0, "name": "204be7afc2f90680253b9f9b29789561", "is_disabled": 0, "rental_uris": {"android": "https://dc.lft.to/lastmile_qr_scan", "ios": "https://dc.lft.to/lastmile_qr_scan"}, "fusion_lon": 0.0, "lat": 38.917119666666665, "bike_id": "204be7afc2f90680253b9f9b29789561", "type": "electric_scooter", "is_reserved": 0, "lon": -77.0239705}, {"fusion_lat": 0.0, "name": "e093d783cd93f33014155818750eec41", "is_disabled": 0, "rental_uris": {"android": "https://dc.lft.to/lastmile_qr_scan", "ios": "https://dc.lft.to/lastmile_qr_scan"}, "fusion_lon": 0.0, "lat": 38.87386266666667, "bike_id": "e093d783cd93f33014155818750eec41", "type": "electric_scooter", "is_reserved": 0, "lon": -77.00074083333334}, {"fusion_lat": 0.0, "name": "dfb8462e5099980dad9037511940058b", "is_disabled": 0, "rental_uris": {"android": "https://dc.lft.to/lastmile_qr_scan", "ios": "https://dc.lft.to/lastmile_qr_scan"}, "fusion_lon": 0.0, "lat": 38.920727166666666, "bike_id": "dfb8462e5099980dad9037511940058b", "type": "electric_scooter", "is_reserved": 0, "lon": -77.02319266666667}, {"fusion_lat": 0.0, "name": "2fc585251076d74918b77d86be007d13", "is_disabled": 0, "rental_uris": {"android": "https://dc.lft.to/lastmile_qr_scan", "ios": "https://dc.lft.to/lastmile_qr_scan"}, "fusion_lon": 0.0, "lat": 38.9057755, "bike_id": "2fc585251076d74918b77d86be007d13", "type": "electric_scooter", "is_reserved": 0, "lon": -77.03442133333333}, {"fusion_lat": 0.0, "name": "1d663e075ff9ec944520d4ee4b928244", "is_disabled": 0, "rental_uris": {"android": "https://dc.lft.to/lastmile_qr_scan", "ios": "https://dc.lft.to/lastmile_qr_scan"}, "fusion_lon": 0.0, "lat": 38.92648716666667, "bike_id": "1d663e075ff9ec944520d4ee4b928244", "type": "electric_scooter", "is_reserved": 0, "lon": -77.03399733333333}, {"fusion_lat": 0.0, "name": "88e135faa7d7624be0050414b60c8bc9", "is_disabled": 0, "rental_uris": {"android": "https://dc.lft.to/lastmile_qr_scan", "ios": "https://dc.lft.to/lastmile_qr_scan"}, "fusion_lon": 0.0, "lat": 38.9202815, "bike_id": "88e135faa7d7624be0050414b60c8bc9", "type": "electric_scooter", "is_reserved": 0, "lon": -77.071434}, {"fusion_lat": 0.0, "name": "cb9fb0fcfe10dbcda2c497fc7a85fb09", "is_disabled": 0, "rental_uris": {"android": "https://dc.lft.to/lastmile_qr_scan", "ios": "https://dc.lft.to/lastmile_qr_scan"}, "fusion_lon": 0.0, "lat": 38.93443366666666, "bike_id": "cb9fb0fcfe10dbcda2c497fc7a85fb09", "type": "electric_scooter", "is_reserved": 0, "lon": -77.05770283333334}, {"fusion_lat": 0.0, "name": "ce12e75ea111df048f6ff554476533bc", "is_disabled": 0, "rental_uris": {"android": "https://dc.lft.to/lastmile_qr_scan", "ios": "https://dc.lft.to/lastmile_qr_scan"}, "fusion_lon": 0.0, "lat": 38.90696466666667, "bike_id": "ce12e75ea111df048f6ff554476533bc", "type": "electric_scooter", "is_reserved": 0, "lon": -76.98860233333333}, {"fusion_lat": 0.0, "name": "b9e107850fca6a74b730a654c3bb2ba1", "is_disabled": 0, "rental_uris": {"android": "https://dc.lft.to/lastmile_qr_scan", "ios": "https://dc.lft.to/lastmile_qr_scan"}, "fusion_lon": 0.0, "lat": 38.92452633333333, "bike_id": "b9e107850fca6a74b730a654c3bb2ba1", "type": "electric_scooter", "is_reserved": 0, "lon": -76.971034}, {"fusion_lat": 0.0, "name": "6c90e9b9c0f982dbd7fef5bb6965301f", "is_disabled": 0, "rental_uris": {"android": "https://dc.lft.to/lastmile_qr_scan", "ios": "https://dc.lft.to/lastmile_qr_scan"}, "fusion_lon": 0.0, "lat": 38.932217333333334, "bike_id": "6c90e9b9c0f982dbd7fef5bb6965301f", "type": "electric_scooter", "is_reserved": 0, "lon": -76.99490583333333}, {"fusion_lat": 0.0, "name": "ef8800baa7f30026e6e17f525825ec23", "is_disabled": 0, "rental_uris": {"android": "https://dc.lft.to/lastmile_qr_scan", "ios": "https://dc.lft.to/lastmile_qr_scan"}, "fusion_lon": 0.0, "lat": 38.890868833333336, "bike_id": "ef8800baa7f30026e6e17f525825ec23", "type": "electric_scooter", "is_reserved": 0, "lon": -76.91924916666666}, {"fusion_lat": 0.0, "name": "5df1489f5f649ff053d1066e7cc0e9e4", "is_disabled": 0, "rental_uris": {"android": "https://dc.lft.to/lastmile_qr_scan", "ios": "https://dc.lft.to/lastmile_qr_scan"}, "fusion_lon": 0.0, "lat": 38.907269, "bike_id": "5df1489f5f649ff053d1066e7cc0e9e4", "type": "electric_scooter", "is_reserved": 0, "lon": -77.01094983333333}, {"fusion_lat": 0.0, "name": "f8e661601d8d279f240825f4db88bd81", "is_disabled": 0, "rental_uris": {"android": "https://dc.lft.to/lastmile_qr_scan", "ios": "https://dc.lft.to/lastmile_qr_scan"}, "fusion_lon": 0.0, "lat": 38.90881866666667, "bike_id": "f8e661601d8d279f240825f4db88bd81", "type": "electric_scooter", "is_reserved": 0, "lon": -76.99802366666667}, {"fusion_lat": 0.0, "name": "32d882c05a14ae59dadddc634ae7a180", "is_disabled": 0, "rental_uris": {"android": "https://dc.lft.to/lastmile_qr_scan", "ios": "https://dc.lft.to/lastmile_qr_scan"}, "fusion_lon": 0.0, "lat": 38.92474466666667, "bike_id": "32d882c05a14ae59dadddc634ae7a180", "type": "electric_scooter", "is_reserved": 0, "lon": -77.03088066666666}, {"fusion_lat": 0.0, "name": "3f5fdc3dc5581ae71dabc1721c10f80c", "is_disabled": 0, "rental_uris": {"android": "https://dc.lft.to/lastmile_qr_scan", "ios": "https://dc.lft.to/lastmile_qr_scan"}, "fusion_lon": 0.0, "lat": 38.92124833333333, "bike_id": "3f5fdc3dc5581ae71dabc1721c10f80c", "type": "electric_scooter", "is_reserved": 0, "lon": -77.0179175}, {"fusion_lat": 0.0, "name": "4e331cb811d3e3bf948d949946655f24", "is_disabled": 0, "rental_uris": {"android": "https://dc.lft.to/lastmile_qr_scan", "ios": "https://dc.lft.to/lastmile_qr_scan"}, "fusion_lon": 0.0, "lat": 38.94434233333333, "bike_id": "4e331cb811d3e3bf948d949946655f24", "type": "electric_bike", "is_reserved": 0, "lon": -77.02597333333334}, {"fusion_lat": 0.0, "name": "f12b3c088ecb6610bf6693af890a17f2", "is_disabled": 0, "rental_uris": {"android": "https://dc.lft.to/lastmile_qr_scan", "ios": "https://dc.lft.to/lastmile_qr_scan"}, "fusion_lon": 0.0, "lat": 38.961171, "bike_id": "f12b3c088ecb6610bf6693af890a17f2", "type": "electric_scooter", "is_reserved": 0, "lon": -77.02794283333333}, {"fusion_lat": 0.0, "name": "a2362bed2b231af5020f5e154ee32aa5", "is_disabled": 0, "rental_uris": {"android": "https://dc.lft.to/lastmile_qr_scan", "ios": "https://dc.lft.to/lastmile_qr_scan"}, "fusion_lon": 0.0, "lat": 38.916827166666664, "bike_id": "a2362bed2b231af5020f5e154ee32aa5", "type": "electric_scooter", "is_reserved": 0, "lon": -77.036706}, {"fusion_lat": 0.0, "name": "107457dded411d2ec5169b07f92d1980", "is_disabled": 0, "rental_uris": {"android": "https://dc.lft.to/lastmile_qr_scan", "ios": "https://dc.lft.to/lastmile_qr_scan"}, "fusion_lon": 0.0, "lat": 38.906135166666665, "bike_id": "107457dded411d2ec5169b07f92d1980", "type": "electric_scooter", "is_reserved": 0, "lon": -77.0259975}, {"fusion_lat": 0.0, "name": "4cdcbec5bc8efa5083a3dd2bb9f68886", "is_disabled": 0, "rental_uris": {"android": "https://dc.lft.to/lastmile_qr_scan", "ios": "https://dc.lft.to/lastmile_qr_scan"}, "fusion_lon": 0.0, "lat": 38.89324333333333, "bike_id": "4cdcbec5bc8efa5083a3dd2bb9f68886", "type": "electric_bike", "is_reserved": 0, "lon": -76.95131966666666}, {"fusion_lat": 0.0, "name": "f8ea2482e98b264516bd4dbf7958f2fa", "is_disabled": 0, "rental_uris": {"android": "https://dc.lft.to/lastmile_qr_scan", "ios": "https://dc.lft.to/lastmile_qr_scan"}, "fusion_lon": 0.0, "lat": 38.931132166666664, "bike_id": "f8ea2482e98b264516bd4dbf7958f2fa", "type": "electric_scooter", "is_reserved": 0, "lon": -77.02082183333333}, {"fusion_lat": 0.0, "name": "944bd2477135e7e2e10428851cfdd792", "is_disabled": 0, "rental_uris": {"android": "https://dc.lft.to/lastmile_qr_scan", "ios": "https://dc.lft.to/lastmile_qr_scan"}, "fusion_lon": 0.0, "lat": 38.89217816666667, "bike_id": "944bd2477135e7e2e10428851cfdd792", "type": "electric_scooter", "is_reserved": 0, "lon": -77.02657333333333}, {"fusion_lat": 0.0, "name": "2a2ccaa6e2225d5dbf25c97facbf645b", "is_disabled": 0, "rental_uris": {"android": "https://dc.lft.to/lastmile_qr_scan", "ios": "https://dc.lft.to/lastmile_qr_scan"}, "fusion_lon": 0.0, "lat": 38.8974105, "bike_id": "2a2ccaa6e2225d5dbf25c97facbf645b", "type": "electric_scooter", "is_reserved": 0, "lon": -77.00362766666667}, {"fusion_lat": 0.0, "name": "f84a1326f8af4bcabd67446c3079a553", "is_disabled": 0, "rental_uris": {"android": "https://dc.lft.to/lastmile_qr_scan", "ios": "https://dc.lft.to/lastmile_qr_scan"}, "fusion_lon": 0.0, "lat": 38.93965016666667, "bike_id": "f84a1326f8af4bcabd67446c3079a553", "type": "electric_scooter", "is_reserved": 0, "lon": -77.036873}, {"fusion_lat": 0.0, "name": "97b39b332eee5f0e11883d53a85220b1", "is_disabled": 0, "rental_uris": {"android": "https://dc.lft.to/lastmile_qr_scan", "ios": "https://dc.lft.to/lastmile_qr_scan"}, "fusion_lon": 0.0, "lat": 38.9224625, "bike_id": "97b39b332eee5f0e11883d53a85220b1", "type": "electric_scooter", "is_reserved": 0, "lon": -77.04250466666667}, {"fusion_lat": 0.0, "name": "e2788ee51003da6f1ac3596f90a0b7e2", "is_disabled": 0, "rental_uris": {"android": "https://dc.lft.to/lastmile_qr_scan", "ios": "https://dc.lft.to/lastmile_qr_scan"}, "fusion_lon": 0.0, "lat": 38.8277645, "bike_id": "e2788ee51003da6f1ac3596f90a0b7e2", "type": "electric_bike", "is_reserved": 0, "lon": -77.12487283333333}, {"fusion_lat": 0.0, "name": "bd9787581e316aa00c7bd640361e78b3", "is_disabled": 0, "rental_uris": {"android": "https://dc.lft.to/lastmile_qr_scan", "ios": "https://dc.lft.to/lastmile_qr_scan"}, "fusion_lon": 0.0, "lat": 38.91321716666667, "bike_id": "bd9787581e316aa00c7bd640361e78b3", "type": "electric_scooter", "is_reserved": 0, "lon": -77.01972483333333}, {"fusion_lat": 0.0, "name": "3344c3e01a2fc9d580c1918c47593ba1", "is_disabled": 0, "rental_uris": {"android": "https://dc.lft.to/lastmile_qr_scan", "ios": "https://dc.lft.to/lastmile_qr_scan"}, "fusion_lon": 0.0, "lat": 38.9395535, "bike_id": "3344c3e01a2fc9d580c1918c47593ba1", "type": "electric_scooter", "is_reserved": 0, "lon": -77.03281383333334}, {"fusion_lat": 0.0, "name": "8c9e1a743bb6bec9a1b94aadec8fac1d", "is_disabled": 0, "rental_uris": {"android": "https://dc.lft.to/lastmile_qr_scan", "ios": "https://dc.lft.to/lastmile_qr_scan"}, "fusion_lon": 0.0, "lat": 38.901456, "bike_id": "8c9e1a743bb6bec9a1b94aadec8fac1d", "type": "electric_scooter", "is_reserved": 0, "lon": -77.04175233333333}, {"fusion_lat": 0.0, "name": "706632249adba3a5403e4f6498ec6810", "is_disabled": 0, "rental_uris": {"android": "https://dc.lft.to/lastmile_qr_scan", "ios": "https://dc.lft.to/lastmile_qr_scan"}, "fusion_lon": 0.0, "lat": 38.909719, "bike_id": "706632249adba3a5403e4f6498ec6810", "type": "electric_scooter", "is_reserved": 0, "lon": -77.04043033333333}, {"fusion_lat": 0.0, "name": "f4b338612ad2a5e1899ab97a1c2cf64e", "is_disabled": 0, "rental_uris": {"android": "https://dc.lft.to/lastmile_qr_scan", "ios": "https://dc.lft.to/lastmile_qr_scan"}, "fusion_lon": 0.0, "lat": 38.87393866666667, "bike_id": "f4b338612ad2a5e1899ab97a1c2cf64e", "type": "electric_scooter", "is_reserved": 0, "lon": -77.01450083333333}, {"fusion_lat": 0.0, "name": "0b3bdc8d4bc3caa055fe23da20bb74d6", "is_disabled": 0, "rental_uris": {"android": "https://dc.lft.to/lastmile_qr_scan", "ios": "https://dc.lft.to/lastmile_qr_scan"}, "fusion_lon": 0.0, "lat": 38.88763633333333, "bike_id": "0b3bdc8d4bc3caa055fe23da20bb74d6", "type": "electric_scooter", "is_reserved": 0, "lon": -77.01302466666667}, {"fusion_lat": 0.0, "name": "aeb49f703068ab36b2f2de9a01c3289d", "is_disabled": 0, "rental_uris": {"android": "https://dc.lft.to/lastmile_qr_scan", "ios": "https://dc.lft.to/lastmile_qr_scan"}, "fusion_lon": 0.0, "lat": 38.8449305, "bike_id": "aeb49f703068ab36b2f2de9a01c3289d", "type": "electric_scooter", "is_reserved": 0, "lon": -76.99595783333334}, {"fusion_lat": 0.0, "name": "596e45dd04173dfc210f0ed8facc313e", "is_disabled": 0, "rental_uris": {"android": "https://dc.lft.to/lastmile_qr_scan", "ios": "https://dc.lft.to/lastmile_qr_scan"}, "fusion_lon": 0.0, "lat": 38.917479166666666, "bike_id": "596e45dd04173dfc210f0ed8facc313e", "type": "electric_scooter", "is_reserved": 0, "lon": -77.012198}, {"fusion_lat": 0.0, "name": "782d577906f705c5f67cf084c173ef93", "is_disabled": 0, "rental_uris": {"android": "https://dc.lft.to/lastmile_qr_scan", "ios": "https://dc.lft.to/lastmile_qr_scan"}, "fusion_lon": 0.0, "lat": 38.90326433333333, "bike_id": "782d577906f705c5f67cf084c173ef93", "type": "electric_scooter", "is_reserved": 0, "lon": -77.0109345}, {"fusion_lat": 0.0, "name": "ed4b0a7d8408188866d980042690cc20", "is_disabled": 0, "rental_uris": {"android": "https://dc.lft.to/lastmile_qr_scan", "ios": "https://dc.lft.to/lastmile_qr_scan"}, "fusion_lon": 0.0, "lat": 38.9095795, "bike_id": "ed4b0a7d8408188866d980042690cc20", "type": "electric_scooter", "is_reserved": 0, "lon": -77.04840466666667}, {"fusion_lat": 0.0, "name": "6aa1939f25688307642407e8356c5649", "is_disabled": 0, "rental_uris": {"android": "https://dc.lft.to/lastmile_qr_scan", "ios": "https://dc.lft.to/lastmile_qr_scan"}, "fusion_lon": 0.0, "lat": 38.8748475, "bike_id": "6aa1939f25688307642407e8356c5649", "type": "electric_scooter", "is_reserved": 0, "lon": -77.00070183333334}, {"fusion_lat": 0.0, "name": "ed4870649d6f5233a6b682d7bfd0e41c", "is_disabled": 0, "rental_uris": {"android": "https://dc.lft.to/lastmile_qr_scan", "ios": "https://dc.lft.to/lastmile_qr_scan"}, "fusion_lon": 0.0, "lat": 38.8852215, "bike_id": "ed4870649d6f5233a6b682d7bfd0e41c", "type": "electric_scooter", "is_reserved": 0, "lon": -76.9771045}, {"fusion_lat": 0.0, "name": "75b8a3f7f8fcd71a9163ea46476806fd", "is_disabled": 0, "rental_uris": {"android": "https://dc.lft.to/lastmile_qr_scan", "ios": "https://dc.lft.to/lastmile_qr_scan"}, "fusion_lon": 0.0, "lat": 38.917598166666664, "bike_id": "75b8a3f7f8fcd71a9163ea46476806fd", "type": "electric_scooter", "is_reserved": 0, "lon": -77.004505}, {"fusion_lat": 0.0, "name": "211b2d987554b9532617c66e0ef9932a", "is_disabled": 0, "rental_uris": {"android": "https://dc.lft.to/lastmile_qr_scan", "ios": "https://dc.lft.to/lastmile_qr_scan"}, "fusion_lon": 0.0, "lat": 38.873954833333336, "bike_id": "211b2d987554b9532617c66e0ef9932a", "type": "electric_scooter", "is_reserved": 0, "lon": -77.00198233333333}, {"fusion_lat": 0.0, "name": "9687e15d196cc4ffdeacd35b57faebe7", "is_disabled": 0, "rental_uris": {"android": "https://dc.lft.to/lastmile_qr_scan", "ios": "https://dc.lft.to/lastmile_qr_scan"}, "fusion_lon": 0.0, "lat": 38.90920233333333, "bike_id": "9687e15d196cc4ffdeacd35b57faebe7", "type": "electric_scooter", "is_reserved": 0, "lon": -77.0441875}, {"fusion_lat": 0.0, "name": "3814d65dccdc6249679fdc3db02e8ba5", "is_disabled": 0, "rental_uris": {"android": "https://dc.lft.to/lastmile_qr_scan", "ios": "https://dc.lft.to/lastmile_qr_scan"}, "fusion_lon": 0.0, "lat": 38.902123333333336, "bike_id": "3814d65dccdc6249679fdc3db02e8ba5", "type": "electric_scooter", "is_reserved": 0, "lon": -76.98614833333333}, {"fusion_lat": 0.0, "name": "9d15f046ced5774e37ab72f9f64f86c1", "is_disabled": 0, "rental_uris": {"android": "https://dc.lft.to/lastmile_qr_scan", "ios": "https://dc.lft.to/lastmile_qr_scan"}, "fusion_lon": 0.0, "lat": 38.83154, "bike_id": "9d15f046ced5774e37ab72f9f64f86c1", "type": "electric_bike", "is_reserved": 0, "lon": -76.9957485}, {"fusion_lat": 0.0, "name": "4d0553dcd5e79feb304fc12cb24ae361", "is_disabled": 0, "rental_uris": {"android": "https://dc.lft.to/lastmile_qr_scan", "ios": "https://dc.lft.to/lastmile_qr_scan"}, "fusion_lon": 0.0, "lat": 38.915623333333336, "bike_id": "4d0553dcd5e79feb304fc12cb24ae361", "type": "electric_scooter", "is_reserved": 0, "lon": -77.02275716666666}, {"fusion_lat": 0.0, "name": "820dcdc0bace42a53dd86de76edfb5c1", "is_disabled": 0, "rental_uris": {"android": "https://dc.lft.to/lastmile_qr_scan", "ios": "https://dc.lft.to/lastmile_qr_scan"}, "fusion_lon": 0.0, "lat": 38.917945833333334, "bike_id": "820dcdc0bace42a53dd86de76edfb5c1", "type": "electric_scooter", "is_reserved": 0, "lon": -77.04172383333334}, {"fusion_lat": 0.0, "name": "d5558c1e44e45b43359d8e62a4512105", "is_disabled": 0, "rental_uris": {"android": "https://dc.lft.to/lastmile_qr_scan", "ios": "https://dc.lft.to/lastmile_qr_scan"}, "fusion_lon": 0.0, "lat": 38.957335666666665, "bike_id": "d5558c1e44e45b43359d8e62a4512105", "type": "electric_scooter", "is_reserved": 0, "lon": -77.02335216666667}, {"fusion_lat": 0.0, "name": "07d99fc012a041e06e8523ee776101f1", "is_disabled": 0, "rental_uris": {"android": "https://dc.lft.to/lastmile_qr_scan", "ios": "https://dc.lft.to/lastmile_qr_scan"}, "fusion_lon": 0.0, "lat": 38.92391033333333, "bike_id": "07d99fc012a041e06e8523ee776101f1", "type": "electric_scooter", "is_reserved": 0, "lon": -77.02454516666667}, {"fusion_lat": 0.0, "name": "2ebd2c2d08d6bdbfe8827773f06a2113", "is_disabled": 0, "rental_uris": {"android": "https://dc.lft.to/lastmile_qr_scan", "ios": "https://dc.lft.to/lastmile_qr_scan"}, "fusion_lon": 0.0, "lat": 38.928555333333335, "bike_id": "2ebd2c2d08d6bdbfe8827773f06a2113", "type": "electric_scooter", "is_reserved": 0, "lon": -77.0353325}, {"fusion_lat": 0.0, "name": "d3342b76d58f7cfb5b04900ce2d285a1", "is_disabled": 0, "rental_uris": {"android": "https://dc.lft.to/lastmile_qr_scan", "ios": "https://dc.lft.to/lastmile_qr_scan"}, "fusion_lon": 0.0, "lat": 38.918341166666664, "bike_id": "d3342b76d58f7cfb5b04900ce2d285a1", "type": "electric_scooter", "is_reserved": 0, "lon": -77.02446516666667}, {"fusion_lat": 0.0, "name": "c2f7fe177cfe6e866a7e79c23b461abb", "is_disabled": 0, "rental_uris": {"android": "https://dc.lft.to/lastmile_qr_scan", "ios": "https://dc.lft.to/lastmile_qr_scan"}, "fusion_lon": 0.0, "lat": 38.921470666666664, "bike_id": "c2f7fe177cfe6e866a7e79c23b461abb", "type": "electric_scooter", "is_reserved": 0, "lon": -77.04359083333334}, {"fusion_lat": 0.0, "name": "a5ddfd7ad5df34aefffb5f2d11e2e7cc", "is_disabled": 0, "rental_uris": {"android": "https://dc.lft.to/lastmile_qr_scan", "ios": "https://dc.lft.to/lastmile_qr_scan"}, "fusion_lon": 0.0, "lat": 38.903796166666666, "bike_id": "a5ddfd7ad5df34aefffb5f2d11e2e7cc", "type": "electric_scooter", "is_reserved": 0, "lon": -77.01787266666666}, {"fusion_lat": 0.0, "name": "d36695411e1e8b8c167f4aa929f06b44", "is_disabled": 0, "rental_uris": {"android": "https://dc.lft.to/lastmile_qr_scan", "ios": "https://dc.lft.to/lastmile_qr_scan"}, "fusion_lon": 0.0, "lat": 38.9021035, "bike_id": "d36695411e1e8b8c167f4aa929f06b44", "type": "electric_scooter", "is_reserved": 0, "lon": -77.05062416666667}, {"fusion_lat": 0.0, "name": "2874d82350f7cb53518a36117cba169a", "is_disabled": 0, "rental_uris": {"android": "https://dc.lft.to/lastmile_qr_scan", "ios": "https://dc.lft.to/lastmile_qr_scan"}, "fusion_lon": 0.0, "lat": 38.92131666666667, "bike_id": "2874d82350f7cb53518a36117cba169a", "type": "electric_scooter", "is_reserved": 0, "lon": -77.00397233333334}, {"fusion_lat": 0.0, "name": "10ffe80f5704749e077300153344e13b", "is_disabled": 0, "rental_uris": {"android": "https://dc.lft.to/lastmile_qr_scan", "ios": "https://dc.lft.to/lastmile_qr_scan"}, "fusion_lon": 0.0, "lat": 38.838121, "bike_id": "10ffe80f5704749e077300153344e13b", "type": "electric_bike", "is_reserved": 0, "lon": -77.09523283333333}, {"fusion_lat": 0.0, "name": "8ed4843e7875185ea9c2afb8fbddca8e", "is_disabled": 0, "rental_uris": {"android": "https://dc.lft.to/lastmile_qr_scan", "ios": "https://dc.lft.to/lastmile_qr_scan"}, "fusion_lon": 0.0, "lat": 38.93963683333333, "bike_id": "8ed4843e7875185ea9c2afb8fbddca8e", "type": "electric_scooter", "is_reserved": 0, "lon": -77.0275155}, {"fusion_lat": 0.0, "name": "499ac4d27da4b5069fb2dcad11e606e4", "is_disabled": 0, "rental_uris": {"android": "https://dc.lft.to/lastmile_qr_scan", "ios": "https://dc.lft.to/lastmile_qr_scan"}, "fusion_lon": 0.0, "lat": 38.87482516666667, "bike_id": "499ac4d27da4b5069fb2dcad11e606e4", "type": "electric_scooter", "is_reserved": 0, "lon": -77.00600883333334}, {"fusion_lat": 0.0, "name": "6c217540197429e0a36788e9121858b7", "is_disabled": 0, "rental_uris": {"android": "https://dc.lft.to/lastmile_qr_scan", "ios": "https://dc.lft.to/lastmile_qr_scan"}, "fusion_lon": 0.0, "lat": 38.93299233333333, "bike_id": "6c217540197429e0a36788e9121858b7", "type": "electric_scooter", "is_reserved": 0, "lon": -77.03081816666666}, {"fusion_lat": 0.0, "name": "b2ded4d2fca935f51439b941e1ac11c2", "is_disabled": 0, "rental_uris": {"android": "https://dc.lft.to/lastmile_qr_scan", "ios": "https://dc.lft.to/lastmile_qr_scan"}, "fusion_lon": 0.0, "lat": 38.91114816666666, "bike_id": "b2ded4d2fca935f51439b941e1ac11c2", "type": "electric_scooter", "is_reserved": 0, "lon": -77.03824533333334}, {"fusion_lat": 0.0, "name": "20c66a372d2a42e25df14c57544cc232", "is_disabled": 0, "rental_uris": {"android": "https://dc.lft.to/lastmile_qr_scan", "ios": "https://dc.lft.to/lastmile_qr_scan"}, "fusion_lon": 0.0, "lat": 38.97882933333333, "bike_id": "20c66a372d2a42e25df14c57544cc232", "type": "electric_bike", "is_reserved": 0, "lon": -77.0603225}, {"fusion_lat": 0.0, "name": "4f281f7bec78199b339a03eb4aae807a", "is_disabled": 0, "rental_uris": {"android": "https://dc.lft.to/lastmile_qr_scan", "ios": "https://dc.lft.to/lastmile_qr_scan"}, "fusion_lon": 0.0, "lat": 38.874507333333334, "bike_id": "4f281f7bec78199b339a03eb4aae807a", "type": "electric_scooter", "is_reserved": 0, "lon": -77.009242}, {"fusion_lat": 0.0, "name": "c5e22a866bbc03b439f42e9cfb919c5b", "is_disabled": 0, "rental_uris": {"android": "https://dc.lft.to/lastmile_qr_scan", "ios": "https://dc.lft.to/lastmile_qr_scan"}, "fusion_lon": 0.0, "lat": 38.92359416666667, "bike_id": "c5e22a866bbc03b439f42e9cfb919c5b", "type": "electric_scooter", "is_reserved": 0, "lon": -77.05249716666667}, {"fusion_lat": 0.0, "name": "40ef644e36934035617131443cec5568", "is_disabled": 0, "rental_uris": {"android": "https://dc.lft.to/lastmile_qr_scan", "ios": "https://dc.lft.to/lastmile_qr_scan"}, "fusion_lon": 0.0, "lat": 38.924141166666665, "bike_id": "40ef644e36934035617131443cec5568", "type": "electric_scooter", "is_reserved": 0, "lon": -77.0445745}, {"fusion_lat": 0.0, "name": "dd7e389359c255cab9988f7f68a203f1", "is_disabled": 0, "rental_uris": {"android": "https://dc.lft.to/lastmile_qr_scan", "ios": "https://dc.lft.to/lastmile_qr_scan"}, "fusion_lon": 0.0, "lat": 38.90646016666667, "bike_id": "dd7e389359c255cab9988f7f68a203f1", "type": "electric_scooter", "is_reserved": 0, "lon": -77.06305883333333}, {"fusion_lat": 0.0, "name": "d44e055bde0795a02211bdf6ebda361b", "is_disabled": 0, "rental_uris": {"android": "https://dc.lft.to/lastmile_qr_scan", "ios": "https://dc.lft.to/lastmile_qr_scan"}, "fusion_lon": 0.0, "lat": 38.9015175, "bike_id": "d44e055bde0795a02211bdf6ebda361b", "type": "electric_scooter", "is_reserved": 0, "lon": -77.02573333333333}, {"fusion_lat": 0.0, "name": "b2782dd09cc4f488cd67caa0a82f8aa1", "is_disabled": 0, "rental_uris": {"android": "https://dc.lft.to/lastmile_qr_scan", "ios": "https://dc.lft.to/lastmile_qr_scan"}, "fusion_lon": 0.0, "lat": 38.89716133333334, "bike_id": "b2782dd09cc4f488cd67caa0a82f8aa1", "type": "electric_scooter", "is_reserved": 0, "lon": -77.007976}, {"fusion_lat": 0.0, "name": "4b3fced91e83936bcaf103889e58716b", "is_disabled": 0, "rental_uris": {"android": "https://dc.lft.to/lastmile_qr_scan", "ios": "https://dc.lft.to/lastmile_qr_scan"}, "fusion_lon": 0.0, "lat": 38.9000485, "bike_id": "4b3fced91e83936bcaf103889e58716b", "type": "electric_scooter", "is_reserved": 0, "lon": -76.9983485}, {"fusion_lat": 0.0, "name": "2481e9f4ece3aae6aecf635eabfe694b", "is_disabled": 0, "rental_uris": {"android": "https://dc.lft.to/lastmile_qr_scan", "ios": "https://dc.lft.to/lastmile_qr_scan"}, "fusion_lon": 0.0, "lat": 38.918507, "bike_id": "2481e9f4ece3aae6aecf635eabfe694b", "type": "electric_scooter", "is_reserved": 0, "lon": -77.02310433333334}, {"fusion_lat": 0.0, "name": "d0fb2e36de397b50022563369150e43c", "is_disabled": 0, "rental_uris": {"android": "https://dc.lft.to/lastmile_qr_scan", "ios": "https://dc.lft.to/lastmile_qr_scan"}, "fusion_lon": 0.0, "lat": 38.91090916666667, "bike_id": "d0fb2e36de397b50022563369150e43c", "type": "electric_scooter", "is_reserved": 0, "lon": -77.022011}, {"fusion_lat": 0.0, "name": "db9903d9ac874fa5f465036fbdda530c", "is_disabled": 0, "rental_uris": {"android": "https://dc.lft.to/lastmile_qr_scan", "ios": "https://dc.lft.to/lastmile_qr_scan"}, "fusion_lon": 0.0, "lat": 38.915624666666666, "bike_id": "db9903d9ac874fa5f465036fbdda530c", "type": "electric_scooter", "is_reserved": 0, "lon": -77.03166666666667}, {"fusion_lat": 0.0, "name": "59aedf442ea874782724d491979ce91a", "is_disabled": 0, "rental_uris": {"android": "https://dc.lft.to/lastmile_qr_scan", "ios": "https://dc.lft.to/lastmile_qr_scan"}, "fusion_lon": 0.0, "lat": 38.89220433333333, "bike_id": "59aedf442ea874782724d491979ce91a", "type": "electric_scooter", "is_reserved": 0, "lon": -77.02305516666667}, {"fusion_lat": 0.0, "name": "d998a4cb5e38d2ebe4968be1434adeec", "is_disabled": 0, "rental_uris": {"android": "https://dc.lft.to/lastmile_qr_scan", "ios": "https://dc.lft.to/lastmile_qr_scan"}, "fusion_lon": 0.0, "lat": 38.93170966666667, "bike_id": "d998a4cb5e38d2ebe4968be1434adeec", "type": "electric_scooter", "is_reserved": 0, "lon": -77.03291983333334}, {"fusion_lat": 0.0, "name": "62e6957b1fc68256cb16ef262d05b75b", "is_disabled": 0, "rental_uris": {"android": "https://dc.lft.to/lastmile_qr_scan", "ios": "https://dc.lft.to/lastmile_qr_scan"}, "fusion_lon": 0.0, "lat": 38.9001115, "bike_id": "62e6957b1fc68256cb16ef262d05b75b", "type": "electric_scooter", "is_reserved": 0, "lon": -76.99305783333334}, {"fusion_lat": 0.0, "name": "667d1b13e98ccfa5b5c8a095cdb152cc", "is_disabled": 0, "rental_uris": {"android": "https://dc.lft.to/lastmile_qr_scan", "ios": "https://dc.lft.to/lastmile_qr_scan"}, "fusion_lon": 0.0, "lat": 38.93414116666667, "bike_id": "667d1b13e98ccfa5b5c8a095cdb152cc", "type": "electric_scooter", "is_reserved": 0, "lon": -77.02201233333334}, {"fusion_lat": 0.0, "name": "6d6970e577d2cc6eb984a94fc403a1c6", "is_disabled": 0, "rental_uris": {"android": "https://dc.lft.to/lastmile_qr_scan", "ios": "https://dc.lft.to/lastmile_qr_scan"}, "fusion_lon": 0.0, "lat": 38.905470333333334, "bike_id": "6d6970e577d2cc6eb984a94fc403a1c6", "type": "electric_scooter", "is_reserved": 0, "lon": -77.04649583333334}, {"fusion_lat": 0.0, "name": "df7c27047ce8e7f8b47e6e2025cbacf5", "is_disabled": 0, "rental_uris": {"android": "https://dc.lft.to/lastmile_qr_scan", "ios": "https://dc.lft.to/lastmile_qr_scan"}, "fusion_lon": 0.0, "lat": 38.930115, "bike_id": "df7c27047ce8e7f8b47e6e2025cbacf5", "type": "electric_scooter", "is_reserved": 0, "lon": -77.03249466666666}, {"fusion_lat": 0.0, "name": "b047e99478f6f7fbe677062bc845b96b", "is_disabled": 0, "rental_uris": {"android": "https://dc.lft.to/lastmile_qr_scan", "ios": "https://dc.lft.to/lastmile_qr_scan"}, "fusion_lon": 0.0, "lat": 38.9095355, "bike_id": "b047e99478f6f7fbe677062bc845b96b", "type": "electric_scooter", "is_reserved": 0, "lon": -77.02758983333334}, {"fusion_lat": 0.0, "name": "451baf8b49623ed931cbae592b3d82a3", "is_disabled": 0, "rental_uris": {"android": "https://dc.lft.to/lastmile_qr_scan", "ios": "https://dc.lft.to/lastmile_qr_scan"}, "fusion_lon": 0.0, "lat": 38.9005245, "bike_id": "451baf8b49623ed931cbae592b3d82a3", "type": "electric_scooter", "is_reserved": 0, "lon": -76.94706583333334}, {"fusion_lat": 0.0, "name": "4db561e125144253200f1b0726ed7abc", "is_disabled": 0, "rental_uris": {"android": "https://dc.lft.to/lastmile_qr_scan", "ios": "https://dc.lft.to/lastmile_qr_scan"}, "fusion_lon": 0.0, "lat": 38.95414983333333, "bike_id": "4db561e125144253200f1b0726ed7abc", "type": "electric_scooter", "is_reserved": 0, "lon": -77.02764433333333}, {"fusion_lat": 0.0, "name": "6daa6d027f1e1826353bafa5a2993e22", "is_disabled": 0, "rental_uris": {"android": "https://dc.lft.to/lastmile_qr_scan", "ios": "https://dc.lft.to/lastmile_qr_scan"}, "fusion_lon": 0.0, "lat": 38.9088865, "bike_id": "6daa6d027f1e1826353bafa5a2993e22", "type": "electric_scooter", "is_reserved": 0, "lon": -77.04396183333333}, {"fusion_lat": 0.0, "name": "692eca321e8617afa7c6f0bf99351002", "is_disabled": 0, "rental_uris": {"android": "https://dc.lft.to/lastmile_qr_scan", "ios": "https://dc.lft.to/lastmile_qr_scan"}, "fusion_lon": 0.0, "lat": 38.89352183333333, "bike_id": "692eca321e8617afa7c6f0bf99351002", "type": "electric_scooter", "is_reserved": 0, "lon": -76.98648483333334}, {"fusion_lat": 0.0, "name": "f2922fdd032c821f323888ef5566d841", "is_disabled": 0, "rental_uris": {"android": "https://dc.lft.to/lastmile_qr_scan", "ios": "https://dc.lft.to/lastmile_qr_scan"}, "fusion_lon": 0.0, "lat": 38.91625916666667, "bike_id": "f2922fdd032c821f323888ef5566d841", "type": "electric_scooter", "is_reserved": 0, "lon": -77.05071166666667}, {"fusion_lat": 0.0, "name": "72a8ca65a8d16d1b2c66731fc5898f7f", "is_disabled": 0, "rental_uris": {"android": "https://dc.lft.to/lastmile_qr_scan", "ios": "https://dc.lft.to/lastmile_qr_scan"}, "fusion_lon": 0.0, "lat": 38.90728983333333, "bike_id": "72a8ca65a8d16d1b2c66731fc5898f7f", "type": "electric_scooter", "is_reserved": 0, "lon": -77.04336033333334}, {"fusion_lat": 0.0, "name": "e58e7ff56fff4d0ac1767ccc42102eea", "is_disabled": 0, "rental_uris": {"android": "https://dc.lft.to/lastmile_qr_scan", "ios": "https://dc.lft.to/lastmile_qr_scan"}, "fusion_lon": 0.0, "lat": 38.92090616666667, "bike_id": "e58e7ff56fff4d0ac1767ccc42102eea", "type": "electric_scooter", "is_reserved": 0, "lon": -77.02393716666667}, {"fusion_lat": 0.0, "name": "f6286b01143b1ed7c3785b89aef81a04", "is_disabled": 0, "rental_uris": {"android": "https://dc.lft.to/lastmile_qr_scan", "ios": "https://dc.lft.to/lastmile_qr_scan"}, "fusion_lon": 0.0, "lat": 38.907534166666665, "bike_id": "f6286b01143b1ed7c3785b89aef81a04", "type": "electric_scooter", "is_reserved": 0, "lon": -77.03586183333333}, {"fusion_lat": 0.0, "name": "d67a32db4a471f73dd913e002c4de85f", "is_disabled": 0, "rental_uris": {"android": "https://dc.lft.to/lastmile_qr_scan", "ios": "https://dc.lft.to/lastmile_qr_scan"}, "fusion_lon": 0.0, "lat": 38.93048266666667, "bike_id": "d67a32db4a471f73dd913e002c4de85f", "type": "electric_scooter", "is_reserved": 0, "lon": -77.03213516666666}, {"fusion_lat": 0.0, "name": "a28891928ca30f448ec1799cc444b95b", "is_disabled": 0, "rental_uris": {"android": "https://dc.lft.to/lastmile_qr_scan", "ios": "https://dc.lft.to/lastmile_qr_scan"}, "fusion_lon": 0.0, "lat": 38.91921883333333, "bike_id": "a28891928ca30f448ec1799cc444b95b", "type": "electric_scooter", "is_reserved": 0, "lon": -77.023813}, {"fusion_lat": 0.0, "name": "afdf789263a455aaa24ac3b414d48add", "is_disabled": 0, "rental_uris": {"android": "https://dc.lft.to/lastmile_qr_scan", "ios": "https://dc.lft.to/lastmile_qr_scan"}, "fusion_lon": 0.0, "lat": 38.9036755, "bike_id": "afdf789263a455aaa24ac3b414d48add", "type": "electric_scooter", "is_reserved": 0, "lon": -77.03306716666667}, {"fusion_lat": 0.0, "name": "3724e6048434972ab6563fc913431c95", "is_disabled": 0, "rental_uris": {"android": "https://dc.lft.to/lastmile_qr_scan", "ios": "https://dc.lft.to/lastmile_qr_scan"}, "fusion_lon": 0.0, "lat": 38.923498333333335, "bike_id": "3724e6048434972ab6563fc913431c95", "type": "electric_scooter", "is_reserved": 0, "lon": -77.04147666666667}, {"fusion_lat": 0.0, "name": "8c54dd07c2188e17dcf3e5db23c372f6", "is_disabled": 0, "rental_uris": {"android": "https://dc.lft.to/lastmile_qr_scan", "ios": "https://dc.lft.to/lastmile_qr_scan"}, "fusion_lon": 0.0, "lat": 38.90720366666667, "bike_id": "8c54dd07c2188e17dcf3e5db23c372f6", "type": "electric_scooter", "is_reserved": 0, "lon": -77.04345033333334}, {"fusion_lat": 0.0, "name": "7f207d446b5209e3b7f4b03eaef1f21b", "is_disabled": 0, "rental_uris": {"android": "https://dc.lft.to/lastmile_qr_scan", "ios": "https://dc.lft.to/lastmile_qr_scan"}, "fusion_lon": 0.0, "lat": 38.92122166666667, "bike_id": "7f207d446b5209e3b7f4b03eaef1f21b", "type": "electric_scooter", "is_reserved": 0, "lon": -77.044374}, {"fusion_lat": 0.0, "name": "8d195ea6aa191e2bd5a12ee7293b1dd2", "is_disabled": 0, "rental_uris": {"android": "https://dc.lft.to/lastmile_qr_scan", "ios": "https://dc.lft.to/lastmile_qr_scan"}, "fusion_lon": 0.0, "lat": 38.92453883333334, "bike_id": "8d195ea6aa191e2bd5a12ee7293b1dd2", "type": "electric_scooter", "is_reserved": 0, "lon": -77.03971683333333}, {"fusion_lat": 0.0, "name": "8a0259bc571d0671bf56e01f3de0d825", "is_disabled": 0, "rental_uris": {"android": "https://dc.lft.to/lastmile_qr_scan", "ios": "https://dc.lft.to/lastmile_qr_scan"}, "fusion_lon": 0.0, "lat": 38.88737533333333, "bike_id": "8a0259bc571d0671bf56e01f3de0d825", "type": "electric_scooter", "is_reserved": 0, "lon": -77.021334}, {"fusion_lat": 0.0, "name": "df24c8bdf9a6a0d5bb750d6b25981486", "is_disabled": 0, "rental_uris": {"android": "https://dc.lft.to/lastmile_qr_scan", "ios": "https://dc.lft.to/lastmile_qr_scan"}, "fusion_lon": 0.0, "lat": 38.902498, "bike_id": "df24c8bdf9a6a0d5bb750d6b25981486", "type": "electric_scooter", "is_reserved": 0, "lon": -77.01750033333333}, {"fusion_lat": 0.0, "name": "35f86a51296229eacbd8b82b3c4a4e13", "is_disabled": 0, "rental_uris": {"android": "https://dc.lft.to/lastmile_qr_scan", "ios": "https://dc.lft.to/lastmile_qr_scan"}, "fusion_lon": 0.0, "lat": 38.901870333333335, "bike_id": "35f86a51296229eacbd8b82b3c4a4e13", "type": "electric_scooter", "is_reserved": 0, "lon": -77.0238915}, {"fusion_lat": 0.0, "name": "5d76b06a113ff0080915751f8ab83d04", "is_disabled": 0, "rental_uris": {"android": "https://dc.lft.to/lastmile_qr_scan", "ios": "https://dc.lft.to/lastmile_qr_scan"}, "fusion_lon": 0.0, "lat": 38.90945716666667, "bike_id": "5d76b06a113ff0080915751f8ab83d04", "type": "electric_scooter", "is_reserved": 0, "lon": -77.02374133333333}, {"fusion_lat": 0.0, "name": "5d0a6391c6ba38dfa7dbb27b322df34f", "is_disabled": 0, "rental_uris": {"android": "https://dc.lft.to/lastmile_qr_scan", "ios": "https://dc.lft.to/lastmile_qr_scan"}, "fusion_lon": 0.0, "lat": 38.91561983333333, "bike_id": "5d0a6391c6ba38dfa7dbb27b322df34f", "type": "electric_bike", "is_reserved": 0, "lon": -77.0058565}, {"fusion_lat": 0.0, "name": "8a7f8dac19e04f497a57ea61c6e75475", "is_disabled": 0, "rental_uris": {"android": "https://dc.lft.to/lastmile_qr_scan", "ios": "https://dc.lft.to/lastmile_qr_scan"}, "fusion_lon": 0.0, "lat": 38.91709783333334, "bike_id": "8a7f8dac19e04f497a57ea61c6e75475", "type": "electric_scooter", "is_reserved": 0, "lon": -77.02392133333333}, {"fusion_lat": 0.0, "name": "eeff136ff39ce611212c92b1dad28c45", "is_disabled": 0, "rental_uris": {"android": "https://dc.lft.to/lastmile_qr_scan", "ios": "https://dc.lft.to/lastmile_qr_scan"}, "fusion_lon": 0.0, "lat": 38.90290233333333, "bike_id": "eeff136ff39ce611212c92b1dad28c45", "type": "electric_scooter", "is_reserved": 0, "lon": -77.0160115}, {"fusion_lat": 0.0, "name": "6f9d62dc49d9ab71174588b615eeb17c", "is_disabled": 0, "rental_uris": {"android": "https://dc.lft.to/lastmile_qr_scan", "ios": "https://dc.lft.to/lastmile_qr_scan"}, "fusion_lon": 0.0, "lat": 38.914165, "bike_id": "6f9d62dc49d9ab71174588b615eeb17c", "type": "electric_scooter", "is_reserved": 0, "lon": -77.03171783333333}, {"fusion_lat": 0.0, "name": "d39f9f3b43fa9d8dc3fc4690bf060271", "is_disabled": 0, "rental_uris": {"android": "https://dc.lft.to/lastmile_qr_scan", "ios": "https://dc.lft.to/lastmile_qr_scan"}, "fusion_lon": 0.0, "lat": 38.92341416666667, "bike_id": "d39f9f3b43fa9d8dc3fc4690bf060271", "type": "electric_scooter", "is_reserved": 0, "lon": -77.05171816666666}, {"fusion_lat": 0.0, "name": "a27db1b8807f221c77c9280c663c8c17", "is_disabled": 0, "rental_uris": {"android": "https://dc.lft.to/lastmile_qr_scan", "ios": "https://dc.lft.to/lastmile_qr_scan"}, "fusion_lon": 0.0, "lat": 38.888151666666666, "bike_id": "a27db1b8807f221c77c9280c663c8c17", "type": "electric_scooter", "is_reserved": 0, "lon": -77.01493483333333},