{"data": {"bikes": [{"fusion_lat": 0.0, "bike_id": "d45b79dbb63355a27921b7484cad7996", "fusion_lon": 0.0, "lon": -77.033416, "lat": 38.902674, "is_reserved": 0, "is_disabled": 0, "rental_uris": {"android": "https://dc.lft.to/lastmile_qr_scan", "ios": "https://dc.lft.to/lastmile_qr_scan"}, "name": "d45b79dbb63355a27921b7484cad7996", "type": "electric_scooter"}, {"fusion_lat": 0.0, "bike_id": "5fcbca385384e149f916a516eecb78ec", "fusion_lon": 0.0, "lon": -77.03287683333333, "lat": 38.937622, "is_reserved": 0, "is_disabled": 0, "rental_uris": {"android": "https://dc.lft.to/lastmile_qr_scan", "ios": "https://dc.lft.to/lastmile_qr_scan"}, "name": "5fcbca385384e149f916a516eecb78ec", "type": "electric_scooter"}, {"fusion_lat": 0.0, "bike_id": "42bce24584abb83f930f8abc684b8dd1", "fusion_lon": 0.0, "lon": -76.99458866666667, "lat": 38.9036675, "is_reserved": 0, "is_disabled": 0, "rental_uris": {"android": "https://dc.lft.to/lastmile_qr_scan", "ios": "https://dc.lft.to/lastmile_qr_scan"}, "name": "42bce24584abb83f930f8abc684b8dd1", "type": "electric_scooter"}, {"fusion_lat": 0.0, "bike_id": "f6e583447831f84c070c1f7737384e31", "fusion_lon": 0.0, "lon": -77.02808316666666, "lat": 38.91425916666667, "is_reserved": 0, "is_disabled": 0, "rental_uris": {"android": "https://dc.lft.to/lastmile_qr_scan", "ios": "https://dc.lft.to/lastmile_qr_scan"}, "name": "f6e583447831f84c070c1f7737384e31", "type": "electric_scooter"}, {"fusion_lat": 0.0, "bike_id": "3a586b2323ea5917b47c4d22e0db6ee6", "fusion_lon": 0.0, "lon": -77.01999183333334, "lat": 38.966265, "is_reserved": 0, "is_disabled": 0, "rental_uris": {"android": "https://dc.lft.to/lastmile_qr_scan", "ios": "https://dc.lft.to/lastmile_qr_scan"}, "name": "3a586b2323ea5917b47c4d22e0db6ee6", "type": "electric_scooter"}, {"fusion_lat": 0.0, "bike_id": "0b5944ee8329421fa36cbae441c8622c", "fusion_lon": 0.0, "lon": -76.993828, "lat": 38.899002833333334, "is_reserved": 0, "is_disabled": 0, "rental_uris": {"android": "https://dc.lft.to/lastmile_qr_scan", "ios": "https://dc.lft.to/lastmile_qr_scan"}, "name": "0b5944ee8329421fa36cbae441c8622c", "type": "electric_scooter"}, {"fusion_lat": 0.0, "bike_id": "f5803044bb059639d55cf6cf7edb97be", "fusion_lon": 0.0, "lon": -77.075911, "lat": 38.912174666666665, "is_reserved": 0, "is_disabled": 0, "rental_uris": {"android": "https://dc.lft.to/lastmile_qr_scan", "ios": "https://dc.lft.to/lastmile_qr_scan"}, "name": "f5803044bb059639d55cf6cf7edb97be", "type": "electric_scooter"}, {"fusion_lat": 0.0, "bike_id": "bb40c46492186999b06cd65befbba8db", "fusion_lon": 0.0, "lon": -77.02389366666667, "lat": 38.912846333333334, "is_reserved": 0, "is_disabled": 0, "rental_uris": {"android": "https://dc.lft.to/lastmile_qr_scan", "ios": "https://dc.lft.to/lastmile_qr_scan"}, "name": "bb40c46492186999b06cd65befbba8db", "type": "electric_scooter"}, {"fusion_lat": 0.0, "bike_id": "99d67b6c3fed0568b55a8bdefaefc733", "fusion_lon": 0.0, "lon": -76.99674616666667, "lat": 38.8383685, "is_reserved": 0, "is_disabled": 0, "rental_uris": {"android": "https://dc.lft.to/lastmile_qr_scan", "ios": "https://dc.lft.to/lastmile_qr_scan"}, "name": "99d67b6c3fed0568b55a8bdefaefc733", "type": "electric_bike"}, {"fusion_lat": 0.0, "bike_id": "eac74cac5e342bc17520e37e307e2d4e", "fusion_lon": 0.0, "lon": -77.03952433333333, "lat": 38.904658, "is_reserved": 0, "is_disabled": 0, "rental_uris": {"android": "https://dc.lft.to/lastmile_qr_scan", "ios": "https://dc.lft.to/lastmile_qr_scan"}, "name": "eac74cac5e342bc17520e37e307e2d4e", "type": "electric_scooter"}, {"fusion_lat": 0.0, "bike_id": "9e0885e1b6394bc0a09aa55d4e65dc6e", "fusion_lon": 0.0, "lon": -77.05460416666666, "lat": 38.904371166666664, "is_reserved": 0, "is_disabled": 0, "rental_uris": {"android": "https://dc.lft.to/lastmile_qr_scan", "ios": "https://dc.lft.to/lastmile_qr_scan"}, "name": "9e0885e1b6394bc0a09aa55d4e65dc6e", "type": "electric_scooter"}, {"fusion_lat": 0.0, "bike_id": "0dfe7e1d1f25af5f3d45d00a51579c5c", "fusion_lon": 0.0, "lon": -76.97244, "lat": 38.903424333333334, "is_reserved": 0, "is_disabled": 0, "rental_uris": {"android": "https://dc.lft.to/lastmile_qr_scan", "ios": "https://dc.lft.to/lastmile_qr_scan"}, "name": "0dfe7e1d1f25af5f3d45d00a51579c5c", "type": "electric_scooter"}, {"fusion_lat": 0.0, "bike_id": "fec816448233305e0127ccdecb8a77e3", "fusion_lon": 0.0, "lon": -76.985274, "lat": 38.866842166666665, "is_reserved": 0, "is_disabled": 0, "rental_uris": {"android": "https://dc.lft.to/lastmile_qr_scan", "ios": "https://dc.lft.to/lastmile_qr_scan"}, "name": "fec816448233305e0127ccdecb8a77e3", "type": "electric_scooter"}, {"fusion_lat": 0.0, "bike_id": "31a34db32e3f7b6b4fa4b101065efef7", "fusion_lon": 0.0, "lon": -77.1145545, "lat": 38.88197133333333, "is_reserved": 0, "is_disabled": 0, "rental_uris": {"android": "https://dc.lft.to/lastmile_qr_scan", "ios": "https://dc.lft.to/lastmile_qr_scan"}, "name": "31a34db32e3f7b6b4fa4b101065efef7", "type": "electric_bike"}, {"fusion_lat": 0.0, "bike_id": "274962b0a151c1d22c3fd751d2215ca1", "fusion_lon": 0.0, "lon": -77.02058183333334, "lat": 38.95752516666667, "is_reserved": 0, "is_disabled": 0, "rental_uris": {"android": "https://dc.lft.to/lastmile_qr_scan", "ios": "https://dc.lft.to/lastmile_qr_scan"}, "name": "274962b0a151c1d22c3fd751d2215ca1", "type": "electric_bike"}, {"fusion_lat": 0.0, "bike_id": "ad752d13bea1e55d3f93adb2cb4d157c", "fusion_lon": 0.0, "lon": -77.02439316666667, "lat": 38.937514666666665, "is_reserved": 0, "is_disabled": 0, "rental_uris": {"android": "https://dc.lft.to/lastmile_qr_scan", "ios": "https://dc.lft.to/lastmile_qr_scan"}, "name": "ad752d13bea1e55d3f93adb2cb4d157c", "type": "electric_scooter"}, {"fusion_lat": 0.0, "bike_id": "1fc78fe2a627f2e1ef1430a0bf7bcb7f", "fusion_lon": 0.0, "lon": -77.04165516666667, "lat": 38.8957565, "is_reserved": 0, "is_disabled": 0, "rental_uris": {"android": "https://dc.lft.to/lastmile_qr_scan", "ios": "https://dc.lft.to/lastmile_qr_scan"}, "name": "1fc78fe2a627f2e1ef1430a0bf7bcb7f", "type": "electric_bike"}, {"fusion_lat": 0.0, "bike_id": "ee8e5fbfad3ad19415051cfd9f799e88", "fusion_lon": 0.0, "lon": -77.045243, "lat": 38.902354, "is_reserved": 0, "is_disabled": 0, "rental_uris": {"android": "https://dc.lft.to/lastmile_qr_scan", "ios": "https://dc.lft.to/lastmile_qr_scan"}, "name": "ee8e5fbfad3ad19415051cfd9f799e88", "type": "electric_scooter"}, {"fusion_lat": 0.0, "bike_id": "dce868f0ce3e04f97b7cb9ffadcb3d1e", "fusion_lon": 0.0, "lon": -76.987143, "lat": 38.866993666666666, "is_reserved": 0, "is_disabled": 0, "rental_uris": {"android": "https://dc.lft.to/lastmile_qr_scan", "ios": "https://dc.lft.to/lastmile_qr_scan"}, "name": "dce868f0ce3e04f97b7cb9ffadcb3d1e", "type": "electric_scooter"}, {"fusion_lat": 0.0, "bike_id": "48f21374ef8b2a1b5dc64949c016b79f", "fusion_lon": 0.0, "lon": -77.03937933333333, "lat": 38.902800666666664, "is_reserved": 0, "is_disabled": 0, "rental_uris": {"android": "https://dc.lft.to/lastmile_qr_scan", "ios": "https://dc.lft.to/lastmile_qr_scan"}, "name": "48f21374ef8b2a1b5dc64949c016b79f", "type": "electric_scooter"}, {"fusion_lat": 0.0, "bike_id": "172d03bf9b412cf523cec3bf80b98423", "fusion_lon": 0.0, "lon": -77.0208675, "lat": 38.924042666666665, "is_reserved": 0, "is_disabled": 0, "rental_uris": {"android": "https://dc.lft.to/lastmile_qr_scan", "ios": "https://dc.lft.to/lastmile_qr_scan"}, "name": "172d03bf9b412cf523cec3bf80b98423", "type": "electric_scooter"}, {"fusion_lat": 0.0, "bike_id": "f22e28b565ec932a5750ff082e7b2db4", "fusion_lon": 0.0, "lon": -77.03273316666667, "lat": 38.91996616666667, "is_reserved": 0, "is_disabled": 0, "rental_uris": {"android": "https://dc.lft.to/lastmile_qr_scan", "ios": "https://dc.lft.to/lastmile_qr_scan"}, "name": "f22e28b565ec932a5750ff082e7b2db4", "type": "electric_scooter"}, {"fusion_lat": 0.0, "bike_id": "87c788213b345ee673f999ded7653336", "fusion_lon": 0.0, "lon": -76.99933283333333, "lat": 38.84311366666667, "is_reserved": 0, "is_disabled": 0, "rental_uris": {"android": "https://dc.lft.to/lastmile_qr_scan", "ios": "https://dc.lft.to/lastmile_qr_scan"}, "name": "87c788213b345ee673f999ded7653336", "type": "electric_scooter"}, {"fusion_lat": 0.0, "bike_id": "a0972e3a776ad6f31a4ca599ab2cc3d2", "fusion_lon": 0.0, "lon": -77.03217516666666, "lat": 38.89220866666667, "is_reserved": 0, "is_disabled": 0, "rental_uris": {"android": "https://dc.lft.to/lastmile_qr_scan", "ios": "https://dc.lft.to/lastmile_qr_scan"}, "name": "a0972e3a776ad6f31a4ca599ab2cc3d2", "type": "electric_scooter"}, {"fusion_lat": 0.0, "bike_id": "ab5f31f2f860bb102103155ef3b787be", "fusion_lon": 0.0, "lon": -77.04334283333333, "lat": 38.902437, "is_reserved": 0, "is_disabled": 0, "rental_uris": {"android": "https://dc.lft.to/lastmile_qr_scan", "ios": "https://dc.lft.to/lastmile_qr_scan"}, "name": "ab5f31f2f860bb102103155ef3b787be", "type": "electric_scooter"}, {"fusion_lat": 0.0, "bike_id": "75e87e41725ac0a5636651a772257c3f", "fusion_lon": 0.0, "lon": -77.03379616666666, "lat": 38.9096825, "is_reserved": 0, "is_disabled": 0, "rental_uris": {"android": "https://dc.lft.to/lastmile_qr_scan", "ios": "https://dc.lft.to/lastmile_qr_scan"}, "name": "75e87e41725ac0a5636651a772257c3f", "type": "electric_scooter"}, {"fusion_lat": 0.0, "bike_id": "3399b9a0fd18e03e1c1c4d9280aca2da", "fusion_lon": 0.0, "lon": -76.93730183333334, "lat": 38.89019866666667, "is_reserved": 0, "is_disabled": 0, "rental_uris": {"android": "https://dc.lft.to/lastmile_qr_scan", "ios": "https://dc.lft.to/lastmile_qr_scan"}, "name": "3399b9a0fd18e03e1c1c4d9280aca2da", "type": "electric_scooter"}, {"fusion_lat": 0.0, "bike_id": "855e6acc42ee72fea91121fcfc7c81be", "fusion_lon": 0.0, "lon": -77.0737105, "lat": 38.8939625, "is_reserved": 0, "is_disabled": 0, "rental_uris": {"android": "https://dc.lft.to/lastmile_qr_scan", "ios": "https://dc.lft.to/lastmile_qr_scan"}, "name": "855e6acc42ee72fea91121fcfc7c81be", "type": "electric_bike"}, {"fusion_lat": 0.0, "bike_id": "345e06a5457b6d701da6dd71cb50b3b5", "fusion_lon": 0.0, "lon": -76.98229433333333, "lat": 38.868907166666666, "is_reserved": 0, "is_disabled": 0, "rental_uris": {"android": "https://dc.lft.to/lastmile_qr_scan", "ios": "https://dc.lft.to/lastmile_qr_scan"}, "name": "345e06a5457b6d701da6dd71cb50b3b5", "type": "electric_scooter"}, {"fusion_lat": 0.0, "bike_id": "a420bafa014c0981207009d09dba61d8", "fusion_lon": 0.0, "lon": -77.0450525, "lat": 38.9037675, "is_reserved": 0, "is_disabled": 0, "rental_uris": {"android": "https://dc.lft.to/lastmile_qr_scan", "ios": "https://dc.lft.to/lastmile_qr_scan"}, "name": "a420bafa014c0981207009d09dba61d8", "type": "electric_scooter"}, {"fusion_lat": 0.0, "bike_id": "7b7a8c494e7c91e5e0b91ccdf082e45c", "fusion_lon": 0.0, "lon": -77.01041583333334, "lat": 38.897354, "is_reserved": 0, "is_disabled": 0, "rental_uris": {"android": "https://dc.lft.to/lastmile_qr_scan", "ios": "https://dc.lft.to/lastmile_qr_scan"}, "name": "7b7a8c494e7c91e5e0b91ccdf082e45c", "type": "electric_scooter"}, {"fusion_lat": 0.0, "bike_id": "7a561856124cb7d74c004d70bcf6e30a", "fusion_lon": 0.0, "lon": -77.02208916666666, "lat": 38.905586166666666, "is_reserved": 0, "is_disabled": 0, "rental_uris": {"android": "https://dc.lft.to/lastmile_qr_scan", "ios": "https://dc.lft.to/lastmile_qr_scan"}, "name": "7a561856124cb7d74c004d70bcf6e30a", "type": "electric_scooter"}, {"fusion_lat": 0.0, "bike_id": "d9a0a05b49d0029429f8464a7cee0945", "fusion_lon": 0.0, "lon": -77.053968, "lat": 38.927697, "is_reserved": 0, "is_disabled": 0, "rental_uris": {"android": "https://dc.lft.to/lastmile_qr_scan", "ios": "https://dc.lft.to/lastmile_qr_scan"}, "name": "d9a0a05b49d0029429f8464a7cee0945", "type": "electric_scooter"}, {"fusion_lat": 0.0, "bike_id": "68c3fdaa1472f9d10afd2536b825918b", "fusion_lon": 0.0, "lon": -77.01829716666667, "lat": 38.922705666666666, "is_reserved": 0, "is_disabled": 0, "rental_uris": {"android": "https://dc.lft.to/lastmile_qr_scan", "ios": "https://dc.lft.to/lastmile_qr_scan"}, "name": "68c3fdaa1472f9d10afd2536b825918b", "type": "electric_scooter"}, {"fusion_lat": 0.0, "bike_id": "0a5956998ca6ca6723668ae539aef1b1", "fusion_lon": 0.0, "lon": -77.0461585, "lat": 38.90258216666667, "is_reserved": 0, "is_disabled": 0, "rental_uris": {"android": "https://dc.lft.to/lastmile_qr_scan", "ios": "https://dc.lft.to/lastmile_qr_scan"}, "name": "0a5956998ca6ca6723668ae539aef1b1", "type": "electric_scooter"}, {"fusion_lat": 0.0, "bike_id": "afa1bc9c6fa72f21c6a0f86e9f2bf719", "fusion_lon": 0.0, "lon": -77.08203166666667, "lat": 38.93517, "is_reserved": 0, "is_disabled": 0, "rental_uris": {"android": "https://dc.lft.to/lastmile_qr_scan", "ios": "https://dc.lft.to/lastmile_qr_scan"}, "name": "afa1bc9c6fa72f21c6a0f86e9f2bf719", "type": "electric_scooter"}, {"fusion_lat": 0.0, "bike_id": "b6f0ec8ff9629403864f15b118d2519a", "fusion_lon": 0.0, "lon": -77.0487025, "lat": 38.906484166666665, "is_reserved": 0, "is_disabled": 0, "rental_uris": {"android": "https://dc.lft.to/lastmile_qr_scan", "ios": "https://dc.lft.to/lastmile_qr_scan"}, "name": "b6f0ec8ff9629403864f15b118d2519a", "type": "electric_scooter"}, {"fusion_lat": 0.0, "bike_id": "1fd0a7942a7f4d5ce0c51cec8ced9d9f", "fusion_lon": 0.0, "lon": -77.01495666666666, "lat": 38.892192333333334, "is_reserved": 0, "is_disabled": 0, "rental_uris": {"android": "https://dc.lft.to/lastmile_qr_scan", "ios": "https://dc.lft.to/lastmile_qr_scan"}, "name": "1fd0a7942a7f4d5ce0c51cec8ced9d9f", "type": "electric_scooter"}, {"fusion_lat": 0.0, "bike_id": "3c2563472bf1e0336a6cfe00d57a36e4", "fusion_lon": 0.0, "lon": -77.04476733333334, "lat": 38.90541966666667, "is_reserved": 0, "is_disabled": 0, "rental_uris": {"android": "https://dc.lft.to/lastmile_qr_scan", "ios": "https://dc.lft.to/lastmile_qr_scan"}, "name": "3c2563472bf1e0336a6cfe00d57a36e4", "type": "electric_scooter"}, {"fusion_lat": 0.0, "bike_id": "16f496d986c33771588d48b7447c7f8e", "fusion_lon": 0.0, "lon": -77.03511683333333, "lat": 38.9214215, "is_reserved": 0, "is_disabled": 0, "rental_uris": {"android": "https://dc.lft.to/lastmile_qr_scan", "ios": "https://dc.lft.to/lastmile_qr_scan"}, "name": "16f496d986c33771588d48b7447c7f8e", "type": "electric_scooter"}, {"fusion_lat": 0.0, "bike_id": "a8eae6da290814175e0b60cd7e98a33e", "fusion_lon": 0.0, "lon": -77.02230483333334, "lat": 38.893211666666666, "is_reserved": 0, "is_disabled": 0, "rental_uris": {"android": "https://dc.lft.to/lastmile_qr_scan", "ios": "https://dc.lft.to/lastmile_qr_scan"}, "name": "a8eae6da290814175e0b60cd7e98a33e", "type": "electric_scooter"}, {"fusion_lat": 0.0, "bike_id": "56391b899eb3a9b6be5f4636be7a0221", "fusion_lon": 0.0, "lon": -77.032217, "lat": 38.89222433333333, "is_reserved": 0, "is_disabled": 0, "rental_uris": {"android": "https://dc.lft.to/lastmile_qr_scan", "ios": "https://dc.lft.to/lastmile_qr_scan"}, "name": "56391b899eb3a9b6be5f4636be7a0221", "type": "electric_scooter"}, {"fusion_lat": 0.0, "bike_id": "6f0ebb632fa6f6dae754dfb5c5ae8782", "fusion_lon": 0.0, "lon": -76.93030133333333, "lat": 38.90011, "is_reserved": 0, "is_disabled": 0, "rental_uris": {"android": "https://dc.lft.to/lastmile_qr_scan", "ios": "https://dc.lft.to/lastmile_qr_scan"}, "name": "6f0ebb632fa6f6dae754dfb5c5ae8782", "type": "electric_scooter"}, {"fusion_lat": 0.0, "bike_id": "f2015b0ae8e7369d325b08acea0a8cee", "fusion_lon": 0.0, "lon": -77.02588433333334, "lat": 38.903432333333335, "is_reserved": 0, "is_disabled": 0, "rental_uris": {"android": "https://dc.lft.to/lastmile_qr_scan", "ios": "https://dc.lft.to/lastmile_qr_scan"}, "name": "f2015b0ae8e7369d325b08acea0a8cee", "type": "electric_scooter"}, {"fusion_lat": 0.0, "bike_id": "e4bf4da4ef2b56d5f14115b855be1e79", "fusion_lon": 0.0, "lon": -77.028168, "lat": 38.931689666666664, "is_reserved": 0, "is_disabled": 0, "rental_uris": {"android": "https://dc.lft.to/lastmile_qr_scan", "ios": "https://dc.lft.to/lastmile_qr_scan"}, "name": "e4bf4da4ef2b56d5f14115b855be1e79", "type": "electric_scooter"}, {"fusion_lat": 0.0, "bike_id": "3936e981f0ab3fb0faad3f8ab537a32a", "fusion_lon": 0.0, "lon": -77.02108883333334, "lat": 38.921732166666665, "is_reserved": 0, "is_disabled": 0, "rental_uris": {"android": "https://dc.lft.to/lastmile_qr_scan", "ios": "https://dc.lft.to/lastmile_qr_scan"}, "name": "3936e981f0ab3fb0faad3f8ab537a32a", "type": "electric_scooter"}, {"fusion_lat": 0.0, "bike_id": "5d783fe3103e0c07662d8d286211383c", "fusion_lon": 0.0, "lon": -76.900791, "lat": 38.8876295, "is_reserved": 0, "is_disabled": 0, "rental_uris": {"android": "https://dc.lft.to/lastmile_qr_scan", "ios": "https://dc.lft.to/lastmile_qr_scan"}, "name": "5d783fe3103e0c07662d8d286211383c", "type": "electric_bike"}, {"fusion_lat": 0.0, "bike_id": "4bc68da78454230d05aeaf2dcc83af59", "fusion_lon": 0.0, "lon": -77.03505133333333, "lat": 38.9214735, "is_reserved": 0, "is_disabled": 0, "rental_uris": {"android": "https://dc.lft.to/lastmile_qr_scan", "ios": "https://dc.lft.to/lastmile_qr_scan"}, "name": "4bc68da78454230d05aeaf2dcc83af59", "type": "electric_scooter"}, {"fusion_lat": 0.0, "bike_id": "97e7e514ebc11b7e84a9102b232af9a2", "fusion_lon": 0.0, "lon": -77.233354, "lat": 38.872757666666665, "is_reserved": 0, "is_disabled": 0, "rental_uris": {"android": "https://dc.lft.to/lastmile_qr_scan", "ios": "https://dc.lft.to/lastmile_qr_scan"}, "name": "97e7e514ebc11b7e84a9102b232af9a2", "type": "electric_bike"}, {"fusion_lat": 0.0, "bike_id": "fa6360fe259b6f27efc43739d1ffca4c", "fusion_lon": 0.0, "lon": -76.94103366666667, "lat": 38.88455483333333, "is_reserved": 0, "is_disabled": 0, "rental_uris": {"android": "https://dc.lft.to/lastmile_qr_scan", "ios": "https://dc.lft.to/lastmile_qr_scan"}, "name": "fa6360fe259b6f27efc43739d1ffca4c", "type": "electric_scooter"}, {"fusion_lat": 0.0, "bike_id": "ff92d9b3312da8e061e616c26038a40a", "fusion_lon": 0.0, "lon": -77.0344895, "lat": 38.90442566666667, "is_reserved": 0, "is_disabled": 0, "rental_uris": {"android": "https://dc.lft.to/lastmile_qr_scan", "ios": "https://dc.lft.to/lastmile_qr_scan"}, "name": "ff92d9b3312da8e061e616c26038a40a", "type": "electric_scooter"}, {"fusion_lat": 0.0, "bike_id": "1cb147be5abb4f809c8aba62d8759637", "fusion_lon": 0.0, "lon": -77.00738233333334, "lat": 38.87687283333333, "is_reserved": 0, "is_disabled": 0, "rental_uris": {"android": "https://dc.lft.to/lastmile_qr_scan", "ios": "https://dc.lft.to/lastmile_qr_scan"}, "name": "1cb147be5abb4f809c8aba62d8759637", "type": "electric_scooter"}, {"fusion_lat": 0.0, "bike_id": "786cf5c544a5a310e45a877b45db49ad", "fusion_lon": 0.0, "lon": -77.046927, "lat": 38.905793, "is_reserved": 0, "is_disabled": 0, "rental_uris": {"android": "https://dc.lft.to/lastmile_qr_scan", "ios": "https://dc.lft.to/lastmile_qr_scan"}, "name": "786cf5c544a5a310e45a877b45db49ad", "type": "electric_scooter"}, {"fusion_lat": 0.0, "bike_id": "b1151d42dd19d903a593107c7a765799", "fusion_lon": 0.0, "lon": -77.00298916666667, "lat": 38.901145166666666, "is_reserved": 0, "is_disabled": 0, "rental_uris": {"android": "https://dc.lft.to/lastmile_qr_scan", "ios": "https://dc.lft.to/lastmile_qr_scan"}, "name": "b1151d42dd19d903a593107c7a765799", "type": "electric_scooter"}, {"fusion_lat": 0.0, "bike_id": "e7c5a54e884f99f2c9e8b9a9fc3f5be5", "fusion_lon": 0.0, "lon": -77.03279733333333, "lat": 38.912055333333335, "is_reserved": 0, "is_disabled": 0, "rental_uris": {"android": "https://dc.lft.to/lastmile_qr_scan", "ios": "https://dc.lft.to/lastmile_qr_scan"}, "name": "e7c5a54e884f99f2c9e8b9a9fc3f5be5", "type": "electric_scooter"}, {"fusion_lat": 0.0, "bike_id": "b5333e01e39e59733a2ae43afad033d7", "fusion_lon": 0.0, "lon": -77.067739, "lat": 38.904997333333334, "is_reserved": 0, "is_disabled": 0, "rental_uris": {"android": "https://dc.lft.to/lastmile_qr_scan", "ios": "https://dc.lft.to/lastmile_qr_scan"}, "name": "b5333e01e39e59733a2ae43afad033d7", "type": "electric_scooter"}, {"fusion_lat": 0.0, "bike_id": "d31c0c110dbf2cd9b16175951d9d4dc4", "fusion_lon": 0.0, "lon": -76.98881, "lat": 38.8666125, "is_reserved": 0, "is_disabled": 0, "rental_uris": {"android": "https://dc.lft.to/lastmile_qr_scan", "ios": "https://dc.lft.to/lastmile_qr_scan"}, "name": "d31c0c110dbf2cd9b16175951d9d4dc4", "type": "electric_scooter"}, {"fusion_lat": 0.0, "bike_id": "38b4a6ce1e0651beecc1dd8150bc364b", "fusion_lon": 0.0, "lon": -77.05047016666667, "lat": 38.905063, "is_reserved": 0, "is_disabled": 0, "rental_uris": {"android": "https://dc.lft.to/lastmile_qr_scan", "ios": "https://dc.lft.to/lastmile_qr_scan"}, "name": "38b4a6ce1e0651beecc1dd8150bc364b", "type": "electric_scooter"}, {"fusion_lat": 0.0, "bike_id": "e3ed24a4ed0687cf80bb5d0843d9a040", "fusion_lon": 0.0, "lon": -77.03199433333333, "lat": 38.8996385, "is_reserved": 0, "is_disabled": 0, "rental_uris": {"android": "https://dc.lft.to/lastmile_qr_scan", "ios": "https://dc.lft.to/lastmile_qr_scan"}, "name": "e3ed24a4ed0687cf80bb5d0843d9a040", "type": "electric_scooter"}, {"fusion_lat": 0.0, "bike_id": "28e2a9dcb3b1fc332da8b367306f497c", "fusion_lon": 0.0, "lon": -77.04470383333333, "lat": 38.892209666666666, "is_reserved": 0, "is_disabled": 0, "rental_uris": {"android": "https://dc.lft.to/lastmile_qr_scan", "ios": "https://dc.lft.to/lastmile_qr_scan"}, "name": "28e2a9dcb3b1fc332da8b367306f497c", "type": "electric_scooter"}, {"fusion_lat": 0.0, "bike_id": "84e75cf90d7218fec0fe71da8576ab8e", "fusion_lon": 0.0, "lon": -77.03982916666666, "lat": 38.9279535, "is_reserved": 0, "is_disabled": 0, "rental_uris": {"android": "https://dc.lft.to/lastmile_qr_scan", "ios": "https://dc.lft.to/lastmile_qr_scan"}, "name": "84e75cf90d7218fec0fe71da8576ab8e", "type": "electric_scooter"}, {"fusion_lat": 0.0, "bike_id": "3d2dce30d7594fe63e5b044879de60bc", "fusion_lon": 0.0, "lon": -77.03317633333333, "lat": 38.909628, "is_reserved": 0, "is_disabled": 0, "rental_uris": {"android": "https://dc.lft.to/lastmile_qr_scan", "ios": "https://dc.lft.to/lastmile_qr_scan"}, "name": "3d2dce30d7594fe63e5b044879de60bc", "type": "electric_scooter"}, {"fusion_lat": 0.0, "bike_id": "b30cc5421603caf5365882d767394ac4", "fusion_lon": 0.0, "lon": -77.04160916666666, "lat": 38.9063555, "is_reserved": 0, "is_disabled": 0, "rental_uris": {"android": "https://dc.lft.to/lastmile_qr_scan", "ios": "https://dc.lft.to/lastmile_qr_scan"}, "name": "b30cc5421603caf5365882d767394ac4", "type": "electric_scooter"}, {"fusion_lat": 0.0, "bike_id": "09fffa14f16836a4df549bf5369f8a5b", "fusion_lon": 0.0, "lon": -76.97866766666667, "lat": 38.87193033333333, "is_reserved": 0, "is_disabled": 0, "rental_uris": {"android": "https://dc.lft.to/lastmile_qr_scan", "ios": "https://dc.lft.to/lastmile_qr_scan"}, "name": "09fffa14f16836a4df549bf5369f8a5b", "type": "electric_scooter"}, {"fusion_lat": 0.0, "bike_id": "3188e728d8d03a3cc031c55ba742fa87", "fusion_lon": 0.0, "lon": -77.04433116666667, "lat": 38.9216405, "is_reserved": 0, "is_disabled": 0, "rental_uris": {"android": "https://dc.lft.to/lastmile_qr_scan", "ios": "https://dc.lft.to/lastmile_qr_scan"}, "name": "3188e728d8d03a3cc031c55ba742fa87", "type": "electric_scooter"}, {"fusion_lat": 0.0, "bike_id": "7319bd82f9ff6e5103ef5173cc63fef8", "fusion_lon": 0.0, "lon": -77.00835166666667, "lat": 38.949219, "is_reserved": 0, "is_disabled": 0, "rental_uris": {"android": "https://dc.lft.to/lastmile_qr_scan", "ios": "https://dc.lft.to/lastmile_qr_scan"}, "name": "7319bd82f9ff6e5103ef5173cc63fef8", "type": "electric_scooter"}, {"fusion_lat": 0.0, "bike_id": "9668aadc5386ab2944e1f515ca81f2f8", "fusion_lon": 0.0, "lon": -77.01538116666667, "lat": 38.88737483333333, "is_reserved": 0, "is_disabled": 0, "rental_uris": {"android": "https://dc.lft.to/lastmile_qr_scan", "ios": "https://dc.lft.to/lastmile_qr_scan"}, "name": "9668aadc5386ab2944e1f515ca81f2f8", "type": "electric_scooter"}, {"fusion_lat": 0.0, "bike_id": "799de6e8b94fbe6c0b9d70601462a936", "fusion_lon": 0.0, "lon": -77.048767, "lat": 38.892320833333336, "is_reserved": 0, "is_disabled": 0, "rental_uris": {"android": "https://dc.lft.to/lastmile_qr_scan", "ios": "https://dc.lft.to/lastmile_qr_scan"}, "name": "799de6e8b94fbe6c0b9d70601462a936", "type": "electric_scooter"}, {"fusion_lat": 0.0, "bike_id": "ec43c6c3f93dc2bae1836913d9cc3b70", "fusion_lon": 0.0, "lon": -76.948908, "lat": 38.895054, "is_reserved": 0, "is_disabled": 0, "rental_uris": {"android": "https://dc.lft.to/lastmile_qr_scan", "ios": "https://dc.lft.to/lastmile_qr_scan"}, "name": "ec43c6c3f93dc2bae1836913d9cc3b70", "type": "electric_scooter"}, {"fusion_lat": 0.0, "bike_id": "fd0184cc059a84e872654311e7ca4ad4", "fusion_lon": 0.0, "lon": -77.03136133333334, "lat": 38.915496833333336, "is_reserved": 0, "is_disabled": 0, "rental_uris": {"android": "https://dc.lft.to/lastmile_qr_scan", "ios": "https://dc.lft.to/lastmile_qr_scan"}, "name": "fd0184cc059a84e872654311e7ca4ad4", "type": "electric_scooter"}, {"fusion_lat": 0.0, "bike_id": "4419a21b885c8e62aaee1516e8ccc7dd", "fusion_lon": 0.0, "lon": -77.11170466666667, "lat": 38.85508733333333, "is_reserved": 0, "is_disabled": 0, "rental_uris": {"android": "https://dc.lft.to/lastmile_qr_scan", "ios": "https://dc.lft.to/lastmile_qr_scan"}, "name": "4419a21b885c8e62aaee1516e8ccc7dd", "type": "electric_bike"}, {"fusion_lat": 0.0, "bike_id": "efccf224dda442e520c1e8fa3535074a", "fusion_lon": 0.0, "lon": -77.03476233333333, "lat": 38.91706966666667, "is_reserved": 0, "is_disabled": 0, "rental_uris": {"android": "https://dc.lft.to/lastmile_qr_scan", "ios": "https://dc.lft.to/lastmile_qr_scan"}, "name": "efccf224dda442e520c1e8fa3535074a", "type": "electric_scooter"}, {"fusion_lat": 0.0, "bike_id": "2b0b12a1b7065069afc18c8e7805153d", "fusion_lon": 0.0, "lon": -77.00126766666666, "lat": 38.91240366666667, "is_reserved": 0, "is_disabled": 0, "rental_uris": {"android": "https://dc.lft.to/lastmile_qr_scan", "ios": "https://dc.lft.to/lastmile_qr_scan"}, "name": "2b0b12a1b7065069afc18c8e7805153d", "type": "electric_scooter"}, {"fusion_lat": 0.0, "bike_id": "40a8ebfce214f7e03cc5b868a1248156", "fusion_lon": 0.0, "lon": -77.04240183333333, "lat": 38.92180883333333, "is_reserved": 0, "is_disabled": 0, "rental_uris": {"android": "https://dc.lft.to/lastmile_qr_scan", "ios": "https://dc.lft.to/lastmile_qr_scan"}, "name": "40a8ebfce214f7e03cc5b868a1248156", "type": "electric_scooter"}, {"fusion_lat": 0.0, "bike_id": "548ccdc233e102b76359437ef5e63133", "fusion_lon": 0.0, "lon": -77.03185766666667, "lat": 38.91644133333333, "is_reserved": 0, "is_disabled": 0, "rental_uris": {"android": "https://dc.lft.to/lastmile_qr_scan", "ios": "https://dc.lft.to/lastmile_qr_scan"}, "name": "548ccdc233e102b76359437ef5e63133", "type": "electric_scooter"}, {"fusion_lat": 0.0, "bike_id": "e944c9e161cba92011d17017313ee14e", "fusion_lon": 0.0, "lon": -77.05897433333334, "lat": 38.93604, "is_reserved": 0, "is_disabled": 0, "rental_uris": {"android": "https://dc.lft.to/lastmile_qr_scan", "ios": "https://dc.lft.to/lastmile_qr_scan"}, "name": "e944c9e161cba92011d17017313ee14e", "type": "electric_scooter"}, {"fusion_lat": 0.0, "bike_id": "fb7665877d1773460f7ac8199b956710", "fusion_lon": 0.0, "lon": -77.043613, "lat": 39.01535883333333, "is_reserved": 0, "is_disabled": 0, "rental_uris": {"android": "https://dc.lft.to/lastmile_qr_scan", "ios": "https://dc.lft.to/lastmile_qr_scan"}, "name": "fb7665877d1773460f7ac8199b956710", "type": "electric_bike"}, {"fusion_lat": 0.0, "bike_id": "d3ab1a91643d56d1fbc89850e1b54fe2", "fusion_lon": 0.0, "lon": -77.061656, "lat": 38.9129765, "is_reserved": 0, "is_disabled": 0, "rental_uris": {"android": "https://dc.lft.to/lastmile_qr_scan", "ios": "https://dc.lft.to/lastmile_qr_scan"}, "name": "d3ab1a91643d56d1fbc89850e1b54fe2", "type": "electric_scooter"}, {"fusion_lat": 0.0, "bike_id": "b3e38a740df3d0e3c6216742dafefc5a", "fusion_lon": 0.0, "lon": -77.0384635, "lat": 38.91216383333333, "is_reserved": 0, "is_disabled": 0, "rental_uris": {"android": "https://dc.lft.to/lastmile_qr_scan", "ios": "https://dc.lft.to/lastmile_qr_scan"}, "name": "b3e38a740df3d0e3c6216742dafefc5a", "type": "electric_scooter"}, {"fusion_lat": 0.0, "bike_id": "c8db7cc1147a0e05dac64bb0cfd81355", "fusion_lon": 0.0, "lon": -77.0702825, "lat": 38.9186545, "is_reserved": 0, "is_disabled": 0, "rental_uris": {"android": "https://dc.lft.to/lastmile_qr_scan", "ios": "https://dc.lft.to/lastmile_qr_scan"}, "name": "c8db7cc1147a0e05dac64bb0cfd81355", "type": "electric_scooter"}, {"fusion_lat": 0.0, "bike_id": "fb23a3a53f5d1a99777d8d10006f9c77", "fusion_lon": 0.0, "lon": -77.01690283333333, "lat": 38.877168833333336, "is_reserved": 0, "is_disabled": 0, "rental_uris": {"android": "https://dc.lft.to/lastmile_qr_scan", "ios": "https://dc.lft.to/lastmile_qr_scan"}, "name": "fb23a3a53f5d1a99777d8d10006f9c77", "type": "electric_scooter"}, {"fusion_lat": 0.0, "bike_id": "9b0ea4ad2629a0cbf9c58448a8ce2351", "fusion_lon": 0.0, "lon": -77.01823033333334, "lat": 38.92249483333333, "is_reserved": 0, "is_disabled": 0, "rental_uris": {"android": "https://dc.lft.to/lastmile_qr_scan", "ios": "https://dc.lft.to/lastmile_qr_scan"}, "name": "9b0ea4ad2629a0cbf9c58448a8ce2351", "type": "electric_scooter"}, {"fusion_lat": 0.0, "bike_id": "605456bda490c6b474b3e03092f917db", "fusion_lon": 0.0, "lon": -77.028607, "lat": 38.895435666666664, "is_reserved": 0, "is_disabled": 0, "rental_uris": {"android": "https://dc.lft.to/lastmile_qr_scan", "ios": "https://dc.lft.to/lastmile_qr_scan"}, "name": "605456bda490c6b474b3e03092f917db", "type": "electric_scooter"}, {"fusion_lat": 0.0, "bike_id": "736df983bf650afeafb021db25e7c435", "fusion_lon": 0.0, "lon": -77.0327275, "lat": 38.941531833333336, "is_reserved": 0, "is_disabled": 0, "rental_uris": {"android": "https://dc.lft.to/lastmile_qr_scan", "ios": "https://dc.lft.to/lastmile_qr_scan"}, "name": "736df983bf650afeafb021db25e7c435", "type": "electric_scooter"}, {"fusion_lat": 0.0, "bike_id": "675cdb8aa6e1becd6f624f5ebdb11409", "fusion_lon": 0.0, "lon": -77.04165433333333, "lat": 38.91987916666667, "is_reserved": 0, "is_disabled": 0, "rental_uris": {"android": "https://dc.lft.to/lastmile_qr_scan", "ios": "https://dc.lft.to/lastmile_qr_scan"}, "name": "675cdb8aa6e1becd6f624f5ebdb11409", "type": "electric_scooter"}, {"fusion_lat": 0.0, "bike_id": "3f229b9d3305fc7894801cf66b4d2ee5", "fusion_lon": 0.0, "lon": -77.04270016666666, "lat": 38.92234583333333, "is_reserved": 0, "is_disabled": 0, "rental_uris": {"android": "https://dc.lft.to/lastmile_qr_scan", "ios": "https://dc.lft.to/lastmile_qr_scan"}, "name": "3f229b9d3305fc7894801cf66b4d2ee5", "type": "electric_scooter"}, {"fusion_lat": 0.0, "bike_id": "97432257f7a30b91e94d8eb7ba632edf", "fusion_lon": 0.0, "lon": -76.9753335, "lat": 38.903281166666666, "is_reserved": 0, "is_disabled": 0, "rental_uris": {"android": "https://dc.lft.to/lastmile_qr_scan", "ios": "https://dc.lft.to/lastmile_qr_scan"}, "name": "97432257f7a30b91e94d8eb7ba632edf", "type": "electric_bike"}, {"fusion_lat": 0.0, "bike_id": "713deff58bbd3b2310a75cd874885cf7", "fusion_lon": 0.0, "lon": -77.11782766666667, "lat": 39.0548775, "is_reserved": 0, "is_disabled": 0, "rental_uris": {"android": "https://dc.lft.to/lastmile_qr_scan", "ios": "https://dc.lft.to/lastmile_qr_scan"}, "name": "713deff58bbd3b2310a75cd874885cf7", "type": "electric_bike"}, {"fusion_lat": 0.0, "bike_id": "a0536152627b7da38165ce19564e2264", "fusion_lon": 0.0, "lon": -77.03173983333333, "lat": 38.891948, "is_reserved": 0, "is_disabled": 0, "rental_uris": {"android": "https://dc.lft.to/lastmile_qr_scan", "ios": "https://dc.lft.to/lastmile_qr_scan"}, "name": "a0536152627b7da38165ce19564e2264", "type": "electric_scooter"}, {"fusion_lat": 0.0, "bike_id": "dd323a74bc3c3e4d92414950161bdbed", "fusion_lon": 0.0, "lon": -77.047032, "lat": 38.921354, "is_reserved": 0, "is_disabled": 0, "rental_uris": {"android": "https://dc.lft.to/lastmile_qr_scan", "ios": "https://dc.lft.to/lastmile_qr_scan"}, "name": "dd323a74bc3c3e4d92414950161bdbed", "type": "electric_scooter"}, {"fusion_lat": 0.0, "bike_id": "ca949c1120ca3a7f72175a4143064181", "fusion_lon": 0.0, "lon": -77.05149583333333, "lat": 38.9237015, "is_reserved": 0, "is_disabled": 0, "rental_uris": {"android": "https://dc.lft.to/lastmile_qr_scan", "ios": "https://dc.lft.to/lastmile_qr_scan"}, "name": "ca949c1120ca3a7f72175a4143064181", "type": "electric_scooter"}, {"fusion_lat": 0.0, "bike_id": "fadb9eef083d7e519df4ac61576819ec", "fusion_lon": 0.0, "lon": -77.022695, "lat": 38.924761833333335, "is_reserved": 0, "is_disabled": 0, "rental_uris": {"android": "https://dc.lft.to/lastmile_qr_scan", "ios": "https://dc.lft.to/lastmile_qr_scan"}, "name": "fadb9eef083d7e519df4ac61576819ec", "type": "electric_scooter"}, {"fusion_lat": 0.0, "bike_id": "bae0afc2a5ec2f3de5418409371d77ce", "fusion_lon": 0.0, "lon": -77.04110133333333, "lat": 38.89838566666667, "is_reserved": 0, "is_disabled": 0, "rental_uris": {"android": "https://dc.lft.to/lastmile_qr_scan", "ios": "https://dc.lft.to/lastmile_qr_scan"}, "name": "bae0afc2a5ec2f3de5418409371d77ce", "type": "electric_scooter"}, {"fusion_lat": 0.0, "bike_id": "5da3dfb8df7d967c58582dc3701986c4", "fusion_lon": 0.0, "lon": -77.03215483333334, "lat": 38.8922205, "is_reserved": 0, "is_disabled": 0, "rental_uris": {"android": "https://dc.lft.to/lastmile_qr_scan", "ios": "https://dc.lft.to/lastmile_qr_scan"}, "name": "5da3dfb8df7d967c58582dc3701986c4", "type": "electric_scooter"}, {"fusion_lat": 0.0, "bike_id": "143532b689b2868391483c9382a314cf", "fusion_lon": 0.0, "lon": -77.0427645, "lat": 38.90002366666667, "is_reserved": 0, "is_disabled": 0, "rental_uris": {"android": "https://dc.lft.to/lastmile_qr_scan", "ios": "https://dc.lft.to/lastmile_qr_scan"}, "name": "143532b689b2868391483c9382a314cf", "type": "electric_scooter"}, {"fusion_lat": 0.0, "bike_id": "57ca0735d78f1b7749705759bb5b678f", "fusion_lon": 0.0, "lon": -77.00035166666666, "lat": 38.8974115, "is_reserved": 0, "is_disabled": 0, "rental_uris": {"android": "https://dc.lft.to/lastmile_qr_scan", "ios": "https://dc.lft.to/lastmile_qr_scan"}, "name": "57ca0735d78f1b7749705759bb5b678f", "type": "electric_scooter"}, {"fusion_lat": 0.0, "bike_id": "ed135d9b77a0668b864ad5eb79c2d104", "fusion_lon": 0.0, "lon": -77.0338705, "lat": 38.90265333333333, "is_reserved": 0, "is_disabled": 0, "rental_uris": {"android": "https://dc.lft.to/lastmile_qr_scan", "ios": "https://dc.lft.to/lastmile_qr_scan"}, "name": "ed135d9b77a0668b864ad5eb79c2d104", "type": "electric_scooter"}, {"fusion_lat": 0.0, "bike_id": "f38dab77532aa970538d9f7eb9e240b0", "fusion_lon": 0.0, "lon": -77.028335, "lat": 38.9026145, "is_reserved": 0, "is_disabled": 0, "rental_uris": {"android": "https://dc.lft.to/lastmile_qr_scan", "ios": "https://dc.lft.to/lastmile_qr_scan"}, "name": "f38dab77532aa970538d9f7eb9e240b0", "type": "electric_scooter"}, {"fusion_lat": 0.0, "bike_id": "0495cc43145b1db6d1ffbbe7749ad87a", "fusion_lon": 0.0, "lon": -77.03442583333333, "lat": 38.90988516666667, "is_reserved": 0, "is_disabled": 0, "rental_uris": {"android": "https://dc.lft.to/lastmile_qr_scan", "ios": "https://dc.lft.to/lastmile_qr_scan"}, "name": "0495cc43145b1db6d1ffbbe7749ad87a", "type": "electric_scooter"}, {"fusion_lat": 0.0, "bike_id": "4ca5534a581bbf947eb52e5f5920b517", "fusion_lon": 0.0, "lon": -77.02635716666667, "lat": 38.91690666666667, "is_reserved": 0, "is_disabled": 0, "rental_uris": {"android": "https://dc.lft.to/lastmile_qr_scan", "ios": "https://dc.lft.to/lastmile_qr_scan"}, "name": "4ca5534a581bbf947eb52e5f5920b517", "type": "electric_scooter"}, {"fusion_lat": 0.0, "bike_id": "bd741906a9994ddc991bf4a3c025fb8c", "fusion_lon": 0.0, "lon": -77.00504983333333, "lat": 38.912600833333336, "is_reserved": 0, "is_disabled": 0, "rental_uris": {"android": "https://dc.lft.to/lastmile_qr_scan", "ios": "https://dc.lft.to/lastmile_qr_scan"}, "name": "bd741906a9994ddc991bf4a3c025fb8c", "type": "electric_scooter"}, {"fusion_lat": 0.0, "bike_id": "a7df292ef666f861052134bf5dc33805", "fusion_lon": 0.0, "lon": -77.04244, "lat": 38.91256166666667, "is_reserved": 0, "is_disabled": 0, "rental_uris": {"android": "https://dc.lft.to/lastmile_qr_scan", "ios": "https://dc.lft.to/lastmile_qr_scan"}, "name": "a7df292ef666f861052134bf5dc33805", "type": "electric_scooter"}, {"fusion_lat": 0.0, "bike_id": "6cd700063006d80d1f652544ea1652dd", "fusion_lon": 0.0, "lon": -77.034071, "lat": 38.92316833333334, "is_reserved": 0, "is_disabled": 0, "rental_uris": {"android": "https://dc.lft.to/lastmile_qr_scan", "ios": "https://dc.lft.to/lastmile_qr_scan"}, "name": "6cd700063006d80d1f652544ea1652dd", "type": "electric_scooter"}, {"fusion_lat": 0.0, "bike_id": "540925dc64ac374bb8be149e68a0a1cc", "fusion_lon": 0.0, "lon": -77.03829183333333, "lat": 38.90670983333333, "is_reserved": 0, "is_disabled": 0, "rental_uris": {"android": "https://dc.lft.to/lastmile_qr_scan", "ios": "https://dc.lft.to/lastmile_qr_scan"}, "name": "540925dc64ac374bb8be149e68a0a1cc", "type": "electric_scooter"}, {"fusion_lat": 0.0, "bike_id": "1ffe8fbe193b562f7f4387902f411d4f", "fusion_lon": 0.0, "lon": -77.022182, "lat": 38.89217283333333, "is_reserved": 0, "is_disabled": 0, "rental_uris": {"android": "https://dc.lft.to/lastmile_qr_scan", "ios": "https://dc.lft.to/lastmile_qr_scan"}, "name": "1ffe8fbe193b562f7f4387902f411d4f", "type": "electric_scooter"}, {"fusion_lat": 0.0, "bike_id": "42e6af950ceedc9df532767db40b7911", "fusion_lon": 0.0, "lon": -77.021584, "lat": 38.92490883333333, "is_reserved": 0, "is_disabled": 0, "rental_uris": {"android": "https://dc.lft.to/lastmile_qr_scan", "ios": "https://dc.lft.to/lastmile_qr_scan"}, "name": "42e6af950ceedc9df532767db40b7911", "type": "electric_scooter"}, {"fusion_lat": 0.0, "bike_id": "fb6616deac120fd6e5ded4839de58cb4", "fusion_lon": 0.0, "lon": -77.03065416666666, "lat": 38.880453833333334, "is_reserved": 0, "is_disabled": 0, "rental_uris": {"android": "https://dc.lft.to/lastmile_qr_scan", "ios": "https://dc.lft.to/lastmile_qr_scan"}, "name": "fb6616deac120fd6e5ded4839de58cb4", "type": "electric_scooter"}, {"fusion_lat": 0.0, "bike_id": "7a7e2d19c63b0ebbb9039dfede165bcf", "fusion_lon": 0.0, "lon": -77.02387, "lat": 38.91682566666667, "is_reserved": 0, "is_disabled": 0, "rental_uris": {"android": "https://dc.lft.to/lastmile_qr_scan", "ios": "https://dc.lft.to/lastmile_qr_scan"}, "name": "7a7e2d19c63b0ebbb9039dfede165bcf", "type": "electric_scooter"}, {"fusion_lat": 0.0, "bike_id": "28b2e8eb607d2e112e83973287e06dcb", "fusion_lon": 0.0, "lon": -77.020535, "lat": 38.909650166666665, "is_reserved": 0, "is_disabled": 0, "rental_uris": {"android": "https://dc.lft.to/lastmile_qr_scan", "ios": "https://dc.lft.to/lastmile_qr_scan"}, "name": "28b2e8eb607d2e112e83973287e06dcb", "type": "electric_scooter"}, {"fusion_lat": 0.0, "bike_id": "b32b13efe8da283e0c1e53462c15c13b", "fusion_lon": 0.0, "lon": -77.03178666666666, "lat": 38.92109766666667, "is_reserved": 0, "is_disabled": 0, "rental_uris": {"android": "https://dc.lft.to/lastmile_qr_scan", "ios": "https://dc.lft.to/lastmile_qr_scan"}, "name": "b32b13efe8da283e0c1e53462c15c13b", "type": "electric_scooter"}, {"fusion_lat": 0.0, "bike_id": "90fbfff3e44a8334ecbbf322cc0cb6ea", "fusion_lon": 0.0, "lon": -77.02234633333333, "lat": 38.8921665, "is_reserved": 0, "is_disabled": 0, "rental_uris": {"android": "https://dc.lft.to/lastmile_qr_scan", "ios": "https://dc.lft.to/lastmile_qr_scan"}, "name": "90fbfff3e44a8334ecbbf322cc0cb6ea", "type": "electric_scooter"}, {"fusion_lat": 0.0, "bike_id": "a316a1fa340e1248845166e48b862719", "fusion_lon": 0.0, "lon": -77.03429633333333, "lat": 38.96617416666667, "is_reserved": 0, "is_disabled": 0, "rental_uris": {"android": "https://dc.lft.to/lastmile_qr_scan", "ios": "https://dc.lft.to/lastmile_qr_scan"}, "name": "a316a1fa340e1248845166e48b862719", "type": "electric_bike"}, {"fusion_lat": 0.0, "bike_id": "aec35ebd05befb6ede2d51e33eb45493", "fusion_lon": 0.0, "lon": -77.008814, "lat": 38.899078, "is_reserved": 0, "is_disabled": 0, "rental_uris": {"android": "https://dc.lft.to/lastmile_qr_scan", "ios": "https://dc.lft.to/lastmile_qr_scan"}, "name": "aec35ebd05befb6ede2d51e33eb45493", "type": "electric_scooter"}, {"fusion_lat": 0.0, "bike_id": "cc562f0b54f669d7f6407ef6b62400d7", "fusion_lon": 0.0, "lon": -77.03117366666666, "lat": 38.887463833333335, "is_reserved": 0, "is_disabled": 0, "rental_uris": {"android": "https://dc.lft.to/lastmile_qr_scan", "ios": "https://dc.lft.to/lastmile_qr_scan"}, "name": "cc562f0b54f669d7f6407ef6b62400d7", "type": "electric_scooter"}, {"fusion_lat": 0.0, "bike_id": "faeede3f65e2407354951ab6b4328e38", "fusion_lon": 0.0, "lon": -77.04662066666667, "lat": 38.897812, "is_reserved": 0, "is_disabled": 0, "rental_uris": {"android": "https://dc.lft.to/lastmile_qr_scan", "ios": "https://dc.lft.to/lastmile_qr_scan"}, "name": "faeede3f65e2407354951ab6b4328e38", "type": "electric_scooter"}, {"fusion_lat": 0.0, "bike_id": "1c384c87761ec89066bf9bf47e38bd41", "fusion_lon": 0.0, "lon": -77.03707, "lat": 38.91274133333334, "is_reserved": 0, "is_disabled": 0, "rental_uris": {"android": "https://dc.lft.to/lastmile_qr_scan", "ios": "https://dc.lft.to/lastmile_qr_scan"}, "name": "1c384c87761ec89066bf9bf47e38bd41", "type": "electric_scooter"}, {"fusion_lat": 0.0, "bike_id": "dd40a531d07b8600517aed8a1f0aa0b5", "fusion_lon": 0.0, "lon": -77.0045505, "lat": 38.8765695, "is_reserved": 0, "is_disabled": 0, "rental_uris": {"android": "https://dc.lft.to/lastmile_qr_scan", "ios": "https://dc.lft.to/lastmile_qr_scan"}, "name": "dd40a531d07b8600517aed8a1f0aa0b5", "type": "electric_scooter"}, {"fusion_lat": 0.0, "bike_id": "e34e35e9f200463084c3bd6340dac20c", "fusion_lon": 0.0, "lon": -77.01234266666667, "lat": 38.892897833333336, "is_reserved": 0, "is_disabled": 0, "rental_uris": {"android": "https://dc.lft.to/lastmile_qr_scan", "ios": "https://dc.lft.to/lastmile_qr_scan"}, "name": "e34e35e9f200463084c3bd6340dac20c", "type": "electric_scooter"}, {"fusion_lat": 0.0, "bike_id": "14ce87c0f833da4ca6ac471de797e7e9", "fusion_lon": 0.0, "lon": -77.02746216666667, "lat": 38.895011333333336, "is_reserved": 0, "is_disabled": 0, "rental_uris": {"android": "https://dc.lft.to/lastmile_qr_scan", "ios": "https://dc.lft.to/lastmile_qr_scan"}, "name": "14ce87c0f833da4ca6ac471de797e7e9", "type": "electric_scooter"}, {"fusion_lat": 0.0, "bike_id": "5976ddfdf3b623a3357e171ddd3a0b16", "fusion_lon": 0.0, "lon": -77.04173366666667, "lat": 38.9031865, "is_reserved": 0, "is_disabled": 0, "rental_uris": {"android": "https://dc.lft.to/lastmile_qr_scan", "ios": "https://dc.lft.to/lastmile_qr_scan"}, "name": "5976ddfdf3b623a3357e171ddd3a0b16", "type": "electric_scooter"}, {"fusion_lat": 0.0, "bike_id": "3772a1ef792d5c9860c01ef9371cde5a", "fusion_lon": 0.0, "lon": -76.9489075, "lat": 38.895062333333335, "is_reserved": 0, "is_disabled": 0, "rental_uris": {"android": "https://dc.lft.to/lastmile_qr_scan", "ios": "https://dc.lft.to/lastmile_qr_scan"}, "name": "3772a1ef792d5c9860c01ef9371cde5a", "type": "electric_scooter"}, {"fusion_lat": 0.0, "bike_id": "aaf2c7b501b417a554f755f862061bee", "fusion_lon": 0.0, "lon": -77.03447216666666, "lat": 38.909488333333336, "is_reserved": 0, "is_disabled": 0, "rental_uris": {"android": "https://dc.lft.to/lastmile_qr_scan", "ios": "https://dc.lft.to/lastmile_qr_scan"}, "name": "aaf2c7b501b417a554f755f862061bee", "type": "electric_scooter"}, {"fusion_lat": 0.0, "bike_id": "a2c2c75527dfb5d6f6f785af8e12e348", "fusion_lon": 0.0, "lon": -77.01857433333333, "lat": 38.9149345, "is_reserved": 0, "is_disabled": 0, "rental_uris": {"android": "https://dc.lft.to/lastmile_qr_scan", "ios": "https://dc.lft.to/lastmile_qr_scan"}, "name": "a2c2c75527dfb5d6f6f785af8e12e348", "type": "electric_scooter"}, {"fusion_lat": 0.0, "bike_id": "28b38ea44efd10638343cb3e755aa495", "fusion_lon": 0.0, "lon": -77.03323616666667, "lat": 38.94712466666667, "is_reserved": 0, "is_disabled": 0, "rental_uris": {"android": "https://dc.lft.to/lastmile_qr_scan", "ios": "https://dc.lft.to/lastmile_qr_scan"}, "name": "28b38ea44efd10638343cb3e755aa495", "type": "electric_scooter"}, {"fusion_lat": 0.0, "bike_id": "3c5529359049dc2b04f41351fdafa189", "fusion_lon": 0.0, "lon": -76.995827, "lat": 38.851762666666666, "is_reserved": 0, "is_disabled": 0, "rental_uris": {"android": "https://dc.lft.to/lastmile_qr_scan", "ios": "https://dc.lft.to/lastmile_qr_scan"}, "name": "3c5529359049dc2b04f41351fdafa189", "type": "electric_scooter"}, {"fusion_lat": 0.0, "bike_id": "cbd2f98f323031b7c3188fa561b955ef", "fusion_lon": 0.0, "lon": -76.99868883333333, "lat": 38.900275, "is_reserved": 0, "is_disabled": 0, "rental_uris": {"android": "https://dc.lft.to/lastmile_qr_scan", "ios": "https://dc.lft.to/lastmile_qr_scan"}, "name": "cbd2f98f323031b7c3188fa561b955ef", "type": "electric_scooter"}, {"fusion_lat": 0.0, "bike_id": "878380699ea22ca506bed9497ae8ab58", "fusion_lon": 0.0, "lon": -77.0630735, "lat": 38.905893666666664, "is_reserved": 0, "is_disabled": 0, "rental_uris": {"android": "https://dc.lft.to/lastmile_qr_scan", "ios": "https://dc.lft.to/lastmile_qr_scan"}, "name": "878380699ea22ca506bed9497ae8ab58", "type": "electric_scooter"}, {"fusion_lat": 0.0, "bike_id": "97f826fdf7c921a2383d0048d99e81a0", "fusion_lon": 0.0, "lon": -77.0480175, "lat": 38.90495766666667, "is_reserved": 0, "is_disabled": 0, "rental_uris": {"android": "https://dc.lft.to/lastmile_qr_scan", "ios": "https://dc.lft.to/lastmile_qr_scan"}, "name": "97f826fdf7c921a2383d0048d99e81a0", "type": "electric_scooter"}, {"fusion_lat": 0.0, "bike_id": "dca62968cb04898adb7dad80b20862a3", "fusion_lon": 0.0, "lon": -77.03659133333333, "lat": 38.93650016666667, "is_reserved": 0, "is_disabled": 0, "rental_uris": {"android": "https://dc.lft.to/lastmile_qr_scan", "ios": "https://dc.lft.to/lastmile_qr_scan"}, "name": "dca62968cb04898adb7dad80b20862a3", "type": "electric_scooter"}, {"fusion_lat": 0.0, "bike_id": "d3c872699a0fa3b26f8ecd20db4616c0", "fusion_lon": 0.0, "lon": -77.0064715, "lat": 38.900976, "is_reserved": 0, "is_disabled": 0, "rental_uris": {"android": "https://dc.lft.to/lastmile_qr_scan", "ios": "https://dc.lft.to/lastmile_qr_scan"}, "name": "d3c872699a0fa3b26f8ecd20db4616c0", "type": "electric_scooter"}, {"fusion_lat": 0.0, "bike_id": "d5362702bfb8a5c35d5ff99d676a4ddb", "fusion_lon": 0.0, "lon": -76.99387083333333, "lat": 38.922399, "is_reserved": 0, "is_disabled": 0, "rental_uris": {"android": "https://dc.lft.to/lastmile_qr_scan", "ios": "https://dc.lft.to/lastmile_qr_scan"}, "name": "d5362702bfb8a5c35d5ff99d676a4ddb", "type": "electric_scooter"}, {"fusion_lat": 0.0, "bike_id": "ecd9284419d49ee02a7d9bc4d9aa7a79", "fusion_lon": 0.0, "lon": -77.04283366666667, "lat": 38.91113383333333, "is_reserved": 0, "is_disabled": 0, "rental_uris": {"android": "https://dc.lft.to/lastmile_qr_scan", "ios": "https://dc.lft.to/lastmile_qr_scan"}, "name": "ecd9284419d49ee02a7d9bc4d9aa7a79", "type": "electric_scooter"}, {"fusion_lat": 0.0, "bike_id": "27d7c1b789378e4a0d600d2f1a8e44fa", "fusion_lon": 0.0, "lon": -76.9952225, "lat": 38.8916985, "is_reserved": 0, "is_disabled": 0, "rental_uris": {"android": "https://dc.lft.to/lastmile_qr_scan", "ios": "https://dc.lft.to/lastmile_qr_scan"}, "name": "27d7c1b789378e4a0d600d2f1a8e44fa", "type": "electric_scooter"}, {"fusion_lat": 0.0, "bike_id": "b8973522fcf390568407505efa040e2e", "fusion_lon": 0.0, "lon": -76.994041, "lat": 38.90007933333333, "is_reserved": 0, "is_disabled": 0, "rental_uris": {"android": "https://dc.lft.to/lastmile_qr_scan", "ios": "https://dc.lft.to/lastmile_qr_scan"}, "name": "b8973522fcf390568407505efa040e2e", "type": "electric_bike"}, {"fusion_lat": 0.0, "bike_id": "d70efa321226091c2e7dac7340b5fde3", "fusion_lon": 0.0, "lon": -77.03100166666667, "lat": 38.92481333333333, "is_reserved": 0, "is_disabled": 0, "rental_uris": {"android": "https://dc.lft.to/lastmile_qr_scan", "ios": "https://dc.lft.to/lastmile_qr_scan"}, "name": "d70efa321226091c2e7dac7340b5fde3", "type": "electric_scooter"}, {"fusion_lat": 0.0, "bike_id": "cb1753648bd5a28073ece68e75b40174", "fusion_lon": 0.0, "lon": -77.03180066666667, "lat": 38.91686283333333, "is_reserved": 0, "is_disabled": 0, "rental_uris": {"android": "https://dc.lft.to/lastmile_qr_scan", "ios": "https://dc.lft.to/lastmile_qr_scan"}, "name": "cb1753648bd5a28073ece68e75b40174", "type": "electric_scooter"}, {"fusion_lat": 0.0, "bike_id": "9b482e19f73bfd0372a623a9e659c922", "fusion_lon": 0.0, "lon": -77.02462766666666, "lat": 38.938497, "is_reserved": 0, "is_disabled": 0, "rental_uris": {"android": "https://dc.lft.to/lastmile_qr_scan", "ios": "https://dc.lft.to/lastmile_qr_scan"}, "name": "9b482e19f73bfd0372a623a9e659c922", "type": "electric_scooter"}, {"fusion_lat": 0.0, "bike_id": "4a0f1d2a915ea04dad8c14b34a8f7c79", "fusion_lon": 0.0, "lon": -77.03256366666666, "lat": 38.948478333333334, "is_reserved": 0, "is_disabled": 0, "rental_uris": {"android": "https://dc.lft.to/lastmile_qr_scan", "ios": "https://dc.lft.to/lastmile_qr_scan"}, "name": "4a0f1d2a915ea04dad8c14b34a8f7c79", "type": "electric_scooter"}, {"fusion_lat": 0.0, "bike_id": "da0607c347428fe0dd19265afa33c0fa", "fusion_lon": 0.0, "lon": -77.039944, "lat": 38.93273833333333, "is_reserved": 0, "is_disabled": 0, "rental_uris": {"android": "https://dc.lft.to/lastmile_qr_scan", "ios": "https://dc.lft.to/lastmile_qr_scan"}, "name": "da0607c347428fe0dd19265afa33c0fa", "type": "electric_scooter"}, {"fusion_lat": 0.0, "bike_id": "9f6cea11952526cc1afbb921b8e924d7", "fusion_lon": 0.0, "lon": -77.0426765, "lat": 38.9043095, "is_reserved": 0, "is_disabled": 0, "rental_uris": {"android": "https://dc.lft.to/lastmile_qr_scan", "ios": "https://dc.lft.to/lastmile_qr_scan"}, "name": "9f6cea11952526cc1afbb921b8e924d7", "type": "electric_scooter"}, {"fusion_lat": 0.0, "bike_id": "ae7953cfdf479ab9fec748dc2d8a3947", "fusion_lon": 0.0, "lon": -77.0252945, "lat": 38.940993, "is_reserved": 0, "is_disabled": 0, "rental_uris": {"android": "https://dc.lft.to/lastmile_qr_scan", "ios": "https://dc.lft.to/lastmile_qr_scan"}, "name": "ae7953cfdf479ab9fec748dc2d8a3947", "type": "electric_scooter"}, {"fusion_lat": 0.0, "bike_id": "01c96150d1fda8b733bec3bd50e4b617", "fusion_lon": 0.0, "lon": -77.1662755, "lat": 38.888328, "is_reserved": 0, "is_disabled": 0, "rental_uris": {"android": "https://dc.lft.to/lastmile_qr_scan", "ios": "https://dc.lft.to/lastmile_qr_scan"}, "name": "01c96150d1fda8b733bec3bd50e4b617", "type": "electric_bike"}, {"fusion_lat": 0.0, "bike_id": "ad9a80780f71dd9bd79f222a3dac86af", "fusion_lon": 0.0, "lon": -76.99501666666667, "lat": 38.86241833333333, "is_reserved": 0, "is_disabled": 0, "rental_uris": {"android": "https://dc.lft.to/lastmile_qr_scan", "ios": "https://dc.lft.to/lastmile_qr_scan"}, "name": "ad9a80780f71dd9bd79f222a3dac86af", "type": "electric_scooter"}, {"fusion_lat": 0.0, "bike_id": "7f7347e9ac738df7ab7d62ded0114f64", "fusion_lon": 0.0, "lon": -77.00532016666666, "lat": 38.92978766666667, "is_reserved": 0, "is_disabled": 0, "rental_uris": {"android": "https://dc.lft.to/lastmile_qr_scan", "ios": "https://dc.lft.to/lastmile_qr_scan"}, "name": "7f7347e9ac738df7ab7d62ded0114f64", "type": "electric_scooter"}, {"fusion_lat": 0.0, "bike_id": "7095787b3f0e0dd0ab6b92400302476a", "fusion_lon": 0.0, "lon": -77.020368, "lat": 38.9086995, "is_reserved": 0, "is_disabled": 0, "rental_uris": {"android": "https://dc.lft.to/lastmile_qr_scan", "ios": "https://dc.lft.to/lastmile_qr_scan"}, "name": "7095787b3f0e0dd0ab6b92400302476a", "type": "electric_scooter"}, {"fusion_lat": 0.0, "bike_id": "1d0c40f76ff784a63b6e947d68e673fa", "fusion_lon": 0.0, "lon": -77.054126, "lat": 38.95041033333333, "is_reserved": 0, "is_disabled": 0, "rental_uris": {"android": "https://dc.lft.to/lastmile_qr_scan", "ios": "https://dc.lft.to/lastmile_qr_scan"}, "name": "1d0c40f76ff784a63b6e947d68e673fa", "type": "electric_scooter"}, {"fusion_lat": 0.0, "bike_id": "1f4a825f5e53dc61441ff6e60016010d", "fusion_lon": 0.0, "lon": -77.02660616666667, "lat": 38.916923, "is_reserved": 0, "is_disabled": 0, "rental_uris": {"android": "https://dc.lft.to/lastmile_qr_scan", "ios": "https://dc.lft.to/lastmile_qr_scan"}, "name": "1f4a825f5e53dc61441ff6e60016010d", "type": "electric_scooter"}, {"fusion_lat": 0.0, "bike_id": "956f3927c24a64e8d8dc278ab9958190", "fusion_lon": 0.0, "lon": -77.0127635, "lat": 38.915640833333335, "is_reserved": 0, "is_disabled": 0, "rental_uris": {"android": "https://dc.lft.to/lastmile_qr_scan", "ios": "https://dc.lft.to/lastmile_qr_scan"}, "name": "956f3927c24a64e8d8dc278ab9958190", "type": "electric_scooter"}, {"fusion_lat": 0.0, "bike_id": "68aa9da744c40e3d8b1208a1e561a6c4", "fusion_lon": 0.0, "lon": -77.04358066666667, "lat": 38.921676, "is_reserved": 0, "is_disabled": 0, "rental_uris": {"android": "https://dc.lft.to/lastmile_qr_scan", "ios": "https://dc.lft.to/lastmile_qr_scan"}, "name": "68aa9da744c40e3d8b1208a1e561a6c4", "type": "electric_scooter"}, {"fusion_lat": 0.0, "bike_id": "d691bfcc5dd4abd0b29be231eb4a7e39", "fusion_lon": 0.0, "lon": -77.02658433333333, "lat": 38.9217365, "is_reserved": 0, "is_disabled": 0, "rental_uris": {"android": "https://dc.lft.to/lastmile_qr_scan", "ios": "https://dc.lft.to/lastmile_qr_scan"}, "name": "d691bfcc5dd4abd0b29be231eb4a7e39", "type": "electric_scooter"}, {"fusion_lat": 0.0, "bike_id": "0ca652fcde7d02ea0f750f44a94227c9", "fusion_lon": 0.0, "lon": -77.0431255, "lat": 38.92217866666667, "is_reserved": 0, "is_disabled": 0, "rental_uris": {"android": "https://dc.lft.to/lastmile_qr_scan", "ios": "https://dc.lft.to/lastmile_qr_scan"}, "name": "0ca652fcde7d02ea0f750f44a94227c9", "type": "electric_scooter"}, {"fusion_lat": 0.0, "bike_id": "d05f6d61c8bf4dcd9e4059c9ca967188", "fusion_lon": 0.0, "lon": -77.01879, "lat": 38.9376715, "is_reserved": 0, "is_disabled": 0, "rental_uris": {"android": "https://dc.lft.to/lastmile_qr_scan", "ios": "https://dc.lft.to/lastmile_qr_scan"}, "name": "d05f6d61c8bf4dcd9e4059c9ca967188", "type": "electric_bike"}, {"fusion_lat": 0.0, "bike_id": "cfd3dbbe4022e85e2e1a3debb3508b86", "fusion_lon": 0.0, "lon": -76.985271, "lat": 38.866845, "is_reserved": 0, "is_disabled": 0, "rental_uris": {"android": "https://dc.lft.to/lastmile_qr_scan", "ios": "https://dc.lft.to/lastmile_qr_scan"}, "name": "cfd3dbbe4022e85e2e1a3debb3508b86", "type": "electric_scooter"}, {"fusion_lat": 0.0, "bike_id": "55ad5d84b414a90ebdf2bf3437cc5d6a", "fusion_lon": 0.0, "lon": -77.03175316666666, "lat": 38.891985166666664, "is_reserved": 0, "is_disabled": 0, "rental_uris": {"android": "https://dc.lft.to/lastmile_qr_scan", "ios": "https://dc.lft.to/lastmile_qr_scan"}, "name": "55ad5d84b414a90ebdf2bf3437cc5d6a", "type": "electric_scooter"}, {"fusion_lat": 0.0, "bike_id": "cc0adb19cbf9e1bcff3729406917c3a1", "fusion_lon": 0.0, "lon": -77.02267916666666, "lat": 38.93759633333333, "is_reserved": 0, "is_disabled": 0, "rental_uris": {"android": "https://dc.lft.to/lastmile_qr_scan", "ios": "https://dc.lft.to/lastmile_qr_scan"}, "name": "cc0adb19cbf9e1bcff3729406917c3a1", "type": "electric_scooter"}, {"fusion_lat": 0.0, "bike_id": "4347a482efe081346820a45e4d6cdc76", "fusion_lon": 0.0, "lon": -77.04612, "lat": 38.91550133333333, "is_reserved": 0, "is_disabled": 0, "rental_uris": {"android": "https://dc.lft.to/lastmile_qr_scan", "ios": "https://dc.lft.to/lastmile_qr_scan"}, "name": "4347a482efe081346820a45e4d6cdc76", "type": "electric_scooter"}, {"fusion_lat": 0.0, "bike_id": "21b0ac38e24f6c8ba146d48c5d770176", "fusion_lon": 0.0, "lon": -77.04486783333333, "lat": 38.89225866666666, "is_reserved": 0, "is_disabled": 0, "rental_uris": {"android": "https://dc.lft.to/lastmile_qr_scan", "ios": "https://dc.lft.to/lastmile_qr_scan"}, "name": "21b0ac38e24f6c8ba146d48c5d770176", "type": "electric_scooter"}, {"fusion_lat": 0.0, "bike_id": "b56596dc5b9409a490edb587a70be11f", "fusion_lon": 0.0, "lon": -76.93061366666667, "lat": 38.88384383333333, "is_reserved": 0, "is_disabled": 0, "rental_uris": {"android": "https://dc.lft.to/lastmile_qr_scan", "ios": "https://dc.lft.to/lastmile_qr_scan"}, "name": "b56596dc5b9409a490edb587a70be11f", "type": "electric_scooter"}, {"fusion_lat": 0.0, "bike_id": "29c88f9c19a5ff00d5a0d01a9f6cedd0", "fusion_lon": 0.0, "lon": -77.02586666666667, "lat": 38.93190383333334, "is_reserved": 0, "is_disabled": 0, "rental_uris": {"android": "https://dc.lft.to/lastmile_qr_scan", "ios": "https://dc.lft.to/lastmile_qr_scan"}, "name": "29c88f9c19a5ff00d5a0d01a9f6cedd0", "type": "electric_scooter"}, {"fusion_lat": 0.0, "bike_id": "f1d871ae8b9e22b6536097b89cafa532", "fusion_lon": 0.0, "lon": -77.0318175, "lat": 38.8922415, "is_reserved": 0, "is_disabled": 0, "rental_uris": {"android": "https://dc.lft.to/lastmile_qr_scan", "ios": "https://dc.lft.to/lastmile_qr_scan"}, "name": "f1d871ae8b9e22b6536097b89cafa532", "type": "electric_scooter"}, {"fusion_lat": 0.0, "bike_id": "d681d2104010c78e7dfdd0b45e52f05a", "fusion_lon": 0.0, "lon": -77.02159466666667, "lat": 38.92685616666667, "is_reserved": 0, "is_disabled": 0, "rental_uris": {"android": "https://dc.lft.to/lastmile_qr_scan", "ios": "https://dc.lft.to/lastmile_qr_scan"}, "name": "d681d2104010c78e7dfdd0b45e52f05a", "type": "electric_scooter"}, {"fusion_lat": 0.0, "bike_id": "73964849a1920126ff1a7173ddb1275d", "fusion_lon": 0.0, "lon": -77.03329166666667, "lat": 38.90972133333333, "is_reserved": 0, "is_disabled": 0, "rental_uris": {"android": "https://dc.lft.to/lastmile_qr_scan", "ios": "https://dc.lft.to/lastmile_qr_scan"}, "name": "73964849a1920126ff1a7173ddb1275d", "type": "electric_scooter"}, {"fusion_lat": 0.0, "bike_id": "e888bc47517c619c695cd897084d4e90", "fusion_lon": 0.0, "lon": -77.03736466666666, "lat": 38.93570283333333, "is_reserved": 0, "is_disabled": 0, "rental_uris": {"android": "https://dc.lft.to/lastmile_qr_scan", "ios": "https://dc.lft.to/lastmile_qr_scan"}, "name": "e888bc47517c619c695cd897084d4e90", "type": "electric_scooter"}, {"fusion_lat": 0.0, "bike_id": "ce2849c1011d60a958dce2521c6ba5f1", "fusion_lon": 0.0, "lon": -77.02585933333333, "lat": 38.92033333333333, "is_reserved": 0, "is_disabled": 0, "rental_uris": {"android": "https://dc.lft.to/lastmile_qr_scan", "ios": "https://dc.lft.to/lastmile_qr_scan"}, "name": "ce2849c1011d60a958dce2521c6ba5f1", "type": "electric_scooter"}, {"fusion_lat": 0.0, "bike_id": "fbf1eeca6deac3b66df5b2fd0a9fcb15", "fusion_lon": 0.0, "lon": -77.01977166666667, "lat": 38.883981166666665, "is_reserved": 0, "is_disabled": 0, "rental_uris": {"android": "https://dc.lft.to/lastmile_qr_scan", "ios": "https://dc.lft.to/lastmile_qr_scan"}, "name": "fbf1eeca6deac3b66df5b2fd0a9fcb15", "type": "electric_scooter"}, {"fusion_lat": 0.0, "bike_id": "05836d6b09adf661398b8ac308e8e62b", "fusion_lon": 0.0, "lon": -77.057665, "lat": 38.9338255, "is_reserved": 0, "is_disabled": 0, "rental_uris": {"android": "https://dc.lft.to/lastmile_qr_scan", "ios": "https://dc.lft.to/lastmile_qr_scan"}, "name": "05836d6b09adf661398b8ac308e8e62b", "type": "electric_scooter"}, {"fusion_lat": 0.0, "bike_id": "9357b63f507585ffffa4108370561921", "fusion_lon": 0.0, "lon": -77.0064835, "lat": 38.871570166666665, "is_reserved": 0, "is_disabled": 0, "rental_uris": {"android": "https://dc.lft.to/lastmile_qr_scan", "ios": "https://dc.lft.to/lastmile_qr_scan"}, "name": "9357b63f507585ffffa4108370561921", "type": "electric_scooter"}, {"fusion_lat": 0.0, "bike_id": "a95fd7bf271af9cb8538fb8e7e0e0d15", "fusion_lon": 0.0, "lon": -77.027948, "lat": 38.89940383333333, "is_reserved": 0, "is_disabled": 0, "rental_uris": {"android": "https://dc.lft.to/lastmile_qr_scan", "ios": "https://dc.lft.to/lastmile_qr_scan"}, "name": "a95fd7bf271af9cb8538fb8e7e0e0d15", "type": "electric_scooter"}, {"fusion_lat": 0.0, "bike_id": "e9aebd259ca029c561238edb5f3d41f2", "fusion_lon": 0.0, "lon": -77.04738016666667, "lat": 38.897206, "is_reserved": 0, "is_disabled": 0, "rental_uris": {"android": "https://dc.lft.to/lastmile_qr_scan", "ios": "https://dc.lft.to/lastmile_qr_scan"}, "name": "e9aebd259ca029c561238edb5f3d41f2", "type": "electric_bike"}, {"fusion_lat": 0.0, "bike_id": "63890f0c8578969f8f9a9c77e60d7f5c", "fusion_lon": 0.0, "lon": -77.02640166666667, "lat": 38.91690583333333, "is_reserved": 0, "is_disabled": 0, "rental_uris": {"android": "https://dc.lft.to/lastmile_qr_scan", "ios": "https://dc.lft.to/lastmile_qr_scan"}, "name": "63890f0c8578969f8f9a9c77e60d7f5c", "type": "electric_scooter"}, {"fusion_lat": 0.0, "bike_id": "44675eeca40570d5a19ea526fcda042f", "fusion_lon": 0.0, "lon": -77.02831333333333, "lat": 38.91419766666667, "is_reserved": 0, "is_disabled": 0, "rental_uris": {"android": "https://dc.lft.to/lastmile_qr_scan", "ios": "https://dc.lft.to/lastmile_qr_scan"}, "name": "44675eeca40570d5a19ea526fcda042f", "type": "electric_scooter"}, {"fusion_lat": 0.0, "bike_id": "0c2631c7863fdcc5e089cfd4e4a788b1", "fusion_lon": 0.0, "lon": -77.0209845, "lat": 38.9215665, "is_reserved": 0, "is_disabled": 0, "rental_uris": {"android": "https://dc.lft.to/lastmile_qr_scan", "ios": "https://dc.lft.to/lastmile_qr_scan"}, "name": "0c2631c7863fdcc5e089cfd4e4a788b1", "type": "electric_scooter"}, {"fusion_lat": 0.0, "bike_id": "fbf1d8310380d015ea336a49e26b9b42", "fusion_lon": 0.0, "lon": -77.0273655, "lat": 38.93206383333333, "is_reserved": 0, "is_disabled": 0, "rental_uris": {"android": "https://dc.lft.to/lastmile_qr_scan", "ios": "https://dc.lft.to/lastmile_qr_scan"}, "name": "fbf1d8310380d015ea336a49e26b9b42", "type": "electric_scooter"}, {"fusion_lat": 0.0, "bike_id": "c430a68ae396216a24a826c4f9fb11a2", "fusion_lon": 0.0, "lon": -77.03371816666667, "lat": 38.901212, "is_reserved": 0, "is_disabled": 0, "rental_uris": {"android": "https://dc.lft.to/lastmile_qr_scan", "ios": "https://dc.lft.to/lastmile_qr_scan"}, "name": "c430a68ae396216a24a826c4f9fb11a2", "type": "electric_scooter"}, {"fusion_lat": 0.0, "bike_id": "e131d587fc151368debce291f8799fd9", "fusion_lon": 0.0, "lon": -77.01450483333333, "lat": 38.92979866666667, "is_reserved": 0, "is_disabled": 0, "rental_uris": {"android": "https://dc.lft.to/lastmile_qr_scan", "ios": "https://dc.lft.to/lastmile_qr_scan"}, "name": "e131d587fc151368debce291f8799fd9", "type": "electric_scooter"}, {"fusion_lat": 0.0, "bike_id": "0a172f5e18b63084489056ec85bd32f6", "fusion_lon": 0.0, "lon": -76.93361216666666, "lat": 38.88790766666666, "is_reserved": 0, "is_disabled": 0, "rental_uris": {"android": "https://dc.lft.to/lastmile_qr_scan", "ios": "https://dc.lft.to/lastmile_qr_scan"}, "name": "0a172f5e18b63084489056ec85bd32f6", "type": "electric_scooter"}, {"fusion_lat": 0.0, "bike_id": "6fc40b4feed135105e55a91d22538f74", "fusion_lon": 0.0, "lon": -77.050004, "lat": 38.892269666666664, "is_reserved": 0, "is_disabled": 0, "rental_uris": {"android": "https://dc.lft.to/lastmile_qr_scan", "ios": "https://dc.lft.to/lastmile_qr_scan"}, "name": "6fc40b4feed135105e55a91d22538f74", "type": "electric_scooter"}, {"fusion_lat": 0.0, "bike_id": "ac9c2d07bdfa9f95de5dab6ebb0afbeb", "fusion_lon": 0.0, "lon": -77.02798866666667, "lat": 38.916924, "is_reserved": 0, "is_disabled": 0, "rental_uris": {"android": "https://dc.lft.to/lastmile_qr_scan", "ios": "https://dc.lft.to/lastmile_qr_scan"}, "name": "ac9c2d07bdfa9f95de5dab6ebb0afbeb", "type": "electric_scooter"}, {"fusion_lat": 0.0, "bike_id": "5f7a8043e14eb5ca44ff9f772186f212", "fusion_lon": 0.0, "lon": -77.04605266666667, "lat": 38.902453333333334, "is_reserved": 0, "is_disabled": 0, "rental_uris": {"android": "https://dc.lft.to/lastmile_qr_scan", "ios": "https://dc.lft.to/lastmile_qr_scan"}, "name": "5f7a8043e14eb5ca44ff9f772186f212", "type": "electric_scooter"}, {"fusion_lat": 0.0, "bike_id": "392cce530e2f03485e6d898b0585df08", "fusion_lon": 0.0, "lon": -77.024554, "lat": 38.90257583333333, "is_reserved": 0, "is_disabled": 0, "rental_uris": {"android": "https://dc.lft.to/lastmile_qr_scan", "ios": "https://dc.lft.to/lastmile_qr_scan"}, "name": "392cce530e2f03485e6d898b0585df08", "type": "electric_scooter"}, {"fusion_lat": 0.0, "bike_id": "8f3031e5b0c4880fff6d95d17595585f", "fusion_lon": 0.0, "lon": -76.9949235, "lat": 38.842149, "is_reserved": 0, "is_disabled": 0, "rental_uris": {"android": "https://dc.lft.to/lastmile_qr_scan", "ios": "https://dc.lft.to/lastmile_qr_scan"}, "name": "8f3031e5b0c4880fff6d95d17595585f", "type": "electric_scooter"}, {"fusion_lat": 0.0, "bike_id": "04b2a44c1ec42a408bcf10ae65f68818", "fusion_lon": 0.0, "lon": -77.04267516666667, "lat": 38.922343, "is_reserved": 0, "is_disabled": 0, "rental_uris": {"android": "https://dc.lft.to/lastmile_qr_scan", "ios": "https://dc.lft.to/lastmile_qr_scan"}, "name": "04b2a44c1ec42a408bcf10ae65f68818", "type": "electric_scooter"}, {"fusion_lat": 0.0, "bike_id": "79ac0f290b665062cb3740e4a60da391", "fusion_lon": 0.0, "lon": -77.0118715, "lat": 38.900262, "is_reserved": 0, "is_disabled": 0, "rental_uris": {"android": "https://dc.lft.to/lastmile_qr_scan", "ios": "https://dc.lft.to/lastmile_qr_scan"}, "name": "79ac0f290b665062cb3740e4a60da391", "type": "electric_scooter"}, {"fusion_lat": 0.0, "bike_id": "612c298b4f8c269ff95e8b432c65d10c", "fusion_lon": 0.0, "lon": -77.041649, "lat": 38.905540333333335, "is_reserved": 0, "is_disabled": 0, "rental_uris": {"android": "https://dc.lft.to/lastmile_qr_scan", "ios": "https://dc.lft.to/lastmile_qr_scan"}, "name": "612c298b4f8c269ff95e8b432c65d10c", "type": "electric_scooter"}, {"fusion_lat": 0.0, "bike_id": "c7865962a445fe04631150ef08fbee95", "fusion_lon": 0.0, "lon": -76.98712333333333, "lat": 38.86699466666666, "is_reserved": 0, "is_disabled": 0, "rental_uris": {"android": "https://dc.lft.to/lastmile_qr_scan", "ios": "https://dc.lft.to/lastmile_qr_scan"}, "name": "c7865962a445fe04631150ef08fbee95", "type": "electric_scooter"}, {"fusion_lat": 0.0, "bike_id": "212ad6e0e40a078ed76ff7044c6d9cad", "fusion_lon": 0.0, "lon": -77.025532, "lat": 38.916329833333336, "is_reserved": 0, "is_disabled": 0, "rental_uris": {"android": "https://dc.lft.to/lastmile_qr_scan", "ios": "https://dc.lft.to/lastmile_qr_scan"}, "name": "212ad6e0e40a078ed76ff7044c6d9cad", "type": "electric_scooter"}, {"fusion_lat": 0.0, "bike_id": "677aa8313109a70d4f2596dd8206ceb7", "fusion_lon": 0.0, "lon": -77.035224, "lat": 38.927252833333334, "is_reserved": 0, "is_disabled": 0, "rental_uris": {"android": "https://dc.lft.to/lastmile_qr_scan", "ios": "https://dc.lft.to/lastmile_qr_scan"}, "name": "677aa8313109a70d4f2596dd8206ceb7", "type": "electric_scooter"}, {"fusion_lat": 0.0, "bike_id": "0227513dbc805c265366ac232297da3e", "fusion_lon": 0.0, "lon": -76.93727366666667, "lat": 38.89017, "is_reserved": 0, "is_disabled": 0, "rental_uris": {"android": "https://dc.lft.to/lastmile_qr_scan", "ios": "https://dc.lft.to/lastmile_qr_scan"}, "name": "0227513dbc805c265366ac232297da3e", "type": "electric_scooter"}, {"fusion_lat": 0.0, "bike_id": "d7f5a5a83424ea4153497145365c1042", "fusion_lon": 0.0, "lon": -77.03053783333333, "lat": 38.8874255, "is_reserved": 0, "is_disabled": 0, "rental_uris": {"android": "https://dc.lft.to/lastmile_qr_scan", "ios": "https://dc.lft.to/lastmile_qr_scan"}, "name": "d7f5a5a83424ea4153497145365c1042", "type": "electric_scooter"}, {"fusion_lat": 0.0, "bike_id": "6d0c3852c42550b9fdafcf2afca83a48", "fusion_lon": 0.0, "lon": -77.030139, "lat": 38.90388, "is_reserved": 0, "is_disabled": 0, "rental_uris": {"android": "https://dc.lft.to/lastmile_qr_scan", "ios": "https://dc.lft.to/lastmile_qr_scan"}, "name": "6d0c3852c42550b9fdafcf2afca83a48", "type": "electric_scooter"}, {"fusion_lat": 0.0, "bike_id": "5a396bbb66418fb7e27fc119a4714dc0", "fusion_lon": 0.0, "lon": -76.988839, "lat": 38.86658516666667, "is_reserved": 0, "is_disabled": 0, "rental_uris": {"android": "https://dc.lft.to/lastmile_qr_scan", "ios": "https://dc.lft.to/lastmile_qr_scan"}, "name": "5a396bbb66418fb7e27fc119a4714dc0", "type": "electric_scooter"}, {"fusion_lat": 0.0, "bike_id": "3c70ff688a5debdea56697022661970e", "fusion_lon": 0.0, "lon": -77.02485733333333, "lat": 38.91696233333333, "is_reserved": 0, "is_disabled": 0, "rental_uris": {"android": "https://dc.lft.to/lastmile_qr_scan", "ios": "https://dc.lft.to/lastmile_qr_scan"}, "name": "3c70ff688a5debdea56697022661970e", "type": "electric_scooter"}, {"fusion_lat": 0.0, "bike_id": "9303be44fc72ce0771226f3fed00674d", "fusion_lon": 0.0, "lon": -77.03824966666667, "lat": 38.91553483333333, "is_reserved": 0, "is_disabled": 0, "rental_uris": {"android": "https://dc.lft.to/lastmile_qr_scan", "ios": "https://dc.lft.to/lastmile_qr_scan"}, "name": "9303be44fc72ce0771226f3fed00674d", "type": "electric_bike"}, {"fusion_lat": 0.0, "bike_id": "0e804250f3de03487f51f8f23c5b8736", "fusion_lon": 0.0, "lon": -77.00201233333334, "lat": 38.90042033333334, "is_reserved": 0, "is_disabled": 0, "rental_uris": {"android": "https://dc.lft.to/lastmile_qr_scan", "ios": "https://dc.lft.to/lastmile_qr_scan"}, "name": "0e804250f3de03487f51f8f23c5b8736", "type": "electric_scooter"}, {"fusion_lat": 0.0, "bike_id": "b4266c51440f351e1a1a13572aae73ff", "fusion_lon": 0.0, "lon": -77.02239083333333, "lat": 38.90863933333333, "is_reserved": 0, "is_disabled": 0, "rental_uris": {"android": "https://dc.lft.to/lastmile_qr_scan", "ios": "https://dc.lft.to/lastmile_qr_scan"}, "name": "b4266c51440f351e1a1a13572aae73ff", "type": "electric_scooter"}, {"fusion_lat": 0.0, "bike_id": "47197b922664a08bcb2176846acd4e32", "fusion_lon": 0.0, "lon": -77.024484, "lat": 38.903255333333334, "is_reserved": 0, "is_disabled": 0, "rental_uris": {"android": "https://dc.lft.to/lastmile_qr_scan", "ios": "https://dc.lft.to/lastmile_qr_scan"}, "name": "47197b922664a08bcb2176846acd4e32", "type": "electric_scooter"}, {"fusion_lat": 0.0, "bike_id": "cb1b48ce46d639a2c985c4f8b10f830b", "fusion_lon": 0.0, "lon": -77.0378625, "lat": 38.996734333333336, "is_reserved": 0, "is_disabled": 0, "rental_uris": {"android": "https://dc.lft.to/lastmile_qr_scan", "ios": "https://dc.lft.to/lastmile_qr_scan"}, "name": "cb1b48ce46d639a2c985c4f8b10f830b", "type": "electric_bike"}, {"fusion_lat": 0.0, "bike_id": "c1485d5abdfba6ec66cc03ad5978afeb", "fusion_lon": 0.0, "lon": -77.03087783333334, "lat": 38.93861366666667, "is_reserved": 0, "is_disabled": 0, "rental_uris": {"android": "https://dc.lft.to/lastmile_qr_scan", "ios": "https://dc.lft.to/lastmile_qr_scan"}, "name": "c1485d5abdfba6ec66cc03ad5978afeb", "type": "electric_scooter"}, {"fusion_lat": 0.0, "bike_id": "59ffbc22b58ba718be2ba084642e655e", "fusion_lon": 0.0, "lon": -77.0159045, "lat": 38.88497016666667, "is_reserved": 0, "is_disabled": 0, "rental_uris": {"android": "https://dc.lft.to/lastmile_qr_scan", "ios": "https://dc.lft.to/lastmile_qr_scan"}, "name": "59ffbc22b58ba718be2ba084642e655e", "type": "electric_scooter"}, {"fusion_lat": 0.0, "bike_id": "271877232d57a0a83a1c0b985f234545", "fusion_lon": 0.0, "lon": -77.02658066666666, "lat": 38.92609, "is_reserved": 0, "is_disabled": 0, "rental_uris": {"android": "https://dc.lft.to/lastmile_qr_scan", "ios": "https://dc.lft.to/lastmile_qr_scan"}, "name": "271877232d57a0a83a1c0b985f234545", "type": "electric_scooter"}, {"fusion_lat": 0.0, "bike_id": "45cbdc0dc30c03f5ce85fa2f51abcb8f", "fusion_lon": 0.0, "lon": -77.02143416666667, "lat": 38.92479983333333, "is_reserved": 0, "is_disabled": 0, "rental_uris": {"android": "https://dc.lft.to/lastmile_qr_scan", "ios": "https://dc.lft.to/lastmile_qr_scan"}, "name": "45cbdc0dc30c03f5ce85fa2f51abcb8f", "type": "electric_scooter"}, {"fusion_lat": 0.0, "bike_id": "5c044b1cdd0d6b129a2df0c7398b8a0c", "fusion_lon": 0.0, "lon": -76.947326, "lat": 38.897343, "is_reserved": 0, "is_disabled": 0, "rental_uris": {"android": "https://dc.lft.to/lastmile_qr_scan", "ios": "https://dc.lft.to/lastmile_qr_scan"}, "name": "5c044b1cdd0d6b129a2df0c7398b8a0c", "type": "electric_scooter"}, {"fusion_lat": 0.0, "bike_id": "6a6a9fc861322f969ad3c5fddbec8e35", "fusion_lon": 0.0, "lon": -77.04673483333333, "lat": 38.91106283333333, "is_reserved": 0, "is_disabled": 0, "rental_uris": {"android": "https://dc.lft.to/lastmile_qr_scan", "ios": "https://dc.lft.to/lastmile_qr_scan"}, "name": "6a6a9fc861322f969ad3c5fddbec8e35", "type": "electric_scooter"}, {"fusion_lat": 0.0, "bike_id": "b9a622175002f5a385f338a7044ac552", "fusion_lon": 0.0, "lon": -77.03279383333333, "lat": 38.9409245, "is_reserved": 0, "is_disabled": 0, "rental_uris": {"android": "https://dc.lft.to/lastmile_qr_scan", "ios": "https://dc.lft.to/lastmile_qr_scan"}, "name": "b9a622175002f5a385f338a7044ac552", "type": "electric_scooter"}, {"fusion_lat": 0.0, "bike_id": "b07577276c9e8fee652b09377e0b9aa9", "fusion_lon": 0.0, "lon": -76.997813, "lat": 38.84422333333333, "is_reserved": 0, "is_disabled": 0, "rental_uris": {"android": "https://dc.lft.to/lastmile_qr_scan", "ios": "https://dc.lft.to/lastmile_qr_scan"}, "name": "b07577276c9e8fee652b09377e0b9aa9", "type": "electric_scooter"}, {"fusion_lat": 0.0, "bike_id": "f7209efcafa3426e942d8c5e749c5bde", "fusion_lon": 0.0, "lon": -77.05298183333333, "lat": 38.9052365, "is_reserved": 0, "is_disabled": 0, "rental_uris": {"android": "https://dc.lft.to/lastmile_qr_scan", "ios": "https://dc.lft.to/lastmile_qr_scan"}, "name": "f7209efcafa3426e942d8c5e749c5bde", "type": "electric_scooter"}, {"fusion_lat": 0.0, "bike_id": "cc05db8f0bc8ef2e3b8ea52e0ffb4b65", "fusion_lon": 0.0, "lon": -77.02176016666667, "lat": 38.94295366666667, "is_reserved": 0, "is_disabled": 0, "rental_uris": {"android": "https://dc.lft.to/lastmile_qr_scan", "ios": "https://dc.lft.to/lastmile_qr_scan"}, "name": "cc05db8f0bc8ef2e3b8ea52e0ffb4b65", "type": "electric_scooter"}, {"fusion_lat": 0.0, "bike_id": "24217f0bee2cc5069ceda032af6618c9", "fusion_lon": 0.0, "lon": -77.04184333333333, "lat": 38.8924925, "is_reserved": 0, "is_disabled": 0, "rental_uris": {"android": "https://dc.lft.to/lastmile_qr_scan", "ios": "https://dc.lft.to/lastmile_qr_scan"}, "name": "24217f0bee2cc5069ceda032af6618c9", "type": "electric_scooter"}, {"fusion_lat": 0.0, "bike_id": "a179ec1f225a080c7dc0befe8667793d", "fusion_lon": 0.0, "lon": -77.04873183333333, "lat": 38.892826, "is_reserved": 0, "is_disabled": 0, "rental_uris": {"android": "https://dc.lft.to/lastmile_qr_scan", "ios": "https://dc.lft.to/lastmile_qr_scan"}, "name": "a179ec1f225a080c7dc0befe8667793d", "type": "electric_scooter"}, {"fusion_lat": 0.0, "bike_id": "2479255c606a21de740a2f25eb05749f", "fusion_lon": 0.0, "lon": -76.99485833333334, "lat": 38.897371, "is_reserved": 0, "is_disabled": 0, "rental_uris": {"android": "https://dc.lft.to/lastmile_qr_scan", "ios": "https://dc.lft.to/lastmile_qr_scan"}, "name": "2479255c606a21de740a2f25eb05749f", "type": "electric_scooter"}, {"fusion_lat": 0.0, "bike_id": "59ac20283735bf72fcaa7ed67b9c9dda", "fusion_lon": 0.0, "lon": -77.02386916666667, "lat": 38.91144516666667, "is_reserved": 0, "is_disabled": 0, "rental_uris": {"android": "https://dc.lft.to/lastmile_qr_scan", "ios": "https://dc.lft.to/lastmile_qr_scan"}, "name": "59ac20283735bf72fcaa7ed67b9c9dda", "type": "electric_scooter"}, {"fusion_lat": 0.0, "bike_id": "26915e7e726d890a72b17ece31837d12", "fusion_lon": 0.0, "lon": -77.02789466666667, "lat": 38.96130683333333, "is_reserved": 0, "is_disabled": 0, "rental_uris": {"android": "https://dc.lft.to/lastmile_qr_scan", "ios": "https://dc.lft.to/lastmile_qr_scan"}, "name": "26915e7e726d890a72b17ece31837d12", "type": "electric_scooter"}, {"fusion_lat": 0.0, "bike_id": "7d183eafbd176694e6533ac89b348288", "fusion_lon": 0.0, "lon": -77.07510783333333, "lat": 38.93678883333333, "is_reserved": 0, "is_disabled": 0, "rental_uris": {"android": "https://dc.lft.to/lastmile_qr_scan", "ios": "https://dc.lft.to/lastmile_qr_scan"}, "name": "7d183eafbd176694e6533ac89b348288", "type": "electric_bike"}, {"fusion_lat": 0.0, "bike_id": "8519dc40a7077d1e9eb286a74f95fc5a", "fusion_lon": 0.0, "lon": -77.02735333333334, "lat": 38.897174, "is_reserved": 0, "is_disabled": 0, "rental_uris": {"android": "https://dc.lft.to/lastmile_qr_scan", "ios": "https://dc.lft.to/lastmile_qr_scan"}, "name": "8519dc40a7077d1e9eb286a74f95fc5a", "type": "electric_scooter"}, {"fusion_lat": 0.0, "bike_id": "6dd07a60b99cc238695fba7fed8fa142", "fusion_lon": 0.0, "lon": -77.02913016666666, "lat": 38.94042, "is_reserved": 0, "is_disabled": 0, "rental_uris": {"android": "https://dc.lft.to/lastmile_qr_scan", "ios": "https://dc.lft.to/lastmile_qr_scan"}, "name": "6dd07a60b99cc238695fba7fed8fa142", "type": "electric_scooter"}, {"fusion_lat": 0.0, "bike_id": "d19a023abbb09a67b3ee1c8c63e6121e", "fusion_lon": 0.0, "lon": -77.04161016666667, "lat": 38.905601833333336, "is_reserved": 0, "is_disabled": 0, "rental_uris": {"android": "https://dc.lft.to/lastmile_qr_scan", "ios": "https://dc.lft.to/lastmile_qr_scan"}, "name": "d19a023abbb09a67b3ee1c8c63e6121e", "type": "electric_scooter"}, {"fusion_lat": 0.0, "bike_id": "96d85773f03b16b61b6665a0d33b3086", "fusion_lon": 0.0, "lon": -76.9954575, "lat": 38.883635166666664, "is_reserved": 0, "is_disabled": 0, "rental_uris": {"android": "https://dc.lft.to/lastmile_qr_scan", "ios": "https://dc.lft.to/lastmile_qr_scan"}, "name": "96d85773f03b16b61b6665a0d33b3086", "type": "electric_scooter"}, {"fusion_lat": 0.0, "bike_id": "fc25f882cfdc16726d1b143b28cb6f31", "fusion_lon": 0.0, "lon": -77.02843966666667, "lat": 38.88742833333333, "is_reserved": 0, "is_disabled": 0, "rental_uris": {"android": "https://dc.lft.to/lastmile_qr_scan", "ios": "https://dc.lft.to/lastmile_qr_scan"}, "name": "fc25f882cfdc16726d1b143b28cb6f31", "type": "electric_scooter"}, {"fusion_lat": 0.0, "bike_id": "b3d01b7ccacc2e3e666030104abf5f9a", "fusion_lon": 0.0, "lon": -76.995337, "lat": 38.883729833333334, "is_reserved": 0, "is_disabled": 0, "rental_uris": {"android": "https://dc.lft.to/lastmile_qr_scan", "ios": "https://dc.lft.to/lastmile_qr_scan"}, "name": "b3d01b7ccacc2e3e666030104abf5f9a", "type": "electric_scooter"}, {"fusion_lat": 0.0, "bike_id": "a83a44c227d90e9ef1d312cbaaab6ce3", "fusion_lon": 0.0, "lon": -77.03268583333333, "lat": 38.9296885, "is_reserved": 0, "is_disabled": 0, "rental_uris": {"android": "https://dc.lft.to/lastmile_qr_scan", "ios": "https://dc.lft.to/lastmile_qr_scan"}, "name": "a83a44c227d90e9ef1d312cbaaab6ce3", "type": "electric_scooter"}, {"fusion_lat": 0.0, "bike_id": "c72c41939ff15c2233e6c5696d46b9eb", "fusion_lon": 0.0, "lon": -77.04613716666667, "lat": 38.920523, "is_reserved": 0, "is_disabled": 0, "rental_uris": {"android": "https://dc.lft.to/lastmile_qr_scan", "ios": "https://dc.lft.to/lastmile_qr_scan"}, "name": "c72c41939ff15c2233e6c5696d46b9eb", "type": "electric_scooter"}, {"fusion_lat": 0.0, "bike_id": "635d5afa614ab690f99b24fe1f07f3ae", "fusion_lon": 0.0, "lon": -77.02074383333333, "lat": 38.927221, "is_reserved": 0, "is_disabled": 0, "rental_uris": {"android": "https://dc.lft.to/lastmile_qr_scan", "ios": "https://dc.lft.to/lastmile_qr_scan"}, "name": "635d5afa614ab690f99b24fe1f07f3ae", "type": "electric_scooter"}, {"fusion_lat": 0.0, "bike_id": "1db3c64974b4ef9d50d3e110b0cdab85", "fusion_lon": 0.0, "lon": -77.080706, "lat": 39.052788666666665, "is_reserved": 0, "is_disabled": 0, "rental_uris": {"android": "https://dc.lft.to/lastmile_qr_scan", "ios": "https://dc.lft.to/lastmile_qr_scan"}, "name": "1db3c64974b4ef9d50d3e110b0cdab85", "type": "electric_bike"}, {"fusion_lat": 0.0, "bike_id": "411ad3b595040fd3662ae78b560145e3", "fusion_lon": 0.0, "lon": -77.04103516666666, "lat": 38.9185635, "is_reserved": 0, "is_disabled": 0, "rental_uris": {"android": "https://dc.lft.to/lastmile_qr_scan", "ios": "https://dc.lft.to/lastmile_qr_scan"}, "name": "411ad3b595040fd3662ae78b560145e3", "type": "electric_scooter"}, {"fusion_lat": 0.0, "bike_id": "d2a53d85d7a13a7744a46e470ba15c88", "fusion_lon": 0.0, "lon": -77.04777466666667, "lat": 38.91754816666667, "is_reserved": 0, "is_disabled": 0, "rental_uris": {"android": "https://dc.lft.to/lastmile_qr_scan", "ios": "https://dc.lft.to/lastmile_qr_scan"}, "name": "d2a53d85d7a13a7744a46e470ba15c88", "type": "electric_scooter"}, {"fusion_lat": 0.0, "bike_id": "cae09167a346165e3c1075b8de1b035b", "fusion_lon": 0.0, "lon": -76.99083666666667, "lat": 38.862329833333334, "is_reserved": 0, "is_disabled": 0, "rental_uris": {"android": "https://dc.lft.to/lastmile_qr_scan", "ios": "https://dc.lft.to/lastmile_qr_scan"}, "name": "cae09167a346165e3c1075b8de1b035b", "type": "electric_bike"}, {"fusion_lat": 0.0, "bike_id": "023c17d89c28d75d550294a462114235", "fusion_lon": 0.0, "lon": -76.99842733333334, "lat": 38.90492783333333, "is_reserved": 0, "is_disabled": 0, "rental_uris": {"android": "https://dc.lft.to/lastmile_qr_scan", "ios": "https://dc.lft.to/lastmile_qr_scan"}, "name": "023c17d89c28d75d550294a462114235", "type": "electric_scooter"}, {"fusion_lat": 0.0, "bike_id": "ea077ff4bf195e2d34a3b717cb52d548", "fusion_lon": 0.0, "lon": -77.06520633333334, "lat": 38.903907833333335, "is_reserved": 0, "is_disabled": 0, "rental_uris": {"android": "https://dc.lft.to/lastmile_qr_scan", "ios": "https://dc.lft.to/lastmile_qr_scan"}, "name": "ea077ff4bf195e2d34a3b717cb52d548", "type": "electric_scooter"}, {"fusion_lat": 0.0, "bike_id": "b45d43b1f44ccb23a944b8c53c13332c", "fusion_lon": 0.0, "lon": -77.02749966666667, "lat": 38.957788, "is_reserved": 0, "is_disabled": 0, "rental_uris": {"android": "https://dc.lft.to/lastmile_qr_scan", "ios": "https://dc.lft.to/lastmile_qr_scan"}, "name": "b45d43b1f44ccb23a944b8c53c13332c", "type": "electric_bike"}, {"fusion_lat": 0.0, "bike_id": "ce534e4b807b4516a84c8084cf23ce0d", "fusion_lon": 0.0, "lon": -77.01767716666667, "lat": 38.887303833333334, "is_reserved": 0, "is_disabled": 0, "rental_uris": {"android": "https://dc.lft.to/lastmile_qr_scan", "ios": "https://dc.lft.to/lastmile_qr_scan"}, "name": "ce534e4b807b4516a84c8084cf23ce0d", "type": "electric_scooter"}, {"fusion_lat": 0.0, "bike_id": "4e8825207734f2c3c9bea8864affa8f9", "fusion_lon": 0.0, "lon": -77.03448166666666, "lat": 38.90733516666667, "is_reserved": 0, "is_disabled": 0, "rental_uris": {"android": "https://dc.lft.to/lastmile_qr_scan", "ios": "https://dc.lft.to/lastmile_qr_scan"}, "name": "4e8825207734f2c3c9bea8864affa8f9", "type": "electric_scooter"}, {"fusion_lat": 0.0, "bike_id": "c2679dcd720151f97b542d5706d4719c", "fusion_lon": 0.0, "lon": -77.10842566666666, "lat": 38.81202566666666, "is_reserved": 0, "is_disabled": 0, "rental_uris": {"android": "https://dc.lft.to/lastmile_qr_scan", "ios": "https://dc.lft.to/lastmile_qr_scan"}, "name": "c2679dcd720151f97b542d5706d4719c", "type": "electric_bike"}, {"fusion_lat": 0.0, "bike_id": "4e900e963065500e8fdd2256c051cd73", "fusion_lon": 0.0, "lon": -77.02552583333333, "lat": 38.93083933333333, "is_reserved": 0, "is_disabled": 0, "rental_uris": {"android": "https://dc.lft.to/lastmile_qr_scan", "ios": "https://dc.lft.to/lastmile_qr_scan"}, "name": "4e900e963065500e8fdd2256c051cd73", "type": "electric_scooter"}, {"fusion_lat": 0.0, "bike_id": "dc63a88d87a42c104ce7fb903de80c7f", "fusion_lon": 0.0, "lon": -76.99005283333334, "lat": 38.865006, "is_reserved": 0, "is_disabled": 0, "rental_uris": {"android": "https://dc.lft.to/lastmile_qr_scan", "ios": "https://dc.lft.to/lastmile_qr_scan"}, "name": "dc63a88d87a42c104ce7fb903de80c7f", "type": "electric_scooter"}, {"fusion_lat": 0.0, "bike_id": "7a77e37e68789f1f5dfa1fa35bca57c4", "fusion_lon": 0.0, "lon": -77.0269925, "lat": 38.89549366666667, "is_reserved": 0, "is_disabled": 0, "rental_uris": {"android": "https://dc.lft.to/lastmile_qr_scan", "ios": "https://dc.lft.to/lastmile_qr_scan"}, "name": "7a77e37e68789f1f5dfa1fa35bca57c4", "type": "electric_scooter"}, {"fusion_lat": 0.0, "bike_id": "ed7a5b2b460d74916a5b546cf0bb6b4c", "fusion_lon": 0.0, "lon": -77.0395665, "lat": 38.899038166666664, "is_reserved": 0, "is_disabled": 0, "rental_uris": {"android": "https://dc.lft.to/lastmile_qr_scan", "ios": "https://dc.lft.to/lastmile_qr_scan"}, "name": "ed7a5b2b460d74916a5b546cf0bb6b4c", "type": "electric_scooter"}, {"fusion_lat": 0.0, "bike_id": "25ed59b91e994b02922f8fafd4d233c8", "fusion_lon": 0.0, "lon": -77.02672516666667, "lat": 38.916951, "is_reserved": 0, "is_disabled": 0, "rental_uris": {"android": "https://dc.lft.to/lastmile_qr_scan", "ios": "https://dc.lft.to/lastmile_qr_scan"}, "name": "25ed59b91e994b02922f8fafd4d233c8", "type": "electric_scooter"}, {"fusion_lat": 0.0, "bike_id": "2c4162e17903d7963026df8623775e0b", "fusion_lon": 0.0, "lon": -77.03310466666667, "lat": 38.898422333333336, "is_reserved": 0, "is_disabled": 0, "rental_uris": {"android": "https://dc.lft.to/lastmile_qr_scan", "ios": "https://dc.lft.to/lastmile_qr_scan"}, "name": "2c4162e17903d7963026df8623775e0b", "type": "electric_scooter"}, {"fusion_lat": 0.0, "bike_id": "9655adef7f88ab22533a1f3458b011ed", "fusion_lon": 0.0, "lon": -76.980847, "lat": 38.90703883333333, "is_reserved": 0, "is_disabled": 0, "rental_uris": {"android": "https://dc.lft.to/lastmile_qr_scan", "ios": "https://dc.lft.to/lastmile_qr_scan"}, "name": "9655adef7f88ab22533a1f3458b011ed", "type": "electric_scooter"}, {"fusion_lat": 0.0, "bike_id": "7522c65d0196f9cfe7aac1a162950e8d", "fusion_lon": 0.0, "lon": -77.0409045, "lat": 38.911808, "is_reserved": 0, "is_disabled": 0, "rental_uris": {"android": "https://dc.lft.to/lastmile_qr_scan", "ios": "https://dc.lft.to/lastmile_qr_scan"}, "name": "7522c65d0196f9cfe7aac1a162950e8d", "type": "electric_scooter"}, {"fusion_lat": 0.0, "bike_id": "b6f8d4ecddc0e78c3a0e0e1ae170564c", "fusion_lon": 0.0, "lon": -77.038399, "lat": 38.9132275, "is_reserved": 0, "is_disabled": 0, "rental_uris": {"android": "https://dc.lft.to/lastmile_qr_scan", "ios": "https://dc.lft.to/lastmile_qr_scan"}, "name": "b6f8d4ecddc0e78c3a0e0e1ae170564c", "type": "electric_scooter"}, {"fusion_lat": 0.0, "bike_id": "19970dee22f2b183cdb1b9262ef3b345", "fusion_lon": 0.0, "lon": -76.93734033333334, "lat": 38.89011816666667, "is_reserved": 0, "is_disabled": 0, "rental_uris": {"android": "https://dc.lft.to/lastmile_qr_scan", "ios": "https://dc.lft.to/lastmile_qr_scan"}, "name": "19970dee22f2b183cdb1b9262ef3b345", "type": "electric_scooter"}, {"fusion_lat": 0.0, "bike_id": "c8126c04a5983005de6fc873b120c2c7", "fusion_lon": 0.0, "lon": -76.98906616666666, "lat": 38.8666525, "is_reserved": 0, "is_disabled": 0, "rental_uris": {"android": "https://dc.lft.to/lastmile_qr_scan", "ios": "https://dc.lft.to/lastmile_qr_scan"}, "name": "c8126c04a5983005de6fc873b120c2c7", "type": "electric_scooter"}, {"fusion_lat": 0.0, "bike_id": "b859d306cac5cf69eee043d54bfe2b77", "fusion_lon": 0.0, "lon": -77.046506, "lat": 38.898245, "is_reserved": 0, "is_disabled": 0, "rental_uris": {"android": "https://dc.lft.to/lastmile_qr_scan", "ios": "https://dc.lft.to/lastmile_qr_scan"}, "name": "b859d306cac5cf69eee043d54bfe2b77", "type": "electric_scooter"}, {"fusion_lat": 0.0, "bike_id": "68bcb155bcacc9611f9083caa3b8f328", "fusion_lon": 0.0, "lon": -77.02799566666667, "lat": 38.893905, "is_reserved": 0, "is_disabled": 0, "rental_uris": {"android": "https://dc.lft.to/lastmile_qr_scan", "ios": "https://dc.lft.to/lastmile_qr_scan"}, "name": "68bcb155bcacc9611f9083caa3b8f328", "type": "electric_scooter"}, {"fusion_lat": 0.0, "bike_id": "fe385e1a3516a21e7db16407382779b9", "fusion_lon": 0.0, "lon": -77.01783866666666, "lat": 38.884039, "is_reserved": 0, "is_disabled": 0, "rental_uris": {"android": "https://dc.lft.to/lastmile_qr_scan", "ios": "https://dc.lft.to/lastmile_qr_scan"}, "name": "fe385e1a3516a21e7db16407382779b9", "type": "electric_scooter"}, {"fusion_lat": 0.0, "bike_id": "61b9ecc35f26afb5e694320111a3c120", "fusion_lon": 0.0, "lon": -77.0218025, "lat": 38.88722466666667, "is_reserved": 0, "is_disabled": 0, "rental_uris": {"android": "https://dc.lft.to/lastmile_qr_scan", "ios": "https://dc.lft.to/lastmile_qr_scan"}, "name": "61b9ecc35f26afb5e694320111a3c120", "type": "electric_scooter"}, {"fusion_lat": 0.0, "bike_id": "b758af5a2e48fb5c636dbf15886548ad", "fusion_lon": 0.0, "lon": -77.01505716666667, "lat": 38.888723, "is_reserved": 0, "is_disabled": 0, "rental_uris": {"android": "https://dc.lft.to/lastmile_qr_scan", "ios": "https://dc.lft.to/lastmile_qr_scan"}, "name": "b758af5a2e48fb5c636dbf15886548ad", "type": "electric_scooter"}, {"fusion_lat": 0.0, "bike_id": "6fec5d47526a836c582a19cd80d93238", "fusion_lon": 0.0, "lon": -77.05661316666666, "lat": 38.8954475, "is_reserved": 0, "is_disabled": 0, "rental_uris": {"android": "https://dc.lft.to/lastmile_qr_scan", "ios": "https://dc.lft.to/lastmile_qr_scan"}, "name": "6fec5d47526a836c582a19cd80d93238", "type": "electric_scooter"}, {"fusion_lat": 0.0, "bike_id": "14eaa513bda29d045f0647c30294adea", "fusion_lon": 0.0, "lon": -77.04876933333334, "lat": 38.8923195, "is_reserved": 0, "is_disabled": 0, "rental_uris": {"android": "https://dc.lft.to/lastmile_qr_scan", "ios": "https://dc.lft.to/lastmile_qr_scan"}, "name": "14eaa513bda29d045f0647c30294adea", "type": "electric_scooter"}, {"fusion_lat": 0.0, "bike_id": "1217eca8087ebd070261c6ac18de8b0b", "fusion_lon": 0.0, "lon": -77.04003733333333, "lat": 38.9181205, "is_reserved": 0, "is_disabled": 0, "rental_uris": {"android": "https://dc.lft.to/lastmile_qr_scan", "ios": "https://dc.lft.to/lastmile_qr_scan"}, "name": "1217eca8087ebd070261c6ac18de8b0b", "type": "electric_scooter"}, {"fusion_lat": 0.0, "bike_id": "e94ec263379ec9e494f090d35b5f0489", "fusion_lon": 0.0, "lon": -77.0230615, "lat": 38.90894433333333, "is_reserved": 0, "is_disabled": 0, "rental_uris": {"android": "https://dc.lft.to/lastmile_qr_scan", "ios": "https://dc.lft.to/lastmile_qr_scan"}, "name": "e94ec263379ec9e494f090d35b5f0489", "type": "electric_scooter"}, {"fusion_lat": 0.0, "bike_id": "a54e4669fbe5de8dc7e1e5e7f17216b3", "fusion_lon": 0.0, "lon": -77.06096366666667, "lat": 38.90526716666667, "is_reserved": 0, "is_disabled": 0, "rental_uris": {"android": "https://dc.lft.to/lastmile_qr_scan", "ios": "https://dc.lft.to/lastmile_qr_scan"}, "name": "a54e4669fbe5de8dc7e1e5e7f17216b3", "type": "electric_scooter"}, {"fusion_lat": 0.0, "bike_id": "59589a9af07414b1a6f4215d565ee749", "fusion_lon": 0.0, "lon": -77.031751, "lat": 38.91924266666667, "is_reserved": 0, "is_disabled": 0, "rental_uris": {"android": "https://dc.lft.to/lastmile_qr_scan", "ios": "https://dc.lft.to/lastmile_qr_scan"}, "name": "59589a9af07414b1a6f4215d565ee749", "type": "electric_scooter"}, {"fusion_lat": 0.0, "bike_id": "6dfeb37b9c46d31092a0341b45deddb7", "fusion_lon": 0.0, "lon": -77.02067966666667, "lat": 38.9270155, "is_reserved": 0, "is_disabled": 0, "rental_uris": {"android": "https://dc.lft.to/lastmile_qr_scan", "ios": "https://dc.lft.to/lastmile_qr_scan"}, "name": "6dfeb37b9c46d31092a0341b45deddb7", "type": "electric_scooter"}, {"fusion_lat": 0.0, "bike_id": "6b7cd285584370f6ef3c402b352ce47c", "fusion_lon": 0.0, "lon": -77.22586816666667, "lat": 38.9295415, "is_reserved": 0, "is_disabled": 0, "rental_uris": {"android": "https://dc.lft.to/lastmile_qr_scan", "ios": "https://dc.lft.to/lastmile_qr_scan"}, "name": "6b7cd285584370f6ef3c402b352ce47c", "type": "electric_bike"}, {"fusion_lat": 0.0, "bike_id": "2a185993882dec3b678758437635e264", "fusion_lon": 0.0, "lon": -77.031827, "lat": 38.910682666666666, "is_reserved": 0, "is_disabled": 0, "rental_uris": {"android": "https://dc.lft.to/lastmile_qr_scan", "ios": "https://dc.lft.to/lastmile_qr_scan"}, "name": "2a185993882dec3b678758437635e264", "type": "electric_scooter"}, {"fusion_lat": 0.0, "bike_id": "77ff9525c045bee5838f36dbe64491b8", "fusion_lon": 0.0, "lon": -76.99481333333334, "lat": 38.886087833333335, "is_reserved": 0, "is_disabled": 0, "rental_uris": {"android": "https://dc.lft.to/lastmile_qr_scan", "ios": "https://dc.lft.to/lastmile_qr_scan"}, "name": "77ff9525c045bee5838f36dbe64491b8", "type": "electric_scooter"}, {"fusion_lat": 0.0, "bike_id": "d7599fce2501e1a4fa2254d1e8c104fa", "fusion_lon": 0.0, "lon": -76.97549933333333, "lat": 38.90319866666667, "is_reserved": 0, "is_disabled": 0, "rental_uris": {"android": "https://dc.lft.to/lastmile_qr_scan", "ios": "https://dc.lft.to/lastmile_qr_scan"}, "name": "d7599fce2501e1a4fa2254d1e8c104fa", "type": "electric_scooter"}, {"fusion_lat": 0.0, "bike_id": "48930ee806c085789fa52cd614e4e9c2", "fusion_lon": 0.0, "lon": -77.10540066666667, "lat": 38.85508433333333, "is_reserved": 0, "is_disabled": 0, "rental_uris": {"android": "https://dc.lft.to/lastmile_qr_scan", "ios": "https://dc.lft.to/lastmile_qr_scan"}, "name": "48930ee806c085789fa52cd614e4e9c2", "type": "electric_bike"}, {"fusion_lat": 0.0, "bike_id": "4b389d6a817c3254b0a86e981bda4f6f", "fusion_lon": 0.0, "lon": -76.9835345, "lat": 38.8876725, "is_reserved": 0, "is_disabled": 0, "rental_uris": {"android": "https://dc.lft.to/lastmile_qr_scan", "ios": "https://dc.lft.to/lastmile_qr_scan"}, "name": "4b389d6a817c3254b0a86e981bda4f6f", "type": "electric_scooter"}, {"fusion_lat": 0.0, "bike_id": "1b2804c1de26f066e137ee8d17ea7d9c", "fusion_lon": 0.0, "lon": -77.0219965, "lat": 38.90025583333333, "is_reserved": 0, "is_disabled": 0, "rental_uris": {"android": "https://dc.lft.to/lastmile_qr_scan", "ios": "https://dc.lft.to/lastmile_qr_scan"}, "name": "1b2804c1de26f066e137ee8d17ea7d9c", "type": "electric_scooter"}, {"fusion_lat": 0.0, "bike_id": "5e74106956d57729dcac09a252664501", "fusion_lon": 0.0, "lon": -77.0633915, "lat": 38.9068205, "is_reserved": 0, "is_disabled": 0, "rental_uris": {"android": "https://dc.lft.to/lastmile_qr_scan", "ios": "https://dc.lft.to/lastmile_qr_scan"}, "name": "5e74106956d57729dcac09a252664501", "type": "electric_scooter"}, {"fusion_lat": 0.0, "bike_id": "c7e2710616dc86ee2ebca6ccfafc122c", "fusion_lon": 0.0, "lon": -77.03498183333333, "lat": 38.937525666666666, "is_reserved": 0, "is_disabled": 0, "rental_uris": {"android": "https://dc.lft.to/lastmile_qr_scan", "ios": "https://dc.lft.to/lastmile_qr_scan"}, "name": "c7e2710616dc86ee2ebca6ccfafc122c", "type": "electric_scooter"}, {"fusion_lat": 0.0, "bike_id": "3b9a3108f39d00ea2a28404805911b8b", "fusion_lon": 0.0, "lon": -77.00448416666667, "lat": 38.876566833333335, "is_reserved": 0, "is_disabled": 0, "rental_uris": {"android": "https://dc.lft.to/lastmile_qr_scan", "ios": "https://dc.lft.to/lastmile_qr_scan"}, "name": "3b9a3108f39d00ea2a28404805911b8b", "type": "electric_scooter"}, {"fusion_lat": 0.0, "bike_id": "f2e121a71f0ce4edcc2c8769f82dca9c", "fusion_lon": 0.0, "lon": -77.03263166666666, "lat": 38.91559566666667, "is_reserved": 0, "is_disabled": 0, "rental_uris": {"android": "https://dc.lft.to/lastmile_qr_scan", "ios": "https://dc.lft.to/lastmile_qr_scan"}, "name": "f2e121a71f0ce4edcc2c8769f82dca9c", "type": "electric_scooter"}, {"fusion_lat": 0.0, "bike_id": "bb475cd0869a5d5b12b9b06eb1b76fa1", "fusion_lon": 0.0, "lon": -77.042691, "lat": 38.922454, "is_reserved": 0, "is_disabled": 0, "rental_uris": {"android": "https://dc.lft.to/lastmile_qr_scan", "ios": "https://dc.lft.to/lastmile_qr_scan"}, "name": "bb475cd0869a5d5b12b9b06eb1b76fa1", "type": "electric_scooter"}, {"fusion_lat": 0.0, "bike_id": "b50f40ba6cc2e96d6ab198e5364b2fcb", "fusion_lon": 0.0, "lon": -77.034298, "lat": 38.922413, "is_reserved": 0, "is_disabled": 0, "rental_uris": {"android": "https://dc.lft.to/lastmile_qr_scan", "ios": "https://dc.lft.to/lastmile_qr_scan"}, "name": "b50f40ba6cc2e96d6ab198e5364b2fcb", "type": "electric_scooter"}, {"fusion_lat": 0.0, "bike_id": "366cc483ae09892a075ea5501015841d", "fusion_lon": 0.0, "lon": -77.03843583333334, "lat": 38.9101365, "is_reserved": 0, "is_disabled": 0, "rental_uris": {"android": "https://dc.lft.to/lastmile_qr_scan", "ios": "https://dc.lft.to/lastmile_qr_scan"}, "name": "366cc483ae09892a075ea5501015841d", "type": "electric_scooter"}, {"fusion_lat": 0.0, "bike_id": "74803ddc84e1dac3cfbcdc40dadaf46a", "fusion_lon": 0.0, "lon": -76.9463505, "lat": 38.8983145, "is_reserved": 0, "is_disabled": 0, "rental_uris": {"android": "https://dc.lft.to/lastmile_qr_scan", "ios": "https://dc.lft.to/lastmile_qr_scan"}, "name": "74803ddc84e1dac3cfbcdc40dadaf46a", "type": "electric_scooter"}, {"fusion_lat": 0.0, "bike_id": "66175631981ffba71a88af6d1799f7ea", "fusion_lon": 0.0, "lon": -77.0283415, "lat": 38.887308833333336, "is_reserved": 0, "is_disabled": 0, "rental_uris": {"android": "https://dc.lft.to/lastmile_qr_scan", "ios": "https://dc.lft.to/lastmile_qr_scan"}, "name": "66175631981ffba71a88af6d1799f7ea", "type": "electric_scooter"}, {"fusion_lat": 0.0, "bike_id": "8a664612b98e086aa2890238ff29b2ba", "fusion_lon": 0.0, "lon": -76.97394533333333, "lat": 38.9055625, "is_reserved": 0, "is_disabled": 0, "rental_uris": {"android": "https://dc.lft.to/lastmile_qr_scan", "ios": "https://dc.lft.to/lastmile_qr_scan"}, "name": "8a664612b98e086aa2890238ff29b2ba", "type": "electric_scooter"}, {"fusion_lat": 0.0, "bike_id": "813ae045bba9c27ceb6c53f705358bfe", "fusion_lon": 0.0, "lon": -77.023037, "lat": 38.94088383333333, "is_reserved": 0, "is_disabled": 0, "rental_uris": {"android": "https://dc.lft.to/lastmile_qr_scan", "ios": "https://dc.lft.to/lastmile_qr_scan"}, "name": "813ae045bba9c27ceb6c53f705358bfe", "type": "electric_scooter"}, {"fusion_lat": 0.0, "bike_id": "67349c16f5793be2afbb639e6429035f", "fusion_lon": 0.0, "lon": -77.03180933333333, "lat": 38.902973833333334, "is_reserved": 0, "is_disabled": 0, "rental_uris": {"android": "https://dc.lft.to/lastmile_qr_scan", "ios": "https://dc.lft.to/lastmile_qr_scan"}, "name": "67349c16f5793be2afbb639e6429035f", "type": "electric_scooter"}, {"fusion_lat": 0.0, "bike_id": "8eebe53338b65eee5e7f40fd0097e677", "fusion_lon": 0.0, "lon": -77.0335015, "lat": 38.924351333333334, "is_reserved": 0, "is_disabled": 0, "rental_uris": {"android": "https://dc.lft.to/lastmile_qr_scan", "ios": "https://dc.lft.to/lastmile_qr_scan"}, "name": "8eebe53338b65eee5e7f40fd0097e677", "type": "electric_scooter"}, {"fusion_lat": 0.0, "bike_id": "c5d8afaab5762491fc932276fd2f66b3", "fusion_lon": 0.0, "lon": -77.0406425, "lat": 38.909669666666666, "is_reserved": 0, "is_disabled": 0, "rental_uris": {"android": "https://dc.lft.to/lastmile_qr_scan", "ios": "https://dc.lft.to/lastmile_qr_scan"}, "name": "c5d8afaab5762491fc932276fd2f66b3", "type": "electric_scooter"}, {"fusion_lat": 0.0, "bike_id": "e29d0641c3a8e3df2025ecaab98deba8", "fusion_lon": 0.0, "lon": -77.03473783333334, "lat": 38.90865016666667, "is_reserved": 0, "is_disabled": 0, "rental_uris": {"android": "https://dc.lft.to/lastmile_qr_scan", "ios": "https://dc.lft.to/lastmile_qr_scan"}, "name": "e29d0641c3a8e3df2025ecaab98deba8", "type": "electric_scooter"}, {"fusion_lat": 0.0, "bike_id": "b339297d899fde0452bdc6204c489337", "fusion_lon": 0.0, "lon": -76.98932983333333, "lat": 38.901862, "is_reserved": 0, "is_disabled": 0, "rental_uris": {"android": "https://dc.lft.to/lastmile_qr_scan", "ios": "https://dc.lft.to/lastmile_qr_scan"}, "name": "b339297d899fde0452bdc6204c489337", "type": "electric_scooter"}, {"fusion_lat": 0.0, "bike_id": "d6835fcac963d3f3e1dfa2aa46e6ed62", "fusion_lon": 0.0, "lon": -77.050199, "lat": 38.90148933333333, "is_reserved": 0, "is_disabled": 0, "rental_uris": {"android": "https://dc.lft.to/lastmile_qr_scan", "ios": "https://dc.lft.to/lastmile_qr_scan"}, "name": "d6835fcac963d3f3e1dfa2aa46e6ed62", "type": "electric_scooter"}, {"fusion_lat": 0.0, "bike_id": "791d9890054bec15b5cbdc13cc5ab92b", "fusion_lon": 0.0, "lon": -77.03200883333334, "lat": 38.912495, "is_reserved": 0, "is_disabled": 0, "rental_uris": {"android": "https://dc.lft.to/lastmile_qr_scan", "ios": "https://dc.lft.to/lastmile_qr_scan"}, "name": "791d9890054bec15b5cbdc13cc5ab92b", "type": "electric_scooter"}, {"fusion_lat": 0.0, "bike_id": "cb71a33f7b04da631dde27c889ed1ceb", "fusion_lon": 0.0, "lon": -77.06903533333333, "lat": 38.90401683333333, "is_reserved": 0, "is_disabled": 0, "rental_uris": {"android": "https://dc.lft.to/lastmile_qr_scan", "ios": "https://dc.lft.to/lastmile_qr_scan"}, "name": "cb71a33f7b04da631dde27c889ed1ceb", "type": "electric_bike"}, {"fusion_lat": 0.0, "bike_id": "7db97b597e72269e1989e496d146f18d", "fusion_lon": 0.0, "lon": -77.00649333333334, "lat": 38.871605833333334, "is_reserved": 0, "is_disabled": 0, "rental_uris": {"android": "https://dc.lft.to/lastmile_qr_scan", "ios": "https://dc.lft.to/lastmile_qr_scan"}, "name": "7db97b597e72269e1989e496d146f18d", "type": "electric_scooter"}, {"fusion_lat": 0.0, "bike_id": "14279e91c66c804bab2b8afc1e5dd8aa", "fusion_lon": 0.0, "lon": -76.99367883333333, "lat": 38.86147533333333, "is_reserved": 0, "is_disabled": 0, "rental_uris": {"android": "https://dc.lft.to/lastmile_qr_scan", "ios": "https://dc.lft.to/lastmile_qr_scan"}, "name": "14279e91c66c804bab2b8afc1e5dd8aa", "type": "electric_scooter"},