{"data": {"bikes": [{"bike_id": "195e188464fd3bdb876ead3d531031af", "name": "195e188464fd3bdb876ead3d531031af", "lat": 38.93003183333333, "fusion_lat": 0.0, "type": "electric_scooter", "lon": -77.03277633333333, "is_disabled": 0, "fusion_lon": 0.0, "rental_uris": {"android": "https://dc.lft.to/lastmile_qr_scan", "ios": "https://dc.lft.to/lastmile_qr_scan"}, "is_reserved": 0}, {"bike_id": "b9d7631735c292fa4301b5560b57505a", "name": "b9d7631735c292fa4301b5560b57505a", "lat": 38.99996683333333, "fusion_lat": 0.0, "type": "electric_bike", "lon": -76.9181015, "is_disabled": 0, "fusion_lon": 0.0, "rental_uris": {"android": "https://dc.lft.to/lastmile_qr_scan", "ios": "https://dc.lft.to/lastmile_qr_scan"}, "is_reserved": 0}, {"bike_id": "c6f2afede0c83ee87a50431d41053b12", "name": "c6f2afede0c83ee87a50431d41053b12", "lat": 39.010919666666666, "fusion_lat": 0.0, "type": "electric_bike", "lon": -77.049598, "is_disabled": 0, "fusion_lon": 0.0, "rental_uris": {"android": "https://dc.lft.to/lastmile_qr_scan", "ios": "https://dc.lft.to/lastmile_qr_scan"}, "is_reserved": 0}, {"bike_id": "22fef71b5a90508b06ed4105791c01f8", "name": "22fef71b5a90508b06ed4105791c01f8", "lat": 38.862841833333334, "fusion_lat": 0.0, "type": "electric_bike", "lon": -76.9801075, "is_disabled": 0, "fusion_lon": 0.0, "rental_uris": {"android": "https://dc.lft.to/lastmile_qr_scan", "ios": "https://dc.lft.to/lastmile_qr_scan"}, "is_reserved": 0}, {"bike_id": "938e527b4cf6e9ccb84ce939c3bf5add", "name": "938e527b4cf6e9ccb84ce939c3bf5add", "lat": 38.9243265, "fusion_lat": 0.0, "type": "electric_scooter", "lon": -76.9966755, "is_disabled": 0, "fusion_lon": 0.0, "rental_uris": {"android": "https://dc.lft.to/lastmile_qr_scan", "ios": "https://dc.lft.to/lastmile_qr_scan"}, "is_reserved": 0}, {"bike_id": "30b2e760b78d997f3b0f1a345acc6f55", "name": "30b2e760b78d997f3b0f1a345acc6f55", "lat": 38.918734666666666, "fusion_lat": 0.0, "type": "electric_scooter", "lon": -77.0350415, "is_disabled": 0, "fusion_lon": 0.0, "rental_uris": {"android": "https://dc.lft.to/lastmile_qr_scan", "ios": "https://dc.lft.to/lastmile_qr_scan"}, "is_reserved": 0}, {"bike_id": "4a174e8682d6a5e91cdaf4d9ab0664fa", "name": "4a174e8682d6a5e91cdaf4d9ab0664fa", "lat": 38.924632333333335, "fusion_lat": 0.0, "type": "electric_scooter", "lon": -77.02271683333333, "is_disabled": 0, "fusion_lon": 0.0, "rental_uris": {"android": "https://dc.lft.to/lastmile_qr_scan", "ios": "https://dc.lft.to/lastmile_qr_scan"}, "is_reserved": 0}, {"bike_id": "bda1a4d3415159cb2391aaa1eea1a571", "name": "bda1a4d3415159cb2391aaa1eea1a571", "lat": 38.89808983333333, "fusion_lat": 0.0, "type": "electric_scooter", "lon": -77.04891433333333, "is_disabled": 0, "fusion_lon": 0.0, "rental_uris": {"android": "https://dc.lft.to/lastmile_qr_scan", "ios": "https://dc.lft.to/lastmile_qr_scan"}, "is_reserved": 0}, {"bike_id": "d32cc1770d6cafebe086a349a96d1f7a", "name": "d32cc1770d6cafebe086a349a96d1f7a", "lat": 38.857819666666664, "fusion_lat": 0.0, "type": "electric_bike", "lon": -76.98760216666666, "is_disabled": 0, "fusion_lon": 0.0, "rental_uris": {"android": "https://dc.lft.to/lastmile_qr_scan", "ios": "https://dc.lft.to/lastmile_qr_scan"}, "is_reserved": 0}, {"bike_id": "90fbcb3c0926043d6b624dac7447c83f", "name": "90fbcb3c0926043d6b624dac7447c83f", "lat": 38.916657666666666, "fusion_lat": 0.0, "type": "electric_scooter", "lon": -77.02963033333333, "is_disabled": 0, "fusion_lon": 0.0, "rental_uris": {"android": "https://dc.lft.to/lastmile_qr_scan", "ios": "https://dc.lft.to/lastmile_qr_scan"}, "is_reserved": 0}, {"bike_id": "4ec42247062ca82a12d04f600e6c4ded", "name": "4ec42247062ca82a12d04f600e6c4ded", "lat": 38.9009275, "fusion_lat": 0.0, "type": "electric_scooter", "lon": -77.03465833333334, "is_disabled": 0, "fusion_lon": 0.0, "rental_uris": {"android": "https://dc.lft.to/lastmile_qr_scan", "ios": "https://dc.lft.to/lastmile_qr_scan"}, "is_reserved": 0}, {"bike_id": "46123d2a0f04265022a201e441aefa9c", "name": "46123d2a0f04265022a201e441aefa9c", "lat": 38.9733715, "fusion_lat": 0.0, "type": "electric_bike", "lon": -76.99577016666667, "is_disabled": 0, "fusion_lon": 0.0, "rental_uris": {"android": "https://dc.lft.to/lastmile_qr_scan", "ios": "https://dc.lft.to/lastmile_qr_scan"}, "is_reserved": 0}, {"bike_id": "e9f6ffbd91ea4a650e96c058ce622682", "name": "e9f6ffbd91ea4a650e96c058ce622682", "lat": 38.923974333333334, "fusion_lat": 0.0, "type": "electric_scooter", "lon": -76.9939225, "is_disabled": 0, "fusion_lon": 0.0, "rental_uris": {"android": "https://dc.lft.to/lastmile_qr_scan", "ios": "https://dc.lft.to/lastmile_qr_scan"}, "is_reserved": 0}, {"bike_id": "d8a29a534ba314ef86d895543e342f1a", "name": "d8a29a534ba314ef86d895543e342f1a", "lat": 38.896187166666664, "fusion_lat": 0.0, "type": "electric_scooter", "lon": -77.016273, "is_disabled": 0, "fusion_lon": 0.0, "rental_uris": {"android": "https://dc.lft.to/lastmile_qr_scan", "ios": "https://dc.lft.to/lastmile_qr_scan"}, "is_reserved": 0}, {"bike_id": "f76b6c5e1d55fdc5362ceced3b7af49d", "name": "f76b6c5e1d55fdc5362ceced3b7af49d", "lat": 38.9294695, "fusion_lat": 0.0, "type": "electric_scooter", "lon": -77.03771416666666, "is_disabled": 0, "fusion_lon": 0.0, "rental_uris": {"android": "https://dc.lft.to/lastmile_qr_scan", "ios": "https://dc.lft.to/lastmile_qr_scan"}, "is_reserved": 0}, {"bike_id": "f15080c39165eb26cc1fac74e17473bc", "name": "f15080c39165eb26cc1fac74e17473bc", "lat": 38.91422033333333, "fusion_lat": 0.0, "type": "electric_scooter", "lon": -77.02201966666667, "is_disabled": 0, "fusion_lon": 0.0, "rental_uris": {"android": "https://dc.lft.to/lastmile_qr_scan", "ios": "https://dc.lft.to/lastmile_qr_scan"}, "is_reserved": 0}, {"bike_id": "d5506c4dc3fd754e3384964b3ac98018", "name": "d5506c4dc3fd754e3384964b3ac98018", "lat": 38.90139083333333, "fusion_lat": 0.0, "type": "electric_scooter", "lon": -77.04675766666666, "is_disabled": 0, "fusion_lon": 0.0, "rental_uris": {"android": "https://dc.lft.to/lastmile_qr_scan", "ios": "https://dc.lft.to/lastmile_qr_scan"}, "is_reserved": 0}, {"bike_id": "843f817409befa260ede65229b682ad6", "name": "843f817409befa260ede65229b682ad6", "lat": 38.92049933333333, "fusion_lat": 0.0, "type": "electric_scooter", "lon": -76.98431516666666, "is_disabled": 0, "fusion_lon": 0.0, "rental_uris": {"android": "https://dc.lft.to/lastmile_qr_scan", "ios": "https://dc.lft.to/lastmile_qr_scan"}, "is_reserved": 0}, {"bike_id": "fcb552c60e060b9d0318c62bb01f724e", "name": "fcb552c60e060b9d0318c62bb01f724e", "lat": 38.930309333333334, "fusion_lat": 0.0, "type": "electric_bike", "lon": -77.08308416666667, "is_disabled": 0, "fusion_lon": 0.0, "rental_uris": {"android": "https://dc.lft.to/lastmile_qr_scan", "ios": "https://dc.lft.to/lastmile_qr_scan"}, "is_reserved": 0}, {"bike_id": "b5f3ea2bddfd4e626ff708c54a2255d1", "name": "b5f3ea2bddfd4e626ff708c54a2255d1", "lat": 38.914003, "fusion_lat": 0.0, "type": "electric_scooter", "lon": -77.03904883333334, "is_disabled": 0, "fusion_lon": 0.0, "rental_uris": {"android": "https://dc.lft.to/lastmile_qr_scan", "ios": "https://dc.lft.to/lastmile_qr_scan"}, "is_reserved": 0}, {"bike_id": "f02e065ae031d5a92feffc98563a5b1a", "name": "f02e065ae031d5a92feffc98563a5b1a", "lat": 38.89822133333333, "fusion_lat": 0.0, "type": "electric_scooter", "lon": -77.02489066666666, "is_disabled": 0, "fusion_lon": 0.0, "rental_uris": {"android": "https://dc.lft.to/lastmile_qr_scan", "ios": "https://dc.lft.to/lastmile_qr_scan"}, "is_reserved": 0}, {"bike_id": "bc2d2db6d09e959280f9cdc2962bbff8", "name": "bc2d2db6d09e959280f9cdc2962bbff8", "lat": 38.973639666666664, "fusion_lat": 0.0, "type": "electric_scooter", "lon": -77.01865283333333, "is_disabled": 0, "fusion_lon": 0.0, "rental_uris": {"android": "https://dc.lft.to/lastmile_qr_scan", "ios": "https://dc.lft.to/lastmile_qr_scan"}, "is_reserved": 0}, {"bike_id": "92d35ae1414a64cf170e86ca409054a2", "name": "92d35ae1414a64cf170e86ca409054a2", "lat": 38.952116833333335, "fusion_lat": 0.0, "type": "electric_scooter", "lon": -77.01602483333333, "is_disabled": 0, "fusion_lon": 0.0, "rental_uris": {"android": "https://dc.lft.to/lastmile_qr_scan", "ios": "https://dc.lft.to/lastmile_qr_scan"}, "is_reserved": 0}, {"bike_id": "900144f1b5f7e19c1e7d335e7bb08930", "name": "900144f1b5f7e19c1e7d335e7bb08930", "lat": 39.042312833333334, "fusion_lat": 0.0, "type": "electric_bike", "lon": -76.99738550000001, "is_disabled": 0, "fusion_lon": 0.0, "rental_uris": {"android": "https://dc.lft.to/lastmile_qr_scan", "ios": "https://dc.lft.to/lastmile_qr_scan"}, "is_reserved": 0}, {"bike_id": "c3ac494f1af3a816d887a8785c449192", "name": "c3ac494f1af3a816d887a8785c449192", "lat": 38.91050416666667, "fusion_lat": 0.0, "type": "electric_scooter", "lon": -77.022119, "is_disabled": 0, "fusion_lon": 0.0, "rental_uris": {"android": "https://dc.lft.to/lastmile_qr_scan", "ios": "https://dc.lft.to/lastmile_qr_scan"}, "is_reserved": 0}, {"bike_id": "67e7ad76f8bcead0a61944fa2d9faeae", "name": "67e7ad76f8bcead0a61944fa2d9faeae", "lat": 38.93614216666667, "fusion_lat": 0.0, "type": "electric_scooter", "lon": -77.03219083333333, "is_disabled": 0, "fusion_lon": 0.0, "rental_uris": {"android": "https://dc.lft.to/lastmile_qr_scan", "ios": "https://dc.lft.to/lastmile_qr_scan"}, "is_reserved": 0}, {"bike_id": "8cf5604bf718d6581cc358579acfac8e", "name": "8cf5604bf718d6581cc358579acfac8e", "lat": 38.92403233333334, "fusion_lat": 0.0, "type": "electric_scooter", "lon": -77.01957716666666, "is_disabled": 0, "fusion_lon": 0.0, "rental_uris": {"android": "https://dc.lft.to/lastmile_qr_scan", "ios": "https://dc.lft.to/lastmile_qr_scan"}, "is_reserved": 0}, {"bike_id": "2769645158112301ae9f003e8fe19141", "name": "2769645158112301ae9f003e8fe19141", "lat": 38.91304733333333, "fusion_lat": 0.0, "type": "electric_scooter", "lon": -77.036519, "is_disabled": 0, "fusion_lon": 0.0, "rental_uris": {"android": "https://dc.lft.to/lastmile_qr_scan", "ios": "https://dc.lft.to/lastmile_qr_scan"}, "is_reserved": 0}, {"bike_id": "77236227a3a5e4f2f62065e106e8a8f1", "name": "77236227a3a5e4f2f62065e106e8a8f1", "lat": 38.91933933333333, "fusion_lat": 0.0, "type": "electric_scooter", "lon": -77.0489555, "is_disabled": 0, "fusion_lon": 0.0, "rental_uris": {"android": "https://dc.lft.to/lastmile_qr_scan", "ios": "https://dc.lft.to/lastmile_qr_scan"}, "is_reserved": 0}, {"bike_id": "001fe2f6ddd439665c54577d4e18cde1", "name": "001fe2f6ddd439665c54577d4e18cde1", "lat": 38.92036733333333, "fusion_lat": 0.0, "type": "electric_scooter", "lon": -77.030726, "is_disabled": 0, "fusion_lon": 0.0, "rental_uris": {"android": "https://dc.lft.to/lastmile_qr_scan", "ios": "https://dc.lft.to/lastmile_qr_scan"}, "is_reserved": 0}, {"bike_id": "6e3450138fcd963310b27d23c26f49d9", "name": "6e3450138fcd963310b27d23c26f49d9", "lat": 38.93563533333333, "fusion_lat": 0.0, "type": "electric_scooter", "lon": -77.03253983333333, "is_disabled": 0, "fusion_lon": 0.0, "rental_uris": {"android": "https://dc.lft.to/lastmile_qr_scan", "ios": "https://dc.lft.to/lastmile_qr_scan"}, "is_reserved": 0}, {"bike_id": "ff156f1c3a6276ea2f75e98d2580ed7c", "name": "ff156f1c3a6276ea2f75e98d2580ed7c", "lat": 38.85223766666667, "fusion_lat": 0.0, "type": "electric_scooter", "lon": -76.99422516666667, "is_disabled": 0, "fusion_lon": 0.0, "rental_uris": {"android": "https://dc.lft.to/lastmile_qr_scan", "ios": "https://dc.lft.to/lastmile_qr_scan"}, "is_reserved": 0}, {"bike_id": "aef2c093b66f5795094f6e15b75a3315", "name": "aef2c093b66f5795094f6e15b75a3315", "lat": 38.899037166666666, "fusion_lat": 0.0, "type": "electric_scooter", "lon": -76.9857535, "is_disabled": 0, "fusion_lon": 0.0, "rental_uris": {"android": "https://dc.lft.to/lastmile_qr_scan", "ios": "https://dc.lft.to/lastmile_qr_scan"}, "is_reserved": 0}, {"bike_id": "a92ec149dc8a2dd57df38d3b5f774447", "name": "a92ec149dc8a2dd57df38d3b5f774447", "lat": 38.9161545, "fusion_lat": 0.0, "type": "electric_scooter", "lon": -77.04484233333334, "is_disabled": 0, "fusion_lon": 0.0, "rental_uris": {"android": "https://dc.lft.to/lastmile_qr_scan", "ios": "https://dc.lft.to/lastmile_qr_scan"}, "is_reserved": 0}, {"bike_id": "bd2533667fc00789ff49e31b4ddf5e55", "name": "bd2533667fc00789ff49e31b4ddf5e55", "lat": 38.87657, "fusion_lat": 0.0, "type": "electric_scooter", "lon": -76.99323783333334, "is_disabled": 0, "fusion_lon": 0.0, "rental_uris": {"android": "https://dc.lft.to/lastmile_qr_scan", "ios": "https://dc.lft.to/lastmile_qr_scan"}, "is_reserved": 0}, {"bike_id": "825c1b29e342a7527b7b1b922e50d5ac", "name": "825c1b29e342a7527b7b1b922e50d5ac", "lat": 38.90411116666667, "fusion_lat": 0.0, "type": "electric_scooter", "lon": -76.97330466666666, "is_disabled": 0, "fusion_lon": 0.0, "rental_uris": {"android": "https://dc.lft.to/lastmile_qr_scan", "ios": "https://dc.lft.to/lastmile_qr_scan"}, "is_reserved": 0}, {"bike_id": "21fd80f10f9ba06bf4cd62f5c58625bb", "name": "21fd80f10f9ba06bf4cd62f5c58625bb", "lat": 38.91156466666666, "fusion_lat": 0.0, "type": "electric_scooter", "lon": -77.0228995, "is_disabled": 0, "fusion_lon": 0.0, "rental_uris": {"android": "https://dc.lft.to/lastmile_qr_scan", "ios": "https://dc.lft.to/lastmile_qr_scan"}, "is_reserved": 0}, {"bike_id": "015a240b1498c06124f34bf8c51b742e", "name": "015a240b1498c06124f34bf8c51b742e", "lat": 38.930449333333335, "fusion_lat": 0.0, "type": "electric_scooter", "lon": -76.95836733333333, "is_disabled": 0, "fusion_lon": 0.0, "rental_uris": {"android": "https://dc.lft.to/lastmile_qr_scan", "ios": "https://dc.lft.to/lastmile_qr_scan"}, "is_reserved": 0}, {"bike_id": "72122137892a199c792139b04ffad72a", "name": "72122137892a199c792139b04ffad72a", "lat": 38.921325, "fusion_lat": 0.0, "type": "electric_scooter", "lon": -77.0366365, "is_disabled": 0, "fusion_lon": 0.0, "rental_uris": {"android": "https://dc.lft.to/lastmile_qr_scan", "ios": "https://dc.lft.to/lastmile_qr_scan"}, "is_reserved": 0}, {"bike_id": "2cf107f02f9fc613ef725def7cf900dd", "name": "2cf107f02f9fc613ef725def7cf900dd", "lat": 38.920792166666665, "fusion_lat": 0.0, "type": "electric_scooter", "lon": -77.0356535, "is_disabled": 0, "fusion_lon": 0.0, "rental_uris": {"android": "https://dc.lft.to/lastmile_qr_scan", "ios": "https://dc.lft.to/lastmile_qr_scan"}, "is_reserved": 0}, {"bike_id": "664e47973eda4935d9287d129ffb591b", "name": "664e47973eda4935d9287d129ffb591b", "lat": 38.91051783333333, "fusion_lat": 0.0, "type": "electric_scooter", "lon": -77.04091433333333, "is_disabled": 0, "fusion_lon": 0.0, "rental_uris": {"android": "https://dc.lft.to/lastmile_qr_scan", "ios": "https://dc.lft.to/lastmile_qr_scan"}, "is_reserved": 0}, {"bike_id": "5ebe855df6b028e504bfb8305b3a7178", "name": "5ebe855df6b028e504bfb8305b3a7178", "lat": 38.928070166666664, "fusion_lat": 0.0, "type": "electric_bike", "lon": -77.05380983333333, "is_disabled": 0, "fusion_lon": 0.0, "rental_uris": {"android": "https://dc.lft.to/lastmile_qr_scan", "ios": "https://dc.lft.to/lastmile_qr_scan"}, "is_reserved": 0}, {"bike_id": "a5658ebd04d8ac7cafaa7594f4b25461", "name": "a5658ebd04d8ac7cafaa7594f4b25461", "lat": 38.909774666666664, "fusion_lat": 0.0, "type": "electric_bike", "lon": -77.06484716666667, "is_disabled": 0, "fusion_lon": 0.0, "rental_uris": {"android": "https://dc.lft.to/lastmile_qr_scan", "ios": "https://dc.lft.to/lastmile_qr_scan"}, "is_reserved": 0}, {"bike_id": "257580b9952946e3a7a4cb6fa1471a01", "name": "257580b9952946e3a7a4cb6fa1471a01", "lat": 38.914099666666665, "fusion_lat": 0.0, "type": "electric_scooter", "lon": -77.03173816666667, "is_disabled": 0, "fusion_lon": 0.0, "rental_uris": {"android": "https://dc.lft.to/lastmile_qr_scan", "ios": "https://dc.lft.to/lastmile_qr_scan"}, "is_reserved": 0}, {"bike_id": "bffd17535130cc9321180e9e788d5fb3", "name": "bffd17535130cc9321180e9e788d5fb3", "lat": 38.9168985, "fusion_lat": 0.0, "type": "electric_scooter", "lon": -77.03495266666667, "is_disabled": 0, "fusion_lon": 0.0, "rental_uris": {"android": "https://dc.lft.to/lastmile_qr_scan", "ios": "https://dc.lft.to/lastmile_qr_scan"}, "is_reserved": 0}, {"bike_id": "b31165d68b1d1bb97fc311ae09f1fa09", "name": "b31165d68b1d1bb97fc311ae09f1fa09", "lat": 38.92753366666667, "fusion_lat": 0.0, "type": "electric_scooter", "lon": -77.02112266666667, "is_disabled": 0, "fusion_lon": 0.0, "rental_uris": {"android": "https://dc.lft.to/lastmile_qr_scan", "ios": "https://dc.lft.to/lastmile_qr_scan"}, "is_reserved": 0}, {"bike_id": "8a5e5e5d3472b2ba0157cb839a96270f", "name": "8a5e5e5d3472b2ba0157cb839a96270f", "lat": 38.8872445, "fusion_lat": 0.0, "type": "electric_scooter", "lon": -76.98379416666667, "is_disabled": 0, "fusion_lon": 0.0, "rental_uris": {"android": "https://dc.lft.to/lastmile_qr_scan", "ios": "https://dc.lft.to/lastmile_qr_scan"}, "is_reserved": 0}, {"bike_id": "53fbdcd457973a695376846f9b6fec84", "name": "53fbdcd457973a695376846f9b6fec84", "lat": 38.8957775, "fusion_lat": 0.0, "type": "electric_scooter", "lon": -77.0413965, "is_disabled": 0, "fusion_lon": 0.0, "rental_uris": {"android": "https://dc.lft.to/lastmile_qr_scan", "ios": "https://dc.lft.to/lastmile_qr_scan"}, "is_reserved": 0}, {"bike_id": "0d8bea1c7c23b623a84d15097473542f", "name": "0d8bea1c7c23b623a84d15097473542f", "lat": 38.90123966666667, "fusion_lat": 0.0, "type": "electric_scooter", "lon": -77.04361666666667, "is_disabled": 0, "fusion_lon": 0.0, "rental_uris": {"android": "https://dc.lft.to/lastmile_qr_scan", "ios": "https://dc.lft.to/lastmile_qr_scan"}, "is_reserved": 0}, {"bike_id": "d93e4f474bdb5f715ee356164301f058", "name": "d93e4f474bdb5f715ee356164301f058", "lat": 38.91858116666667, "fusion_lat": 0.0, "type": "electric_scooter", "lon": -77.035761, "is_disabled": 0, "fusion_lon": 0.0, "rental_uris": {"android": "https://dc.lft.to/lastmile_qr_scan", "ios": "https://dc.lft.to/lastmile_qr_scan"}, "is_reserved": 0}, {"bike_id": "5b6302a7aa112d39ad6255c85411e267", "name": "5b6302a7aa112d39ad6255c85411e267", "lat": 38.894470166666665, "fusion_lat": 0.0, "type": "electric_scooter", "lon": -77.04535116666666, "is_disabled": 0, "fusion_lon": 0.0, "rental_uris": {"android": "https://dc.lft.to/lastmile_qr_scan", "ios": "https://dc.lft.to/lastmile_qr_scan"}, "is_reserved": 0}, {"bike_id": "1fe7bdc6cd735aee3c05f4e650356f05", "name": "1fe7bdc6cd735aee3c05f4e650356f05", "lat": 38.905031666666666, "fusion_lat": 0.0, "type": "electric_scooter", "lon": -77.0364675, "is_disabled": 0, "fusion_lon": 0.0, "rental_uris": {"android": "https://dc.lft.to/lastmile_qr_scan", "ios": "https://dc.lft.to/lastmile_qr_scan"}, "is_reserved": 0}, {"bike_id": "faaa954ea561a02b6d1dbf464fd9e0fa", "name": "faaa954ea561a02b6d1dbf464fd9e0fa", "lat": 38.92463683333333, "fusion_lat": 0.0, "type": "electric_scooter", "lon": -77.02277966666666, "is_disabled": 0, "fusion_lon": 0.0, "rental_uris": {"android": "https://dc.lft.to/lastmile_qr_scan", "ios": "https://dc.lft.to/lastmile_qr_scan"}, "is_reserved": 0}, {"bike_id": "bce4ff0da051e359a0ed8a81b321a933", "name": "bce4ff0da051e359a0ed8a81b321a933", "lat": 38.9205155, "fusion_lat": 0.0, "type": "electric_scooter", "lon": -77.02982566666667, "is_disabled": 0, "fusion_lon": 0.0, "rental_uris": {"android": "https://dc.lft.to/lastmile_qr_scan", "ios": "https://dc.lft.to/lastmile_qr_scan"}, "is_reserved": 0}, {"bike_id": "8f0353b6691220c5f8127a7e180cb3d7", "name": "8f0353b6691220c5f8127a7e180cb3d7", "lat": 38.88234633333333, "fusion_lat": 0.0, "type": "electric_scooter", "lon": -76.99014816666667, "is_disabled": 0, "fusion_lon": 0.0, "rental_uris": {"android": "https://dc.lft.to/lastmile_qr_scan", "ios": "https://dc.lft.to/lastmile_qr_scan"}, "is_reserved": 0}, {"bike_id": "f904734846ec5e70508d2fe1c1bc2340", "name": "f904734846ec5e70508d2fe1c1bc2340", "lat": 38.8868225, "fusion_lat": 0.0, "type": "electric_scooter", "lon": -77.00350933333333, "is_disabled": 0, "fusion_lon": 0.0, "rental_uris": {"android": "https://dc.lft.to/lastmile_qr_scan", "ios": "https://dc.lft.to/lastmile_qr_scan"}, "is_reserved": 0}, {"bike_id": "c57c008f94739010ac7d72c26a3f553f", "name": "c57c008f94739010ac7d72c26a3f553f", "lat": 38.92479066666667, "fusion_lat": 0.0, "type": "electric_scooter", "lon": -77.02716416666667, "is_disabled": 0, "fusion_lon": 0.0, "rental_uris": {"android": "https://dc.lft.to/lastmile_qr_scan", "ios": "https://dc.lft.to/lastmile_qr_scan"}, "is_reserved": 0}, {"bike_id": "818c99ead28525e37e592da6f2bea63e", "name": "818c99ead28525e37e592da6f2bea63e", "lat": 38.89678766666667, "fusion_lat": 0.0, "type": "electric_scooter", "lon": -77.00505266666667, "is_disabled": 0, "fusion_lon": 0.0, "rental_uris": {"android": "https://dc.lft.to/lastmile_qr_scan", "ios": "https://dc.lft.to/lastmile_qr_scan"}, "is_reserved": 0}, {"bike_id": "5f21609bd8f29b039c7545aa0c9d07be", "name": "5f21609bd8f29b039c7545aa0c9d07be", "lat": 38.94729, "fusion_lat": 0.0, "type": "electric_scooter", "lon": -77.024607, "is_disabled": 0, "fusion_lon": 0.0, "rental_uris": {"android": "https://dc.lft.to/lastmile_qr_scan", "ios": "https://dc.lft.to/lastmile_qr_scan"}, "is_reserved": 0}, {"bike_id": "89ce6f6ea8d7dbbde7d563a086389ba7", "name": "89ce6f6ea8d7dbbde7d563a086389ba7", "lat": 38.9006595, "fusion_lat": 0.0, "type": "electric_scooter", "lon": -76.927431, "is_disabled": 0, "fusion_lon": 0.0, "rental_uris": {"android": "https://dc.lft.to/lastmile_qr_scan", "ios": "https://dc.lft.to/lastmile_qr_scan"}, "is_reserved": 0}, {"bike_id": "2e7fae5e6092f7439470aeaebf6682c3", "name": "2e7fae5e6092f7439470aeaebf6682c3", "lat": 38.9198925, "fusion_lat": 0.0, "type": "electric_scooter", "lon": -77.02179266666667, "is_disabled": 0, "fusion_lon": 0.0, "rental_uris": {"android": "https://dc.lft.to/lastmile_qr_scan", "ios": "https://dc.lft.to/lastmile_qr_scan"}, "is_reserved": 0}, {"bike_id": "5c40d18cd7156feba80ec143a559f4c7", "name": "5c40d18cd7156feba80ec143a559f4c7", "lat": 38.896021, "fusion_lat": 0.0, "type": "electric_scooter", "lon": -77.00925083333334, "is_disabled": 0, "fusion_lon": 0.0, "rental_uris": {"android": "https://dc.lft.to/lastmile_qr_scan", "ios": "https://dc.lft.to/lastmile_qr_scan"}, "is_reserved": 0}, {"bike_id": "91f335c4f2554f02557b7224b49faf8a", "name": "91f335c4f2554f02557b7224b49faf8a", "lat": 38.928647166666664, "fusion_lat": 0.0, "type": "electric_scooter", "lon": -77.02713233333333, "is_disabled": 0, "fusion_lon": 0.0, "rental_uris": {"android": "https://dc.lft.to/lastmile_qr_scan", "ios": "https://dc.lft.to/lastmile_qr_scan"}, "is_reserved": 0}, {"bike_id": "903b65fd000be9e9e6eef4b46a9cdf25", "name": "903b65fd000be9e9e6eef4b46a9cdf25", "lat": 38.919499, "fusion_lat": 0.0, "type": "electric_scooter", "lon": -76.99197266666667, "is_disabled": 0, "fusion_lon": 0.0, "rental_uris": {"android": "https://dc.lft.to/lastmile_qr_scan", "ios": "https://dc.lft.to/lastmile_qr_scan"}, "is_reserved": 0}, {"bike_id": "15d2835d6c890691ed7a3a513f5a85bb", "name": "15d2835d6c890691ed7a3a513f5a85bb", "lat": 38.91693933333333, "fusion_lat": 0.0, "type": "electric_scooter", "lon": -77.03771566666667, "is_disabled": 0, "fusion_lon": 0.0, "rental_uris": {"android": "https://dc.lft.to/lastmile_qr_scan", "ios": "https://dc.lft.to/lastmile_qr_scan"}, "is_reserved": 0}, {"bike_id": "5fe77475ab5aa45c07bbf8b7d7d8f648", "name": "5fe77475ab5aa45c07bbf8b7d7d8f648", "lat": 38.806368, "fusion_lat": 0.0, "type": "electric_bike", "lon": -77.06257016666666, "is_disabled": 0, "fusion_lon": 0.0, "rental_uris": {"android": "https://dc.lft.to/lastmile_qr_scan", "ios": "https://dc.lft.to/lastmile_qr_scan"}, "is_reserved": 0}, {"bike_id": "440d10d4f560290129fe93cf39e07b12", "name": "440d10d4f560290129fe93cf39e07b12", "lat": 38.930820833333335, "fusion_lat": 0.0, "type": "electric_scooter", "lon": -77.03772283333333, "is_disabled": 0, "fusion_lon": 0.0, "rental_uris": {"android": "https://dc.lft.to/lastmile_qr_scan", "ios": "https://dc.lft.to/lastmile_qr_scan"}, "is_reserved": 0}, {"bike_id": "685fc7a78adf91d9c947bc06e30732b3", "name": "685fc7a78adf91d9c947bc06e30732b3", "lat": 38.908102166666666, "fusion_lat": 0.0, "type": "electric_scooter", "lon": -77.04294433333334, "is_disabled": 0, "fusion_lon": 0.0, "rental_uris": {"android": "https://dc.lft.to/lastmile_qr_scan", "ios": "https://dc.lft.to/lastmile_qr_scan"}, "is_reserved": 0}, {"bike_id": "8bca63bd09aa00f303ef1845f7fad4ac", "name": "8bca63bd09aa00f303ef1845f7fad4ac", "lat": 38.91883583333333, "fusion_lat": 0.0, "type": "electric_scooter", "lon": -77.03567716666667, "is_disabled": 0, "fusion_lon": 0.0, "rental_uris": {"android": "https://dc.lft.to/lastmile_qr_scan", "ios": "https://dc.lft.to/lastmile_qr_scan"}, "is_reserved": 0}, {"bike_id": "18638c6fd7684a69c67e5f4f6bc75833", "name": "18638c6fd7684a69c67e5f4f6bc75833", "lat": 38.946701166666664, "fusion_lat": 0.0, "type": "electric_bike", "lon": -76.99336233333334, "is_disabled": 0, "fusion_lon": 0.0, "rental_uris": {"android": "https://dc.lft.to/lastmile_qr_scan", "ios": "https://dc.lft.to/lastmile_qr_scan"}, "is_reserved": 0}, {"bike_id": "7808a981102f6114f147b7fcf20faa9b", "name": "7808a981102f6114f147b7fcf20faa9b", "lat": 38.89621016666667, "fusion_lat": 0.0, "type": "electric_scooter", "lon": -77.02611733333333, "is_disabled": 0, "fusion_lon": 0.0, "rental_uris": {"android": "https://dc.lft.to/lastmile_qr_scan", "ios": "https://dc.lft.to/lastmile_qr_scan"}, "is_reserved": 0}, {"bike_id": "0d63a698006c364669c41a1395a00d44", "name": "0d63a698006c364669c41a1395a00d44", "lat": 38.91864666666667, "fusion_lat": 0.0, "type": "electric_scooter", "lon": -77.01355183333334, "is_disabled": 0, "fusion_lon": 0.0, "rental_uris": {"android": "https://dc.lft.to/lastmile_qr_scan", "ios": "https://dc.lft.to/lastmile_qr_scan"}, "is_reserved": 0}, {"bike_id": "064b38c9d95a8fbc3b52435600c45445", "name": "064b38c9d95a8fbc3b52435600c45445", "lat": 38.90829316666667, "fusion_lat": 0.0, "type": "electric_scooter", "lon": -77.043178, "is_disabled": 0, "fusion_lon": 0.0, "rental_uris": {"android": "https://dc.lft.to/lastmile_qr_scan", "ios": "https://dc.lft.to/lastmile_qr_scan"}, "is_reserved": 0}, {"bike_id": "0a71218008d051efdc66e45caac8c04a", "name": "0a71218008d051efdc66e45caac8c04a", "lat": 38.8932305, "fusion_lat": 0.0, "type": "electric_scooter", "lon": -77.03193183333333, "is_disabled": 0, "fusion_lon": 0.0, "rental_uris": {"android": "https://dc.lft.to/lastmile_qr_scan", "ios": "https://dc.lft.to/lastmile_qr_scan"}, "is_reserved": 0}, {"bike_id": "d375a02f002bed707ef22af3d8b7d554", "name": "d375a02f002bed707ef22af3d8b7d554", "lat": 38.919783333333335, "fusion_lat": 0.0, "type": "electric_bike", "lon": -76.99996066666667, "is_disabled": 0, "fusion_lon": 0.0, "rental_uris": {"android": "https://dc.lft.to/lastmile_qr_scan", "ios": "https://dc.lft.to/lastmile_qr_scan"}, "is_reserved": 0}, {"bike_id": "1c18d9ca3e8694ee4836e4bd49fdf2c1", "name": "1c18d9ca3e8694ee4836e4bd49fdf2c1", "lat": 38.995342666666666, "fusion_lat": 0.0, "type": "electric_bike", "lon": -77.07452033333334, "is_disabled": 0, "fusion_lon": 0.0, "rental_uris": {"android": "https://dc.lft.to/lastmile_qr_scan", "ios": "https://dc.lft.to/lastmile_qr_scan"}, "is_reserved": 0}, {"bike_id": "479bba53882eb7c1bab66af85981412b", "name": "479bba53882eb7c1bab66af85981412b", "lat": 38.96648283333333, "fusion_lat": 0.0, "type": "electric_scooter", "lon": -77.00892933333333, "is_disabled": 0, "fusion_lon": 0.0, "rental_uris": {"android": "https://dc.lft.to/lastmile_qr_scan", "ios": "https://dc.lft.to/lastmile_qr_scan"}, "is_reserved": 0}, {"bike_id": "531fd4dc6dc8cb6f2569a92cf2274520", "name": "531fd4dc6dc8cb6f2569a92cf2274520", "lat": 38.95250566666667, "fusion_lat": 0.0, "type": "electric_scooter", "lon": -77.02397983333333, "is_disabled": 0, "fusion_lon": 0.0, "rental_uris": {"android": "https://dc.lft.to/lastmile_qr_scan", "ios": "https://dc.lft.to/lastmile_qr_scan"}, "is_reserved": 0}, {"bike_id": "a35dbaad17ebf3ddb08416b9f2738f75", "name": "a35dbaad17ebf3ddb08416b9f2738f75", "lat": 38.899915666666665, "fusion_lat": 0.0, "type": "electric_scooter", "lon": -76.999481, "is_disabled": 0, "fusion_lon": 0.0, "rental_uris": {"android": "https://dc.lft.to/lastmile_qr_scan", "ios": "https://dc.lft.to/lastmile_qr_scan"}, "is_reserved": 0}, {"bike_id": "6e88a27f5de536a16eec32b9b305a640", "name": "6e88a27f5de536a16eec32b9b305a640", "lat": 38.9261115, "fusion_lat": 0.0, "type": "electric_scooter", "lon": -77.02162616666666, "is_disabled": 0, "fusion_lon": 0.0, "rental_uris": {"android": "https://dc.lft.to/lastmile_qr_scan", "ios": "https://dc.lft.to/lastmile_qr_scan"}, "is_reserved": 0}, {"bike_id": "772afb6c822b05b5842c9d486a826bd7", "name": "772afb6c822b05b5842c9d486a826bd7", "lat": 38.90560833333333, "fusion_lat": 0.0, "type": "electric_scooter", "lon": -77.04566316666667, "is_disabled": 0, "fusion_lon": 0.0, "rental_uris": {"android": "https://dc.lft.to/lastmile_qr_scan", "ios": "https://dc.lft.to/lastmile_qr_scan"}, "is_reserved": 0}, {"bike_id": "82c2c47e148e91593e340f64628d1283", "name": "82c2c47e148e91593e340f64628d1283", "lat": 38.886061, "fusion_lat": 0.0, "type": "electric_scooter", "lon": -77.04514333333333, "is_disabled": 0, "fusion_lon": 0.0, "rental_uris": {"android": "https://dc.lft.to/lastmile_qr_scan", "ios": "https://dc.lft.to/lastmile_qr_scan"}, "is_reserved": 0}, {"bike_id": "75130b181fdc74568706096f20ab5afc", "name": "75130b181fdc74568706096f20ab5afc", "lat": 38.93602083333333, "fusion_lat": 0.0, "type": "electric_scooter", "lon": -77.05865, "is_disabled": 0, "fusion_lon": 0.0, "rental_uris": {"android": "https://dc.lft.to/lastmile_qr_scan", "ios": "https://dc.lft.to/lastmile_qr_scan"}, "is_reserved": 0}, {"bike_id": "3568ec3a25affc2106428b8e77e6b9b1", "name": "3568ec3a25affc2106428b8e77e6b9b1", "lat": 38.916866166666665, "fusion_lat": 0.0, "type": "electric_scooter", "lon": -77.03896816666666, "is_disabled": 0, "fusion_lon": 0.0, "rental_uris": {"android": "https://dc.lft.to/lastmile_qr_scan", "ios": "https://dc.lft.to/lastmile_qr_scan"}, "is_reserved": 0}, {"bike_id": "7e4269f8637b081cdba9eb5595a30068", "name": "7e4269f8637b081cdba9eb5595a30068", "lat": 38.9025265, "fusion_lat": 0.0, "type": "electric_scooter", "lon": -77.00217716666667, "is_disabled": 0, "fusion_lon": 0.0, "rental_uris": {"android": "https://dc.lft.to/lastmile_qr_scan", "ios": "https://dc.lft.to/lastmile_qr_scan"}, "is_reserved": 0}, {"bike_id": "b276597738485ffff05ae8f6f4bf7e2d", "name": "b276597738485ffff05ae8f6f4bf7e2d", "lat": 38.901620333333334, "fusion_lat": 0.0, "type": "electric_scooter", "lon": -76.930244, "is_disabled": 0, "fusion_lon": 0.0, "rental_uris": {"android": "https://dc.lft.to/lastmile_qr_scan", "ios": "https://dc.lft.to/lastmile_qr_scan"}, "is_reserved": 0}, {"bike_id": "e68be692cb502fb26e9c80d932a32705", "name": "e68be692cb502fb26e9c80d932a32705", "lat": 38.8883735, "fusion_lat": 0.0, "type": "electric_bike", "lon": -76.957413, "is_disabled": 0, "fusion_lon": 0.0, "rental_uris": {"android": "https://dc.lft.to/lastmile_qr_scan", "ios": "https://dc.lft.to/lastmile_qr_scan"}, "is_reserved": 0}, {"bike_id": "b23ce6fa8bc812ee6509f58a706346b7", "name": "b23ce6fa8bc812ee6509f58a706346b7", "lat": 38.913004, "fusion_lat": 0.0, "type": "electric_scooter", "lon": -77.02702666666667, "is_disabled": 0, "fusion_lon": 0.0, "rental_uris": {"android": "https://dc.lft.to/lastmile_qr_scan", "ios": "https://dc.lft.to/lastmile_qr_scan"}, "is_reserved": 0}, {"bike_id": "79a51f9f8015f1ee89a2cb3be233c24c", "name": "79a51f9f8015f1ee89a2cb3be233c24c", "lat": 38.8073085, "fusion_lat": 0.0, "type": "electric_bike", "lon": -76.9926075, "is_disabled": 0, "fusion_lon": 0.0, "rental_uris": {"android": "https://dc.lft.to/lastmile_qr_scan", "ios": "https://dc.lft.to/lastmile_qr_scan"}, "is_reserved": 0}, {"bike_id": "fdf354e848b867be6235d5b9ae6a2f1b", "name": "fdf354e848b867be6235d5b9ae6a2f1b", "lat": 38.91878916666667, "fusion_lat": 0.0, "type": "electric_scooter", "lon": -77.0271115, "is_disabled": 0, "fusion_lon": 0.0, "rental_uris": {"android": "https://dc.lft.to/lastmile_qr_scan", "ios": "https://dc.lft.to/lastmile_qr_scan"}, "is_reserved": 0}, {"bike_id": "c86b4af32a532f5952265089dca38905", "name": "c86b4af32a532f5952265089dca38905", "lat": 38.892303, "fusion_lat": 0.0, "type": "electric_scooter", "lon": -77.05005566666667, "is_disabled": 0, "fusion_lon": 0.0, "rental_uris": {"android": "https://dc.lft.to/lastmile_qr_scan", "ios": "https://dc.lft.to/lastmile_qr_scan"}, "is_reserved": 0}, {"bike_id": "0b4c2b8c112b411849e156ffc2d0006a", "name": "0b4c2b8c112b411849e156ffc2d0006a", "lat": 38.9158985, "fusion_lat": 0.0, "type": "electric_scooter", "lon": -77.03196416666667, "is_disabled": 0, "fusion_lon": 0.0, "rental_uris": {"android": "https://dc.lft.to/lastmile_qr_scan", "ios": "https://dc.lft.to/lastmile_qr_scan"}, "is_reserved": 0}, {"bike_id": "55f3f1af92d5655bb103440267ed095c", "name": "55f3f1af92d5655bb103440267ed095c", "lat": 38.92629483333333, "fusion_lat": 0.0, "type": "electric_scooter", "lon": -77.04252016666666, "is_disabled": 0, "fusion_lon": 0.0, "rental_uris": {"android": "https://dc.lft.to/lastmile_qr_scan", "ios": "https://dc.lft.to/lastmile_qr_scan"}, "is_reserved": 0}, {"bike_id": "c08da4b76222bf7625ab603b432c4218", "name": "c08da4b76222bf7625ab603b432c4218", "lat": 38.915721, "fusion_lat": 0.0, "type": "electric_scooter", "lon": -77.03195833333334, "is_disabled": 0, "fusion_lon": 0.0, "rental_uris": {"android": "https://dc.lft.to/lastmile_qr_scan", "ios": "https://dc.lft.to/lastmile_qr_scan"}, "is_reserved": 0}, {"bike_id": "b6a01d8afedb9131f17e31476e4fde36", "name": "b6a01d8afedb9131f17e31476e4fde36", "lat": 38.905884666666665, "fusion_lat": 0.0, "type": "electric_scooter", "lon": -77.0297225, "is_disabled": 0, "fusion_lon": 0.0, "rental_uris": {"android": "https://dc.lft.to/lastmile_qr_scan", "ios": "https://dc.lft.to/lastmile_qr_scan"}, "is_reserved": 0}, {"bike_id": "851ff6393274db127be3ff1abffd8dc9", "name": "851ff6393274db127be3ff1abffd8dc9", "lat": 38.924037166666665, "fusion_lat": 0.0, "type": "electric_scooter", "lon": -77.04266383333334, "is_disabled": 0, "fusion_lon": 0.0, "rental_uris": {"android": "https://dc.lft.to/lastmile_qr_scan", "ios": "https://dc.lft.to/lastmile_qr_scan"}, "is_reserved": 0}, {"bike_id": "fb26febdc8f19afa3ef512c3ef74919a", "name": "fb26febdc8f19afa3ef512c3ef74919a", "lat": 38.898848, "fusion_lat": 0.0, "type": "electric_scooter", "lon": -77.00736016666667, "is_disabled": 0, "fusion_lon": 0.0, "rental_uris": {"android": "https://dc.lft.to/lastmile_qr_scan", "ios": "https://dc.lft.to/lastmile_qr_scan"}, "is_reserved": 0}, {"bike_id": "a963e7ae7c26b5ff204b306109d982d8", "name": "a963e7ae7c26b5ff204b306109d982d8", "lat": 38.90897283333334, "fusion_lat": 0.0, "type": "electric_scooter", "lon": -76.99621383333333, "is_disabled": 0, "fusion_lon": 0.0, "rental_uris": {"android": "https://dc.lft.to/lastmile_qr_scan", "ios": "https://dc.lft.to/lastmile_qr_scan"}, "is_reserved": 0}, {"bike_id": "3208521f93c474ea3129ba74b799244a", "name": "3208521f93c474ea3129ba74b799244a", "lat": 38.943228833333336, "fusion_lat": 0.0, "type": "electric_scooter", "lon": -77.0125845, "is_disabled": 0, "fusion_lon": 0.0, "rental_uris": {"android": "https://dc.lft.to/lastmile_qr_scan", "ios": "https://dc.lft.to/lastmile_qr_scan"}, "is_reserved": 0}, {"bike_id": "14ff357bcf4fcd9be7cc2627b781d1a7", "name": "14ff357bcf4fcd9be7cc2627b781d1a7", "lat": 38.894402166666666, "fusion_lat": 0.0, "type": "electric_scooter", "lon": -77.02636516666666, "is_disabled": 0, "fusion_lon": 0.0, "rental_uris": {"android": "https://dc.lft.to/lastmile_qr_scan", "ios": "https://dc.lft.to/lastmile_qr_scan"}, "is_reserved": 0}, {"bike_id": "d8b5310f3cee662f07d46da07990fb15", "name": "d8b5310f3cee662f07d46da07990fb15", "lat": 38.965150333333334, "fusion_lat": 0.0, "type": "electric_scooter", "lon": -77.00198066666667, "is_disabled": 0, "fusion_lon": 0.0, "rental_uris": {"android": "https://dc.lft.to/lastmile_qr_scan", "ios": "https://dc.lft.to/lastmile_qr_scan"}, "is_reserved": 0}, {"bike_id": "827b3f575bb9203c2e262a18b2ae26b8", "name": "827b3f575bb9203c2e262a18b2ae26b8", "lat": 38.92137266666667, "fusion_lat": 0.0, "type": "electric_scooter", "lon": -77.01833333333333, "is_disabled": 0, "fusion_lon": 0.0, "rental_uris": {"android": "https://dc.lft.to/lastmile_qr_scan", "ios": "https://dc.lft.to/lastmile_qr_scan"}, "is_reserved": 0}, {"bike_id": "d1131a2496c3cbe7124cb508d9317681", "name": "d1131a2496c3cbe7124cb508d9317681", "lat": 38.924588166666666, "fusion_lat": 0.0, "type": "electric_scooter", "lon": -77.02968716666666, "is_disabled": 0, "fusion_lon": 0.0, "rental_uris": {"android": "https://dc.lft.to/lastmile_qr_scan", "ios": "https://dc.lft.to/lastmile_qr_scan"}, "is_reserved": 0}, {"bike_id": "ef1bc3b5677c6df538a7213450a36087", "name": "ef1bc3b5677c6df538a7213450a36087", "lat": 38.9667135, "fusion_lat": 0.0, "type": "electric_bike", "lon": -77.02306566666667, "is_disabled": 0, "fusion_lon": 0.0, "rental_uris": {"android": "https://dc.lft.to/lastmile_qr_scan", "ios": "https://dc.lft.to/lastmile_qr_scan"}, "is_reserved": 0}, {"bike_id": "5621609e180ddfc988febb32057383e9", "name": "5621609e180ddfc988febb32057383e9", "lat": 38.91250183333333, "fusion_lat": 0.0, "type": "electric_scooter", "lon": -77.02214966666666, "is_disabled": 0, "fusion_lon": 0.0, "rental_uris": {"android": "https://dc.lft.to/lastmile_qr_scan", "ios": "https://dc.lft.to/lastmile_qr_scan"}, "is_reserved": 0}, {"bike_id": "62c624a56f5d053ca0d56a0dce05ebc2", "name": "62c624a56f5d053ca0d56a0dce05ebc2", "lat": 38.91568383333333, "fusion_lat": 0.0, "type": "electric_scooter", "lon": -77.02205116666667, "is_disabled": 0, "fusion_lon": 0.0, "rental_uris": {"android": "https://dc.lft.to/lastmile_qr_scan", "ios": "https://dc.lft.to/lastmile_qr_scan"}, "is_reserved": 0}, {"bike_id": "5e4245fe4c4c4832834ff53be976c4d6", "name": "5e4245fe4c4c4832834ff53be976c4d6", "lat": 38.928581666666666, "fusion_lat": 0.0, "type": "electric_scooter", "lon": -77.03047833333333, "is_disabled": 0, "fusion_lon": 0.0, "rental_uris": {"android": "https://dc.lft.to/lastmile_qr_scan", "ios": "https://dc.lft.to/lastmile_qr_scan"}, "is_reserved": 0}, {"bike_id": "db4cec22bcad3e97cae66cc470373b08", "name": "db4cec22bcad3e97cae66cc470373b08", "lat": 38.9202335, "fusion_lat": 0.0, "type": "electric_scooter", "lon": -76.985422, "is_disabled": 0, "fusion_lon": 0.0, "rental_uris": {"android": "https://dc.lft.to/lastmile_qr_scan", "ios": "https://dc.lft.to/lastmile_qr_scan"}, "is_reserved": 0}, {"bike_id": "8c89a5e429e541524da1430ae360eb26", "name": "8c89a5e429e541524da1430ae360eb26", "lat": 38.887690166666665, "fusion_lat": 0.0, "type": "electric_scooter", "lon": -76.93262383333334, "is_disabled": 0, "fusion_lon": 0.0, "rental_uris": {"android": "https://dc.lft.to/lastmile_qr_scan", "ios": "https://dc.lft.to/lastmile_qr_scan"}, "is_reserved": 0}, {"bike_id": "30aae9e84affea4f7850ccc5c92657b3", "name": "30aae9e84affea4f7850ccc5c92657b3", "lat": 38.9213415, "fusion_lat": 0.0, "type": "electric_scooter", "lon": -77.018, "is_disabled": 0, "fusion_lon": 0.0, "rental_uris": {"android": "https://dc.lft.to/lastmile_qr_scan", "ios": "https://dc.lft.to/lastmile_qr_scan"}, "is_reserved": 0}, {"bike_id": "5950e0e596f4786f3581f98760862784", "name": "5950e0e596f4786f3581f98760862784", "lat": 38.88760216666667, "fusion_lat": 0.0, "type": "electric_bike", "lon": -76.90077916666667, "is_disabled": 0, "fusion_lon": 0.0, "rental_uris": {"android": "https://dc.lft.to/lastmile_qr_scan", "ios": "https://dc.lft.to/lastmile_qr_scan"}, "is_reserved": 0}, {"bike_id": "71aff81bf795a01a4a89d85e32ef2871", "name": "71aff81bf795a01a4a89d85e32ef2871", "lat": 38.92184366666667, "fusion_lat": 0.0, "type": "electric_scooter", "lon": -77.01911383333334, "is_disabled": 0, "fusion_lon": 0.0, "rental_uris": {"android": "https://dc.lft.to/lastmile_qr_scan", "ios": "https://dc.lft.to/lastmile_qr_scan"}, "is_reserved": 0}, {"bike_id": "ce29340e0e77c24a7b10c04602221d79", "name": "ce29340e0e77c24a7b10c04602221d79", "lat": 38.928671, "fusion_lat": 0.0, "type": "electric_scooter", "lon": -77.03428983333333, "is_disabled": 0, "fusion_lon": 0.0, "rental_uris": {"android": "https://dc.lft.to/lastmile_qr_scan", "ios": "https://dc.lft.to/lastmile_qr_scan"}, "is_reserved": 0}, {"bike_id": "432879bfb78cfbea67466da9c6a6569b", "name": "432879bfb78cfbea67466da9c6a6569b", "lat": 38.92366466666667, "fusion_lat": 0.0, "type": "electric_scooter", "lon": -77.0502795, "is_disabled": 0, "fusion_lon": 0.0, "rental_uris": {"android": "https://dc.lft.to/lastmile_qr_scan", "ios": "https://dc.lft.to/lastmile_qr_scan"}, "is_reserved": 0}, {"bike_id": "d1ac9f380c034b15471ca4e70d033dc6", "name": "d1ac9f380c034b15471ca4e70d033dc6", "lat": 38.90498916666667, "fusion_lat": 0.0, "type": "electric_scooter", "lon": -77.05695516666667, "is_disabled": 0, "fusion_lon": 0.0, "rental_uris": {"android": "https://dc.lft.to/lastmile_qr_scan", "ios": "https://dc.lft.to/lastmile_qr_scan"}, "is_reserved": 0}, {"bike_id": "4f96157cb51ce6b970cf07c4b5dc2ac6", "name": "4f96157cb51ce6b970cf07c4b5dc2ac6", "lat": 38.887213333333335, "fusion_lat": 0.0, "type": "electric_scooter", "lon": -77.028311, "is_disabled": 0, "fusion_lon": 0.0, "rental_uris": {"android": "https://dc.lft.to/lastmile_qr_scan", "ios": "https://dc.lft.to/lastmile_qr_scan"}, "is_reserved": 0}, {"bike_id": "0f1f8269f79bb321abfdcc7967995534", "name": "0f1f8269f79bb321abfdcc7967995534", "lat": 38.92132633333333, "fusion_lat": 0.0, "type": "electric_scooter", "lon": -77.018, "is_disabled": 0, "fusion_lon": 0.0, "rental_uris": {"android": "https://dc.lft.to/lastmile_qr_scan", "ios": "https://dc.lft.to/lastmile_qr_scan"}, "is_reserved": 0}, {"bike_id": "27a5f4f671045b36c93072fe518f3b61", "name": "27a5f4f671045b36c93072fe518f3b61", "lat": 38.890403, "fusion_lat": 0.0, "type": "electric_scooter", "lon": -76.93759366666667, "is_disabled": 0, "fusion_lon": 0.0, "rental_uris": {"android": "https://dc.lft.to/lastmile_qr_scan", "ios": "https://dc.lft.to/lastmile_qr_scan"}, "is_reserved": 0}, {"bike_id": "a7a62f8799955f34cf8263813d356701", "name": "a7a62f8799955f34cf8263813d356701", "lat": 38.92102883333333, "fusion_lat": 0.0, "type": "electric_scooter", "lon": -77.025214, "is_disabled": 0, "fusion_lon": 0.0, "rental_uris": {"android": "https://dc.lft.to/lastmile_qr_scan", "ios": "https://dc.lft.to/lastmile_qr_scan"}, "is_reserved": 0}, {"bike_id": "c558636a00f2d81e6e32aed79f792afc", "name": "c558636a00f2d81e6e32aed79f792afc", "lat": 38.898266666666665, "fusion_lat": 0.0, "type": "electric_scooter", "lon": -77.0461115, "is_disabled": 0, "fusion_lon": 0.0, "rental_uris": {"android": "https://dc.lft.to/lastmile_qr_scan", "ios": "https://dc.lft.to/lastmile_qr_scan"}, "is_reserved": 0}, {"bike_id": "c03f99c202f42e2802ed452b59d9141a", "name": "c03f99c202f42e2802ed452b59d9141a", "lat": 38.894687166666664, "fusion_lat": 0.0, "type": "electric_scooter", "lon": -77.04660716666666, "is_disabled": 0, "fusion_lon": 0.0, "rental_uris": {"android": "https://dc.lft.to/lastmile_qr_scan", "ios": "https://dc.lft.to/lastmile_qr_scan"}, "is_reserved": 0}, {"bike_id": "bbbcf20b0a96371950852346f6b5f191", "name": "bbbcf20b0a96371950852346f6b5f191", "lat": 38.9161645, "fusion_lat": 0.0, "type": "electric_scooter", "lon": -77.0315715, "is_disabled": 0, "fusion_lon": 0.0, "rental_uris": {"android": "https://dc.lft.to/lastmile_qr_scan", "ios": "https://dc.lft.to/lastmile_qr_scan"}, "is_reserved": 0}, {"bike_id": "6619ce87ca7ea79b13bdceb1bb83f804", "name": "6619ce87ca7ea79b13bdceb1bb83f804", "lat": 38.93057266666667, "fusion_lat": 0.0, "type": "electric_scooter", "lon": -77.03944966666667, "is_disabled": 0, "fusion_lon": 0.0, "rental_uris": {"android": "https://dc.lft.to/lastmile_qr_scan", "ios": "https://dc.lft.to/lastmile_qr_scan"}, "is_reserved": 0}, {"bike_id": "a4165d57af40d5a6bf1a2fdb41064b37", "name": "a4165d57af40d5a6bf1a2fdb41064b37", "lat": 38.9013425, "fusion_lat": 0.0, "type": "electric_scooter", "lon": -77.04637966666667, "is_disabled": 0, "fusion_lon": 0.0, "rental_uris": {"android": "https://dc.lft.to/lastmile_qr_scan", "ios": "https://dc.lft.to/lastmile_qr_scan"}, "is_reserved": 0}, {"bike_id": "64b7b11f9173a43c5e245706cd214033", "name": "64b7b11f9173a43c5e245706cd214033", "lat": 38.921383166666665, "fusion_lat": 0.0, "type": "electric_scooter", "lon": -77.0179585, "is_disabled": 0, "fusion_lon": 0.0, "rental_uris": {"android": "https://dc.lft.to/lastmile_qr_scan", "ios": "https://dc.lft.to/lastmile_qr_scan"}, "is_reserved": 0}, {"bike_id": "4e2bf2fe81ed6a7c17eee62145004e48", "name": "4e2bf2fe81ed6a7c17eee62145004e48", "lat": 38.945104, "fusion_lat": 0.0, "type": "electric_scooter", "lon": -77.03362116666666, "is_disabled": 0, "fusion_lon": 0.0, "rental_uris": {"android": "https://dc.lft.to/lastmile_qr_scan", "ios": "https://dc.lft.to/lastmile_qr_scan"}, "is_reserved": 0}, {"bike_id": "ebc6f9bef66b96bda88d6cf0e5fddc05", "name": "ebc6f9bef66b96bda88d6cf0e5fddc05", "lat": 38.93963133333333, "fusion_lat": 0.0, "type": "electric_scooter", "lon": -77.03282333333334, "is_disabled": 0, "fusion_lon": 0.0, "rental_uris": {"android": "https://dc.lft.to/lastmile_qr_scan", "ios": "https://dc.lft.to/lastmile_qr_scan"}, "is_reserved": 0}, {"bike_id": "e1457e7c68315fe4bcf6d5cadbe4f40c", "name": "e1457e7c68315fe4bcf6d5cadbe4f40c", "lat": 38.905208333333334, "fusion_lat": 0.0, "type": "electric_scooter", "lon": -77.043462, "is_disabled": 0, "fusion_lon": 0.0, "rental_uris": {"android": "https://dc.lft.to/lastmile_qr_scan", "ios": "https://dc.lft.to/lastmile_qr_scan"}, "is_reserved": 0}, {"bike_id": "fc5afbd3789bbc831155f5d9efc84295", "name": "fc5afbd3789bbc831155f5d9efc84295", "lat": 38.942994166666665, "fusion_lat": 0.0, "type": "electric_scooter", "lon": -77.05937866666666, "is_disabled": 0, "fusion_lon": 0.0, "rental_uris": {"android": "https://dc.lft.to/lastmile_qr_scan", "ios": "https://dc.lft.to/lastmile_qr_scan"}, "is_reserved": 0}, {"bike_id": "0369126ec2cc1bab8cd0e94353108b8e", "name": "0369126ec2cc1bab8cd0e94353108b8e", "lat": 38.8386535, "fusion_lat": 0.0, "type": "electric_bike", "lon": -76.99701316666666, "is_disabled": 0, "fusion_lon": 0.0, "rental_uris": {"android": "https://dc.lft.to/lastmile_qr_scan", "ios": "https://dc.lft.to/lastmile_qr_scan"}, "is_reserved": 0}, {"bike_id": "c4297cb39c2d68e6ff78fcd76082c664", "name": "c4297cb39c2d68e6ff78fcd76082c664", "lat": 38.8933625, "fusion_lat": 0.0, "type": "electric_scooter", "lon": -77.02154483333334, "is_disabled": 0, "fusion_lon": 0.0, "rental_uris": {"android": "https://dc.lft.to/lastmile_qr_scan", "ios": "https://dc.lft.to/lastmile_qr_scan"}, "is_reserved": 0}, {"bike_id": "17b8553a5920f73b281f4646a5185f76", "name": "17b8553a5920f73b281f4646a5185f76", "lat": 38.91680083333333, "fusion_lat": 0.0, "type": "electric_scooter", "lon": -77.02317216666667, "is_disabled": 0, "fusion_lon": 0.0, "rental_uris": {"android": "https://dc.lft.to/lastmile_qr_scan", "ios": "https://dc.lft.to/lastmile_qr_scan"}, "is_reserved": 0}, {"bike_id": "29d4c58eb90e846402049998e791332a", "name": "29d4c58eb90e846402049998e791332a", "lat": 38.91416433333333, "fusion_lat": 0.0, "type": "electric_scooter", "lon": -77.03171866666666, "is_disabled": 0, "fusion_lon": 0.0, "rental_uris": {"android": "https://dc.lft.to/lastmile_qr_scan", "ios": "https://dc.lft.to/lastmile_qr_scan"}, "is_reserved": 0}, {"bike_id": "d205566034103003b5f125a96c4eddf3", "name": "d205566034103003b5f125a96c4eddf3", "lat": 38.950533166666666, "fusion_lat": 0.0, "type": "electric_scooter", "lon": -77.05414916666666, "is_disabled": 0, "fusion_lon": 0.0, "rental_uris": {"android": "https://dc.lft.to/lastmile_qr_scan", "ios": "https://dc.lft.to/lastmile_qr_scan"}, "is_reserved": 0}, {"bike_id": "e0799c0391fa521f940b05794a26a550", "name": "e0799c0391fa521f940b05794a26a550", "lat": 38.906555, "fusion_lat": 0.0, "type": "electric_scooter", "lon": -77.01623783333334, "is_disabled": 0, "fusion_lon": 0.0, "rental_uris": {"android": "https://dc.lft.to/lastmile_qr_scan", "ios": "https://dc.lft.to/lastmile_qr_scan"}, "is_reserved": 0}, {"bike_id": "410bd1a5c125d05db6fd1332dc35900e", "name": "410bd1a5c125d05db6fd1332dc35900e", "lat": 38.944711166666664, "fusion_lat": 0.0, "type": "electric_bike", "lon": -76.9869185, "is_disabled": 0, "fusion_lon": 0.0, "rental_uris": {"android": "https://dc.lft.to/lastmile_qr_scan", "ios": "https://dc.lft.to/lastmile_qr_scan"}, "is_reserved": 0}, {"bike_id": "b73d2613507704b4b85e9b317f096f74", "name": "b73d2613507704b4b85e9b317f096f74", "lat": 38.9076295, "fusion_lat": 0.0, "type": "electric_scooter", "lon": -77.00204483333333, "is_disabled": 0, "fusion_lon": 0.0, "rental_uris": {"android": "https://dc.lft.to/lastmile_qr_scan", "ios": "https://dc.lft.to/lastmile_qr_scan"}, "is_reserved": 0}, {"bike_id": "af8d79b5854b906ebd8a338070c0919b", "name": "af8d79b5854b906ebd8a338070c0919b", "lat": 38.880177, "fusion_lat": 0.0, "type": "electric_scooter", "lon": -77.02494016666667, "is_disabled": 0, "fusion_lon": 0.0, "rental_uris": {"android": "https://dc.lft.to/lastmile_qr_scan", "ios": "https://dc.lft.to/lastmile_qr_scan"}, "is_reserved": 0}, {"bike_id": "9e1bfbd726cc97e2f8d9df114f5c99f2", "name": "9e1bfbd726cc97e2f8d9df114f5c99f2", "lat": 38.99408283333333, "fusion_lat": 0.0, "type": "electric_bike", "lon": -77.0179955, "is_disabled": 0, "fusion_lon": 0.0, "rental_uris": {"android": "https://dc.lft.to/lastmile_qr_scan", "ios": "https://dc.lft.to/lastmile_qr_scan"}, "is_reserved": 0}, {"bike_id": "37c022d05db20e8fa8faaa704b1dd252", "name": "37c022d05db20e8fa8faaa704b1dd252", "lat": 38.921196333333334, "fusion_lat": 0.0, "type": "electric_scooter", "lon": -77.04133083333333, "is_disabled": 0, "fusion_lon": 0.0, "rental_uris": {"android": "https://dc.lft.to/lastmile_qr_scan", "ios": "https://dc.lft.to/lastmile_qr_scan"}, "is_reserved": 0}, {"bike_id": "9c7d99912ae2f054751738e2b65edc89", "name": "9c7d99912ae2f054751738e2b65edc89", "lat": 38.91419633333334, "fusion_lat": 0.0, "type": "electric_scooter", "lon": -77.01797516666667, "is_disabled": 0, "fusion_lon": 0.0, "rental_uris": {"android": "https://dc.lft.to/lastmile_qr_scan", "ios": "https://dc.lft.to/lastmile_qr_scan"}, "is_reserved": 0}, {"bike_id": "21af25b16b0a2775ac4cca7eac5ad417", "name": "21af25b16b0a2775ac4cca7eac5ad417", "lat": 38.915235333333335, "fusion_lat": 0.0, "type": "electric_scooter", "lon": -77.02184816666667, "is_disabled": 0, "fusion_lon": 0.0, "rental_uris": {"android": "https://dc.lft.to/lastmile_qr_scan", "ios": "https://dc.lft.to/lastmile_qr_scan"}, "is_reserved": 0}, {"bike_id": "8dd57f2fc8b8cb481e36f3c0938c2b85", "name": "8dd57f2fc8b8cb481e36f3c0938c2b85", "lat": 38.89623016666667, "fusion_lat": 0.0, "type": "electric_scooter", "lon": -77.00210966666667, "is_disabled": 0, "fusion_lon": 0.0, "rental_uris": {"android": "https://dc.lft.to/lastmile_qr_scan", "ios": "https://dc.lft.to/lastmile_qr_scan"}, "is_reserved": 0}, {"bike_id": "c53077e7a68903f8af370d4e2a606579", "name": "c53077e7a68903f8af370d4e2a606579", "lat": 38.9024595, "fusion_lat": 0.0, "type": "electric_scooter", "lon": -77.0236255, "is_disabled": 0, "fusion_lon": 0.0, "rental_uris": {"android": "https://dc.lft.to/lastmile_qr_scan", "ios": "https://dc.lft.to/lastmile_qr_scan"}, "is_reserved": 0}, {"bike_id": "24a8474ff5d94161212a371a980ae73b", "name": "24a8474ff5d94161212a371a980ae73b", "lat": 38.87893666666667, "fusion_lat": 0.0, "type": "electric_scooter", "lon": -76.991634, "is_disabled": 0, "fusion_lon": 0.0, "rental_uris": {"android": "https://dc.lft.to/lastmile_qr_scan", "ios": "https://dc.lft.to/lastmile_qr_scan"}, "is_reserved": 0}, {"bike_id": "f038fdfb190d4f9647571c62e695a435", "name": "f038fdfb190d4f9647571c62e695a435", "lat": 38.901636, "fusion_lat": 0.0, "type": "electric_scooter", "lon": -77.04863433333334, "is_disabled": 0, "fusion_lon": 0.0, "rental_uris": {"android": "https://dc.lft.to/lastmile_qr_scan", "ios": "https://dc.lft.to/lastmile_qr_scan"}, "is_reserved": 0}, {"bike_id": "f48cb2d3d65684afa334ec02a76d692e", "name": "f48cb2d3d65684afa334ec02a76d692e", "lat": 38.92801983333333, "fusion_lat": 0.0, "type": "electric_scooter", "lon": -77.03629783333334, "is_disabled": 0, "fusion_lon": 0.0, "rental_uris": {"android": "https://dc.lft.to/lastmile_qr_scan", "ios": "https://dc.lft.to/lastmile_qr_scan"}, "is_reserved": 0}, {"bike_id": "0188e475ebfabc11540afcb9fcf5ada7", "name": "0188e475ebfabc11540afcb9fcf5ada7", "lat": 38.89863316666667, "fusion_lat": 0.0, "type": "electric_scooter", "lon": -77.027117, "is_disabled": 0, "fusion_lon": 0.0, "rental_uris": {"android": "https://dc.lft.to/lastmile_qr_scan", "ios": "https://dc.lft.to/lastmile_qr_scan"}, "is_reserved": 0}, {"bike_id": "33b6218b988a4966a8766672571f5fdb", "name": "33b6218b988a4966a8766672571f5fdb", "lat": 38.909567333333335, "fusion_lat": 0.0, "type": "electric_scooter", "lon": -77.01444116666667, "is_disabled": 0, "fusion_lon": 0.0, "rental_uris": {"android": "https://dc.lft.to/lastmile_qr_scan", "ios": "https://dc.lft.to/lastmile_qr_scan"}, "is_reserved": 0}, {"bike_id": "b320ff8cec04a05f0df8d0f3a45defcb", "name": "b320ff8cec04a05f0df8d0f3a45defcb", "lat": 38.902681, "fusion_lat": 0.0, "type": "electric_scooter", "lon": -77.01739, "is_disabled": 0, "fusion_lon": 0.0, "rental_uris": {"android": "https://dc.lft.to/lastmile_qr_scan", "ios": "https://dc.lft.to/lastmile_qr_scan"}, "is_reserved": 0}, {"bike_id": "1267ba5e504b7b0fe30c6af685ed0786", "name": "1267ba5e504b7b0fe30c6af685ed0786", "lat": 38.89879466666667, "fusion_lat": 0.0, "type": "electric_bike", "lon": -76.97883583333333, "is_disabled": 0, "fusion_lon": 0.0, "rental_uris": {"android": "https://dc.lft.to/lastmile_qr_scan", "ios": "https://dc.lft.to/lastmile_qr_scan"}, "is_reserved": 0}, {"bike_id": "4e0701ba800cc3d0023d2639367afe2a", "name": "4e0701ba800cc3d0023d2639367afe2a", "lat": 38.924000166666666, "fusion_lat": 0.0, "type": "electric_scooter", "lon": -76.951469, "is_disabled": 0, "fusion_lon": 0.0, "rental_uris": {"android": "https://dc.lft.to/lastmile_qr_scan", "ios": "https://dc.lft.to/lastmile_qr_scan"}, "is_reserved": 0}, {"bike_id": "bbfadd8518c6d6596d7a04723cdb3aae", "name": "bbfadd8518c6d6596d7a04723cdb3aae", "lat": 38.90323333333333, "fusion_lat": 0.0, "type": "electric_scooter", "lon": -77.0160965, "is_disabled": 0, "fusion_lon": 0.0, "rental_uris": {"android": "https://dc.lft.to/lastmile_qr_scan", "ios": "https://dc.lft.to/lastmile_qr_scan"}, "is_reserved": 0}, {"bike_id": "13bff00bfc19d1ecf002aee264f99233", "name": "13bff00bfc19d1ecf002aee264f99233", "lat": 38.89996716666667, "fusion_lat": 0.0, "type": "electric_scooter", "lon": -76.98551983333333, "is_disabled": 0, "fusion_lon": 0.0, "rental_uris": {"android": "https://dc.lft.to/lastmile_qr_scan", "ios": "https://dc.lft.to/lastmile_qr_scan"}, "is_reserved": 0}, {"bike_id": "0dad5edcf3747afbf66eddd9506e7ba3", "name": "0dad5edcf3747afbf66eddd9506e7ba3", "lat": 38.91571783333333, "fusion_lat": 0.0, "type": "electric_scooter", "lon": -76.98394933333333, "is_disabled": 0, "fusion_lon": 0.0, "rental_uris": {"android": "https://dc.lft.to/lastmile_qr_scan", "ios": "https://dc.lft.to/lastmile_qr_scan"}, "is_reserved": 0}, {"bike_id": "7fad5ca512a734116a04d886b4bc36af", "name": "7fad5ca512a734116a04d886b4bc36af", "lat": 38.923727666666665, "fusion_lat": 0.0, "type": "electric_scooter", "lon": -77.05176583333333, "is_disabled": 0, "fusion_lon": 0.0, "rental_uris": {"android": "https://dc.lft.to/lastmile_qr_scan", "ios": "https://dc.lft.to/lastmile_qr_scan"}, "is_reserved": 0}, {"bike_id": "1a4e86be9363354bb74c8b486b7317ee", "name": "1a4e86be9363354bb74c8b486b7317ee", "lat": 38.999349, "fusion_lat": 0.0, "type": "electric_bike", "lon": -77.05033683333333, "is_disabled": 0, "fusion_lon": 0.0, "rental_uris": {"android": "https://dc.lft.to/lastmile_qr_scan", "ios": "https://dc.lft.to/lastmile_qr_scan"}, "is_reserved": 0}, {"bike_id": "8cb6c828525385e3d0b1fd14e5c0a6a7", "name": "8cb6c828525385e3d0b1fd14e5c0a6a7", "lat": 38.89224183333333, "fusion_lat": 0.0, "type": "electric_scooter", "lon": -77.033404, "is_disabled": 0, "fusion_lon": 0.0, "rental_uris": {"android": "https://dc.lft.to/lastmile_qr_scan", "ios": "https://dc.lft.to/lastmile_qr_scan"}, "is_reserved": 0}, {"bike_id": "33ed0ba19c0c70aeb7a839167d4f281d", "name": "33ed0ba19c0c70aeb7a839167d4f281d", "lat": 38.90669966666667, "fusion_lat": 0.0, "type": "electric_scooter", "lon": -77.0501095, "is_disabled": 0, "fusion_lon": 0.0, "rental_uris": {"android": "https://dc.lft.to/lastmile_qr_scan", "ios": "https://dc.lft.to/lastmile_qr_scan"}, "is_reserved": 0}, {"bike_id": "65f2d97036893a0e48ef7b8a6fb26f6d", "name": "65f2d97036893a0e48ef7b8a6fb26f6d", "lat": 38.89352683333333, "fusion_lat": 0.0, "type": "electric_scooter", "lon": -77.00334033333333, "is_disabled": 0, "fusion_lon": 0.0, "rental_uris": {"android": "https://dc.lft.to/lastmile_qr_scan", "ios": "https://dc.lft.to/lastmile_qr_scan"}, "is_reserved": 0}, {"bike_id": "c999127f2def2a9abbcefc6b1e053c5f", "name": "c999127f2def2a9abbcefc6b1e053c5f", "lat": 38.92342583333333, "fusion_lat": 0.0, "type": "electric_scooter", "lon": -77.01904033333334, "is_disabled": 0, "fusion_lon": 0.0, "rental_uris": {"android": "https://dc.lft.to/lastmile_qr_scan", "ios": "https://dc.lft.to/lastmile_qr_scan"}, "is_reserved": 0}, {"bike_id": "a10a971df746ce9e76cb72e3167f1f80", "name": "a10a971df746ce9e76cb72e3167f1f80", "lat": 38.964026833333335, "fusion_lat": 0.0, "type": "electric_scooter", "lon": -77.0277155, "is_disabled": 0, "fusion_lon": 0.0, "rental_uris": {"android": "https://dc.lft.to/lastmile_qr_scan", "ios": "https://dc.lft.to/lastmile_qr_scan"}, "is_reserved": 0}, {"bike_id": "65b4d7ad6b3cbd5c42a8424f639e0654", "name": "65b4d7ad6b3cbd5c42a8424f639e0654", "lat": 38.888854, "fusion_lat": 0.0, "type": "electric_scooter", "lon": -76.91923216666666, "is_disabled": 0, "fusion_lon": 0.0, "rental_uris": {"android": "https://dc.lft.to/lastmile_qr_scan", "ios": "https://dc.lft.to/lastmile_qr_scan"}, "is_reserved": 0}, {"bike_id": "c348a68db7eecdf1701bbc7e1619719f", "name": "c348a68db7eecdf1701bbc7e1619719f", "lat": 38.9118695, "fusion_lat": 0.0, "type": "electric_scooter", "lon": -77.0383505, "is_disabled": 0, "fusion_lon": 0.0, "rental_uris": {"android": "https://dc.lft.to/lastmile_qr_scan", "ios": "https://dc.lft.to/lastmile_qr_scan"}, "is_reserved": 0}, {"bike_id": "9a950960488ab8b0577467771d8af254", "name": "9a950960488ab8b0577467771d8af254", "lat": 38.964585166666666, "fusion_lat": 0.0, "type": "electric_bike", "lon": -77.10654383333333, "is_disabled": 0, "fusion_lon": 0.0, "rental_uris": {"android": "https://dc.lft.to/lastmile_qr_scan", "ios": "https://dc.lft.to/lastmile_qr_scan"}, "is_reserved": 0}, {"bike_id": "12a8b97644e6b15dab26f08ea71e3db3", "name": "12a8b97644e6b15dab26f08ea71e3db3", "lat": 38.8795395, "fusion_lat": 0.0, "type": "electric_scooter", "lon": -77.00069583333334, "is_disabled": 0, "fusion_lon": 0.0, "rental_uris": {"android": "https://dc.lft.to/lastmile_qr_scan", "ios": "https://dc.lft.to/lastmile_qr_scan"}, "is_reserved": 0}, {"bike_id": "63f503d4270ee7f168efa507309f69b3", "name": "63f503d4270ee7f168efa507309f69b3", "lat": 38.922279833333334, "fusion_lat": 0.0, "type": "electric_scooter", "lon": -76.97533283333334, "is_disabled": 0, "fusion_lon": 0.0, "rental_uris": {"android": "https://dc.lft.to/lastmile_qr_scan", "ios": "https://dc.lft.to/lastmile_qr_scan"}, "is_reserved": 0}, {"bike_id": "209867fed9a61b3f4bfab956773a777d", "name": "209867fed9a61b3f4bfab956773a777d", "lat": 38.92854333333333, "fusion_lat": 0.0, "type": "electric_scooter", "lon": -77.0141475, "is_disabled": 0, "fusion_lon": 0.0, "rental_uris": {"android": "https://dc.lft.to/lastmile_qr_scan", "ios": "https://dc.lft.to/lastmile_qr_scan"}, "is_reserved": 0}, {"bike_id": "6380a5273f4b930dbed2eb354053309a", "name": "6380a5273f4b930dbed2eb354053309a", "lat": 38.907940333333336, "fusion_lat": 0.0, "type": "electric_scooter", "lon": -77.0644785, "is_disabled": 0, "fusion_lon": 0.0, "rental_uris": {"android": "https://dc.lft.to/lastmile_qr_scan", "ios": "https://dc.lft.to/lastmile_qr_scan"}, "is_reserved": 0}, {"bike_id": "65e2cde84b5bbb67760b01830bb28818", "name": "65e2cde84b5bbb67760b01830bb28818", "lat": 38.83135, "fusion_lat": 0.0, "type": "electric_bike", "lon": -77.113519, "is_disabled": 0, "fusion_lon": 0.0, "rental_uris": {"android": "https://dc.lft.to/lastmile_qr_scan", "ios": "https://dc.lft.to/lastmile_qr_scan"}, "is_reserved": 0}, {"bike_id": "f841f06cb4668a6e43d0381d4bc755f0", "name": "f841f06cb4668a6e43d0381d4bc755f0", "lat": 38.88507966666667, "fusion_lat": 0.0, "type": "electric_scooter", "lon": -77.0111625, "is_disabled": 0, "fusion_lon": 0.0, "rental_uris": {"android": "https://dc.lft.to/lastmile_qr_scan", "ios": "https://dc.lft.to/lastmile_qr_scan"}, "is_reserved": 0}, {"bike_id": "1689f7cf9139cae6f292a168640711b4", "name": "1689f7cf9139cae6f292a168640711b4", "lat": 38.89208716666667, "fusion_lat": 0.0, "type": "electric_scooter", "lon": -76.994865, "is_disabled": 0, "fusion_lon": 0.0, "rental_uris": {"android": "https://dc.lft.to/lastmile_qr_scan", "ios": "https://dc.lft.to/lastmile_qr_scan"}, "is_reserved": 0}, {"bike_id": "eb21f4a7f3445f09a14cf70eca244385", "name": "eb21f4a7f3445f09a14cf70eca244385", "lat": 38.9223405, "fusion_lat": 0.0, "type": "electric_scooter", "lon": -77.03318933333334, "is_disabled": 0, "fusion_lon": 0.0, "rental_uris": {"android": "https://dc.lft.to/lastmile_qr_scan", "ios": "https://dc.lft.to/lastmile_qr_scan"}, "is_reserved": 0}, {"bike_id": "477fe11c64d6087cf31ad3f734e3f2ef", "name": "477fe11c64d6087cf31ad3f734e3f2ef", "lat": 38.89740116666667, "fusion_lat": 0.0, "type": "electric_scooter", "lon": -77.02105166666666, "is_disabled": 0, "fusion_lon": 0.0, "rental_uris": {"android": "https://dc.lft.to/lastmile_qr_scan", "ios": "https://dc.lft.to/lastmile_qr_scan"}, "is_reserved": 0}, {"bike_id": "cfc7b81969fd76ba9aac25eacfd5e912", "name": "cfc7b81969fd76ba9aac25eacfd5e912", "lat": 38.89221666666667, "fusion_lat": 0.0, "type": "electric_scooter", "lon": -77.0263845, "is_disabled": 0, "fusion_lon": 0.0, "rental_uris": {"android": "https://dc.lft.to/lastmile_qr_scan", "ios": "https://dc.lft.to/lastmile_qr_scan"}, "is_reserved": 0}, {"bike_id": "660f61d84e77e9d62336a294a938ef9f", "name": "660f61d84e77e9d62336a294a938ef9f", "lat": 38.917109333333336, "fusion_lat": 0.0, "type": "electric_scooter", "lon": -77.03029183333334, "is_disabled": 0, "fusion_lon": 0.0, "rental_uris": {"android": "https://dc.lft.to/lastmile_qr_scan", "ios": "https://dc.lft.to/lastmile_qr_scan"}, "is_reserved": 0}, {"bike_id": "48f118dea722cd70f852957b91e2cae3", "name": "48f118dea722cd70f852957b91e2cae3", "lat": 38.941683833333336, "fusion_lat": 0.0, "type": "electric_scooter", "lon": -77.02342866666666, "is_disabled": 0, "fusion_lon": 0.0, "rental_uris": {"android": "https://dc.lft.to/lastmile_qr_scan", "ios": "https://dc.lft.to/lastmile_qr_scan"}, "is_reserved": 0}, {"bike_id": "6ab66db82330adc5f084f995da6ad1c3", "name": "6ab66db82330adc5f084f995da6ad1c3", "lat": 38.90396533333333, "fusion_lat": 0.0, "type": "electric_scooter", "lon": -77.06295133333333, "is_disabled": 0, "fusion_lon": 0.0, "rental_uris": {"android": "https://dc.lft.to/lastmile_qr_scan", "ios": "https://dc.lft.to/lastmile_qr_scan"}, "is_reserved": 0}, {"bike_id": "4b5f6fb056fab8266a908bd48bf13caa", "name": "4b5f6fb056fab8266a908bd48bf13caa", "lat": 38.919970666666664, "fusion_lat": 0.0, "type": "electric_scooter", "lon": -77.017668, "is_disabled": 0, "fusion_lon": 0.0, "rental_uris": {"android": "https://dc.lft.to/lastmile_qr_scan", "ios": "https://dc.lft.to/lastmile_qr_scan"}, "is_reserved": 0}, {"bike_id": "835a73916cd07ca5092f9f17ed6a657c", "name": "835a73916cd07ca5092f9f17ed6a657c", "lat": 38.9310555, "fusion_lat": 0.0, "type": "electric_scooter", "lon": -77.03510066666666, "is_disabled": 0, "fusion_lon": 0.0, "rental_uris": {"android": "https://dc.lft.to/lastmile_qr_scan", "ios": "https://dc.lft.to/lastmile_qr_scan"}, "is_reserved": 0}, {"bike_id": "61493a01d42084a46d50db607de8afbf", "name": "61493a01d42084a46d50db607de8afbf", "lat": 38.926062, "fusion_lat": 0.0, "type": "electric_scooter", "lon": -77.057053, "is_disabled": 0, "fusion_lon": 0.0, "rental_uris": {"android": "https://dc.lft.to/lastmile_qr_scan", "ios": "https://dc.lft.to/lastmile_qr_scan"}, "is_reserved": 0}, {"bike_id": "b1af5d0f240c21a23d5a27a9530bf195", "name": "b1af5d0f240c21a23d5a27a9530bf195", "lat": 38.894171666666665, "fusion_lat": 0.0, "type": "electric_scooter", "lon": -76.99775483333333, "is_disabled": 0, "fusion_lon": 0.0, "rental_uris": {"android": "https://dc.lft.to/lastmile_qr_scan", "ios": "https://dc.lft.to/lastmile_qr_scan"}, "is_reserved": 0}, {"bike_id": "bad4d63d3ecc56f46276a162876647bb", "name": "bad4d63d3ecc56f46276a162876647bb", "lat": 38.90902783333333, "fusion_lat": 0.0, "type": "electric_scooter", "lon": -77.04423166666666, "is_disabled": 0, "fusion_lon": 0.0, "rental_uris": {"android": "https://dc.lft.to/lastmile_qr_scan", "ios": "https://dc.lft.to/lastmile_qr_scan"}, "is_reserved": 0}, {"bike_id": "bf334910644397f7ad832a851964dd57", "name": "bf334910644397f7ad832a851964dd57", "lat": 38.8875195, "fusion_lat": 0.0, "type": "electric_bike", "lon": -77.08922716666666, "is_disabled": 0, "fusion_lon": 0.0, "rental_uris": {"android": "https://dc.lft.to/lastmile_qr_scan", "ios": "https://dc.lft.to/lastmile_qr_scan"}, "is_reserved": 0}, {"bike_id": "881b0016540449ef1250ae892403ebb6", "name": "881b0016540449ef1250ae892403ebb6", "lat": 38.92219266666667, "fusion_lat": 0.0, "type": "electric_scooter", "lon": -77.04332816666667, "is_disabled": 0, "fusion_lon": 0.0, "rental_uris": {"android": "https://dc.lft.to/lastmile_qr_scan", "ios": "https://dc.lft.to/lastmile_qr_scan"}, "is_reserved": 0}, {"bike_id": "490cdaf4def3a3d9bec14c18b1a5d0c8", "name": "490cdaf4def3a3d9bec14c18b1a5d0c8", "lat": 38.91639933333333, "fusion_lat": 0.0, "type": "electric_scooter", "lon": -77.02105033333333, "is_disabled": 0, "fusion_lon": 0.0, "rental_uris": {"android": "https://dc.lft.to/lastmile_qr_scan", "ios": "https://dc.lft.to/lastmile_qr_scan"}, "is_reserved": 0}, {"bike_id": "27a4d742efb19ba067226c6750194c55", "name": "27a4d742efb19ba067226c6750194c55", "lat": 38.91819266666667, "fusion_lat": 0.0, "type": "electric_scooter", "lon": -77.02824416666667, "is_disabled": 0, "fusion_lon": 0.0, "rental_uris": {"android": "https://dc.lft.to/lastmile_qr_scan", "ios": "https://dc.lft.to/lastmile_qr_scan"}, "is_reserved": 0}, {"bike_id": "b970ed9621bbdc2f96708f092d96c1dd", "name": "b970ed9621bbdc2f96708f092d96c1dd", "lat": 38.92603283333333, "fusion_lat": 0.0, "type": "electric_scooter", "lon": -77.0215655, "is_disabled": 0, "fusion_lon": 0.0, "rental_uris": {"android": "https://dc.lft.to/lastmile_qr_scan", "ios": "https://dc.lft.to/lastmile_qr_scan"}, "is_reserved": 0}, {"bike_id": "c68302127359f1451805c1d0de820295", "name": "c68302127359f1451805c1d0de820295", "lat": 38.91561033333333, "fusion_lat": 0.0, "type": "electric_scooter", "lon": -77.04464416666667, "is_disabled": 0, "fusion_lon": 0.0, "rental_uris": {"android": "https://dc.lft.to/lastmile_qr_scan", "ios": "https://dc.lft.to/lastmile_qr_scan"}, "is_reserved": 0}, {"bike_id": "f11f9ffd4d83e5afa12c942e15205f1e", "name": "f11f9ffd4d83e5afa12c942e15205f1e", "lat": 38.9389315, "fusion_lat": 0.0, "type": "electric_scooter", "lon": -77.01763283333334, "is_disabled": 0, "fusion_lon": 0.0, "rental_uris": {"android": "https://dc.lft.to/lastmile_qr_scan", "ios": "https://dc.lft.to/lastmile_qr_scan"}, "is_reserved": 0}, {"bike_id": "e5905e54cc4abe2fb944a26ec489e458", "name": "e5905e54cc4abe2fb944a26ec489e458", "lat": 38.914152666666666, "fusion_lat": 0.0, "type": "electric_scooter", "lon": -77.03139283333333, "is_disabled": 0, "fusion_lon": 0.0, "rental_uris": {"android": "https://dc.lft.to/lastmile_qr_scan", "ios": "https://dc.lft.to/lastmile_qr_scan"}, "is_reserved": 0}, {"bike_id": "071a142b403e3746a4a09e7aa4e7dd05", "name": "071a142b403e3746a4a09e7aa4e7dd05", "lat": 38.897477, "fusion_lat": 0.0, "type": "electric_scooter", "lon": -76.9769585, "is_disabled": 0, "fusion_lon": 0.0, "rental_uris": {"android": "https://dc.lft.to/lastmile_qr_scan", "ios": "https://dc.lft.to/lastmile_qr_scan"}, "is_reserved": 0}, {"bike_id": "7b809bce04797d5297f6efad88c0f752", "name": "7b809bce04797d5297f6efad88c0f752", "lat": 38.90375433333333, "fusion_lat": 0.0, "type": "electric_scooter", "lon": -76.9956805, "is_disabled": 0, "fusion_lon": 0.0, "rental_uris": {"android": "https://dc.lft.to/lastmile_qr_scan", "ios": "https://dc.lft.to/lastmile_qr_scan"}, "is_reserved": 0}, {"bike_id": "9551b5830cfd5d4db517ad6716822df4", "name": "9551b5830cfd5d4db517ad6716822df4", "lat": 38.806702333333334, "fusion_lat": 0.0, "type": "electric_bike", "lon": -77.087589, "is_disabled": 0, "fusion_lon": 0.0, "rental_uris": {"android": "https://dc.lft.to/lastmile_qr_scan", "ios": "https://dc.lft.to/lastmile_qr_scan"}, "is_reserved": 0}, {"bike_id": "de68c272926b6b4506760fc269fd1525", "name": "de68c272926b6b4506760fc269fd1525", "lat": 38.928913, "fusion_lat": 0.0, "type": "electric_scooter", "lon": -77.01626066666667, "is_disabled": 0, "fusion_lon": 0.0, "rental_uris": {"android": "https://dc.lft.to/lastmile_qr_scan", "ios": "https://dc.lft.to/lastmile_qr_scan"}, "is_reserved": 0}, {"bike_id": "53154c85f33055079268bc31c785ba19", "name": "53154c85f33055079268bc31c785ba19", "lat": 38.9126425, "fusion_lat": 0.0, "type": "electric_scooter", "lon": -77.02251383333333, "is_disabled": 0, "fusion_lon": 0.0, "rental_uris": {"android": "https://dc.lft.to/lastmile_qr_scan", "ios": "https://dc.lft.to/lastmile_qr_scan"}, "is_reserved": 0}, {"bike_id": "03123092e2bcb313196ca9130609b54a", "name": "03123092e2bcb313196ca9130609b54a", "lat": 38.9576065, "fusion_lat": 0.0, "type": "electric_scooter", "lon": -77.01489683333334, "is_disabled": 0, "fusion_lon": 0.0, "rental_uris": {"android": "https://dc.lft.to/lastmile_qr_scan", "ios": "https://dc.lft.to/lastmile_qr_scan"}, "is_reserved": 0}, {"bike_id": "e83e885e43df8460d18be3fd3fac60f1", "name": "e83e885e43df8460d18be3fd3fac60f1", "lat": 38.94314583333333, "fusion_lat": 0.0, "type": "electric_bike", "lon": -76.99017883333333, "is_disabled": 0, "fusion_lon": 0.0, "rental_uris": {"android": "https://dc.lft.to/lastmile_qr_scan", "ios": "https://dc.lft.to/lastmile_qr_scan"}, "is_reserved": 0}, {"bike_id": "04e9783b7b7fea7c56b18bd21608e40e", "name": "04e9783b7b7fea7c56b18bd21608e40e", "lat": 38.855936, "fusion_lat": 0.0, "type": "electric_bike", "lon": -76.97455616666667, "is_disabled": 0, "fusion_lon": 0.0, "rental_uris": {"android": "https://dc.lft.to/lastmile_qr_scan", "ios": "https://dc.lft.to/lastmile_qr_scan"}, "is_reserved": 0}, {"bike_id": "9d2713becb2dfde8b5db990bd5f991e0", "name": "9d2713becb2dfde8b5db990bd5f991e0", "lat": 38.90916083333333, "fusion_lat": 0.0, "type": "electric_scooter", "lon": -77.03208183333334, "is_disabled": 0, "fusion_lon": 0.0, "rental_uris": {"android": "https://dc.lft.to/lastmile_qr_scan", "ios": "https://dc.lft.to/lastmile_qr_scan"}, "is_reserved": 0}, {"bike_id": "9afd1196928656b1eba6882cbca0724d", "name": "9afd1196928656b1eba6882cbca0724d", "lat": 38.87207516666667, "fusion_lat": 0.0, "type": "electric_bike", "lon": -77.1174365, "is_disabled": 0, "fusion_lon": 0.0, "rental_uris": {"android": "https://dc.lft.to/lastmile_qr_scan", "ios": "https://dc.lft.to/lastmile_qr_scan"}, "is_reserved": 0}, {"bike_id": "6db0ddda74de7c5249a356e75527e292", "name": "6db0ddda74de7c5249a356e75527e292", "lat": 38.9236615, "fusion_lat": 0.0, "type": "electric_scooter", "lon": -77.05033083333333, "is_disabled": 0, "fusion_lon": 0.0, "rental_uris": {"android": "https://dc.lft.to/lastmile_qr_scan", "ios": "https://dc.lft.to/lastmile_qr_scan"}, "is_reserved": 0}, {"bike_id": "cc9ab52ac0d4cb1bbc9408c405bc7f91", "name": "cc9ab52ac0d4cb1bbc9408c405bc7f91", "lat": 38.900374666666664, "fusion_lat": 0.0, "type": "electric_scooter", "lon": -77.04327033333334, "is_disabled": 0, "fusion_lon": 0.0, "rental_uris": {"android": "https://dc.lft.to/lastmile_qr_scan", "ios": "https://dc.lft.to/lastmile_qr_scan"}, "is_reserved": 0}, {"bike_id": "749007225f137c54fe08bc9004aca234", "name": "749007225f137c54fe08bc9004aca234", "lat": 38.925008, "fusion_lat": 0.0, "type": "electric_scooter", "lon": -77.02274566666667, "is_disabled": 0, "fusion_lon": 0.0, "rental_uris": {"android": "https://dc.lft.to/lastmile_qr_scan", "ios": "https://dc.lft.to/lastmile_qr_scan"}, "is_reserved": 0}, {"bike_id": "31310aaef049c750421f24e36dd79d5a", "name": "31310aaef049c750421f24e36dd79d5a", "lat": 38.892187, "fusion_lat": 0.0, "type": "electric_scooter", "lon": -77.03305316666666, "is_disabled": 0, "fusion_lon": 0.0, "rental_uris": {"android": "https://dc.lft.to/lastmile_qr_scan", "ios": "https://dc.lft.to/lastmile_qr_scan"}, "is_reserved": 0}, {"bike_id": "be9a28b390843339ca975fd35fcc770a", "name": "be9a28b390843339ca975fd35fcc770a", "lat": 38.91473416666667, "fusion_lat": 0.0, "type": "electric_scooter", "lon": -77.03190416666666, "is_disabled": 0, "fusion_lon": 0.0, "rental_uris": {"android": "https://dc.lft.to/lastmile_qr_scan", "ios": "https://dc.lft.to/lastmile_qr_scan"}, "is_reserved": 0}, {"bike_id": "ca3ee0572b67e3571a0f0aca952464b4", "name": "ca3ee0572b67e3571a0f0aca952464b4", "lat": 38.91667266666666, "fusion_lat": 0.0, "type": "electric_scooter", "lon": -77.02974316666666, "is_disabled": 0, "fusion_lon": 0.0, "rental_uris": {"android": "https://dc.lft.to/lastmile_qr_scan", "ios": "https://dc.lft.to/lastmile_qr_scan"}, "is_reserved": 0}, {"bike_id": "469643e27473cdbb2c9ec9abc487c71c", "name": "469643e27473cdbb2c9ec9abc487c71c", "lat": 38.90434533333333, "fusion_lat": 0.0, "type": "electric_scooter", "lon": -77.02594883333333, "is_disabled": 0, "fusion_lon": 0.0, "rental_uris": {"android": "https://dc.lft.to/lastmile_qr_scan", "ios": "https://dc.lft.to/lastmile_qr_scan"}, "is_reserved": 0}, {"bike_id": "3c5252137cf02d41761ca81c375423ae", "name": "3c5252137cf02d41761ca81c375423ae", "lat": 38.9191535, "fusion_lat": 0.0, "type": "electric_scooter", "lon": -77.0333885, "is_disabled": 0, "fusion_lon": 0.0, "rental_uris": {"android": "https://dc.lft.to/lastmile_qr_scan", "ios": "https://dc.lft.to/lastmile_qr_scan"}, "is_reserved": 0}, {"bike_id": "88c8cae1cbb6ccfc98ca6592df43e008", "name": "88c8cae1cbb6ccfc98ca6592df43e008", "lat": 38.863729166666666, "fusion_lat": 0.0, "type": "electric_scooter", "lon": -76.990631, "is_disabled": 0, "fusion_lon": 0.0, "rental_uris": {"android": "https://dc.lft.to/lastmile_qr_scan", "ios": "https://dc.lft.to/lastmile_qr_scan"}, "is_reserved": 0}, {"bike_id": "342163a616bbcfb245deed7d8560b550", "name": "342163a616bbcfb245deed7d8560b550", "lat": 38.919931, "fusion_lat": 0.0, "type": "electric_scooter", "lon": -77.071435, "is_disabled": 0, "fusion_lon": 0.0, "rental_uris": {"android": "https://dc.lft.to/lastmile_qr_scan", "ios": "https://dc.lft.to/lastmile_qr_scan"}, "is_reserved": 0}, {"bike_id": "f485d9fca321dbd1e236344280b4d7ac", "name": "f485d9fca321dbd1e236344280b4d7ac", "lat": 38.91525516666667, "fusion_lat": 0.0, "type": "electric_scooter", "lon": -77.02206516666666, "is_disabled": 0, "fusion_lon": 0.0, "rental_uris": {"android": "https://dc.lft.to/lastmile_qr_scan", "ios": "https://dc.lft.to/lastmile_qr_scan"}, "is_reserved": 0}, {"bike_id": "9c416072e90bb205087ae9ab6ceaa1d3", "name": "9c416072e90bb205087ae9ab6ceaa1d3", "lat": 38.99521583333333, "fusion_lat": 0.0, "type": "electric_bike", "lon": -77.037804, "is_disabled": 0, "fusion_lon": 0.0, "rental_uris": {"android": "https://dc.lft.to/lastmile_qr_scan", "ios": "https://dc.lft.to/lastmile_qr_scan"}, "is_reserved": 0}, {"bike_id": "2b1237e10f76009dc4f412a372ebbf9e", "name": "2b1237e10f76009dc4f412a372ebbf9e", "lat": 38.899366, "fusion_lat": 0.0, "type": "electric_scooter", "lon": -76.97706516666666, "is_disabled": 0, "fusion_lon": 0.0, "rental_uris": {"android": "https://dc.lft.to/lastmile_qr_scan", "ios": "https://dc.lft.to/lastmile_qr_scan"}, "is_reserved": 0}, {"bike_id": "05377bef489507fff7203579b9cc1488", "name": "05377bef489507fff7203579b9cc1488", "lat": 38.89902283333333, "fusion_lat": 0.0, "type": "electric_scooter", "lon": -76.97740666666667, "is_disabled": 0, "fusion_lon": 0.0, "rental_uris": {"android": "https://dc.lft.to/lastmile_qr_scan", "ios": "https://dc.lft.to/lastmile_qr_scan"}, "is_reserved": 0}, {"bike_id": "4eedc055e1db5eced69626bcf69b941a", "name": "4eedc055e1db5eced69626bcf69b941a", "lat": 38.898582, "fusion_lat": 0.0, "type": "electric_scooter", "lon": -77.04885933333334, "is_disabled": 0, "fusion_lon": 0.0, "rental_uris": {"android": "https://dc.lft.to/lastmile_qr_scan", "ios": "https://dc.lft.to/lastmile_qr_scan"}, "is_reserved": 0}, {"bike_id": "bf883b08abd23247c5f0fe68102677b9", "name": "bf883b08abd23247c5f0fe68102677b9", "lat": 38.9201765, "fusion_lat": 0.0, "type": "electric_scooter", "lon": -77.031193, "is_disabled": 0, "fusion_lon": 0.0, "rental_uris": {"android": "https://dc.lft.to/lastmile_qr_scan", "ios": "https://dc.lft.to/lastmile_qr_scan"}, "is_reserved": 0}, {"bike_id": "4aab90e5713726042621eeb4e0926cd0", "name": "4aab90e5713726042621eeb4e0926cd0", "lat": 38.9168615, "fusion_lat": 0.0, "type": "electric_scooter", "lon": -77.029474, "is_disabled": 0, "fusion_lon": 0.0, "rental_uris": {"android": "https://dc.lft.to/lastmile_qr_scan", "ios": "https://dc.lft.to/lastmile_qr_scan"}, "is_reserved": 0}, {"bike_id": "ae0cc64db4329b599114e369cc4cf6e3", "name": "ae0cc64db4329b599114e369cc4cf6e3", "lat": 38.90060783333333, "fusion_lat": 0.0, "type": "electric_scooter", "lon": -77.0136085, "is_disabled": 0, "fusion_lon": 0.0, "rental_uris": {"android": "https://dc.lft.to/lastmile_qr_scan", "ios": "https://dc.lft.to/lastmile_qr_scan"}, "is_reserved": 0}, {"bike_id": "f3bc9953887ea060692f80b5fcf8b514", "name": "f3bc9953887ea060692f80b5fcf8b514", "lat": 38.9056575, "fusion_lat": 0.0, "type": "electric_scooter", "lon": -77.00780233333333, "is_disabled": 0, "fusion_lon": 0.0, "rental_uris": {"android": "https://dc.lft.to/lastmile_qr_scan", "ios": "https://dc.lft.to/lastmile_qr_scan"}, "is_reserved": 0}, {"bike_id": "e5b4f9a0922b0a900656ac24820088c4", "name": "e5b4f9a0922b0a900656ac24820088c4", "lat": 38.902352, "fusion_lat": 0.0, "type": "electric_scooter", "lon": -77.03747366666667, "is_disabled": 0, "fusion_lon": 0.0, "rental_uris": {"android": "https://dc.lft.to/lastmile_qr_scan", "ios": "https://dc.lft.to/lastmile_qr_scan"}, "is_reserved": 0}, {"bike_id": "221555c7fc4964b909c575a3a90f4ecc", "name": "221555c7fc4964b909c575a3a90f4ecc", "lat": 38.90391833333334, "fusion_lat": 0.0, "type": "electric_scooter", "lon": -77.06299533333333, "is_disabled": 0, "fusion_lon": 0.0, "rental_uris": {"android": "https://dc.lft.to/lastmile_qr_scan", "ios": "https://dc.lft.to/lastmile_qr_scan"}, "is_reserved": 0}, {"bike_id": "1f60e3c0ae107b8ab6cb27a12033bb78", "name": "1f60e3c0ae107b8ab6cb27a12033bb78", "lat": 38.902504, "fusion_lat": 0.0, "type": "electric_scooter", "lon": -77.02362466666666, "is_disabled": 0, "fusion_lon": 0.0, "rental_uris": {"android": "https://dc.lft.to/lastmile_qr_scan", "ios": "https://dc.lft.to/lastmile_qr_scan"}, "is_reserved": 0}, {"bike_id": "d622d5a864e4e9b9e4d6535975795861", "name": "d622d5a864e4e9b9e4d6535975795861", "lat": 38.897131, "fusion_lat": 0.0, "type": "electric_scooter", "lon": -77.02786483333334, "is_disabled": 0, "fusion_lon": 0.0, "rental_uris": {"android": "https://dc.lft.to/lastmile_qr_scan", "ios": "https://dc.lft.to/lastmile_qr_scan"}, "is_reserved": 0}, {"bike_id": "55d4deaaa1f811b19f22ae80dc0bd62b", "name": "55d4deaaa1f811b19f22ae80dc0bd62b", "lat": 38.862038, "fusion_lat": 0.0, "type": "electric_bike", "lon": -76.99536766666667, "is_disabled": 0, "fusion_lon": 0.0, "rental_uris": {"android": "https://dc.lft.to/lastmile_qr_scan", "ios": "https://dc.lft.to/lastmile_qr_scan"}, "is_reserved": 0}, {"bike_id": "9085f39db885e2929f1f0922d24437aa", "name": "9085f39db885e2929f1f0922d24437aa", "lat": 38.89822233333334, "fusion_lat": 0.0, "type": "electric_scooter", "lon": -77.03338166666667, "is_disabled": 0, "fusion_lon": 0.0, "rental_uris": {"android": "https://dc.lft.to/lastmile_qr_scan", "ios": "https://dc.lft.to/lastmile_qr_scan"}, "is_reserved": 0}, {"bike_id": "ebf7663d4c65608e69a5c6d295923338", "name": "ebf7663d4c65608e69a5c6d295923338", "lat": 38.91756983333333, "fusion_lat": 0.0, "type": "electric_scooter", "lon": -77.01926733333333, "is_disabled": 0, "fusion_lon": 0.0, "rental_uris": {"android": "https://dc.lft.to/lastmile_qr_scan", "ios": "https://dc.lft.to/lastmile_qr_scan"}, "is_reserved": 0}, {"bike_id": "c9d1b52bc7680c908c1bf1d953b09bc1", "name": "c9d1b52bc7680c908c1bf1d953b09bc1", "lat": 38.924325333333336, "fusion_lat": 0.0, "type": "electric_scooter", "lon": -77.00316833333333, "is_disabled": 0, "fusion_lon": 0.0, "rental_uris": {"android": "https://dc.lft.to/lastmile_qr_scan", "ios": "https://dc.lft.to/lastmile_qr_scan"}, "is_reserved": 0}, {"bike_id": "89457d8eb04336f53faee7e1ee0df2e9", "name": "89457d8eb04336f53faee7e1ee0df2e9", "lat": 38.894565, "fusion_lat": 0.0, "type": "electric_scooter", "lon": -77.02421466666667, "is_disabled": 0, "fusion_lon": 0.0, "rental_uris": {"android": "https://dc.lft.to/lastmile_qr_scan", "ios": "https://dc.lft.to/lastmile_qr_scan"}, "is_reserved": 0}, {"bike_id": "784d40d19409f4590b2cb9e42f4a8476", "name": "784d40d19409f4590b2cb9e42f4a8476", "lat": 38.92249316666667, "fusion_lat": 0.0, "type": "electric_scooter", "lon": -77.0352055, "is_disabled": 0, "fusion_lon": 0.0, "rental_uris": {"android": "https://dc.lft.to/lastmile_qr_scan", "ios": "https://dc.lft.to/lastmile_qr_scan"}, "is_reserved": 0}, {"bike_id": "b718000e13498733cd8b5333ba5e8ea7", "name": "b718000e13498733cd8b5333ba5e8ea7", "lat": 38.94913533333333, "fusion_lat": 0.0, "type": "electric_scooter", "lon": -77.02071783333334, "is_disabled": 0, "fusion_lon": 0.0, "rental_uris": {"android": "https://dc.lft.to/lastmile_qr_scan", "ios": "https://dc.lft.to/lastmile_qr_scan"}, "is_reserved": 0}, {"bike_id": "6f5fcdb8ac8bc16c0c759e76f5cd53ca", "name": "6f5fcdb8ac8bc16c0c759e76f5cd53ca", "lat": 38.907193, "fusion_lat": 0.0, "type": "electric_scooter", "lon": -77.02686333333334, "is_disabled": 0, "fusion_lon": 0.0, "rental_uris": {"android": "https://dc.lft.to/lastmile_qr_scan", "ios": "https://dc.lft.to/lastmile_qr_scan"}, "is_reserved": 0}, {"bike_id": "b6dcef61559d86b6ce6651ea9e19de12", "name": "b6dcef61559d86b6ce6651ea9e19de12", "lat": 38.935962333333336, "fusion_lat": 0.0, "type": "electric_scooter", "lon": -77.05865383333334, "is_disabled": 0, "fusion_lon": 0.0, "rental_uris": {"android": "https://dc.lft.to/lastmile_qr_scan", "ios": "https://dc.lft.to/lastmile_qr_scan"}, "is_reserved": 0}, {"bike_id": "fe77d8711a24f0e8ab3ac60bf10053fe", "name": "fe77d8711a24f0e8ab3ac60bf10053fe", "lat": 38.89850916666666, "fusion_lat": 0.0, "type": "electric_bike", "lon": -76.9319245, "is_disabled": 0, "fusion_lon": 0.0, "rental_uris": {"android": "https://dc.lft.to/lastmile_qr_scan", "ios": "https://dc.lft.to/lastmile_qr_scan"}, "is_reserved": 0}, {"bike_id": "5823bed71fdc24c3338737e8cc6404e7", "name": "5823bed71fdc24c3338737e8cc6404e7", "lat": 38.938568833333335, "fusion_lat": 0.0, "type": "electric_scooter", "lon": -77.026738, "is_disabled": 0, "fusion_lon": 0.0, "rental_uris": {"android": "https://dc.lft.to/lastmile_qr_scan", "ios": "https://dc.lft.to/lastmile_qr_scan"}, "is_reserved": 0}, {"bike_id": "11fde98fa3ce32d31f9e98fe7ea37b50", "name": "11fde98fa3ce32d31f9e98fe7ea37b50", "lat": 38.917069, "fusion_lat": 0.0, "type": "electric_scooter", "lon": -77.0372115, "is_disabled": 0, "fusion_lon": 0.0, "rental_uris": {"android": "https://dc.lft.to/lastmile_qr_scan", "ios": "https://dc.lft.to/lastmile_qr_scan"}, "is_reserved": 0}, {"bike_id": "970ad22a40b0d8bc4a7694ba5f4890eb", "name": "970ad22a40b0d8bc4a7694ba5f4890eb", "lat": 38.88125983333333, "fusion_lat": 0.0, "type": "electric_scooter", "lon": -76.99640616666667, "is_disabled": 0, "fusion_lon": 0.0, "rental_uris": {"android": "https://dc.lft.to/lastmile_qr_scan", "ios": "https://dc.lft.to/lastmile_qr_scan"}, "is_reserved": 0}, {"bike_id": "585431c68a35b483c0f76af52942f3fe", "name": "585431c68a35b483c0f76af52942f3fe", "lat": 38.8831635, "fusion_lat": 0.0, "type": "electric_scooter", "lon": -77.00196616666666, "is_disabled": 0, "fusion_lon": 0.0, "rental_uris": {"android": "https://dc.lft.to/lastmile_qr_scan", "ios": "https://dc.lft.to/lastmile_qr_scan"}, "is_reserved": 0}, {"bike_id": "587fa07e6f0000794fcde71670f010fd", "name": "587fa07e6f0000794fcde71670f010fd", "lat": 38.926015, "fusion_lat": 0.0, "type": "electric_scooter", "lon": -77.02157316666667, "is_disabled": 0, "fusion_lon": 0.0, "rental_uris": {"android": "https://dc.lft.to/lastmile_qr_scan", "ios": "https://dc.lft.to/lastmile_qr_scan"}, "is_reserved": 0}, {"bike_id": "9e4d9529c9f7ae892c96d7fe8239d00a", "name": "9e4d9529c9f7ae892c96d7fe8239d00a", "lat": 38.94820283333333, "fusion_lat": 0.0, "type": "electric_scooter", "lon": -77.02616933333333, "is_disabled": 0, "fusion_lon": 0.0, "rental_uris": {"android": "https://dc.lft.to/lastmile_qr_scan", "ios": "https://dc.lft.to/lastmile_qr_scan"}, "is_reserved": 0}, {"bike_id": "d1692bfbb8aa06e8511b5fd15a3366e2", "name": "d1692bfbb8aa06e8511b5fd15a3366e2", "lat": 38.901500166666665, "fusion_lat": 0.0, "type": "electric_scooter", "lon": -77.02855283333334, "is_disabled": 0, "fusion_lon": 0.0, "rental_uris": {"android": "https://dc.lft.to/lastmile_qr_scan", "ios": "https://dc.lft.to/lastmile_qr_scan"}, "is_reserved": 0}, {"bike_id": "fe6e12ba042f184ca04265235a639543", "name": "fe6e12ba042f184ca04265235a639543", "lat": 38.893398, "fusion_lat": 0.0, "type": "electric_scooter", "lon": -77.01172566666666, "is_disabled": 0, "fusion_lon": 0.0, "rental_uris": {"android": "https://dc.lft.to/lastmile_qr_scan", "ios": "https://dc.lft.to/lastmile_qr_scan"}, "is_reserved": 0}, {"bike_id": "0515e3923cfaf158df04c6eef3a66f38", "name": "0515e3923cfaf158df04c6eef3a66f38", "lat": 38.899166, "fusion_lat": 0.0, "type": "electric_scooter", "lon": -76.97838116666667, "is_disabled": 0, "fusion_lon": 0.0, "rental_uris": {"android": "https://dc.lft.to/lastmile_qr_scan", "ios": "https://dc.lft.to/lastmile_qr_scan"}, "is_reserved": 0}, {"bike_id": "30e9b6683b2b9e45a46742873188b0dd", "name": "30e9b6683b2b9e45a46742873188b0dd", "lat": 38.91705133333333, "fusion_lat": 0.0, "type": "electric_scooter", "lon": -77.0107265, "is_disabled": 0, "fusion_lon": 0.0, "rental_uris": {"android": "https://dc.lft.to/lastmile_qr_scan", "ios": "https://dc.lft.to/lastmile_qr_scan"}, "is_reserved": 0}, {"bike_id": "08e94f7f41e9397d674e8f382c6245df", "name": "08e94f7f41e9397d674e8f382c6245df", "lat": 38.898280166666666, "fusion_lat": 0.0, "type": "electric_scooter", "lon": -77.04611316666667, "is_disabled": 0, "fusion_lon": 0.0, "rental_uris": {"android": "https://dc.lft.to/lastmile_qr_scan", "ios": "https://dc.lft.to/lastmile_qr_scan"}, "is_reserved": 0}, {"bike_id": "d660e299bf207bd733b60fb6aef08de2", "name": "d660e299bf207bd733b60fb6aef08de2", "lat": 38.914214666666666, "fusion_lat": 0.0, "type": "electric_scooter", "lon": -77.02203033333333, "is_disabled": 0, "fusion_lon": 0.0, "rental_uris": {"android": "https://dc.lft.to/lastmile_qr_scan", "ios": "https://dc.lft.to/lastmile_qr_scan"}, "is_reserved": 0}, {"bike_id": "1478e536b667e441e3a693e3bb19d1b1", "name": "1478e536b667e441e3a693e3bb19d1b1", "lat": 38.908274166666665, "fusion_lat": 0.0, "type": "electric_scooter", "lon": -76.98719, "is_disabled": 0, "fusion_lon": 0.0, "rental_uris": {"android": "https://dc.lft.to/lastmile_qr_scan", "ios": "https://dc.lft.to/lastmile_qr_scan"}, "is_reserved": 0}, {"bike_id": "e9f48e791ba8885fd109d28723f8d97d", "name": "e9f48e791ba8885fd109d28723f8d97d", "lat": 38.8859865, "fusion_lat": 0.0, "type": "electric_scooter", "lon": -77.00403116666666, "is_disabled": 0, "fusion_lon": 0.0, "rental_uris": {"android": "https://dc.lft.to/lastmile_qr_scan", "ios": "https://dc.lft.to/lastmile_qr_scan"}, "is_reserved": 0}, {"bike_id": "e2f7a7e6c9e12c487cbf0c8a5b6481ad", "name": "e2f7a7e6c9e12c487cbf0c8a5b6481ad", "lat": 38.908309833333334, "fusion_lat": 0.0, "type": "electric_scooter", "lon": -76.99707533333333, "is_disabled": 0, "fusion_lon": 0.0, "rental_uris": {"android": "https://dc.lft.to/lastmile_qr_scan", "ios": "https://dc.lft.to/lastmile_qr_scan"}, "is_reserved": 0}, {"bike_id": "c1ae1851a7336bc73b475c70b6f7eb7d", "name": "c1ae1851a7336bc73b475c70b6f7eb7d", "lat": 39.01073783333333, "fusion_lat": 0.0, "type": "electric_bike", "lon": -76.91064916666667, "is_disabled": 0, "fusion_lon": 0.0, "rental_uris": {"android": "https://dc.lft.to/lastmile_qr_scan", "ios": "https://dc.lft.to/lastmile_qr_scan"}, "is_reserved": 0}, {"bike_id": "742c4176f65608f149c47c2f6d71e618", "name": "742c4176f65608f149c47c2f6d71e618", "lat": 38.91782, "fusion_lat": 0.0, "type": "electric_scooter", "lon": -77.03436816666667, "is_disabled": 0, "fusion_lon": 0.0, "rental_uris": {"android": "https://dc.lft.to/lastmile_qr_scan", "ios": "https://dc.lft.to/lastmile_qr_scan"}, "is_reserved": 0}, {"bike_id": "0371b26c6f7cb6c263fc15679ee5834d", "name": "0371b26c6f7cb6c263fc15679ee5834d", "lat": 38.928474333333334, "fusion_lat": 0.0, "type": "electric_scooter", "lon": -77.03733766666667, "is_disabled": 0, "fusion_lon": 0.0, "rental_uris": {"android": "https://dc.lft.to/lastmile_qr_scan", "ios": "https://dc.lft.to/lastmile_qr_scan"}, "is_reserved": 0}, {"bike_id": "90abe2d5eef8ab893a1b930c51e6d34c", "name": "90abe2d5eef8ab893a1b930c51e6d34c", "lat": 38.90239016666666, "fusion_lat": 0.0, "type": "electric_scooter", "lon": -77.026873, "is_disabled": 0, "fusion_lon": 0.0, "rental_uris": {"android": "https://dc.lft.to/lastmile_qr_scan", "ios": "https://dc.lft.to/lastmile_qr_scan"}, "is_reserved": 0}, {"bike_id": "2d151be4a4ed22f6da59ddcf5094ba81", "name": "2d151be4a4ed22f6da59ddcf5094ba81", "lat": 38.90249266666667, "fusion_lat": 0.0, "type": "electric_scooter", "lon": -77.01761683333334, "is_disabled": 0, "fusion_lon": 0.0, "rental_uris": {"android": "https://dc.lft.to/lastmile_qr_scan", "ios": "https://dc.lft.to/lastmile_qr_scan"}, "is_reserved": 0}, {"bike_id": "dd26115dca21ffcd8b3b92fcb19ca954", "name": "dd26115dca21ffcd8b3b92fcb19ca954", "lat": 38.94611666666667, "fusion_lat": 0.0, "type": "electric_scooter", "lon": -77.030564, "is_disabled": 0, "fusion_lon": 0.0, "rental_uris": {"android": "https://dc.lft.to/lastmile_qr_scan", "ios": "https://dc.lft.to/lastmile_qr_scan"}, "is_reserved": 0}, {"bike_id": "6d2b0955c8a31f87343c5bcdcb4a2364", "name": "6d2b0955c8a31f87343c5bcdcb4a2364", "lat": 38.8827915, "fusion_lat": 0.0, "type": "electric_bike", "lon": -76.9323725, "is_disabled": 0, "fusion_lon": 0.0, "rental_uris": {"android": "https://dc.lft.to/lastmile_qr_scan", "ios": "https://dc.lft.to/lastmile_qr_scan"}, "is_reserved": 0}, {"bike_id": "15d243d815fb5d7b8bb3a0571627ccda", "name": "15d243d815fb5d7b8bb3a0571627ccda", "lat": 38.901624166666664, "fusion_lat": 0.0, "type": "electric_scooter", "lon": -77.02610433333334, "is_disabled": 0, "fusion_lon": 0.0, "rental_uris": {"android": "https://dc.lft.to/lastmile_qr_scan", "ios": "https://dc.lft.to/lastmile_qr_scan"}, "is_reserved": 0}, {"bike_id": "039df0249c6fc22f8e5e3ca6f36b7a3f", "name": "039df0249c6fc22f8e5e3ca6f36b7a3f", "lat": 38.92413283333333, "fusion_lat": 0.0, "type": "electric_scooter", "lon": -77.01949933333333, "is_disabled": 0, "fusion_lon": 0.0, "rental_uris": {"android": "https://dc.lft.to/lastmile_qr_scan", "ios": "https://dc.lft.to/lastmile_qr_scan"}, "is_reserved": 0}, {"bike_id": "6aefdd84a7667eb8b469368d73b23dac", "name": "6aefdd84a7667eb8b469368d73b23dac", "lat": 38.894046, "fusion_lat": 0.0, "type": "electric_scooter", "lon": -77.023229, "is_disabled": 0, "fusion_lon": 0.0, "rental_uris": {"android": "https://dc.lft.to/lastmile_qr_scan", "ios": "https://dc.lft.to/lastmile_qr_scan"}, "is_reserved": 0}, {"bike_id": "7014af551409b72ee7fc7333e9803957", "name": "7014af551409b72ee7fc7333e9803957", "lat": 38.89230883333333, "fusion_lat": 0.0, "type": "electric_scooter", "lon": -77.04479283333333, "is_disabled": 0, "fusion_lon": 0.0, "rental_uris": {"android": "https://dc.lft.to/lastmile_qr_scan", "ios": "https://dc.lft.to/lastmile_qr_scan"}, "is_reserved": 0}, {"bike_id": "22928bc5f75fb75a204e99481715ada6", "name": "22928bc5f75fb75a204e99481715ada6", "lat": 38.92438816666667, "fusion_lat": 0.0, "type": "electric_scooter", "lon": -77.02018833333334, "is_disabled": 0, "fusion_lon": 0.0, "rental_uris": {"android": "https://dc.lft.to/lastmile_qr_scan", "ios": "https://dc.lft.to/lastmile_qr_scan"}, "is_reserved": 0}, {"bike_id": "1c586a9612a1081dab1ee25d7f586dff", "name": "1c586a9612a1081dab1ee25d7f586dff", "lat": 38.90076666666667, "fusion_lat": 0.0, "type": "electric_scooter", "lon": -77.026944, "is_disabled": 0, "fusion_lon": 0.0, "rental_uris": {"android": "https://dc.lft.to/lastmile_qr_scan", "ios": "https://dc.lft.to/lastmile_qr_scan"}, "is_reserved": 0}, {"bike_id": "ee82db623969ccd5179797eff653d55a", "name": "ee82db623969ccd5179797eff653d55a", "lat": 38.904397, "fusion_lat": 0.0, "type": "electric_scooter", "lon": -77.05857533333334, "is_disabled": 0, "fusion_lon": 0.0, "rental_uris": {"android": "https://dc.lft.to/lastmile_qr_scan", "ios": "https://dc.lft.to/lastmile_qr_scan"}, "is_reserved": 0}, {"bike_id": "e88929c5c55d70e842d740ce1c591702", "name": "e88929c5c55d70e842d740ce1c591702", "lat": 38.90700833333333, "fusion_lat": 0.0, "type": "electric_scooter", "lon": -77.0240385, "is_disabled": 0, "fusion_lon": 0.0, "rental_uris": {"android": "https://dc.lft.to/lastmile_qr_scan", "ios": "https://dc.lft.to/lastmile_qr_scan"}, "is_reserved": 0}, {"bike_id": "ae191e6dbe537a69f14d0458876cf5d7", "name": "ae191e6dbe537a69f14d0458876cf5d7", "lat": 38.91655183333334, "fusion_lat": 0.0, "type": "electric_scooter", "lon": -77.043888, "is_disabled": 0, "fusion_lon": 0.0, "rental_uris": {"android": "https://dc.lft.to/lastmile_qr_scan", "ios": "https://dc.lft.to/lastmile_qr_scan"}, "is_reserved": 0}, {"bike_id": "9a1730bf2af74639e42ec3c2d3f0bf87", "name": "9a1730bf2af74639e42ec3c2d3f0bf87", "lat": 38.910332, "fusion_lat": 0.0, "type": "electric_scooter", "lon": -77.035375, "is_disabled": 0, "fusion_lon": 0.0, "rental_uris": {"android": "https://dc.lft.to/lastmile_qr_scan", "ios": "https://dc.lft.to/lastmile_qr_scan"}, "is_reserved": 0}, {"bike_id": "769887aec77ff7f4cbdb2c5c8cf9e056", "name": "769887aec77ff7f4cbdb2c5c8cf9e056", "lat": 38.92667516666667, "fusion_lat": 0.0, "type": "electric_scooter", "lon": -77.02761733333334, "is_disabled": 0, "fusion_lon": 0.0, "rental_uris": {"android": "https://dc.lft.to/lastmile_qr_scan", "ios": "https://dc.lft.to/lastmile_qr_scan"}, "is_reserved": 0}, {"bike_id": "ac13832ba9d9e895a7fe44a3b13e3bbf", "name": "ac13832ba9d9e895a7fe44a3b13e3bbf", "lat": 38.9474195, "fusion_lat": 0.0, "type": "electric_scooter", "lon": -77.065263, "is_disabled": 0, "fusion_lon": 0.0, "rental_uris": {"android": "https://dc.lft.to/lastmile_qr_scan", "ios": "https://dc.lft.to/lastmile_qr_scan"}, "is_reserved": 0}, {"bike_id": "b34bab89cad9e62047dfa6810f514dfd", "name": "b34bab89cad9e62047dfa6810f514dfd", "lat": 38.8989615, "fusion_lat": 0.0, "type": "electric_scooter", "lon": -76.97994116666666, "is_disabled": 0, "fusion_lon": 0.0, "rental_uris": {"android": "https://dc.lft.to/lastmile_qr_scan", "ios": "https://dc.lft.to/lastmile_qr_scan"}, "is_reserved": 0}, {"bike_id": "3df4b1453eb0d05f22eb8c1acf8d4014", "name": "3df4b1453eb0d05f22eb8c1acf8d4014", "lat": 38.89225166666667, "fusion_lat": 0.0, "type": "electric_scooter", "lon": -77.045077, "is_disabled": 0, "fusion_lon": 0.0, "rental_uris": {"android": "https://dc.lft.to/lastmile_qr_scan", "ios": "https://dc.lft.to/lastmile_qr_scan"}, "is_reserved": 0}, {"bike_id": "0421b4294c571e342d5fa890557c406b", "name": "0421b4294c571e342d5fa890557c406b", "lat": 38.88492, "fusion_lat": 0.0, "type": "electric_scooter", "lon": -77.02167083333333, "is_disabled": 0, "fusion_lon": 0.0, "rental_uris": {"android": "https://dc.lft.to/lastmile_qr_scan", "ios": "https://dc.lft.to/lastmile_qr_scan"}, "is_reserved": 0}, {"bike_id": "17708f9621ee0402fd9ffd5148863674", "name": "17708f9621ee0402fd9ffd5148863674", "lat": 38.914623166666665, "fusion_lat": 0.0, "type": "electric_scooter", "lon": -77.0321335, "is_disabled": 0, "fusion_lon": 0.0, "rental_uris": {"android": "https://dc.lft.to/lastmile_qr_scan", "ios": "https://dc.lft.to/lastmile_qr_scan"}, "is_reserved": 0}, {"bike_id": "12863ae09833eb5637f12763c2d2868c", "name": "12863ae09833eb5637f12763c2d2868c", "lat": 38.9035865, "fusion_lat": 0.0, "type": "electric_scooter", "lon": -77.02196966666666, "is_disabled": 0, "fusion_lon": 0.0, "rental_uris": {"android": "https://dc.lft.to/lastmile_qr_scan", "ios": "https://dc.lft.to/lastmile_qr_scan"}, "is_reserved": 0}, {"bike_id": "1675617cb798f11b735620fe7223515a", "name": "1675617cb798f11b735620fe7223515a", "lat": 38.91919033333333, "fusion_lat": 0.0, "type": "electric_scooter", "lon": -77.0311645, "is_disabled": 0, "fusion_lon": 0.0, "rental_uris": {"android": "https://dc.lft.to/lastmile_qr_scan", "ios": "https://dc.lft.to/lastmile_qr_scan"}, "is_reserved": 0}, {"bike_id": "aeb408300691f68d49f95d366f2c88ff", "name": "aeb408300691f68d49f95d366f2c88ff", "lat": 38.9749685, "fusion_lat": 0.0, "type": "electric_scooter", "lon": -77.01696783333334, "is_disabled": 0, "fusion_lon": 0.0, "rental_uris": {"android": "https://dc.lft.to/lastmile_qr_scan", "ios": "https://dc.lft.to/lastmile_qr_scan"}, "is_reserved": 0}, {"bike_id": "746bf305780b91b356814870eaf14aa9", "name": "746bf305780b91b356814870eaf14aa9", "lat": 38.922832166666666, "fusion_lat": 0.0, "type": "electric_scooter", "lon": -76.99768483333334, "is_disabled": 0, "fusion_lon": 0.0, "rental_uris": {"android": "https://dc.lft.to/lastmile_qr_scan", "ios": "https://dc.lft.to/lastmile_qr_scan"}, "is_reserved": 0}, {"bike_id": "fa920eabfccbfea2a38c17c5ce376892", "name": "fa920eabfccbfea2a38c17c5ce376892", "lat": 38.91321633333333, "fusion_lat": 0.0, "type": "electric_scooter", "lon": -77.01502866666667, "is_disabled": 0, "fusion_lon": 0.0, "rental_uris": {"android": "https://dc.lft.to/lastmile_qr_scan", "ios": "https://dc.lft.to/lastmile_qr_scan"}, "is_reserved": 0}, {"bike_id": "2590072cbf0bb83941d368c326ba89c6", "name": "2590072cbf0bb83941d368c326ba89c6", "lat": 38.919211833333335, "fusion_lat": 0.0, "type": "electric_scooter", "lon": -77.07276616666667, "is_disabled": 0, "fusion_lon": 0.0, "rental_uris": {"android": "https://dc.lft.to/lastmile_qr_scan", "ios": "https://dc.lft.to/lastmile_qr_scan"}, "is_reserved": 0}, {"bike_id": "aeca5159e9b45887c30bff9134d01119", "name": "aeca5159e9b45887c30bff9134d01119", "lat": 38.91165816666667, "fusion_lat": 0.0, "type": "electric_scooter", "lon": -77.038437, "is_disabled": 0, "fusion_lon": 0.0, "rental_uris": {"android": "https://dc.lft.to/lastmile_qr_scan", "ios": "https://dc.lft.to/lastmile_qr_scan"}, "is_reserved": 0}, {"bike_id": "205a83e27957d94b4d7eb1f94ce22270", "name": "205a83e27957d94b4d7eb1f94ce22270", "lat": 38.97310983333333, "fusion_lat": 0.0, "type": "electric_bike", "lon": -76.994875, "is_disabled": 0, "fusion_lon": 0.0, "rental_uris": {"android": "https://dc.lft.to/lastmile_qr_scan", "ios": "https://dc.lft.to/lastmile_qr_scan"}, "is_reserved": 0}, {"bike_id": "b4204d4a2a2b7705110ac5d4fb925a6e", "name": "b4204d4a2a2b7705110ac5d4fb925a6e", "lat": 38.9281865, "fusion_lat": 0.0, "type": "electric_scooter", "lon": -77.0140795, "is_disabled": 0, "fusion_lon": 0.0, "rental_uris": {"android": "https://dc.lft.to/lastmile_qr_scan", "ios": "https://dc.lft.to/lastmile_qr_scan"}, "is_reserved": 0}, {"bike_id": "fdcd17d0d94ad8a68d81154d8311976f", "name": "fdcd17d0d94ad8a68d81154d8311976f", "lat": 38.9215115, "fusion_lat": 0.0, "type": "electric_scooter", "lon": -77.02106, "is_disabled": 0, "fusion_lon": 0.0, "rental_uris": {"android": "https://dc.lft.to/lastmile_qr_scan", "ios": "https://dc.lft.to/lastmile_qr_scan"}, "is_reserved": 0},