{"data": {"bikes": [{"is_disabled": 0, "is_reserved": 0, "fusion_lat": 0.0, "lat": 38.92329633333333, "fusion_lon": 0.0, "rental_uris": {"ios": "https://dc.lft.to/lastmile_qr_scan", "android": "https://dc.lft.to/lastmile_qr_scan"}, "lon": -77.04512183333334, "bike_id": "d53e5dc931b3627e40fcf70a124bf62e", "type": "electric_scooter", "name": "d53e5dc931b3627e40fcf70a124bf62e"}, {"is_disabled": 0, "is_reserved": 0, "fusion_lat": 0.0, "lat": 38.916009833333334, "fusion_lon": 0.0, "rental_uris": {"ios": "https://dc.lft.to/lastmile_qr_scan", "android": "https://dc.lft.to/lastmile_qr_scan"}, "lon": -77.02405816666666, "bike_id": "42209dcb00e32e4dedb9f47869002880", "type": "electric_scooter", "name": "42209dcb00e32e4dedb9f47869002880"}, {"is_disabled": 0, "is_reserved": 0, "fusion_lat": 0.0, "lat": 38.95241866666667, "fusion_lon": 0.0, "rental_uris": {"ios": "https://dc.lft.to/lastmile_qr_scan", "android": "https://dc.lft.to/lastmile_qr_scan"}, "lon": -76.97953216666667, "bike_id": "9ec70278ca993861edf5ac5eeddd2287", "type": "electric_bike", "name": "9ec70278ca993861edf5ac5eeddd2287"}, {"is_disabled": 0, "is_reserved": 0, "fusion_lat": 0.0, "lat": 38.92106483333333, "fusion_lon": 0.0, "rental_uris": {"ios": "https://dc.lft.to/lastmile_qr_scan", "android": "https://dc.lft.to/lastmile_qr_scan"}, "lon": -77.030442, "bike_id": "8b65059d677ec4c39277241849b760ac", "type": "electric_scooter", "name": "8b65059d677ec4c39277241849b760ac"}, {"is_disabled": 0, "is_reserved": 0, "fusion_lat": 0.0, "lat": 38.917292, "fusion_lon": 0.0, "rental_uris": {"ios": "https://dc.lft.to/lastmile_qr_scan", "android": "https://dc.lft.to/lastmile_qr_scan"}, "lon": -77.02504366666666, "bike_id": "51a9d42ef6a743b0372b09f8350be4d5", "type": "electric_scooter", "name": "51a9d42ef6a743b0372b09f8350be4d5"}, {"is_disabled": 0, "is_reserved": 0, "fusion_lat": 0.0, "lat": 38.90625, "fusion_lon": 0.0, "rental_uris": {"ios": "https://dc.lft.to/lastmile_qr_scan", "android": "https://dc.lft.to/lastmile_qr_scan"}, "lon": -77.06891366666666, "bike_id": "de26bb20c93de918fd384509f321729f", "type": "electric_scooter", "name": "de26bb20c93de918fd384509f321729f"}, {"is_disabled": 0, "is_reserved": 0, "fusion_lat": 0.0, "lat": 38.881072333333336, "fusion_lon": 0.0, "rental_uris": {"ios": "https://dc.lft.to/lastmile_qr_scan", "android": "https://dc.lft.to/lastmile_qr_scan"}, "lon": -77.02635316666667, "bike_id": "e2b84e2cf37e226a66d9b67c3dc22ae6", "type": "electric_scooter", "name": "e2b84e2cf37e226a66d9b67c3dc22ae6"}, {"is_disabled": 0, "is_reserved": 0, "fusion_lat": 0.0, "lat": 38.89669816666667, "fusion_lon": 0.0, "rental_uris": {"ios": "https://dc.lft.to/lastmile_qr_scan", "android": "https://dc.lft.to/lastmile_qr_scan"}, "lon": -77.04351783333334, "bike_id": "0c8a4dabf9abb502c1a534291b7a0128", "type": "electric_scooter", "name": "0c8a4dabf9abb502c1a534291b7a0128"}, {"is_disabled": 0, "is_reserved": 0, "fusion_lat": 0.0, "lat": 38.902192666666664, "fusion_lon": 0.0, "rental_uris": {"ios": "https://dc.lft.to/lastmile_qr_scan", "android": "https://dc.lft.to/lastmile_qr_scan"}, "lon": -76.93174283333333, "bike_id": "2632d920615d7cf28d747253532af74b", "type": "electric_bike", "name": "2632d920615d7cf28d747253532af74b"}, {"is_disabled": 0, "is_reserved": 0, "fusion_lat": 0.0, "lat": 38.901647, "fusion_lon": 0.0, "rental_uris": {"ios": "https://dc.lft.to/lastmile_qr_scan", "android": "https://dc.lft.to/lastmile_qr_scan"}, "lon": -77.04869216666667, "bike_id": "9abbf8ce84b138d1ab6897824e63d170", "type": "electric_scooter", "name": "9abbf8ce84b138d1ab6897824e63d170"}, {"is_disabled": 0, "is_reserved": 0, "fusion_lat": 0.0, "lat": 38.897998, "fusion_lon": 0.0, "rental_uris": {"ios": "https://dc.lft.to/lastmile_qr_scan", "android": "https://dc.lft.to/lastmile_qr_scan"}, "lon": -76.97166566666667, "bike_id": "97eafbc83712df5267f86df51591d525", "type": "electric_scooter", "name": "97eafbc83712df5267f86df51591d525"}, {"is_disabled": 0, "is_reserved": 0, "fusion_lat": 0.0, "lat": 38.93449533333333, "fusion_lon": 0.0, "rental_uris": {"ios": "https://dc.lft.to/lastmile_qr_scan", "android": "https://dc.lft.to/lastmile_qr_scan"}, "lon": -77.03075716666666, "bike_id": "d2dc37aff1d38aa765ffe0ecfd39740b", "type": "electric_scooter", "name": "d2dc37aff1d38aa765ffe0ecfd39740b"}, {"is_disabled": 0, "is_reserved": 0, "fusion_lat": 0.0, "lat": 38.915623, "fusion_lon": 0.0, "rental_uris": {"ios": "https://dc.lft.to/lastmile_qr_scan", "android": "https://dc.lft.to/lastmile_qr_scan"}, "lon": -77.04089383333333, "bike_id": "3ad4971fa453020cfbeb1c0869cdb107", "type": "electric_scooter", "name": "3ad4971fa453020cfbeb1c0869cdb107"}, {"is_disabled": 0, "is_reserved": 0, "fusion_lat": 0.0, "lat": 38.83865683333333, "fusion_lon": 0.0, "rental_uris": {"ios": "https://dc.lft.to/lastmile_qr_scan", "android": "https://dc.lft.to/lastmile_qr_scan"}, "lon": -76.99696516666667, "bike_id": "6e055a1c8ad235be70bb432ecca8359a", "type": "electric_bike", "name": "6e055a1c8ad235be70bb432ecca8359a"}, {"is_disabled": 0, "is_reserved": 0, "fusion_lat": 0.0, "lat": 38.883816333333336, "fusion_lon": 0.0, "rental_uris": {"ios": "https://dc.lft.to/lastmile_qr_scan", "android": "https://dc.lft.to/lastmile_qr_scan"}, "lon": -77.03037733333333, "bike_id": "0375cc1ecd1a75d982c1b69e964404b0", "type": "electric_scooter", "name": "0375cc1ecd1a75d982c1b69e964404b0"}, {"is_disabled": 0, "is_reserved": 0, "fusion_lat": 0.0, "lat": 38.871804, "fusion_lon": 0.0, "rental_uris": {"ios": "https://dc.lft.to/lastmile_qr_scan", "android": "https://dc.lft.to/lastmile_qr_scan"}, "lon": -77.00613166666666, "bike_id": "281f3c4df19092ebd6997a9d132074f9", "type": "electric_bike", "name": "281f3c4df19092ebd6997a9d132074f9"}, {"is_disabled": 0, "is_reserved": 0, "fusion_lat": 0.0, "lat": 38.92459866666667, "fusion_lon": 0.0, "rental_uris": {"ios": "https://dc.lft.to/lastmile_qr_scan", "android": "https://dc.lft.to/lastmile_qr_scan"}, "lon": -77.057644, "bike_id": "41716d22949f753a0d8bf7a773223795", "type": "electric_scooter", "name": "41716d22949f753a0d8bf7a773223795"}, {"is_disabled": 0, "is_reserved": 0, "fusion_lat": 0.0, "lat": 38.918139, "fusion_lon": 0.0, "rental_uris": {"ios": "https://dc.lft.to/lastmile_qr_scan", "android": "https://dc.lft.to/lastmile_qr_scan"}, "lon": -77.03132216666667, "bike_id": "e57e163f035a188d4bc26f4da816b8f9", "type": "electric_scooter", "name": "e57e163f035a188d4bc26f4da816b8f9"}, {"is_disabled": 0, "is_reserved": 0, "fusion_lat": 0.0, "lat": 38.901284833333335, "fusion_lon": 0.0, "rental_uris": {"ios": "https://dc.lft.to/lastmile_qr_scan", "android": "https://dc.lft.to/lastmile_qr_scan"}, "lon": -77.00361166666667, "bike_id": "b045d62dd266a6cbce283c4a2dcd5224", "type": "electric_scooter", "name": "b045d62dd266a6cbce283c4a2dcd5224"}, {"is_disabled": 0, "is_reserved": 0, "fusion_lat": 0.0, "lat": 38.981513, "fusion_lon": 0.0, "rental_uris": {"ios": "https://dc.lft.to/lastmile_qr_scan", "android": "https://dc.lft.to/lastmile_qr_scan"}, "lon": -77.00768416666666, "bike_id": "79ef138215640809b615ef2d899e82a6", "type": "electric_bike", "name": "79ef138215640809b615ef2d899e82a6"}, {"is_disabled": 0, "is_reserved": 0, "fusion_lat": 0.0, "lat": 39.010658, "fusion_lon": 0.0, "rental_uris": {"ios": "https://dc.lft.to/lastmile_qr_scan", "android": "https://dc.lft.to/lastmile_qr_scan"}, "lon": -76.9224195, "bike_id": "d5341af89a49b87d890c1d60909d7a19", "type": "electric_bike", "name": "d5341af89a49b87d890c1d60909d7a19"}, {"is_disabled": 0, "is_reserved": 0, "fusion_lat": 0.0, "lat": 38.90020583333333, "fusion_lon": 0.0, "rental_uris": {"ios": "https://dc.lft.to/lastmile_qr_scan", "android": "https://dc.lft.to/lastmile_qr_scan"}, "lon": -77.01192733333333, "bike_id": "9ae2f35f27f2f2fddf2829e9c90dd074", "type": "electric_scooter", "name": "9ae2f35f27f2f2fddf2829e9c90dd074"}, {"is_disabled": 0, "is_reserved": 0, "fusion_lat": 0.0, "lat": 38.9168755, "fusion_lon": 0.0, "rental_uris": {"ios": "https://dc.lft.to/lastmile_qr_scan", "android": "https://dc.lft.to/lastmile_qr_scan"}, "lon": -77.04172083333333, "bike_id": "a57d22e75176cd104262b5e380571ad7", "type": "electric_scooter", "name": "a57d22e75176cd104262b5e380571ad7"}, {"is_disabled": 0, "is_reserved": 0, "fusion_lat": 0.0, "lat": 38.901499, "fusion_lon": 0.0, "rental_uris": {"ios": "https://dc.lft.to/lastmile_qr_scan", "android": "https://dc.lft.to/lastmile_qr_scan"}, "lon": -76.9855575, "bike_id": "2a2deabd2eba454ca8742c58835c4f5d", "type": "electric_scooter", "name": "2a2deabd2eba454ca8742c58835c4f5d"}, {"is_disabled": 0, "is_reserved": 0, "fusion_lat": 0.0, "lat": 38.918072333333335, "fusion_lon": 0.0, "rental_uris": {"ios": "https://dc.lft.to/lastmile_qr_scan", "android": "https://dc.lft.to/lastmile_qr_scan"}, "lon": -77.02496516666666, "bike_id": "e0c64cbb79f187a4ab9da4dd72f60894", "type": "electric_scooter", "name": "e0c64cbb79f187a4ab9da4dd72f60894"}, {"is_disabled": 0, "is_reserved": 0, "fusion_lat": 0.0, "lat": 38.919257, "fusion_lon": 0.0, "rental_uris": {"ios": "https://dc.lft.to/lastmile_qr_scan", "android": "https://dc.lft.to/lastmile_qr_scan"}, "lon": -77.0343955, "bike_id": "a6d42dae7d7e05ffed958f76ff79b563", "type": "electric_scooter", "name": "a6d42dae7d7e05ffed958f76ff79b563"}, {"is_disabled": 0, "is_reserved": 0, "fusion_lat": 0.0, "lat": 38.87448366666667, "fusion_lon": 0.0, "rental_uris": {"ios": "https://dc.lft.to/lastmile_qr_scan", "android": "https://dc.lft.to/lastmile_qr_scan"}, "lon": -77.00920666666667, "bike_id": "dfbb40b3a6fcb28b473692234da85825", "type": "electric_scooter", "name": "dfbb40b3a6fcb28b473692234da85825"}, {"is_disabled": 0, "is_reserved": 0, "fusion_lat": 0.0, "lat": 38.878441333333335, "fusion_lon": 0.0, "rental_uris": {"ios": "https://dc.lft.to/lastmile_qr_scan", "android": "https://dc.lft.to/lastmile_qr_scan"}, "lon": -76.93125066666667, "bike_id": "f0d5b415e586f01f8e5b3290751affa1", "type": "electric_scooter", "name": "f0d5b415e586f01f8e5b3290751affa1"}, {"is_disabled": 0, "is_reserved": 0, "fusion_lat": 0.0, "lat": 38.93175633333333, "fusion_lon": 0.0, "rental_uris": {"ios": "https://dc.lft.to/lastmile_qr_scan", "android": "https://dc.lft.to/lastmile_qr_scan"}, "lon": -77.023406, "bike_id": "1a37d1ad90150767b0bc362ba5624d7b", "type": "electric_scooter", "name": "1a37d1ad90150767b0bc362ba5624d7b"}, {"is_disabled": 0, "is_reserved": 0, "fusion_lat": 0.0, "lat": 38.9056775, "fusion_lon": 0.0, "rental_uris": {"ios": "https://dc.lft.to/lastmile_qr_scan", "android": "https://dc.lft.to/lastmile_qr_scan"}, "lon": -77.00322733333333, "bike_id": "fed31ec8ddba016083323f8c34d899b2", "type": "electric_scooter", "name": "fed31ec8ddba016083323f8c34d899b2"}, {"is_disabled": 0, "is_reserved": 0, "fusion_lat": 0.0, "lat": 38.84478816666667, "fusion_lon": 0.0, "rental_uris": {"ios": "https://dc.lft.to/lastmile_qr_scan", "android": "https://dc.lft.to/lastmile_qr_scan"}, "lon": -76.99587733333334, "bike_id": "64ade9f20b15465aba92a41fc5f6b969", "type": "electric_bike", "name": "64ade9f20b15465aba92a41fc5f6b969"}, {"is_disabled": 0, "is_reserved": 0, "fusion_lat": 0.0, "lat": 38.918123333333334, "fusion_lon": 0.0, "rental_uris": {"ios": "https://dc.lft.to/lastmile_qr_scan", "android": "https://dc.lft.to/lastmile_qr_scan"}, "lon": -77.03471583333334, "bike_id": "59a4b0e06c84aae363589bbef1c882e0", "type": "electric_scooter", "name": "59a4b0e06c84aae363589bbef1c882e0"}, {"is_disabled": 0, "is_reserved": 0, "fusion_lat": 0.0, "lat": 38.898313, "fusion_lon": 0.0, "rental_uris": {"ios": "https://dc.lft.to/lastmile_qr_scan", "android": "https://dc.lft.to/lastmile_qr_scan"}, "lon": -76.942775, "bike_id": "c08ad33433bb001767479ac710081e19", "type": "electric_bike", "name": "c08ad33433bb001767479ac710081e19"}, {"is_disabled": 0, "is_reserved": 0, "fusion_lat": 0.0, "lat": 38.876968, "fusion_lon": 0.0, "rental_uris": {"ios": "https://dc.lft.to/lastmile_qr_scan", "android": "https://dc.lft.to/lastmile_qr_scan"}, "lon": -76.99618933333333, "bike_id": "b7f10d71fe347b7d33d90f528f17d5b4", "type": "electric_scooter", "name": "b7f10d71fe347b7d33d90f528f17d5b4"}, {"is_disabled": 0, "is_reserved": 0, "fusion_lat": 0.0, "lat": 38.938822333333334, "fusion_lon": 0.0, "rental_uris": {"ios": "https://dc.lft.to/lastmile_qr_scan", "android": "https://dc.lft.to/lastmile_qr_scan"}, "lon": -77.02923066666666, "bike_id": "2e78d45837aa1fe3d462fd7cf5c82921", "type": "electric_scooter", "name": "2e78d45837aa1fe3d462fd7cf5c82921"}, {"is_disabled": 0, "is_reserved": 0, "fusion_lat": 0.0, "lat": 38.88113933333333, "fusion_lon": 0.0, "rental_uris": {"ios": "https://dc.lft.to/lastmile_qr_scan", "android": "https://dc.lft.to/lastmile_qr_scan"}, "lon": -77.01671816666666, "bike_id": "6f3deed5fe43c95b1567694aab296261", "type": "electric_bike", "name": "6f3deed5fe43c95b1567694aab296261"}, {"is_disabled": 0, "is_reserved": 0, "fusion_lat": 0.0, "lat": 38.92220783333333, "fusion_lon": 0.0, "rental_uris": {"ios": "https://dc.lft.to/lastmile_qr_scan", "android": "https://dc.lft.to/lastmile_qr_scan"}, "lon": -77.0389115, "bike_id": "444516fe09dd4e9888bebacbc0800963", "type": "electric_scooter", "name": "444516fe09dd4e9888bebacbc0800963"}, {"is_disabled": 0, "is_reserved": 0, "fusion_lat": 0.0, "lat": 38.89871566666667, "fusion_lon": 0.0, "rental_uris": {"ios": "https://dc.lft.to/lastmile_qr_scan", "android": "https://dc.lft.to/lastmile_qr_scan"}, "lon": -77.02294116666667, "bike_id": "90c2c5d80a29f9e36148dedc3fcf1b30", "type": "electric_scooter", "name": "90c2c5d80a29f9e36148dedc3fcf1b30"}, {"is_disabled": 0, "is_reserved": 0, "fusion_lat": 0.0, "lat": 38.87450416666667, "fusion_lon": 0.0, "rental_uris": {"ios": "https://dc.lft.to/lastmile_qr_scan", "android": "https://dc.lft.to/lastmile_qr_scan"}, "lon": -77.002808, "bike_id": "5d10ab5b36469adf6e1f0bad3a4c930b", "type": "electric_scooter", "name": "5d10ab5b36469adf6e1f0bad3a4c930b"}, {"is_disabled": 0, "is_reserved": 0, "fusion_lat": 0.0, "lat": 38.9134045, "fusion_lon": 0.0, "rental_uris": {"ios": "https://dc.lft.to/lastmile_qr_scan", "android": "https://dc.lft.to/lastmile_qr_scan"}, "lon": -77.04240933333334, "bike_id": "c9ba5d0c3b8325706ef1792f1a75c2c8", "type": "electric_scooter", "name": "c9ba5d0c3b8325706ef1792f1a75c2c8"}, {"is_disabled": 0, "is_reserved": 0, "fusion_lat": 0.0, "lat": 38.904347666666666, "fusion_lon": 0.0, "rental_uris": {"ios": "https://dc.lft.to/lastmile_qr_scan", "android": "https://dc.lft.to/lastmile_qr_scan"}, "lon": -76.97233, "bike_id": "880668982a0a71b0594840b0c60de2e2", "type": "electric_bike", "name": "880668982a0a71b0594840b0c60de2e2"}, {"is_disabled": 0, "is_reserved": 0, "fusion_lat": 0.0, "lat": 38.89850366666667, "fusion_lon": 0.0, "rental_uris": {"ios": "https://dc.lft.to/lastmile_qr_scan", "android": "https://dc.lft.to/lastmile_qr_scan"}, "lon": -76.92751316666667, "bike_id": "8127417054c23bf86089ffed84dfd861", "type": "electric_scooter", "name": "8127417054c23bf86089ffed84dfd861"}, {"is_disabled": 0, "is_reserved": 0, "fusion_lat": 0.0, "lat": 38.9072645, "fusion_lon": 0.0, "rental_uris": {"ios": "https://dc.lft.to/lastmile_qr_scan", "android": "https://dc.lft.to/lastmile_qr_scan"}, "lon": -77.04640033333334, "bike_id": "c742e3789a6cccbc25d07fb8c2bacffa", "type": "electric_scooter", "name": "c742e3789a6cccbc25d07fb8c2bacffa"}, {"is_disabled": 0, "is_reserved": 0, "fusion_lat": 0.0, "lat": 38.833004833333334, "fusion_lon": 0.0, "rental_uris": {"ios": "https://dc.lft.to/lastmile_qr_scan", "android": "https://dc.lft.to/lastmile_qr_scan"}, "lon": -77.08407983333333, "bike_id": "71b74dccc2852d26b41a7a976d9657ec", "type": "electric_bike", "name": "71b74dccc2852d26b41a7a976d9657ec"}, {"is_disabled": 0, "is_reserved": 0, "fusion_lat": 0.0, "lat": 38.918201, "fusion_lon": 0.0, "rental_uris": {"ios": "https://dc.lft.to/lastmile_qr_scan", "android": "https://dc.lft.to/lastmile_qr_scan"}, "lon": -77.03889533333333, "bike_id": "3fa43dededc6bd60d49969424275937b", "type": "electric_scooter", "name": "3fa43dededc6bd60d49969424275937b"}, {"is_disabled": 0, "is_reserved": 0, "fusion_lat": 0.0, "lat": 38.928267, "fusion_lon": 0.0, "rental_uris": {"ios": "https://dc.lft.to/lastmile_qr_scan", "android": "https://dc.lft.to/lastmile_qr_scan"}, "lon": -77.03712666666667, "bike_id": "83e805be3658c64f647cbfe0e55b5c35", "type": "electric_scooter", "name": "83e805be3658c64f647cbfe0e55b5c35"}, {"is_disabled": 0, "is_reserved": 0, "fusion_lat": 0.0, "lat": 38.897801666666666, "fusion_lon": 0.0, "rental_uris": {"ios": "https://dc.lft.to/lastmile_qr_scan", "android": "https://dc.lft.to/lastmile_qr_scan"}, "lon": -77.04803016666666, "bike_id": "e94b2d594b1e719453608973278f3739", "type": "electric_scooter", "name": "e94b2d594b1e719453608973278f3739"}, {"is_disabled": 0, "is_reserved": 0, "fusion_lat": 0.0, "lat": 38.92665983333333, "fusion_lon": 0.0, "rental_uris": {"ios": "https://dc.lft.to/lastmile_qr_scan", "android": "https://dc.lft.to/lastmile_qr_scan"}, "lon": -76.99555516666666, "bike_id": "a5d29226eeb8314f82ba420bf3db770d", "type": "electric_scooter", "name": "a5d29226eeb8314f82ba420bf3db770d"}, {"is_disabled": 0, "is_reserved": 0, "fusion_lat": 0.0, "lat": 38.901836, "fusion_lon": 0.0, "rental_uris": {"ios": "https://dc.lft.to/lastmile_qr_scan", "android": "https://dc.lft.to/lastmile_qr_scan"}, "lon": -76.99956766666666, "bike_id": "2b9cb4d3f624cb00fb159b451621e5ac", "type": "electric_scooter", "name": "2b9cb4d3f624cb00fb159b451621e5ac"}, {"is_disabled": 0, "is_reserved": 0, "fusion_lat": 0.0, "lat": 38.809770666666665, "fusion_lon": 0.0, "rental_uris": {"ios": "https://dc.lft.to/lastmile_qr_scan", "android": "https://dc.lft.to/lastmile_qr_scan"}, "lon": -77.0765595, "bike_id": "88f729d9d40f44b6e9a23ba652e27829", "type": "electric_bike", "name": "88f729d9d40f44b6e9a23ba652e27829"}, {"is_disabled": 0, "is_reserved": 0, "fusion_lat": 0.0, "lat": 38.89631466666667, "fusion_lon": 0.0, "rental_uris": {"ios": "https://dc.lft.to/lastmile_qr_scan", "android": "https://dc.lft.to/lastmile_qr_scan"}, "lon": -77.02860833333334, "bike_id": "79ca4cc9339a3409517e3a3eea84e831", "type": "electric_scooter", "name": "79ca4cc9339a3409517e3a3eea84e831"}, {"is_disabled": 0, "is_reserved": 0, "fusion_lat": 0.0, "lat": 38.92761266666667, "fusion_lon": 0.0, "rental_uris": {"ios": "https://dc.lft.to/lastmile_qr_scan", "android": "https://dc.lft.to/lastmile_qr_scan"}, "lon": -77.07050033333333, "bike_id": "ef456b498e290abdd107cf6efb10a014", "type": "electric_scooter", "name": "ef456b498e290abdd107cf6efb10a014"}, {"is_disabled": 0, "is_reserved": 0, "fusion_lat": 0.0, "lat": 38.91417716666667, "fusion_lon": 0.0, "rental_uris": {"ios": "https://dc.lft.to/lastmile_qr_scan", "android": "https://dc.lft.to/lastmile_qr_scan"}, "lon": -77.03165983333334, "bike_id": "9e028fa5895ea698b46b4e98847c2f85", "type": "electric_scooter", "name": "9e028fa5895ea698b46b4e98847c2f85"}, {"is_disabled": 0, "is_reserved": 0, "fusion_lat": 0.0, "lat": 38.92420033333333, "fusion_lon": 0.0, "rental_uris": {"ios": "https://dc.lft.to/lastmile_qr_scan", "android": "https://dc.lft.to/lastmile_qr_scan"}, "lon": -77.02039516666666, "bike_id": "1ad8b0a4772b24c6984179cedc3d73ab", "type": "electric_scooter", "name": "1ad8b0a4772b24c6984179cedc3d73ab"}, {"is_disabled": 0, "is_reserved": 0, "fusion_lat": 0.0, "lat": 38.94220033333333, "fusion_lon": 0.0, "rental_uris": {"ios": "https://dc.lft.to/lastmile_qr_scan", "android": "https://dc.lft.to/lastmile_qr_scan"}, "lon": -76.96130116666667, "bike_id": "4f5b648940304785c78a751293c6c593", "type": "electric_bike", "name": "4f5b648940304785c78a751293c6c593"}, {"is_disabled": 0, "is_reserved": 0, "fusion_lat": 0.0, "lat": 38.91653433333333, "fusion_lon": 0.0, "rental_uris": {"ios": "https://dc.lft.to/lastmile_qr_scan", "android": "https://dc.lft.to/lastmile_qr_scan"}, "lon": -77.010241, "bike_id": "8863ac51b74ef2ba58fce49731737404", "type": "electric_scooter", "name": "8863ac51b74ef2ba58fce49731737404"}, {"is_disabled": 0, "is_reserved": 0, "fusion_lat": 0.0, "lat": 38.92859683333333, "fusion_lon": 0.0, "rental_uris": {"ios": "https://dc.lft.to/lastmile_qr_scan", "android": "https://dc.lft.to/lastmile_qr_scan"}, "lon": -77.03718216666667, "bike_id": "b4642f667c82bf61d09d1c28b6c79d7a", "type": "electric_scooter", "name": "b4642f667c82bf61d09d1c28b6c79d7a"}, {"is_disabled": 0, "is_reserved": 0, "fusion_lat": 0.0, "lat": 38.898256833333335, "fusion_lon": 0.0, "rental_uris": {"ios": "https://dc.lft.to/lastmile_qr_scan", "android": "https://dc.lft.to/lastmile_qr_scan"}, "lon": -76.93002616666666, "bike_id": "92925a740716e89c26e6c343e4280396", "type": "electric_scooter", "name": "92925a740716e89c26e6c343e4280396"}, {"is_disabled": 0, "is_reserved": 0, "fusion_lat": 0.0, "lat": 38.9158705, "fusion_lon": 0.0, "rental_uris": {"ios": "https://dc.lft.to/lastmile_qr_scan", "android": "https://dc.lft.to/lastmile_qr_scan"}, "lon": -76.98296966666666, "bike_id": "9f39841504e4362f8a67680922b9508f", "type": "electric_scooter", "name": "9f39841504e4362f8a67680922b9508f"}, {"is_disabled": 0, "is_reserved": 0, "fusion_lat": 0.0, "lat": 38.924827, "fusion_lon": 0.0, "rental_uris": {"ios": "https://dc.lft.to/lastmile_qr_scan", "android": "https://dc.lft.to/lastmile_qr_scan"}, "lon": -77.03181783333333, "bike_id": "516bc002b5548cd79f011870a1acec5b", "type": "electric_scooter", "name": "516bc002b5548cd79f011870a1acec5b"}, {"is_disabled": 0, "is_reserved": 0, "fusion_lat": 0.0, "lat": 38.93468283333333, "fusion_lon": 0.0, "rental_uris": {"ios": "https://dc.lft.to/lastmile_qr_scan", "android": "https://dc.lft.to/lastmile_qr_scan"}, "lon": -77.02762383333334, "bike_id": "79a904424eefb4c3b2b56f783dd9d686", "type": "electric_scooter", "name": "79a904424eefb4c3b2b56f783dd9d686"}, {"is_disabled": 0, "is_reserved": 0, "fusion_lat": 0.0, "lat": 38.8405985, "fusion_lon": 0.0, "rental_uris": {"ios": "https://dc.lft.to/lastmile_qr_scan", "android": "https://dc.lft.to/lastmile_qr_scan"}, "lon": -76.97590683333334, "bike_id": "3f42b295cdcc267c892e5b8515209017", "type": "electric_bike", "name": "3f42b295cdcc267c892e5b8515209017"}, {"is_disabled": 0, "is_reserved": 0, "fusion_lat": 0.0, "lat": 38.90188466666667, "fusion_lon": 0.0, "rental_uris": {"ios": "https://dc.lft.to/lastmile_qr_scan", "android": "https://dc.lft.to/lastmile_qr_scan"}, "lon": -77.0021765, "bike_id": "5fc4dce24d85af54e19ef26ed5c80989", "type": "electric_scooter", "name": "5fc4dce24d85af54e19ef26ed5c80989"}, {"is_disabled": 0, "is_reserved": 0, "fusion_lat": 0.0, "lat": 38.86630616666667, "fusion_lon": 0.0, "rental_uris": {"ios": "https://dc.lft.to/lastmile_qr_scan", "android": "https://dc.lft.to/lastmile_qr_scan"}, "lon": -76.98257233333334, "bike_id": "e8ecb8d6b4213269b9d2e8c5f2849a34", "type": "electric_scooter", "name": "e8ecb8d6b4213269b9d2e8c5f2849a34"}, {"is_disabled": 0, "is_reserved": 0, "fusion_lat": 0.0, "lat": 38.8764005, "fusion_lon": 0.0, "rental_uris": {"ios": "https://dc.lft.to/lastmile_qr_scan", "android": "https://dc.lft.to/lastmile_qr_scan"}, "lon": -76.992943, "bike_id": "200873cd6aa73587c1d22d4f3dbc98bd", "type": "electric_scooter", "name": "200873cd6aa73587c1d22d4f3dbc98bd"}, {"is_disabled": 0, "is_reserved": 0, "fusion_lat": 0.0, "lat": 38.913057333333334, "fusion_lon": 0.0, "rental_uris": {"ios": "https://dc.lft.to/lastmile_qr_scan", "android": "https://dc.lft.to/lastmile_qr_scan"}, "lon": -77.04328333333333, "bike_id": "47c86b4a1c65693a25a73db4a826d105", "type": "electric_scooter", "name": "47c86b4a1c65693a25a73db4a826d105"}, {"is_disabled": 0, "is_reserved": 0, "fusion_lat": 0.0, "lat": 38.9090315, "fusion_lon": 0.0, "rental_uris": {"ios": "https://dc.lft.to/lastmile_qr_scan", "android": "https://dc.lft.to/lastmile_qr_scan"}, "lon": -77.03517366666667, "bike_id": "11bb7fea74a1e72df1b287d631162642", "type": "electric_scooter", "name": "11bb7fea74a1e72df1b287d631162642"}, {"is_disabled": 0, "is_reserved": 0, "fusion_lat": 0.0, "lat": 38.899900333333335, "fusion_lon": 0.0, "rental_uris": {"ios": "https://dc.lft.to/lastmile_qr_scan", "android": "https://dc.lft.to/lastmile_qr_scan"}, "lon": -76.9948045, "bike_id": "3702eeaebb84acd99f9bc90403ad6271", "type": "electric_bike", "name": "3702eeaebb84acd99f9bc90403ad6271"}, {"is_disabled": 0, "is_reserved": 0, "fusion_lat": 0.0, "lat": 38.901256333333336, "fusion_lon": 0.0, "rental_uris": {"ios": "https://dc.lft.to/lastmile_qr_scan", "android": "https://dc.lft.to/lastmile_qr_scan"}, "lon": -77.03813566666666, "bike_id": "d756d3e65baed19196d5fdcb6791035a", "type": "electric_scooter", "name": "d756d3e65baed19196d5fdcb6791035a"}, {"is_disabled": 0, "is_reserved": 0, "fusion_lat": 0.0, "lat": 38.89715233333333, "fusion_lon": 0.0, "rental_uris": {"ios": "https://dc.lft.to/lastmile_qr_scan", "android": "https://dc.lft.to/lastmile_qr_scan"}, "lon": -77.02404, "bike_id": "a071502f74742b1681f36800546e42d5", "type": "electric_scooter", "name": "a071502f74742b1681f36800546e42d5"}, {"is_disabled": 0, "is_reserved": 0, "fusion_lat": 0.0, "lat": 38.90010933333333, "fusion_lon": 0.0, "rental_uris": {"ios": "https://dc.lft.to/lastmile_qr_scan", "android": "https://dc.lft.to/lastmile_qr_scan"}, "lon": -77.00349033333333, "bike_id": "7b8a9cf55ae8ec6ea87351b60000ec16", "type": "electric_scooter", "name": "7b8a9cf55ae8ec6ea87351b60000ec16"}, {"is_disabled": 0, "is_reserved": 0, "fusion_lat": 0.0, "lat": 38.901252, "fusion_lon": 0.0, "rental_uris": {"ios": "https://dc.lft.to/lastmile_qr_scan", "android": "https://dc.lft.to/lastmile_qr_scan"}, "lon": -77.02799633333333, "bike_id": "7bd075e5f2b48afb87999b317e62d5ca", "type": "electric_scooter", "name": "7bd075e5f2b48afb87999b317e62d5ca"}, {"is_disabled": 0, "is_reserved": 0, "fusion_lat": 0.0, "lat": 38.880592, "fusion_lon": 0.0, "rental_uris": {"ios": "https://dc.lft.to/lastmile_qr_scan", "android": "https://dc.lft.to/lastmile_qr_scan"}, "lon": -77.025625, "bike_id": "23c32cd8f1ad972ac1e630a020d76472", "type": "electric_scooter", "name": "23c32cd8f1ad972ac1e630a020d76472"}, {"is_disabled": 0, "is_reserved": 0, "fusion_lat": 0.0, "lat": 38.898329833333335, "fusion_lon": 0.0, "rental_uris": {"ios": "https://dc.lft.to/lastmile_qr_scan", "android": "https://dc.lft.to/lastmile_qr_scan"}, "lon": -76.996217, "bike_id": "f7b5df38b763c0c39f43b72b05b0a6d3", "type": "electric_scooter", "name": "f7b5df38b763c0c39f43b72b05b0a6d3"}, {"is_disabled": 0, "is_reserved": 0, "fusion_lat": 0.0, "lat": 38.9153865, "fusion_lon": 0.0, "rental_uris": {"ios": "https://dc.lft.to/lastmile_qr_scan", "android": "https://dc.lft.to/lastmile_qr_scan"}, "lon": -77.02639883333333, "bike_id": "508e622d962eb5d99b40d7afb78b7ea8", "type": "electric_scooter", "name": "508e622d962eb5d99b40d7afb78b7ea8"}, {"is_disabled": 0, "is_reserved": 0, "fusion_lat": 0.0, "lat": 38.955855, "fusion_lon": 0.0, "rental_uris": {"ios": "https://dc.lft.to/lastmile_qr_scan", "android": "https://dc.lft.to/lastmile_qr_scan"}, "lon": -77.01778983333334, "bike_id": "d942f41fcc7b16b3a3fb755945adb4ca", "type": "electric_scooter", "name": "d942f41fcc7b16b3a3fb755945adb4ca"}, {"is_disabled": 0, "is_reserved": 0, "fusion_lat": 0.0, "lat": 38.91423183333333, "fusion_lon": 0.0, "rental_uris": {"ios": "https://dc.lft.to/lastmile_qr_scan", "android": "https://dc.lft.to/lastmile_qr_scan"}, "lon": -77.05210933333333, "bike_id": "f4833655ce5959029e8745fbeff5b795", "type": "electric_scooter", "name": "f4833655ce5959029e8745fbeff5b795"}, {"is_disabled": 0, "is_reserved": 0, "fusion_lat": 0.0, "lat": 38.90715133333333, "fusion_lon": 0.0, "rental_uris": {"ios": "https://dc.lft.to/lastmile_qr_scan", "android": "https://dc.lft.to/lastmile_qr_scan"}, "lon": -77.01348983333334, "bike_id": "d2760afe76109961e1be245eb9868b92", "type": "electric_scooter", "name": "d2760afe76109961e1be245eb9868b92"}, {"is_disabled": 0, "is_reserved": 0, "fusion_lat": 0.0, "lat": 38.886215666666665, "fusion_lon": 0.0, "rental_uris": {"ios": "https://dc.lft.to/lastmile_qr_scan", "android": "https://dc.lft.to/lastmile_qr_scan"}, "lon": -76.92636733333333, "bike_id": "8374ba2b52940b085ca2a044f6acf7a5", "type": "electric_scooter", "name": "8374ba2b52940b085ca2a044f6acf7a5"}, {"is_disabled": 0, "is_reserved": 0, "fusion_lat": 0.0, "lat": 38.88628083333333, "fusion_lon": 0.0, "rental_uris": {"ios": "https://dc.lft.to/lastmile_qr_scan", "android": "https://dc.lft.to/lastmile_qr_scan"}, "lon": -77.02219683333334, "bike_id": "36b3070b9776c599690d5341bbe41060", "type": "electric_scooter", "name": "36b3070b9776c599690d5341bbe41060"}, {"is_disabled": 0, "is_reserved": 0, "fusion_lat": 0.0, "lat": 39.02647433333333, "fusion_lon": 0.0, "rental_uris": {"ios": "https://dc.lft.to/lastmile_qr_scan", "android": "https://dc.lft.to/lastmile_qr_scan"}, "lon": -77.03685766666666, "bike_id": "b5c4988d42938ef35c6833b9c0469ca5", "type": "electric_bike", "name": "b5c4988d42938ef35c6833b9c0469ca5"}, {"is_disabled": 0, "is_reserved": 0, "fusion_lat": 0.0, "lat": 38.89826866666667, "fusion_lon": 0.0, "rental_uris": {"ios": "https://dc.lft.to/lastmile_qr_scan", "android": "https://dc.lft.to/lastmile_qr_scan"}, "lon": -77.027978, "bike_id": "c2281deb8e1dd966f0ca0c626e259723", "type": "electric_scooter", "name": "c2281deb8e1dd966f0ca0c626e259723"}, {"is_disabled": 0, "is_reserved": 0, "fusion_lat": 0.0, "lat": 38.921974166666665, "fusion_lon": 0.0, "rental_uris": {"ios": "https://dc.lft.to/lastmile_qr_scan", "android": "https://dc.lft.to/lastmile_qr_scan"}, "lon": -77.020361, "bike_id": "958a7c1f9d98377172a695052c086471", "type": "electric_scooter", "name": "958a7c1f9d98377172a695052c086471"}, {"is_disabled": 0, "is_reserved": 0, "fusion_lat": 0.0, "lat": 38.90862, "fusion_lon": 0.0, "rental_uris": {"ios": "https://dc.lft.to/lastmile_qr_scan", "android": "https://dc.lft.to/lastmile_qr_scan"}, "lon": -77.02362666666667, "bike_id": "609b6f403380c569be02cb48f3d57df7", "type": "electric_scooter", "name": "609b6f403380c569be02cb48f3d57df7"}, {"is_disabled": 0, "is_reserved": 0, "fusion_lat": 0.0, "lat": 38.905101, "fusion_lon": 0.0, "rental_uris": {"ios": "https://dc.lft.to/lastmile_qr_scan", "android": "https://dc.lft.to/lastmile_qr_scan"}, "lon": -76.951941, "bike_id": "f818af371cc6998f08ce4180fd84a095", "type": "electric_scooter", "name": "f818af371cc6998f08ce4180fd84a095"}, {"is_disabled": 0, "is_reserved": 0, "fusion_lat": 0.0, "lat": 38.92764966666667, "fusion_lon": 0.0, "rental_uris": {"ios": "https://dc.lft.to/lastmile_qr_scan", "android": "https://dc.lft.to/lastmile_qr_scan"}, "lon": -77.0525975, "bike_id": "60f4bf04a1f69e4bad57219f218f9cd4", "type": "electric_scooter", "name": "60f4bf04a1f69e4bad57219f218f9cd4"}, {"is_disabled": 0, "is_reserved": 0, "fusion_lat": 0.0, "lat": 38.9164225, "fusion_lon": 0.0, "rental_uris": {"ios": "https://dc.lft.to/lastmile_qr_scan", "android": "https://dc.lft.to/lastmile_qr_scan"}, "lon": -77.02290983333333, "bike_id": "cae8bdf1f17880d5f2b72f459294c303", "type": "electric_scooter", "name": "cae8bdf1f17880d5f2b72f459294c303"}, {"is_disabled": 0, "is_reserved": 0, "fusion_lat": 0.0, "lat": 38.8810295, "fusion_lon": 0.0, "rental_uris": {"ios": "https://dc.lft.to/lastmile_qr_scan", "android": "https://dc.lft.to/lastmile_qr_scan"}, "lon": -77.02632433333333, "bike_id": "7ba0e0b78837c43ab922d47ef6717971", "type": "electric_scooter", "name": "7ba0e0b78837c43ab922d47ef6717971"}, {"is_disabled": 0, "is_reserved": 0, "fusion_lat": 0.0, "lat": 38.89841233333333, "fusion_lon": 0.0, "rental_uris": {"ios": "https://dc.lft.to/lastmile_qr_scan", "android": "https://dc.lft.to/lastmile_qr_scan"}, "lon": -76.98820633333334, "bike_id": "c85957df021f8667e5e5948310d5e0c1", "type": "electric_scooter", "name": "c85957df021f8667e5e5948310d5e0c1"}, {"is_disabled": 0, "is_reserved": 0, "fusion_lat": 0.0, "lat": 38.87670333333333, "fusion_lon": 0.0, "rental_uris": {"ios": "https://dc.lft.to/lastmile_qr_scan", "android": "https://dc.lft.to/lastmile_qr_scan"}, "lon": -77.0032965, "bike_id": "ccc651309d364ba47d3d9596af82443d", "type": "electric_scooter", "name": "ccc651309d364ba47d3d9596af82443d"}, {"is_disabled": 0, "is_reserved": 0, "fusion_lat": 0.0, "lat": 38.8951345, "fusion_lon": 0.0, "rental_uris": {"ios": "https://dc.lft.to/lastmile_qr_scan", "android": "https://dc.lft.to/lastmile_qr_scan"}, "lon": -77.02290583333334, "bike_id": "ad5cf701e5e4ade65596811c93ad460c", "type": "electric_scooter", "name": "ad5cf701e5e4ade65596811c93ad460c"}, {"is_disabled": 0, "is_reserved": 0, "fusion_lat": 0.0, "lat": 38.89860733333333, "fusion_lon": 0.0, "rental_uris": {"ios": "https://dc.lft.to/lastmile_qr_scan", "android": "https://dc.lft.to/lastmile_qr_scan"}, "lon": -77.01888616666666, "bike_id": "6ba77eb00765591d2260f89b0f06a8b0", "type": "electric_scooter", "name": "6ba77eb00765591d2260f89b0f06a8b0"}, {"is_disabled": 0, "is_reserved": 0, "fusion_lat": 0.0, "lat": 38.92790866666667, "fusion_lon": 0.0, "rental_uris": {"ios": "https://dc.lft.to/lastmile_qr_scan", "android": "https://dc.lft.to/lastmile_qr_scan"}, "lon": -77.031539, "bike_id": "d50945e7d9291f8ed775468a086e9100", "type": "electric_scooter", "name": "d50945e7d9291f8ed775468a086e9100"}, {"is_disabled": 0, "is_reserved": 0, "fusion_lat": 0.0, "lat": 38.9374745, "fusion_lon": 0.0, "rental_uris": {"ios": "https://dc.lft.to/lastmile_qr_scan", "android": "https://dc.lft.to/lastmile_qr_scan"}, "lon": -77.02439766666667, "bike_id": "19aa9c26d4e47b8dc96c209f7f8b07bc", "type": "electric_scooter", "name": "19aa9c26d4e47b8dc96c209f7f8b07bc"}, {"is_disabled": 0, "is_reserved": 0, "fusion_lat": 0.0, "lat": 38.918882333333336, "fusion_lon": 0.0, "rental_uris": {"ios": "https://dc.lft.to/lastmile_qr_scan", "android": "https://dc.lft.to/lastmile_qr_scan"}, "lon": -77.03486466666666, "bike_id": "2b4f49ca0b971e55bd240cadda64f8a7", "type": "electric_scooter", "name": "2b4f49ca0b971e55bd240cadda64f8a7"}, {"is_disabled": 0, "is_reserved": 0, "fusion_lat": 0.0, "lat": 38.942918, "fusion_lon": 0.0, "rental_uris": {"ios": "https://dc.lft.to/lastmile_qr_scan", "android": "https://dc.lft.to/lastmile_qr_scan"}, "lon": -76.99069616666667, "bike_id": "3248ed38fcd42a7de8dc1bf087deffae", "type": "electric_bike", "name": "3248ed38fcd42a7de8dc1bf087deffae"}, {"is_disabled": 0, "is_reserved": 0, "fusion_lat": 0.0, "lat": 38.9183545, "fusion_lon": 0.0, "rental_uris": {"ios": "https://dc.lft.to/lastmile_qr_scan", "android": "https://dc.lft.to/lastmile_qr_scan"}, "lon": -77.04169566666667, "bike_id": "1376ee1ca47b5697535adf161f930e95", "type": "electric_scooter", "name": "1376ee1ca47b5697535adf161f930e95"}, {"is_disabled": 0, "is_reserved": 0, "fusion_lat": 0.0, "lat": 38.907768, "fusion_lon": 0.0, "rental_uris": {"ios": "https://dc.lft.to/lastmile_qr_scan", "android": "https://dc.lft.to/lastmile_qr_scan"}, "lon": -76.997192, "bike_id": "93f1ff3277a40d99a14b7d07c270924e", "type": "electric_scooter", "name": "93f1ff3277a40d99a14b7d07c270924e"}, {"is_disabled": 0, "is_reserved": 0, "fusion_lat": 0.0, "lat": 38.91923966666667, "fusion_lon": 0.0, "rental_uris": {"ios": "https://dc.lft.to/lastmile_qr_scan", "android": "https://dc.lft.to/lastmile_qr_scan"}, "lon": -77.03175066666667, "bike_id": "3408a2a185b12a8317038eee22cd4c77", "type": "electric_scooter", "name": "3408a2a185b12a8317038eee22cd4c77"}, {"is_disabled": 0, "is_reserved": 0, "fusion_lat": 0.0, "lat": 38.917779, "fusion_lon": 0.0, "rental_uris": {"ios": "https://dc.lft.to/lastmile_qr_scan", "android": "https://dc.lft.to/lastmile_qr_scan"}, "lon": -77.04184766666667, "bike_id": "38898219755a5e2e0e0aec2f195c2b58", "type": "electric_scooter", "name": "38898219755a5e2e0e0aec2f195c2b58"}, {"is_disabled": 0, "is_reserved": 0, "fusion_lat": 0.0, "lat": 38.88143, "fusion_lon": 0.0, "rental_uris": {"ios": "https://dc.lft.to/lastmile_qr_scan", "android": "https://dc.lft.to/lastmile_qr_scan"}, "lon": -77.01308133333333, "bike_id": "1d6dbefcfbe221b1c1ff9e47993d78d9", "type": "electric_scooter", "name": "1d6dbefcfbe221b1c1ff9e47993d78d9"}, {"is_disabled": 0, "is_reserved": 0, "fusion_lat": 0.0, "lat": 38.9001365, "fusion_lon": 0.0, "rental_uris": {"ios": "https://dc.lft.to/lastmile_qr_scan", "android": "https://dc.lft.to/lastmile_qr_scan"}, "lon": -77.05236, "bike_id": "6e121f42990896943da9f698d47acd93", "type": "electric_scooter", "name": "6e121f42990896943da9f698d47acd93"}, {"is_disabled": 0, "is_reserved": 0, "fusion_lat": 0.0, "lat": 38.89828766666667, "fusion_lon": 0.0, "rental_uris": {"ios": "https://dc.lft.to/lastmile_qr_scan", "android": "https://dc.lft.to/lastmile_qr_scan"}, "lon": -77.04652916666667, "bike_id": "94077fd46dee03b952e97e431466a500", "type": "electric_scooter", "name": "94077fd46dee03b952e97e431466a500"}, {"is_disabled": 0, "is_reserved": 0, "fusion_lat": 0.0, "lat": 38.921797166666664, "fusion_lon": 0.0, "rental_uris": {"ios": "https://dc.lft.to/lastmile_qr_scan", "android": "https://dc.lft.to/lastmile_qr_scan"}, "lon": -76.99856366666667, "bike_id": "a151bf9e69fa37c96b519eaaa2130125", "type": "electric_scooter", "name": "a151bf9e69fa37c96b519eaaa2130125"}, {"is_disabled": 0, "is_reserved": 0, "fusion_lat": 0.0, "lat": 38.904941, "fusion_lon": 0.0, "rental_uris": {"ios": "https://dc.lft.to/lastmile_qr_scan", "android": "https://dc.lft.to/lastmile_qr_scan"}, "lon": -77.01991366666667, "bike_id": "dd63a0656a6828351511afec8ff50685", "type": "electric_scooter", "name": "dd63a0656a6828351511afec8ff50685"}, {"is_disabled": 0, "is_reserved": 0, "fusion_lat": 0.0, "lat": 38.8788575, "fusion_lon": 0.0, "rental_uris": {"ios": "https://dc.lft.to/lastmile_qr_scan", "android": "https://dc.lft.to/lastmile_qr_scan"}, "lon": -77.0220685, "bike_id": "20d5a5880d09f13270e1fb8d517a96a9", "type": "electric_scooter", "name": "20d5a5880d09f13270e1fb8d517a96a9"}, {"is_disabled": 0, "is_reserved": 0, "fusion_lat": 0.0, "lat": 38.924491, "fusion_lon": 0.0, "rental_uris": {"ios": "https://dc.lft.to/lastmile_qr_scan", "android": "https://dc.lft.to/lastmile_qr_scan"}, "lon": -77.02033066666667, "bike_id": "215d89302d3cb99cf092482718061116", "type": "electric_scooter", "name": "215d89302d3cb99cf092482718061116"}, {"is_disabled": 0, "is_reserved": 0, "fusion_lat": 0.0, "lat": 38.80733466666667, "fusion_lon": 0.0, "rental_uris": {"ios": "https://dc.lft.to/lastmile_qr_scan", "android": "https://dc.lft.to/lastmile_qr_scan"}, "lon": -76.9926105, "bike_id": "dbd7a7c44146f70bd8a1ab361de927b1", "type": "electric_bike", "name": "dbd7a7c44146f70bd8a1ab361de927b1"}, {"is_disabled": 0, "is_reserved": 0, "fusion_lat": 0.0, "lat": 38.902049, "fusion_lon": 0.0, "rental_uris": {"ios": "https://dc.lft.to/lastmile_qr_scan", "android": "https://dc.lft.to/lastmile_qr_scan"}, "lon": -76.9948955, "bike_id": "349a1cba6d94930bff0560f0ffd3c98d", "type": "electric_scooter", "name": "349a1cba6d94930bff0560f0ffd3c98d"}, {"is_disabled": 0, "is_reserved": 0, "fusion_lat": 0.0, "lat": 38.9446255, "fusion_lon": 0.0, "rental_uris": {"ios": "https://dc.lft.to/lastmile_qr_scan", "android": "https://dc.lft.to/lastmile_qr_scan"}, "lon": -77.00657516666666, "bike_id": "57e0bfdaecb6fa64b76ba371776c3cea", "type": "electric_scooter", "name": "57e0bfdaecb6fa64b76ba371776c3cea"}, {"is_disabled": 0, "is_reserved": 0, "fusion_lat": 0.0, "lat": 38.8813965, "fusion_lon": 0.0, "rental_uris": {"ios": "https://dc.lft.to/lastmile_qr_scan", "android": "https://dc.lft.to/lastmile_qr_scan"}, "lon": -76.99613166666667, "bike_id": "aee7f42cdd6527aac58732f9507e58d3", "type": "electric_scooter", "name": "aee7f42cdd6527aac58732f9507e58d3"}, {"is_disabled": 0, "is_reserved": 0, "fusion_lat": 0.0, "lat": 38.834207, "fusion_lon": 0.0, "rental_uris": {"ios": "https://dc.lft.to/lastmile_qr_scan", "android": "https://dc.lft.to/lastmile_qr_scan"}, "lon": -77.05029333333333, "bike_id": "51faaef5e7300238182cd20d85dc5626", "type": "electric_bike", "name": "51faaef5e7300238182cd20d85dc5626"}, {"is_disabled": 0, "is_reserved": 0, "fusion_lat": 0.0, "lat": 38.90225816666667, "fusion_lon": 0.0, "rental_uris": {"ios": "https://dc.lft.to/lastmile_qr_scan", "android": "https://dc.lft.to/lastmile_qr_scan"}, "lon": -77.0394535, "bike_id": "6eebdefdca8004b433394d13ad15e665", "type": "electric_scooter", "name": "6eebdefdca8004b433394d13ad15e665"}, {"is_disabled": 0, "is_reserved": 0, "fusion_lat": 0.0, "lat": 38.9068855, "fusion_lon": 0.0, "rental_uris": {"ios": "https://dc.lft.to/lastmile_qr_scan", "android": "https://dc.lft.to/lastmile_qr_scan"}, "lon": -77.049004, "bike_id": "ee799b76ce4098d7caf7a6df9e76b7ff", "type": "electric_scooter", "name": "ee799b76ce4098d7caf7a6df9e76b7ff"}, {"is_disabled": 0, "is_reserved": 0, "fusion_lat": 0.0, "lat": 38.8571485, "fusion_lon": 0.0, "rental_uris": {"ios": "https://dc.lft.to/lastmile_qr_scan", "android": "https://dc.lft.to/lastmile_qr_scan"}, "lon": -76.9809685, "bike_id": "f248633a3fac80db00edc6127c86d19e", "type": "electric_scooter", "name": "f248633a3fac80db00edc6127c86d19e"}, {"is_disabled": 0, "is_reserved": 0, "fusion_lat": 0.0, "lat": 38.9036535, "fusion_lon": 0.0, "rental_uris": {"ios": "https://dc.lft.to/lastmile_qr_scan", "android": "https://dc.lft.to/lastmile_qr_scan"}, "lon": -77.053645, "bike_id": "b227c300e9bb6c18cbc3339975b5b24b", "type": "electric_scooter", "name": "b227c300e9bb6c18cbc3339975b5b24b"}, {"is_disabled": 0, "is_reserved": 0, "fusion_lat": 0.0, "lat": 38.917006666666666, "fusion_lon": 0.0, "rental_uris": {"ios": "https://dc.lft.to/lastmile_qr_scan", "android": "https://dc.lft.to/lastmile_qr_scan"}, "lon": -77.02378333333333, "bike_id": "e7b0429c41684375aa28c2a415211d5f", "type": "electric_scooter", "name": "e7b0429c41684375aa28c2a415211d5f"}, {"is_disabled": 0, "is_reserved": 0, "fusion_lat": 0.0, "lat": 38.885409833333334, "fusion_lon": 0.0, "rental_uris": {"ios": "https://dc.lft.to/lastmile_qr_scan", "android": "https://dc.lft.to/lastmile_qr_scan"}, "lon": -76.98542766666667, "bike_id": "df49459a6b74a3c4c519b257f95e89c8", "type": "electric_scooter", "name": "df49459a6b74a3c4c519b257f95e89c8"}, {"is_disabled": 0, "is_reserved": 0, "fusion_lat": 0.0, "lat": 38.91693866666667, "fusion_lon": 0.0, "rental_uris": {"ios": "https://dc.lft.to/lastmile_qr_scan", "android": "https://dc.lft.to/lastmile_qr_scan"}, "lon": -77.05295716666667, "bike_id": "2bf984a54efd91598b642194a649088f", "type": "electric_scooter", "name": "2bf984a54efd91598b642194a649088f"}, {"is_disabled": 0, "is_reserved": 0, "fusion_lat": 0.0, "lat": 38.92794266666667, "fusion_lon": 0.0, "rental_uris": {"ios": "https://dc.lft.to/lastmile_qr_scan", "android": "https://dc.lft.to/lastmile_qr_scan"}, "lon": -77.229393, "bike_id": "d470a6a5dc2b8cb2d9cc9cfd5a782f45", "type": "electric_bike", "name": "d470a6a5dc2b8cb2d9cc9cfd5a782f45"}, {"is_disabled": 0, "is_reserved": 0, "fusion_lat": 0.0, "lat": 38.9217755, "fusion_lon": 0.0, "rental_uris": {"ios": "https://dc.lft.to/lastmile_qr_scan", "android": "https://dc.lft.to/lastmile_qr_scan"}, "lon": -77.02099833333334, "bike_id": "5aa5258930724b3516457f9b58004d0d", "type": "electric_scooter", "name": "5aa5258930724b3516457f9b58004d0d"}, {"is_disabled": 0, "is_reserved": 0, "fusion_lat": 0.0, "lat": 38.90127016666667, "fusion_lon": 0.0, "rental_uris": {"ios": "https://dc.lft.to/lastmile_qr_scan", "android": "https://dc.lft.to/lastmile_qr_scan"}, "lon": -77.0036495, "bike_id": "35af32f9d523f8497525d598b7ea4329", "type": "electric_scooter", "name": "35af32f9d523f8497525d598b7ea4329"}, {"is_disabled": 0, "is_reserved": 0, "fusion_lat": 0.0, "lat": 38.898807, "fusion_lon": 0.0, "rental_uris": {"ios": "https://dc.lft.to/lastmile_qr_scan", "android": "https://dc.lft.to/lastmile_qr_scan"}, "lon": -76.93172683333333, "bike_id": "6db9e6325a6366d82365a82f0704d624", "type": "electric_scooter", "name": "6db9e6325a6366d82365a82f0704d624"}, {"is_disabled": 0, "is_reserved": 0, "fusion_lat": 0.0, "lat": 38.924672666666666, "fusion_lon": 0.0, "rental_uris": {"ios": "https://dc.lft.to/lastmile_qr_scan", "android": "https://dc.lft.to/lastmile_qr_scan"}, "lon": -77.078654, "bike_id": "e937dfea1eeb09ad70ee0a97376d37c7", "type": "electric_scooter", "name": "e937dfea1eeb09ad70ee0a97376d37c7"}, {"is_disabled": 0, "is_reserved": 0, "fusion_lat": 0.0, "lat": 38.91777783333333, "fusion_lon": 0.0, "rental_uris": {"ios": "https://dc.lft.to/lastmile_qr_scan", "android": "https://dc.lft.to/lastmile_qr_scan"}, "lon": -77.0409715, "bike_id": "dd82efabc6898becfb1b4759e7aa1ac7", "type": "electric_scooter", "name": "dd82efabc6898becfb1b4759e7aa1ac7"}, {"is_disabled": 0, "is_reserved": 0, "fusion_lat": 0.0, "lat": 38.964229, "fusion_lon": 0.0, "rental_uris": {"ios": "https://dc.lft.to/lastmile_qr_scan", "android": "https://dc.lft.to/lastmile_qr_scan"}, "lon": -77.07425633333334, "bike_id": "da862af07c3b749c17b46627e6436486", "type": "electric_scooter", "name": "da862af07c3b749c17b46627e6436486"}, {"is_disabled": 0, "is_reserved": 0, "fusion_lat": 0.0, "lat": 38.88880966666667, "fusion_lon": 0.0, "rental_uris": {"ios": "https://dc.lft.to/lastmile_qr_scan", "android": "https://dc.lft.to/lastmile_qr_scan"}, "lon": -76.9903025, "bike_id": "616d0e97de19e265d89ad680303883b7", "type": "electric_scooter", "name": "616d0e97de19e265d89ad680303883b7"}, {"is_disabled": 0, "is_reserved": 0, "fusion_lat": 0.0, "lat": 38.901374833333335, "fusion_lon": 0.0, "rental_uris": {"ios": "https://dc.lft.to/lastmile_qr_scan", "android": "https://dc.lft.to/lastmile_qr_scan"}, "lon": -77.03081416666667, "bike_id": "5a15025b020759a5066eb4dd9ce0cff7", "type": "electric_scooter", "name": "5a15025b020759a5066eb4dd9ce0cff7"}, {"is_disabled": 0, "is_reserved": 0, "fusion_lat": 0.0, "lat": 38.91612816666667, "fusion_lon": 0.0, "rental_uris": {"ios": "https://dc.lft.to/lastmile_qr_scan", "android": "https://dc.lft.to/lastmile_qr_scan"}, "lon": -77.02125933333333, "bike_id": "8b72a5a3090c46d23e622aa36dd79dfb", "type": "electric_scooter", "name": "8b72a5a3090c46d23e622aa36dd79dfb"}, {"is_disabled": 0, "is_reserved": 0, "fusion_lat": 0.0, "lat": 38.89968916666667, "fusion_lon": 0.0, "rental_uris": {"ios": "https://dc.lft.to/lastmile_qr_scan", "android": "https://dc.lft.to/lastmile_qr_scan"}, "lon": -76.92620533333333, "bike_id": "60aa25fc5eaa0e04c2e9300cb7fd65fa", "type": "electric_scooter", "name": "60aa25fc5eaa0e04c2e9300cb7fd65fa"}, {"is_disabled": 0, "is_reserved": 0, "fusion_lat": 0.0, "lat": 38.923511500000004, "fusion_lon": 0.0, "rental_uris": {"ios": "https://dc.lft.to/lastmile_qr_scan", "android": "https://dc.lft.to/lastmile_qr_scan"}, "lon": -76.9720425, "bike_id": "f386f7c1b39617ae3efcc92204df1092", "type": "electric_scooter", "name": "f386f7c1b39617ae3efcc92204df1092"}, {"is_disabled": 0, "is_reserved": 0, "fusion_lat": 0.0, "lat": 38.92998933333333, "fusion_lon": 0.0, "rental_uris": {"ios": "https://dc.lft.to/lastmile_qr_scan", "android": "https://dc.lft.to/lastmile_qr_scan"}, "lon": -77.03799983333333, "bike_id": "a0c65db10203780d2c49e2f4d9e8f907", "type": "electric_scooter", "name": "a0c65db10203780d2c49e2f4d9e8f907"}, {"is_disabled": 0, "is_reserved": 0, "fusion_lat": 0.0, "lat": 38.898323833333336, "fusion_lon": 0.0, "rental_uris": {"ios": "https://dc.lft.to/lastmile_qr_scan", "android": "https://dc.lft.to/lastmile_qr_scan"}, "lon": -77.02811866666667, "bike_id": "0e372a6e2342fad8f426bc3bd52ab72a", "type": "electric_scooter", "name": "0e372a6e2342fad8f426bc3bd52ab72a"}, {"is_disabled": 0, "is_reserved": 0, "fusion_lat": 0.0, "lat": 38.91554566666667, "fusion_lon": 0.0, "rental_uris": {"ios": "https://dc.lft.to/lastmile_qr_scan", "android": "https://dc.lft.to/lastmile_qr_scan"}, "lon": -77.02143366666667, "bike_id": "31a5aee148b3c8a46a403cf84bb4b441", "type": "electric_scooter", "name": "31a5aee148b3c8a46a403cf84bb4b441"}, {"is_disabled": 0, "is_reserved": 0, "fusion_lat": 0.0, "lat": 38.94086633333333, "fusion_lon": 0.0, "rental_uris": {"ios": "https://dc.lft.to/lastmile_qr_scan", "android": "https://dc.lft.to/lastmile_qr_scan"}, "lon": -77.02720066666667, "bike_id": "af074ffabf54ea09ebd51fb3546cfbf5", "type": "electric_scooter", "name": "af074ffabf54ea09ebd51fb3546cfbf5"}, {"is_disabled": 0, "is_reserved": 0, "fusion_lat": 0.0, "lat": 39.025186, "fusion_lon": 0.0, "rental_uris": {"ios": "https://dc.lft.to/lastmile_qr_scan", "android": "https://dc.lft.to/lastmile_qr_scan"}, "lon": -77.01964966666667, "bike_id": "2281135d3296ab6737f51998d986ba2e", "type": "electric_bike", "name": "2281135d3296ab6737f51998d986ba2e"}, {"is_disabled": 0, "is_reserved": 0, "fusion_lat": 0.0, "lat": 38.930085166666665, "fusion_lon": 0.0, "rental_uris": {"ios": "https://dc.lft.to/lastmile_qr_scan", "android": "https://dc.lft.to/lastmile_qr_scan"}, "lon": -77.03237883333334, "bike_id": "4b6e4b6636b41664d6ac6fc87ff8cf18", "type": "electric_scooter", "name": "4b6e4b6636b41664d6ac6fc87ff8cf18"}, {"is_disabled": 0, "is_reserved": 0, "fusion_lat": 0.0, "lat": 38.9528685, "fusion_lon": 0.0, "rental_uris": {"ios": "https://dc.lft.to/lastmile_qr_scan", "android": "https://dc.lft.to/lastmile_qr_scan"}, "lon": -77.06851966666666, "bike_id": "163e67a2472801c0ead4cf0886359f57", "type": "electric_scooter", "name": "163e67a2472801c0ead4cf0886359f57"}, {"is_disabled": 0, "is_reserved": 0, "fusion_lat": 0.0, "lat": 38.92054483333333, "fusion_lon": 0.0, "rental_uris": {"ios": "https://dc.lft.to/lastmile_qr_scan", "android": "https://dc.lft.to/lastmile_qr_scan"}, "lon": -77.02301483333333, "bike_id": "8f81165958fa32d3dac5ed604f10ee42", "type": "electric_scooter", "name": "8f81165958fa32d3dac5ed604f10ee42"}, {"is_disabled": 0, "is_reserved": 0, "fusion_lat": 0.0, "lat": 39.084750666666665, "fusion_lon": 0.0, "rental_uris": {"ios": "https://dc.lft.to/lastmile_qr_scan", "android": "https://dc.lft.to/lastmile_qr_scan"}, "lon": -76.95066249999999, "bike_id": "c13eaade14ce327b450617cc12f9ae34", "type": "electric_bike", "name": "c13eaade14ce327b450617cc12f9ae34"}, {"is_disabled": 0, "is_reserved": 0, "fusion_lat": 0.0, "lat": 38.882362, "fusion_lon": 0.0, "rental_uris": {"ios": "https://dc.lft.to/lastmile_qr_scan", "android": "https://dc.lft.to/lastmile_qr_scan"}, "lon": -76.99093783333333, "bike_id": "85f4e2720e74cd7a13f85ddcefb30292", "type": "electric_scooter", "name": "85f4e2720e74cd7a13f85ddcefb30292"}, {"is_disabled": 0, "is_reserved": 0, "fusion_lat": 0.0, "lat": 38.85786083333333, "fusion_lon": 0.0, "rental_uris": {"ios": "https://dc.lft.to/lastmile_qr_scan", "android": "https://dc.lft.to/lastmile_qr_scan"}, "lon": -76.987579, "bike_id": "dfb11e36c100b871a3ca2f1febc16ebf", "type": "electric_bike", "name": "dfb11e36c100b871a3ca2f1febc16ebf"}, {"is_disabled": 0, "is_reserved": 0, "fusion_lat": 0.0, "lat": 38.85838366666667, "fusion_lon": 0.0, "rental_uris": {"ios": "https://dc.lft.to/lastmile_qr_scan", "android": "https://dc.lft.to/lastmile_qr_scan"}, "lon": -76.98819633333333, "bike_id": "350e7e1e7660050d9637b224420365bc", "type": "electric_scooter", "name": "350e7e1e7660050d9637b224420365bc"}, {"is_disabled": 0, "is_reserved": 0, "fusion_lat": 0.0, "lat": 38.90575533333333, "fusion_lon": 0.0, "rental_uris": {"ios": "https://dc.lft.to/lastmile_qr_scan", "android": "https://dc.lft.to/lastmile_qr_scan"}, "lon": -77.03070933333333, "bike_id": "19f3bdd927597ba86bfce18060bdfb91", "type": "electric_scooter", "name": "19f3bdd927597ba86bfce18060bdfb91"}, {"is_disabled": 0, "is_reserved": 0, "fusion_lat": 0.0, "lat": 38.91635216666667, "fusion_lon": 0.0, "rental_uris": {"ios": "https://dc.lft.to/lastmile_qr_scan", "android": "https://dc.lft.to/lastmile_qr_scan"}, "lon": -77.0393415, "bike_id": "329fe9ed24ed5277932f33605896531b", "type": "electric_scooter", "name": "329fe9ed24ed5277932f33605896531b"}, {"is_disabled": 0, "is_reserved": 0, "fusion_lat": 0.0, "lat": 38.92136283333333, "fusion_lon": 0.0, "rental_uris": {"ios": "https://dc.lft.to/lastmile_qr_scan", "android": "https://dc.lft.to/lastmile_qr_scan"}, "lon": -77.00399266666666, "bike_id": "00368be7058d636d32b6c26ea6fc1c3e", "type": "electric_scooter", "name": "00368be7058d636d32b6c26ea6fc1c3e"}, {"is_disabled": 0, "is_reserved": 0, "fusion_lat": 0.0, "lat": 38.92420166666667, "fusion_lon": 0.0, "rental_uris": {"ios": "https://dc.lft.to/lastmile_qr_scan", "android": "https://dc.lft.to/lastmile_qr_scan"}, "lon": -77.02009233333334, "bike_id": "a377d93b40074e2dfd7fa865424864a6", "type": "electric_scooter", "name": "a377d93b40074e2dfd7fa865424864a6"}, {"is_disabled": 0, "is_reserved": 0, "fusion_lat": 0.0, "lat": 38.836057833333335, "fusion_lon": 0.0, "rental_uris": {"ios": "https://dc.lft.to/lastmile_qr_scan", "android": "https://dc.lft.to/lastmile_qr_scan"}, "lon": -77.00377616666667, "bike_id": "ad277bbae69fe585cbafd47d337defec", "type": "electric_bike", "name": "ad277bbae69fe585cbafd47d337defec"}, {"is_disabled": 0, "is_reserved": 0, "fusion_lat": 0.0, "lat": 38.90426733333334, "fusion_lon": 0.0, "rental_uris": {"ios": "https://dc.lft.to/lastmile_qr_scan", "android": "https://dc.lft.to/lastmile_qr_scan"}, "lon": -77.0513435, "bike_id": "abcdf7d8f00a7250af55cd1b0f43615a", "type": "electric_scooter", "name": "abcdf7d8f00a7250af55cd1b0f43615a"}, {"is_disabled": 0, "is_reserved": 0, "fusion_lat": 0.0, "lat": 38.92562483333333, "fusion_lon": 0.0, "rental_uris": {"ios": "https://dc.lft.to/lastmile_qr_scan", "android": "https://dc.lft.to/lastmile_qr_scan"}, "lon": -77.02282383333333, "bike_id": "24e49b2c4e8eb17f32d979875e2a93ca", "type": "electric_scooter", "name": "24e49b2c4e8eb17f32d979875e2a93ca"}, {"is_disabled": 0, "is_reserved": 0, "fusion_lat": 0.0, "lat": 38.917287333333334, "fusion_lon": 0.0, "rental_uris": {"ios": "https://dc.lft.to/lastmile_qr_scan", "android": "https://dc.lft.to/lastmile_qr_scan"}, "lon": -77.02503766666666, "bike_id": "4a0efc36e8fe540eadf1b1c5358de7d1", "type": "electric_scooter", "name": "4a0efc36e8fe540eadf1b1c5358de7d1"}, {"is_disabled": 0, "is_reserved": 0, "fusion_lat": 0.0, "lat": 38.88622866666667, "fusion_lon": 0.0, "rental_uris": {"ios": "https://dc.lft.to/lastmile_qr_scan", "android": "https://dc.lft.to/lastmile_qr_scan"}, "lon": -76.98703983333333, "bike_id": "6be7666355fc415723fc319ee2189744", "type": "electric_scooter", "name": "6be7666355fc415723fc319ee2189744"}, {"is_disabled": 0, "is_reserved": 0, "fusion_lat": 0.0, "lat": 38.8838215, "fusion_lon": 0.0, "rental_uris": {"ios": "https://dc.lft.to/lastmile_qr_scan", "android": "https://dc.lft.to/lastmile_qr_scan"}, "lon": -77.04607216666666, "bike_id": "b7bd7902b36f1da08cdee996929a94b9", "type": "electric_scooter", "name": "b7bd7902b36f1da08cdee996929a94b9"}, {"is_disabled": 0, "is_reserved": 0, "fusion_lat": 0.0, "lat": 38.90552666666667, "fusion_lon": 0.0, "rental_uris": {"ios": "https://dc.lft.to/lastmile_qr_scan", "android": "https://dc.lft.to/lastmile_qr_scan"}, "lon": -77.0486545, "bike_id": "ae92eea530486c7297cdf63801fa8ebe", "type": "electric_scooter", "name": "ae92eea530486c7297cdf63801fa8ebe"}, {"is_disabled": 0, "is_reserved": 0, "fusion_lat": 0.0, "lat": 38.907243666666666, "fusion_lon": 0.0, "rental_uris": {"ios": "https://dc.lft.to/lastmile_qr_scan", "android": "https://dc.lft.to/lastmile_qr_scan"}, "lon": -77.0336055, "bike_id": "a6d12f903eb9f064d1403d684bf0b9b1", "type": "electric_scooter", "name": "a6d12f903eb9f064d1403d684bf0b9b1"}, {"is_disabled": 0, "is_reserved": 0, "fusion_lat": 0.0, "lat": 38.9419615, "fusion_lon": 0.0, "rental_uris": {"ios": "https://dc.lft.to/lastmile_qr_scan", "android": "https://dc.lft.to/lastmile_qr_scan"}, "lon": -77.088233, "bike_id": "c11041f3335eee327e639c0d1ed7039b", "type": "electric_scooter", "name": "c11041f3335eee327e639c0d1ed7039b"}, {"is_disabled": 0, "is_reserved": 0, "fusion_lat": 0.0, "lat": 38.8923015, "fusion_lon": 0.0, "rental_uris": {"ios": "https://dc.lft.to/lastmile_qr_scan", "android": "https://dc.lft.to/lastmile_qr_scan"}, "lon": -77.02380516666666, "bike_id": "c2474e3b903ef293a5c7c1ea74207123", "type": "electric_scooter", "name": "c2474e3b903ef293a5c7c1ea74207123"}, {"is_disabled": 0, "is_reserved": 0, "fusion_lat": 0.0, "lat": 38.86958883333333, "fusion_lon": 0.0, "rental_uris": {"ios": "https://dc.lft.to/lastmile_qr_scan", "android": "https://dc.lft.to/lastmile_qr_scan"}, "lon": -77.01373333333333, "bike_id": "bb0bc2fd30a4c25b9a98ea1a6a7599cf", "type": "electric_scooter", "name": "bb0bc2fd30a4c25b9a98ea1a6a7599cf"}, {"is_disabled": 0, "is_reserved": 0, "fusion_lat": 0.0, "lat": 38.92110433333333, "fusion_lon": 0.0, "rental_uris": {"ios": "https://dc.lft.to/lastmile_qr_scan", "android": "https://dc.lft.to/lastmile_qr_scan"}, "lon": -77.04373316666667, "bike_id": "973ee3de42aff07aef3d2a771419cd83", "type": "electric_scooter", "name": "973ee3de42aff07aef3d2a771419cd83"}, {"is_disabled": 0, "is_reserved": 0, "fusion_lat": 0.0, "lat": 38.918179, "fusion_lon": 0.0, "rental_uris": {"ios": "https://dc.lft.to/lastmile_qr_scan", "android": "https://dc.lft.to/lastmile_qr_scan"}, "lon": -77.039986, "bike_id": "9fe5ab9c7055f8805259456911de8946", "type": "electric_scooter", "name": "9fe5ab9c7055f8805259456911de8946"}, {"is_disabled": 0, "is_reserved": 0, "fusion_lat": 0.0, "lat": 38.876627166666665, "fusion_lon": 0.0, "rental_uris": {"ios": "https://dc.lft.to/lastmile_qr_scan", "android": "https://dc.lft.to/lastmile_qr_scan"}, "lon": -77.005322, "bike_id": "dd21483b6a5175f6c0bc033c53624091", "type": "electric_scooter", "name": "dd21483b6a5175f6c0bc033c53624091"}, {"is_disabled": 0, "is_reserved": 0, "fusion_lat": 0.0, "lat": 38.91197733333333, "fusion_lon": 0.0, "rental_uris": {"ios": "https://dc.lft.to/lastmile_qr_scan", "android": "https://dc.lft.to/lastmile_qr_scan"}, "lon": -77.0022115, "bike_id": "e257bd7dacae02cc2d8769edcd66acf6", "type": "electric_scooter", "name": "e257bd7dacae02cc2d8769edcd66acf6"}, {"is_disabled": 0, "is_reserved": 0, "fusion_lat": 0.0, "lat": 38.9291305, "fusion_lon": 0.0, "rental_uris": {"ios": "https://dc.lft.to/lastmile_qr_scan", "android": "https://dc.lft.to/lastmile_qr_scan"}, "lon": -77.02089466666666, "bike_id": "b0d3506041ab40a2768081bb406dea34", "type": "electric_scooter", "name": "b0d3506041ab40a2768081bb406dea34"}, {"is_disabled": 0, "is_reserved": 0, "fusion_lat": 0.0, "lat": 38.91417933333334, "fusion_lon": 0.0, "rental_uris": {"ios": "https://dc.lft.to/lastmile_qr_scan", "android": "https://dc.lft.to/lastmile_qr_scan"}, "lon": -77.03166183333333, "bike_id": "2a99f61adfa6a78c261b6cd965e3d1b9", "type": "electric_scooter", "name": "2a99f61adfa6a78c261b6cd965e3d1b9"}, {"is_disabled": 0, "is_reserved": 0, "fusion_lat": 0.0, "lat": 38.90409283333334, "fusion_lon": 0.0, "rental_uris": {"ios": "https://dc.lft.to/lastmile_qr_scan", "android": "https://dc.lft.to/lastmile_qr_scan"}, "lon": -77.024049, "bike_id": "369807a210550f4d6b4e2dc7e44df23c", "type": "electric_scooter", "name": "369807a210550f4d6b4e2dc7e44df23c"}, {"is_disabled": 0, "is_reserved": 0, "fusion_lat": 0.0, "lat": 38.92913816666667, "fusion_lon": 0.0, "rental_uris": {"ios": "https://dc.lft.to/lastmile_qr_scan", "android": "https://dc.lft.to/lastmile_qr_scan"}, "lon": -77.0324755, "bike_id": "16722dc915588b2dc1fd510b61c0713f", "type": "electric_scooter", "name": "16722dc915588b2dc1fd510b61c0713f"}, {"is_disabled": 0, "is_reserved": 0, "fusion_lat": 0.0, "lat": 38.88373816666667, "fusion_lon": 0.0, "rental_uris": {"ios": "https://dc.lft.to/lastmile_qr_scan", "android": "https://dc.lft.to/lastmile_qr_scan"}, "lon": -76.924184, "bike_id": "99a3f5d5feb0c02051640b9337967354", "type": "electric_scooter", "name": "99a3f5d5feb0c02051640b9337967354"}, {"is_disabled": 0, "is_reserved": 0, "fusion_lat": 0.0, "lat": 38.915449333333335, "fusion_lon": 0.0, "rental_uris": {"ios": "https://dc.lft.to/lastmile_qr_scan", "android": "https://dc.lft.to/lastmile_qr_scan"}, "lon": -77.02641233333334, "bike_id": "fe9ac0a53f65f2b786896254c2864024", "type": "electric_scooter", "name": "fe9ac0a53f65f2b786896254c2864024"}, {"is_disabled": 0, "is_reserved": 0, "fusion_lat": 0.0, "lat": 38.895451333333334, "fusion_lon": 0.0, "rental_uris": {"ios": "https://dc.lft.to/lastmile_qr_scan", "android": "https://dc.lft.to/lastmile_qr_scan"}, "lon": -77.02200466666666, "bike_id": "a2358e5237a723eaac9face0d27af57b", "type": "electric_scooter", "name": "a2358e5237a723eaac9face0d27af57b"}, {"is_disabled": 0, "is_reserved": 0, "fusion_lat": 0.0, "lat": 38.89741733333334, "fusion_lon": 0.0, "rental_uris": {"ios": "https://dc.lft.to/lastmile_qr_scan", "android": "https://dc.lft.to/lastmile_qr_scan"}, "lon": -77.03339266666667, "bike_id": "f84b0e0ffc3c6b936b788701f7778c57", "type": "electric_scooter", "name": "f84b0e0ffc3c6b936b788701f7778c57"}, {"is_disabled": 0, "is_reserved": 0, "fusion_lat": 0.0, "lat": 38.9018145, "fusion_lon": 0.0, "rental_uris": {"ios": "https://dc.lft.to/lastmile_qr_scan", "android": "https://dc.lft.to/lastmile_qr_scan"}, "lon": -76.98700016666666, "bike_id": "4965fee8b71ea5bc6fb3d12462e1f017", "type": "electric_scooter", "name": "4965fee8b71ea5bc6fb3d12462e1f017"}, {"is_disabled": 0, "is_reserved": 0, "fusion_lat": 0.0, "lat": 38.84857616666667, "fusion_lon": 0.0, "rental_uris": {"ios": "https://dc.lft.to/lastmile_qr_scan", "android": "https://dc.lft.to/lastmile_qr_scan"}, "lon": -77.06828283333333, "bike_id": "7aaa9d24fe82f8757de62320fee46699", "type": "electric_bike", "name": "7aaa9d24fe82f8757de62320fee46699"}, {"is_disabled": 0, "is_reserved": 0, "fusion_lat": 0.0, "lat": 38.92044083333333, "fusion_lon": 0.0, "rental_uris": {"ios": "https://dc.lft.to/lastmile_qr_scan", "android": "https://dc.lft.to/lastmile_qr_scan"}, "lon": -77.016778, "bike_id": "df496d88c62c710329bb350a2ca13ec4", "type": "electric_scooter", "name": "df496d88c62c710329bb350a2ca13ec4"}, {"is_disabled": 0, "is_reserved": 0, "fusion_lat": 0.0, "lat": 38.906446333333335, "fusion_lon": 0.0, "rental_uris": {"ios": "https://dc.lft.to/lastmile_qr_scan", "android": "https://dc.lft.to/lastmile_qr_scan"}, "lon": -77.048683, "bike_id": "c8d12fd41792879dd454303fae03fadc", "type": "electric_scooter", "name": "c8d12fd41792879dd454303fae03fadc"}, {"is_disabled": 0, "is_reserved": 0, "fusion_lat": 0.0, "lat": 38.87177466666667, "fusion_lon": 0.0, "rental_uris": {"ios": "https://dc.lft.to/lastmile_qr_scan", "android": "https://dc.lft.to/lastmile_qr_scan"}, "lon": -77.00614, "bike_id": "c15b650de0cd0e4eba8ada6e03177213", "type": "electric_scooter", "name": "c15b650de0cd0e4eba8ada6e03177213"}, {"is_disabled": 0, "is_reserved": 0, "fusion_lat": 0.0, "lat": 38.99095533333333, "fusion_lon": 0.0, "rental_uris": {"ios": "https://dc.lft.to/lastmile_qr_scan", "android": "https://dc.lft.to/lastmile_qr_scan"}, "lon": -76.99370033333334, "bike_id": "a1364eb76c2e28efcafcdf7c406d2ae1", "type": "electric_bike", "name": "a1364eb76c2e28efcafcdf7c406d2ae1"}, {"is_disabled": 0, "is_reserved": 0, "fusion_lat": 0.0, "lat": 38.90509733333333, "fusion_lon": 0.0, "rental_uris": {"ios": "https://dc.lft.to/lastmile_qr_scan", "android": "https://dc.lft.to/lastmile_qr_scan"}, "lon": -77.04067583333334, "bike_id": "c1d964e93807f63c0da459eb8510477c", "type": "electric_scooter", "name": "c1d964e93807f63c0da459eb8510477c"}, {"is_disabled": 0, "is_reserved": 0, "fusion_lat": 0.0, "lat": 38.902302666666664, "fusion_lon": 0.0, "rental_uris": {"ios": "https://dc.lft.to/lastmile_qr_scan", "android": "https://dc.lft.to/lastmile_qr_scan"}, "lon": -77.0006255, "bike_id": "df6810fc1831b5f5067e7e02c9fdbd94", "type": "electric_scooter", "name": "df6810fc1831b5f5067e7e02c9fdbd94"}, {"is_disabled": 0, "is_reserved": 0, "fusion_lat": 0.0, "lat": 38.90844383333334, "fusion_lon": 0.0, "rental_uris": {"ios": "https://dc.lft.to/lastmile_qr_scan", "android": "https://dc.lft.to/lastmile_qr_scan"}, "lon": -77.0580815, "bike_id": "0f3b54a6394bcc747cde5d83c09c211d", "type": "electric_scooter", "name": "0f3b54a6394bcc747cde5d83c09c211d"}, {"is_disabled": 0, "is_reserved": 0, "fusion_lat": 0.0, "lat": 38.917134833333336, "fusion_lon": 0.0, "rental_uris": {"ios": "https://dc.lft.to/lastmile_qr_scan", "android": "https://dc.lft.to/lastmile_qr_scan"}, "lon": -77.03233033333333, "bike_id": "f1d8b8d57fd925317a76440f7049f0d1", "type": "electric_scooter", "name": "f1d8b8d57fd925317a76440f7049f0d1"}, {"is_disabled": 0, "is_reserved": 0, "fusion_lat": 0.0, "lat": 38.93701083333333, "fusion_lon": 0.0, "rental_uris": {"ios": "https://dc.lft.to/lastmile_qr_scan", "android": "https://dc.lft.to/lastmile_qr_scan"}, "lon": -77.05684816666667, "bike_id": "904346ae8ecccb8440067ff13f14656d", "type": "electric_scooter", "name": "904346ae8ecccb8440067ff13f14656d"}, {"is_disabled": 0, "is_reserved": 0, "fusion_lat": 0.0, "lat": 38.917999, "fusion_lon": 0.0, "rental_uris": {"ios": "https://dc.lft.to/lastmile_qr_scan", "android": "https://dc.lft.to/lastmile_qr_scan"}, "lon": -77.02492083333334, "bike_id": "55562c9a3c49f70a8babdd1aef2be422", "type": "electric_scooter", "name": "55562c9a3c49f70a8babdd1aef2be422"}, {"is_disabled": 0, "is_reserved": 0, "fusion_lat": 0.0, "lat": 38.925234833333334, "fusion_lon": 0.0, "rental_uris": {"ios": "https://dc.lft.to/lastmile_qr_scan", "android": "https://dc.lft.to/lastmile_qr_scan"}, "lon": -77.04108933333333, "bike_id": "bdf9ab94b7262fc0f20d56e3c200c9b2", "type": "electric_scooter", "name": "bdf9ab94b7262fc0f20d56e3c200c9b2"}, {"is_disabled": 0, "is_reserved": 0, "fusion_lat": 0.0, "lat": 38.91456066666667, "fusion_lon": 0.0, "rental_uris": {"ios": "https://dc.lft.to/lastmile_qr_scan", "android": "https://dc.lft.to/lastmile_qr_scan"}, "lon": -77.02694933333333, "bike_id": "c3c61d2915e50c8ec4b1ab9ff38ee3bc", "type": "electric_scooter", "name": "c3c61d2915e50c8ec4b1ab9ff38ee3bc"}, {"is_disabled": 0, "is_reserved": 0, "fusion_lat": 0.0, "lat": 38.914936, "fusion_lon": 0.0, "rental_uris": {"ios": "https://dc.lft.to/lastmile_qr_scan", "android": "https://dc.lft.to/lastmile_qr_scan"}, "lon": -77.04945066666667, "bike_id": "91ab82d6a4cb3155c4f79f7e036e8cd5", "type": "electric_scooter", "name": "91ab82d6a4cb3155c4f79f7e036e8cd5"}, {"is_disabled": 0, "is_reserved": 0, "fusion_lat": 0.0, "lat": 38.916825, "fusion_lon": 0.0, "rental_uris": {"ios": "https://dc.lft.to/lastmile_qr_scan", "android": "https://dc.lft.to/lastmile_qr_scan"}, "lon": -77.025534, "bike_id": "07fd8f9dd4da4738244c8a0c41655301", "type": "electric_scooter", "name": "07fd8f9dd4da4738244c8a0c41655301"}, {"is_disabled": 0, "is_reserved": 0, "fusion_lat": 0.0, "lat": 38.89413416666667, "fusion_lon": 0.0, "rental_uris": {"ios": "https://dc.lft.to/lastmile_qr_scan", "android": "https://dc.lft.to/lastmile_qr_scan"}, "lon": -77.02129566666666, "bike_id": "56257f56e49ab06f2ac398cc16209636", "type": "electric_scooter", "name": "56257f56e49ab06f2ac398cc16209636"}, {"is_disabled": 0, "is_reserved": 0, "fusion_lat": 0.0, "lat": 38.905323, "fusion_lon": 0.0, "rental_uris": {"ios": "https://dc.lft.to/lastmile_qr_scan", "android": "https://dc.lft.to/lastmile_qr_scan"}, "lon": -77.06102383333334, "bike_id": "e203213e5e4d72221a778c2f51123456", "type": "electric_scooter", "name": "e203213e5e4d72221a778c2f51123456"}, {"is_disabled": 0, "is_reserved": 0, "fusion_lat": 0.0, "lat": 38.8953165, "fusion_lon": 0.0, "rental_uris": {"ios": "https://dc.lft.to/lastmile_qr_scan", "android": "https://dc.lft.to/lastmile_qr_scan"}, "lon": -76.94891983333333, "bike_id": "ed341921c5facc77b44d8f628d7502eb", "type": "electric_scooter", "name": "ed341921c5facc77b44d8f628d7502eb"}, {"is_disabled": 0, "is_reserved": 0, "fusion_lat": 0.0, "lat": 38.939546, "fusion_lon": 0.0, "rental_uris": {"ios": "https://dc.lft.to/lastmile_qr_scan", "android": "https://dc.lft.to/lastmile_qr_scan"}, "lon": -77.07239283333334, "bike_id": "dc8d74f6db9608ccb9a2120599abca88", "type": "electric_scooter", "name": "dc8d74f6db9608ccb9a2120599abca88"}, {"is_disabled": 0, "is_reserved": 0, "fusion_lat": 0.0, "lat": 38.964997833333335, "fusion_lon": 0.0, "rental_uris": {"ios": "https://dc.lft.to/lastmile_qr_scan", "android": "https://dc.lft.to/lastmile_qr_scan"}, "lon": -77.06282833333333, "bike_id": "ffb729c5ad8d4cbb849efba050737a00", "type": "electric_scooter", "name": "ffb729c5ad8d4cbb849efba050737a00"}, {"is_disabled": 0, "is_reserved": 0, "fusion_lat": 0.0, "lat": 38.8841785, "fusion_lon": 0.0, "rental_uris": {"ios": "https://dc.lft.to/lastmile_qr_scan", "android": "https://dc.lft.to/lastmile_qr_scan"}, "lon": -77.03003116666666, "bike_id": "89863c73963f1f74f585a99bf9bff457", "type": "electric_scooter", "name": "89863c73963f1f74f585a99bf9bff457"}, {"is_disabled": 0, "is_reserved": 0, "fusion_lat": 0.0, "lat": 38.90235533333333, "fusion_lon": 0.0, "rental_uris": {"ios": "https://dc.lft.to/lastmile_qr_scan", "android": "https://dc.lft.to/lastmile_qr_scan"}, "lon": -77.00062783333334, "bike_id": "eb2e16d7c362f27ded38c83e05745d9e", "type": "electric_scooter", "name": "eb2e16d7c362f27ded38c83e05745d9e"}, {"is_disabled": 0, "is_reserved": 0, "fusion_lat": 0.0, "lat": 38.90854216666666, "fusion_lon": 0.0, "rental_uris": {"ios": "https://dc.lft.to/lastmile_qr_scan", "android": "https://dc.lft.to/lastmile_qr_scan"}, "lon": -77.03280016666666, "bike_id": "805f380a2d504b32bf319da66d422a77", "type": "electric_scooter", "name": "805f380a2d504b32bf319da66d422a77"}, {"is_disabled": 0, "is_reserved": 0, "fusion_lat": 0.0, "lat": 38.89820516666666, "fusion_lon": 0.0, "rental_uris": {"ios": "https://dc.lft.to/lastmile_qr_scan", "android": "https://dc.lft.to/lastmile_qr_scan"}, "lon": -76.99271666666667, "bike_id": "74fea93204250e3de871dee73d56e577", "type": "electric_scooter", "name": "74fea93204250e3de871dee73d56e577"}, {"is_disabled": 0, "is_reserved": 0, "fusion_lat": 0.0, "lat": 38.87334833333333, "fusion_lon": 0.0, "rental_uris": {"ios": "https://dc.lft.to/lastmile_qr_scan", "android": "https://dc.lft.to/lastmile_qr_scan"}, "lon": -77.00065983333333, "bike_id": "35c7099f55447d49e9af4a03e09e7b4c", "type": "electric_scooter", "name": "35c7099f55447d49e9af4a03e09e7b4c"}, {"is_disabled": 0, "is_reserved": 0, "fusion_lat": 0.0, "lat": 38.9355395, "fusion_lon": 0.0, "rental_uris": {"ios": "https://dc.lft.to/lastmile_qr_scan", "android": "https://dc.lft.to/lastmile_qr_scan"}, "lon": -77.07702416666666, "bike_id": "eb402bd99e9fa223015eac3516d5a155", "type": "electric_scooter", "name": "eb402bd99e9fa223015eac3516d5a155"}, {"is_disabled": 0, "is_reserved": 0, "fusion_lat": 0.0, "lat": 38.871174833333335, "fusion_lon": 0.0, "rental_uris": {"ios": "https://dc.lft.to/lastmile_qr_scan", "android": "https://dc.lft.to/lastmile_qr_scan"}, "lon": -77.007512, "bike_id": "f7fe70a0f4c3672004d400aeb3e11105", "type": "electric_scooter", "name": "f7fe70a0f4c3672004d400aeb3e11105"}, {"is_disabled": 0, "is_reserved": 0, "fusion_lat": 0.0, "lat": 38.8980235, "fusion_lon": 0.0, "rental_uris": {"ios": "https://dc.lft.to/lastmile_qr_scan", "android": "https://dc.lft.to/lastmile_qr_scan"}, "lon": -77.04875766666666, "bike_id": "23841731aa3f6fea45fc70f7a310dc29", "type": "electric_scooter", "name": "23841731aa3f6fea45fc70f7a310dc29"}, {"is_disabled": 0, "is_reserved": 0, "fusion_lat": 0.0, "lat": 38.91936716666667, "fusion_lon": 0.0, "rental_uris": {"ios": "https://dc.lft.to/lastmile_qr_scan", "android": "https://dc.lft.to/lastmile_qr_scan"}, "lon": -77.02475783333334, "bike_id": "89e778c6f3852d93e640a044f05b14b7", "type": "electric_scooter", "name": "89e778c6f3852d93e640a044f05b14b7"}, {"is_disabled": 0, "is_reserved": 0, "fusion_lat": 0.0, "lat": 38.944632166666665, "fusion_lon": 0.0, "rental_uris": {"ios": "https://dc.lft.to/lastmile_qr_scan", "android": "https://dc.lft.to/lastmile_qr_scan"}, "lon": -77.00657266666667, "bike_id": "c167f416a98021d600560caa706e2d3e", "type": "electric_scooter", "name": "c167f416a98021d600560caa706e2d3e"}, {"is_disabled": 0, "is_reserved": 0, "fusion_lat": 0.0, "lat": 38.912141166666665, "fusion_lon": 0.0, "rental_uris": {"ios": "https://dc.lft.to/lastmile_qr_scan", "android": "https://dc.lft.to/lastmile_qr_scan"}, "lon": -77.0066095, "bike_id": "1983eb4695e8839f551ee82becb337ab", "type": "electric_scooter", "name": "1983eb4695e8839f551ee82becb337ab"}, {"is_disabled": 0, "is_reserved": 0, "fusion_lat": 0.0, "lat": 38.95432316666667, "fusion_lon": 0.0, "rental_uris": {"ios": "https://dc.lft.to/lastmile_qr_scan", "android": "https://dc.lft.to/lastmile_qr_scan"}, "lon": -77.01849183333333, "bike_id": "61c8995bdaa168a0a31be6469c64a633", "type": "electric_scooter", "name": "61c8995bdaa168a0a31be6469c64a633"}, {"is_disabled": 0, "is_reserved": 0, "fusion_lat": 0.0, "lat": 38.88772766666666, "fusion_lon": 0.0, "rental_uris": {"ios": "https://dc.lft.to/lastmile_qr_scan", "android": "https://dc.lft.to/lastmile_qr_scan"}, "lon": -76.93261416666667, "bike_id": "95bb1be85005d98eb762b835051f4631", "type": "electric_scooter", "name": "95bb1be85005d98eb762b835051f4631"}, {"is_disabled": 0, "is_reserved": 0, "fusion_lat": 0.0, "lat": 38.9836555, "fusion_lon": 0.0, "rental_uris": {"ios": "https://dc.lft.to/lastmile_qr_scan", "android": "https://dc.lft.to/lastmile_qr_scan"}, "lon": -76.98848633333333, "bike_id": "2064966d216491c85fec5c831ff525a4", "type": "electric_bike", "name": "2064966d216491c85fec5c831ff525a4"}, {"is_disabled": 0, "is_reserved": 0, "fusion_lat": 0.0, "lat": 38.910455, "fusion_lon": 0.0, "rental_uris": {"ios": "https://dc.lft.to/lastmile_qr_scan", "android": "https://dc.lft.to/lastmile_qr_scan"}, "lon": -77.042798, "bike_id": "8f1ae0ae4554bdda146e778d59540df6", "type": "electric_scooter", "name": "8f1ae0ae4554bdda146e778d59540df6"}, {"is_disabled": 0, "is_reserved": 0, "fusion_lat": 0.0, "lat": 38.911346333333334, "fusion_lon": 0.0, "rental_uris": {"ios": "https://dc.lft.to/lastmile_qr_scan", "android": "https://dc.lft.to/lastmile_qr_scan"}, "lon": -77.02812916666667, "bike_id": "1fa47056f51def9d9eea2e54e16fde28", "type": "electric_scooter", "name": "1fa47056f51def9d9eea2e54e16fde28"}, {"is_disabled": 0, "is_reserved": 0, "fusion_lat": 0.0, "lat": 38.88430483333333, "fusion_lon": 0.0, "rental_uris": {"ios": "https://dc.lft.to/lastmile_qr_scan", "android": "https://dc.lft.to/lastmile_qr_scan"}, "lon": -77.03038566666666, "bike_id": "a5d60213b80cb7255f3dafc4185b39d3", "type": "electric_scooter", "name": "a5d60213b80cb7255f3dafc4185b39d3"}, {"is_disabled": 0, "is_reserved": 0, "fusion_lat": 0.0, "lat": 38.900665333333336, "fusion_lon": 0.0, "rental_uris": {"ios": "https://dc.lft.to/lastmile_qr_scan", "android": "https://dc.lft.to/lastmile_qr_scan"}, "lon": -77.02179283333334, "bike_id": "0b8b124160c9908afeced46dfab90f87", "type": "electric_scooter", "name": "0b8b124160c9908afeced46dfab90f87"}, {"is_disabled": 0, "is_reserved": 0, "fusion_lat": 0.0, "lat": 38.8422605, "fusion_lon": 0.0, "rental_uris": {"ios": "https://dc.lft.to/lastmile_qr_scan", "android": "https://dc.lft.to/lastmile_qr_scan"}, "lon": -76.94892066666667, "bike_id": "b2f167e9ff907fceeb14ad64cb7388dd", "type": "electric_bike", "name": "b2f167e9ff907fceeb14ad64cb7388dd"}, {"is_disabled": 0, "is_reserved": 0, "fusion_lat": 0.0, "lat": 38.900447166666666, "fusion_lon": 0.0, "rental_uris": {"ios": "https://dc.lft.to/lastmile_qr_scan", "android": "https://dc.lft.to/lastmile_qr_scan"}, "lon": -77.055602, "bike_id": "c510e45db2f39132b23b667cf2ac496e", "type": "electric_bike", "name": "c510e45db2f39132b23b667cf2ac496e"}, {"is_disabled": 0, "is_reserved": 0, "fusion_lat": 0.0, "lat": 38.91831483333333, "fusion_lon": 0.0, "rental_uris": {"ios": "https://dc.lft.to/lastmile_qr_scan", "android": "https://dc.lft.to/lastmile_qr_scan"}, "lon": -77.041747, "bike_id": "6a1d736e242406cabd7d07d9f5215c88", "type": "electric_scooter", "name": "6a1d736e242406cabd7d07d9f5215c88"}, {"is_disabled": 0, "is_reserved": 0, "fusion_lat": 0.0, "lat": 38.89645016666667, "fusion_lon": 0.0, "rental_uris": {"ios": "https://dc.lft.to/lastmile_qr_scan", "android": "https://dc.lft.to/lastmile_qr_scan"}, "lon": -77.02677916666667, "bike_id": "df5b9c2293fd60216d6b9d3f037f3a95", "type": "electric_scooter", "name": "df5b9c2293fd60216d6b9d3f037f3a95"}, {"is_disabled": 0, "is_reserved": 0, "fusion_lat": 0.0, "lat": 38.90227016666667, "fusion_lon": 0.0, "rental_uris": {"ios": "https://dc.lft.to/lastmile_qr_scan", "android": "https://dc.lft.to/lastmile_qr_scan"}, "lon": -77.00062933333334, "bike_id": "6ff3a6cb7e01cf72e6750af33a62c9ee", "type": "electric_scooter", "name": "6ff3a6cb7e01cf72e6750af33a62c9ee"}, {"is_disabled": 0, "is_reserved": 0, "fusion_lat": 0.0, "lat": 38.916976166666664, "fusion_lon": 0.0, "rental_uris": {"ios": "https://dc.lft.to/lastmile_qr_scan", "android": "https://dc.lft.to/lastmile_qr_scan"}, "lon": -77.03846633333333, "bike_id": "0a3c7ff133ac8d3c1ebcb42389770176", "type": "electric_scooter", "name": "0a3c7ff133ac8d3c1ebcb42389770176"}, {"is_disabled": 0, "is_reserved": 0, "fusion_lat": 0.0, "lat": 38.93696933333333, "fusion_lon": 0.0, "rental_uris": {"ios": "https://dc.lft.to/lastmile_qr_scan", "android": "https://dc.lft.to/lastmile_qr_scan"}, "lon": -77.05598066666667, "bike_id": "0f2f4ac63adc8fadb037cf36726a2250", "type": "electric_scooter", "name": "0f2f4ac63adc8fadb037cf36726a2250"}, {"is_disabled": 0, "is_reserved": 0, "fusion_lat": 0.0, "lat": 38.9530405, "fusion_lon": 0.0, "rental_uris": {"ios": "https://dc.lft.to/lastmile_qr_scan", "android": "https://dc.lft.to/lastmile_qr_scan"}, "lon": -77.02032333333334, "bike_id": "d9e51a6470c96adb9b09caa9e3762d2d", "type": "electric_scooter", "name": "d9e51a6470c96adb9b09caa9e3762d2d"}, {"is_disabled": 0, "is_reserved": 0, "fusion_lat": 0.0, "lat": 38.91019633333333, "fusion_lon": 0.0, "rental_uris": {"ios": "https://dc.lft.to/lastmile_qr_scan", "android": "https://dc.lft.to/lastmile_qr_scan"}, "lon": -77.03853383333333, "bike_id": "12832a273da5dfda5594f1d88a5fb874", "type": "electric_scooter", "name": "12832a273da5dfda5594f1d88a5fb874"}, {"is_disabled": 0, "is_reserved": 0, "fusion_lat": 0.0, "lat": 38.899669, "fusion_lon": 0.0, "rental_uris": {"ios": "https://dc.lft.to/lastmile_qr_scan", "android": "https://dc.lft.to/lastmile_qr_scan"}, "lon": -76.9835085, "bike_id": "0b4ab3801f8c82eaff0a3f0798c4c274", "type": "electric_scooter", "name": "0b4ab3801f8c82eaff0a3f0798c4c274"}, {"is_disabled": 0, "is_reserved": 0, "fusion_lat": 0.0, "lat": 38.89984916666667, "fusion_lon": 0.0, "rental_uris": {"ios": "https://dc.lft.to/lastmile_qr_scan", "android": "https://dc.lft.to/lastmile_qr_scan"}, "lon": -76.99475, "bike_id": "22cfbfd173648b1ed4209dd102885e01", "type": "electric_bike", "name": "22cfbfd173648b1ed4209dd102885e01"}, {"is_disabled": 0, "is_reserved": 0, "fusion_lat": 0.0, "lat": 38.88583, "fusion_lon": 0.0, "rental_uris": {"ios": "https://dc.lft.to/lastmile_qr_scan", "android": "https://dc.lft.to/lastmile_qr_scan"}, "lon": -77.01226466666667, "bike_id": "ade8c86e2455216ddab1631e5b09bf57", "type": "electric_scooter", "name": "ade8c86e2455216ddab1631e5b09bf57"}, {"is_disabled": 0, "is_reserved": 0, "fusion_lat": 0.0, "lat": 38.90695383333333, "fusion_lon": 0.0, "rental_uris": {"ios": "https://dc.lft.to/lastmile_qr_scan", "android": "https://dc.lft.to/lastmile_qr_scan"}, "lon": -77.0628925, "bike_id": "3c7c0b70e3be48e8966f10e0816d6e6c", "type": "electric_scooter", "name": "3c7c0b70e3be48e8966f10e0816d6e6c"}, {"is_disabled": 0, "is_reserved": 0, "fusion_lat": 0.0, "lat": 38.953662666666666, "fusion_lon": 0.0, "rental_uris": {"ios": "https://dc.lft.to/lastmile_qr_scan", "android": "https://dc.lft.to/lastmile_qr_scan"}, "lon": -76.99848233333333, "bike_id": "3e7cb89d859a48fcea2ab4f43fcf5e55", "type": "electric_scooter", "name": "3e7cb89d859a48fcea2ab4f43fcf5e55"}, {"is_disabled": 0, "is_reserved": 0, "fusion_lat": 0.0, "lat": 38.90421933333333, "fusion_lon": 0.0, "rental_uris": {"ios": "https://dc.lft.to/lastmile_qr_scan", "android": "https://dc.lft.to/lastmile_qr_scan"}, "lon": -77.0240645, "bike_id": "4006106b29599bff8cd193bbae02b133", "type": "electric_scooter", "name": "4006106b29599bff8cd193bbae02b133"}, {"is_disabled": 0, "is_reserved": 0, "fusion_lat": 0.0, "lat": 38.92337783333333, "fusion_lon": 0.0, "rental_uris": {"ios": "https://dc.lft.to/lastmile_qr_scan", "android": "https://dc.lft.to/lastmile_qr_scan"}, "lon": -76.98486566666666, "bike_id": "0cd8dde5cecb6a380cd7c354ce75f694", "type": "electric_scooter", "name": "0cd8dde5cecb6a380cd7c354ce75f694"}, {"is_disabled": 0, "is_reserved": 0, "fusion_lat": 0.0, "lat": 38.86816733333333, "fusion_lon": 0.0, "rental_uris": {"ios": "https://dc.lft.to/lastmile_qr_scan", "android": "https://dc.lft.to/lastmile_qr_scan"}, "lon": -76.98022383333333, "bike_id": "cdff578554a5e758e550be6c4dc18122", "type": "electric_bike", "name": "cdff578554a5e758e550be6c4dc18122"}, {"is_disabled": 0, "is_reserved": 0, "fusion_lat": 0.0, "lat": 38.9314605, "fusion_lon": 0.0, "rental_uris": {"ios": "https://dc.lft.to/lastmile_qr_scan", "android": "https://dc.lft.to/lastmile_qr_scan"}, "lon": -77.029837, "bike_id": "cb50c2be365b71d4a348809da2760049", "type": "electric_scooter", "name": "cb50c2be365b71d4a348809da2760049"}, {"is_disabled": 0, "is_reserved": 0, "fusion_lat": 0.0, "lat": 38.8737035, "fusion_lon": 0.0, "rental_uris": {"ios": "https://dc.lft.to/lastmile_qr_scan", "android": "https://dc.lft.to/lastmile_qr_scan"}, "lon": -77.0095205, "bike_id": "ee29257b77b6c1a431adcbb06131cf45", "type": "electric_scooter", "name": "ee29257b77b6c1a431adcbb06131cf45"}, {"is_disabled": 0, "is_reserved": 0, "fusion_lat": 0.0, "lat": 38.8966845, "fusion_lon": 0.0, "rental_uris": {"ios": "https://dc.lft.to/lastmile_qr_scan", "android": "https://dc.lft.to/lastmile_qr_scan"}, "lon": -76.93210433333333, "bike_id": "3fce80525d5d18f6c3e4a232bfc41b2f", "type": "electric_scooter", "name": "3fce80525d5d18f6c3e4a232bfc41b2f"}, {"is_disabled": 0, "is_reserved": 0, "fusion_lat": 0.0, "lat": 38.915947, "fusion_lon": 0.0, "rental_uris": {"ios": "https://dc.lft.to/lastmile_qr_scan", "android": "https://dc.lft.to/lastmile_qr_scan"}, "lon": -77.0320655, "bike_id": "250e07846c7980445377259bc487a16e", "type": "electric_scooter", "name": "250e07846c7980445377259bc487a16e"}, {"is_disabled": 0, "is_reserved": 0, "fusion_lat": 0.0, "lat": 38.892249166666666, "fusion_lon": 0.0, "rental_uris": {"ios": "https://dc.lft.to/lastmile_qr_scan", "android": "https://dc.lft.to/lastmile_qr_scan"}, "lon": -77.0464005, "bike_id": "34d473a1e1016b9de22dcfc2625c2ecb", "type": "electric_scooter", "name": "34d473a1e1016b9de22dcfc2625c2ecb"}, {"is_disabled": 0, "is_reserved": 0, "fusion_lat": 0.0, "lat": 38.94305033333333, "fusion_lon": 0.0, "rental_uris": {"ios": "https://dc.lft.to/lastmile_qr_scan", "android": "https://dc.lft.to/lastmile_qr_scan"}, "lon": -77.0252945, "bike_id": "1296597680a65e63fdb9e9336ec07eb7", "type": "electric_scooter", "name": "1296597680a65e63fdb9e9336ec07eb7"}, {"is_disabled": 0, "is_reserved": 0, "fusion_lat": 0.0, "lat": 38.8836055, "fusion_lon": 0.0, "rental_uris": {"ios": "https://dc.lft.to/lastmile_qr_scan", "android": "https://dc.lft.to/lastmile_qr_scan"}, "lon": -76.92790033333333, "bike_id": "04116e43a7979a86e631b8b463c1109f", "type": "electric_scooter", "name": "04116e43a7979a86e631b8b463c1109f"}, {"is_disabled": 0, "is_reserved": 0, "fusion_lat": 0.0, "lat": 38.9028085, "fusion_lon": 0.0, "rental_uris": {"ios": "https://dc.lft.to/lastmile_qr_scan", "android": "https://dc.lft.to/lastmile_qr_scan"}, "lon": -77.034274, "bike_id": "66e3ed8d6e306fa658c9ad0a8365738d", "type": "electric_scooter", "name": "66e3ed8d6e306fa658c9ad0a8365738d"}, {"is_disabled": 0, "is_reserved": 0, "fusion_lat": 0.0, "lat": 38.9127475, "fusion_lon": 0.0, "rental_uris": {"ios": "https://dc.lft.to/lastmile_qr_scan", "android": "https://dc.lft.to/lastmile_qr_scan"}, "lon": -77.03144733333333, "bike_id": "786c2eb40e7ed116ed2f6d178adcb9a7", "type": "electric_scooter", "name": "786c2eb40e7ed116ed2f6d178adcb9a7"}, {"is_disabled": 0, "is_reserved": 0, "fusion_lat": 0.0, "lat": 38.919155333333336, "fusion_lon": 0.0, "rental_uris": {"ios": "https://dc.lft.to/lastmile_qr_scan", "android": "https://dc.lft.to/lastmile_qr_scan"}, "lon": -77.048025, "bike_id": "7e42e5dbf9df1ce85706e0b052da6b6c", "type": "electric_scooter", "name": "7e42e5dbf9df1ce85706e0b052da6b6c"}, {"is_disabled": 0, "is_reserved": 0, "fusion_lat": 0.0, "lat": 38.91784083333334, "fusion_lon": 0.0, "rental_uris": {"ios": "https://dc.lft.to/lastmile_qr_scan", "android": "https://dc.lft.to/lastmile_qr_scan"}, "lon": -77.03183133333333, "bike_id": "270da6b590384945ebce6d12c0c3e08b", "type": "electric_scooter", "name": "270da6b590384945ebce6d12c0c3e08b"}, {"is_disabled": 0, "is_reserved": 0, "fusion_lat": 0.0, "lat": 38.8922355, "fusion_lon": 0.0, "rental_uris": {"ios": "https://dc.lft.to/lastmile_qr_scan", "android": "https://dc.lft.to/lastmile_qr_scan"}, "lon": -77.04458866666667, "bike_id": "2d40c975b1016147057595d886089a2d", "type": "electric_scooter", "name": "2d40c975b1016147057595d886089a2d"}, {"is_disabled": 0, "is_reserved": 0, "fusion_lat": 0.0, "lat": 38.92867533333333, "fusion_lon": 0.0, "rental_uris": {"ios": "https://dc.lft.to/lastmile_qr_scan", "android": "https://dc.lft.to/lastmile_qr_scan"}, "lon": -77.0789045, "bike_id": "38125e57da587ae7ce8fb1a00d3efd6c", "type": "electric_scooter", "name": "38125e57da587ae7ce8fb1a00d3efd6c"}, {"is_disabled": 0, "is_reserved": 0, "fusion_lat": 0.0, "lat": 38.90265433333333, "fusion_lon": 0.0, "rental_uris": {"ios": "https://dc.lft.to/lastmile_qr_scan", "android": "https://dc.lft.to/lastmile_qr_scan"}, "lon": -76.928499, "bike_id": "9f446f9860109fe19db2bd302d68b708", "type": "electric_scooter", "name": "9f446f9860109fe19db2bd302d68b708"}, {"is_disabled": 0, "is_reserved": 0, "fusion_lat": 0.0, "lat": 38.87640533333333, "fusion_lon": 0.0, "rental_uris": {"ios": "https://dc.lft.to/lastmile_qr_scan", "android": "https://dc.lft.to/lastmile_qr_scan"}, "lon": -77.00822583333333, "bike_id": "85bd1cca64d4472685fd89a10c127a6d", "type": "electric_scooter", "name": "85bd1cca64d4472685fd89a10c127a6d"}, {"is_disabled": 0, "is_reserved": 0, "fusion_lat": 0.0, "lat": 38.96425516666667, "fusion_lon": 0.0, "rental_uris": {"ios": "https://dc.lft.to/lastmile_qr_scan", "android": "https://dc.lft.to/lastmile_qr_scan"}, "lon": -77.02421883333334, "bike_id": "43a57ad4fd0d7ace59eb4804bcca3638", "type": "electric_bike", "name": "43a57ad4fd0d7ace59eb4804bcca3638"}, {"is_disabled": 0, "is_reserved": 0, "fusion_lat": 0.0, "lat": 38.876445, "fusion_lon": 0.0, "rental_uris": {"ios": "https://dc.lft.to/lastmile_qr_scan", "android": "https://dc.lft.to/lastmile_qr_scan"}, "lon": -77.007713, "bike_id": "81ce1751e8bceeafe0b0bae8b1d6efd0", "type": "electric_scooter", "name": "81ce1751e8bceeafe0b0bae8b1d6efd0"}, {"is_disabled": 0, "is_reserved": 0, "fusion_lat": 0.0, "lat": 38.91748183333333, "fusion_lon": 0.0, "rental_uris": {"ios": "https://dc.lft.to/lastmile_qr_scan", "android": "https://dc.lft.to/lastmile_qr_scan"}, "lon": -77.02803283333333, "bike_id": "75e52fbc61f9c22edfa0d433d7637000", "type": "electric_scooter", "name": "75e52fbc61f9c22edfa0d433d7637000"}, {"is_disabled": 0, "is_reserved": 0, "fusion_lat": 0.0, "lat": 38.88712866666667, "fusion_lon": 0.0, "rental_uris": {"ios": "https://dc.lft.to/lastmile_qr_scan", "android": "https://dc.lft.to/lastmile_qr_scan"}, "lon": -76.98381366666666, "bike_id": "0bd22164eb548b2d24ea595c814c8901", "type": "electric_scooter", "name": "0bd22164eb548b2d24ea595c814c8901"}, {"is_disabled": 0, "is_reserved": 0, "fusion_lat": 0.0, "lat": 38.901854666666665, "fusion_lon": 0.0, "rental_uris": {"ios": "https://dc.lft.to/lastmile_qr_scan", "android": "https://dc.lft.to/lastmile_qr_scan"}, "lon": -76.97671883333334, "bike_id": "0a47ea916a16a455f4192b8da01122ee", "type": "electric_scooter", "name": "0a47ea916a16a455f4192b8da01122ee"}, {"is_disabled": 0, "is_reserved": 0, "fusion_lat": 0.0, "lat": 38.920611666666666, "fusion_lon": 0.0, "rental_uris": {"ios": "https://dc.lft.to/lastmile_qr_scan", "android": "https://dc.lft.to/lastmile_qr_scan"}, "lon": -77.02558716666667, "bike_id": "905e4a2cbe2ce5feb067037b44988314", "type": "electric_scooter", "name": "905e4a2cbe2ce5feb067037b44988314"}, {"is_disabled": 0, "is_reserved": 0, "fusion_lat": 0.0, "lat": 38.90080583333334, "fusion_lon": 0.0, "rental_uris": {"ios": "https://dc.lft.to/lastmile_qr_scan", "android": "https://dc.lft.to/lastmile_qr_scan"}, "lon": -77.05008766666667, "bike_id": "ce4aba7e8d1f35cf2a3f692bd9f6bc11", "type": "electric_scooter", "name": "ce4aba7e8d1f35cf2a3f692bd9f6bc11"}, {"is_disabled": 0, "is_reserved": 0, "fusion_lat": 0.0, "lat": 38.87665916666667, "fusion_lon": 0.0, "rental_uris": {"ios": "https://dc.lft.to/lastmile_qr_scan", "android": "https://dc.lft.to/lastmile_qr_scan"}, "lon": -77.00889966666666, "bike_id": "e1a88c8d877ade1f9efc101b07dd41be", "type": "electric_scooter", "name": "e1a88c8d877ade1f9efc101b07dd41be"}, {"is_disabled": 0, "is_reserved": 0, "fusion_lat": 0.0, "lat": 38.921783, "fusion_lon": 0.0, "rental_uris": {"ios": "https://dc.lft.to/lastmile_qr_scan", "android": "https://dc.lft.to/lastmile_qr_scan"}, "lon": -77.03831, "bike_id": "8c1247da1be98ba4ba68d77930071d36", "type": "electric_scooter", "name": "8c1247da1be98ba4ba68d77930071d36"}, {"is_disabled": 0, "is_reserved": 0, "fusion_lat": 0.0, "lat": 38.86889033333333, "fusion_lon": 0.0, "rental_uris": {"ios": "https://dc.lft.to/lastmile_qr_scan", "android": "https://dc.lft.to/lastmile_qr_scan"}, "lon": -76.99002433333334, "bike_id": "d64ab71bad2a4c381c0a3496d006e734", "type": "electric_scooter", "name": "d64ab71bad2a4c381c0a3496d006e734"}, {"is_disabled": 0, "is_reserved": 0, "fusion_lat": 0.0, "lat": 38.881238833333335, "fusion_lon": 0.0, "rental_uris": {"ios": "https://dc.lft.to/lastmile_qr_scan", "android": "https://dc.lft.to/lastmile_qr_scan"}, "lon": -77.01480933333333, "bike_id": "dd4ca98d3a466758959c514127245bcb", "type": "electric_scooter", "name": "dd4ca98d3a466758959c514127245bcb"}, {"is_disabled": 0, "is_reserved": 0, "fusion_lat": 0.0, "lat": 38.9017255, "fusion_lon": 0.0, "rental_uris": {"ios": "https://dc.lft.to/lastmile_qr_scan", "android": "https://dc.lft.to/lastmile_qr_scan"}, "lon": -76.9983585, "bike_id": "dd23205b5d2fa8ce2fdc8c330ac1343a", "type": "electric_scooter", "name": "dd23205b5d2fa8ce2fdc8c330ac1343a"}, {"is_disabled": 0, "is_reserved": 0, "fusion_lat": 0.0, "lat": 38.919882666666666, "fusion_lon": 0.0, "rental_uris": {"ios": "https://dc.lft.to/lastmile_qr_scan", "android": "https://dc.lft.to/lastmile_qr_scan"}, "lon": -76.97301216666666, "bike_id": "37d22a17258060eca561cde1fc335cca", "type": "electric_scooter", "name": "37d22a17258060eca561cde1fc335cca"}, {"is_disabled": 0, "is_reserved": 0, "fusion_lat": 0.0, "lat": 38.894054833333335, "fusion_lon": 0.0, "rental_uris": {"ios": "https://dc.lft.to/lastmile_qr_scan", "android": "https://dc.lft.to/lastmile_qr_scan"}, "lon": -76.97816983333334, "bike_id": "8174ae3dfba2599c5503ea2baa2b7d17", "type": "electric_scooter", "name": "8174ae3dfba2599c5503ea2baa2b7d17"}, {"is_disabled": 0, "is_reserved": 0, "fusion_lat": 0.0, "lat": 38.905613, "fusion_lon": 0.0, "rental_uris": {"ios": "https://dc.lft.to/lastmile_qr_scan", "android": "https://dc.lft.to/lastmile_qr_scan"}, "lon": -77.04654866666667, "bike_id": "ed2808cfb240577594bfee523e61d075", "type": "electric_scooter", "name": "ed2808cfb240577594bfee523e61d075"}, {"is_disabled": 0, "is_reserved": 0, "fusion_lat": 0.0, "lat": 38.89830666666667, "fusion_lon": 0.0, "rental_uris": {"ios": "https://dc.lft.to/lastmile_qr_scan", "android": "https://dc.lft.to/lastmile_qr_scan"}, "lon": -77.02807966666667, "bike_id": "29cddd0cb0cfc8fbf6aeee7afc77edf1", "type": "electric_scooter", "name": "29cddd0cb0cfc8fbf6aeee7afc77edf1"}, {"is_disabled": 0, "is_reserved": 0, "fusion_lat": 0.0, "lat": 38.91566233333333, "fusion_lon": 0.0, "rental_uris": {"ios": "https://dc.lft.to/lastmile_qr_scan", "android": "https://dc.lft.to/lastmile_qr_scan"}, "lon": -77.03143, "bike_id": "33df0229088d193759727c1b56fe8d20", "type": "electric_scooter", "name": "33df0229088d193759727c1b56fe8d20"}, {"is_disabled": 0, "is_reserved": 0, "fusion_lat": 0.0, "lat": 38.8427785, "fusion_lon": 0.0, "rental_uris": {"ios": "https://dc.lft.to/lastmile_qr_scan", "android": "https://dc.lft.to/lastmile_qr_scan"}, "lon": -76.98839816666667, "bike_id": "77c79d94b64e44131f2c076b9840c26c", "type": "electric_bike", "name": "77c79d94b64e44131f2c076b9840c26c"}, {"is_disabled": 0, "is_reserved": 0, "fusion_lat": 0.0, "lat": 38.916533666666666, "fusion_lon": 0.0, "rental_uris": {"ios": "https://dc.lft.to/lastmile_qr_scan", "android": "https://dc.lft.to/lastmile_qr_scan"}, "lon": -77.03194166666667, "bike_id": "bf8d32c135bdd0136086c092f321547c", "type": "electric_scooter", "name": "bf8d32c135bdd0136086c092f321547c"}, {"is_disabled": 0, "is_reserved": 0, "fusion_lat": 0.0, "lat": 38.873455166666666, "fusion_lon": 0.0, "rental_uris": {"ios": "https://dc.lft.to/lastmile_qr_scan", "android": "https://dc.lft.to/lastmile_qr_scan"}, "lon": -77.00069766666667, "bike_id": "ff65ed20c3cddf86147e31a70a57a974", "type": "electric_scooter", "name": "ff65ed20c3cddf86147e31a70a57a974"}, {"is_disabled": 0, "is_reserved": 0, "fusion_lat": 0.0, "lat": 38.924151333333334, "fusion_lon": 0.0, "rental_uris": {"ios": "https://dc.lft.to/lastmile_qr_scan", "android": "https://dc.lft.to/lastmile_qr_scan"}, "lon": -77.03542233333333, "bike_id": "3c0c0fc7079dab8868591692269da383", "type": "electric_scooter", "name": "3c0c0fc7079dab8868591692269da383"}, {"is_disabled": 0, "is_reserved": 0, "fusion_lat": 0.0, "lat": 38.90648916666667, "fusion_lon": 0.0, "rental_uris": {"ios": "https://dc.lft.to/lastmile_qr_scan", "android": "https://dc.lft.to/lastmile_qr_scan"}, "lon": -77.04551566666666, "bike_id": "63960dd404446ffdd987afed2fb92522", "type": "electric_scooter", "name": "63960dd404446ffdd987afed2fb92522"}, {"is_disabled": 0, "is_reserved": 0, "fusion_lat": 0.0, "lat": 38.912576333333334, "fusion_lon": 0.0, "rental_uris": {"ios": "https://dc.lft.to/lastmile_qr_scan", "android": "https://dc.lft.to/lastmile_qr_scan"}, "lon": -77.0459385, "bike_id": "d8eaab81023dabd8bf7b784b54a7ddc8", "type": "electric_scooter", "name": "d8eaab81023dabd8bf7b784b54a7ddc8"}, {"is_disabled": 0, "is_reserved": 0, "fusion_lat": 0.0, "lat": 38.9056905, "fusion_lon": 0.0, "rental_uris": {"ios": "https://dc.lft.to/lastmile_qr_scan", "android": "https://dc.lft.to/lastmile_qr_scan"}, "lon": -77.01722133333334, "bike_id": "bab3cea42495824cb766821a8fcbcdc3", "type": "electric_scooter", "name": "bab3cea42495824cb766821a8fcbcdc3"}, {"is_disabled": 0, "is_reserved": 0, "fusion_lat": 0.0, "lat": 38.924068, "fusion_lon": 0.0, "rental_uris": {"ios": "https://dc.lft.to/lastmile_qr_scan", "android": "https://dc.lft.to/lastmile_qr_scan"}, "lon": -77.05166583333333, "bike_id": "6bcde6ca4e0ae34ec164bf85be3ae20d", "type": "electric_scooter", "name": "6bcde6ca4e0ae34ec164bf85be3ae20d"}, {"is_disabled": 0, "is_reserved": 0, "fusion_lat": 0.0, "lat": 38.90038766666667, "fusion_lon": 0.0, "rental_uris": {"ios": "https://dc.lft.to/lastmile_qr_scan", "android": "https://dc.lft.to/lastmile_qr_scan"}, "lon": -76.99501583333333, "bike_id": "1d69170d32ef03076c372ef4be529056", "type": "electric_scooter", "name": "1d69170d32ef03076c372ef4be529056"}, {"is_disabled": 0, "is_reserved": 0, "fusion_lat": 0.0, "lat": 38.9305705, "fusion_lon": 0.0, "rental_uris": {"ios": "https://dc.lft.to/lastmile_qr_scan", "android": "https://dc.lft.to/lastmile_qr_scan"}, "lon": -77.031915, "bike_id": "d56b8d23703960adcdeda744225b6264", "type": "electric_scooter", "name": "d56b8d23703960adcdeda744225b6264"}, {"is_disabled": 0, "is_reserved": 0, "fusion_lat": 0.0, "lat": 38.908259666666666, "fusion_lon": 0.0, "rental_uris": {"ios": "https://dc.lft.to/lastmile_qr_scan", "android": "https://dc.lft.to/lastmile_qr_scan"}, "lon": -77.03860133333333, "bike_id": "8b319b10fdc0765d64cf2481a4440b70", "type": "electric_bike", "name": "8b319b10fdc0765d64cf2481a4440b70"}, {"is_disabled": 0, "is_reserved": 0, "fusion_lat": 0.0, "lat": 38.945904166666665, "fusion_lon": 0.0, "rental_uris": {"ios": "https://dc.lft.to/lastmile_qr_scan", "android": "https://dc.lft.to/lastmile_qr_scan"}, "lon": -77.02035116666667, "bike_id": "bb87d7835ef12c6b29d88793f7120e33", "type": "electric_scooter", "name": "bb87d7835ef12c6b29d88793f7120e33"}, {"is_disabled": 0, "is_reserved": 0, "fusion_lat": 0.0, "lat": 38.909494333333335, "fusion_lon": 0.0, "rental_uris": {"ios": "https://dc.lft.to/lastmile_qr_scan", "android": "https://dc.lft.to/lastmile_qr_scan"}, "lon": -77.03203166666667, "bike_id": "4b6e34d6025b81a29c6a179844863356", "type": "electric_scooter", "name": "4b6e34d6025b81a29c6a179844863356"}, {"is_disabled": 0, "is_reserved": 0, "fusion_lat": 0.0, "lat": 38.902288166666665, "fusion_lon": 0.0, "rental_uris": {"ios": "https://dc.lft.to/lastmile_qr_scan", "android": "https://dc.lft.to/lastmile_qr_scan"}, "lon": -77.00061633333334, "bike_id": "e2c141ef6bbb2f75ebf4764fd16d166c", "type": "electric_scooter", "name": "e2c141ef6bbb2f75ebf4764fd16d166c"}, {"is_disabled": 0, "is_reserved": 0, "fusion_lat": 0.0, "lat": 38.9182695, "fusion_lon": 0.0, "rental_uris": {"ios": "https://dc.lft.to/lastmile_qr_scan", "android": "https://dc.lft.to/lastmile_qr_scan"}, "lon": -77.04171233333334, "bike_id": "ec2af1005e6894fdc4d9b4d9fd24dde4", "type": "electric_scooter", "name": "ec2af1005e6894fdc4d9b4d9fd24dde4"}, {"is_disabled": 0, "is_reserved": 0, "fusion_lat": 0.0, "lat": 38.89730333333333, "fusion_lon": 0.0, "rental_uris": {"ios": "https://dc.lft.to/lastmile_qr_scan", "android": "https://dc.lft.to/lastmile_qr_scan"}, "lon": -77.04989533333334, "bike_id": "5904fdade38f236517202b258a945216", "type": "electric_scooter", "name": "5904fdade38f236517202b258a945216"}, {"is_disabled": 0, "is_reserved": 0, "fusion_lat": 0.0, "lat": 38.916940333333336, "fusion_lon": 0.0, "rental_uris": {"ios": "https://dc.lft.to/lastmile_qr_scan", "android": "https://dc.lft.to/lastmile_qr_scan"}, "lon": -77.02721183333334, "bike_id": "5ecd532b1a8e284af211615eed310133", "type": "electric_scooter", "name": "5ecd532b1a8e284af211615eed310133"}, {"is_disabled": 0, "is_reserved": 0, "fusion_lat": 0.0, "lat": 39.000002, "fusion_lon": 0.0, "rental_uris": {"ios": "https://dc.lft.to/lastmile_qr_scan", "android": "https://dc.lft.to/lastmile_qr_scan"}, "lon": -76.91804533333334, "bike_id": "c6c7c8b6305b4bca07165a704efba258", "type": "electric_bike", "name": "c6c7c8b6305b4bca07165a704efba258"}, {"is_disabled": 0, "is_reserved": 0, "fusion_lat": 0.0, "lat": 38.87105833333333, "fusion_lon": 0.0, "rental_uris": {"ios": "https://dc.lft.to/lastmile_qr_scan", "android": "https://dc.lft.to/lastmile_qr_scan"}, "lon": -77.00793366666667, "bike_id": "e55cd7d0a531bae06d890b78b6386eb8", "type": "electric_scooter", "name": "e55cd7d0a531bae06d890b78b6386eb8"}, {"is_disabled": 0, "is_reserved": 0, "fusion_lat": 0.0, "lat": 38.9026935, "fusion_lon": 0.0, "rental_uris": {"ios": "https://dc.lft.to/lastmile_qr_scan", "android": "https://dc.lft.to/lastmile_qr_scan"}, "lon": -77.01740016666666, "bike_id": "b751314ec3113e6b69ad55e76c84e58b", "type": "electric_scooter", "name": "b751314ec3113e6b69ad55e76c84e58b"}, {"is_disabled": 0, "is_reserved": 0, "fusion_lat": 0.0, "lat": 38.876797333333336, "fusion_lon": 0.0, "rental_uris": {"ios": "https://dc.lft.to/lastmile_qr_scan", "android": "https://dc.lft.to/lastmile_qr_scan"}, "lon": -77.00047383333333, "bike_id": "6279bdd19f674fbe509a8a122bdfbdf6", "type": "electric_scooter", "name": "6279bdd19f674fbe509a8a122bdfbdf6"}, {"is_disabled": 0, "is_reserved": 0, "fusion_lat": 0.0, "lat": 38.90188083333334, "fusion_lon": 0.0, "rental_uris": {"ios": "https://dc.lft.to/lastmile_qr_scan", "android": "https://dc.lft.to/lastmile_qr_scan"}, "lon": -76.99957166666667, "bike_id": "0d08a6c3fd47edf5a3be3650783e0836", "type": "electric_scooter", "name": "0d08a6c3fd47edf5a3be3650783e0836"}, {"is_disabled": 0, "is_reserved": 0, "fusion_lat": 0.0, "lat": 38.91409483333333, "fusion_lon": 0.0, "rental_uris": {"ios": "https://dc.lft.to/lastmile_qr_scan", "android": "https://dc.lft.to/lastmile_qr_scan"}, "lon": -77.0326045, "bike_id": "87f5fd2c38ff9374ba298fa0f8005465", "type": "electric_scooter", "name": "87f5fd2c38ff9374ba298fa0f8005465"}, {"is_disabled": 0, "is_reserved": 0, "fusion_lat": 0.0, "lat": 38.807396833333335, "fusion_lon": 0.0, "rental_uris": {"ios": "https://dc.lft.to/lastmile_qr_scan", "android": "https://dc.lft.to/lastmile_qr_scan"}, "lon": -77.096843, "bike_id": "cb20a2e8bdad1d8556d5b03246c216e5", "type": "electric_bike", "name": "cb20a2e8bdad1d8556d5b03246c216e5"},